{"data": {"bikes": [{"type": "electric_bike", "name": "6d18f5a0c3f6bed8223de1d7f3018967", "rental_uris": {"ios": "https://dc.lft.to/lastmile_qr_scan", "android": "https://dc.lft.to/lastmile_qr_scan"}, "fusion_lon": 0.0, "lat": 38.855089166666666, "is_disabled": 0, "bike_id": "6d18f5a0c3f6bed8223de1d7f3018967", "fusion_lat": 0.0, "is_reserved": 0, "lon": -76.98429333333333}, {"type": "electric_scooter", "name": "4a61acd9af3ed200076447b06546ce08", "rental_uris": {"ios": "https://dc.lft.to/lastmile_qr_scan", "android": "https://dc.lft.to/lastmile_qr_scan"}, "fusion_lon": 0.0, "lat": 38.9084495, "is_disabled": 0, "bike_id": "4a61acd9af3ed200076447b06546ce08", "fusion_lat": 0.0, "is_reserved": 0, "lon": -77.04269616666667}, {"type": "electric_scooter", "name": "479ccc4d220eca9a13d9a220d66c5f52", "rental_uris": {"ios": "https://dc.lft.to/lastmile_qr_scan", "android": "https://dc.lft.to/lastmile_qr_scan"}, "fusion_lon": 0.0, "lat": 38.910528, "is_disabled": 0, "bike_id": "479ccc4d220eca9a13d9a220d66c5f52", "fusion_lat": 0.0, "is_reserved": 0, "lon": -76.98516283333333}, {"type": "electric_scooter", "name": "3a370dbb5f1be7922626d221adfd9a2c", "rental_uris": {"ios": "https://dc.lft.to/lastmile_qr_scan", "android": "https://dc.lft.to/lastmile_qr_scan"}, "fusion_lon": 0.0, "lat": 38.918294, "is_disabled": 0, "bike_id": "3a370dbb5f1be7922626d221adfd9a2c", "fusion_lat": 0.0, "is_reserved": 0, "lon": -77.0229635}, {"type": "electric_scooter", "name": "353afbb970248f6fd2d1c35ddb7f331b", "rental_uris": {"ios": "https://dc.lft.to/lastmile_qr_scan", "android": "https://dc.lft.to/lastmile_qr_scan"}, "fusion_lon": 0.0, "lat": 38.938561666666665, "is_disabled": 0, "bike_id": "353afbb970248f6fd2d1c35ddb7f331b", "fusion_lat": 0.0, "is_reserved": 0, "lon": -77.02628133333333}, {"type": "electric_scooter", "name": "ec50dc09d48d2c63a9605872a9d2d6eb", "rental_uris": {"ios": "https://dc.lft.to/lastmile_qr_scan", "android": "https://dc.lft.to/lastmile_qr_scan"}, "fusion_lon": 0.0, "lat": 38.939912666666665, "is_disabled": 0, "bike_id": "ec50dc09d48d2c63a9605872a9d2d6eb", "fusion_lat": 0.0, "is_reserved": 0, "lon": -77.03265433333333}, {"type": "electric_scooter", "name": "31a01b5c6252e3e12bcab781c8f3d9d3", "rental_uris": {"ios": "https://dc.lft.to/lastmile_qr_scan", "android": "https://dc.lft.to/lastmile_qr_scan"}, "fusion_lon": 0.0, "lat": 38.887638, "is_disabled": 0, "bike_id": "31a01b5c6252e3e12bcab781c8f3d9d3", "fusion_lat": 0.0, "is_reserved": 0, "lon": -76.977491}, {"type": "electric_bike", "name": "520ccd3e3b532fef1cbc6e346f5db4a1", "rental_uris": {"ios": "https://dc.lft.to/lastmile_qr_scan", "android": "https://dc.lft.to/lastmile_qr_scan"}, "fusion_lon": 0.0, "lat": 38.98459066666667, "is_disabled": 0, "bike_id": "520ccd3e3b532fef1cbc6e346f5db4a1", "fusion_lat": 0.0, "is_reserved": 0, "lon": -76.97056616666667}, {"type": "electric_scooter", "name": "f5a9af2e34f3cc9ded9a8df12774e7d0", "rental_uris": {"ios": "https://dc.lft.to/lastmile_qr_scan", "android": "https://dc.lft.to/lastmile_qr_scan"}, "fusion_lon": 0.0, "lat": 38.906350333333336, "is_disabled": 0, "bike_id": "f5a9af2e34f3cc9ded9a8df12774e7d0", "fusion_lat": 0.0, "is_reserved": 0, "lon": -77.041431}, {"type": "electric_scooter", "name": "3d1742e745df438dc4ebe98ea3073a50", "rental_uris": {"ios": "https://dc.lft.to/lastmile_qr_scan", "android": "https://dc.lft.to/lastmile_qr_scan"}, "fusion_lon": 0.0, "lat": 38.90444766666667, "is_disabled": 0, "bike_id": "3d1742e745df438dc4ebe98ea3073a50", "fusion_lat": 0.0, "is_reserved": 0, "lon": -77.04357483333334}, {"type": "electric_scooter", "name": "5989c30f5e5b2d7279498dd345ce0313", "rental_uris": {"ios": "https://dc.lft.to/lastmile_qr_scan", "android": "https://dc.lft.to/lastmile_qr_scan"}, "fusion_lon": 0.0, "lat": 38.8913085, "is_disabled": 0, "bike_id": "5989c30f5e5b2d7279498dd345ce0313", "fusion_lat": 0.0, "is_reserved": 0, "lon": -76.99091216666666}, {"type": "electric_scooter", "name": "560b6ed76f2bd19804daf72748fc4be4", "rental_uris": {"ios": "https://dc.lft.to/lastmile_qr_scan", "android": "https://dc.lft.to/lastmile_qr_scan"}, "fusion_lon": 0.0, "lat": 38.9602515, "is_disabled": 0, "bike_id": "560b6ed76f2bd19804daf72748fc4be4", "fusion_lat": 0.0, "is_reserved": 0, "lon": -77.071879}, {"type": "electric_bike", "name": "e326bac530d88521919cb1af94c9f092", "rental_uris": {"ios": "https://dc.lft.to/lastmile_qr_scan", "android": "https://dc.lft.to/lastmile_qr_scan"}, "fusion_lon": 0.0, "lat": 38.9221805, "is_disabled": 0, "bike_id": "e326bac530d88521919cb1af94c9f092", "fusion_lat": 0.0, "is_reserved": 0, "lon": -77.2013855}, {"type": "electric_bike", "name": "c2efb60770c468339313fa4b33986de3", "rental_uris": {"ios": "https://dc.lft.to/lastmile_qr_scan", "android": "https://dc.lft.to/lastmile_qr_scan"}, "fusion_lon": 0.0, "lat": 38.956877666666664, "is_disabled": 0, "bike_id": "c2efb60770c468339313fa4b33986de3", "fusion_lat": 0.0, "is_reserved": 0, "lon": -77.02407683333334}, {"type": "electric_scooter", "name": "7d3630c52814ee9d181f09a14cdf751c", "rental_uris": {"ios": "https://dc.lft.to/lastmile_qr_scan", "android": "https://dc.lft.to/lastmile_qr_scan"}, "fusion_lon": 0.0, "lat": 38.923065666666666, "is_disabled": 0, "bike_id": "7d3630c52814ee9d181f09a14cdf751c", "fusion_lat": 0.0, "is_reserved": 0, "lon": -77.04178283333333}, {"type": "electric_scooter", "name": "1df5963111ecb1abf7fcdbf7f6cddb69", "rental_uris": {"ios": "https://dc.lft.to/lastmile_qr_scan", "android": "https://dc.lft.to/lastmile_qr_scan"}, "fusion_lon": 0.0, "lat": 38.892119666666666, "is_disabled": 0, "bike_id": "1df5963111ecb1abf7fcdbf7f6cddb69", "fusion_lat": 0.0, "is_reserved": 0, "lon": -76.99573666666667}, {"type": "electric_scooter", "name": "54337d64d967716062d0c23acf040e41", "rental_uris": {"ios": "https://dc.lft.to/lastmile_qr_scan", "android": "https://dc.lft.to/lastmile_qr_scan"}, "fusion_lon": 0.0, "lat": 38.884278333333334, "is_disabled": 0, "bike_id": "54337d64d967716062d0c23acf040e41", "fusion_lat": 0.0, "is_reserved": 0, "lon": -77.0248755}, {"type": "electric_scooter", "name": "7950ea9d83cbf8d48c8fa2609695684f", "rental_uris": {"ios": "https://dc.lft.to/lastmile_qr_scan", "android": "https://dc.lft.to/lastmile_qr_scan"}, "fusion_lon": 0.0, "lat": 38.92401233333333, "is_disabled": 0, "bike_id": "7950ea9d83cbf8d48c8fa2609695684f", "fusion_lat": 0.0, "is_reserved": 0, "lon": -77.02564583333333}, {"type": "electric_scooter", "name": "b10b0060aa0fc7217a6e24022bc4e5d4", "rental_uris": {"ios": "https://dc.lft.to/lastmile_qr_scan", "android": "https://dc.lft.to/lastmile_qr_scan"}, "fusion_lon": 0.0, "lat": 38.90019783333334, "is_disabled": 0, "bike_id": "b10b0060aa0fc7217a6e24022bc4e5d4", "fusion_lat": 0.0, "is_reserved": 0, "lon": -76.9870215}, {"type": "electric_scooter", "name": "6397525e444edc4b1b85465b11b2ce45", "rental_uris": {"ios": "https://dc.lft.to/lastmile_qr_scan", "android": "https://dc.lft.to/lastmile_qr_scan"}, "fusion_lon": 0.0, "lat": 38.915403, "is_disabled": 0, "bike_id": "6397525e444edc4b1b85465b11b2ce45", "fusion_lat": 0.0, "is_reserved": 0, "lon": -77.03861333333333}, {"type": "electric_scooter", "name": "4f3c40c715713c3ff1c0ff264f7a8e51", "rental_uris": {"ios": "https://dc.lft.to/lastmile_qr_scan", "android": "https://dc.lft.to/lastmile_qr_scan"}, "fusion_lon": 0.0, "lat": 38.90668, "is_disabled": 0, "bike_id": "4f3c40c715713c3ff1c0ff264f7a8e51", "fusion_lat": 0.0, "is_reserved": 0, "lon": -77.02710766666667}, {"type": "electric_scooter", "name": "8d6eb86d9095a33765dedb5d8f03cb69", "rental_uris": {"ios": "https://dc.lft.to/lastmile_qr_scan", "android": "https://dc.lft.to/lastmile_qr_scan"}, "fusion_lon": 0.0, "lat": 38.92109816666667, "is_disabled": 0, "bike_id": "8d6eb86d9095a33765dedb5d8f03cb69", "fusion_lat": 0.0, "is_reserved": 0, "lon": -77.043852}, {"type": "electric_scooter", "name": "3c9e06885cd86ae2d4b5df8706d03149", "rental_uris": {"ios": "https://dc.lft.to/lastmile_qr_scan", "android": "https://dc.lft.to/lastmile_qr_scan"}, "fusion_lon": 0.0, "lat": 38.92857166666667, "is_disabled": 0, "bike_id": "3c9e06885cd86ae2d4b5df8706d03149", "fusion_lat": 0.0, "is_reserved": 0, "lon": -77.01394666666667}, {"type": "electric_scooter", "name": "95219246af452312a75860736f12c61f", "rental_uris": {"ios": "https://dc.lft.to/lastmile_qr_scan", "android": "https://dc.lft.to/lastmile_qr_scan"}, "fusion_lon": 0.0, "lat": 38.92827, "is_disabled": 0, "bike_id": "95219246af452312a75860736f12c61f", "fusion_lat": 0.0, "is_reserved": 0, "lon": -77.05440166666666}, {"type": "electric_scooter", "name": "515f722cf0e1eb0eb361006e51e01f8d", "rental_uris": {"ios": "https://dc.lft.to/lastmile_qr_scan", "android": "https://dc.lft.to/lastmile_qr_scan"}, "fusion_lon": 0.0, "lat": 38.942034, "is_disabled": 0, "bike_id": "515f722cf0e1eb0eb361006e51e01f8d", "fusion_lat": 0.0, "is_reserved": 0, "lon": -77.02588516666667}, {"type": "electric_scooter", "name": "6061f0dd022ba9db564fc2b94556a61d", "rental_uris": {"ios": "https://dc.lft.to/lastmile_qr_scan", "android": "https://dc.lft.to/lastmile_qr_scan"}, "fusion_lon": 0.0, "lat": 38.9053465, "is_disabled": 0, "bike_id": "6061f0dd022ba9db564fc2b94556a61d", "fusion_lat": 0.0, "is_reserved": 0, "lon": -77.0270875}, {"type": "electric_scooter", "name": "c46efdb9bc97038325bc9254bf2ad992", "rental_uris": {"ios": "https://dc.lft.to/lastmile_qr_scan", "android": "https://dc.lft.to/lastmile_qr_scan"}, "fusion_lon": 0.0, "lat": 38.92087633333333, "is_disabled": 0, "bike_id": "c46efdb9bc97038325bc9254bf2ad992", "fusion_lat": 0.0, "is_reserved": 0, "lon": -77.02255283333334}, {"type": "electric_bike", "name": "e4862e2b38a17d36420a899f410ae172", "rental_uris": {"ios": "https://dc.lft.to/lastmile_qr_scan", "android": "https://dc.lft.to/lastmile_qr_scan"}, "fusion_lon": 0.0, "lat": 38.8564905, "is_disabled": 0, "bike_id": "e4862e2b38a17d36420a899f410ae172", "fusion_lat": 0.0, "is_reserved": 0, "lon": -77.0852935}, {"type": "electric_scooter", "name": "819c69fcaab8ec6d1bb0a4728b32e4f7", "rental_uris": {"ios": "https://dc.lft.to/lastmile_qr_scan", "android": "https://dc.lft.to/lastmile_qr_scan"}, "fusion_lon": 0.0, "lat": 38.882562, "is_disabled": 0, "bike_id": "819c69fcaab8ec6d1bb0a4728b32e4f7", "fusion_lat": 0.0, "is_reserved": 0, "lon": -76.9266745}, {"type": "electric_scooter", "name": "34931d3733780cf3b6830bde77c7d86e", "rental_uris": {"ios": "https://dc.lft.to/lastmile_qr_scan", "android": "https://dc.lft.to/lastmile_qr_scan"}, "fusion_lon": 0.0, "lat": 38.90738183333333, "is_disabled": 0, "bike_id": "34931d3733780cf3b6830bde77c7d86e", "fusion_lat": 0.0, "is_reserved": 0, "lon": -77.026938}, {"type": "electric_scooter", "name": "17ea33416e515f26e2eefe4af60423f4", "rental_uris": {"ios": "https://dc.lft.to/lastmile_qr_scan", "android": "https://dc.lft.to/lastmile_qr_scan"}, "fusion_lon": 0.0, "lat": 38.9071035, "is_disabled": 0, "bike_id": "17ea33416e515f26e2eefe4af60423f4", "fusion_lat": 0.0, "is_reserved": 0, "lon": -77.00574866666666}, {"type": "electric_scooter", "name": "b691719e968687b51af7129dd7709989", "rental_uris": {"ios": "https://dc.lft.to/lastmile_qr_scan", "android": "https://dc.lft.to/lastmile_qr_scan"}, "fusion_lon": 0.0, "lat": 38.91531633333334, "is_disabled": 0, "bike_id": "b691719e968687b51af7129dd7709989", "fusion_lat": 0.0, "is_reserved": 0, "lon": -77.01226283333334}, {"type": "electric_bike", "name": "9a9581648f65a501ea31fe615dd74caf", "rental_uris": {"ios": "https://dc.lft.to/lastmile_qr_scan", "android": "https://dc.lft.to/lastmile_qr_scan"}, "fusion_lon": 0.0, "lat": 38.953573166666665, "is_disabled": 0, "bike_id": "9a9581648f65a501ea31fe615dd74caf", "fusion_lat": 0.0, "is_reserved": 0, "lon": -76.98090333333333}, {"type": "electric_scooter", "name": "919ff8ec54a4803bb3c29328da26c508", "rental_uris": {"ios": "https://dc.lft.to/lastmile_qr_scan", "android": "https://dc.lft.to/lastmile_qr_scan"}, "fusion_lon": 0.0, "lat": 38.87549, "is_disabled": 0, "bike_id": "919ff8ec54a4803bb3c29328da26c508", "fusion_lat": 0.0, "is_reserved": 0, "lon": -77.00535266666667}, {"type": "electric_scooter", "name": "5c68335615738a6b08b8e5dde6b7a074", "rental_uris": {"ios": "https://dc.lft.to/lastmile_qr_scan", "android": "https://dc.lft.to/lastmile_qr_scan"}, "fusion_lon": 0.0, "lat": 38.897018, "is_disabled": 0, "bike_id": "5c68335615738a6b08b8e5dde6b7a074", "fusion_lat": 0.0, "is_reserved": 0, "lon": -77.01606983333333}, {"type": "electric_scooter", "name": "905e51b1b9f713f075aabb16b6920a51", "rental_uris": {"ios": "https://dc.lft.to/lastmile_qr_scan", "android": "https://dc.lft.to/lastmile_qr_scan"}, "fusion_lon": 0.0, "lat": 38.8880935, "is_disabled": 0, "bike_id": "905e51b1b9f713f075aabb16b6920a51", "fusion_lat": 0.0, "is_reserved": 0, "lon": -76.9835825}, {"type": "electric_scooter", "name": "8ea76b635011019b8343b353a3f719ba", "rental_uris": {"ios": "https://dc.lft.to/lastmile_qr_scan", "android": "https://dc.lft.to/lastmile_qr_scan"}, "fusion_lon": 0.0, "lat": 38.88512033333333, "is_disabled": 0, "bike_id": "8ea76b635011019b8343b353a3f719ba", "fusion_lat": 0.0, "is_reserved": 0, "lon": -77.0152615}, {"type": "electric_scooter", "name": "967dc5ba47e9f39f9cc569175a484e13", "rental_uris": {"ios": "https://dc.lft.to/lastmile_qr_scan", "android": "https://dc.lft.to/lastmile_qr_scan"}, "fusion_lon": 0.0, "lat": 38.94462216666667, "is_disabled": 0, "bike_id": "967dc5ba47e9f39f9cc569175a484e13", "fusion_lat": 0.0, "is_reserved": 0, "lon": -77.006572}, {"type": "electric_scooter", "name": "398f6adc6d0c173070ef3c25239ce6a3", "rental_uris": {"ios": "https://dc.lft.to/lastmile_qr_scan", "android": "https://dc.lft.to/lastmile_qr_scan"}, "fusion_lon": 0.0, "lat": 38.91171033333333, "is_disabled": 0, "bike_id": "398f6adc6d0c173070ef3c25239ce6a3", "fusion_lat": 0.0, "is_reserved": 0, "lon": -77.06091233333333}, {"type": "electric_scooter", "name": "0ec9349f105895f11ef41044170abf02", "rental_uris": {"ios": "https://dc.lft.to/lastmile_qr_scan", "android": "https://dc.lft.to/lastmile_qr_scan"}, "fusion_lon": 0.0, "lat": 38.911088, "is_disabled": 0, "bike_id": "0ec9349f105895f11ef41044170abf02", "fusion_lat": 0.0, "is_reserved": 0, "lon": -77.03830083333334}, {"type": "electric_scooter", "name": "6476f50d2cea8eea66852037932a7a5f", "rental_uris": {"ios": "https://dc.lft.to/lastmile_qr_scan", "android": "https://dc.lft.to/lastmile_qr_scan"}, "fusion_lon": 0.0, "lat": 38.927743, "is_disabled": 0, "bike_id": "6476f50d2cea8eea66852037932a7a5f", "fusion_lat": 0.0, "is_reserved": 0, "lon": -77.02683916666666}, {"type": "electric_scooter", "name": "09c28200ddf3dc465844b370a13a8604", "rental_uris": {"ios": "https://dc.lft.to/lastmile_qr_scan", "android": "https://dc.lft.to/lastmile_qr_scan"}, "fusion_lon": 0.0, "lat": 38.90124516666667, "is_disabled": 0, "bike_id": "09c28200ddf3dc465844b370a13a8604", "fusion_lat": 0.0, "is_reserved": 0, "lon": -77.03580166666667}, {"type": "electric_scooter", "name": "56bd9bef1e2337c93fe3fcc2b99590c8", "rental_uris": {"ios": "https://dc.lft.to/lastmile_qr_scan", "android": "https://dc.lft.to/lastmile_qr_scan"}, "fusion_lon": 0.0, "lat": 38.9133275, "is_disabled": 0, "bike_id": "56bd9bef1e2337c93fe3fcc2b99590c8", "fusion_lat": 0.0, "is_reserved": 0, "lon": -77.03173466666667}, {"type": "electric_scooter", "name": "0df94218a0037278ea058ed0c786e9bc", "rental_uris": {"ios": "https://dc.lft.to/lastmile_qr_scan", "android": "https://dc.lft.to/lastmile_qr_scan"}, "fusion_lon": 0.0, "lat": 38.9215235, "is_disabled": 0, "bike_id": "0df94218a0037278ea058ed0c786e9bc", "fusion_lat": 0.0, "is_reserved": 0, "lon": -77.03384166666666}, {"type": "electric_scooter", "name": "746cbdd7e91c2717ca69b136631d2bf0", "rental_uris": {"ios": "https://dc.lft.to/lastmile_qr_scan", "android": "https://dc.lft.to/lastmile_qr_scan"}, "fusion_lon": 0.0, "lat": 38.9079145, "is_disabled": 0, "bike_id": "746cbdd7e91c2717ca69b136631d2bf0", "fusion_lat": 0.0, "is_reserved": 0, "lon": -77.0318585}, {"type": "electric_scooter", "name": "1b9ff55a750c1dbcd95ea72710fac037", "rental_uris": {"ios": "https://dc.lft.to/lastmile_qr_scan", "android": "https://dc.lft.to/lastmile_qr_scan"}, "fusion_lon": 0.0, "lat": 38.908674166666664, "is_disabled": 0, "bike_id": "1b9ff55a750c1dbcd95ea72710fac037", "fusion_lat": 0.0, "is_reserved": 0, "lon": -76.933381}, {"type": "electric_scooter", "name": "297b4ce9e920a16f22e3026ffe1d3971", "rental_uris": {"ios": "https://dc.lft.to/lastmile_qr_scan", "android": "https://dc.lft.to/lastmile_qr_scan"}, "fusion_lon": 0.0, "lat": 38.90667966666667, "is_disabled": 0, "bike_id": "297b4ce9e920a16f22e3026ffe1d3971", "fusion_lat": 0.0, "is_reserved": 0, "lon": -77.02710616666667}, {"type": "electric_scooter", "name": "175ac2394c0636a238d33b0841259a25", "rental_uris": {"ios": "https://dc.lft.to/lastmile_qr_scan", "android": "https://dc.lft.to/lastmile_qr_scan"}, "fusion_lon": 0.0, "lat": 38.907874166666666, "is_disabled": 0, "bike_id": "175ac2394c0636a238d33b0841259a25", "fusion_lat": 0.0, "is_reserved": 0, "lon": -76.99423616666667}, {"type": "electric_scooter", "name": "df4bda4739017b740b804f416fc5c750", "rental_uris": {"ios": "https://dc.lft.to/lastmile_qr_scan", "android": "https://dc.lft.to/lastmile_qr_scan"}, "fusion_lon": 0.0, "lat": 38.93362033333333, "is_disabled": 0, "bike_id": "df4bda4739017b740b804f416fc5c750", "fusion_lat": 0.0, "is_reserved": 0, "lon": -77.02854983333333}, {"type": "electric_scooter", "name": "4783b70339e69e9f62c5f38db1386f76", "rental_uris": {"ios": "https://dc.lft.to/lastmile_qr_scan", "android": "https://dc.lft.to/lastmile_qr_scan"}, "fusion_lon": 0.0, "lat": 38.906427, "is_disabled": 0, "bike_id": "4783b70339e69e9f62c5f38db1386f76", "fusion_lat": 0.0, "is_reserved": 0, "lon": -77.03567633333333}, {"type": "electric_scooter", "name": "b752078514974a2d37c1423678940572", "rental_uris": {"ios": "https://dc.lft.to/lastmile_qr_scan", "android": "https://dc.lft.to/lastmile_qr_scan"}, "fusion_lon": 0.0, "lat": 38.934, "is_disabled": 0, "bike_id": "b752078514974a2d37c1423678940572", "fusion_lat": 0.0, "is_reserved": 0, "lon": -77.05740933333334}, {"type": "electric_scooter", "name": "280d3ca6b99f085fbc68fd753fbb18e1", "rental_uris": {"ios": "https://dc.lft.to/lastmile_qr_scan", "android": "https://dc.lft.to/lastmile_qr_scan"}, "fusion_lon": 0.0, "lat": 38.93868416666667, "is_disabled": 0, "bike_id": "280d3ca6b99f085fbc68fd753fbb18e1", "fusion_lat": 0.0, "is_reserved": 0, "lon": -77.024884}, {"type": "electric_scooter", "name": "39a00a99fad8fe9caa4fb554a398e342", "rental_uris": {"ios": "https://dc.lft.to/lastmile_qr_scan", "android": "https://dc.lft.to/lastmile_qr_scan"}, "fusion_lon": 0.0, "lat": 38.902911333333336, "is_disabled": 0, "bike_id": "39a00a99fad8fe9caa4fb554a398e342", "fusion_lat": 0.0, "is_reserved": 0, "lon": -76.976379}, {"type": "electric_scooter", "name": "e290c665b7bce7b8e2beb0a46f15b233", "rental_uris": {"ios": "https://dc.lft.to/lastmile_qr_scan", "android": "https://dc.lft.to/lastmile_qr_scan"}, "fusion_lon": 0.0, "lat": 38.90536216666667, "is_disabled": 0, "bike_id": "e290c665b7bce7b8e2beb0a46f15b233", "fusion_lat": 0.0, "is_reserved": 0, "lon": -77.04857933333334}, {"type": "electric_scooter", "name": "ac58929467a0ed2e3677bf7796cfe8ce", "rental_uris": {"ios": "https://dc.lft.to/lastmile_qr_scan", "android": "https://dc.lft.to/lastmile_qr_scan"}, "fusion_lon": 0.0, "lat": 38.975128833333336, "is_disabled": 0, "bike_id": "ac58929467a0ed2e3677bf7796cfe8ce", "fusion_lat": 0.0, "is_reserved": 0, "lon": -77.01669216666667}, {"type": "electric_bike", "name": "7fcff6909a9cf798d0ffe03b86c52492", "rental_uris": {"ios": "https://dc.lft.to/lastmile_qr_scan", "android": "https://dc.lft.to/lastmile_qr_scan"}, "fusion_lon": 0.0, "lat": 38.876759, "is_disabled": 0, "bike_id": "7fcff6909a9cf798d0ffe03b86c52492", "fusion_lat": 0.0, "is_reserved": 0, "lon": -77.014661}, {"type": "electric_scooter", "name": "d52f9a996e2db9c8774dd9a56bf17450", "rental_uris": {"ios": "https://dc.lft.to/lastmile_qr_scan", "android": "https://dc.lft.to/lastmile_qr_scan"}, "fusion_lon": 0.0, "lat": 38.92698583333333, "is_disabled": 0, "bike_id": "d52f9a996e2db9c8774dd9a56bf17450", "fusion_lat": 0.0, "is_reserved": 0, "lon": -77.03225116666667}, {"type": "electric_scooter", "name": "9af0c1601aee4498911f4073c14e7215", "rental_uris": {"ios": "https://dc.lft.to/lastmile_qr_scan", "android": "https://dc.lft.to/lastmile_qr_scan"}, "fusion_lon": 0.0, "lat": 38.90222333333333, "is_disabled": 0, "bike_id": "9af0c1601aee4498911f4073c14e7215", "fusion_lat": 0.0, "is_reserved": 0, "lon": -77.045118}, {"type": "electric_scooter", "name": "be8dc8ae1ab2fd734ebcfbe8f3d0d51d", "rental_uris": {"ios": "https://dc.lft.to/lastmile_qr_scan", "android": "https://dc.lft.to/lastmile_qr_scan"}, "fusion_lon": 0.0, "lat": 38.912681666666664, "is_disabled": 0, "bike_id": "be8dc8ae1ab2fd734ebcfbe8f3d0d51d", "fusion_lat": 0.0, "is_reserved": 0, "lon": -77.02214666666667}, {"type": "electric_scooter", "name": "bfac1645d6eaf0892deea3f4fdd8f9c5", "rental_uris": {"ios": "https://dc.lft.to/lastmile_qr_scan", "android": "https://dc.lft.to/lastmile_qr_scan"}, "fusion_lon": 0.0, "lat": 38.9124475, "is_disabled": 0, "bike_id": "bfac1645d6eaf0892deea3f4fdd8f9c5", "fusion_lat": 0.0, "is_reserved": 0, "lon": -77.04437466666667}, {"type": "electric_scooter", "name": "efdc0bccf6c7e8b47282dfc21842b513", "rental_uris": {"ios": "https://dc.lft.to/lastmile_qr_scan", "android": "https://dc.lft.to/lastmile_qr_scan"}, "fusion_lon": 0.0, "lat": 38.9211795, "is_disabled": 0, "bike_id": "efdc0bccf6c7e8b47282dfc21842b513", "fusion_lat": 0.0, "is_reserved": 0, "lon": -77.02519816666667}, {"type": "electric_scooter", "name": "38d0aa6bec3e934a6308efd0ee10fed8", "rental_uris": {"ios": "https://dc.lft.to/lastmile_qr_scan", "android": "https://dc.lft.to/lastmile_qr_scan"}, "fusion_lon": 0.0, "lat": 38.904714166666665, "is_disabled": 0, "bike_id": "38d0aa6bec3e934a6308efd0ee10fed8", "fusion_lat": 0.0, "is_reserved": 0, "lon": -77.06534716666667}, {"type": "electric_scooter", "name": "7d978dd0fdb7ce97e10f51c4ff614448", "rental_uris": {"ios": "https://dc.lft.to/lastmile_qr_scan", "android": "https://dc.lft.to/lastmile_qr_scan"}, "fusion_lon": 0.0, "lat": 38.8972605, "is_disabled": 0, "bike_id": "7d978dd0fdb7ce97e10f51c4ff614448", "fusion_lat": 0.0, "is_reserved": 0, "lon": -77.05521816666666}, {"type": "electric_scooter", "name": "ef56d3b0da7976a0f07339e7ea6b250a", "rental_uris": {"ios": "https://dc.lft.to/lastmile_qr_scan", "android": "https://dc.lft.to/lastmile_qr_scan"}, "fusion_lon": 0.0, "lat": 38.892994, "is_disabled": 0, "bike_id": "ef56d3b0da7976a0f07339e7ea6b250a", "fusion_lat": 0.0, "is_reserved": 0, "lon": -77.04658966666666}, {"type": "electric_scooter", "name": "4ed15579be8d46d1bc37b16b0615e61c", "rental_uris": {"ios": "https://dc.lft.to/lastmile_qr_scan", "android": "https://dc.lft.to/lastmile_qr_scan"}, "fusion_lon": 0.0, "lat": 38.9141585, "is_disabled": 0, "bike_id": "4ed15579be8d46d1bc37b16b0615e61c", "fusion_lat": 0.0, "is_reserved": 0, "lon": -77.01880566666667}, {"type": "electric_scooter", "name": "22234f4f3fcadfe45649568190abc414", "rental_uris": {"ios": "https://dc.lft.to/lastmile_qr_scan", "android": "https://dc.lft.to/lastmile_qr_scan"}, "fusion_lon": 0.0, "lat": 38.91598416666667, "is_disabled": 0, "bike_id": "22234f4f3fcadfe45649568190abc414", "fusion_lat": 0.0, "is_reserved": 0, "lon": -77.0485225}, {"type": "electric_scooter", "name": "ab1eeafb5e08d26bb4a326dc73bbe035", "rental_uris": {"ios": "https://dc.lft.to/lastmile_qr_scan", "android": "https://dc.lft.to/lastmile_qr_scan"}, "fusion_lon": 0.0, "lat": 38.934879, "is_disabled": 0, "bike_id": "ab1eeafb5e08d26bb4a326dc73bbe035", "fusion_lat": 0.0, "is_reserved": 0, "lon": -77.02406266666667}, {"type": "electric_bike", "name": "8ca2887a2499ae9f4722ec57d616e777", "rental_uris": {"ios": "https://dc.lft.to/lastmile_qr_scan", "android": "https://dc.lft.to/lastmile_qr_scan"}, "fusion_lon": 0.0, "lat": 38.99775783333333, "is_disabled": 0, "bike_id": "8ca2887a2499ae9f4722ec57d616e777", "fusion_lat": 0.0, "is_reserved": 0, "lon": -77.047225}, {"type": "electric_scooter", "name": "f44ecbd9f2f83102cfe5fda88e251e99", "rental_uris": {"ios": "https://dc.lft.to/lastmile_qr_scan", "android": "https://dc.lft.to/lastmile_qr_scan"}, "fusion_lon": 0.0, "lat": 38.90578683333333, "is_disabled": 0, "bike_id": "f44ecbd9f2f83102cfe5fda88e251e99", "fusion_lat": 0.0, "is_reserved": 0, "lon": -77.0057475}, {"type": "electric_scooter", "name": "c22d19d126c9b715cb2d397cab4e0009", "rental_uris": {"ios": "https://dc.lft.to/lastmile_qr_scan", "android": "https://dc.lft.to/lastmile_qr_scan"}, "fusion_lon": 0.0, "lat": 38.87702083333333, "is_disabled": 0, "bike_id": "c22d19d126c9b715cb2d397cab4e0009", "fusion_lat": 0.0, "is_reserved": 0, "lon": -77.00409216666667}, {"type": "electric_scooter", "name": "679eb531afb86844ff2b9d82ed8ae2e0", "rental_uris": {"ios": "https://dc.lft.to/lastmile_qr_scan", "android": "https://dc.lft.to/lastmile_qr_scan"}, "fusion_lon": 0.0, "lat": 38.91532183333333, "is_disabled": 0, "bike_id": "679eb531afb86844ff2b9d82ed8ae2e0", "fusion_lat": 0.0, "is_reserved": 0, "lon": -77.012239}, {"type": "electric_bike", "name": "d866f3bf0e648329bf7012e26abd3fde", "rental_uris": {"ios": "https://dc.lft.to/lastmile_qr_scan", "android": "https://dc.lft.to/lastmile_qr_scan"}, "fusion_lon": 0.0, "lat": 38.83156483333333, "is_disabled": 0, "bike_id": "d866f3bf0e648329bf7012e26abd3fde", "fusion_lat": 0.0, "is_reserved": 0, "lon": -76.9954545}, {"type": "electric_bike", "name": "bf2aca0dbf6737c875dfb785e6d91320", "rental_uris": {"ios": "https://dc.lft.to/lastmile_qr_scan", "android": "https://dc.lft.to/lastmile_qr_scan"}, "fusion_lon": 0.0, "lat": 38.900306, "is_disabled": 0, "bike_id": "bf2aca0dbf6737c875dfb785e6d91320", "fusion_lat": 0.0, "is_reserved": 0, "lon": -76.97219716666666}, {"type": "electric_scooter", "name": "3cbd0a123168afb1defbba2e5d8c7794", "rental_uris": {"ios": "https://dc.lft.to/lastmile_qr_scan", "android": "https://dc.lft.to/lastmile_qr_scan"}, "fusion_lon": 0.0, "lat": 38.914011333333335, "is_disabled": 0, "bike_id": "3cbd0a123168afb1defbba2e5d8c7794", "fusion_lat": 0.0, "is_reserved": 0, "lon": -77.041785}, {"type": "electric_scooter", "name": "00da1a180332b13685a518f1a6b3205f", "rental_uris": {"ios": "https://dc.lft.to/lastmile_qr_scan", "android": "https://dc.lft.to/lastmile_qr_scan"}, "fusion_lon": 0.0, "lat": 38.934109, "is_disabled": 0, "bike_id": "00da1a180332b13685a518f1a6b3205f", "fusion_lat": 0.0, "is_reserved": 0, "lon": -77.02040033333333}, {"type": "electric_scooter", "name": "c4b47d341222f854eba0a0e74ef0c3fd", "rental_uris": {"ios": "https://dc.lft.to/lastmile_qr_scan", "android": "https://dc.lft.to/lastmile_qr_scan"}, "fusion_lon": 0.0, "lat": 38.92190883333333, "is_disabled": 0, "bike_id": "c4b47d341222f854eba0a0e74ef0c3fd", "fusion_lat": 0.0, "is_reserved": 0, "lon": -76.99709616666667}, {"type": "electric_scooter", "name": "9a23bf54a5e17e7c82bb597de45ccd96", "rental_uris": {"ios": "https://dc.lft.to/lastmile_qr_scan", "android": "https://dc.lft.to/lastmile_qr_scan"}, "fusion_lon": 0.0, "lat": 38.922541, "is_disabled": 0, "bike_id": "9a23bf54a5e17e7c82bb597de45ccd96", "fusion_lat": 0.0, "is_reserved": 0, "lon": -77.0091645}, {"type": "electric_scooter", "name": "5bc65978fd258f3a7da9ffc319de0c81", "rental_uris": {"ios": "https://dc.lft.to/lastmile_qr_scan", "android": "https://dc.lft.to/lastmile_qr_scan"}, "fusion_lon": 0.0, "lat": 38.92524016666667, "is_disabled": 0, "bike_id": "5bc65978fd258f3a7da9ffc319de0c81", "fusion_lat": 0.0, "is_reserved": 0, "lon": -77.0512635}, {"type": "electric_scooter", "name": "03821e597ce59bf5b9d9717fc5e547c2", "rental_uris": {"ios": "https://dc.lft.to/lastmile_qr_scan", "android": "https://dc.lft.to/lastmile_qr_scan"}, "fusion_lon": 0.0, "lat": 38.893476166666666, "is_disabled": 0, "bike_id": "03821e597ce59bf5b9d9717fc5e547c2", "fusion_lat": 0.0, "is_reserved": 0, "lon": -77.019755}, {"type": "electric_scooter", "name": "ab5e4d2daf5fb8f1f01b8c199736f10c", "rental_uris": {"ios": "https://dc.lft.to/lastmile_qr_scan", "android": "https://dc.lft.to/lastmile_qr_scan"}, "fusion_lon": 0.0, "lat": 38.92747816666667, "is_disabled": 0, "bike_id": "ab5e4d2daf5fb8f1f01b8c199736f10c", "fusion_lat": 0.0, "is_reserved": 0, "lon": -77.02533716666667}, {"type": "electric_scooter", "name": "77c915c1424615f67f9566dd1cdc0b62", "rental_uris": {"ios": "https://dc.lft.to/lastmile_qr_scan", "android": "https://dc.lft.to/lastmile_qr_scan"}, "fusion_lon": 0.0, "lat": 38.91716366666667, "is_disabled": 0, "bike_id": "77c915c1424615f67f9566dd1cdc0b62", "fusion_lat": 0.0, "is_reserved": 0, "lon": -77.02390983333333}, {"type": "electric_scooter", "name": "2bf912b1eda11efd575ba9ae6860b19e", "rental_uris": {"ios": "https://dc.lft.to/lastmile_qr_scan", "android": "https://dc.lft.to/lastmile_qr_scan"}, "fusion_lon": 0.0, "lat": 38.896739333333336, "is_disabled": 0, "bike_id": "2bf912b1eda11efd575ba9ae6860b19e", "fusion_lat": 0.0, "is_reserved": 0, "lon": -77.0321235}, {"type": "electric_scooter", "name": "07445d015eb769777121a2292514ddc9", "rental_uris": {"ios": "https://dc.lft.to/lastmile_qr_scan", "android": "https://dc.lft.to/lastmile_qr_scan"}, "fusion_lon": 0.0, "lat": 38.93898633333333, "is_disabled": 0, "bike_id": "07445d015eb769777121a2292514ddc9", "fusion_lat": 0.0, "is_reserved": 0, "lon": -77.03343616666666}, {"type": "electric_scooter", "name": "bbb38e592412acc4c52cec69f1f557b3", "rental_uris": {"ios": "https://dc.lft.to/lastmile_qr_scan", "android": "https://dc.lft.to/lastmile_qr_scan"}, "fusion_lon": 0.0, "lat": 38.93683816666667, "is_disabled": 0, "bike_id": "bbb38e592412acc4c52cec69f1f557b3", "fusion_lat": 0.0, "is_reserved": 0, "lon": -77.03629483333333}, {"type": "electric_scooter", "name": "32084cc4274caac3aa0add3878e80b20", "rental_uris": {"ios": "https://dc.lft.to/lastmile_qr_scan", "android": "https://dc.lft.to/lastmile_qr_scan"}, "fusion_lon": 0.0, "lat": 38.90026133333333, "is_disabled": 0, "bike_id": "32084cc4274caac3aa0add3878e80b20", "fusion_lat": 0.0, "is_reserved": 0, "lon": -76.98748633333334}, {"type": "electric_scooter", "name": "0ecef03fe3e2132e315c744f6044ea27", "rental_uris": {"ios": "https://dc.lft.to/lastmile_qr_scan", "android": "https://dc.lft.to/lastmile_qr_scan"}, "fusion_lon": 0.0, "lat": 38.884317, "is_disabled": 0, "bike_id": "0ecef03fe3e2132e315c744f6044ea27", "fusion_lat": 0.0, "is_reserved": 0, "lon": -77.015289}, {"type": "electric_scooter", "name": "226713e4ec64640ca0c4fea0262ac9e3", "rental_uris": {"ios": "https://dc.lft.to/lastmile_qr_scan", "android": "https://dc.lft.to/lastmile_qr_scan"}, "fusion_lon": 0.0, "lat": 38.94125566666666, "is_disabled": 0, "bike_id": "226713e4ec64640ca0c4fea0262ac9e3", "fusion_lat": 0.0, "is_reserved": 0, "lon": -77.0154265}, {"type": "electric_scooter", "name": "eebe93f93b65f46b360fe006c8973160", "rental_uris": {"ios": "https://dc.lft.to/lastmile_qr_scan", "android": "https://dc.lft.to/lastmile_qr_scan"}, "fusion_lon": 0.0, "lat": 38.92479433333333, "is_disabled": 0, "bike_id": "eebe93f93b65f46b360fe006c8973160", "fusion_lat": 0.0, "is_reserved": 0, "lon": -77.0266055}, {"type": "electric_scooter", "name": "9facd9306d3f071a2887471a32c94e1e", "rental_uris": {"ios": "https://dc.lft.to/lastmile_qr_scan", "android": "https://dc.lft.to/lastmile_qr_scan"}, "fusion_lon": 0.0, "lat": 38.925656833333335, "is_disabled": 0, "bike_id": "9facd9306d3f071a2887471a32c94e1e", "fusion_lat": 0.0, "is_reserved": 0, "lon": -77.02712166666667}, {"type": "electric_scooter", "name": "9a28b98198a3c231926f72add42a9ead", "rental_uris": {"ios": "https://dc.lft.to/lastmile_qr_scan", "android": "https://dc.lft.to/lastmile_qr_scan"}, "fusion_lon": 0.0, "lat": 38.905640166666664, "is_disabled": 0, "bike_id": "9a28b98198a3c231926f72add42a9ead", "fusion_lat": 0.0, "is_reserved": 0, "lon": -77.02413066666666}, {"type": "electric_scooter", "name": "3d65359975b373ca7e6cd3554dda0818", "rental_uris": {"ios": "https://dc.lft.to/lastmile_qr_scan", "android": "https://dc.lft.to/lastmile_qr_scan"}, "fusion_lon": 0.0, "lat": 38.9020065, "is_disabled": 0, "bike_id": "3d65359975b373ca7e6cd3554dda0818", "fusion_lat": 0.0, "is_reserved": 0, "lon": -77.0237015}, {"type": "electric_scooter", "name": "104712f802b09b6d9255508b54cd7bfe", "rental_uris": {"ios": "https://dc.lft.to/lastmile_qr_scan", "android": "https://dc.lft.to/lastmile_qr_scan"}, "fusion_lon": 0.0, "lat": 38.88501016666667, "is_disabled": 0, "bike_id": "104712f802b09b6d9255508b54cd7bfe", "fusion_lat": 0.0, "is_reserved": 0, "lon": -77.00700583333334}, {"type": "electric_scooter", "name": "e728393828705977d017ffc48d0340bd", "rental_uris": {"ios": "https://dc.lft.to/lastmile_qr_scan", "android": "https://dc.lft.to/lastmile_qr_scan"}, "fusion_lon": 0.0, "lat": 38.865561166666666, "is_disabled": 0, "bike_id": "e728393828705977d017ffc48d0340bd", "fusion_lat": 0.0, "is_reserved": 0, "lon": -76.98354133333333}, {"type": "electric_bike", "name": "46cb58679f3f4e79af4b5d8dcb4009bc", "rental_uris": {"ios": "https://dc.lft.to/lastmile_qr_scan", "android": "https://dc.lft.to/lastmile_qr_scan"}, "fusion_lon": 0.0, "lat": 38.89270833333333, "is_disabled": 0, "bike_id": "46cb58679f3f4e79af4b5d8dcb4009bc", "fusion_lat": 0.0, "is_reserved": 0, "lon": -76.95112916666666}, {"type": "electric_scooter", "name": "eb34ecf4db90d754f958318612df70f0", "rental_uris": {"ios": "https://dc.lft.to/lastmile_qr_scan", "android": "https://dc.lft.to/lastmile_qr_scan"}, "fusion_lon": 0.0, "lat": 38.922697166666666, "is_disabled": 0, "bike_id": "eb34ecf4db90d754f958318612df70f0", "fusion_lat": 0.0, "is_reserved": 0, "lon": -77.02956316666666}, {"type": "electric_scooter", "name": "a22f97514a4fa23c86b7b0951d1d7476", "rental_uris": {"ios": "https://dc.lft.to/lastmile_qr_scan", "android": "https://dc.lft.to/lastmile_qr_scan"}, "fusion_lon": 0.0, "lat": 38.898722666666664, "is_disabled": 0, "bike_id": "a22f97514a4fa23c86b7b0951d1d7476", "fusion_lat": 0.0, "is_reserved": 0, "lon": -76.93187583333334}, {"type": "electric_scooter", "name": "f254225624a5c4b02cca2a840817f188", "rental_uris": {"ios": "https://dc.lft.to/lastmile_qr_scan", "android": "https://dc.lft.to/lastmile_qr_scan"}, "fusion_lon": 0.0, "lat": 38.917116, "is_disabled": 0, "bike_id": "f254225624a5c4b02cca2a840817f188", "fusion_lat": 0.0, "is_reserved": 0, "lon": -77.03660316666667}, {"type": "electric_scooter", "name": "e3a950d0a2e55ca63e9ed1096f3c925c", "rental_uris": {"ios": "https://dc.lft.to/lastmile_qr_scan", "android": "https://dc.lft.to/lastmile_qr_scan"}, "fusion_lon": 0.0, "lat": 38.92977, "is_disabled": 0, "bike_id": "e3a950d0a2e55ca63e9ed1096f3c925c", "fusion_lat": 0.0, "is_reserved": 0, "lon": -77.0318265}, {"type": "electric_scooter", "name": "b55efe84a27491560596f32e46776c23", "rental_uris": {"ios": "https://dc.lft.to/lastmile_qr_scan", "android": "https://dc.lft.to/lastmile_qr_scan"}, "fusion_lon": 0.0, "lat": 38.92440883333333, "is_disabled": 0, "bike_id": "b55efe84a27491560596f32e46776c23", "fusion_lat": 0.0, "is_reserved": 0, "lon": -77.033766}, {"type": "electric_scooter", "name": "60cb340ee85b95c9e589b9cc12ec871c", "rental_uris": {"ios": "https://dc.lft.to/lastmile_qr_scan", "android": "https://dc.lft.to/lastmile_qr_scan"}, "fusion_lon": 0.0, "lat": 38.923051, "is_disabled": 0, "bike_id": "60cb340ee85b95c9e589b9cc12ec871c", "fusion_lat": 0.0, "is_reserved": 0, "lon": -77.04175816666667}, {"type": "electric_scooter", "name": "ee38534693fcad7d842b2bb8f8b92f57", "rental_uris": {"ios": "https://dc.lft.to/lastmile_qr_scan", "android": "https://dc.lft.to/lastmile_qr_scan"}, "fusion_lon": 0.0, "lat": 38.9142975, "is_disabled": 0, "bike_id": "ee38534693fcad7d842b2bb8f8b92f57", "fusion_lat": 0.0, "is_reserved": 0, "lon": -77.02198333333334}, {"type": "electric_scooter", "name": "f33103a5a0b077d3236ded8fc033c851", "rental_uris": {"ios": "https://dc.lft.to/lastmile_qr_scan", "android": "https://dc.lft.to/lastmile_qr_scan"}, "fusion_lon": 0.0, "lat": 38.9367185, "is_disabled": 0, "bike_id": "f33103a5a0b077d3236ded8fc033c851", "fusion_lat": 0.0, "is_reserved": 0, "lon": -77.0358875}, {"type": "electric_scooter", "name": "cbb6520df92d5256cefa126e9df9883b", "rental_uris": {"ios": "https://dc.lft.to/lastmile_qr_scan", "android": "https://dc.lft.to/lastmile_qr_scan"}, "fusion_lon": 0.0, "lat": 38.82219466666667, "is_disabled": 0, "bike_id": "cbb6520df92d5256cefa126e9df9883b", "fusion_lat": 0.0, "is_reserved": 0, "lon": -77.00184566666667}, {"type": "electric_bike", "name": "93b5a33486825e341314e49798913cff", "rental_uris": {"ios": "https://dc.lft.to/lastmile_qr_scan", "android": "https://dc.lft.to/lastmile_qr_scan"}, "fusion_lon": 0.0, "lat": 38.951683, "is_disabled": 0, "bike_id": "93b5a33486825e341314e49798913cff", "fusion_lat": 0.0, "is_reserved": 0, "lon": -77.0316835}, {"type": "electric_scooter", "name": "1dcf589734224e3fa9e4f76441729b09", "rental_uris": {"ios": "https://dc.lft.to/lastmile_qr_scan", "android": "https://dc.lft.to/lastmile_qr_scan"}, "fusion_lon": 0.0, "lat": 38.91912716666667, "is_disabled": 0, "bike_id": "1dcf589734224e3fa9e4f76441729b09", "fusion_lat": 0.0, "is_reserved": 0, "lon": -77.031801}, {"type": "electric_scooter", "name": "e1631395c3c9905289c560489aefc1ac", "rental_uris": {"ios": "https://dc.lft.to/lastmile_qr_scan", "android": "https://dc.lft.to/lastmile_qr_scan"}, "fusion_lon": 0.0, "lat": 38.92369266666667, "is_disabled": 0, "bike_id": "e1631395c3c9905289c560489aefc1ac", "fusion_lat": 0.0, "is_reserved": 0, "lon": -77.03137}, {"type": "electric_scooter", "name": "af4e89ce243507af57683e677b0fa726", "rental_uris": {"ios": "https://dc.lft.to/lastmile_qr_scan", "android": "https://dc.lft.to/lastmile_qr_scan"}, "fusion_lon": 0.0, "lat": 38.899899166666664, "is_disabled": 0, "bike_id": "af4e89ce243507af57683e677b0fa726", "fusion_lat": 0.0, "is_reserved": 0, "lon": -76.9843345}, {"type": "electric_bike", "name": "f66c03438646d630cc46c6ddb5ca8ba0", "rental_uris": {"ios": "https://dc.lft.to/lastmile_qr_scan", "android": "https://dc.lft.to/lastmile_qr_scan"}, "fusion_lon": 0.0, "lat": 38.99414683333333, "is_disabled": 0, "bike_id": "f66c03438646d630cc46c6ddb5ca8ba0", "fusion_lat": 0.0, "is_reserved": 0, "lon": -77.076988}, {"type": "electric_scooter", "name": "10325944a21aefbbed5410eb3f6bb346", "rental_uris": {"ios": "https://dc.lft.to/lastmile_qr_scan", "android": "https://dc.lft.to/lastmile_qr_scan"}, "fusion_lon": 0.0, "lat": 38.928263666666666, "is_disabled": 0, "bike_id": "10325944a21aefbbed5410eb3f6bb346", "fusion_lat": 0.0, "is_reserved": 0, "lon": -77.059698}, {"type": "electric_bike", "name": "ee02e1aa049d8fe188cfaacb25bcdad6", "rental_uris": {"ios": "https://dc.lft.to/lastmile_qr_scan", "android": "https://dc.lft.to/lastmile_qr_scan"}, "fusion_lon": 0.0, "lat": 39.03609383333333, "is_disabled": 0, "bike_id": "ee02e1aa049d8fe188cfaacb25bcdad6", "fusion_lat": 0.0, "is_reserved": 0, "lon": -77.05545033333334}, {"type": "electric_scooter", "name": "5ea6c231d7160872f5c032ea8b1d5ee7", "rental_uris": {"ios": "https://dc.lft.to/lastmile_qr_scan", "android": "https://dc.lft.to/lastmile_qr_scan"}, "fusion_lon": 0.0, "lat": 38.92845116666667, "is_disabled": 0, "bike_id": "5ea6c231d7160872f5c032ea8b1d5ee7", "fusion_lat": 0.0, "is_reserved": 0, "lon": -77.036686}, {"type": "electric_scooter", "name": "492c5de3bce21cc6eff91f2d4427651a", "rental_uris": {"ios": "https://dc.lft.to/lastmile_qr_scan", "android": "https://dc.lft.to/lastmile_qr_scan"}, "fusion_lon": 0.0, "lat": 38.907793, "is_disabled": 0, "bike_id": "492c5de3bce21cc6eff91f2d4427651a", "fusion_lat": 0.0, "is_reserved": 0, "lon": -77.04230716666666}, {"type": "electric_scooter", "name": "4c7f3ac55af7406264d32e8e62211e3b", "rental_uris": {"ios": "https://dc.lft.to/lastmile_qr_scan", "android": "https://dc.lft.to/lastmile_qr_scan"}, "fusion_lon": 0.0, "lat": 38.897244666666666, "is_disabled": 0, "bike_id": "4c7f3ac55af7406264d32e8e62211e3b", "fusion_lat": 0.0, "is_reserved": 0, "lon": -77.04552133333334}, {"type": "electric_bike", "name": "ccbe3cea1cc34a9806b7656f7ba4781e", "rental_uris": {"ios": "https://dc.lft.to/lastmile_qr_scan", "android": "https://dc.lft.to/lastmile_qr_scan"}, "fusion_lon": 0.0, "lat": 38.99054133333333, "is_disabled": 0, "bike_id": "ccbe3cea1cc34a9806b7656f7ba4781e", "fusion_lat": 0.0, "is_reserved": 0, "lon": -77.038718}, {"type": "electric_bike", "name": "3787c50542fcefb3abe8274446d371f1", "rental_uris": {"ios": "https://dc.lft.to/lastmile_qr_scan", "android": "https://dc.lft.to/lastmile_qr_scan"}, "fusion_lon": 0.0, "lat": 38.83541, "is_disabled": 0, "bike_id": "3787c50542fcefb3abe8274446d371f1", "fusion_lat": 0.0, "is_reserved": 0, "lon": -76.98730766666667}, {"type": "electric_scooter", "name": "03e87a3dff1cc9564f7b157b038185bb", "rental_uris": {"ios": "https://dc.lft.to/lastmile_qr_scan", "android": "https://dc.lft.to/lastmile_qr_scan"}, "fusion_lon": 0.0, "lat": 38.88638366666667, "is_disabled": 0, "bike_id": "03e87a3dff1cc9564f7b157b038185bb", "fusion_lat": 0.0, "is_reserved": 0, "lon": -77.01542466666666}, {"type": "electric_scooter", "name": "9de473b3ac8b7ac688b199b8a0ac6b0f", "rental_uris": {"ios": "https://dc.lft.to/lastmile_qr_scan", "android": "https://dc.lft.to/lastmile_qr_scan"}, "fusion_lon": 0.0, "lat": 38.8439635, "is_disabled": 0, "bike_id": "9de473b3ac8b7ac688b199b8a0ac6b0f", "fusion_lat": 0.0, "is_reserved": 0, "lon": -76.98947966666667}, {"type": "electric_scooter", "name": "cf7acbacf78ec1e3bd54151004c4885a", "rental_uris": {"ios": "https://dc.lft.to/lastmile_qr_scan", "android": "https://dc.lft.to/lastmile_qr_scan"}, "fusion_lon": 0.0, "lat": 38.91675, "is_disabled": 0, "bike_id": "cf7acbacf78ec1e3bd54151004c4885a", "fusion_lat": 0.0, "is_reserved": 0, "lon": -77.0269955}, {"type": "electric_scooter", "name": "defdd6c7eb9b70f4c15744abc92b50f5", "rental_uris": {"ios": "https://dc.lft.to/lastmile_qr_scan", "android": "https://dc.lft.to/lastmile_qr_scan"}, "fusion_lon": 0.0, "lat": 38.92755733333333, "is_disabled": 0, "bike_id": "defdd6c7eb9b70f4c15744abc92b50f5", "fusion_lat": 0.0, "is_reserved": 0, "lon": -77.03272983333333}, {"type": "electric_scooter", "name": "d43ba9704229936470615a7a9d037f26", "rental_uris": {"ios": "https://dc.lft.to/lastmile_qr_scan", "android": "https://dc.lft.to/lastmile_qr_scan"}, "fusion_lon": 0.0, "lat": 38.932502166666666, "is_disabled": 0, "bike_id": "d43ba9704229936470615a7a9d037f26", "fusion_lat": 0.0, "is_reserved": 0, "lon": -77.03266816666667}, {"type": "electric_scooter", "name": "a1ca260c8d4ecfde333abba52f5d1d8c", "rental_uris": {"ios": "https://dc.lft.to/lastmile_qr_scan", "android": "https://dc.lft.to/lastmile_qr_scan"}, "fusion_lon": 0.0, "lat": 38.923237666666665, "is_disabled": 0, "bike_id": "a1ca260c8d4ecfde333abba52f5d1d8c", "fusion_lat": 0.0, "is_reserved": 0, "lon": -77.02964333333334}, {"type": "electric_scooter", "name": "f3a3cb5fcad5266c6427074040f52f99", "rental_uris": {"ios": "https://dc.lft.to/lastmile_qr_scan", "android": "https://dc.lft.to/lastmile_qr_scan"}, "fusion_lon": 0.0, "lat": 38.926048, "is_disabled": 0, "bike_id": "f3a3cb5fcad5266c6427074040f52f99", "fusion_lat": 0.0, "is_reserved": 0, "lon": -77.02218533333334}, {"type": "electric_scooter", "name": "9a652a13949347f6a7d055080c3b8f37", "rental_uris": {"ios": "https://dc.lft.to/lastmile_qr_scan", "android": "https://dc.lft.to/lastmile_qr_scan"}, "fusion_lon": 0.0, "lat": 38.9174525, "is_disabled": 0, "bike_id": "9a652a13949347f6a7d055080c3b8f37", "fusion_lat": 0.0, "is_reserved": 0, "lon": -77.03188016666667}, {"type": "electric_scooter", "name": "eb11d33e95fd3e758e1ca81bc9fc9feb", "rental_uris": {"ios": "https://dc.lft.to/lastmile_qr_scan", "android": "https://dc.lft.to/lastmile_qr_scan"}, "fusion_lon": 0.0, "lat": 38.9024245, "is_disabled": 0, "bike_id": "eb11d33e95fd3e758e1ca81bc9fc9feb", "fusion_lat": 0.0, "is_reserved": 0, "lon": -77.03343983333333}, {"type": "electric_scooter", "name": "41bb329cb67b10b105b0693e47a2c961", "rental_uris": {"ios": "https://dc.lft.to/lastmile_qr_scan", "android": "https://dc.lft.to/lastmile_qr_scan"}, "fusion_lon": 0.0, "lat": 38.92120516666667, "is_disabled": 0, "bike_id": "41bb329cb67b10b105b0693e47a2c961", "fusion_lat": 0.0, "is_reserved": 0, "lon": -77.00916516666666}, {"type": "electric_scooter", "name": "8e08aa5fa60cdc9587b650479f467135", "rental_uris": {"ios": "https://dc.lft.to/lastmile_qr_scan", "android": "https://dc.lft.to/lastmile_qr_scan"}, "fusion_lon": 0.0, "lat": 38.91219666666667, "is_disabled": 0, "bike_id": "8e08aa5fa60cdc9587b650479f467135", "fusion_lat": 0.0, "is_reserved": 0, "lon": -77.044825}, {"type": "electric_scooter", "name": "8bd58aed24fd679e2d3d19def1b2f184", "rental_uris": {"ios": "https://dc.lft.to/lastmile_qr_scan", "android": "https://dc.lft.to/lastmile_qr_scan"}, "fusion_lon": 0.0, "lat": 38.92315216666667, "is_disabled": 0, "bike_id": "8bd58aed24fd679e2d3d19def1b2f184", "fusion_lat": 0.0, "is_reserved": 0, "lon": -77.04020783333333}, {"type": "electric_scooter", "name": "62d19f743d50623d6147e267dcaa0773", "rental_uris": {"ios": "https://dc.lft.to/lastmile_qr_scan", "android": "https://dc.lft.to/lastmile_qr_scan"}, "fusion_lon": 0.0, "lat": 38.8848845, "is_disabled": 0, "bike_id": "62d19f743d50623d6147e267dcaa0773", "fusion_lat": 0.0, "is_reserved": 0, "lon": -77.00712433333334}, {"type": "electric_scooter", "name": "40b9e4fd208fef1ffa1ca19303fbeb32", "rental_uris": {"ios": "https://dc.lft.to/lastmile_qr_scan", "android": "https://dc.lft.to/lastmile_qr_scan"}, "fusion_lon": 0.0, "lat": 38.8672135, "is_disabled": 0, "bike_id": "40b9e4fd208fef1ffa1ca19303fbeb32", "fusion_lat": 0.0, "is_reserved": 0, "lon": -76.98698316666666}, {"type": "electric_scooter", "name": "e51f020a7f48a1f08313cb0cb788a626", "rental_uris": {"ios": "https://dc.lft.to/lastmile_qr_scan", "android": "https://dc.lft.to/lastmile_qr_scan"}, "fusion_lon": 0.0, "lat": 38.91992533333333, "is_disabled": 0, "bike_id": "e51f020a7f48a1f08313cb0cb788a626", "fusion_lat": 0.0, "is_reserved": 0, "lon": -77.0321885}, {"type": "electric_scooter", "name": "4c04f7a7f3599698907b1177b203d0bd", "rental_uris": {"ios": "https://dc.lft.to/lastmile_qr_scan", "android": "https://dc.lft.to/lastmile_qr_scan"}, "fusion_lon": 0.0, "lat": 38.9086505, "is_disabled": 0, "bike_id": "4c04f7a7f3599698907b1177b203d0bd", "fusion_lat": 0.0, "is_reserved": 0, "lon": -77.01286583333334}, {"type": "electric_scooter", "name": "4a1643cc6b907ac51529f453f42be90a", "rental_uris": {"ios": "https://dc.lft.to/lastmile_qr_scan", "android": "https://dc.lft.to/lastmile_qr_scan"}, "fusion_lon": 0.0, "lat": 38.931698833333336, "is_disabled": 0, "bike_id": "4a1643cc6b907ac51529f453f42be90a", "fusion_lat": 0.0, "is_reserved": 0, "lon": -77.0430225}, {"type": "electric_scooter", "name": "696c6811fa1f32d4dd77e14c216ddd27", "rental_uris": {"ios": "https://dc.lft.to/lastmile_qr_scan", "android": "https://dc.lft.to/lastmile_qr_scan"}, "fusion_lon": 0.0, "lat": 38.898087833333335, "is_disabled": 0, "bike_id": "696c6811fa1f32d4dd77e14c216ddd27", "fusion_lat": 0.0, "is_reserved": 0, "lon": -77.02416183333334}, {"type": "electric_scooter", "name": "3490e87c18ea76f7f6b23aab580a9039", "rental_uris": {"ios": "https://dc.lft.to/lastmile_qr_scan", "android": "https://dc.lft.to/lastmile_qr_scan"}, "fusion_lon": 0.0, "lat": 38.94529166666667, "is_disabled": 0, "bike_id": "3490e87c18ea76f7f6b23aab580a9039", "fusion_lat": 0.0, "is_reserved": 0, "lon": -77.064033}, {"type": "electric_scooter", "name": "6d48ef21e7e5e00b8bdbea2d88cb0a1c", "rental_uris": {"ios": "https://dc.lft.to/lastmile_qr_scan", "android": "https://dc.lft.to/lastmile_qr_scan"}, "fusion_lon": 0.0, "lat": 38.892181, "is_disabled": 0, "bike_id": "6d48ef21e7e5e00b8bdbea2d88cb0a1c", "fusion_lat": 0.0, "is_reserved": 0, "lon": -77.0451485}, {"type": "electric_scooter", "name": "c6d4902bb7e3b647b9f808c609e51e34", "rental_uris": {"ios": "https://dc.lft.to/lastmile_qr_scan", "android": "https://dc.lft.to/lastmile_qr_scan"}, "fusion_lon": 0.0, "lat": 38.90133383333333, "is_disabled": 0, "bike_id": "c6d4902bb7e3b647b9f808c609e51e34", "fusion_lat": 0.0, "is_reserved": 0, "lon": -77.02513366666666}, {"type": "electric_scooter", "name": "c1e348f537140fc419106a7d77580958", "rental_uris": {"ios": "https://dc.lft.to/lastmile_qr_scan", "android": "https://dc.lft.to/lastmile_qr_scan"}, "fusion_lon": 0.0, "lat": 38.90114916666667, "is_disabled": 0, "bike_id": "c1e348f537140fc419106a7d77580958", "fusion_lat": 0.0, "is_reserved": 0, "lon": -77.03561783333333}, {"type": "electric_scooter", "name": "c88582dfc3c1d2330520fc5f3827e88f", "rental_uris": {"ios": "https://dc.lft.to/lastmile_qr_scan", "android": "https://dc.lft.to/lastmile_qr_scan"}, "fusion_lon": 0.0, "lat": 38.907787, "is_disabled": 0, "bike_id": "c88582dfc3c1d2330520fc5f3827e88f", "fusion_lat": 0.0, "is_reserved": 0, "lon": -77.032856}, {"type": "electric_scooter", "name": "6aa5bf2f70b3ba20c784df7971bd55f6", "rental_uris": {"ios": "https://dc.lft.to/lastmile_qr_scan", "android": "https://dc.lft.to/lastmile_qr_scan"}, "fusion_lon": 0.0, "lat": 38.89218616666667, "is_disabled": 0, "bike_id": "6aa5bf2f70b3ba20c784df7971bd55f6", "fusion_lat": 0.0, "is_reserved": 0, "lon": -77.03992166666667}, {"type": "electric_scooter", "name": "68ea67ee28f437472e6a3a4198ce05d1", "rental_uris": {"ios": "https://dc.lft.to/lastmile_qr_scan", "android": "https://dc.lft.to/lastmile_qr_scan"}, "fusion_lon": 0.0, "lat": 38.90337683333333, "is_disabled": 0, "bike_id": "68ea67ee28f437472e6a3a4198ce05d1", "fusion_lat": 0.0, "is_reserved": 0, "lon": -77.04988983333334}, {"type": "electric_scooter", "name": "bc185bc69399a0b901addc7d4bb7ac12", "rental_uris": {"ios": "https://dc.lft.to/lastmile_qr_scan", "android": "https://dc.lft.to/lastmile_qr_scan"}, "fusion_lon": 0.0, "lat": 38.88731, "is_disabled": 0, "bike_id": "bc185bc69399a0b901addc7d4bb7ac12", "fusion_lat": 0.0, "is_reserved": 0, "lon": -77.025816}, {"type": "electric_scooter", "name": "6eec69eef0ec88c73053d02e72f1eeec", "rental_uris": {"ios": "https://dc.lft.to/lastmile_qr_scan", "android": "https://dc.lft.to/lastmile_qr_scan"}, "fusion_lon": 0.0, "lat": 38.911102, "is_disabled": 0, "bike_id": "6eec69eef0ec88c73053d02e72f1eeec", "fusion_lat": 0.0, "is_reserved": 0, "lon": -77.03561883333333}, {"type": "electric_scooter", "name": "f510fc35a3430248eecb65c617571a10", "rental_uris": {"ios": "https://dc.lft.to/lastmile_qr_scan", "android": "https://dc.lft.to/lastmile_qr_scan"}, "fusion_lon": 0.0, "lat": 38.8972745, "is_disabled": 0, "bike_id": "f510fc35a3430248eecb65c617571a10", "fusion_lat": 0.0, "is_reserved": 0, "lon": -77.00215516666667}, {"type": "electric_scooter", "name": "a62673f81a46883885e5a67614e21617", "rental_uris": {"ios": "https://dc.lft.to/lastmile_qr_scan", "android": "https://dc.lft.to/lastmile_qr_scan"}, "fusion_lon": 0.0, "lat": 38.866805166666666, "is_disabled": 0, "bike_id": "a62673f81a46883885e5a67614e21617", "fusion_lat": 0.0, "is_reserved": 0, "lon": -76.98572816666666}, {"type": "electric_scooter", "name": "bacbab5f56b1f85fb883d3832094bbcc", "rental_uris": {"ios": "https://dc.lft.to/lastmile_qr_scan", "android": "https://dc.lft.to/lastmile_qr_scan"}, "fusion_lon": 0.0, "lat": 38.90112166666667, "is_disabled": 0, "bike_id": "bacbab5f56b1f85fb883d3832094bbcc", "fusion_lat": 0.0, "is_reserved": 0, "lon": -77.049791}, {"type": "electric_scooter", "name": "d440a636b209f1c3c017bb10ab0104fb", "rental_uris": {"ios": "https://dc.lft.to/lastmile_qr_scan", "android": "https://dc.lft.to/lastmile_qr_scan"}, "fusion_lon": 0.0, "lat": 38.9144965, "is_disabled": 0, "bike_id": "d440a636b209f1c3c017bb10ab0104fb", "fusion_lat": 0.0, "is_reserved": 0, "lon": -77.02193266666667}, {"type": "electric_scooter", "name": "7eb4903f405e50fde3cb527d4d4a0e90", "rental_uris": {"ios": "https://dc.lft.to/lastmile_qr_scan", "android": "https://dc.lft.to/lastmile_qr_scan"}, "fusion_lon": 0.0, "lat": 38.900892, "is_disabled": 0, "bike_id": "7eb4903f405e50fde3cb527d4d4a0e90", "fusion_lat": 0.0, "is_reserved": 0, "lon": -77.0478765}, {"type": "electric_scooter", "name": "c282d865f66d074eafe25bcab765a476", "rental_uris": {"ios": "https://dc.lft.to/lastmile_qr_scan", "android": "https://dc.lft.to/lastmile_qr_scan"}, "fusion_lon": 0.0, "lat": 38.90374216666667, "is_disabled": 0, "bike_id": "c282d865f66d074eafe25bcab765a476", "fusion_lat": 0.0, "is_reserved": 0, "lon": -77.01637183333334}, {"type": "electric_scooter", "name": "38252b3b2f906a1e3c8411932a1f4ad9", "rental_uris": {"ios": "https://dc.lft.to/lastmile_qr_scan", "android": "https://dc.lft.to/lastmile_qr_scan"}, "fusion_lon": 0.0, "lat": 38.9215875, "is_disabled": 0, "bike_id": "38252b3b2f906a1e3c8411932a1f4ad9", "fusion_lat": 0.0, "is_reserved": 0, "lon": -77.04702433333334}, {"type": "electric_scooter", "name": "d883bf7dfb8c105eb0d109279d41bbb6", "rental_uris": {"ios": "https://dc.lft.to/lastmile_qr_scan", "android": "https://dc.lft.to/lastmile_qr_scan"}, "fusion_lon": 0.0, "lat": 38.92654016666667, "is_disabled": 0, "bike_id": "d883bf7dfb8c105eb0d109279d41bbb6", "fusion_lat": 0.0, "is_reserved": 0, "lon": -77.037107}, {"type": "electric_scooter", "name": "3e9b229b66a0f6b3db791eb63b8047c5", "rental_uris": {"ios": "https://dc.lft.to/lastmile_qr_scan", "android": "https://dc.lft.to/lastmile_qr_scan"}, "fusion_lon": 0.0, "lat": 38.90724066666667, "is_disabled": 0, "bike_id": "3e9b229b66a0f6b3db791eb63b8047c5", "fusion_lat": 0.0, "is_reserved": 0, "lon": -77.06894916666667}, {"type": "electric_scooter", "name": "49be221f902e4e69a15af240a4f0b1fc", "rental_uris": {"ios": "https://dc.lft.to/lastmile_qr_scan", "android": "https://dc.lft.to/lastmile_qr_scan"}, "fusion_lon": 0.0, "lat": 38.92736416666666, "is_disabled": 0, "bike_id": "49be221f902e4e69a15af240a4f0b1fc", "fusion_lat": 0.0, "is_reserved": 0, "lon": -77.021306}, {"type": "electric_scooter", "name": "870e0ef8f3d647e2cbd2bbe7ef6d9879", "rental_uris": {"ios": "https://dc.lft.to/lastmile_qr_scan", "android": "https://dc.lft.to/lastmile_qr_scan"}, "fusion_lon": 0.0, "lat": 38.975108666666664, "is_disabled": 0, "bike_id": "870e0ef8f3d647e2cbd2bbe7ef6d9879", "fusion_lat": 0.0, "is_reserved": 0, "lon": -77.01668233333334}, {"type": "electric_bike", "name": "0c9e70bd84dd96a9b1aeb3d21701861d", "rental_uris": {"ios": "https://dc.lft.to/lastmile_qr_scan", "android": "https://dc.lft.to/lastmile_qr_scan"}, "fusion_lon": 0.0, "lat": 38.833649666666666, "is_disabled": 0, "bike_id": "0c9e70bd84dd96a9b1aeb3d21701861d", "fusion_lat": 0.0, "is_reserved": 0, "lon": -77.002995}, {"type": "electric_scooter", "name": "c791351cc720c6db493cf6256035f324", "rental_uris": {"ios": "https://dc.lft.to/lastmile_qr_scan", "android": "https://dc.lft.to/lastmile_qr_scan"}, "fusion_lon": 0.0, "lat": 38.93898133333333, "is_disabled": 0, "bike_id": "c791351cc720c6db493cf6256035f324", "fusion_lat": 0.0, "is_reserved": 0, "lon": -77.03339016666666}, {"type": "electric_scooter", "name": "9b0bf3c7c40eafee9c70cf889d8643f0", "rental_uris": {"ios": "https://dc.lft.to/lastmile_qr_scan", "android": "https://dc.lft.to/lastmile_qr_scan"}, "fusion_lon": 0.0, "lat": 38.909533, "is_disabled": 0, "bike_id": "9b0bf3c7c40eafee9c70cf889d8643f0", "fusion_lat": 0.0, "is_reserved": 0, "lon": -76.99889533333334}, {"type": "electric_scooter", "name": "b09f59f3123b5d8da830c45fc802720f", "rental_uris": {"ios": "https://dc.lft.to/lastmile_qr_scan", "android": "https://dc.lft.to/lastmile_qr_scan"}, "fusion_lon": 0.0, "lat": 38.915628166666664, "is_disabled": 0, "bike_id": "b09f59f3123b5d8da830c45fc802720f", "fusion_lat": 0.0, "is_reserved": 0, "lon": -77.032271}, {"type": "electric_scooter", "name": "5af0245571ff03b8e76b10547646db40", "rental_uris": {"ios": "https://dc.lft.to/lastmile_qr_scan", "android": "https://dc.lft.to/lastmile_qr_scan"}, "fusion_lon": 0.0, "lat": 38.896151333333336, "is_disabled": 0, "bike_id": "5af0245571ff03b8e76b10547646db40", "fusion_lat": 0.0, "is_reserved": 0, "lon": -77.0480255}, {"type": "electric_scooter", "name": "29dac2ee2620d62428f22eb7ec43e020", "rental_uris": {"ios": "https://dc.lft.to/lastmile_qr_scan", "android": "https://dc.lft.to/lastmile_qr_scan"}, "fusion_lon": 0.0, "lat": 38.91845516666667, "is_disabled": 0, "bike_id": "29dac2ee2620d62428f22eb7ec43e020", "fusion_lat": 0.0, "is_reserved": 0, "lon": -77.04488733333334}, {"type": "electric_scooter", "name": "e14bede44ad2a7827c46c43baff22bbf", "rental_uris": {"ios": "https://dc.lft.to/lastmile_qr_scan", "android": "https://dc.lft.to/lastmile_qr_scan"}, "fusion_lon": 0.0, "lat": 38.942760666666665, "is_disabled": 0, "bike_id": "e14bede44ad2a7827c46c43baff22bbf", "fusion_lat": 0.0, "is_reserved": 0, "lon": -77.01262116666666}, {"type": "electric_bike", "name": "b6d20bf6282025278c723f180cca464c", "rental_uris": {"ios": "https://dc.lft.to/lastmile_qr_scan", "android": "https://dc.lft.to/lastmile_qr_scan"}, "fusion_lon": 0.0, "lat": 38.903066, "is_disabled": 0, "bike_id": "b6d20bf6282025278c723f180cca464c", "fusion_lat": 0.0, "is_reserved": 0, "lon": -76.97650283333333}, {"type": "electric_scooter", "name": "f4b7c9b7865834b476d9430fff5ab7bb", "rental_uris": {"ios": "https://dc.lft.to/lastmile_qr_scan", "android": "https://dc.lft.to/lastmile_qr_scan"}, "fusion_lon": 0.0, "lat": 38.89555083333333, "is_disabled": 0, "bike_id": "f4b7c9b7865834b476d9430fff5ab7bb", "fusion_lat": 0.0, "is_reserved": 0, "lon": -77.03953833333334}, {"type": "electric_scooter", "name": "3c6517a28cbe535d68747dfb956bb459", "rental_uris": {"ios": "https://dc.lft.to/lastmile_qr_scan", "android": "https://dc.lft.to/lastmile_qr_scan"}, "fusion_lon": 0.0, "lat": 38.895277166666666, "is_disabled": 0, "bike_id": "3c6517a28cbe535d68747dfb956bb459", "fusion_lat": 0.0, "is_reserved": 0, "lon": -77.02824516666666}, {"type": "electric_scooter", "name": "4a9fd3c087e00e94599b0e111ca7b7cf", "rental_uris": {"ios": "https://dc.lft.to/lastmile_qr_scan", "android": "https://dc.lft.to/lastmile_qr_scan"}, "fusion_lon": 0.0, "lat": 38.9252275, "is_disabled": 0, "bike_id": "4a9fd3c087e00e94599b0e111ca7b7cf", "fusion_lat": 0.0, "is_reserved": 0, "lon": -77.03525183333333}, {"type": "electric_scooter", "name": "1fe695a9a8929dbbe0550119d0a99a91", "rental_uris": {"ios": "https://dc.lft.to/lastmile_qr_scan", "android": "https://dc.lft.to/lastmile_qr_scan"}, "fusion_lon": 0.0, "lat": 38.894262499999996, "is_disabled": 0, "bike_id": "1fe695a9a8929dbbe0550119d0a99a91", "fusion_lat": 0.0, "is_reserved": 0, "lon": -77.0009435}, {"type": "electric_scooter", "name": "575df8247c99a90d9011de74d0e9549e", "rental_uris": {"ios": "https://dc.lft.to/lastmile_qr_scan", "android": "https://dc.lft.to/lastmile_qr_scan"}, "fusion_lon": 0.0, "lat": 38.90954933333333, "is_disabled": 0, "bike_id": "575df8247c99a90d9011de74d0e9549e", "fusion_lat": 0.0, "is_reserved": 0, "lon": -77.0227505}, {"type": "electric_scooter", "name": "65ce6c7072796c1c74314420b4c31aa7", "rental_uris": {"ios": "https://dc.lft.to/lastmile_qr_scan", "android": "https://dc.lft.to/lastmile_qr_scan"}, "fusion_lon": 0.0, "lat": 38.92326383333333, "is_disabled": 0, "bike_id": "65ce6c7072796c1c74314420b4c31aa7", "fusion_lat": 0.0, "is_reserved": 0, "lon": -77.029706}, {"type": "electric_scooter", "name": "44c69803e8f5eef3a4dd17c505d0a609", "rental_uris": {"ios": "https://dc.lft.to/lastmile_qr_scan", "android": "https://dc.lft.to/lastmile_qr_scan"}, "fusion_lon": 0.0, "lat": 38.920511833333336, "is_disabled": 0, "bike_id": "44c69803e8f5eef3a4dd17c505d0a609", "fusion_lat": 0.0, "is_reserved": 0, "lon": -77.04183483333334}, {"type": "electric_scooter", "name": "c844da7c9a6e5166302362352e678f76", "rental_uris": {"ios": "https://dc.lft.to/lastmile_qr_scan", "android": "https://dc.lft.to/lastmile_qr_scan"}, "fusion_lon": 0.0, "lat": 38.9161945, "is_disabled": 0, "bike_id": "c844da7c9a6e5166302362352e678f76", "fusion_lat": 0.0, "is_reserved": 0, "lon": -77.03142616666666}, {"type": "electric_scooter", "name": "823a6f28392f1b2ad6890dcc2922e1c6", "rental_uris": {"ios": "https://dc.lft.to/lastmile_qr_scan", "android": "https://dc.lft.to/lastmile_qr_scan"}, "fusion_lon": 0.0, "lat": 38.906397, "is_disabled": 0, "bike_id": "823a6f28392f1b2ad6890dcc2922e1c6", "fusion_lat": 0.0, "is_reserved": 0, "lon": -77.00995683333333}, {"type": "electric_scooter", "name": "82f17f836db3bfe778421e226b655474", "rental_uris": {"ios": "https://dc.lft.to/lastmile_qr_scan", "android": "https://dc.lft.to/lastmile_qr_scan"}, "fusion_lon": 0.0, "lat": 38.928607666666664, "is_disabled": 0, "bike_id": "82f17f836db3bfe778421e226b655474", "fusion_lat": 0.0, "is_reserved": 0, "lon": -77.029016}, {"type": "electric_scooter", "name": "315601f86940483a9231a3ca1311d9e5", "rental_uris": {"ios": "https://dc.lft.to/lastmile_qr_scan", "android": "https://dc.lft.to/lastmile_qr_scan"}, "fusion_lon": 0.0, "lat": 38.8768925, "is_disabled": 0, "bike_id": "315601f86940483a9231a3ca1311d9e5", "fusion_lat": 0.0, "is_reserved": 0, "lon": -77.004162}, {"type": "electric_scooter", "name": "bfebf12adc168aa7d485f4547ee5be7f", "rental_uris": {"ios": "https://dc.lft.to/lastmile_qr_scan", "android": "https://dc.lft.to/lastmile_qr_scan"}, "fusion_lon": 0.0, "lat": 38.93927866666667, "is_disabled": 0, "bike_id": "bfebf12adc168aa7d485f4547ee5be7f", "fusion_lat": 0.0, "is_reserved": 0, "lon": -77.02791583333334}, {"type": "electric_scooter", "name": "dc1325383f83144cc3a8b0d2146b7e1d", "rental_uris": {"ios": "https://dc.lft.to/lastmile_qr_scan", "android": "https://dc.lft.to/lastmile_qr_scan"}, "fusion_lon": 0.0, "lat": 38.90840033333333, "is_disabled": 0, "bike_id": "dc1325383f83144cc3a8b0d2146b7e1d", "fusion_lat": 0.0, "is_reserved": 0, "lon": -77.01257783333334}, {"type": "electric_bike", "name": "04599ead21513c2acfbd0a12577e5b58", "rental_uris": {"ios": "https://dc.lft.to/lastmile_qr_scan", "android": "https://dc.lft.to/lastmile_qr_scan"}, "fusion_lon": 0.0, "lat": 38.864493833333334, "is_disabled": 0, "bike_id": "04599ead21513c2acfbd0a12577e5b58", "fusion_lat": 0.0, "is_reserved": 0, "lon": -77.10686066666666}, {"type": "electric_scooter", "name": "381ba8c50c69217d234cd5f9655f7b64", "rental_uris": {"ios": "https://dc.lft.to/lastmile_qr_scan", "android": "https://dc.lft.to/lastmile_qr_scan"}, "fusion_lon": 0.0, "lat": 38.934291, "is_disabled": 0, "bike_id": "381ba8c50c69217d234cd5f9655f7b64", "fusion_lat": 0.0, "is_reserved": 0, "lon": -77.055847}, {"type": "electric_scooter", "name": "65bfd06d466300f54b536dac29419c0e", "rental_uris": {"ios": "https://dc.lft.to/lastmile_qr_scan", "android": "https://dc.lft.to/lastmile_qr_scan"}, "fusion_lon": 0.0, "lat": 38.918128833333334, "is_disabled": 0, "bike_id": "65bfd06d466300f54b536dac29419c0e", "fusion_lat": 0.0, "is_reserved": 0, "lon": -77.0271485}, {"type": "electric_scooter", "name": "e8219510cba76d3341f2c1d7da225e01", "rental_uris": {"ios": "https://dc.lft.to/lastmile_qr_scan", "android": "https://dc.lft.to/lastmile_qr_scan"}, "fusion_lon": 0.0, "lat": 38.8952545, "is_disabled": 0, "bike_id": "e8219510cba76d3341f2c1d7da225e01", "fusion_lat": 0.0, "is_reserved": 0, "lon": -77.048569}, {"type": "electric_scooter", "name": "7b1771b032b3d9b00c6f26088b8f409f", "rental_uris": {"ios": "https://dc.lft.to/lastmile_qr_scan", "android": "https://dc.lft.to/lastmile_qr_scan"}, "fusion_lon": 0.0, "lat": 38.876612, "is_disabled": 0, "bike_id": "7b1771b032b3d9b00c6f26088b8f409f", "fusion_lat": 0.0, "is_reserved": 0, "lon": -77.0161355}, {"type": "electric_scooter", "name": "64b32f7d39bd671f1d8469f162c0e14f", "rental_uris": {"ios": "https://dc.lft.to/lastmile_qr_scan", "android": "https://dc.lft.to/lastmile_qr_scan"}, "fusion_lon": 0.0, "lat": 38.877005, "is_disabled": 0, "bike_id": "64b32f7d39bd671f1d8469f162c0e14f", "fusion_lat": 0.0, "is_reserved": 0, "lon": -77.00436766666667}, {"type": "electric_scooter", "name": "e3a253b4194fef984fa77c5825081a58", "rental_uris": {"ios": "https://dc.lft.to/lastmile_qr_scan", "android": "https://dc.lft.to/lastmile_qr_scan"}, "fusion_lon": 0.0, "lat": 38.90869166666667, "is_disabled": 0, "bike_id": "e3a253b4194fef984fa77c5825081a58", "fusion_lat": 0.0, "is_reserved": 0, "lon": -77.0269455}, {"type": "electric_scooter", "name": "12d8ef9c9b25da9b857fd79e4cf742de", "rental_uris": {"ios": "https://dc.lft.to/lastmile_qr_scan", "android": "https://dc.lft.to/lastmile_qr_scan"}, "fusion_lon": 0.0, "lat": 38.887432, "is_disabled": 0, "bike_id": "12d8ef9c9b25da9b857fd79e4cf742de", "fusion_lat": 0.0, "is_reserved": 0, "lon": -77.02840816666667}, {"type": "electric_scooter", "name": "326ff202cb36ff121756ec2625d827d7", "rental_uris": {"ios": "https://dc.lft.to/lastmile_qr_scan", "android": "https://dc.lft.to/lastmile_qr_scan"}, "fusion_lon": 0.0, "lat": 38.9415465, "is_disabled": 0, "bike_id": "326ff202cb36ff121756ec2625d827d7", "fusion_lat": 0.0, "is_reserved": 0, "lon": -77.092722}, {"type": "electric_scooter", "name": "7debec1cfa56d3103e4b94e219977ed3", "rental_uris": {"ios": "https://dc.lft.to/lastmile_qr_scan", "android": "https://dc.lft.to/lastmile_qr_scan"}, "fusion_lon": 0.0, "lat": 38.919208166666664, "is_disabled": 0, "bike_id": "7debec1cfa56d3103e4b94e219977ed3", "fusion_lat": 0.0, "is_reserved": 0, "lon": -77.00981833333333}, {"type": "electric_scooter", "name": "09aa6030290a21ccff8981cbe5578c54", "rental_uris": {"ios": "https://dc.lft.to/lastmile_qr_scan", "android": "https://dc.lft.to/lastmile_qr_scan"}, "fusion_lon": 0.0, "lat": 38.91109733333333, "is_disabled": 0, "bike_id": "09aa6030290a21ccff8981cbe5578c54", "fusion_lat": 0.0, "is_reserved": 0, "lon": -77.03830516666666}, {"type": "electric_scooter", "name": "b580f64cf0175a5bbdb1627d09658681", "rental_uris": {"ios": "https://dc.lft.to/lastmile_qr_scan", "android": "https://dc.lft.to/lastmile_qr_scan"}, "fusion_lon": 0.0, "lat": 38.908095, "is_disabled": 0, "bike_id": "b580f64cf0175a5bbdb1627d09658681", "fusion_lat": 0.0, "is_reserved": 0, "lon": -77.0344545}, {"type": "electric_scooter", "name": "a6f32e642c5e9cd6d09cd5b01f251bf0", "rental_uris": {"ios": "https://dc.lft.to/lastmile_qr_scan", "android": "https://dc.lft.to/lastmile_qr_scan"}, "fusion_lon": 0.0, "lat": 38.905964166666664, "is_disabled": 0, "bike_id": "a6f32e642c5e9cd6d09cd5b01f251bf0", "fusion_lat": 0.0, "is_reserved": 0, "lon": -77.05132066666667}, {"type": "electric_bike", "name": "89e735f088c787d0d3718a3ef0a6965a", "rental_uris": {"ios": "https://dc.lft.to/lastmile_qr_scan", "android": "https://dc.lft.to/lastmile_qr_scan"}, "fusion_lon": 0.0, "lat": 38.88402, "is_disabled": 0, "bike_id": "89e735f088c787d0d3718a3ef0a6965a", "fusion_lat": 0.0, "is_reserved": 0, "lon": -76.96059783333334}, {"type": "electric_scooter", "name": "fff7796798a4ee5198bab9aac5872fbc", "rental_uris": {"ios": "https://dc.lft.to/lastmile_qr_scan", "android": "https://dc.lft.to/lastmile_qr_scan"}, "fusion_lon": 0.0, "lat": 38.8960145, "is_disabled": 0, "bike_id": "fff7796798a4ee5198bab9aac5872fbc", "fusion_lat": 0.0, "is_reserved": 0, "lon": -77.02660766666666}, {"type": "electric_scooter", "name": "2142b25ab610cf18b0c1f8a4a842fc85", "rental_uris": {"ios": "https://dc.lft.to/lastmile_qr_scan", "android": "https://dc.lft.to/lastmile_qr_scan"}, "fusion_lon": 0.0, "lat": 38.902414666666665, "is_disabled": 0, "bike_id": "2142b25ab610cf18b0c1f8a4a842fc85", "fusion_lat": 0.0, "is_reserved": 0, "lon": -77.017469}, {"type": "electric_scooter", "name": "664404d57a1c8155dcd5e9440711434b", "rental_uris": {"ios": "https://dc.lft.to/lastmile_qr_scan", "android": "https://dc.lft.to/lastmile_qr_scan"}, "fusion_lon": 0.0, "lat": 38.896125833333336, "is_disabled": 0, "bike_id": "664404d57a1c8155dcd5e9440711434b", "fusion_lat": 0.0, "is_reserved": 0, "lon": -77.02865416666667}, {"type": "electric_scooter", "name": "7912bf21f73214059087ec76252fb66e", "rental_uris": {"ios": "https://dc.lft.to/lastmile_qr_scan", "android": "https://dc.lft.to/lastmile_qr_scan"}, "fusion_lon": 0.0, "lat": 38.91421916666667, "is_disabled": 0, "bike_id": "7912bf21f73214059087ec76252fb66e", "fusion_lat": 0.0, "is_reserved": 0, "lon": -77.03924916666666}, {"type": "electric_scooter", "name": "156cf21350177310d5dab24f41309617", "rental_uris": {"ios": "https://dc.lft.to/lastmile_qr_scan", "android": "https://dc.lft.to/lastmile_qr_scan"}, "fusion_lon": 0.0, "lat": 38.896184833333336, "is_disabled": 0, "bike_id": "156cf21350177310d5dab24f41309617", "fusion_lat": 0.0, "is_reserved": 0, "lon": -76.985675}, {"type": "electric_scooter", "name": "14fa119d6d38a66b891bd2228cbded6c", "rental_uris": {"ios": "https://dc.lft.to/lastmile_qr_scan", "android": "https://dc.lft.to/lastmile_qr_scan"}, "fusion_lon": 0.0, "lat": 38.967281666666665, "is_disabled": 0, "bike_id": "14fa119d6d38a66b891bd2228cbded6c", "fusion_lat": 0.0, "is_reserved": 0, "lon": -77.00921366666667}, {"type": "electric_scooter", "name": "e568fa0de1a4fbebdbbddedee2611284", "rental_uris": {"ios": "https://dc.lft.to/lastmile_qr_scan", "android": "https://dc.lft.to/lastmile_qr_scan"}, "fusion_lon": 0.0, "lat": 38.952431833333335, "is_disabled": 0, "bike_id": "e568fa0de1a4fbebdbbddedee2611284", "fusion_lat": 0.0, "is_reserved": 0, "lon": -77.023799}, {"type": "electric_scooter", "name": "e34a86c28a0d6f3d1efae2931e3c7de5", "rental_uris": {"ios": "https://dc.lft.to/lastmile_qr_scan", "android": "https://dc.lft.to/lastmile_qr_scan"}, "fusion_lon": 0.0, "lat": 38.91733683333333, "is_disabled": 0, "bike_id": "e34a86c28a0d6f3d1efae2931e3c7de5", "fusion_lat": 0.0, "is_reserved": 0, "lon": -77.03203066666667}, {"type": "electric_scooter", "name": "f8a6a5290a235d63731cd6da7c4d2e42", "rental_uris": {"ios": "https://dc.lft.to/lastmile_qr_scan", "android": "https://dc.lft.to/lastmile_qr_scan"}, "fusion_lon": 0.0, "lat": 38.892301333333336, "is_disabled": 0, "bike_id": "f8a6a5290a235d63731cd6da7c4d2e42", "fusion_lat": 0.0, "is_reserved": 0, "lon": -77.04360816666667}, {"type": "electric_scooter", "name": "62b74322c81731c7e48214c26c900400", "rental_uris": {"ios": "https://dc.lft.to/lastmile_qr_scan", "android": "https://dc.lft.to/lastmile_qr_scan"}, "fusion_lon": 0.0, "lat": 38.91557983333333, "is_disabled": 0, "bike_id": "62b74322c81731c7e48214c26c900400", "fusion_lat": 0.0, "is_reserved": 0, "lon": -77.03138733333333}, {"type": "electric_scooter", "name": "26786886c81b4666da23dc43019de02d", "rental_uris": {"ios": "https://dc.lft.to/lastmile_qr_scan", "android": "https://dc.lft.to/lastmile_qr_scan"}, "fusion_lon": 0.0, "lat": 38.8787855, "is_disabled": 0, "bike_id": "26786886c81b4666da23dc43019de02d", "fusion_lat": 0.0, "is_reserved": 0, "lon": -76.98232416666667}, {"type": "electric_scooter", "name": "61e8e70050fa0e10bdaa24a8006c4171", "rental_uris": {"ios": "https://dc.lft.to/lastmile_qr_scan", "android": "https://dc.lft.to/lastmile_qr_scan"}, "fusion_lon": 0.0, "lat": 38.88325016666667, "is_disabled": 0, "bike_id": "61e8e70050fa0e10bdaa24a8006c4171", "fusion_lat": 0.0, "is_reserved": 0, "lon": -77.01763616666666}, {"type": "electric_scooter", "name": "3e1d29fa1dcb32087859a7176c3d23dc", "rental_uris": {"ios": "https://dc.lft.to/lastmile_qr_scan", "android": "https://dc.lft.to/lastmile_qr_scan"}, "fusion_lon": 0.0, "lat": 38.9073135, "is_disabled": 0, "bike_id": "3e1d29fa1dcb32087859a7176c3d23dc", "fusion_lat": 0.0, "is_reserved": 0, "lon": -76.99990416666667}, {"type": "electric_bike", "name": "699b99c01b91a77995a0b3168c912f02", "rental_uris": {"ios": "https://dc.lft.to/lastmile_qr_scan", "android": "https://dc.lft.to/lastmile_qr_scan"}, "fusion_lon": 0.0, "lat": 38.9252645, "is_disabled": 0, "bike_id": "699b99c01b91a77995a0b3168c912f02", "fusion_lat": 0.0, "is_reserved": 0, "lon": -77.07898066666667}, {"type": "electric_scooter", "name": "410cc142c9a3863e8856c0d7c4c6ac7e", "rental_uris": {"ios": "https://dc.lft.to/lastmile_qr_scan", "android": "https://dc.lft.to/lastmile_qr_scan"}, "fusion_lon": 0.0, "lat": 38.8921645, "is_disabled": 0, "bike_id": "410cc142c9a3863e8856c0d7c4c6ac7e", "fusion_lat": 0.0, "is_reserved": 0, "lon": -76.956931}, {"type": "electric_bike", "name": "39c5a45172556ee055f507a5646c5575", "rental_uris": {"ios": "https://dc.lft.to/lastmile_qr_scan", "android": "https://dc.lft.to/lastmile_qr_scan"}, "fusion_lon": 0.0, "lat": 38.8551505, "is_disabled": 0, "bike_id": "39c5a45172556ee055f507a5646c5575", "fusion_lat": 0.0, "is_reserved": 0, "lon": -77.12043883333334}, {"type": "electric_bike", "name": "11aada48bc0ed7a8b33842e7e555bde5", "rental_uris": {"ios": "https://dc.lft.to/lastmile_qr_scan", "android": "https://dc.lft.to/lastmile_qr_scan"}, "fusion_lon": 0.0, "lat": 38.8578495, "is_disabled": 0, "bike_id": "11aada48bc0ed7a8b33842e7e555bde5", "fusion_lat": 0.0, "is_reserved": 0, "lon": -77.120212}, {"type": "electric_scooter", "name": "bd1734ac327bd4ad6db5e922e2c05fca", "rental_uris": {"ios": "https://dc.lft.to/lastmile_qr_scan", "android": "https://dc.lft.to/lastmile_qr_scan"}, "fusion_lon": 0.0, "lat": 38.89514583333333, "is_disabled": 0, "bike_id": "bd1734ac327bd4ad6db5e922e2c05fca", "fusion_lat": 0.0, "is_reserved": 0, "lon": -77.025585}, {"type": "electric_scooter", "name": "eba9e3fa260aef3382e04c502661c39d", "rental_uris": {"ios": "https://dc.lft.to/lastmile_qr_scan", "android": "https://dc.lft.to/lastmile_qr_scan"}, "fusion_lon": 0.0, "lat": 38.920451666666665, "is_disabled": 0, "bike_id": "eba9e3fa260aef3382e04c502661c39d", "fusion_lat": 0.0, "is_reserved": 0, "lon": -77.02575483333334}, {"type": "electric_scooter", "name": "92288b0b64faaf66d2c9ea533e2980dd", "rental_uris": {"ios": "https://dc.lft.to/lastmile_qr_scan", "android": "https://dc.lft.to/lastmile_qr_scan"}, "fusion_lon": 0.0, "lat": 38.910289666666664, "is_disabled": 0, "bike_id": "92288b0b64faaf66d2c9ea533e2980dd", "fusion_lat": 0.0, "is_reserved": 0, "lon": -77.0337355}, {"type": "electric_scooter", "name": "b0823e9e584b05d95ab641d168e2ac8e", "rental_uris": {"ios": "https://dc.lft.to/lastmile_qr_scan", "android": "https://dc.lft.to/lastmile_qr_scan"}, "fusion_lon": 0.0, "lat": 38.876037333333336, "is_disabled": 0, "bike_id": "b0823e9e584b05d95ab641d168e2ac8e", "fusion_lat": 0.0, "is_reserved": 0, "lon": -77.00601666666667}, {"type": "electric_scooter", "name": "478ad207e3caa423962c3924cd2bd1d6", "rental_uris": {"ios": "https://dc.lft.to/lastmile_qr_scan", "android": "https://dc.lft.to/lastmile_qr_scan"}, "fusion_lon": 0.0, "lat": 38.898151166666665, "is_disabled": 0, "bike_id": "478ad207e3caa423962c3924cd2bd1d6", "fusion_lat": 0.0, "is_reserved": 0, "lon": -77.03331783333333}, {"type": "electric_scooter", "name": "bc00b5167904b50e096260237f0b143a", "rental_uris": {"ios": "https://dc.lft.to/lastmile_qr_scan", "android": "https://dc.lft.to/lastmile_qr_scan"}, "fusion_lon": 0.0, "lat": 38.940681833333336, "is_disabled": 0, "bike_id": "bc00b5167904b50e096260237f0b143a", "fusion_lat": 0.0, "is_reserved": 0, "lon": -76.99951133333333}, {"type": "electric_scooter", "name": "f1dfd23ecc06b032a38dd847a4c7f63c", "rental_uris": {"ios": "https://dc.lft.to/lastmile_qr_scan", "android": "https://dc.lft.to/lastmile_qr_scan"}, "fusion_lon": 0.0, "lat": 38.9166415, "is_disabled": 0, "bike_id": "f1dfd23ecc06b032a38dd847a4c7f63c", "fusion_lat": 0.0, "is_reserved": 0, "lon": -77.02716666666667}, {"type": "electric_bike", "name": "61797c1fa2690c01c0792e7d07aeb28d", "rental_uris": {"ios": "https://dc.lft.to/lastmile_qr_scan", "android": "https://dc.lft.to/lastmile_qr_scan"}, "fusion_lon": 0.0, "lat": 38.9922555, "is_disabled": 0, "bike_id": "61797c1fa2690c01c0792e7d07aeb28d", "fusion_lat": 0.0, "is_reserved": 0, "lon": -76.94409066666667}, {"type": "electric_scooter", "name": "4444301acca658e042432d1d8ac32944", "rental_uris": {"ios": "https://dc.lft.to/lastmile_qr_scan", "android": "https://dc.lft.to/lastmile_qr_scan"}, "fusion_lon": 0.0, "lat": 38.91838116666667, "is_disabled": 0, "bike_id": "4444301acca658e042432d1d8ac32944", "fusion_lat": 0.0, "is_reserved": 0, "lon": -77.04028633333333}, {"type": "electric_scooter", "name": "b6fd4f0dec518bad8d42cb2232207de4", "rental_uris": {"ios": "https://dc.lft.to/lastmile_qr_scan", "android": "https://dc.lft.to/lastmile_qr_scan"}, "fusion_lon": 0.0, "lat": 38.9647935, "is_disabled": 0, "bike_id": "b6fd4f0dec518bad8d42cb2232207de4", "fusion_lat": 0.0, "is_reserved": 0, "lon": -77.01189216666667}, {"type": "electric_scooter", "name": "94dc02f64fffe63df07c900a464ecd89", "rental_uris": {"ios": "https://dc.lft.to/lastmile_qr_scan", "android": "https://dc.lft.to/lastmile_qr_scan"}, "fusion_lon": 0.0, "lat": 38.905648666666664, "is_disabled": 0, "bike_id": "94dc02f64fffe63df07c900a464ecd89", "fusion_lat": 0.0, "is_reserved": 0, "lon": -77.0241125}, {"type": "electric_scooter", "name": "11f1a3200851e9a40e463742f45df683", "rental_uris": {"ios": "https://dc.lft.to/lastmile_qr_scan", "android": "https://dc.lft.to/lastmile_qr_scan"}, "fusion_lon": 0.0, "lat": 38.900212, "is_disabled": 0, "bike_id": "11f1a3200851e9a40e463742f45df683", "fusion_lat": 0.0, "is_reserved": 0, "lon": -77.04039683333333}, {"type": "electric_scooter", "name": "86a3ebeefd8f9edb4e5deda0cf2ebf42", "rental_uris": {"ios": "https://dc.lft.to/lastmile_qr_scan", "android": "https://dc.lft.to/lastmile_qr_scan"}, "fusion_lon": 0.0, "lat": 38.900172, "is_disabled": 0, "bike_id": "86a3ebeefd8f9edb4e5deda0cf2ebf42", "fusion_lat": 0.0, "is_reserved": 0, "lon": -76.98723666666666}, {"type": "electric_scooter", "name": "1aa77e3f8b481ec3477774c32970c230", "rental_uris": {"ios": "https://dc.lft.to/lastmile_qr_scan", "android": "https://dc.lft.to/lastmile_qr_scan"}, "fusion_lon": 0.0, "lat": 38.910374166666664, "is_disabled": 0, "bike_id": "1aa77e3f8b481ec3477774c32970c230", "fusion_lat": 0.0, "is_reserved": 0, "lon": -77.010249}, {"type": "electric_scooter", "name": "a82798d236d83ba8240255533b9359b7", "rental_uris": {"ios": "https://dc.lft.to/lastmile_qr_scan", "android": "https://dc.lft.to/lastmile_qr_scan"}, "fusion_lon": 0.0, "lat": 38.912290166666665, "is_disabled": 0, "bike_id": "a82798d236d83ba8240255533b9359b7", "fusion_lat": 0.0, "is_reserved": 0, "lon": -77.04870666666666}, {"type": "electric_scooter", "name": "f277e502857f6a74c2d6420280b08545", "rental_uris": {"ios": "https://dc.lft.to/lastmile_qr_scan", "android": "https://dc.lft.to/lastmile_qr_scan"}, "fusion_lon": 0.0, "lat": 38.92469216666667, "is_disabled": 0, "bike_id": "f277e502857f6a74c2d6420280b08545", "fusion_lat": 0.0, "is_reserved": 0, "lon": -77.0220395}, {"type": "electric_scooter", "name": "4390eb1a24320a512869a2ec2500b7f7", "rental_uris": {"ios": "https://dc.lft.to/lastmile_qr_scan", "android": "https://dc.lft.to/lastmile_qr_scan"}, "fusion_lon": 0.0, "lat": 38.91688466666667, "is_disabled": 0, "bike_id": "4390eb1a24320a512869a2ec2500b7f7", "fusion_lat": 0.0, "is_reserved": 0, "lon": -77.02953116666667}, {"type": "electric_scooter", "name": "a5b989827631a0eb3232c9a4c39b8b5d", "rental_uris": {"ios": "https://dc.lft.to/lastmile_qr_scan", "android": "https://dc.lft.to/lastmile_qr_scan"}, "fusion_lon": 0.0, "lat": 38.9307695, "is_disabled": 0, "bike_id": "a5b989827631a0eb3232c9a4c39b8b5d", "fusion_lat": 0.0, "is_reserved": 0, "lon": -77.028073}, {"type": "electric_scooter", "name": "d202b37e6dc6aaa39bd3448b5589d9d8", "rental_uris": {"ios": "https://dc.lft.to/lastmile_qr_scan", "android": "https://dc.lft.to/lastmile_qr_scan"}, "fusion_lon": 0.0, "lat": 38.91063283333333, "is_disabled": 0, "bike_id": "d202b37e6dc6aaa39bd3448b5589d9d8", "fusion_lat": 0.0, "is_reserved": 0, "lon": -77.00387983333333}, {"type": "electric_bike", "name": "8cca8c30c55f12e53840722e4e26f027", "rental_uris": {"ios": "https://dc.lft.to/lastmile_qr_scan", "android": "https://dc.lft.to/lastmile_qr_scan"}, "fusion_lon": 0.0, "lat": 38.85766, "is_disabled": 0, "bike_id": "8cca8c30c55f12e53840722e4e26f027", "fusion_lat": 0.0, "is_reserved": 0, "lon": -76.98767816666667}, {"type": "electric_scooter", "name": "d2c0ce13dd78db3dc685b4708822504d", "rental_uris": {"ios": "https://dc.lft.to/lastmile_qr_scan", "android": "https://dc.lft.to/lastmile_qr_scan"}, "fusion_lon": 0.0, "lat": 38.916948, "is_disabled": 0, "bike_id": "d2c0ce13dd78db3dc685b4708822504d", "fusion_lat": 0.0, "is_reserved": 0, "lon": -77.04107516666667}, {"type": "electric_scooter", "name": "1adb06e0ce6cb931d42425aca76a4d15", "rental_uris": {"ios": "https://dc.lft.to/lastmile_qr_scan", "android": "https://dc.lft.to/lastmile_qr_scan"}, "fusion_lon": 0.0, "lat": 38.91705966666667, "is_disabled": 0, "bike_id": "1adb06e0ce6cb931d42425aca76a4d15", "fusion_lat": 0.0, "is_reserved": 0, "lon": -77.04170116666667}, {"type": "electric_scooter", "name": "15c5d395b2f58a2b8d56b95d3b05a2e5", "rental_uris": {"ios": "https://dc.lft.to/lastmile_qr_scan", "android": "https://dc.lft.to/lastmile_qr_scan"}, "fusion_lon": 0.0, "lat": 38.92946533333333, "is_disabled": 0, "bike_id": "15c5d395b2f58a2b8d56b95d3b05a2e5", "fusion_lat": 0.0, "is_reserved": 0, "lon": -77.0189415}, {"type": "electric_scooter", "name": "0f2714076f532bc73dd7d1861e375ba3", "rental_uris": {"ios": "https://dc.lft.to/lastmile_qr_scan", "android": "https://dc.lft.to/lastmile_qr_scan"}, "fusion_lon": 0.0, "lat": 38.905135666666666, "is_disabled": 0, "bike_id": "0f2714076f532bc73dd7d1861e375ba3", "fusion_lat": 0.0, "is_reserved": 0, "lon": -77.04335633333334}, {"type": "electric_scooter", "name": "f0b56c6d7b2d6984283b4001ee181103", "rental_uris": {"ios": "https://dc.lft.to/lastmile_qr_scan", "android": "https://dc.lft.to/lastmile_qr_scan"}, "fusion_lon": 0.0, "lat": 38.903573333333334, "is_disabled": 0, "bike_id": "f0b56c6d7b2d6984283b4001ee181103", "fusion_lat": 0.0, "is_reserved": 0, "lon": -77.032066}, {"type": "electric_scooter", "name": "d7a44585315edaf9fa047d0c6a71f7a3", "rental_uris": {"ios": "https://dc.lft.to/lastmile_qr_scan", "android": "https://dc.lft.to/lastmile_qr_scan"}, "fusion_lon": 0.0, "lat": 38.900617833333335, "is_disabled": 0, "bike_id": "d7a44585315edaf9fa047d0c6a71f7a3", "fusion_lat": 0.0, "is_reserved": 0, "lon": -77.05062633333333}, {"type": "electric_scooter", "name": "043fd218914b19d21a3ba251ee5fc8be", "rental_uris": {"ios": "https://dc.lft.to/lastmile_qr_scan", "android": "https://dc.lft.to/lastmile_qr_scan"}, "fusion_lon": 0.0, "lat": 38.895081833333336, "is_disabled": 0, "bike_id": "043fd218914b19d21a3ba251ee5fc8be", "fusion_lat": 0.0, "is_reserved": 0, "lon": -77.0219345}, {"type": "electric_scooter", "name": "22b832167bafac2e636431a7488a9b3f", "rental_uris": {"ios": "https://dc.lft.to/lastmile_qr_scan", "android": "https://dc.lft.to/lastmile_qr_scan"}, "fusion_lon": 0.0, "lat": 38.92114633333333, "is_disabled": 0, "bike_id": "22b832167bafac2e636431a7488a9b3f", "fusion_lat": 0.0, "is_reserved": 0, "lon": -77.04385733333334}, {"type": "electric_scooter", "name": "112be3634355c61868a8b8305a84e731", "rental_uris": {"ios": "https://dc.lft.to/lastmile_qr_scan", "android": "https://dc.lft.to/lastmile_qr_scan"}, "fusion_lon": 0.0, "lat": 38.884601833333335, "is_disabled": 0, "bike_id": "112be3634355c61868a8b8305a84e731", "fusion_lat": 0.0, "is_reserved": 0, "lon": -76.949843}, {"type": "electric_scooter", "name": "1c820c093ea05b3696a46adf8098422e", "rental_uris": {"ios": "https://dc.lft.to/lastmile_qr_scan", "android": "https://dc.lft.to/lastmile_qr_scan"}, "fusion_lon": 0.0, "lat": 38.898706, "is_disabled": 0, "bike_id": "1c820c093ea05b3696a46adf8098422e", "fusion_lat": 0.0, "is_reserved": 0, "lon": -77.03283166666667}, {"type": "electric_scooter", "name": "7df72eed67b25b0b6051d242ad5e3118", "rental_uris": {"ios": "https://dc.lft.to/lastmile_qr_scan", "android": "https://dc.lft.to/lastmile_qr_scan"}, "fusion_lon": 0.0, "lat": 38.883184166666666, "is_disabled": 0, "bike_id": "7df72eed67b25b0b6051d242ad5e3118", "fusion_lat": 0.0, "is_reserved": 0, "lon": -77.01763466666667}, {"type": "electric_scooter", "name": "4ba8fb997313f898dcf49bb59fad303c", "rental_uris": {"ios": "https://dc.lft.to/lastmile_qr_scan", "android": "https://dc.lft.to/lastmile_qr_scan"}, "fusion_lon": 0.0, "lat": 38.936722, "is_disabled": 0, "bike_id": "4ba8fb997313f898dcf49bb59fad303c", "fusion_lat": 0.0, "is_reserved": 0, "lon": -77.0358975}, {"type": "electric_scooter", "name": "44839e76973c6696b3a4f9d93ae45ff2", "rental_uris": {"ios": "https://dc.lft.to/lastmile_qr_scan", "android": "https://dc.lft.to/lastmile_qr_scan"}, "fusion_lon": 0.0, "lat": 38.902209, "is_disabled": 0, "bike_id": "44839e76973c6696b3a4f9d93ae45ff2", "fusion_lat": 0.0, "is_reserved": 0, "lon": -77.04577283333333}, {"type": "electric_scooter", "name": "aebecedf34a7cc31900c8798702079cc", "rental_uris": {"ios": "https://dc.lft.to/lastmile_qr_scan", "android": "https://dc.lft.to/lastmile_qr_scan"}, "fusion_lon": 0.0, "lat": 38.9204005, "is_disabled": 0, "bike_id": "aebecedf34a7cc31900c8798702079cc", "fusion_lat": 0.0, "is_reserved": 0, "lon": -77.01680033333334}, {"type": "electric_scooter", "name": "f3e64c6476869e2eb91dd50fc0e90ae2", "rental_uris": {"ios": "https://dc.lft.to/lastmile_qr_scan", "android": "https://dc.lft.to/lastmile_qr_scan"}, "fusion_lon": 0.0, "lat": 38.91630833333333, "is_disabled": 0, "bike_id": "f3e64c6476869e2eb91dd50fc0e90ae2", "fusion_lat": 0.0, "is_reserved": 0, "lon": -77.04788133333334}, {"type": "electric_scooter", "name": "866584d60a102147f43ef3012a4ffeec", "rental_uris": {"ios": "https://dc.lft.to/lastmile_qr_scan", "android": "https://dc.lft.to/lastmile_qr_scan"}, "fusion_lon": 0.0, "lat": 38.91698683333333, "is_disabled": 0, "bike_id": "866584d60a102147f43ef3012a4ffeec", "fusion_lat": 0.0, "is_reserved": 0, "lon": -77.03469783333334}, {"type": "electric_scooter", "name": "4812192dc08810da0b8cdaaec059dc17", "rental_uris": {"ios": "https://dc.lft.to/lastmile_qr_scan", "android": "https://dc.lft.to/lastmile_qr_scan"}, "fusion_lon": 0.0, "lat": 38.891454833333334, "is_disabled": 0, "bike_id": "4812192dc08810da0b8cdaaec059dc17", "fusion_lat": 0.0, "is_reserved": 0, "lon": -76.9925695}, {"type": "electric_scooter", "name": "2c3cc73b3df912eecacfc298330a0c3e", "rental_uris": {"ios": "https://dc.lft.to/lastmile_qr_scan", "android": "https://dc.lft.to/lastmile_qr_scan"}, "fusion_lon": 0.0, "lat": 38.882998666666666, "is_disabled": 0, "bike_id": "2c3cc73b3df912eecacfc298330a0c3e", "fusion_lat": 0.0, "is_reserved": 0, "lon": -76.9485695}, {"type": "electric_scooter", "name": "d0d5e49838b6bb8acdfd64811d85e347", "rental_uris": {"ios": "https://dc.lft.to/lastmile_qr_scan", "android": "https://dc.lft.to/lastmile_qr_scan"}, "fusion_lon": 0.0, "lat": 38.917737333333335, "is_disabled": 0, "bike_id": "d0d5e49838b6bb8acdfd64811d85e347", "fusion_lat": 0.0, "is_reserved": 0, "lon": -77.02276066666667}, {"type": "electric_scooter", "name": "5a1b85a62510df69fb4a06300a204224", "rental_uris": {"ios": "https://dc.lft.to/lastmile_qr_scan", "android": "https://dc.lft.to/lastmile_qr_scan"}, "fusion_lon": 0.0, "lat": 38.914621333333336, "is_disabled": 0, "bike_id": "5a1b85a62510df69fb4a06300a204224", "fusion_lat": 0.0, "is_reserved": 0, "lon": -77.03885183333334}, {"type": "electric_scooter", "name": "4f51404769dc58a270f2638466e1372d", "rental_uris": {"ios": "https://dc.lft.to/lastmile_qr_scan", "android": "https://dc.lft.to/lastmile_qr_scan"}, "fusion_lon": 0.0, "lat": 38.919304, "is_disabled": 0, "bike_id": "4f51404769dc58a270f2638466e1372d", "fusion_lat": 0.0, "is_reserved": 0, "lon": -77.01359833333333}, {"type": "electric_scooter", "name": "14b9b29aa1fdc5780685b87f5ad31d09", "rental_uris": {"ios": "https://dc.lft.to/lastmile_qr_scan", "android": "https://dc.lft.to/lastmile_qr_scan"}, "fusion_lon": 0.0, "lat": 38.9000855, "is_disabled": 0, "bike_id": "14b9b29aa1fdc5780685b87f5ad31d09", "fusion_lat": 0.0, "is_reserved": 0, "lon": -77.031807}, {"type": "electric_scooter", "name": "928ec81ef188ebc341c218904466a78c", "rental_uris": {"ios": "https://dc.lft.to/lastmile_qr_scan", "android": "https://dc.lft.to/lastmile_qr_scan"}, "fusion_lon": 0.0, "lat": 38.890443, "is_disabled": 0, "bike_id": "928ec81ef188ebc341c218904466a78c", "fusion_lat": 0.0, "is_reserved": 0, "lon": -76.95246216666666}, {"type": "electric_scooter", "name": "880dd058309e5e089f0483488d2625f5", "rental_uris": {"ios": "https://dc.lft.to/lastmile_qr_scan", "android": "https://dc.lft.to/lastmile_qr_scan"}, "fusion_lon": 0.0, "lat": 38.877131166666665, "is_disabled": 0, "bike_id": "880dd058309e5e089f0483488d2625f5", "fusion_lat": 0.0, "is_reserved": 0, "lon": -77.01651716666667}, {"type": "electric_scooter", "name": "9225f1e11b1c50a46a85050f431aa47c", "rental_uris": {"ios": "https://dc.lft.to/lastmile_qr_scan", "android": "https://dc.lft.to/lastmile_qr_scan"}, "fusion_lon": 0.0, "lat": 38.911056, "is_disabled": 0, "bike_id": "9225f1e11b1c50a46a85050f431aa47c", "fusion_lat": 0.0, "is_reserved": 0, "lon": -77.02418133333333}, {"type": "electric_scooter", "name": "783ae369c3aabc6057becbd377d40b87", "rental_uris": {"ios": "https://dc.lft.to/lastmile_qr_scan", "android": "https://dc.lft.to/lastmile_qr_scan"}, "fusion_lon": 0.0, "lat": 38.924137333333334, "is_disabled": 0, "bike_id": "783ae369c3aabc6057becbd377d40b87", "fusion_lat": 0.0, "is_reserved": 0, "lon": -77.02032266666667}, {"type": "electric_scooter", "name": "4b956eb2c9671e36649b162f4027f1ec", "rental_uris": {"ios": "https://dc.lft.to/lastmile_qr_scan", "android": "https://dc.lft.to/lastmile_qr_scan"}, "fusion_lon": 0.0, "lat": 38.892313333333334, "is_disabled": 0, "bike_id": "4b956eb2c9671e36649b162f4027f1ec", "fusion_lat": 0.0, "is_reserved": 0, "lon": -77.04160866666666}, {"type": "electric_scooter", "name": "9ff888098337a3a94b364114a38f2b26", "rental_uris": {"ios": "https://dc.lft.to/lastmile_qr_scan", "android": "https://dc.lft.to/lastmile_qr_scan"}, "fusion_lon": 0.0, "lat": 38.8641835, "is_disabled": 0, "bike_id": "9ff888098337a3a94b364114a38f2b26", "fusion_lat": 0.0, "is_reserved": 0, "lon": -76.98996833333334}, {"type": "electric_scooter", "name": "19574c2394c98aa56dacc9bad8ec5e47", "rental_uris": {"ios": "https://dc.lft.to/lastmile_qr_scan", "android": "https://dc.lft.to/lastmile_qr_scan"}, "fusion_lon": 0.0, "lat": 38.889084833333335, "is_disabled": 0, "bike_id": "19574c2394c98aa56dacc9bad8ec5e47", "fusion_lat": 0.0, "is_reserved": 0, "lon": -76.93665366666667}, {"type": "electric_scooter", "name": "762b4094f6cdfa40a33cb5ed2c4dbaca", "rental_uris": {"ios": "https://dc.lft.to/lastmile_qr_scan", "android": "https://dc.lft.to/lastmile_qr_scan"}, "fusion_lon": 0.0, "lat": 38.90029416666667, "is_disabled": 0, "bike_id": "762b4094f6cdfa40a33cb5ed2c4dbaca", "fusion_lat": 0.0, "is_reserved": 0, "lon": -77.01300816666667}, {"type": "electric_scooter", "name": "1b8c75b4ecad1aac73fdfb1112bd2986", "rental_uris": {"ios": "https://dc.lft.to/lastmile_qr_scan", "android": "https://dc.lft.to/lastmile_qr_scan"}, "fusion_lon": 0.0, "lat": 38.9126065, "is_disabled": 0, "bike_id": "1b8c75b4ecad1aac73fdfb1112bd2986", "fusion_lat": 0.0, "is_reserved": 0, "lon": -77.0484375}, {"type": "electric_scooter", "name": "76aab2871607117ccee61ae126373fed", "rental_uris": {"ios": "https://dc.lft.to/lastmile_qr_scan", "android": "https://dc.lft.to/lastmile_qr_scan"}, "fusion_lon": 0.0, "lat": 38.90953716666667, "is_disabled": 0, "bike_id": "76aab2871607117ccee61ae126373fed", "fusion_lat": 0.0, "is_reserved": 0, "lon": -76.98540716666666}, {"type": "electric_scooter", "name": "64635769f0d7eb680e03ab5497d5c634", "rental_uris": {"ios": "https://dc.lft.to/lastmile_qr_scan", "android": "https://dc.lft.to/lastmile_qr_scan"}, "fusion_lon": 0.0, "lat": 38.89583416666667, "is_disabled": 0, "bike_id": "64635769f0d7eb680e03ab5497d5c634", "fusion_lat": 0.0, "is_reserved": 0, "lon": -77.025745}, {"type": "electric_scooter", "name": "0200c0af0a90490628da84449134e0a1", "rental_uris": {"ios": "https://dc.lft.to/lastmile_qr_scan", "android": "https://dc.lft.to/lastmile_qr_scan"}, "fusion_lon": 0.0, "lat": 38.949066333333334, "is_disabled": 0, "bike_id": "0200c0af0a90490628da84449134e0a1", "fusion_lat": 0.0, "is_reserved": 0, "lon": -77.06628883333333}, {"type": "electric_scooter", "name": "e497f0c6004109edec02e87f37812fcb", "rental_uris": {"ios": "https://dc.lft.to/lastmile_qr_scan", "android": "https://dc.lft.to/lastmile_qr_scan"}, "fusion_lon": 0.0, "lat": 38.923562833333335, "is_disabled": 0, "bike_id": "e497f0c6004109edec02e87f37812fcb", "fusion_lat": 0.0, "is_reserved": 0, "lon": -77.05050783333333}, {"type": "electric_scooter", "name": "6ac0ccf08d664fc201407c54013dc089", "rental_uris": {"ios": "https://dc.lft.to/lastmile_qr_scan", "android": "https://dc.lft.to/lastmile_qr_scan"}, "fusion_lon": 0.0, "lat": 38.9001495, "is_disabled": 0, "bike_id": "6ac0ccf08d664fc201407c54013dc089", "fusion_lat": 0.0, "is_reserved": 0, "lon": -77.00652866666667}, {"type": "electric_scooter", "name": "b92053e8a2f7c4e642a6856f87fdc936", "rental_uris": {"ios": "https://dc.lft.to/lastmile_qr_scan", "android": "https://dc.lft.to/lastmile_qr_scan"}, "fusion_lon": 0.0, "lat": 38.908428666666666, "is_disabled": 0, "bike_id": "b92053e8a2f7c4e642a6856f87fdc936", "fusion_lat": 0.0, "is_reserved": 0, "lon": -77.04352583333333}, {"type": "electric_scooter", "name": "6fea5f7dbe90c913ea709f911329c29d", "rental_uris": {"ios": "https://dc.lft.to/lastmile_qr_scan", "android": "https://dc.lft.to/lastmile_qr_scan"}, "fusion_lon": 0.0, "lat": 38.917029, "is_disabled": 0, "bike_id": "6fea5f7dbe90c913ea709f911329c29d", "fusion_lat": 0.0, "is_reserved": 0, "lon": -77.04219466666666}, {"type": "electric_scooter", "name": "b69facbe68ef3542d901ab63ec36cd70", "rental_uris": {"ios": "https://dc.lft.to/lastmile_qr_scan", "android": "https://dc.lft.to/lastmile_qr_scan"}, "fusion_lon": 0.0, "lat": 38.905589166666665, "is_disabled": 0, "bike_id": "b69facbe68ef3542d901ab63ec36cd70", "fusion_lat": 0.0, "is_reserved": 0, "lon": -77.03451566666666}, {"type": "electric_scooter", "name": "9cc8b3558f1d30977919ecc2182c4194", "rental_uris": {"ios": "https://dc.lft.to/lastmile_qr_scan", "android": "https://dc.lft.to/lastmile_qr_scan"}, "fusion_lon": 0.0, "lat": 38.893657, "is_disabled": 0, "bike_id": "9cc8b3558f1d30977919ecc2182c4194", "fusion_lat": 0.0, "is_reserved": 0, "lon": -76.925901}, {"type": "electric_scooter", "name": "969fc9927624626f9274680b30083f7e", "rental_uris": {"ios": "https://dc.lft.to/lastmile_qr_scan", "android": "https://dc.lft.to/lastmile_qr_scan"}, "fusion_lon": 0.0, "lat": 38.916971, "is_disabled": 0, "bike_id": "969fc9927624626f9274680b30083f7e", "fusion_lat": 0.0, "is_reserved": 0, "lon": -77.03447116666666}, {"type": "electric_bike", "name": "a61b38844a98242703c613fec8411d38", "rental_uris": {"ios": "https://dc.lft.to/lastmile_qr_scan", "android": "https://dc.lft.to/lastmile_qr_scan"}, "fusion_lon": 0.0, "lat": 38.865156999999996, "is_disabled": 0, "bike_id": "a61b38844a98242703c613fec8411d38", "fusion_lat": 0.0, "is_reserved": 0, "lon": -77.129362}, {"type": "electric_scooter", "name": "1f8c28d134cd867cd054babba76868c8", "rental_uris": {"ios": "https://dc.lft.to/lastmile_qr_scan", "android": "https://dc.lft.to/lastmile_qr_scan"}, "fusion_lon": 0.0, "lat": 38.900129, "is_disabled": 0, "bike_id": "1f8c28d134cd867cd054babba76868c8", "fusion_lat": 0.0, "is_reserved": 0, "lon": -77.00187466666667}, {"type": "electric_scooter", "name": "daf04fc9b5cdb6803c3f2017df7f6f60", "rental_uris": {"ios": "https://dc.lft.to/lastmile_qr_scan", "android": "https://dc.lft.to/lastmile_qr_scan"}, "fusion_lon": 0.0, "lat": 38.86461166666667, "is_disabled": 0, "bike_id": "daf04fc9b5cdb6803c3f2017df7f6f60", "fusion_lat": 0.0, "is_reserved": 0, "lon": -77.01267616666667}, {"type": "electric_scooter", "name": "bdfdf9c1cb22b3e8a4847695811ce033", "rental_uris": {"ios": "https://dc.lft.to/lastmile_qr_scan", "android": "https://dc.lft.to/lastmile_qr_scan"}, "fusion_lon": 0.0, "lat": 38.887676166666665, "is_disabled": 0, "bike_id": "bdfdf9c1cb22b3e8a4847695811ce033", "fusion_lat": 0.0, "is_reserved": 0, "lon": -76.977534}, {"type": "electric_bike", "name": "fbca3714447379719943e8c0bd8771ae", "rental_uris": {"ios": "https://dc.lft.to/lastmile_qr_scan", "android": "https://dc.lft.to/lastmile_qr_scan"}, "fusion_lon": 0.0, "lat": 38.963079, "is_disabled": 0, "bike_id": "fbca3714447379719943e8c0bd8771ae", "fusion_lat": 0.0, "is_reserved": 0, "lon": -77.07490166666666}, {"type": "electric_scooter", "name": "e91ab3366f85995b78ec1c7208e16890", "rental_uris": {"ios": "https://dc.lft.to/lastmile_qr_scan", "android": "https://dc.lft.to/lastmile_qr_scan"}, "fusion_lon": 0.0, "lat": 38.92073666666667, "is_disabled": 0, "bike_id": "e91ab3366f85995b78ec1c7208e16890", "fusion_lat": 0.0, "is_reserved": 0, "lon": -77.03497816666666}, {"type": "electric_scooter", "name": "ee99ee5932c71f406ced7924a1885945", "rental_uris": {"ios": "https://dc.lft.to/lastmile_qr_scan", "android": "https://dc.lft.to/lastmile_qr_scan"}, "fusion_lon": 0.0, "lat": 38.905053833333334, "is_disabled": 0, "bike_id": "ee99ee5932c71f406ced7924a1885945", "fusion_lat": 0.0, "is_reserved": 0, "lon": -77.0298895}, {"type": "electric_bike", "name": "0735908a2d5552a46bf1eda09154f038", "rental_uris": {"ios": "https://dc.lft.to/lastmile_qr_scan", "android": "https://dc.lft.to/lastmile_qr_scan"}, "fusion_lon": 0.0, "lat": 38.824571666666664, "is_disabled": 0, "bike_id": "0735908a2d5552a46bf1eda09154f038", "fusion_lat": 0.0, "is_reserved": 0, "lon": -77.00795283333333}, {"type": "electric_scooter", "name": "ef8b0a040b8c8877bee144136e475344", "rental_uris": {"ios": "https://dc.lft.to/lastmile_qr_scan", "android": "https://dc.lft.to/lastmile_qr_scan"}, "fusion_lon": 0.0, "lat": 38.92311333333333, "is_disabled": 0, "bike_id": "ef8b0a040b8c8877bee144136e475344", "fusion_lat": 0.0, "is_reserved": 0, "lon": -77.04109783333334}, {"type": "electric_scooter", "name": "5898ed4f1e228fd61b78bbdaa5c35346", "rental_uris": {"ios": "https://dc.lft.to/lastmile_qr_scan", "android": "https://dc.lft.to/lastmile_qr_scan"}, "fusion_lon": 0.0, "lat": 38.914882166666665, "is_disabled": 0, "bike_id": "5898ed4f1e228fd61b78bbdaa5c35346", "fusion_lat": 0.0, "is_reserved": 0, "lon": -77.04834666666666}, {"type": "electric_scooter", "name": "4d787070db2d5a96d9a6440c6ee91d42", "rental_uris": {"ios": "https://dc.lft.to/lastmile_qr_scan", "android": "https://dc.lft.to/lastmile_qr_scan"}, "fusion_lon": 0.0, "lat": 38.916948166666664, "is_disabled": 0, "bike_id": "4d787070db2d5a96d9a6440c6ee91d42", "fusion_lat": 0.0, "is_reserved": 0, "lon": -77.037763}, {"type": "electric_scooter", "name": "e607f515202db0be30df06e906934db2", "rental_uris": {"ios": "https://dc.lft.to/lastmile_qr_scan", "android": "https://dc.lft.to/lastmile_qr_scan"}, "fusion_lon": 0.0, "lat": 38.894278166666666, "is_disabled": 0, "bike_id": "e607f515202db0be30df06e906934db2", "fusion_lat": 0.0, "is_reserved": 0, "lon": -77.00100633333334}, {"type": "electric_scooter", "name": "8491a444007eb0e3f53feeed040968cd", "rental_uris": {"ios": "https://dc.lft.to/lastmile_qr_scan", "android": "https://dc.lft.to/lastmile_qr_scan"}, "fusion_lon": 0.0, "lat": 38.917393, "is_disabled": 0, "bike_id": "8491a444007eb0e3f53feeed040968cd", "fusion_lat": 0.0, "is_reserved": 0, "lon": -77.0459795}, {"type": "electric_scooter", "name": "0daf22d15d788e435e4771f8a2936428", "rental_uris": {"ios": "https://dc.lft.to/lastmile_qr_scan", "android": "https://dc.lft.to/lastmile_qr_scan"}, "fusion_lon": 0.0, "lat": 38.88495416666667, "is_disabled": 0, "bike_id": "0daf22d15d788e435e4771f8a2936428", "fusion_lat": 0.0, "is_reserved": 0, "lon": -76.99637233333333}, {"type": "electric_bike", "name": "d5fb03f9a170ca55faec0c32cf18b85b", "rental_uris": {"ios": "https://dc.lft.to/lastmile_qr_scan", "android": "https://dc.lft.to/lastmile_qr_scan"}, "fusion_lon": 0.0, "lat": 38.881162333333336, "is_disabled": 0, "bike_id": "d5fb03f9a170ca55faec0c32cf18b85b", "fusion_lat": 0.0, "is_reserved": 0, "lon": -77.0167085}, {"type": "electric_scooter", "name": "66788b45edf59fdf6d493752b8e1eb61", "rental_uris": {"ios": "https://dc.lft.to/lastmile_qr_scan", "android": "https://dc.lft.to/lastmile_qr_scan"}, "fusion_lon": 0.0, "lat": 38.921414, "is_disabled": 0, "bike_id": "66788b45edf59fdf6d493752b8e1eb61", "fusion_lat": 0.0, "is_reserved": 0, "lon": -77.04354183333334}, {"type": "electric_scooter", "name": "fcae43865b62fe7f2a1ca390d1b76bda", "rental_uris": {"ios": "https://dc.lft.to/lastmile_qr_scan", "android": "https://dc.lft.to/lastmile_qr_scan"},