{"data": {"bikes": [{"lon": -77.0324665, "rental_uris": {"android": "https://dc.lft.to/lastmile_qr_scan", "ios": "https://dc.lft.to/lastmile_qr_scan"}, "fusion_lon": 0.0, "is_reserved": 0, "is_disabled": 0, "fusion_lat": 0.0, "type": "electric_scooter", "name": "bee7c79a5bbe6496d3d2b7a7c5b31a66", "lat": 38.9052435, "bike_id": "bee7c79a5bbe6496d3d2b7a7c5b31a66"}, {"lon": -77.02473083333334, "rental_uris": {"android": "https://dc.lft.to/lastmile_qr_scan", "ios": "https://dc.lft.to/lastmile_qr_scan"}, "fusion_lon": 0.0, "is_reserved": 0, "is_disabled": 0, "fusion_lat": 0.0, "type": "electric_bike", "name": "222bc5ed0bc8963bc9054b706e6768a3", "lat": 38.898628333333335, "bike_id": "222bc5ed0bc8963bc9054b706e6768a3"}, {"lon": -77.0033415, "rental_uris": {"android": "https://dc.lft.to/lastmile_qr_scan", "ios": "https://dc.lft.to/lastmile_qr_scan"}, "fusion_lon": 0.0, "is_reserved": 0, "is_disabled": 0, "fusion_lat": 0.0, "type": "electric_scooter", "name": "96169886c573939299e0a85a866dd3a5", "lat": 38.876562, "bike_id": "96169886c573939299e0a85a866dd3a5"}, {"lon": -76.9797845, "rental_uris": {"android": "https://dc.lft.to/lastmile_qr_scan", "ios": "https://dc.lft.to/lastmile_qr_scan"}, "fusion_lon": 0.0, "is_reserved": 0, "is_disabled": 0, "fusion_lat": 0.0, "type": "electric_scooter", "name": "0eabe9c521825a138b13c63d6146d20e", "lat": 38.907318333333336, "bike_id": "0eabe9c521825a138b13c63d6146d20e"}, {"lon": -77.03229116666667, "rental_uris": {"android": "https://dc.lft.to/lastmile_qr_scan", "ios": "https://dc.lft.to/lastmile_qr_scan"}, "fusion_lon": 0.0, "is_reserved": 0, "is_disabled": 0, "fusion_lat": 0.0, "type": "electric_scooter", "name": "04382cc16f9f477cb2a7568beaec701d", "lat": 38.928564, "bike_id": "04382cc16f9f477cb2a7568beaec701d"}, {"lon": -77.0321125, "rental_uris": {"android": "https://dc.lft.to/lastmile_qr_scan", "ios": "https://dc.lft.to/lastmile_qr_scan"}, "fusion_lon": 0.0, "is_reserved": 0, "is_disabled": 0, "fusion_lat": 0.0, "type": "electric_scooter", "name": "3d66b3b48a98284861b1d59a7485e95e", "lat": 38.8922465, "bike_id": "3d66b3b48a98284861b1d59a7485e95e"}, {"lon": -77.02568316666667, "rental_uris": {"android": "https://dc.lft.to/lastmile_qr_scan", "ios": "https://dc.lft.to/lastmile_qr_scan"}, "fusion_lon": 0.0, "is_reserved": 0, "is_disabled": 0, "fusion_lat": 0.0, "type": "electric_scooter", "name": "78eb5aa6dacf1a39168a5919f01f50f7", "lat": 38.90437566666667, "bike_id": "78eb5aa6dacf1a39168a5919f01f50f7"}, {"lon": -77.02306616666667, "rental_uris": {"android": "https://dc.lft.to/lastmile_qr_scan", "ios": "https://dc.lft.to/lastmile_qr_scan"}, "fusion_lon": 0.0, "is_reserved": 0, "is_disabled": 0, "fusion_lat": 0.0, "type": "electric_scooter", "name": "a562d21ca9a9e73047889f5ee7a40cfe", "lat": 38.917814, "bike_id": "a562d21ca9a9e73047889f5ee7a40cfe"}, {"lon": -77.031385, "rental_uris": {"android": "https://dc.lft.to/lastmile_qr_scan", "ios": "https://dc.lft.to/lastmile_qr_scan"}, "fusion_lon": 0.0, "is_reserved": 0, "is_disabled": 0, "fusion_lat": 0.0, "type": "electric_scooter", "name": "9ab591cdfa6de95c176847d537311679", "lat": 38.89942033333333, "bike_id": "9ab591cdfa6de95c176847d537311679"}, {"lon": -77.03438216666666, "rental_uris": {"android": "https://dc.lft.to/lastmile_qr_scan", "ios": "https://dc.lft.to/lastmile_qr_scan"}, "fusion_lon": 0.0, "is_reserved": 0, "is_disabled": 0, "fusion_lat": 0.0, "type": "electric_scooter", "name": "21775910d1fa41ff8cf5faa331a87d66", "lat": 38.9102295, "bike_id": "21775910d1fa41ff8cf5faa331a87d66"}, {"lon": -77.02955966666667, "rental_uris": {"android": "https://dc.lft.to/lastmile_qr_scan", "ios": "https://dc.lft.to/lastmile_qr_scan"}, "fusion_lon": 0.0, "is_reserved": 0, "is_disabled": 0, "fusion_lat": 0.0, "type": "electric_scooter", "name": "225975ddc3f99d575ec9c6444768c31d", "lat": 38.911801, "bike_id": "225975ddc3f99d575ec9c6444768c31d"}, {"lon": -77.025992, "rental_uris": {"android": "https://dc.lft.to/lastmile_qr_scan", "ios": "https://dc.lft.to/lastmile_qr_scan"}, "fusion_lon": 0.0, "is_reserved": 0, "is_disabled": 0, "fusion_lat": 0.0, "type": "electric_scooter", "name": "76ebcc6c4796a1131f2b0e4b3ec47443", "lat": 38.898679333333334, "bike_id": "76ebcc6c4796a1131f2b0e4b3ec47443"}, {"lon": -77.06090016666667, "rental_uris": {"android": "https://dc.lft.to/lastmile_qr_scan", "ios": "https://dc.lft.to/lastmile_qr_scan"}, "fusion_lon": 0.0, "is_reserved": 0, "is_disabled": 0, "fusion_lat": 0.0, "type": "electric_scooter", "name": "e6fc55ac0aa51327ecf42ef03d8386c8", "lat": 38.90234, "bike_id": "e6fc55ac0aa51327ecf42ef03d8386c8"}, {"lon": -77.02182816666667, "rental_uris": {"android": "https://dc.lft.to/lastmile_qr_scan", "ios": "https://dc.lft.to/lastmile_qr_scan"}, "fusion_lon": 0.0, "is_reserved": 0, "is_disabled": 0, "fusion_lat": 0.0, "type": "electric_scooter", "name": "6c0bc21682a3fcf0828e4ac80f62a437", "lat": 38.919612666666666, "bike_id": "6c0bc21682a3fcf0828e4ac80f62a437"}, {"lon": -76.95819883333333, "rental_uris": {"android": "https://dc.lft.to/lastmile_qr_scan", "ios": "https://dc.lft.to/lastmile_qr_scan"}, "fusion_lon": 0.0, "is_reserved": 0, "is_disabled": 0, "fusion_lat": 0.0, "type": "electric_bike", "name": "bb2533cb624aabb3a5a94ad987fcaa6b", "lat": 38.919969, "bike_id": "bb2533cb624aabb3a5a94ad987fcaa6b"}, {"lon": -76.99312566666667, "rental_uris": {"android": "https://dc.lft.to/lastmile_qr_scan", "ios": "https://dc.lft.to/lastmile_qr_scan"}, "fusion_lon": 0.0, "is_reserved": 0, "is_disabled": 0, "fusion_lat": 0.0, "type": "electric_bike", "name": "7a3d10476b8b23286b2286635be5537e", "lat": 38.946350333333335, "bike_id": "7a3d10476b8b23286b2286635be5537e"}, {"lon": -77.03168166666667, "rental_uris": {"android": "https://dc.lft.to/lastmile_qr_scan", "ios": "https://dc.lft.to/lastmile_qr_scan"}, "fusion_lon": 0.0, "is_reserved": 0, "is_disabled": 0, "fusion_lat": 0.0, "type": "electric_scooter", "name": "e83f73f0f9c8241f460277836bde94fb", "lat": 38.89217, "bike_id": "e83f73f0f9c8241f460277836bde94fb"}, {"lon": -77.06516366666666, "rental_uris": {"android": "https://dc.lft.to/lastmile_qr_scan", "ios": "https://dc.lft.to/lastmile_qr_scan"}, "fusion_lon": 0.0, "is_reserved": 0, "is_disabled": 0, "fusion_lat": 0.0, "type": "electric_scooter", "name": "3dca0d030003085c17dbbe8e1b1281dd", "lat": 38.90525216666666, "bike_id": "3dca0d030003085c17dbbe8e1b1281dd"}, {"lon": -77.0555105, "rental_uris": {"android": "https://dc.lft.to/lastmile_qr_scan", "ios": "https://dc.lft.to/lastmile_qr_scan"}, "fusion_lon": 0.0, "is_reserved": 0, "is_disabled": 0, "fusion_lat": 0.0, "type": "electric_bike", "name": "d3538e7de29b4b6d1f7b4509c7b14e61", "lat": 39.036094, "bike_id": "d3538e7de29b4b6d1f7b4509c7b14e61"}, {"lon": -77.094526, "rental_uris": {"android": "https://dc.lft.to/lastmile_qr_scan", "ios": "https://dc.lft.to/lastmile_qr_scan"}, "fusion_lon": 0.0, "is_reserved": 0, "is_disabled": 0, "fusion_lat": 0.0, "type": "electric_bike", "name": "e972f3be7590ca11a023c4e13de17f03", "lat": 38.80754616666667, "bike_id": "e972f3be7590ca11a023c4e13de17f03"}, {"lon": -77.00259816666667, "rental_uris": {"android": "https://dc.lft.to/lastmile_qr_scan", "ios": "https://dc.lft.to/lastmile_qr_scan"}, "fusion_lon": 0.0, "is_reserved": 0, "is_disabled": 0, "fusion_lat": 0.0, "type": "electric_scooter", "name": "d0e472cbce5a7720e83ca38e357357c6", "lat": 38.911855333333335, "bike_id": "d0e472cbce5a7720e83ca38e357357c6"}, {"lon": -77.02086333333334, "rental_uris": {"android": "https://dc.lft.to/lastmile_qr_scan", "ios": "https://dc.lft.to/lastmile_qr_scan"}, "fusion_lon": 0.0, "is_reserved": 0, "is_disabled": 0, "fusion_lat": 0.0, "type": "electric_scooter", "name": "0e361405d54ad6f4fb21c279ca174f5a", "lat": 38.92115366666667, "bike_id": "0e361405d54ad6f4fb21c279ca174f5a"}, {"lon": -77.01525266666667, "rental_uris": {"android": "https://dc.lft.to/lastmile_qr_scan", "ios": "https://dc.lft.to/lastmile_qr_scan"}, "fusion_lon": 0.0, "is_reserved": 0, "is_disabled": 0, "fusion_lat": 0.0, "type": "electric_scooter", "name": "0cdc730d591bcd80ba81eeacfd87bdb3", "lat": 38.887338, "bike_id": "0cdc730d591bcd80ba81eeacfd87bdb3"}, {"lon": -77.05552233333333, "rental_uris": {"android": "https://dc.lft.to/lastmile_qr_scan", "ios": "https://dc.lft.to/lastmile_qr_scan"}, "fusion_lon": 0.0, "is_reserved": 0, "is_disabled": 0, "fusion_lat": 0.0, "type": "electric_scooter", "name": "e6b5cb31ecea0f4e1f2fbb916d5fb27e", "lat": 38.9252385, "bike_id": "e6b5cb31ecea0f4e1f2fbb916d5fb27e"}, {"lon": -77.07239316666667, "rental_uris": {"android": "https://dc.lft.to/lastmile_qr_scan", "ios": "https://dc.lft.to/lastmile_qr_scan"}, "fusion_lon": 0.0, "is_reserved": 0, "is_disabled": 0, "fusion_lat": 0.0, "type": "electric_scooter", "name": "44f5d5691a019937e9b2ec1a7e66fb21", "lat": 38.934320166666666, "bike_id": "44f5d5691a019937e9b2ec1a7e66fb21"}, {"lon": -77.032792, "rental_uris": {"android": "https://dc.lft.to/lastmile_qr_scan", "ios": "https://dc.lft.to/lastmile_qr_scan"}, "fusion_lon": 0.0, "is_reserved": 0, "is_disabled": 0, "fusion_lat": 0.0, "type": "electric_scooter", "name": "c5b4c2f723f99051a9140196b303a942", "lat": 38.93965983333333, "bike_id": "c5b4c2f723f99051a9140196b303a942"}, {"lon": -77.03210666666666, "rental_uris": {"android": "https://dc.lft.to/lastmile_qr_scan", "ios": "https://dc.lft.to/lastmile_qr_scan"}, "fusion_lon": 0.0, "is_reserved": 0, "is_disabled": 0, "fusion_lat": 0.0, "type": "electric_scooter", "name": "eebd85997f7a49dd9e2d0810e34e446d", "lat": 38.915527166666664, "bike_id": "eebd85997f7a49dd9e2d0810e34e446d"}, {"lon": -77.02060566666667, "rental_uris": {"android": "https://dc.lft.to/lastmile_qr_scan", "ios": "https://dc.lft.to/lastmile_qr_scan"}, "fusion_lon": 0.0, "is_reserved": 0, "is_disabled": 0, "fusion_lat": 0.0, "type": "electric_scooter", "name": "223fc00924fd086196cd98b414bdb79c", "lat": 38.927658666666666, "bike_id": "223fc00924fd086196cd98b414bdb79c"}, {"lon": -77.04600633333334, "rental_uris": {"android": "https://dc.lft.to/lastmile_qr_scan", "ios": "https://dc.lft.to/lastmile_qr_scan"}, "fusion_lon": 0.0, "is_reserved": 0, "is_disabled": 0, "fusion_lat": 0.0, "type": "electric_scooter", "name": "b1160b5f9afe97627934a6574ba4a8ef", "lat": 38.902818833333335, "bike_id": "b1160b5f9afe97627934a6574ba4a8ef"}, {"lon": -77.03855833333333, "rental_uris": {"android": "https://dc.lft.to/lastmile_qr_scan", "ios": "https://dc.lft.to/lastmile_qr_scan"}, "fusion_lon": 0.0, "is_reserved": 0, "is_disabled": 0, "fusion_lat": 0.0, "type": "electric_scooter", "name": "ab543f0c67a6938819a8e383b89bce85", "lat": 38.9026865, "bike_id": "ab543f0c67a6938819a8e383b89bce85"}, {"lon": -77.04251333333333, "rental_uris": {"android": "https://dc.lft.to/lastmile_qr_scan", "ios": "https://dc.lft.to/lastmile_qr_scan"}, "fusion_lon": 0.0, "is_reserved": 0, "is_disabled": 0, "fusion_lat": 0.0, "type": "electric_scooter", "name": "1061e1ee78b41c35f266251d32278aa7", "lat": 38.923600666666665, "bike_id": "1061e1ee78b41c35f266251d32278aa7"}, {"lon": -77.041094, "rental_uris": {"android": "https://dc.lft.to/lastmile_qr_scan", "ios": "https://dc.lft.to/lastmile_qr_scan"}, "fusion_lon": 0.0, "is_reserved": 0, "is_disabled": 0, "fusion_lat": 0.0, "type": "electric_scooter", "name": "dff7f38aee0173d552c3010bedd1b953", "lat": 38.89835, "bike_id": "dff7f38aee0173d552c3010bedd1b953"}, {"lon": -77.02070333333333, "rental_uris": {"android": "https://dc.lft.to/lastmile_qr_scan", "ios": "https://dc.lft.to/lastmile_qr_scan"}, "fusion_lon": 0.0, "is_reserved": 0, "is_disabled": 0, "fusion_lat": 0.0, "type": "electric_scooter", "name": "55e24d6e388d3532e1d01582469f2ad6", "lat": 38.92701683333333, "bike_id": "55e24d6e388d3532e1d01582469f2ad6"}, {"lon": -77.04355233333334, "rental_uris": {"android": "https://dc.lft.to/lastmile_qr_scan", "ios": "https://dc.lft.to/lastmile_qr_scan"}, "fusion_lon": 0.0, "is_reserved": 0, "is_disabled": 0, "fusion_lat": 0.0, "type": "electric_scooter", "name": "95e62fc6775a30a4059c8abfc69a2ab0", "lat": 38.92139483333333, "bike_id": "95e62fc6775a30a4059c8abfc69a2ab0"}, {"lon": -77.02360033333333, "rental_uris": {"android": "https://dc.lft.to/lastmile_qr_scan", "ios": "https://dc.lft.to/lastmile_qr_scan"}, "fusion_lon": 0.0, "is_reserved": 0, "is_disabled": 0, "fusion_lat": 0.0, "type": "electric_scooter", "name": "c337c6c6168e355722cb69782d8ee725", "lat": 38.919665333333334, "bike_id": "c337c6c6168e355722cb69782d8ee725"}, {"lon": -77.03273833333333, "rental_uris": {"android": "https://dc.lft.to/lastmile_qr_scan", "ios": "https://dc.lft.to/lastmile_qr_scan"}, "fusion_lon": 0.0, "is_reserved": 0, "is_disabled": 0, "fusion_lat": 0.0, "type": "electric_scooter", "name": "0daaa6f65708541b6efe811db03bcef1", "lat": 38.93333066666667, "bike_id": "0daaa6f65708541b6efe811db03bcef1"}, {"lon": -77.0778685, "rental_uris": {"android": "https://dc.lft.to/lastmile_qr_scan", "ios": "https://dc.lft.to/lastmile_qr_scan"}, "fusion_lon": 0.0, "is_reserved": 0, "is_disabled": 0, "fusion_lat": 0.0, "type": "electric_bike", "name": "65b37710e5d6c2cbcacedeacedb8cd67", "lat": 38.99493866666667, "bike_id": "65b37710e5d6c2cbcacedeacedb8cd67"}, {"lon": -77.02316666666667, "rental_uris": {"android": "https://dc.lft.to/lastmile_qr_scan", "ios": "https://dc.lft.to/lastmile_qr_scan"}, "fusion_lon": 0.0, "is_reserved": 0, "is_disabled": 0, "fusion_lat": 0.0, "type": "electric_scooter", "name": "cf328983e40345178c02d9bbffc0e5b4", "lat": 38.920668, "bike_id": "cf328983e40345178c02d9bbffc0e5b4"}, {"lon": -77.04324766666667, "rental_uris": {"android": "https://dc.lft.to/lastmile_qr_scan", "ios": "https://dc.lft.to/lastmile_qr_scan"}, "fusion_lon": 0.0, "is_reserved": 0, "is_disabled": 0, "fusion_lat": 0.0, "type": "electric_scooter", "name": "4e1605c2551966aa03809ef7388f356c", "lat": 38.8922255, "bike_id": "4e1605c2551966aa03809ef7388f356c"}, {"lon": -77.03330366666667, "rental_uris": {"android": "https://dc.lft.to/lastmile_qr_scan", "ios": "https://dc.lft.to/lastmile_qr_scan"}, "fusion_lon": 0.0, "is_reserved": 0, "is_disabled": 0, "fusion_lat": 0.0, "type": "electric_scooter", "name": "dba0e7f3293bb124a56065c504f87213", "lat": 38.902754, "bike_id": "dba0e7f3293bb124a56065c504f87213"}, {"lon": -76.98591583333334, "rental_uris": {"android": "https://dc.lft.to/lastmile_qr_scan", "ios": "https://dc.lft.to/lastmile_qr_scan"}, "fusion_lon": 0.0, "is_reserved": 0, "is_disabled": 0, "fusion_lat": 0.0, "type": "electric_scooter", "name": "ffe3bf3d2b4e9c85007c93179ce17af8", "lat": 38.89470633333333, "bike_id": "ffe3bf3d2b4e9c85007c93179ce17af8"}, {"lon": -77.03068133333333, "rental_uris": {"android": "https://dc.lft.to/lastmile_qr_scan", "ios": "https://dc.lft.to/lastmile_qr_scan"}, "fusion_lon": 0.0, "is_reserved": 0, "is_disabled": 0, "fusion_lat": 0.0, "type": "electric_scooter", "name": "13b1454c4fc9a8607d9f0b3c5fd8ed31", "lat": 38.9224845, "bike_id": "13b1454c4fc9a8607d9f0b3c5fd8ed31"}, {"lon": -77.00761533333333, "rental_uris": {"android": "https://dc.lft.to/lastmile_qr_scan", "ios": "https://dc.lft.to/lastmile_qr_scan"}, "fusion_lon": 0.0, "is_reserved": 0, "is_disabled": 0, "fusion_lat": 0.0, "type": "electric_scooter", "name": "148fc4e603f9066686fee0ebd0398c23", "lat": 38.871119666666665, "bike_id": "148fc4e603f9066686fee0ebd0398c23"}, {"lon": -77.01844016666666, "rental_uris": {"android": "https://dc.lft.to/lastmile_qr_scan", "ios": "https://dc.lft.to/lastmile_qr_scan"}, "fusion_lon": 0.0, "is_reserved": 0, "is_disabled": 0, "fusion_lat": 0.0, "type": "electric_scooter", "name": "649c2eae1b3b301e5809c4c29a9e660e", "lat": 38.95425, "bike_id": "649c2eae1b3b301e5809c4c29a9e660e"}, {"lon": -77.0263495, "rental_uris": {"android": "https://dc.lft.to/lastmile_qr_scan", "ios": "https://dc.lft.to/lastmile_qr_scan"}, "fusion_lon": 0.0, "is_reserved": 0, "is_disabled": 0, "fusion_lat": 0.0, "type": "electric_scooter", "name": "f4c0289bab2b264d7bcec0a30dbed541", "lat": 38.9410425, "bike_id": "f4c0289bab2b264d7bcec0a30dbed541"}, {"lon": -76.96911266666666, "rental_uris": {"android": "https://dc.lft.to/lastmile_qr_scan", "ios": "https://dc.lft.to/lastmile_qr_scan"}, "fusion_lon": 0.0, "is_reserved": 0, "is_disabled": 0, "fusion_lat": 0.0, "type": "electric_bike", "name": "de935c489e60bd43fc2ecc23d05d59a2", "lat": 38.846111, "bike_id": "de935c489e60bd43fc2ecc23d05d59a2"}, {"lon": -77.02574066666666, "rental_uris": {"android": "https://dc.lft.to/lastmile_qr_scan", "ios": "https://dc.lft.to/lastmile_qr_scan"}, "fusion_lon": 0.0, "is_reserved": 0, "is_disabled": 0, "fusion_lat": 0.0, "type": "electric_scooter", "name": "800d7dab9293203058818c75c3c2deab", "lat": 38.920495, "bike_id": "800d7dab9293203058818c75c3c2deab"}, {"lon": -77.0295795, "rental_uris": {"android": "https://dc.lft.to/lastmile_qr_scan", "ios": "https://dc.lft.to/lastmile_qr_scan"}, "fusion_lon": 0.0, "is_reserved": 0, "is_disabled": 0, "fusion_lat": 0.0, "type": "electric_bike", "name": "aa2347ebeb3c87acc7896428db69c48c", "lat": 38.9505845, "bike_id": "aa2347ebeb3c87acc7896428db69c48c"}, {"lon": -77.04870633333333, "rental_uris": {"android": "https://dc.lft.to/lastmile_qr_scan", "ios": "https://dc.lft.to/lastmile_qr_scan"}, "fusion_lon": 0.0, "is_reserved": 0, "is_disabled": 0, "fusion_lat": 0.0, "type": "electric_scooter", "name": "f2353c96d8468db65a96f2e5f86369e4", "lat": 38.89941966666667, "bike_id": "f2353c96d8468db65a96f2e5f86369e4"}, {"lon": -77.03962316666667, "rental_uris": {"android": "https://dc.lft.to/lastmile_qr_scan", "ios": "https://dc.lft.to/lastmile_qr_scan"}, "fusion_lon": 0.0, "is_reserved": 0, "is_disabled": 0, "fusion_lat": 0.0, "type": "electric_scooter", "name": "8cae935e7fd8e2dc0e74a57764767974", "lat": 38.901400833333334, "bike_id": "8cae935e7fd8e2dc0e74a57764767974"}, {"lon": -76.9805845, "rental_uris": {"android": "https://dc.lft.to/lastmile_qr_scan", "ios": "https://dc.lft.to/lastmile_qr_scan"}, "fusion_lon": 0.0, "is_reserved": 0, "is_disabled": 0, "fusion_lat": 0.0, "type": "electric_scooter", "name": "8938e10c088b87ceb41d970ec6332df3", "lat": 38.88499233333334, "bike_id": "8938e10c088b87ceb41d970ec6332df3"}, {"lon": -77.033154, "rental_uris": {"android": "https://dc.lft.to/lastmile_qr_scan", "ios": "https://dc.lft.to/lastmile_qr_scan"}, "fusion_lon": 0.0, "is_reserved": 0, "is_disabled": 0, "fusion_lat": 0.0, "type": "electric_scooter", "name": "75e4036db0b558ee16cf8dd87a49da41", "lat": 38.89883616666667, "bike_id": "75e4036db0b558ee16cf8dd87a49da41"}, {"lon": -76.93379466666667, "rental_uris": {"android": "https://dc.lft.to/lastmile_qr_scan", "ios": "https://dc.lft.to/lastmile_qr_scan"}, "fusion_lon": 0.0, "is_reserved": 0, "is_disabled": 0, "fusion_lat": 0.0, "type": "electric_scooter", "name": "4f63232156d58d11224dc161038f45a4", "lat": 38.89910033333334, "bike_id": "4f63232156d58d11224dc161038f45a4"}, {"lon": -77.02940483333333, "rental_uris": {"android": "https://dc.lft.to/lastmile_qr_scan", "ios": "https://dc.lft.to/lastmile_qr_scan"}, "fusion_lon": 0.0, "is_reserved": 0, "is_disabled": 0, "fusion_lat": 0.0, "type": "electric_scooter", "name": "b87477cdd586e82d2470e6d8da3cb509", "lat": 38.942654833333336, "bike_id": "b87477cdd586e82d2470e6d8da3cb509"}, {"lon": -77.03047, "rental_uris": {"android": "https://dc.lft.to/lastmile_qr_scan", "ios": "https://dc.lft.to/lastmile_qr_scan"}, "fusion_lon": 0.0, "is_reserved": 0, "is_disabled": 0, "fusion_lat": 0.0, "type": "electric_scooter", "name": "209f5ba878e84c790c639dc3e9a0dd28", "lat": 38.897824, "bike_id": "209f5ba878e84c790c639dc3e9a0dd28"}, {"lon": -76.99057583333334, "rental_uris": {"android": "https://dc.lft.to/lastmile_qr_scan", "ios": "https://dc.lft.to/lastmile_qr_scan"}, "fusion_lon": 0.0, "is_reserved": 0, "is_disabled": 0, "fusion_lat": 0.0, "type": "electric_bike", "name": "51234ec5aea65979b02cc62c60541c3d", "lat": 38.936918, "bike_id": "51234ec5aea65979b02cc62c60541c3d"}, {"lon": -77.03235283333333, "rental_uris": {"android": "https://dc.lft.to/lastmile_qr_scan", "ios": "https://dc.lft.to/lastmile_qr_scan"}, "fusion_lon": 0.0, "is_reserved": 0, "is_disabled": 0, "fusion_lat": 0.0, "type": "electric_scooter", "name": "68755e8bb1f22e804a17d3b97b10fd7c", "lat": 38.961506666666665, "bike_id": "68755e8bb1f22e804a17d3b97b10fd7c"}, {"lon": -77.02176466666667, "rental_uris": {"android": "https://dc.lft.to/lastmile_qr_scan", "ios": "https://dc.lft.to/lastmile_qr_scan"}, "fusion_lon": 0.0, "is_reserved": 0, "is_disabled": 0, "fusion_lat": 0.0, "type": "electric_scooter", "name": "d4c0cf161786fc0ed1004efbea96ba8c", "lat": 38.93945733333334, "bike_id": "d4c0cf161786fc0ed1004efbea96ba8c"}, {"lon": -77.010319, "rental_uris": {"android": "https://dc.lft.to/lastmile_qr_scan", "ios": "https://dc.lft.to/lastmile_qr_scan"}, "fusion_lon": 0.0, "is_reserved": 0, "is_disabled": 0, "fusion_lat": 0.0, "type": "electric_scooter", "name": "7cb4f85c170def13ef5c9f2bee7e139c", "lat": 38.920272833333335, "bike_id": "7cb4f85c170def13ef5c9f2bee7e139c"}, {"lon": -77.04065783333333, "rental_uris": {"android": "https://dc.lft.to/lastmile_qr_scan", "ios": "https://dc.lft.to/lastmile_qr_scan"}, "fusion_lon": 0.0, "is_reserved": 0, "is_disabled": 0, "fusion_lat": 0.0, "type": "electric_scooter", "name": "ad711162a6d167995809a6e49e4918b6", "lat": 38.90884716666667, "bike_id": "ad711162a6d167995809a6e49e4918b6"}, {"lon": -77.011957, "rental_uris": {"android": "https://dc.lft.to/lastmile_qr_scan", "ios": "https://dc.lft.to/lastmile_qr_scan"}, "fusion_lon": 0.0, "is_reserved": 0, "is_disabled": 0, "fusion_lat": 0.0, "type": "electric_scooter", "name": "4b5bd233d9a4e9837f4547b48bbddeae", "lat": 38.8979265, "bike_id": "4b5bd233d9a4e9837f4547b48bbddeae"}, {"lon": -77.03793883333333, "rental_uris": {"android": "https://dc.lft.to/lastmile_qr_scan", "ios": "https://dc.lft.to/lastmile_qr_scan"}, "fusion_lon": 0.0, "is_reserved": 0, "is_disabled": 0, "fusion_lat": 0.0, "type": "electric_scooter", "name": "6d1e0e1216def9346038cf7734a2f8fa", "lat": 38.91806733333333, "bike_id": "6d1e0e1216def9346038cf7734a2f8fa"}, {"lon": -77.0224665, "rental_uris": {"android": "https://dc.lft.to/lastmile_qr_scan", "ios": "https://dc.lft.to/lastmile_qr_scan"}, "fusion_lon": 0.0, "is_reserved": 0, "is_disabled": 0, "fusion_lat": 0.0, "type": "electric_scooter", "name": "dec2691c34476a078a60c593606fbb2d", "lat": 38.924636166666666, "bike_id": "dec2691c34476a078a60c593606fbb2d"}, {"lon": -77.02159133333333, "rental_uris": {"android": "https://dc.lft.to/lastmile_qr_scan", "ios": "https://dc.lft.to/lastmile_qr_scan"}, "fusion_lon": 0.0, "is_reserved": 0, "is_disabled": 0, "fusion_lat": 0.0, "type": "electric_scooter", "name": "0a92bc103573974ea85256dddd6a7aa3", "lat": 38.9261385, "bike_id": "0a92bc103573974ea85256dddd6a7aa3"}, {"lon": -77.0691505, "rental_uris": {"android": "https://dc.lft.to/lastmile_qr_scan", "ios": "https://dc.lft.to/lastmile_qr_scan"}, "fusion_lon": 0.0, "is_reserved": 0, "is_disabled": 0, "fusion_lat": 0.0, "type": "electric_bike", "name": "bfa0a64c7e900f53f802c97337da7771", "lat": 38.806812666666666, "bike_id": "bfa0a64c7e900f53f802c97337da7771"}, {"lon": -77.02113666666666, "rental_uris": {"android": "https://dc.lft.to/lastmile_qr_scan", "ios": "https://dc.lft.to/lastmile_qr_scan"}, "fusion_lon": 0.0, "is_reserved": 0, "is_disabled": 0, "fusion_lat": 0.0, "type": "electric_scooter", "name": "2982b58baade0578b232a6cf285b89c1", "lat": 38.92361316666667, "bike_id": "2982b58baade0578b232a6cf285b89c1"}, {"lon": -76.99227616666667, "rental_uris": {"android": "https://dc.lft.to/lastmile_qr_scan", "ios": "https://dc.lft.to/lastmile_qr_scan"}, "fusion_lon": 0.0, "is_reserved": 0, "is_disabled": 0, "fusion_lat": 0.0, "type": "electric_scooter", "name": "e44b4df603f97ac0e8ac7b5ca6162d03", "lat": 38.862902, "bike_id": "e44b4df603f97ac0e8ac7b5ca6162d03"}, {"lon": -77.07269866666667, "rental_uris": {"android": "https://dc.lft.to/lastmile_qr_scan", "ios": "https://dc.lft.to/lastmile_qr_scan"}, "fusion_lon": 0.0, "is_reserved": 0, "is_disabled": 0, "fusion_lat": 0.0, "type": "electric_scooter", "name": "9bd906684a366757bb34576279eb2089", "lat": 38.9091355, "bike_id": "9bd906684a366757bb34576279eb2089"}, {"lon": -77.0501025, "rental_uris": {"android": "https://dc.lft.to/lastmile_qr_scan", "ios": "https://dc.lft.to/lastmile_qr_scan"}, "fusion_lon": 0.0, "is_reserved": 0, "is_disabled": 0, "fusion_lat": 0.0, "type": "electric_scooter", "name": "0534bcf992ef9a6c568d6d668ba93e24", "lat": 38.92338083333333, "bike_id": "0534bcf992ef9a6c568d6d668ba93e24"}, {"lon": -77.0185025, "rental_uris": {"android": "https://dc.lft.to/lastmile_qr_scan", "ios": "https://dc.lft.to/lastmile_qr_scan"}, "fusion_lon": 0.0, "is_reserved": 0, "is_disabled": 0, "fusion_lat": 0.0, "type": "electric_scooter", "name": "4b7cbe3b52878a1761e82a30d3f7c076", "lat": 38.94884916666667, "bike_id": "4b7cbe3b52878a1761e82a30d3f7c076"}, {"lon": -77.03850933333334, "rental_uris": {"android": "https://dc.lft.to/lastmile_qr_scan", "ios": "https://dc.lft.to/lastmile_qr_scan"}, "fusion_lon": 0.0, "is_reserved": 0, "is_disabled": 0, "fusion_lat": 0.0, "type": "electric_scooter", "name": "ed2152912abbb3ce7fe0c474ded8f212", "lat": 38.90272133333333, "bike_id": "ed2152912abbb3ce7fe0c474ded8f212"}, {"lon": -76.95541933333334, "rental_uris": {"android": "https://dc.lft.to/lastmile_qr_scan", "ios": "https://dc.lft.to/lastmile_qr_scan"}, "fusion_lon": 0.0, "is_reserved": 0, "is_disabled": 0, "fusion_lat": 0.0, "type": "electric_scooter", "name": "dd9b5db629a037976091183faeec9507", "lat": 38.92737916666667, "bike_id": "dd9b5db629a037976091183faeec9507"}, {"lon": -76.980844, "rental_uris": {"android": "https://dc.lft.to/lastmile_qr_scan", "ios": "https://dc.lft.to/lastmile_qr_scan"}, "fusion_lon": 0.0, "is_reserved": 0, "is_disabled": 0, "fusion_lat": 0.0, "type": "electric_scooter", "name": "59c16ec56cf37833045f8d84b5ff40a3", "lat": 38.866972, "bike_id": "59c16ec56cf37833045f8d84b5ff40a3"}, {"lon": -77.03470483333334, "rental_uris": {"android": "https://dc.lft.to/lastmile_qr_scan", "ios": "https://dc.lft.to/lastmile_qr_scan"}, "fusion_lon": 0.0, "is_reserved": 0, "is_disabled": 0, "fusion_lat": 0.0, "type": "electric_scooter", "name": "79bca92ac23eb1dca0aab26f87919ce2", "lat": 38.917098, "bike_id": "79bca92ac23eb1dca0aab26f87919ce2"}, {"lon": -77.07894683333333, "rental_uris": {"android": "https://dc.lft.to/lastmile_qr_scan", "ios": "https://dc.lft.to/lastmile_qr_scan"}, "fusion_lon": 0.0, "is_reserved": 0, "is_disabled": 0, "fusion_lat": 0.0, "type": "electric_bike", "name": "54e9ee6183173e97f7037ef887fe0497", "lat": 38.848214, "bike_id": "54e9ee6183173e97f7037ef887fe0497"}, {"lon": -77.05029616666667, "rental_uris": {"android": "https://dc.lft.to/lastmile_qr_scan", "ios": "https://dc.lft.to/lastmile_qr_scan"}, "fusion_lon": 0.0, "is_reserved": 0, "is_disabled": 0, "fusion_lat": 0.0, "type": "electric_scooter", "name": "9f480ca37db8eef621ae5b1e650b5466", "lat": 38.8982645, "bike_id": "9f480ca37db8eef621ae5b1e650b5466"}, {"lon": -77.03706266666667, "rental_uris": {"android": "https://dc.lft.to/lastmile_qr_scan", "ios": "https://dc.lft.to/lastmile_qr_scan"}, "fusion_lon": 0.0, "is_reserved": 0, "is_disabled": 0, "fusion_lat": 0.0, "type": "electric_scooter", "name": "2261ab3a2c684d02c8da3e71c54cbf53", "lat": 38.9264595, "bike_id": "2261ab3a2c684d02c8da3e71c54cbf53"}, {"lon": -76.98070533333333, "rental_uris": {"android": "https://dc.lft.to/lastmile_qr_scan", "ios": "https://dc.lft.to/lastmile_qr_scan"}, "fusion_lon": 0.0, "is_reserved": 0, "is_disabled": 0, "fusion_lat": 0.0, "type": "electric_scooter", "name": "0b98e8911751d4ca4b095bba5ee79575", "lat": 38.880136666666665, "bike_id": "0b98e8911751d4ca4b095bba5ee79575"}, {"lon": -77.013991, "rental_uris": {"android": "https://dc.lft.to/lastmile_qr_scan", "ios": "https://dc.lft.to/lastmile_qr_scan"}, "fusion_lon": 0.0, "is_reserved": 0, "is_disabled": 0, "fusion_lat": 0.0, "type": "electric_scooter", "name": "12d398871a34fa27c0b0c7f378adc71e", "lat": 38.88741066666667, "bike_id": "12d398871a34fa27c0b0c7f378adc71e"}, {"lon": -77.03549183333334, "rental_uris": {"android": "https://dc.lft.to/lastmile_qr_scan", "ios": "https://dc.lft.to/lastmile_qr_scan"}, "fusion_lon": 0.0, "is_reserved": 0, "is_disabled": 0, "fusion_lat": 0.0, "type": "electric_scooter", "name": "ebea7a0295e42dd97de6947e9d9db0bb", "lat": 38.90725166666667, "bike_id": "ebea7a0295e42dd97de6947e9d9db0bb"}, {"lon": -77.03436833333333, "rental_uris": {"android": "https://dc.lft.to/lastmile_qr_scan", "ios": "https://dc.lft.to/lastmile_qr_scan"}, "fusion_lon": 0.0, "is_reserved": 0, "is_disabled": 0, "fusion_lat": 0.0, "type": "electric_scooter", "name": "87e9f9b65f2734714b4849742691871d", "lat": 38.9027425, "bike_id": "87e9f9b65f2734714b4849742691871d"}, {"lon": -77.0324255, "rental_uris": {"android": "https://dc.lft.to/lastmile_qr_scan", "ios": "https://dc.lft.to/lastmile_qr_scan"}, "fusion_lon": 0.0, "is_reserved": 0, "is_disabled": 0, "fusion_lat": 0.0, "type": "electric_scooter", "name": "9c05f36548d036c686dcdb00a232b4aa", "lat": 38.9275875, "bike_id": "9c05f36548d036c686dcdb00a232b4aa"}, {"lon": -77.02059516666667, "rental_uris": {"android": "https://dc.lft.to/lastmile_qr_scan", "ios": "https://dc.lft.to/lastmile_qr_scan"}, "fusion_lon": 0.0, "is_reserved": 0, "is_disabled": 0, "fusion_lat": 0.0, "type": "electric_scooter", "name": "42537c1ebb57e98228d602f63bf58a42", "lat": 38.92115, "bike_id": "42537c1ebb57e98228d602f63bf58a42"}, {"lon": -77.032858, "rental_uris": {"android": "https://dc.lft.to/lastmile_qr_scan", "ios": "https://dc.lft.to/lastmile_qr_scan"}, "fusion_lon": 0.0, "is_reserved": 0, "is_disabled": 0, "fusion_lat": 0.0, "type": "electric_scooter", "name": "8ff6488128132da29ce3fca99e136e4b", "lat": 38.927466333333335, "bike_id": "8ff6488128132da29ce3fca99e136e4b"}, {"lon": -77.01475966666666, "rental_uris": {"android": "https://dc.lft.to/lastmile_qr_scan", "ios": "https://dc.lft.to/lastmile_qr_scan"}, "fusion_lon": 0.0, "is_reserved": 0, "is_disabled": 0, "fusion_lat": 0.0, "type": "electric_scooter", "name": "d81d34275e2303a86791070dd4c26dd0", "lat": 38.91957633333333, "bike_id": "d81d34275e2303a86791070dd4c26dd0"}, {"lon": -77.02163866666666, "rental_uris": {"android": "https://dc.lft.to/lastmile_qr_scan", "ios": "https://dc.lft.to/lastmile_qr_scan"}, "fusion_lon": 0.0, "is_reserved": 0, "is_disabled": 0, "fusion_lat": 0.0, "type": "electric_scooter", "name": "a404f6b771875b0a7d4a72e12a6f0d2f", "lat": 38.895884833333334, "bike_id": "a404f6b771875b0a7d4a72e12a6f0d2f"}, {"lon": -77.06779183333333, "rental_uris": {"android": "https://dc.lft.to/lastmile_qr_scan", "ios": "https://dc.lft.to/lastmile_qr_scan"}, "fusion_lon": 0.0, "is_reserved": 0, "is_disabled": 0, "fusion_lat": 0.0, "type": "electric_scooter", "name": "da75b710437274f541128f7cf8f0e379", "lat": 38.90878033333333, "bike_id": "da75b710437274f541128f7cf8f0e379"}, {"lon": -77.02266733333333, "rental_uris": {"android": "https://dc.lft.to/lastmile_qr_scan", "ios": "https://dc.lft.to/lastmile_qr_scan"}, "fusion_lon": 0.0, "is_reserved": 0, "is_disabled": 0, "fusion_lat": 0.0, "type": "electric_scooter", "name": "4d7ecee0093e9db76ec954dad961dda1", "lat": 38.924106333333334, "bike_id": "4d7ecee0093e9db76ec954dad961dda1"}, {"lon": -77.05140816666666, "rental_uris": {"android": "https://dc.lft.to/lastmile_qr_scan", "ios": "https://dc.lft.to/lastmile_qr_scan"}, "fusion_lon": 0.0, "is_reserved": 0, "is_disabled": 0, "fusion_lat": 0.0, "type": "electric_scooter", "name": "8d9bc6339e92b8ab790b5cc2a34ff5b7", "lat": 38.903821666666666, "bike_id": "8d9bc6339e92b8ab790b5cc2a34ff5b7"}, {"lon": -77.0434035, "rental_uris": {"android": "https://dc.lft.to/lastmile_qr_scan", "ios": "https://dc.lft.to/lastmile_qr_scan"}, "fusion_lon": 0.0, "is_reserved": 0, "is_disabled": 0, "fusion_lat": 0.0, "type": "electric_scooter", "name": "d0ea2f49b987e13cb8c34dd456fe4c22", "lat": 38.910259833333335, "bike_id": "d0ea2f49b987e13cb8c34dd456fe4c22"}, {"lon": -77.03640266666666, "rental_uris": {"android": "https://dc.lft.to/lastmile_qr_scan", "ios": "https://dc.lft.to/lastmile_qr_scan"}, "fusion_lon": 0.0, "is_reserved": 0, "is_disabled": 0, "fusion_lat": 0.0, "type": "electric_scooter", "name": "eedf07504d2c4204febf5fee741c4d9a", "lat": 38.9173685, "bike_id": "eedf07504d2c4204febf5fee741c4d9a"}, {"lon": -77.0211125, "rental_uris": {"android": "https://dc.lft.to/lastmile_qr_scan", "ios": "https://dc.lft.to/lastmile_qr_scan"}, "fusion_lon": 0.0, "is_reserved": 0, "is_disabled": 0, "fusion_lat": 0.0, "type": "electric_scooter", "name": "da79de8d8a6a25e8edbfe9a601b774f8", "lat": 38.94074883333333, "bike_id": "da79de8d8a6a25e8edbfe9a601b774f8"}, {"lon": -77.03349683333333, "rental_uris": {"android": "https://dc.lft.to/lastmile_qr_scan", "ios": "https://dc.lft.to/lastmile_qr_scan"}, "fusion_lon": 0.0, "is_reserved": 0, "is_disabled": 0, "fusion_lat": 0.0, "type": "electric_scooter", "name": "9d387e86a890b1d58d2e677891d440bb", "lat": 38.88780166666667, "bike_id": "9d387e86a890b1d58d2e677891d440bb"}, {"lon": -77.032865, "rental_uris": {"android": "https://dc.lft.to/lastmile_qr_scan", "ios": "https://dc.lft.to/lastmile_qr_scan"}, "fusion_lon": 0.0, "is_reserved": 0, "is_disabled": 0, "fusion_lat": 0.0, "type": "electric_scooter", "name": "5a23a0e0c0ceece1bbd33220ff311a9d", "lat": 38.93883983333333, "bike_id": "5a23a0e0c0ceece1bbd33220ff311a9d"}, {"lon": -77.048271, "rental_uris": {"android": "https://dc.lft.to/lastmile_qr_scan", "ios": "https://dc.lft.to/lastmile_qr_scan"}, "fusion_lon": 0.0, "is_reserved": 0, "is_disabled": 0, "fusion_lat": 0.0, "type": "electric_scooter", "name": "219b19d72d9d8996580f925a64b54ac5", "lat": 38.90052383333333, "bike_id": "219b19d72d9d8996580f925a64b54ac5"}, {"lon": -77.0218465, "rental_uris": {"android": "https://dc.lft.to/lastmile_qr_scan", "ios": "https://dc.lft.to/lastmile_qr_scan"}, "fusion_lon": 0.0, "is_reserved": 0, "is_disabled": 0, "fusion_lat": 0.0, "type": "electric_scooter", "name": "a1e8a1912b7995604dde4ec653415636", "lat": 38.910839333333335, "bike_id": "a1e8a1912b7995604dde4ec653415636"}, {"lon": -77.03239216666667, "rental_uris": {"android": "https://dc.lft.to/lastmile_qr_scan", "ios": "https://dc.lft.to/lastmile_qr_scan"}, "fusion_lon": 0.0, "is_reserved": 0, "is_disabled": 0, "fusion_lat": 0.0, "type": "electric_scooter", "name": "35229d470e253e69b905824c7462d6f1", "lat": 38.917089, "bike_id": "35229d470e253e69b905824c7462d6f1"}, {"lon": -77.02780833333334, "rental_uris": {"android": "https://dc.lft.to/lastmile_qr_scan", "ios": "https://dc.lft.to/lastmile_qr_scan"}, "fusion_lon": 0.0, "is_reserved": 0, "is_disabled": 0, "fusion_lat": 0.0, "type": "electric_scooter", "name": "7f2861193acb427d6d8bd7acb019e93b", "lat": 38.91704766666667, "bike_id": "7f2861193acb427d6d8bd7acb019e93b"}, {"lon": -77.0395315, "rental_uris": {"android": "https://dc.lft.to/lastmile_qr_scan", "ios": "https://dc.lft.to/lastmile_qr_scan"}, "fusion_lon": 0.0, "is_reserved": 0, "is_disabled": 0, "fusion_lat": 0.0, "type": "electric_scooter", "name": "766738530323e4b616dec142065f3997", "lat": 38.91604866666667, "bike_id": "766738530323e4b616dec142065f3997"}, {"lon": -77.04157683333334, "rental_uris": {"android": "https://dc.lft.to/lastmile_qr_scan", "ios": "https://dc.lft.to/lastmile_qr_scan"}, "fusion_lon": 0.0, "is_reserved": 0, "is_disabled": 0, "fusion_lat": 0.0, "type": "electric_scooter", "name": "666daef48b9e8485ee0ad49cf12920e0", "lat": 38.91750666666667, "bike_id": "666daef48b9e8485ee0ad49cf12920e0"}, {"lon": -77.0238035, "rental_uris": {"android": "https://dc.lft.to/lastmile_qr_scan", "ios": "https://dc.lft.to/lastmile_qr_scan"}, "fusion_lon": 0.0, "is_reserved": 0, "is_disabled": 0, "fusion_lat": 0.0, "type": "electric_scooter", "name": "0f1601a2dcf3f96bb385e9654540e599", "lat": 38.900296166666664, "bike_id": "0f1601a2dcf3f96bb385e9654540e599"}, {"lon": -77.23929616666666, "rental_uris": {"android": "https://dc.lft.to/lastmile_qr_scan", "ios": "https://dc.lft.to/lastmile_qr_scan"}, "fusion_lon": 0.0, "is_reserved": 0, "is_disabled": 0, "fusion_lat": 0.0, "type": "electric_bike", "name": "4d4c923cdb0c634ac7490f04e72726f2", "lat": 38.92481083333333, "bike_id": "4d4c923cdb0c634ac7490f04e72726f2"}, {"lon": -77.0450435, "rental_uris": {"android": "https://dc.lft.to/lastmile_qr_scan", "ios": "https://dc.lft.to/lastmile_qr_scan"}, "fusion_lon": 0.0, "is_reserved": 0, "is_disabled": 0, "fusion_lat": 0.0, "type": "electric_scooter", "name": "4a9d18a5aeb4030b29068f02a6934e29", "lat": 38.904005833333336, "bike_id": "4a9d18a5aeb4030b29068f02a6934e29"}, {"lon": -77.02510483333333, "rental_uris": {"android": "https://dc.lft.to/lastmile_qr_scan", "ios": "https://dc.lft.to/lastmile_qr_scan"}, "fusion_lon": 0.0, "is_reserved": 0, "is_disabled": 0, "fusion_lat": 0.0, "type": "electric_bike", "name": "f17152c655f1ebf36fdee61d7bbea28c", "lat": 38.89739683333333, "bike_id": "f17152c655f1ebf36fdee61d7bbea28c"}, {"lon": -77.07341616666666, "rental_uris": {"android": "https://dc.lft.to/lastmile_qr_scan", "ios": "https://dc.lft.to/lastmile_qr_scan"}, "fusion_lon": 0.0, "is_reserved": 0, "is_disabled": 0, "fusion_lat": 0.0, "type": "electric_scooter", "name": "d9b151681d20f0538a3102ccece68383", "lat": 38.92252166666667, "bike_id": "d9b151681d20f0538a3102ccece68383"}, {"lon": -77.05184716666666, "rental_uris": {"android": "https://dc.lft.to/lastmile_qr_scan", "ios": "https://dc.lft.to/lastmile_qr_scan"}, "fusion_lon": 0.0, "is_reserved": 0, "is_disabled": 0, "fusion_lat": 0.0, "type": "electric_scooter", "name": "68a0365811b47659787fbf880574d774", "lat": 38.92419233333333, "bike_id": "68a0365811b47659787fbf880574d774"}, {"lon": -77.0307335, "rental_uris": {"android": "https://dc.lft.to/lastmile_qr_scan", "ios": "https://dc.lft.to/lastmile_qr_scan"}, "fusion_lon": 0.0, "is_reserved": 0, "is_disabled": 0, "fusion_lat": 0.0, "type": "electric_scooter", "name": "59a9bdb5cb9c01d33a2c5499b7f1e866", "lat": 38.919078666666664, "bike_id": "59a9bdb5cb9c01d33a2c5499b7f1e866"}, {"lon": -76.994106, "rental_uris": {"android": "https://dc.lft.to/lastmile_qr_scan", "ios": "https://dc.lft.to/lastmile_qr_scan"}, "fusion_lon": 0.0, "is_reserved": 0, "is_disabled": 0, "fusion_lat": 0.0, "type": "electric_scooter", "name": "b752ce9d56743cd349afbc0848f9aa81", "lat": 38.877835, "bike_id": "b752ce9d56743cd349afbc0848f9aa81"}, {"lon": -77.03265, "rental_uris": {"android": "https://dc.lft.to/lastmile_qr_scan", "ios": "https://dc.lft.to/lastmile_qr_scan"}, "fusion_lon": 0.0, "is_reserved": 0, "is_disabled": 0, "fusion_lat": 0.0, "type": "electric_scooter", "name": "addd53267f12bef1d76d48719828ef79", "lat": 38.937526, "bike_id": "addd53267f12bef1d76d48719828ef79"}, {"lon": -77.00032983333334, "rental_uris": {"android": "https://dc.lft.to/lastmile_qr_scan", "ios": "https://dc.lft.to/lastmile_qr_scan"}, "fusion_lon": 0.0, "is_reserved": 0, "is_disabled": 0, "fusion_lat": 0.0, "type": "electric_scooter", "name": "19a7b7212c21d6bba2d4cc08103ce730", "lat": 38.874803666666665, "bike_id": "19a7b7212c21d6bba2d4cc08103ce730"}, {"lon": -77.046973, "rental_uris": {"android": "https://dc.lft.to/lastmile_qr_scan", "ios": "https://dc.lft.to/lastmile_qr_scan"}, "fusion_lon": 0.0, "is_reserved": 0, "is_disabled": 0, "fusion_lat": 0.0, "type": "electric_scooter", "name": "b4294c338d53e1e3732e070c824c20e3", "lat": 38.92138516666667, "bike_id": "b4294c338d53e1e3732e070c824c20e3"}, {"lon": -77.02519033333333, "rental_uris": {"android": "https://dc.lft.to/lastmile_qr_scan", "ios": "https://dc.lft.to/lastmile_qr_scan"}, "fusion_lon": 0.0, "is_reserved": 0, "is_disabled": 0, "fusion_lat": 0.0, "type": "electric_scooter", "name": "d5142551de3040a04ffed327bc8c80c8", "lat": 38.921054833333336, "bike_id": "d5142551de3040a04ffed327bc8c80c8"}, {"lon": -77.03845816666667, "rental_uris": {"android": "https://dc.lft.to/lastmile_qr_scan", "ios": "https://dc.lft.to/lastmile_qr_scan"}, "fusion_lon": 0.0, "is_reserved": 0, "is_disabled": 0, "fusion_lat": 0.0, "type": "electric_scooter", "name": "12c9b9c488d2f0c77158878be35a76c0", "lat": 38.90929533333333, "bike_id": "12c9b9c488d2f0c77158878be35a76c0"}, {"lon": -77.018297, "rental_uris": {"android": "https://dc.lft.to/lastmile_qr_scan", "ios": "https://dc.lft.to/lastmile_qr_scan"}, "fusion_lon": 0.0, "is_reserved": 0, "is_disabled": 0, "fusion_lat": 0.0, "type": "electric_scooter", "name": "84ce6517e466032339ff5bba93c34570", "lat": 38.922358333333335, "bike_id": "84ce6517e466032339ff5bba93c34570"}, {"lon": -77.07248066666666, "rental_uris": {"android": "https://dc.lft.to/lastmile_qr_scan", "ios": "https://dc.lft.to/lastmile_qr_scan"}, "fusion_lon": 0.0, "is_reserved": 0, "is_disabled": 0, "fusion_lat": 0.0, "type": "electric_scooter", "name": "77565285ce665791e686952452317ef1", "lat": 38.907846166666666, "bike_id": "77565285ce665791e686952452317ef1"}, {"lon": -77.04504616666667, "rental_uris": {"android": "https://dc.lft.to/lastmile_qr_scan", "ios": "https://dc.lft.to/lastmile_qr_scan"}, "fusion_lon": 0.0, "is_reserved": 0, "is_disabled": 0, "fusion_lat": 0.0, "type": "electric_scooter", "name": "413b35fbb697f434ebd31efd475718d8", "lat": 38.903886166666666, "bike_id": "413b35fbb697f434ebd31efd475718d8"}, {"lon": -77.034509, "rental_uris": {"android": "https://dc.lft.to/lastmile_qr_scan", "ios": "https://dc.lft.to/lastmile_qr_scan"}, "fusion_lon": 0.0, "is_reserved": 0, "is_disabled": 0, "fusion_lat": 0.0, "type": "electric_scooter", "name": "0f37e9f951f40af70a6a5a22a76abca2", "lat": 38.907008166666664, "bike_id": "0f37e9f951f40af70a6a5a22a76abca2"}, {"lon": -76.9766505, "rental_uris": {"android": "https://dc.lft.to/lastmile_qr_scan", "ios": "https://dc.lft.to/lastmile_qr_scan"}, "fusion_lon": 0.0, "is_reserved": 0, "is_disabled": 0, "fusion_lat": 0.0, "type": "electric_scooter", "name": "a23dfbdb8e1465c51ac1a81a4764578c", "lat": 38.840565833333336, "bike_id": "a23dfbdb8e1465c51ac1a81a4764578c"}, {"lon": -77.071611, "rental_uris": {"android": "https://dc.lft.to/lastmile_qr_scan", "ios": "https://dc.lft.to/lastmile_qr_scan"}, "fusion_lon": 0.0, "is_reserved": 0, "is_disabled": 0, "fusion_lat": 0.0, "type": "electric_bike", "name": "a575266bbcd5443aba7f86408c847876", "lat": 38.907772666666666, "bike_id": "a575266bbcd5443aba7f86408c847876"}, {"lon": -77.06280716666667, "rental_uris": {"android": "https://dc.lft.to/lastmile_qr_scan", "ios": "https://dc.lft.to/lastmile_qr_scan"}, "fusion_lon": 0.0, "is_reserved": 0, "is_disabled": 0, "fusion_lat": 0.0, "type": "electric_scooter", "name": "224061d78bdffcc9ef6039c3451df5c5", "lat": 38.91244183333333, "bike_id": "224061d78bdffcc9ef6039c3451df5c5"}, {"lon": -77.04186233333333, "rental_uris": {"android": "https://dc.lft.to/lastmile_qr_scan", "ios": "https://dc.lft.to/lastmile_qr_scan"}, "fusion_lon": 0.0, "is_reserved": 0, "is_disabled": 0, "fusion_lat": 0.0, "type": "electric_scooter", "name": "84890b7d1c3ed7d7ba2ad5a3f185a4bb", "lat": 38.92214966666667, "bike_id": "84890b7d1c3ed7d7ba2ad5a3f185a4bb"}, {"lon": -77.043271, "rental_uris": {"android": "https://dc.lft.to/lastmile_qr_scan", "ios": "https://dc.lft.to/lastmile_qr_scan"}, "fusion_lon": 0.0, "is_reserved": 0, "is_disabled": 0, "fusion_lat": 0.0, "type": "electric_scooter", "name": "48f96beab6307ebd1985415a1ff57de4", "lat": 38.906848833333335, "bike_id": "48f96beab6307ebd1985415a1ff57de4"}, {"lon": -77.0210995, "rental_uris": {"android": "https://dc.lft.to/lastmile_qr_scan", "ios": "https://dc.lft.to/lastmile_qr_scan"}, "fusion_lon": 0.0, "is_reserved": 0, "is_disabled": 0, "fusion_lat": 0.0, "type": "electric_scooter", "name": "411e7cc33b6ef9a7534264a785b35058", "lat": 38.92670783333333, "bike_id": "411e7cc33b6ef9a7534264a785b35058"}, {"lon": -77.034312, "rental_uris": {"android": "https://dc.lft.to/lastmile_qr_scan", "ios": "https://dc.lft.to/lastmile_qr_scan"}, "fusion_lon": 0.0, "is_reserved": 0, "is_disabled": 0, "fusion_lat": 0.0, "type": "electric_scooter", "name": "e006ce56cee48aaceee41887aa4033f0", "lat": 38.918047666666666, "bike_id": "e006ce56cee48aaceee41887aa4033f0"}, {"lon": -77.00859383333334, "rental_uris": {"android": "https://dc.lft.to/lastmile_qr_scan", "ios": "https://dc.lft.to/lastmile_qr_scan"}, "fusion_lon": 0.0, "is_reserved": 0, "is_disabled": 0, "fusion_lat": 0.0, "type": "electric_scooter", "name": "7830996514aa34a20d907a45c4026589", "lat": 38.906481, "bike_id": "7830996514aa34a20d907a45c4026589"}, {"lon": -77.01903966666667, "rental_uris": {"android": "https://dc.lft.to/lastmile_qr_scan", "ios": "https://dc.lft.to/lastmile_qr_scan"}, "fusion_lon": 0.0, "is_reserved": 0, "is_disabled": 0, "fusion_lat": 0.0, "type": "electric_scooter", "name": "f3c09ee8bbe0d44ecfe2aeec4f7ad2a8", "lat": 38.919170333333334, "bike_id": "f3c09ee8bbe0d44ecfe2aeec4f7ad2a8"}, {"lon": -77.0029, "rental_uris": {"android": "https://dc.lft.to/lastmile_qr_scan", "ios": "https://dc.lft.to/lastmile_qr_scan"}, "fusion_lon": 0.0, "is_reserved": 0, "is_disabled": 0, "fusion_lat": 0.0, "type": "electric_scooter", "name": "ea13e8f778eed86a52536b066e0d483c", "lat": 38.89192633333333, "bike_id": "ea13e8f778eed86a52536b066e0d483c"}, {"lon": -77.00672616666667, "rental_uris": {"android": "https://dc.lft.to/lastmile_qr_scan", "ios": "https://dc.lft.to/lastmile_qr_scan"}, "fusion_lon": 0.0, "is_reserved": 0, "is_disabled": 0, "fusion_lat": 0.0, "type": "electric_scooter", "name": "6d2836009dbbde4b1ffbe5eae7d25f7c", "lat": 38.900076166666665, "bike_id": "6d2836009dbbde4b1ffbe5eae7d25f7c"}, {"lon": -77.03824783333333, "rental_uris": {"android": "https://dc.lft.to/lastmile_qr_scan", "ios": "https://dc.lft.to/lastmile_qr_scan"}, "fusion_lon": 0.0, "is_reserved": 0, "is_disabled": 0, "fusion_lat": 0.0, "type": "electric_scooter", "name": "2acd93fab8a3ed2247e33b2d3ac40141", "lat": 38.918878166666666, "bike_id": "2acd93fab8a3ed2247e33b2d3ac40141"}, {"lon": -77.06757283333333, "rental_uris": {"android": "https://dc.lft.to/lastmile_qr_scan", "ios": "https://dc.lft.to/lastmile_qr_scan"}, "fusion_lon": 0.0, "is_reserved": 0, "is_disabled": 0, "fusion_lat": 0.0, "type": "electric_bike", "name": "639f6ebcc7fc5a211354ae4ca93ca43e", "lat": 38.84198633333333, "bike_id": "639f6ebcc7fc5a211354ae4ca93ca43e"}, {"lon": -77.03328166666667, "rental_uris": {"android": "https://dc.lft.to/lastmile_qr_scan", "ios": "https://dc.lft.to/lastmile_qr_scan"}, "fusion_lon": 0.0, "is_reserved": 0, "is_disabled": 0, "fusion_lat": 0.0, "type": "electric_scooter", "name": "48801ab4079122d480a680e287a6aa43", "lat": 38.972098333333335, "bike_id": "48801ab4079122d480a680e287a6aa43"}, {"lon": -77.04151766666666, "rental_uris": {"android": "https://dc.lft.to/lastmile_qr_scan", "ios": "https://dc.lft.to/lastmile_qr_scan"}, "fusion_lon": 0.0, "is_reserved": 0, "is_disabled": 0, "fusion_lat": 0.0, "type": "electric_scooter", "name": "443b2f7f306f58dc42839c22ba77ec5d", "lat": 38.90364783333333, "bike_id": "443b2f7f306f58dc42839c22ba77ec5d"}, {"lon": -77.00382233333333, "rental_uris": {"android": "https://dc.lft.to/lastmile_qr_scan", "ios": "https://dc.lft.to/lastmile_qr_scan"}, "fusion_lon": 0.0, "is_reserved": 0, "is_disabled": 0, "fusion_lat": 0.0, "type": "electric_scooter", "name": "60b29c41368b0c2401e969bb063c6536", "lat": 38.876385666666664, "bike_id": "60b29c41368b0c2401e969bb063c6536"}, {"lon": -77.20108466666667, "rental_uris": {"android": "https://dc.lft.to/lastmile_qr_scan", "ios": "https://dc.lft.to/lastmile_qr_scan"}, "fusion_lon": 0.0, "is_reserved": 0, "is_disabled": 0, "fusion_lat": 0.0, "type": "electric_bike", "name": "9ff4118c0459f146d856cbfe24306208", "lat": 38.863921500000004, "bike_id": "9ff4118c0459f146d856cbfe24306208"}, {"lon": -76.95187333333334, "rental_uris": {"android": "https://dc.lft.to/lastmile_qr_scan", "ios": "https://dc.lft.to/lastmile_qr_scan"}, "fusion_lon": 0.0, "is_reserved": 0, "is_disabled": 0, "fusion_lat": 0.0, "type": "electric_scooter", "name": "647bf9edba1cfe031e80577a3ef0bf3c", "lat": 38.9051275, "bike_id": "647bf9edba1cfe031e80577a3ef0bf3c"}, {"lon": -77.0316015, "rental_uris": {"android": "https://dc.lft.to/lastmile_qr_scan", "ios": "https://dc.lft.to/lastmile_qr_scan"}, "fusion_lon": 0.0, "is_reserved": 0, "is_disabled": 0, "fusion_lat": 0.0, "type": "electric_scooter", "name": "bb8c893d168f9a37e5c97bc352d7144d", "lat": 38.89220533333334, "bike_id": "bb8c893d168f9a37e5c97bc352d7144d"}, {"lon": -77.04332966666666, "rental_uris": {"android": "https://dc.lft.to/lastmile_qr_scan", "ios": "https://dc.lft.to/lastmile_qr_scan"}, "fusion_lon": 0.0, "is_reserved": 0, "is_disabled": 0, "fusion_lat": 0.0, "type": "electric_scooter", "name": "06b79da206e281b08f5d96f13827be45", "lat": 38.90594, "bike_id": "06b79da206e281b08f5d96f13827be45"}, {"lon": -77.02978016666667, "rental_uris": {"android": "https://dc.lft.to/lastmile_qr_scan", "ios": "https://dc.lft.to/lastmile_qr_scan"}, "fusion_lon": 0.0, "is_reserved": 0, "is_disabled": 0, "fusion_lat": 0.0, "type": "electric_scooter", "name": "d9f1aa66ee1f567816be5a3f5b8d0c8f", "lat": 38.90435183333334, "bike_id": "d9f1aa66ee1f567816be5a3f5b8d0c8f"}, {"lon": -76.99832816666667, "rental_uris": {"android": "https://dc.lft.to/lastmile_qr_scan", "ios": "https://dc.lft.to/lastmile_qr_scan"}, "fusion_lon": 0.0, "is_reserved": 0, "is_disabled": 0, "fusion_lat": 0.0, "type": "electric_scooter", "name": "7f446e952280ca58086106e6aaf09d46", "lat": 38.83954333333333, "bike_id": "7f446e952280ca58086106e6aaf09d46"}, {"lon": -77.02708466666667, "rental_uris": {"android": "https://dc.lft.to/lastmile_qr_scan", "ios": "https://dc.lft.to/lastmile_qr_scan"}, "fusion_lon": 0.0, "is_reserved": 0, "is_disabled": 0, "fusion_lat": 0.0, "type": "electric_scooter", "name": "6a822a2aaeece36d68eae219e1ec7417", "lat": 38.898426, "bike_id": "6a822a2aaeece36d68eae219e1ec7417"}, {"lon": -76.97331866666667, "rental_uris": {"android": "https://dc.lft.to/lastmile_qr_scan", "ios": "https://dc.lft.to/lastmile_qr_scan"}, "fusion_lon": 0.0, "is_reserved": 0, "is_disabled": 0, "fusion_lat": 0.0, "type": "electric_scooter", "name": "776d2ec45a75042e55146b2f6801f1c1", "lat": 38.90404916666667, "bike_id": "776d2ec45a75042e55146b2f6801f1c1"}, {"lon": -77.04533566666667, "rental_uris": {"android": "https://dc.lft.to/lastmile_qr_scan", "ios": "https://dc.lft.to/lastmile_qr_scan"}, "fusion_lon": 0.0, "is_reserved": 0, "is_disabled": 0, "fusion_lat": 0.0, "type": "electric_scooter", "name": "de24aa81eae4daf2939f785889383f2e", "lat": 38.91102883333333, "bike_id": "de24aa81eae4daf2939f785889383f2e"}, {"lon": -77.0295025, "rental_uris": {"android": "https://dc.lft.to/lastmile_qr_scan", "ios": "https://dc.lft.to/lastmile_qr_scan"}, "fusion_lon": 0.0, "is_reserved": 0, "is_disabled": 0, "fusion_lat": 0.0, "type": "electric_scooter", "name": "cb1abe08d5b7f21ab89f4a5e902c53c8", "lat": 38.901696666666666, "bike_id": "cb1abe08d5b7f21ab89f4a5e902c53c8"}, {"lon": -77.0055205, "rental_uris": {"android": "https://dc.lft.to/lastmile_qr_scan", "ios": "https://dc.lft.to/lastmile_qr_scan"}, "fusion_lon": 0.0, "is_reserved": 0, "is_disabled": 0, "fusion_lat": 0.0, "type": "electric_scooter", "name": "677427ff08f432f1fe3833378768b226", "lat": 38.8755555, "bike_id": "677427ff08f432f1fe3833378768b226"}, {"lon": -77.0324185, "rental_uris": {"android": "https://dc.lft.to/lastmile_qr_scan", "ios": "https://dc.lft.to/lastmile_qr_scan"}, "fusion_lon": 0.0, "is_reserved": 0, "is_disabled": 0, "fusion_lat": 0.0, "type": "electric_scooter", "name": "9037132a8241c471e38752701a5d4b4c", "lat": 38.919911666666664, "bike_id": "9037132a8241c471e38752701a5d4b4c"}, {"lon": -77.00923983333334, "rental_uris": {"android": "https://dc.lft.to/lastmile_qr_scan", "ios": "https://dc.lft.to/lastmile_qr_scan"}, "fusion_lon": 0.0, "is_reserved": 0, "is_disabled": 0, "fusion_lat": 0.0, "type": "electric_scooter", "name": "747f391ce46849c711835786bd0bfbab", "lat": 38.896082166666666, "bike_id": "747f391ce46849c711835786bd0bfbab"}, {"lon": -77.04832583333334, "rental_uris": {"android": "https://dc.lft.to/lastmile_qr_scan", "ios": "https://dc.lft.to/lastmile_qr_scan"}, "fusion_lon": 0.0, "is_reserved": 0, "is_disabled": 0, "fusion_lat": 0.0, "type": "electric_scooter", "name": "21782dfa77b56a701ad6873e33f5e386", "lat": 38.9110545, "bike_id": "21782dfa77b56a701ad6873e33f5e386"}, {"lon": -76.98434716666667, "rental_uris": {"android": "https://dc.lft.to/lastmile_qr_scan", "ios": "https://dc.lft.to/lastmile_qr_scan"}, "fusion_lon": 0.0, "is_reserved": 0, "is_disabled": 0, "fusion_lat": 0.0, "type": "electric_scooter", "name": "b9fd309f18d4be589d9bb09b9bc7aa78", "lat": 38.932773833333336, "bike_id": "b9fd309f18d4be589d9bb09b9bc7aa78"}, {"lon": -77.0237205, "rental_uris": {"android": "https://dc.lft.to/lastmile_qr_scan", "ios": "https://dc.lft.to/lastmile_qr_scan"}, "fusion_lon": 0.0, "is_reserved": 0, "is_disabled": 0, "fusion_lat": 0.0, "type": "electric_scooter", "name": "09b1cb48eed048340d6f3af6a9811579", "lat": 38.89193183333333, "bike_id": "09b1cb48eed048340d6f3af6a9811579"}, {"lon": -77.05264916666667, "rental_uris": {"android": "https://dc.lft.to/lastmile_qr_scan", "ios": "https://dc.lft.to/lastmile_qr_scan"}, "fusion_lon": 0.0, "is_reserved": 0, "is_disabled": 0, "fusion_lat": 0.0, "type": "electric_scooter", "name": "62696974ebf4a7b90a1d72a751790b9f", "lat": 38.92764016666667, "bike_id": "62696974ebf4a7b90a1d72a751790b9f"}, {"lon": -77.01006483333333, "rental_uris": {"android": "https://dc.lft.to/lastmile_qr_scan", "ios": "https://dc.lft.to/lastmile_qr_scan"}, "fusion_lon": 0.0, "is_reserved": 0, "is_disabled": 0, "fusion_lat": 0.0, "type": "electric_scooter", "name": "74e209e981ba1a799f6ca8d2bfd88dd8", "lat": 38.91399466666667, "bike_id": "74e209e981ba1a799f6ca8d2bfd88dd8"}, {"lon": -77.0215635, "rental_uris": {"android": "https://dc.lft.to/lastmile_qr_scan", "ios": "https://dc.lft.to/lastmile_qr_scan"}, "fusion_lon": 0.0, "is_reserved": 0, "is_disabled": 0, "fusion_lat": 0.0, "type": "electric_scooter", "name": "097ccf4118414abe2147ea0bea135417", "lat": 38.92602766666667, "bike_id": "097ccf4118414abe2147ea0bea135417"}, {"lon": -76.93173083333333, "rental_uris": {"android": "https://dc.lft.to/lastmile_qr_scan", "ios": "https://dc.lft.to/lastmile_qr_scan"}, "fusion_lon": 0.0, "is_reserved": 0, "is_disabled": 0, "fusion_lat": 0.0, "type": "electric_scooter", "name": "fa33ecafddb7991349c1f4e5b01016ef", "lat": 38.898872833333336, "bike_id": "fa33ecafddb7991349c1f4e5b01016ef"}, {"lon": -77.01883016666666, "rental_uris": {"android": "https://dc.lft.to/lastmile_qr_scan", "ios": "https://dc.lft.to/lastmile_qr_scan"}, "fusion_lon": 0.0, "is_reserved": 0, "is_disabled": 0, "fusion_lat": 0.0, "type": "electric_scooter", "name": "4ae7352b960d5f12a14c8874689f585b", "lat": 38.92270083333333, "bike_id": "4ae7352b960d5f12a14c8874689f585b"}, {"lon": -77.04331383333333, "rental_uris": {"android": "https://dc.lft.to/lastmile_qr_scan", "ios": "https://dc.lft.to/lastmile_qr_scan"}, "fusion_lon": 0.0, "is_reserved": 0, "is_disabled": 0, "fusion_lat": 0.0, "type": "electric_scooter", "name": "fb4051e32fa89c0df2663e6cdd1e800d", "lat": 38.90362983333333, "bike_id": "fb4051e32fa89c0df2663e6cdd1e800d"}, {"lon": -77.0321165, "rental_uris": {"android": "https://dc.lft.to/lastmile_qr_scan", "ios": "https://dc.lft.to/lastmile_qr_scan"}, "fusion_lon": 0.0, "is_reserved": 0, "is_disabled": 0, "fusion_lat": 0.0, "type": "electric_scooter", "name": "6c1f770daed82f6cb659e2a568c3d5dd", "lat": 38.916337166666665, "bike_id": "6c1f770daed82f6cb659e2a568c3d5dd"}, {"lon": -77.0279765, "rental_uris": {"android": "https://dc.lft.to/lastmile_qr_scan", "ios": "https://dc.lft.to/lastmile_qr_scan"}, "fusion_lon": 0.0, "is_reserved": 0, "is_disabled": 0, "fusion_lat": 0.0, "type": "electric_scooter", "name": "f5557568a1bde184037cf19e370c0c95", "lat": 38.944510333333334, "bike_id": "f5557568a1bde184037cf19e370c0c95"}, {"lon": -77.04235216666666, "rental_uris": {"android": "https://dc.lft.to/lastmile_qr_scan", "ios": "https://dc.lft.to/lastmile_qr_scan"}, "fusion_lon": 0.0, "is_reserved": 0, "is_disabled": 0, "fusion_lat": 0.0, "type": "electric_scooter", "name": "aacb844296b457f2924905b6812c0558", "lat": 38.921938833333336, "bike_id": "aacb844296b457f2924905b6812c0558"}, {"lon": -77.01997733333333, "rental_uris": {"android": "https://dc.lft.to/lastmile_qr_scan", "ios": "https://dc.lft.to/lastmile_qr_scan"}, "fusion_lon": 0.0, "is_reserved": 0, "is_disabled": 0, "fusion_lat": 0.0, "type": "electric_scooter", "name": "2f40c4acdb55254894bf9662a022e57b", "lat": 38.915030333333334, "bike_id": "2f40c4acdb55254894bf9662a022e57b"}, {"lon": -77.03467933333333, "rental_uris": {"android": "https://dc.lft.to/lastmile_qr_scan", "ios": "https://dc.lft.to/lastmile_qr_scan"}, "fusion_lon": 0.0, "is_reserved": 0, "is_disabled": 0, "fusion_lat": 0.0, "type": "electric_scooter", "name": "39586827834af5906e8c6338cad3a86d", "lat": 38.908254, "bike_id": "39586827834af5906e8c6338cad3a86d"}, {"lon": -76.97442833333334, "rental_uris": {"android": "https://dc.lft.to/lastmile_qr_scan", "ios": "https://dc.lft.to/lastmile_qr_scan"}, "fusion_lon": 0.0, "is_reserved": 0, "is_disabled": 0, "fusion_lat": 0.0, "type": "electric_scooter", "name": "14a048ef78021e22263b099bf5acf111", "lat": 38.902659166666666, "bike_id": "14a048ef78021e22263b099bf5acf111"}, {"lon": -77.003358, "rental_uris": {"android": "https://dc.lft.to/lastmile_qr_scan", "ios": "https://dc.lft.to/lastmile_qr_scan"}, "fusion_lon": 0.0, "is_reserved": 0, "is_disabled": 0, "fusion_lat": 0.0, "type": "electric_scooter", "name": "90384e5d9eee52a886fa88b197a6f97d", "lat": 38.8961705, "bike_id": "90384e5d9eee52a886fa88b197a6f97d"}, {"lon": -77.0467245, "rental_uris": {"android": "https://dc.lft.to/lastmile_qr_scan", "ios": "https://dc.lft.to/lastmile_qr_scan"}, "fusion_lon": 0.0, "is_reserved": 0, "is_disabled": 0, "fusion_lat": 0.0, "type": "electric_scooter", "name": "510f36d3126a055879d6a81e44116800", "lat": 38.89505416666667, "bike_id": "510f36d3126a055879d6a81e44116800"}, {"lon": -77.0328585, "rental_uris": {"android": "https://dc.lft.to/lastmile_qr_scan", "ios": "https://dc.lft.to/lastmile_qr_scan"}, "fusion_lon": 0.0, "is_reserved": 0, "is_disabled": 0, "fusion_lat": 0.0, "type": "electric_scooter", "name": "ed1961271748ee2653c113bc22cd26ed", "lat": 38.92743866666667, "bike_id": "ed1961271748ee2653c113bc22cd26ed"}, {"lon": -77.02149283333334, "rental_uris": {"android": "https://dc.lft.to/lastmile_qr_scan", "ios": "https://dc.lft.to/lastmile_qr_scan"}, "fusion_lon": 0.0, "is_reserved": 0, "is_disabled": 0, "fusion_lat": 0.0, "type": "electric_scooter", "name": "5e174c6f3261fe67da992db6a5784d7c", "lat": 38.87921, "bike_id": "5e174c6f3261fe67da992db6a5784d7c"}, {"lon": -77.06948783333333, "rental_uris": {"android": "https://dc.lft.to/lastmile_qr_scan", "ios": "https://dc.lft.to/lastmile_qr_scan"}, "fusion_lon": 0.0, "is_reserved": 0, "is_disabled": 0, "fusion_lat": 0.0, "type": "electric_bike", "name": "491b34c886232231aec2d709fccb8900", "lat": 38.83629766666667, "bike_id": "491b34c886232231aec2d709fccb8900"}, {"lon": -76.9869705, "rental_uris": {"android": "https://dc.lft.to/lastmile_qr_scan", "ios": "https://dc.lft.to/lastmile_qr_scan"}, "fusion_lon": 0.0, "is_reserved": 0, "is_disabled": 0, "fusion_lat": 0.0, "type": "electric_scooter", "name": "718d08bb095f83f3be5590db9b8aa6d8", "lat": 38.906194166666666, "bike_id": "718d08bb095f83f3be5590db9b8aa6d8"}, {"lon": -77.03836016666666, "rental_uris": {"android": "https://dc.lft.to/lastmile_qr_scan", "ios": "https://dc.lft.to/lastmile_qr_scan"}, "fusion_lon": 0.0, "is_reserved": 0, "is_disabled": 0, "fusion_lat": 0.0, "type": "electric_scooter", "name": "55e786643a69546186383e463c65cf79", "lat": 38.907717166666664, "bike_id": "55e786643a69546186383e463c65cf79"}, {"lon": -77.02569383333334, "rental_uris": {"android": "https://dc.lft.to/lastmile_qr_scan", "ios": "https://dc.lft.to/lastmile_qr_scan"}, "fusion_lon": 0.0, "is_reserved": 0, "is_disabled": 0, "fusion_lat": 0.0, "type": "electric_scooter", "name": "568e355b865b852f6e16d03f1a26f3a8", "lat": 38.887416333333334, "bike_id": "568e355b865b852f6e16d03f1a26f3a8"}, {"lon": -77.02341416666667, "rental_uris": {"android": "https://dc.lft.to/lastmile_qr_scan", "ios": "https://dc.lft.to/lastmile_qr_scan"}, "fusion_lon": 0.0, "is_reserved": 0, "is_disabled": 0, "fusion_lat": 0.0, "type": "electric_scooter", "name": "f5756c23dc1daac8ba36ff8c2bb95865", "lat": 38.9450285, "bike_id": "f5756c23dc1daac8ba36ff8c2bb95865"}, {"lon": -77.01737466666667, "rental_uris": {"android": "https://dc.lft.to/lastmile_qr_scan", "ios": "https://dc.lft.to/lastmile_qr_scan"}, "fusion_lon": 0.0, "is_reserved": 0, "is_disabled": 0, "fusion_lat": 0.0, "type": "electric_scooter", "name": "5f152d1c768204966bb27d7ebae70426", "lat": 38.975121333333334, "bike_id": "5f152d1c768204966bb27d7ebae70426"}, {"lon": -77.04358683333334, "rental_uris": {"android": "https://dc.lft.to/lastmile_qr_scan", "ios": "https://dc.lft.to/lastmile_qr_scan"}, "fusion_lon": 0.0, "is_reserved": 0, "is_disabled": 0, "fusion_lat": 0.0, "type": "electric_scooter", "name": "0e0302e3e78df656b7a33e7b0510cf33", "lat": 38.901341, "bike_id": "0e0302e3e78df656b7a33e7b0510cf33"}, {"lon": -77.04694366666666, "rental_uris": {"android": "https://dc.lft.to/lastmile_qr_scan", "ios": "https://dc.lft.to/lastmile_qr_scan"}, "fusion_lon": 0.0, "is_reserved": 0, "is_disabled": 0, "fusion_lat": 0.0, "type": "electric_scooter", "name": "2e09780e63eca8a3bd6814f8d38358ab", "lat": 38.909493499999996, "bike_id": "2e09780e63eca8a3bd6814f8d38358ab"}, {"lon": -77.0510605, "rental_uris": {"android": "https://dc.lft.to/lastmile_qr_scan", "ios": "https://dc.lft.to/lastmile_qr_scan"}, "fusion_lon": 0.0, "is_reserved": 0, "is_disabled": 0, "fusion_lat": 0.0, "type": "electric_bike", "name": "b029c07b0dddcbbf7031caefd13479d6", "lat": 38.81334866666667, "bike_id": "b029c07b0dddcbbf7031caefd13479d6"}, {"lon": -77.06683633333333, "rental_uris": {"android": "https://dc.lft.to/lastmile_qr_scan", "ios": "https://dc.lft.to/lastmile_qr_scan"}, "fusion_lon": 0.0, "is_reserved": 0, "is_disabled": 0, "fusion_lat": 0.0, "type": "electric_scooter", "name": "6893bb4d18b59dc8e111bc11756f6e07", "lat": 38.90369066666667, "bike_id": "6893bb4d18b59dc8e111bc11756f6e07"}, {"lon": -77.0269815, "rental_uris": {"android": "https://dc.lft.to/lastmile_qr_scan", "ios": "https://dc.lft.to/lastmile_qr_scan"}, "fusion_lon": 0.0, "is_reserved": 0, "is_disabled": 0, "fusion_lat": 0.0, "type": "electric_scooter", "name": "732af60eec59146f497078b24b56e435", "lat": 38.900868333333335, "bike_id": "732af60eec59146f497078b24b56e435"}, {"lon": -76.9957265, "rental_uris": {"android": "https://dc.lft.to/lastmile_qr_scan", "ios": "https://dc.lft.to/lastmile_qr_scan"}, "fusion_lon": 0.0, "is_reserved": 0, "is_disabled": 0, "fusion_lat": 0.0, "type": "electric_scooter", "name": "ee5b4d36f3cd9571e70cc1f64821d914", "lat": 38.86273383333333, "bike_id": "ee5b4d36f3cd9571e70cc1f64821d914"}, {"lon": -77.029648, "rental_uris": {"android": "https://dc.lft.to/lastmile_qr_scan", "ios": "https://dc.lft.to/lastmile_qr_scan"}, "fusion_lon": 0.0, "is_reserved": 0, "is_disabled": 0, "fusion_lat": 0.0, "type": "electric_scooter", "name": "c3de1c777aeca921cbba7f9281419772", "lat": 38.93183583333333, "bike_id": "c3de1c777aeca921cbba7f9281419772"}, {"lon": -77.01830783333334, "rental_uris": {"android": "https://dc.lft.to/lastmile_qr_scan", "ios": "https://dc.lft.to/lastmile_qr_scan"}, "fusion_lon": 0.0, "is_reserved": 0, "is_disabled": 0, "fusion_lat": 0.0, "type": "electric_scooter", "name": "1667263f7d291b66a3fcc1a4708117ed", "lat": 38.921547833333335, "bike_id": "1667263f7d291b66a3fcc1a4708117ed"}, {"lon": -77.03942266666667, "rental_uris": {"android": "https://dc.lft.to/lastmile_qr_scan", "ios": "https://dc.lft.to/lastmile_qr_scan"}, "fusion_lon": 0.0, "is_reserved": 0, "is_disabled": 0, "fusion_lat": 0.0, "type": "electric_scooter", "name": "568d8990312af48a4e3d5600bddf95cb", "lat": 38.9081895, "bike_id": "568d8990312af48a4e3d5600bddf95cb"}, {"lon": -77.0315035, "rental_uris": {"android": "https://dc.lft.to/lastmile_qr_scan", "ios": "https://dc.lft.to/lastmile_qr_scan"}, "fusion_lon": 0.0, "is_reserved": 0, "is_disabled": 0, "fusion_lat": 0.0, "type": "electric_scooter", "name": "9bb6334835e08bc681a2b42e19480a77", "lat": 38.91561566666667, "bike_id": "9bb6334835e08bc681a2b42e19480a77"}, {"lon": -77.0455875, "rental_uris": {"android": "https://dc.lft.to/lastmile_qr_scan", "ios": "https://dc.lft.to/lastmile_qr_scan"}, "fusion_lon": 0.0, "is_reserved": 0, "is_disabled": 0, "fusion_lat": 0.0, "type": "electric_scooter", "name": "2529295692087b63bc3448f469371148", "lat": 38.9023225, "bike_id": "2529295692087b63bc3448f469371148"}, {"lon": -77.02131683333333, "rental_uris": {"android": "https://dc.lft.to/lastmile_qr_scan", "ios": "https://dc.lft.to/lastmile_qr_scan"}, "fusion_lon": 0.0, "is_reserved": 0, "is_disabled": 0, "fusion_lat": 0.0, "type": "electric_scooter", "name": "33622297e82f71b54ea34f33758cf6fc", "lat": 38.919137166666665, "bike_id": "33622297e82f71b54ea34f33758cf6fc"}, {"lon": -77.00715333333333, "rental_uris": {"android": "https://dc.lft.to/lastmile_qr_scan", "ios": "https://dc.lft.to/lastmile_qr_scan"}, "fusion_lon": 0.0, "is_reserved": 0, "is_disabled": 0, "fusion_lat": 0.0, "type": "electric_scooter", "name": "06d7b873b709b9b578228168a08d6305", "lat": 38.955295666666665, "bike_id": "06d7b873b709b9b578228168a08d6305"}, {"lon": -76.9337545, "rental_uris": {"android": "https://dc.lft.to/lastmile_qr_scan", "ios": "https://dc.lft.to/lastmile_qr_scan"}, "fusion_lon": 0.0, "is_reserved": 0, "is_disabled": 0, "fusion_lat": 0.0, "type": "electric_scooter", "name": "7c87ab420488c34aa7a34a13b5688033", "lat": 38.89912733333333, "bike_id": "7c87ab420488c34aa7a34a13b5688033"}, {"lon": -77.0161675, "rental_uris": {"android": "https://dc.lft.to/lastmile_qr_scan", "ios": "https://dc.lft.to/lastmile_qr_scan"}, "fusion_lon": 0.0, "is_reserved": 0, "is_disabled": 0, "fusion_lat": 0.0, "type": "electric_scooter", "name": "ca975acbcc7a35fbf414ebb044634b1f", "lat": 38.947370166666666, "bike_id": "ca975acbcc7a35fbf414ebb044634b1f"}, {"lon": -77.0244475, "rental_uris": {"android": "https://dc.lft.to/lastmile_qr_scan", "ios": "https://dc.lft.to/lastmile_qr_scan"}, "fusion_lon": 0.0, "is_reserved": 0, "is_disabled": 0, "fusion_lat": 0.0, "type": "electric_scooter", "name": "195c1e99c9aa7e11ce2deb52ceea93f1", "lat": 38.926540333333335, "bike_id": "195c1e99c9aa7e11ce2deb52ceea93f1"}, {"lon": -77.04247583333333, "rental_uris": {"android": "https://dc.lft.to/lastmile_qr_scan", "ios": "https://dc.lft.to/lastmile_qr_scan"}, "fusion_lon": 0.0, "is_reserved": 0, "is_disabled": 0, "fusion_lat": 0.0, "type": "electric_scooter", "name": "57ec60ae5a50bac6dec4785a3d870254", "lat": 38.899795166666664, "bike_id": "57ec60ae5a50bac6dec4785a3d870254"}, {"lon": -77.02811416666667, "rental_uris": {"android": "https://dc.lft.to/lastmile_qr_scan", "ios": "https://dc.lft.to/lastmile_qr_scan"}, "fusion_lon": 0.0, "is_reserved": 0, "is_disabled": 0, "fusion_lat": 0.0, "type": "electric_scooter", "name": "85b122751366da229a17fca985d0438b", "lat": 38.895185, "bike_id": "85b122751366da229a17fca985d0438b"}, {"lon": -76.956982, "rental_uris": {"android": "https://dc.lft.to/lastmile_qr_scan", "ios": "https://dc.lft.to/lastmile_qr_scan"}, "fusion_lon": 0.0, "is_reserved": 0, "is_disabled": 0, "fusion_lat": 0.0, "type": "electric_bike", "name": "85efd86168930f975785f0a300a1a3de", "lat": 38.85085266666667, "bike_id": "85efd86168930f975785f0a300a1a3de"}, {"lon": -77.021724, "rental_uris": {"android": "https://dc.lft.to/lastmile_qr_scan", "ios": "https://dc.lft.to/lastmile_qr_scan"}, "fusion_lon": 0.0, "is_reserved": 0, "is_disabled": 0, "fusion_lat": 0.0, "type": "electric_scooter", "name": "9489c65b6911319ee8490a0df1e39302", "lat": 38.88731666666666, "bike_id": "9489c65b6911319ee8490a0df1e39302"}, {"lon": -77.01945016666667, "rental_uris": {"android": "https://dc.lft.to/lastmile_qr_scan", "ios": "https://dc.lft.to/lastmile_qr_scan"}, "fusion_lon": 0.0, "is_reserved": 0, "is_disabled": 0, "fusion_lat": 0.0, "type": "electric_scooter", "name": "f7f6b9102182f32043c0fa0ab72e5751", "lat": 38.9227055, "bike_id": "f7f6b9102182f32043c0fa0ab72e5751"}, {"lon": -77.015584, "rental_uris": {"android": "https://dc.lft.to/lastmile_qr_scan", "ios": "https://dc.lft.to/lastmile_qr_scan"}, "fusion_lon": 0.0, "is_reserved": 0, "is_disabled": 0, "fusion_lat": 0.0, "type": "electric_scooter", "name": "668749e58c95ef741e94d5409cbe134f", "lat": 38.914682166666665, "bike_id": "668749e58c95ef741e94d5409cbe134f"}, {"lon": -77.00168783333334, "rental_uris": {"android": "https://dc.lft.to/lastmile_qr_scan", "ios": "https://dc.lft.to/lastmile_qr_scan"}, "fusion_lon": 0.0, "is_reserved": 0, "is_disabled": 0, "fusion_lat": 0.0, "type": "electric_scooter", "name": "e9523e8605015119f0c29bba6e597e5d", "lat": 38.873667166666664, "bike_id": "e9523e8605015119f0c29bba6e597e5d"}, {"lon": -77.0077345, "rental_uris": {"android": "https://dc.lft.to/lastmile_qr_scan", "ios": "https://dc.lft.to/lastmile_qr_scan"}, "fusion_lon": 0.0, "is_reserved": 0, "is_disabled": 0, "fusion_lat": 0.0, "type": "electric_bike", "name": "9b9ae9fd553ebbcd8e3439fe4330b908", "lat": 38.8748345, "bike_id": "9b9ae9fd553ebbcd8e3439fe4330b908"}, {"lon": -77.02838733333333, "rental_uris": {"android": "https://dc.lft.to/lastmile_qr_scan", "ios": "https://dc.lft.to/lastmile_qr_scan"}, "fusion_lon": 0.0, "is_reserved": 0, "is_disabled": 0, "fusion_lat": 0.0, "type": "electric_bike", "name": "53b64918525b0d7cf32e47d2fec72ac1", "lat": 38.94262833333333, "bike_id": "53b64918525b0d7cf32e47d2fec72ac1"}, {"lon": -77.01223683333333, "rental_uris": {"android": "https://dc.lft.to/lastmile_qr_scan", "ios": "https://dc.lft.to/lastmile_qr_scan"}, "fusion_lon": 0.0, "is_reserved": 0, "is_disabled": 0, "fusion_lat": 0.0, "type": "electric_scooter", "name": "c66d16e712274c84144b1496a124b642", "lat": 38.893449, "bike_id": "c66d16e712274c84144b1496a124b642"}, {"lon": -77.02168483333334, "rental_uris": {"android": "https://dc.lft.to/lastmile_qr_scan", "ios": "https://dc.lft.to/lastmile_qr_scan"}, "fusion_lon": 0.0, "is_reserved": 0, "is_disabled": 0, "fusion_lat": 0.0, "type": "electric_scooter", "name": "817ed4633e442b8e8093d0ba55b4c7e8", "lat": 38.94288266666667, "bike_id": "817ed4633e442b8e8093d0ba55b4c7e8"}, {"lon": -77.05133216666667, "rental_uris": {"android": "https://dc.lft.to/lastmile_qr_scan", "ios": "https://dc.lft.to/lastmile_qr_scan"}, "fusion_lon": 0.0, "is_reserved": 0, "is_disabled": 0, "fusion_lat": 0.0, "type": "electric_scooter", "name": "fee24cb1e882a6dfc22da5c069342fc4", "lat": 38.9061625, "bike_id": "fee24cb1e882a6dfc22da5c069342fc4"}, {"lon": -77.01953616666667, "rental_uris": {"android": "https://dc.lft.to/lastmile_qr_scan", "ios": "https://dc.lft.to/lastmile_qr_scan"}, "fusion_lon": 0.0, "is_reserved": 0, "is_disabled": 0, "fusion_lat": 0.0, "type": "electric_scooter", "name": "13e5805a97919172f2f1cf02af8c6ac1", "lat": 38.92324816666667, "bike_id": "13e5805a97919172f2f1cf02af8c6ac1"}, {"lon": -77.02366766666667, "rental_uris": {"android": "https://dc.lft.to/lastmile_qr_scan", "ios": "https://dc.lft.to/lastmile_qr_scan"}, "fusion_lon": 0.0, "is_reserved": 0, "is_disabled": 0, "fusion_lat": 0.0, "type": "electric_scooter", "name": "22fa0c84c2708ddf111290205737424a", "lat": 38.899569166666666, "bike_id": "22fa0c84c2708ddf111290205737424a"}, {"lon": -77.02002616666667, "rental_uris": {"android": "https://dc.lft.to/lastmile_qr_scan", "ios": "https://dc.lft.to/lastmile_qr_scan"}, "fusion_lon": 0.0, "is_reserved": 0, "is_disabled": 0, "fusion_lat": 0.0, "type": "electric_scooter", "name": "0cdfee4efad7997a31490621bcbe2add", "lat": 38.9644395, "bike_id": "0cdfee4efad7997a31490621bcbe2add"}, {"lon": -77.04180316666667, "rental_uris": {"android": "https://dc.lft.to/lastmile_qr_scan", "ios": "https://dc.lft.to/lastmile_qr_scan"}, "fusion_lon": 0.0, "is_reserved": 0, "is_disabled": 0, "fusion_lat": 0.0, "type": "electric_scooter", "name": "43a23c3103c5779310bc2f8e64049649", "lat": 38.899320333333335, "bike_id": "43a23c3103c5779310bc2f8e64049649"}, {"lon": -76.93750466666667, "rental_uris": {"android": "https://dc.lft.to/lastmile_qr_scan", "ios": "https://dc.lft.to/lastmile_qr_scan"}, "fusion_lon": 0.0, "is_reserved": 0, "is_disabled": 0, "fusion_lat": 0.0, "type": "electric_scooter", "name": "53b50eb84ef0a7439a01665a0c07e72a", "lat": 38.8904195, "bike_id": "53b50eb84ef0a7439a01665a0c07e72a"}, {"lon": -77.03646166666667, "rental_uris": {"android": "https://dc.lft.to/lastmile_qr_scan", "ios": "https://dc.lft.to/lastmile_qr_scan"}, "fusion_lon": 0.0, "is_reserved": 0, "is_disabled": 0, "fusion_lat": 0.0, "type": "electric_scooter", "name": "33afb724b7806d70e3b191a173a7cb37", "lat": 38.903791166666664, "bike_id": "33afb724b7806d70e3b191a173a7cb37"}, {"lon": -77.038722, "rental_uris": {"android": "https://dc.lft.to/lastmile_qr_scan", "ios": "https://dc.lft.to/lastmile_qr_scan"}, "fusion_lon": 0.0, "is_reserved": 0, "is_disabled": 0, "fusion_lat": 0.0, "type": "electric_scooter", "name": "78832e918c61b7308b3a5a8813ee5ac1", "lat": 38.906207, "bike_id": "78832e918c61b7308b3a5a8813ee5ac1"}, {"lon": -77.05001733333333, "rental_uris": {"android": "https://dc.lft.to/lastmile_qr_scan", "ios": "https://dc.lft.to/lastmile_qr_scan"}, "fusion_lon": 0.0, "is_reserved": 0, "is_disabled": 0, "fusion_lat": 0.0, "type": "electric_scooter", "name": "589f6cd787b0859953b5bf26e0cd310f", "lat": 38.899221, "bike_id": "589f6cd787b0859953b5bf26e0cd310f"}, {"lon": -77.04578966666666, "rental_uris": {"android": "https://dc.lft.to/lastmile_qr_scan", "ios": "https://dc.lft.to/lastmile_qr_scan"}, "fusion_lon": 0.0, "is_reserved": 0, "is_disabled": 0, "fusion_lat": 0.0, "type": "electric_scooter", "name": "d42d94cf195812134f06a7f5e70a73f3", "lat": 38.9138975, "bike_id": "d42d94cf195812134f06a7f5e70a73f3"}, {"lon": -77.0365825, "rental_uris": {"android": "https://dc.lft.to/lastmile_qr_scan", "ios": "https://dc.lft.to/lastmile_qr_scan"}, "fusion_lon": 0.0, "is_reserved": 0, "is_disabled": 0, "fusion_lat": 0.0, "type": "electric_scooter", "name": "28938d2111cd846b18faa4587dbea3c9", "lat": 38.909105, "bike_id": "28938d2111cd846b18faa4587dbea3c9"}, {"lon": -77.04335816666666, "rental_uris": {"android": "https://dc.lft.to/lastmile_qr_scan", "ios": "https://dc.lft.to/lastmile_qr_scan"}, "fusion_lon": 0.0, "is_reserved": 0, "is_disabled": 0, "fusion_lat": 0.0, "type": "electric_scooter", "name": "2927688a65b29bcc8937761117178f41", "lat": 38.9062005, "bike_id": "2927688a65b29bcc8937761117178f41"}, {"lon": -76.96258916666666, "rental_uris": {"android": "https://dc.lft.to/lastmile_qr_scan", "ios": "https://dc.lft.to/lastmile_qr_scan"}, "fusion_lon": 0.0, "is_reserved": 0, "is_disabled": 0, "fusion_lat": 0.0, "type": "electric_scooter", "name": "e8440ee5ead2421a331e5331033b4bba", "lat": 38.878668166666664, "bike_id": "e8440ee5ead2421a331e5331033b4bba"}, {"lon": -77.04496416666667, "rental_uris": {"android": "https://dc.lft.to/lastmile_qr_scan", "ios": "https://dc.lft.to/lastmile_qr_scan"}, "fusion_lon": 0.0, "is_reserved": 0, "is_disabled": 0, "fusion_lat": 0.0, "type": "electric_bike", "name": "d3f46c3711fab8b6cedf25193ddeaee5", "lat": 39.01415216666667, "bike_id": "d3f46c3711fab8b6cedf25193ddeaee5"}, {"lon": -77.08070216666667, "rental_uris": {"android": "https://dc.lft.to/lastmile_qr_scan", "ios": "https://dc.lft.to/lastmile_qr_scan"}, "fusion_lon": 0.0, "is_reserved": 0, "is_disabled": 0, "fusion_lat": 0.0, "type": "electric_bike", "name": "9ff1500464cb315a00186f3740549c9b", "lat": 38.95126966666667, "bike_id": "9ff1500464cb315a00186f3740549c9b"}, {"lon": -77.0114115, "rental_uris": {"android": "https://dc.lft.to/lastmile_qr_scan", "ios": "https://dc.lft.to/lastmile_qr_scan"}, "fusion_lon": 0.0, "is_reserved": 0, "is_disabled": 0, "fusion_lat": 0.0, "type": "electric_scooter", "name": "44355be6b811cdfba929122890dd5b80", "lat": 38.88332366666667, "bike_id": "44355be6b811cdfba929122890dd5b80"}, {"lon": -77.04023633333334, "rental_uris": {"android": "https://dc.lft.to/lastmile_qr_scan", "ios": "https://dc.lft.to/lastmile_qr_scan"}, "fusion_lon": 0.0, "is_reserved": 0, "is_disabled": 0, "fusion_lat": 0.0, "type": "electric_scooter", "name": "6fba2f1d600baa03cb348a8e6353e751", "lat": 38.89905483333333, "bike_id": "6fba2f1d600baa03cb348a8e6353e751"}, {"lon": -77.03906766666667, "rental_uris": {"android": "https://dc.lft.to/lastmile_qr_scan", "ios": "https://dc.lft.to/lastmile_qr_scan"}, "fusion_lon": 0.0, "is_reserved": 0, "is_disabled": 0, "fusion_lat": 0.0, "type": "electric_scooter", "name": "c13c7f729cd0ff380302cdbe5f9de520", "lat": 38.91687433333333, "bike_id": "c13c7f729cd0ff380302cdbe5f9de520"}, {"lon": -77.0327255, "rental_uris": {"android": "https://dc.lft.to/lastmile_qr_scan", "ios": "https://dc.lft.to/lastmile_qr_scan"}, "fusion_lon": 0.0, "is_reserved": 0, "is_disabled": 0, "fusion_lat": 0.0, "type": "electric_bike", "name": "82b1b6f596d4000db186812babebbdfb", "lat": 38.961227666666666, "bike_id": "82b1b6f596d4000db186812babebbdfb"}, {"lon": -77.03639366666667, "rental_uris": {"android": "https://dc.lft.to/lastmile_qr_scan", "ios": "https://dc.lft.to/lastmile_qr_scan"}, "fusion_lon": 0.0, "is_reserved": 0, "is_disabled": 0, "fusion_lat": 0.0, "type": "electric_scooter", "name": "0a7a86805947e6fda19e5635f1da64a3", "lat": 38.902600166666666, "bike_id": "0a7a86805947e6fda19e5635f1da64a3"}, {"lon": -77.03256816666666, "rental_uris": {"android": "https://dc.lft.to/lastmile_qr_scan", "ios": "https://dc.lft.to/lastmile_qr_scan"}, "fusion_lon": 0.0, "is_reserved": 0, "is_disabled": 0, "fusion_lat": 0.0, "type": "electric_scooter", "name": "f373d1b0ece411257776200877505938", "lat": 38.902150166666665, "bike_id": "f373d1b0ece411257776200877505938"}, {"lon": -77.03271566666666, "rental_uris": {"android": "https://dc.lft.to/lastmile_qr_scan", "ios": "https://dc.lft.to/lastmile_qr_scan"}, "fusion_lon": 0.0, "is_reserved": 0, "is_disabled": 0, "fusion_lat": 0.0, "type": "electric_scooter", "name": "6a86ab5baf8f205856446bf2466cad80", "lat": 38.93333716666667, "bike_id": "6a86ab5baf8f205856446bf2466cad80"}, {"lon": -77.02203016666667, "rental_uris": {"android": "https://dc.lft.to/lastmile_qr_scan", "ios": "https://dc.lft.to/lastmile_qr_scan"}, "fusion_lon": 0.0, "is_reserved": 0, "is_disabled": 0, "fusion_lat": 0.0, "type": "electric_scooter", "name": "28f86c45f40af8742614dd8c9413687c", "lat": 38.887237, "bike_id": "28f86c45f40af8742614dd8c9413687c"}, {"lon": -77.03132616666667, "rental_uris": {"android": "https://dc.lft.to/lastmile_qr_scan", "ios": "https://dc.lft.to/lastmile_qr_scan"}, "fusion_lon": 0.0, "is_reserved": 0, "is_disabled": 0, "fusion_lat": 0.0, "type": "electric_scooter", "name": "4f8912abe76d98de5df12c9a4908893b", "lat": 38.924765, "bike_id": "4f8912abe76d98de5df12c9a4908893b"}, {"lon": -77.03266466666666, "rental_uris": {"android": "https://dc.lft.to/lastmile_qr_scan", "ios": "https://dc.lft.to/lastmile_qr_scan"}, "fusion_lon": 0.0, "is_reserved": 0, "is_disabled": 0, "fusion_lat": 0.0, "type": "electric_scooter", "name": "e38ce8680aedf3df52f0f4fac961a683", "lat": 38.89893516666667, "bike_id": "e38ce8680aedf3df52f0f4fac961a683"}, {"lon": -77.0465515, "rental_uris": {"android": "https://dc.lft.to/lastmile_qr_scan", "ios": "https://dc.lft.to/lastmile_qr_scan"}, "fusion_lon": 0.0, "is_reserved": 0, "is_disabled": 0, "fusion_lat": 0.0, "type": "electric_scooter", "name": "956d95b397e470a689322fa71a9eb631", "lat": 38.899619333333334, "bike_id": "956d95b397e470a689322fa71a9eb631"}, {"lon": -76.937297, "rental_uris": {"android": "https://dc.lft.to/lastmile_qr_scan", "ios": "https://dc.lft.to/lastmile_qr_scan"}, "fusion_lon": 0.0, "is_reserved": 0, "is_disabled": 0, "fusion_lat": 0.0, "type": "electric_scooter", "name": "1a0acaea132950bd45e24f1d52eb4cc4", "lat": 38.8903335, "bike_id": "1a0acaea132950bd45e24f1d52eb4cc4"}, {"lon": -76.951982, "rental_uris": {"android": "https://dc.lft.to/lastmile_qr_scan", "ios": "https://dc.lft.to/lastmile_qr_scan"}, "fusion_lon": 0.0, "is_reserved": 0, "is_disabled": 0, "fusion_lat": 0.0, "type": "electric_scooter", "name": "0153dc43e12ca50f19e87ebece3d8e6d", "lat": 38.904743833333335, "bike_id": "0153dc43e12ca50f19e87ebece3d8e6d"}, {"lon": -77.066133, "rental_uris": {"android": "https://dc.lft.to/lastmile_qr_scan", "ios": "https://dc.lft.to/lastmile_qr_scan"}, "fusion_lon": 0.0, "is_reserved": 0, "is_disabled": 0, "fusion_lat": 0.0, "type": "electric_scooter", "name": "fc1a87e8fc630572f23807745cc8d133", "lat": 38.906091333333336, "bike_id": "fc1a87e8fc630572f23807745cc8d133"}, {"lon": -76.989804, "rental_uris": {"android": "https://dc.lft.to/lastmile_qr_scan", "ios": "https://dc.lft.to/lastmile_qr_scan"}, "fusion_lon": 0.0, "is_reserved": 0, "is_disabled": 0, "fusion_lat": 0.0, "type": "electric_scooter", "name": "c5dc5c8d3a68999c8a648bb4777f8d8a", "lat": 38.9244105, "bike_id": "c5dc5c8d3a68999c8a648bb4777f8d8a"}, {"lon": -77.02031416666667, "rental_uris": {"android": "https://dc.lft.to/lastmile_qr_scan", "ios": "https://dc.lft.to/lastmile_qr_scan"}, "fusion_lon": 0.0, "is_reserved": 0, "is_disabled": 0, "fusion_lat": 0.0, "type": "electric_scooter", "name": "b1b98c9cdcc82e19e03ca2e5878ac70c", "lat": 38.924396333333334, "bike_id": "b1b98c9cdcc82e19e03ca2e5878ac70c"}, {"lon": -76.99367116666667, "rental_uris": {"android": "https://dc.lft.to/lastmile_qr_scan", "ios": "https://dc.lft.to/lastmile_qr_scan"}, "fusion_lon": 0.0, "is_reserved": 0, "is_disabled": 0, "fusion_lat": 0.0, "type": "electric_scooter", "name": "45dc3aa573f415ea88619861cc516400", "lat": 38.88933, "bike_id": "45dc3aa573f415ea88619861cc516400"}, {"lon": -77.07274, "rental_uris": {"android": "https://dc.lft.to/lastmile_qr_scan", "ios": "https://dc.lft.to/lastmile_qr_scan"}, "fusion_lon": 0.0, "is_reserved": 0, "is_disabled": 0, "fusion_lat": 0.0, "type": "electric_scooter", "name": "784bdc76b3f61c07b78e767e3646eff4", "lat": 38.934698166666664, "bike_id": "784bdc76b3f61c07b78e767e3646eff4"}, {"lon": -77.01951066666666, "rental_uris": {"android": "https://dc.lft.to/lastmile_qr_scan", "ios": "https://dc.lft.to/lastmile_qr_scan"}, "fusion_lon": 0.0, "is_reserved": 0, "is_disabled": 0, "fusion_lat": 0.0, "type": "electric_scooter", "name": "141aa1b69d614ac4f258e7bcf5e3678e", "lat": 38.92253633333333, "bike_id": "141aa1b69d614ac4f258e7bcf5e3678e"}, {"lon": -77.02028083333333, "rental_uris": {"android": "https://dc.lft.to/lastmile_qr_scan", "ios": "https://dc.lft.to/lastmile_qr_scan"}, "fusion_lon": 0.0, "is_reserved": 0, "is_disabled": 0, "fusion_lat": 0.0, "type": "electric_scooter", "name": "2822f9fb84c72423ebd9b658a0f4a10b", "lat": 38.9225045, "bike_id": "2822f9fb84c72423ebd9b658a0f4a10b"}, {"lon": -77.126478, "rental_uris": {"android": "https://dc.lft.to/lastmile_qr_scan", "ios": "https://dc.lft.to/lastmile_qr_scan"}, "fusion_lon": 0.0, "is_reserved": 0, "is_disabled": 0, "fusion_lat": 0.0, "type": "electric_bike", "name": "117e0b704e920368ad7c0dd7d4e5625f", "lat": 38.81911933333333, "bike_id": "117e0b704e920368ad7c0dd7d4e5625f"}, {"lon": -76.99602516666667, "rental_uris": {"android": "https://dc.lft.to/lastmile_qr_scan", "ios": "https://dc.lft.to/lastmile_qr_scan"}, "fusion_lon": 0.0, "is_reserved": 0, "is_disabled": 0, "fusion_lat": 0.0, "type": "electric_scooter", "name": "775aa3a49f77dfead51db32a7145b77c", "lat": 38.88515866666667, "bike_id": "775aa3a49f77dfead51db32a7145b77c"}, {"lon": -77.03522466666666, "rental_uris": {"android": "https://dc.lft.to/lastmile_qr_scan", "ios": "https://dc.lft.to/lastmile_qr_scan"}, "fusion_lon": 0.0, "is_reserved": 0, "is_disabled": 0, "fusion_lat": 0.0, "type": "electric_scooter", "name": "0c142fd44e73c7b8e19669e71d7100ce", "lat": 38.918671333333336, "bike_id": "0c142fd44e73c7b8e19669e71d7100ce"}, {"lon": -76.9957195, "rental_uris": {"android": "https://dc.lft.to/lastmile_qr_scan", "ios": "https://dc.lft.to/lastmile_qr_scan"}, "fusion_lon": 0.0, "is_reserved": 0, "is_disabled": 0, "fusion_lat": 0.0, "type": "electric_scooter", "name": "774c98087684abbc72b4c85d7bd00e31", "lat": 38.862725833333336, "bike_id": "774c98087684abbc72b4c85d7bd00e31"}, {"lon": -77.07276416666667, "rental_uris": {"android": "https://dc.lft.to/lastmile_qr_scan", "ios": "https://dc.lft.to/lastmile_qr_scan"}, "fusion_lon": 0.0, "is_reserved": 0, "is_disabled": 0, "fusion_lat": 0.0, "type": "electric_scooter", "name": "cf61c15d87ff316f0c88ff3c4baece4d", "lat": 38.93471783333333, "bike_id": "cf61c15d87ff316f0c88ff3c4baece4d"}, {"lon": -77.08965433333333, "rental_uris": {"android": "https://dc.lft.to/lastmile_qr_scan", "ios": "https://dc.lft.to/lastmile_qr_scan"}, "fusion_lon": 0.0, "is_reserved": 0, "is_disabled": 0, "fusion_lat": 0.0, "type": "electric_scooter", "name": "216c196f5672e4f6c62d5011d0de5585", "lat": 38.937072, "bike_id": "216c196f5672e4f6c62d5011d0de5585"}, {"lon": -77.07668983333333, "rental_uris": {"android": "https://dc.lft.to/lastmile_qr_scan", "ios": "https://dc.lft.to/lastmile_qr_scan"}, "fusion_lon": 0.0, "is_reserved": 0, "is_disabled": 0, "fusion_lat": 0.0, "type": "electric_bike", "name": "68456ca870ae1bd37d990c6639a9942d", "lat": 38.86499116666667, "bike_id": "68456ca870ae1bd37d990c6639a9942d"}, {"lon": -77.01890183333333, "rental_uris": {"android": "https://dc.lft.to/lastmile_qr_scan", "ios": "https://dc.lft.to/lastmile_qr_scan"}, "fusion_lon": 0.0, "is_reserved": 0, "is_disabled": 0, "fusion_lat": 0.0, "type": "electric_scooter", "name": "b4330f20e09e21da4d017fc5d9e43950", "lat": 38.923327, "bike_id": "b4330f20e09e21da4d017fc5d9e43950"}, {"lon": -77.01977333333333, "rental_uris": {"android": "https://dc.lft.to/lastmile_qr_scan", "ios": "https://dc.lft.to/lastmile_qr_scan"}, "fusion_lon": 0.0, "is_reserved": 0, "is_disabled": 0, "fusion_lat": 0.0, "type": "electric_scooter", "name": "12ccc7f97ba98bf579afd6fc2279d511", "lat": 38.89311883333333, "bike_id": "12ccc7f97ba98bf579afd6fc2279d511"}, {"lon": -77.02299383333333, "rental_uris": {"android": "https://dc.lft.to/lastmile_qr_scan", "ios": "https://dc.lft.to/lastmile_qr_scan"}, "fusion_lon": 0.0, "is_reserved": 0, "is_disabled": 0, "fusion_lat": 0.0, "type": "electric_scooter", "name": "020da3d2af98da475c989ce8d3d96094", "lat": 38.92771416666667, "bike_id": "020da3d2af98da475c989ce8d3d96094"}, {"lon": -77.04867516666667, "rental_uris": {"android": "https://dc.lft.to/lastmile_qr_scan", "ios": "https://dc.lft.to/lastmile_qr_scan"}, "fusion_lon": 0.0, "is_reserved": 0, "is_disabled": 0, "fusion_lat": 0.0, "type": "electric_scooter", "name": "21d40a76558bab5520efe72303b7b6f8", "lat": 38.89222316666667, "bike_id": "21d40a76558bab5520efe72303b7b6f8"}, {"lon": -77.031744, "rental_uris": {"android": "https://dc.lft.to/lastmile_qr_scan", "ios": "https://dc.lft.to/lastmile_qr_scan"}, "fusion_lon": 0.0, "is_reserved": 0, "is_disabled": 0, "fusion_lat": 0.0, "type": "electric_scooter", "name": "9739636359edd4823a7dcd20470ba8e4", "lat": 38.93599716666667, "bike_id": "9739636359edd4823a7dcd20470ba8e4"}, {"lon": -77.00706866666667, "rental_uris": {"android": "https://dc.lft.to/lastmile_qr_scan", "ios": "https://dc.lft.to/lastmile_qr_scan"}, "fusion_lon": 0.0, "is_reserved": 0, "is_disabled": 0, "fusion_lat": 0.0, "type": "electric_scooter", "name": "ca185dfe87bbd8cf839e8c5e1a3a9ba1", "lat": 38.88489716666667, "bike_id": "ca185dfe87bbd8cf839e8c5e1a3a9ba1"}, {"lon": -77.03091316666666, "rental_uris": {"android": "https://dc.lft.to/lastmile_qr_scan", "ios": "https://dc.lft.to/lastmile_qr_scan"}, "fusion_lon": 0.0, "is_reserved": 0, "is_disabled": 0, "fusion_lat": 0.0, "type": "electric_scooter", "name": "3dbab58315cd4ef5517bee4737912986", "lat": 38.92382833333333, "bike_id": "3dbab58315cd4ef5517bee4737912986"}, {"lon": -77.0507775, "rental_uris": {"android": "https://dc.lft.to/lastmile_qr_scan", "ios": "https://dc.lft.to/lastmile_qr_scan"}, "fusion_lon": 0.0, "is_reserved": 0, "is_disabled": 0, "fusion_lat": 0.0, "type": "electric_scooter", "name": "acc151132877e3047b95628d7dba078a", "lat": 38.89962116666667, "bike_id": "acc151132877e3047b95628d7dba078a"}, {"lon": -77.03475116666667, "rental_uris": {"android": "https://dc.lft.to/lastmile_qr_scan", "ios": "https://dc.lft.to/lastmile_qr_scan"}, "fusion_lon": 0.0, "is_reserved": 0, "is_disabled": 0, "fusion_lat": 0.0, "type": "electric_scooter", "name": "f84d4597261300489f010ad9bb77aab7", "lat": 38.884902333333336, "bike_id": "f84d4597261300489f010ad9bb77aab7"}, {"lon": -77.03428516666666, "rental_uris": {"android": "https://dc.lft.to/lastmile_qr_scan", "ios": "https://dc.lft.to/lastmile_qr_scan"}, "fusion_lon": 0.0, "is_reserved": 0, "is_disabled": 0, "fusion_lat": 0.0, "type": "electric_bike", "name": "36db87d65b759c5271a8c31fa8980f08", "lat": 38.966201, "bike_id": "36db87d65b759c5271a8c31fa8980f08"}, {"lon": -77.02948966666666, "rental_uris": {"android": "https://dc.lft.to/lastmile_qr_scan", "ios": "https://dc.lft.to/lastmile_qr_scan"}, "fusion_lon": 0.0, "is_reserved": 0, "is_disabled": 0, "fusion_lat": 0.0, "type": "electric_scooter", "name": "3a7a56e7d6fd789d84b01ed53403cfce", "lat": 38.916849, "bike_id": "3a7a56e7d6fd789d84b01ed53403cfce"}, {"lon": -77.01197166666667, "rental_uris": {"android": "https://dc.lft.to/lastmile_qr_scan", "ios": "https://dc.lft.to/lastmile_qr_scan"}, "fusion_lon": 0.0, "is_reserved": 0, "is_disabled": 0, "fusion_lat": 0.0, "type": "electric_scooter", "name": "c1f938cf64d636c4106db1b34649c8e0", "lat": 38.897897666666665, "bike_id": "c1f938cf64d636c4106db1b34649c8e0"}, {"lon": -76.96148733333334, "rental_uris": {"android": "https://dc.lft.to/lastmile_qr_scan", "ios": "https://dc.lft.to/lastmile_qr_scan"}, "fusion_lon": 0.0, "is_reserved": 0, "is_disabled": 0, "fusion_lat": 0.0, "type": "electric_bike", "name": "83d986b9e828458c5588dd4d84168c32", "lat": 38.856184166666665, "bike_id": "83d986b9e828458c5588dd4d84168c32"}, {"lon": -77.04748133333334, "rental_uris": {"android": "https://dc.lft.to/lastmile_qr_scan", "ios": "https://dc.lft.to/lastmile_qr_scan"}, "fusion_lon": 0.0, "is_reserved": 0, "is_disabled": 0, "fusion_lat": 0.0, "type": "electric_scooter", "name": "e7c8094e0df0699d0f817d83845f936b", "lat": 38.902037, "bike_id": "e7c8094e0df0699d0f817d83845f936b"}, {"lon": -77.05221383333334, "rental_uris": {"android": "https://dc.lft.to/lastmile_qr_scan", "ios": "https://dc.lft.to/lastmile_qr_scan"}, "fusion_lon": 0.0, "is_reserved": 0, "is_disabled": 0, "fusion_lat": 0.0, "type": "electric_scooter", "name": "36424aeaafb9e4d9d7ecdbf2c0d6f454", "lat": 38.92472583333333, "bike_id": "36424aeaafb9e4d9d7ecdbf2c0d6f454"}, {"lon": -77.04523816666666, "rental_uris": {"android": "https://dc.lft.to/lastmile_qr_scan", "ios": "https://dc.lft.to/lastmile_qr_scan"}, "fusion_lon": 0.0, "is_reserved": 0, "is_disabled": 0, "fusion_lat": 0.0, "type": "electric_scooter", "name": "7f8bb15129733f9591ee1eaf10dbefaa", "lat": 38.9038385, "bike_id": "7f8bb15129733f9591ee1eaf10dbefaa"}, {"lon": -77.05168866666666, "rental_uris": {"android": "https://dc.lft.to/lastmile_qr_scan", "ios": "https://dc.lft.to/lastmile_qr_scan"}, "fusion_lon": 0.0, "is_reserved": 0, "is_disabled": 0, "fusion_lat": 0.0, "type": "electric_scooter", "name": "2032ee0121b1bb5275dda17eeb1f0ff3", "lat": 38.92344516666667, "bike_id": "2032ee0121b1bb5275dda17eeb1f0ff3"}, {"lon": -77.08239166666667, "rental_uris": {"android": "https://dc.lft.to/lastmile_qr_scan", "ios": "https://dc.lft.to/lastmile_qr_scan"}, "fusion_lon": 0.0, "is_reserved": 0, "is_disabled": 0, "fusion_lat": 0.0, "type": "electric_bike", "name": "2daabba16a4114eab376a3757b9e8310", "lat": 38.9354655, "bike_id": "2daabba16a4114eab376a3757b9e8310"}, {"lon": -76.97637783333333, "rental_uris": {"android": "https://dc.lft.to/lastmile_qr_scan", "ios": "https://dc.lft.to/lastmile_qr_scan"}, "fusion_lon": 0.0, "is_reserved": 0, "is_disabled": 0, "fusion_lat": 0.0, "type": "electric_scooter", "name": "4c6dbb19bbfc27f7c6b612ef1681dd47", "lat": 38.8868705, "bike_id": "4c6dbb19bbfc27f7c6b612ef1681dd47"}, {"lon": -77.02569283333334, "rental_uris": {"android": "https://dc.lft.to/lastmile_qr_scan", "ios": "https://dc.lft.to/lastmile_qr_scan"}, "fusion_lon": 0.0, "is_reserved": 0, "is_disabled": 0, "fusion_lat": 0.0, "type": "electric_bike", "name": "88f6d91c106d59557fcfd9bec6d01cfb", "lat": 38.897385, "bike_id": "88f6d91c106d59557fcfd9bec6d01cfb"}, {"lon": -77.04653933333333, "rental_uris": {"android": "https://dc.lft.to/lastmile_qr_scan", "ios": "https://dc.lft.to/lastmile_qr_scan"}, "fusion_lon": 0.0, "is_reserved": 0, "is_disabled": 0, "fusion_lat": 0.0, "type": "electric_scooter", "name": "ea06254b3c7826c26fc984f4399e2c3c", "lat": 38.90705833333333, "bike_id": "ea06254b3c7826c26fc984f4399e2c3c"}, {"lon": -76.94194516666667, "rental_uris": {"android": "https://dc.lft.to/lastmile_qr_scan", "ios": "https://dc.lft.to/lastmile_qr_scan"}, "fusion_lon": 0.0, "is_reserved": 0, "is_disabled": 0, "fusion_lat": 0.0, "type": "electric_scooter", "name": "f95a2a1f66293fb58b5e4de465a77455", "lat": 38.8842095, "bike_id": "f95a2a1f66293fb58b5e4de465a77455"}, {"lon": -77.00195716666667, "rental_uris": {"android": "https://dc.lft.to/lastmile_qr_scan", "ios": "https://dc.lft.to/lastmile_qr_scan"}, "fusion_lon": 0.0, "is_reserved": 0, "is_disabled": 0, "fusion_lat": 0.0, "type": "electric_scooter", "name": "2f9fbed794517e818be0295241b0d7bc", "lat": 38.902351833333334, "bike_id": "2f9fbed794517e818be0295241b0d7bc"}, {"lon": -77.08752933333334, "rental_uris": {"android": "https://dc.lft.to/lastmile_qr_scan", "ios": "https://dc.lft.to/lastmile_qr_scan"}, "fusion_lon": 0.0, "is_reserved": 0, "is_disabled": 0, "fusion_lat": 0.0, "type": "electric_scooter", "name": "caf109ec142f1cb1c7255e8eb44f96fd", "lat": 38.935545833333336, "bike_id": "caf109ec142f1cb1c7255e8eb44f96fd"}, {"lon": -77.05336966666667, "rental_uris": {"android": "https://dc.lft.to/lastmile_qr_scan", "ios": "https://dc.lft.to/lastmile_qr_scan"}, "fusion_lon": 0.0, "is_reserved": 0, "is_disabled": 0, "fusion_lat": 0.0, "type": "electric_scooter", "name": "0f63bf1e2a4fd851e1782f5d01dbaec9", "lat": 38.898792, "bike_id": "0f63bf1e2a4fd851e1782f5d01dbaec9"}, {"lon": -77.04480116666667, "rental_uris": {"android": "https://dc.lft.to/lastmile_qr_scan", "ios": "https://dc.lft.to/lastmile_qr_scan"}, "fusion_lon": 0.0, "is_reserved": 0, "is_disabled": 0, "fusion_lat": 0.0, "type": "electric_scooter", "name": "597fb642cad60dc3f3f9bf93e5614ffa", "lat": 38.8994585, "bike_id": "597fb642cad60dc3f3f9bf93e5614ffa"}, {"lon": -77.0245925, "rental_uris": {"android": "https://dc.lft.to/lastmile_qr_scan", "ios": "https://dc.lft.to/lastmile_qr_scan"}, "fusion_lon": 0.0, "is_reserved": 0, "is_disabled": 0, "fusion_lat": 0.0, "type": "electric_scooter", "name": "da780aa08a162612f1efbfd639831a5f", "lat": 38.916591833333335, "bike_id": "da780aa08a162612f1efbfd639831a5f"}, {"lon": -76.9961205, "rental_uris": {"android": "https://dc.lft.to/lastmile_qr_scan", "ios": "https://dc.lft.to/lastmile_qr_scan"}, "fusion_lon": 0.0, "is_reserved": 0, "is_disabled": 0, "fusion_lat": 0.0, "type": "electric_scooter", "name": "3e8163d19d7285a5eb606b318bc1ba18", "lat": 38.92063016666667, "bike_id": "3e8163d19d7285a5eb606b318bc1ba18"}, {"lon": -77.03204716666667, "rental_uris": {"android": "https://dc.lft.to/lastmile_qr_scan", "ios": "https://dc.lft.to/lastmile_qr_scan"}, "fusion_lon": 0.0, "is_reserved": 0, "is_disabled": 0, "fusion_lat": 0.0, "type": "electric_scooter", "name": "9f91f75e9dd9e3e0f2442fff0fa0f41a", "lat": 38.90033566666666, "bike_id": "9f91f75e9dd9e3e0f2442fff0fa0f41a"}, {"lon": -77.07656016666667, "rental_uris": {"android": "https://dc.lft.to/lastmile_qr_scan", "ios": "https://dc.lft.to/lastmile_qr_scan"}, "fusion_lon": 0.0, "is_reserved": 0, "is_disabled": 0, "fusion_lat": 0.0, "type": "electric_bike", "name": "e801a7c7f61402b73709118d88d94b4d", "lat": 38.809755333333335, "bike_id": "e801a7c7f61402b73709118d88d94b4d"}, {"lon": -77.039953, "rental_uris": {"android": "https://dc.lft.to/lastmile_qr_scan", "ios": "https://dc.lft.to/lastmile_qr_scan"}, "fusion_lon": 0.0, "is_reserved": 0, "is_disabled": 0, "fusion_lat": 0.0, "type": "electric_scooter", "name": "eb75b17cbf9b1d1e20c8a506d901aed3", "lat": 38.92458716666667, "bike_id": "eb75b17cbf9b1d1e20c8a506d901aed3"}, {"lon": -76.98220933333333, "rental_uris": {"android": "https://dc.lft.to/lastmile_qr_scan", "ios": "https://dc.lft.to/lastmile_qr_scan"}, "fusion_lon": 0.0, "is_reserved": 0, "is_disabled": 0, "fusion_lat": 0.0, "type": "electric_scooter", "name": "95d396ad53d31298736694df929057ec", "lat": 38.89552716666667, "bike_id": "95d396ad53d31298736694df929057ec"}, {"lon": -77.06165966666667, "rental_uris": {"android": "https://dc.lft.to/lastmile_qr_scan", "ios": "https://dc.lft.to/lastmile_qr_scan"}, "fusion_lon": 0.0, "is_reserved": 0, "is_disabled": 0, "fusion_lat": 0.0, "type": "electric_scooter", "name": "6265e1862fec5048583615ec117e508f", "lat": 38.943091833333334, "bike_id": "6265e1862fec5048583615ec117e508f"}, {"lon": -77.03209016666666, "rental_uris": {"android": "https://dc.lft.to/lastmile_qr_scan", "ios": "https://dc.lft.to/lastmile_qr_scan"}, "fusion_lon": 0.0, "is_reserved": 0, "is_disabled": 0, "fusion_lat": 0.0, "type": "electric_scooter", "name": "d3438eda06874e3709fa796b63c435ea", "lat": 38.91926983333333, "bike_id": "d3438eda06874e3709fa796b63c435ea"}, {"lon": -77.04355883333334, "rental_uris": {"android": "https://dc.lft.to/lastmile_qr_scan", "ios": "https://dc.lft.to/lastmile_qr_scan"}, "fusion_lon": 0.0, "is_reserved": 0, "is_disabled": 0, "fusion_lat": 0.0, "type": "electric_scooter", "name": "f305a6711308793f6b26d2c0a302452d", "lat": 38.90371183333333, "bike_id": "f305a6711308793f6b26d2c0a302452d"}, {"lon": -77.02570833333333, "rental_uris": {"android": "https://dc.lft.to/lastmile_qr_scan", "ios": "https://dc.lft.to/lastmile_qr_scan"}, "fusion_lon": 0.0, "is_reserved": 0, "is_disabled": 0, "fusion_lat": 0.0, "type": "electric_scooter", "name": "2605b0e3d951871e59b906d818c04381", "lat": 38.92046366666667, "bike_id": "2605b0e3d951871e59b906d818c04381"}, {"lon": -77.02960833333333, "rental_uris": {"android": "https://dc.lft.to/lastmile_qr_scan", "ios": "https://dc.lft.to/lastmile_qr_scan"}, "fusion_lon": 0.0, "is_reserved": 0, "is_disabled": 0, "fusion_lat": 0.0, "type": "electric_scooter", "name": "24adbd7f95b8959ff869a5424e353e8e", "lat": 38.8994385, "bike_id": "24adbd7f95b8959ff869a5424e353e8e"}, {"lon": -77.04337666666666, "rental_uris": {"android": "https://dc.lft.to/lastmile_qr_scan", "ios": "https://dc.lft.to/lastmile_qr_scan"}, "fusion_lon": 0.0, "is_reserved": 0, "is_disabled": 0, "fusion_lat": 0.0, "type": "electric_scooter", "name": "2ddc4deab070813aa0376d7ee5524bf4", "lat": 38.903695, "bike_id": "2ddc4deab070813aa0376d7ee5524bf4"}, {"lon": -77.01951866666667, "rental_uris": {"android": "https://dc.lft.to/lastmile_qr_scan", "ios": "https://dc.lft.to/lastmile_qr_scan"}, "fusion_lon": 0.0, "is_reserved": 0, "is_disabled": 0, "fusion_lat": 0.0, "type": "electric_scooter", "name": "30095a03ecf516f9c0c8037c32bb7f4b", "lat": 38.92327183333333, "bike_id": "30095a03ecf516f9c0c8037c32bb7f4b"}, {"lon": -76.97224166666666, "rental_uris": {"android": "https://dc.lft.to/lastmile_qr_scan", "ios": "https://dc.lft.to/lastmile_qr_scan"}, "fusion_lon": 0.0, "is_reserved": 0, "is_disabled": 0, "fusion_lat": 0.0, "type": "electric_bike", "name": "01c588e36602d955394f1d54ca6518b9", "lat": 38.90036766666667, "bike_id": "01c588e36602d955394f1d54ca6518b9"}, {"lon": -77.0252405, "rental_uris": {"android": "https://dc.lft.to/lastmile_qr_scan", "ios": "https://dc.lft.to/lastmile_qr_scan"}, "fusion_lon": 0.0, "is_reserved": 0, "is_disabled": 0, "fusion_lat": 0.0, "type": "electric_scooter", "name": "7ba7bc2c505003963b7f2d2bb09ac56f", "lat": 38.921025666666665, "bike_id": "7ba7bc2c505003963b7f2d2bb09ac56f"}, {"lon": -77.06372816666666, "rental_uris": {"android": "https://dc.lft.to/lastmile_qr_scan", "ios": "https://dc.lft.to/lastmile_qr_scan"}, "fusion_lon": 0.0, "is_reserved": 0, "is_disabled": 0, "fusion_lat": 0.0, "type": "electric_scooter", "name": "9ba63705a16848f866086b6dd29cb57b", "lat": 38.906011, "bike_id": "9ba63705a16848f866086b6dd29cb57b"},