{"data": {"bikes": [{"is_reserved": 0, "type": "electric_scooter", "bike_id": "d822213ba402d522d39cfb5be402e028", "lat": 38.929662666666665, "lon": -77.03255433333334, "rental_uris": {"android": "https://dc.lft.to/lastmile_qr_scan", "ios": "https://dc.lft.to/lastmile_qr_scan"}, "is_disabled": 0, "fusion_lat": 0.0, "name": "d822213ba402d522d39cfb5be402e028", "fusion_lon": 0.0}, {"is_reserved": 0, "type": "electric_scooter", "bike_id": "55059f3d4e83ff7e50f7baf76c591e76", "lat": 38.92519683333333, "lon": -77.05056433333333, "rental_uris": {"android": "https://dc.lft.to/lastmile_qr_scan", "ios": "https://dc.lft.to/lastmile_qr_scan"}, "is_disabled": 0, "fusion_lat": 0.0, "name": "55059f3d4e83ff7e50f7baf76c591e76", "fusion_lon": 0.0}, {"is_reserved": 0, "type": "electric_bike", "bike_id": "9407e527d3a5553230939dd521fffb2a", "lat": 38.8633145, "lon": -76.9872205, "rental_uris": {"android": "https://dc.lft.to/lastmile_qr_scan", "ios": "https://dc.lft.to/lastmile_qr_scan"}, "is_disabled": 0, "fusion_lat": 0.0, "name": "9407e527d3a5553230939dd521fffb2a", "fusion_lon": 0.0}, {"is_reserved": 0, "type": "electric_bike", "bike_id": "46924195e4600d756532d2864fba0771", "lat": 38.870032333333334, "lon": -77.2299295, "rental_uris": {"android": "https://dc.lft.to/lastmile_qr_scan", "ios": "https://dc.lft.to/lastmile_qr_scan"}, "is_disabled": 0, "fusion_lat": 0.0, "name": "46924195e4600d756532d2864fba0771", "fusion_lon": 0.0}, {"is_reserved": 0, "type": "electric_bike", "bike_id": "00fc2eb4bd15ddb2dde16a6e92007442", "lat": 38.85415783333333, "lon": -77.08364816666666, "rental_uris": {"android": "https://dc.lft.to/lastmile_qr_scan", "ios": "https://dc.lft.to/lastmile_qr_scan"}, "is_disabled": 0, "fusion_lat": 0.0, "name": "00fc2eb4bd15ddb2dde16a6e92007442", "fusion_lon": 0.0}, {"is_reserved": 0, "type": "electric_scooter", "bike_id": "fb3c297e252a5f1b27697aceadb24a63", "lat": 38.910998166666666, "lon": -77.043491, "rental_uris": {"android": "https://dc.lft.to/lastmile_qr_scan", "ios": "https://dc.lft.to/lastmile_qr_scan"}, "is_disabled": 0, "fusion_lat": 0.0, "name": "fb3c297e252a5f1b27697aceadb24a63", "fusion_lon": 0.0}, {"is_reserved": 0, "type": "electric_scooter", "bike_id": "7b2495ec0e49c0e45c843faf219253ff", "lat": 38.90168466666667, "lon": -76.9808625, "rental_uris": {"android": "https://dc.lft.to/lastmile_qr_scan", "ios": "https://dc.lft.to/lastmile_qr_scan"}, "is_disabled": 0, "fusion_lat": 0.0, "name": "7b2495ec0e49c0e45c843faf219253ff", "fusion_lon": 0.0}, {"is_reserved": 0, "type": "electric_scooter", "bike_id": "a36969ab6fc352682affec5b2016fb99", "lat": 38.9024975, "lon": -77.02799933333333, "rental_uris": {"android": "https://dc.lft.to/lastmile_qr_scan", "ios": "https://dc.lft.to/lastmile_qr_scan"}, "is_disabled": 0, "fusion_lat": 0.0, "name": "a36969ab6fc352682affec5b2016fb99", "fusion_lon": 0.0}, {"is_reserved": 0, "type": "electric_scooter", "bike_id": "69e6b4cf015c96f5a17dd0051e56aabd", "lat": 38.9242735, "lon": -77.02010633333333, "rental_uris": {"android": "https://dc.lft.to/lastmile_qr_scan", "ios": "https://dc.lft.to/lastmile_qr_scan"}, "is_disabled": 0, "fusion_lat": 0.0, "name": "69e6b4cf015c96f5a17dd0051e56aabd", "fusion_lon": 0.0}, {"is_reserved": 0, "type": "electric_scooter", "bike_id": "a6179b7f444b61ffc0a2567b8811d8a1", "lat": 38.905371833333334, "lon": -77.05993716666667, "rental_uris": {"android": "https://dc.lft.to/lastmile_qr_scan", "ios": "https://dc.lft.to/lastmile_qr_scan"}, "is_disabled": 0, "fusion_lat": 0.0, "name": "a6179b7f444b61ffc0a2567b8811d8a1", "fusion_lon": 0.0}, {"is_reserved": 0, "type": "electric_scooter", "bike_id": "9e444806af73c4abfa30d256bc1eedcb", "lat": 38.8784985, "lon": -76.99554266666667, "rental_uris": {"android": "https://dc.lft.to/lastmile_qr_scan", "ios": "https://dc.lft.to/lastmile_qr_scan"}, "is_disabled": 0, "fusion_lat": 0.0, "name": "9e444806af73c4abfa30d256bc1eedcb", "fusion_lon": 0.0}, {"is_reserved": 0, "type": "electric_scooter", "bike_id": "a48f682772c104834fdb86640ca66b4a", "lat": 38.897133, "lon": -77.0079545, "rental_uris": {"android": "https://dc.lft.to/lastmile_qr_scan", "ios": "https://dc.lft.to/lastmile_qr_scan"}, "is_disabled": 0, "fusion_lat": 0.0, "name": "a48f682772c104834fdb86640ca66b4a", "fusion_lon": 0.0}, {"is_reserved": 0, "type": "electric_scooter", "bike_id": "df0a6b934fcd3b7d7b74d7c0589cbabc", "lat": 38.89998933333333, "lon": -77.04032133333334, "rental_uris": {"android": "https://dc.lft.to/lastmile_qr_scan", "ios": "https://dc.lft.to/lastmile_qr_scan"}, "is_disabled": 0, "fusion_lat": 0.0, "name": "df0a6b934fcd3b7d7b74d7c0589cbabc", "fusion_lon": 0.0}, {"is_reserved": 0, "type": "electric_scooter", "bike_id": "43c7866b3a3897504ba4fabdb4fd1192", "lat": 38.922702, "lon": -77.04015916666667, "rental_uris": {"android": "https://dc.lft.to/lastmile_qr_scan", "ios": "https://dc.lft.to/lastmile_qr_scan"}, "is_disabled": 0, "fusion_lat": 0.0, "name": "43c7866b3a3897504ba4fabdb4fd1192", "fusion_lon": 0.0}, {"is_reserved": 0, "type": "electric_scooter", "bike_id": "5ebf62d1979592d367841ef101551b13", "lat": 38.92145333333333, "lon": -77.043592, "rental_uris": {"android": "https://dc.lft.to/lastmile_qr_scan", "ios": "https://dc.lft.to/lastmile_qr_scan"}, "is_disabled": 0, "fusion_lat": 0.0, "name": "5ebf62d1979592d367841ef101551b13", "fusion_lon": 0.0}, {"is_reserved": 0, "type": "electric_scooter", "bike_id": "36f14421a65455a9078e33e6a20ca5c8", "lat": 38.903505833333334, "lon": -77.03588266666667, "rental_uris": {"android": "https://dc.lft.to/lastmile_qr_scan", "ios": "https://dc.lft.to/lastmile_qr_scan"}, "is_disabled": 0, "fusion_lat": 0.0, "name": "36f14421a65455a9078e33e6a20ca5c8", "fusion_lon": 0.0}, {"is_reserved": 0, "type": "electric_scooter", "bike_id": "90ea909a31fa8ccaae89ac8939ceb027", "lat": 38.89607133333333, "lon": -77.04503716666666, "rental_uris": {"android": "https://dc.lft.to/lastmile_qr_scan", "ios": "https://dc.lft.to/lastmile_qr_scan"}, "is_disabled": 0, "fusion_lat": 0.0, "name": "90ea909a31fa8ccaae89ac8939ceb027", "fusion_lon": 0.0}, {"is_reserved": 0, "type": "electric_scooter", "bike_id": "90fa70e09082c7907e79c28861f295ac", "lat": 38.94439966666667, "lon": -77.029145, "rental_uris": {"android": "https://dc.lft.to/lastmile_qr_scan", "ios": "https://dc.lft.to/lastmile_qr_scan"}, "is_disabled": 0, "fusion_lat": 0.0, "name": "90fa70e09082c7907e79c28861f295ac", "fusion_lon": 0.0}, {"is_reserved": 0, "type": "electric_scooter", "bike_id": "924afc1d47d68a590dbb4f0bc20b8375", "lat": 38.90041133333333, "lon": -76.9828465, "rental_uris": {"android": "https://dc.lft.to/lastmile_qr_scan", "ios": "https://dc.lft.to/lastmile_qr_scan"}, "is_disabled": 0, "fusion_lat": 0.0, "name": "924afc1d47d68a590dbb4f0bc20b8375", "fusion_lon": 0.0}, {"is_reserved": 0, "type": "electric_scooter", "bike_id": "0180279285bc45e8ea76196ee7559b21", "lat": 38.90538933333333, "lon": -77.0476045, "rental_uris": {"android": "https://dc.lft.to/lastmile_qr_scan", "ios": "https://dc.lft.to/lastmile_qr_scan"}, "is_disabled": 0, "fusion_lat": 0.0, "name": "0180279285bc45e8ea76196ee7559b21", "fusion_lon": 0.0}, {"is_reserved": 0, "type": "electric_scooter", "bike_id": "c0de854685b1384eef49e1015930cdfe", "lat": 38.903429, "lon": -77.0258825, "rental_uris": {"android": "https://dc.lft.to/lastmile_qr_scan", "ios": "https://dc.lft.to/lastmile_qr_scan"}, "is_disabled": 0, "fusion_lat": 0.0, "name": "c0de854685b1384eef49e1015930cdfe", "fusion_lon": 0.0}, {"is_reserved": 0, "type": "electric_scooter", "bike_id": "7cb9792be947c7a7f7ee820303399d3e", "lat": 38.915560166666666, "lon": -77.0310555, "rental_uris": {"android": "https://dc.lft.to/lastmile_qr_scan", "ios": "https://dc.lft.to/lastmile_qr_scan"}, "is_disabled": 0, "fusion_lat": 0.0, "name": "7cb9792be947c7a7f7ee820303399d3e", "fusion_lon": 0.0}, {"is_reserved": 0, "type": "electric_scooter", "bike_id": "879a103701c0c6941c8269d8f855cb80", "lat": 38.89232066666667, "lon": -77.02178933333333, "rental_uris": {"android": "https://dc.lft.to/lastmile_qr_scan", "ios": "https://dc.lft.to/lastmile_qr_scan"}, "is_disabled": 0, "fusion_lat": 0.0, "name": "879a103701c0c6941c8269d8f855cb80", "fusion_lon": 0.0}, {"is_reserved": 0, "type": "electric_scooter", "bike_id": "26b104d3a2761cb4a4827d297088f1e1", "lat": 38.88634, "lon": -77.01285783333333, "rental_uris": {"android": "https://dc.lft.to/lastmile_qr_scan", "ios": "https://dc.lft.to/lastmile_qr_scan"}, "is_disabled": 0, "fusion_lat": 0.0, "name": "26b104d3a2761cb4a4827d297088f1e1", "fusion_lon": 0.0}, {"is_reserved": 0, "type": "electric_scooter", "bike_id": "01a7805443b6570d2bbbcc18e5f719bd", "lat": 38.92569966666667, "lon": -77.07855866666667, "rental_uris": {"android": "https://dc.lft.to/lastmile_qr_scan", "ios": "https://dc.lft.to/lastmile_qr_scan"}, "is_disabled": 0, "fusion_lat": 0.0, "name": "01a7805443b6570d2bbbcc18e5f719bd", "fusion_lon": 0.0}, {"is_reserved": 0, "type": "electric_scooter", "bike_id": "e71de57904e4e5ddd1962378d8f725a1", "lat": 38.92929316666667, "lon": -77.020082, "rental_uris": {"android": "https://dc.lft.to/lastmile_qr_scan", "ios": "https://dc.lft.to/lastmile_qr_scan"}, "is_disabled": 0, "fusion_lat": 0.0, "name": "e71de57904e4e5ddd1962378d8f725a1", "fusion_lon": 0.0}, {"is_reserved": 0, "type": "electric_scooter", "bike_id": "ac30b7f8da5dde36d5db224f8f83f1fa", "lat": 38.91663966666667, "lon": -77.03700183333333, "rental_uris": {"android": "https://dc.lft.to/lastmile_qr_scan", "ios": "https://dc.lft.to/lastmile_qr_scan"}, "is_disabled": 0, "fusion_lat": 0.0, "name": "ac30b7f8da5dde36d5db224f8f83f1fa", "fusion_lon": 0.0}, {"is_reserved": 0, "type": "electric_bike", "bike_id": "1738caa6edad558e3c3a1d72022e734f", "lat": 38.886212, "lon": -77.08432283333333, "rental_uris": {"android": "https://dc.lft.to/lastmile_qr_scan", "ios": "https://dc.lft.to/lastmile_qr_scan"}, "is_disabled": 0, "fusion_lat": 0.0, "name": "1738caa6edad558e3c3a1d72022e734f", "fusion_lon": 0.0}, {"is_reserved": 0, "type": "electric_scooter", "bike_id": "a5b36f016405d3b9cad352fb1037e63d", "lat": 38.933963, "lon": -77.0283815, "rental_uris": {"android": "https://dc.lft.to/lastmile_qr_scan", "ios": "https://dc.lft.to/lastmile_qr_scan"}, "is_disabled": 0, "fusion_lat": 0.0, "name": "a5b36f016405d3b9cad352fb1037e63d", "fusion_lon": 0.0}, {"is_reserved": 0, "type": "electric_scooter", "bike_id": "20174386b312f5124e6beab1c9518d3c", "lat": 38.887372166666665, "lon": -77.02392366666666, "rental_uris": {"android": "https://dc.lft.to/lastmile_qr_scan", "ios": "https://dc.lft.to/lastmile_qr_scan"}, "is_disabled": 0, "fusion_lat": 0.0, "name": "20174386b312f5124e6beab1c9518d3c", "fusion_lon": 0.0}, {"is_reserved": 0, "type": "electric_scooter", "bike_id": "8e0827ba60296d4e76901eafb91c5dca", "lat": 38.924229, "lon": -77.02007366666666, "rental_uris": {"android": "https://dc.lft.to/lastmile_qr_scan", "ios": "https://dc.lft.to/lastmile_qr_scan"}, "is_disabled": 0, "fusion_lat": 0.0, "name": "8e0827ba60296d4e76901eafb91c5dca", "fusion_lon": 0.0}, {"is_reserved": 0, "type": "electric_scooter", "bike_id": "8ec0c136c7d8b86d4c04a3c525fa9e8a", "lat": 38.898911, "lon": -76.99355533333333, "rental_uris": {"android": "https://dc.lft.to/lastmile_qr_scan", "ios": "https://dc.lft.to/lastmile_qr_scan"}, "is_disabled": 0, "fusion_lat": 0.0, "name": "8ec0c136c7d8b86d4c04a3c525fa9e8a", "fusion_lon": 0.0}, {"is_reserved": 0, "type": "electric_bike", "bike_id": "db334c5f8da675bc118a9db4c6b4a8d4", "lat": 38.877332833333334, "lon": -77.11845633333333, "rental_uris": {"android": "https://dc.lft.to/lastmile_qr_scan", "ios": "https://dc.lft.to/lastmile_qr_scan"}, "is_disabled": 0, "fusion_lat": 0.0, "name": "db334c5f8da675bc118a9db4c6b4a8d4", "fusion_lon": 0.0}, {"is_reserved": 0, "type": "electric_scooter", "bike_id": "9e627dae532dd7a7223122e2ecdb998d", "lat": 38.91769883333333, "lon": -77.01489183333334, "rental_uris": {"android": "https://dc.lft.to/lastmile_qr_scan", "ios": "https://dc.lft.to/lastmile_qr_scan"}, "is_disabled": 0, "fusion_lat": 0.0, "name": "9e627dae532dd7a7223122e2ecdb998d", "fusion_lon": 0.0}, {"is_reserved": 0, "type": "electric_scooter", "bike_id": "eec22254e0cf4dcbd0ea4ab515ef0638", "lat": 38.92192083333333, "lon": -77.04238933333333, "rental_uris": {"android": "https://dc.lft.to/lastmile_qr_scan", "ios": "https://dc.lft.to/lastmile_qr_scan"}, "is_disabled": 0, "fusion_lat": 0.0, "name": "eec22254e0cf4dcbd0ea4ab515ef0638", "fusion_lon": 0.0}, {"is_reserved": 0, "type": "electric_scooter", "bike_id": "51ff1aff5659bf165355ffd2e70c3896", "lat": 38.941824833333335, "lon": -77.02492333333333, "rental_uris": {"android": "https://dc.lft.to/lastmile_qr_scan", "ios": "https://dc.lft.to/lastmile_qr_scan"}, "is_disabled": 0, "fusion_lat": 0.0, "name": "51ff1aff5659bf165355ffd2e70c3896", "fusion_lon": 0.0}, {"is_reserved": 0, "type": "electric_scooter", "bike_id": "21bfeacd67701e323900103610eca41d", "lat": 38.9085905, "lon": -77.03990016666667, "rental_uris": {"android": "https://dc.lft.to/lastmile_qr_scan", "ios": "https://dc.lft.to/lastmile_qr_scan"}, "is_disabled": 0, "fusion_lat": 0.0, "name": "21bfeacd67701e323900103610eca41d", "fusion_lon": 0.0}, {"is_reserved": 0, "type": "electric_scooter", "bike_id": "85b16c66a64c48e618d9c49eb355aa2d", "lat": 38.93034383333333, "lon": -77.08316716666667, "rental_uris": {"android": "https://dc.lft.to/lastmile_qr_scan", "ios": "https://dc.lft.to/lastmile_qr_scan"}, "is_disabled": 0, "fusion_lat": 0.0, "name": "85b16c66a64c48e618d9c49eb355aa2d", "fusion_lon": 0.0}, {"is_reserved": 0, "type": "electric_scooter", "bike_id": "e02e478b00037f81c2892f21e2f7a66d", "lat": 38.923793833333335, "lon": -77.02737583333334, "rental_uris": {"android": "https://dc.lft.to/lastmile_qr_scan", "ios": "https://dc.lft.to/lastmile_qr_scan"}, "is_disabled": 0, "fusion_lat": 0.0, "name": "e02e478b00037f81c2892f21e2f7a66d", "fusion_lon": 0.0}, {"is_reserved": 0, "type": "electric_scooter", "bike_id": "46b1acb037291460b914946b24a5e51e", "lat": 38.898049666666665, "lon": -77.0277715, "rental_uris": {"android": "https://dc.lft.to/lastmile_qr_scan", "ios": "https://dc.lft.to/lastmile_qr_scan"}, "is_disabled": 0, "fusion_lat": 0.0, "name": "46b1acb037291460b914946b24a5e51e", "fusion_lon": 0.0}, {"is_reserved": 0, "type": "electric_scooter", "bike_id": "1cfbd447e4abfbfb6493d56877bbb34f", "lat": 38.90609933333333, "lon": -77.03295883333334, "rental_uris": {"android": "https://dc.lft.to/lastmile_qr_scan", "ios": "https://dc.lft.to/lastmile_qr_scan"}, "is_disabled": 0, "fusion_lat": 0.0, "name": "1cfbd447e4abfbfb6493d56877bbb34f", "fusion_lon": 0.0}, {"is_reserved": 0, "type": "electric_scooter", "bike_id": "5a2f01e575b1d019a40adb1c6a1db17a", "lat": 38.912556333333335, "lon": -77.02961233333333, "rental_uris": {"android": "https://dc.lft.to/lastmile_qr_scan", "ios": "https://dc.lft.to/lastmile_qr_scan"}, "is_disabled": 0, "fusion_lat": 0.0, "name": "5a2f01e575b1d019a40adb1c6a1db17a", "fusion_lon": 0.0}, {"is_reserved": 0, "type": "electric_scooter", "bike_id": "c6ea17e4c329a92ba01497e0dd446332", "lat": 38.91154483333333, "lon": -77.019839, "rental_uris": {"android": "https://dc.lft.to/lastmile_qr_scan", "ios": "https://dc.lft.to/lastmile_qr_scan"}, "is_disabled": 0, "fusion_lat": 0.0, "name": "c6ea17e4c329a92ba01497e0dd446332", "fusion_lon": 0.0}, {"is_reserved": 0, "type": "electric_scooter", "bike_id": "30927df8d93dabdc15e4107b08c35a14", "lat": 38.91412916666667, "lon": -77.04174566666667, "rental_uris": {"android": "https://dc.lft.to/lastmile_qr_scan", "ios": "https://dc.lft.to/lastmile_qr_scan"}, "is_disabled": 0, "fusion_lat": 0.0, "name": "30927df8d93dabdc15e4107b08c35a14", "fusion_lon": 0.0}, {"is_reserved": 0, "type": "electric_scooter", "bike_id": "0b698db37d03b1bbac76b63db41952ae", "lat": 38.893595, "lon": -77.01513616666666, "rental_uris": {"android": "https://dc.lft.to/lastmile_qr_scan", "ios": "https://dc.lft.to/lastmile_qr_scan"}, "is_disabled": 0, "fusion_lat": 0.0, "name": "0b698db37d03b1bbac76b63db41952ae", "fusion_lon": 0.0}, {"is_reserved": 0, "type": "electric_scooter", "bike_id": "220fe9911063d6fc1b9c80923fbd4f1f", "lat": 38.905595, "lon": -77.00613516666667, "rental_uris": {"android": "https://dc.lft.to/lastmile_qr_scan", "ios": "https://dc.lft.to/lastmile_qr_scan"}, "is_disabled": 0, "fusion_lat": 0.0, "name": "220fe9911063d6fc1b9c80923fbd4f1f", "fusion_lon": 0.0}, {"is_reserved": 0, "type": "electric_scooter", "bike_id": "38b8a3cc0452e53ccff6b48a2c2f08ed", "lat": 38.92568716666667, "lon": -77.03101166666667, "rental_uris": {"android": "https://dc.lft.to/lastmile_qr_scan", "ios": "https://dc.lft.to/lastmile_qr_scan"}, "is_disabled": 0, "fusion_lat": 0.0, "name": "38b8a3cc0452e53ccff6b48a2c2f08ed", "fusion_lon": 0.0}, {"is_reserved": 0, "type": "electric_scooter", "bike_id": "9694becc101b94192571c88f38fe4cc7", "lat": 38.90403516666667, "lon": -77.06769266666667, "rental_uris": {"android": "https://dc.lft.to/lastmile_qr_scan", "ios": "https://dc.lft.to/lastmile_qr_scan"}, "is_disabled": 0, "fusion_lat": 0.0, "name": "9694becc101b94192571c88f38fe4cc7", "fusion_lon": 0.0}, {"is_reserved": 0, "type": "electric_bike", "bike_id": "e867c8c0072d333f35112b43fe663a3b", "lat": 38.94961266666667, "lon": -76.96087183333333, "rental_uris": {"android": "https://dc.lft.to/lastmile_qr_scan", "ios": "https://dc.lft.to/lastmile_qr_scan"}, "is_disabled": 0, "fusion_lat": 0.0, "name": "e867c8c0072d333f35112b43fe663a3b", "fusion_lon": 0.0}, {"is_reserved": 0, "type": "electric_scooter", "bike_id": "374f40e4cf9cf0bbb7530ca5a441a93b", "lat": 38.916784, "lon": -77.02372233333334, "rental_uris": {"android": "https://dc.lft.to/lastmile_qr_scan", "ios": "https://dc.lft.to/lastmile_qr_scan"}, "is_disabled": 0, "fusion_lat": 0.0, "name": "374f40e4cf9cf0bbb7530ca5a441a93b", "fusion_lon": 0.0}, {"is_reserved": 0, "type": "electric_scooter", "bike_id": "2a542f1c88c12e70c4dd2796ef9be797", "lat": 38.9096485, "lon": -77.03626733333333, "rental_uris": {"android": "https://dc.lft.to/lastmile_qr_scan", "ios": "https://dc.lft.to/lastmile_qr_scan"}, "is_disabled": 0, "fusion_lat": 0.0, "name": "2a542f1c88c12e70c4dd2796ef9be797", "fusion_lon": 0.0}, {"is_reserved": 0, "type": "electric_scooter", "bike_id": "c7abeef0cfb00f376eb39f4ead197a21", "lat": 38.90677266666667, "lon": -77.06256166666667, "rental_uris": {"android": "https://dc.lft.to/lastmile_qr_scan", "ios": "https://dc.lft.to/lastmile_qr_scan"}, "is_disabled": 0, "fusion_lat": 0.0, "name": "c7abeef0cfb00f376eb39f4ead197a21", "fusion_lon": 0.0}, {"is_reserved": 0, "type": "electric_scooter", "bike_id": "684e3a8003f3b6f96c3492acf1e30510", "lat": 38.91979, "lon": -77.00911916666666, "rental_uris": {"android": "https://dc.lft.to/lastmile_qr_scan", "ios": "https://dc.lft.to/lastmile_qr_scan"}, "is_disabled": 0, "fusion_lat": 0.0, "name": "684e3a8003f3b6f96c3492acf1e30510", "fusion_lon": 0.0}, {"is_reserved": 0, "type": "electric_scooter", "bike_id": "54d2ddcb152b4ba6dffc85a208325362", "lat": 38.916002166666665, "lon": -77.012255, "rental_uris": {"android": "https://dc.lft.to/lastmile_qr_scan", "ios": "https://dc.lft.to/lastmile_qr_scan"}, "is_disabled": 0, "fusion_lat": 0.0, "name": "54d2ddcb152b4ba6dffc85a208325362", "fusion_lon": 0.0}, {"is_reserved": 0, "type": "electric_scooter", "bike_id": "9ee724d0df8866d61c6c19e66a44fd02", "lat": 38.90270433333333, "lon": -76.98712466666667, "rental_uris": {"android": "https://dc.lft.to/lastmile_qr_scan", "ios": "https://dc.lft.to/lastmile_qr_scan"}, "is_disabled": 0, "fusion_lat": 0.0, "name": "9ee724d0df8866d61c6c19e66a44fd02", "fusion_lon": 0.0}, {"is_reserved": 0, "type": "electric_scooter", "bike_id": "58d8b4f8f75bf743662377212087de73", "lat": 38.90348616666667, "lon": -77.04208016666666, "rental_uris": {"android": "https://dc.lft.to/lastmile_qr_scan", "ios": "https://dc.lft.to/lastmile_qr_scan"}, "is_disabled": 0, "fusion_lat": 0.0, "name": "58d8b4f8f75bf743662377212087de73", "fusion_lon": 0.0}, {"is_reserved": 0, "type": "electric_bike", "bike_id": "5871d9fd8df13a62c645db1836b529b8", "lat": 38.8086495, "lon": -77.11254433333333, "rental_uris": {"android": "https://dc.lft.to/lastmile_qr_scan", "ios": "https://dc.lft.to/lastmile_qr_scan"}, "is_disabled": 0, "fusion_lat": 0.0, "name": "5871d9fd8df13a62c645db1836b529b8", "fusion_lon": 0.0}, {"is_reserved": 0, "type": "electric_scooter", "bike_id": "4739e9527e467ade6f6656374e0f22f3", "lat": 38.935207, "lon": -77.01951783333334, "rental_uris": {"android": "https://dc.lft.to/lastmile_qr_scan", "ios": "https://dc.lft.to/lastmile_qr_scan"}, "is_disabled": 0, "fusion_lat": 0.0, "name": "4739e9527e467ade6f6656374e0f22f3", "fusion_lon": 0.0}, {"is_reserved": 0, "type": "electric_scooter", "bike_id": "88dd4fd05f5cdb788a9b06ec1b24f04b", "lat": 38.8726535, "lon": -77.01688733333333, "rental_uris": {"android": "https://dc.lft.to/lastmile_qr_scan", "ios": "https://dc.lft.to/lastmile_qr_scan"}, "is_disabled": 0, "fusion_lat": 0.0, "name": "88dd4fd05f5cdb788a9b06ec1b24f04b", "fusion_lon": 0.0}, {"is_reserved": 0, "type": "electric_scooter", "bike_id": "7a8f4ec05c934c203b0cdf53d80dfc32", "lat": 38.923087333333335, "lon": -77.04131883333334, "rental_uris": {"android": "https://dc.lft.to/lastmile_qr_scan", "ios": "https://dc.lft.to/lastmile_qr_scan"}, "is_disabled": 0, "fusion_lat": 0.0, "name": "7a8f4ec05c934c203b0cdf53d80dfc32", "fusion_lon": 0.0}, {"is_reserved": 0, "type": "electric_scooter", "bike_id": "f04d4705b80685abc524eb3b8158e0da", "lat": 38.96031133333334, "lon": -77.071568, "rental_uris": {"android": "https://dc.lft.to/lastmile_qr_scan", "ios": "https://dc.lft.to/lastmile_qr_scan"}, "is_disabled": 0, "fusion_lat": 0.0, "name": "f04d4705b80685abc524eb3b8158e0da", "fusion_lon": 0.0}, {"is_reserved": 0, "type": "electric_scooter", "bike_id": "edfcdb2a9b756efac0b882106c5a2b38", "lat": 38.93353783333333, "lon": -77.0342145, "rental_uris": {"android": "https://dc.lft.to/lastmile_qr_scan", "ios": "https://dc.lft.to/lastmile_qr_scan"}, "is_disabled": 0, "fusion_lat": 0.0, "name": "edfcdb2a9b756efac0b882106c5a2b38", "fusion_lon": 0.0}, {"is_reserved": 0, "type": "electric_scooter", "bike_id": "895f8daa2303ea3dd59e8aa0e8cf9506", "lat": 38.91620566666667, "lon": -77.02391966666667, "rental_uris": {"android": "https://dc.lft.to/lastmile_qr_scan", "ios": "https://dc.lft.to/lastmile_qr_scan"}, "is_disabled": 0, "fusion_lat": 0.0, "name": "895f8daa2303ea3dd59e8aa0e8cf9506", "fusion_lon": 0.0}, {"is_reserved": 0, "type": "electric_scooter", "bike_id": "20e4f9ff031f602d4c0d636c838cee82", "lat": 38.92225283333333, "lon": -77.04243016666666, "rental_uris": {"android": "https://dc.lft.to/lastmile_qr_scan", "ios": "https://dc.lft.to/lastmile_qr_scan"}, "is_disabled": 0, "fusion_lat": 0.0, "name": "20e4f9ff031f602d4c0d636c838cee82", "fusion_lon": 0.0}, {"is_reserved": 0, "type": "electric_scooter", "bike_id": "34b5fbb906476c4cb2dcc2b833aa639d", "lat": 38.930618833333334, "lon": -77.0422785, "rental_uris": {"android": "https://dc.lft.to/lastmile_qr_scan", "ios": "https://dc.lft.to/lastmile_qr_scan"}, "is_disabled": 0, "fusion_lat": 0.0, "name": "34b5fbb906476c4cb2dcc2b833aa639d", "fusion_lon": 0.0}, {"is_reserved": 0, "type": "electric_scooter", "bike_id": "5d48f90bf39b6f54911b2258c93b241c", "lat": 38.919185166666665, "lon": -77.0481135, "rental_uris": {"android": "https://dc.lft.to/lastmile_qr_scan", "ios": "https://dc.lft.to/lastmile_qr_scan"}, "is_disabled": 0, "fusion_lat": 0.0, "name": "5d48f90bf39b6f54911b2258c93b241c", "fusion_lon": 0.0}, {"is_reserved": 0, "type": "electric_bike", "bike_id": "45f4a11e8429fb990b4619d27cda7847", "lat": 38.836298666666664, "lon": -77.00285716666667, "rental_uris": {"android": "https://dc.lft.to/lastmile_qr_scan", "ios": "https://dc.lft.to/lastmile_qr_scan"}, "is_disabled": 0, "fusion_lat": 0.0, "name": "45f4a11e8429fb990b4619d27cda7847", "fusion_lon": 0.0}, {"is_reserved": 0, "type": "electric_scooter", "bike_id": "29181b607f8c1cb521b770eae02042d2", "lat": 38.909859, "lon": -77.06454516666666, "rental_uris": {"android": "https://dc.lft.to/lastmile_qr_scan", "ios": "https://dc.lft.to/lastmile_qr_scan"}, "is_disabled": 0, "fusion_lat": 0.0, "name": "29181b607f8c1cb521b770eae02042d2", "fusion_lon": 0.0}, {"is_reserved": 0, "type": "electric_scooter", "bike_id": "1487a908c673c4c9ff4b2fb1634e4e69", "lat": 38.89728566666667, "lon": -77.04744133333334, "rental_uris": {"android": "https://dc.lft.to/lastmile_qr_scan", "ios": "https://dc.lft.to/lastmile_qr_scan"}, "is_disabled": 0, "fusion_lat": 0.0, "name": "1487a908c673c4c9ff4b2fb1634e4e69", "fusion_lon": 0.0}, {"is_reserved": 0, "type": "electric_scooter", "bike_id": "ddcb6797433bee8878f582e8b1259ca9", "lat": 38.9269275, "lon": -77.03587216666666, "rental_uris": {"android": "https://dc.lft.to/lastmile_qr_scan", "ios": "https://dc.lft.to/lastmile_qr_scan"}, "is_disabled": 0, "fusion_lat": 0.0, "name": "ddcb6797433bee8878f582e8b1259ca9", "fusion_lon": 0.0}, {"is_reserved": 0, "type": "electric_scooter", "bike_id": "59de10a0bd27e5a46c89d8b33c86b562", "lat": 38.9054115, "lon": -77.04094266666667, "rental_uris": {"android": "https://dc.lft.to/lastmile_qr_scan", "ios": "https://dc.lft.to/lastmile_qr_scan"}, "is_disabled": 0, "fusion_lat": 0.0, "name": "59de10a0bd27e5a46c89d8b33c86b562", "fusion_lon": 0.0}, {"is_reserved": 0, "type": "electric_scooter", "bike_id": "b4b54526c31e18a6707d033e209e9a16", "lat": 38.93053233333333, "lon": -77.029622, "rental_uris": {"android": "https://dc.lft.to/lastmile_qr_scan", "ios": "https://dc.lft.to/lastmile_qr_scan"}, "is_disabled": 0, "fusion_lat": 0.0, "name": "b4b54526c31e18a6707d033e209e9a16", "fusion_lon": 0.0}, {"is_reserved": 0, "type": "electric_scooter", "bike_id": "bf4d1cb154de3791af9822761e1fe349", "lat": 38.9039025, "lon": -77.0273855, "rental_uris": {"android": "https://dc.lft.to/lastmile_qr_scan", "ios": "https://dc.lft.to/lastmile_qr_scan"}, "is_disabled": 0, "fusion_lat": 0.0, "name": "bf4d1cb154de3791af9822761e1fe349", "fusion_lon": 0.0}, {"is_reserved": 0, "type": "electric_scooter", "bike_id": "efa6a4ed08ac3b8b61651ec674447fd6", "lat": 38.921587833333334, "lon": -77.0339085, "rental_uris": {"android": "https://dc.lft.to/lastmile_qr_scan", "ios": "https://dc.lft.to/lastmile_qr_scan"}, "is_disabled": 0, "fusion_lat": 0.0, "name": "efa6a4ed08ac3b8b61651ec674447fd6", "fusion_lon": 0.0}, {"is_reserved": 0, "type": "electric_scooter", "bike_id": "5f2bcea7f5292adce30de429fea2b418", "lat": 38.9275045, "lon": -77.02301, "rental_uris": {"android": "https://dc.lft.to/lastmile_qr_scan", "ios": "https://dc.lft.to/lastmile_qr_scan"}, "is_disabled": 0, "fusion_lat": 0.0, "name": "5f2bcea7f5292adce30de429fea2b418", "fusion_lon": 0.0}, {"is_reserved": 0, "type": "electric_bike", "bike_id": "311fa2e66b05aa4f1826d1e9aaf8ba40", "lat": 38.88930366666666, "lon": -76.9132655, "rental_uris": {"android": "https://dc.lft.to/lastmile_qr_scan", "ios": "https://dc.lft.to/lastmile_qr_scan"}, "is_disabled": 0, "fusion_lat": 0.0, "name": "311fa2e66b05aa4f1826d1e9aaf8ba40", "fusion_lon": 0.0}, {"is_reserved": 0, "type": "electric_scooter", "bike_id": "a6838979f8c5ff91a5a4a42cc9936f89", "lat": 38.911220166666666, "lon": -76.99749933333334, "rental_uris": {"android": "https://dc.lft.to/lastmile_qr_scan", "ios": "https://dc.lft.to/lastmile_qr_scan"}, "is_disabled": 0, "fusion_lat": 0.0, "name": "a6838979f8c5ff91a5a4a42cc9936f89", "fusion_lon": 0.0}, {"is_reserved": 0, "type": "electric_bike", "bike_id": "f29c333371ee79453123fbe100d96d01", "lat": 38.80254816666667, "lon": -77.12173533333333, "rental_uris": {"android": "https://dc.lft.to/lastmile_qr_scan", "ios": "https://dc.lft.to/lastmile_qr_scan"}, "is_disabled": 0, "fusion_lat": 0.0, "name": "f29c333371ee79453123fbe100d96d01", "fusion_lon": 0.0}, {"is_reserved": 0, "type": "electric_scooter", "bike_id": "e14c277bc5e45cd56270860b427499f0", "lat": 38.8986465, "lon": -77.02284133333333, "rental_uris": {"android": "https://dc.lft.to/lastmile_qr_scan", "ios": "https://dc.lft.to/lastmile_qr_scan"}, "is_disabled": 0, "fusion_lat": 0.0, "name": "e14c277bc5e45cd56270860b427499f0", "fusion_lon": 0.0}, {"is_reserved": 0, "type": "electric_scooter", "bike_id": "ddc06a33562025865df04f51e9851adc", "lat": 38.91044466666666, "lon": -77.01506583333334, "rental_uris": {"android": "https://dc.lft.to/lastmile_qr_scan", "ios": "https://dc.lft.to/lastmile_qr_scan"}, "is_disabled": 0, "fusion_lat": 0.0, "name": "ddc06a33562025865df04f51e9851adc", "fusion_lon": 0.0}, {"is_reserved": 0, "type": "electric_scooter", "bike_id": "428279076b957d3f3179d14d35b362d8", "lat": 38.909701166666665, "lon": -77.02439266666667, "rental_uris": {"android": "https://dc.lft.to/lastmile_qr_scan", "ios": "https://dc.lft.to/lastmile_qr_scan"}, "is_disabled": 0, "fusion_lat": 0.0, "name": "428279076b957d3f3179d14d35b362d8", "fusion_lon": 0.0}, {"is_reserved": 0, "type": "electric_bike", "bike_id": "688c197175aa8c32586dcbd4135df8a2", "lat": 38.951513, "lon": -76.93329366666667, "rental_uris": {"android": "https://dc.lft.to/lastmile_qr_scan", "ios": "https://dc.lft.to/lastmile_qr_scan"}, "is_disabled": 0, "fusion_lat": 0.0, "name": "688c197175aa8c32586dcbd4135df8a2", "fusion_lon": 0.0}, {"is_reserved": 0, "type": "electric_scooter", "bike_id": "a68a04118ef0bff8c9a60696480b018b", "lat": 38.93883783333333, "lon": -77.02461316666667, "rental_uris": {"android": "https://dc.lft.to/lastmile_qr_scan", "ios": "https://dc.lft.to/lastmile_qr_scan"}, "is_disabled": 0, "fusion_lat": 0.0, "name": "a68a04118ef0bff8c9a60696480b018b", "fusion_lon": 0.0}, {"is_reserved": 0, "type": "electric_scooter", "bike_id": "42f0abeb88346543245ad5cbe7d84a7c", "lat": 38.89822016666667, "lon": -77.02471033333333, "rental_uris": {"android": "https://dc.lft.to/lastmile_qr_scan", "ios": "https://dc.lft.to/lastmile_qr_scan"}, "is_disabled": 0, "fusion_lat": 0.0, "name": "42f0abeb88346543245ad5cbe7d84a7c", "fusion_lon": 0.0}, {"is_reserved": 0, "type": "electric_scooter", "bike_id": "60bc84f01f01cbf30a38c71d0ccedd8e", "lat": 38.93339266666667, "lon": -77.03636333333333, "rental_uris": {"android": "https://dc.lft.to/lastmile_qr_scan", "ios": "https://dc.lft.to/lastmile_qr_scan"}, "is_disabled": 0, "fusion_lat": 0.0, "name": "60bc84f01f01cbf30a38c71d0ccedd8e", "fusion_lon": 0.0}, {"is_reserved": 0, "type": "electric_scooter", "bike_id": "fa57fb7839e9b1d4ed8df1fc1187312f", "lat": 38.90376116666667, "lon": -77.02562116666667, "rental_uris": {"android": "https://dc.lft.to/lastmile_qr_scan", "ios": "https://dc.lft.to/lastmile_qr_scan"}, "is_disabled": 0, "fusion_lat": 0.0, "name": "fa57fb7839e9b1d4ed8df1fc1187312f", "fusion_lon": 0.0}, {"is_reserved": 0, "type": "electric_scooter", "bike_id": "f4173818ad3ccee9efcfc1a3d488d54a", "lat": 38.9079225, "lon": -76.996953, "rental_uris": {"android": "https://dc.lft.to/lastmile_qr_scan", "ios": "https://dc.lft.to/lastmile_qr_scan"}, "is_disabled": 0, "fusion_lat": 0.0, "name": "f4173818ad3ccee9efcfc1a3d488d54a", "fusion_lon": 0.0}, {"is_reserved": 0, "type": "electric_scooter", "bike_id": "78a70e305a7169e9602dec76d75865f7", "lat": 38.930380666666665, "lon": -77.02958933333333, "rental_uris": {"android": "https://dc.lft.to/lastmile_qr_scan", "ios": "https://dc.lft.to/lastmile_qr_scan"}, "is_disabled": 0, "fusion_lat": 0.0, "name": "78a70e305a7169e9602dec76d75865f7", "fusion_lon": 0.0}, {"is_reserved": 0, "type": "electric_scooter", "bike_id": "78b15f25f72a78103906d59903fed0ca", "lat": 38.9176665, "lon": -77.04745733333333, "rental_uris": {"android": "https://dc.lft.to/lastmile_qr_scan", "ios": "https://dc.lft.to/lastmile_qr_scan"}, "is_disabled": 0, "fusion_lat": 0.0, "name": "78b15f25f72a78103906d59903fed0ca", "fusion_lon": 0.0}, {"is_reserved": 0, "type": "electric_scooter", "bike_id": "65515837fc08814a3cd429b3c9c43191", "lat": 38.923021, "lon": -77.04217816666667, "rental_uris": {"android": "https://dc.lft.to/lastmile_qr_scan", "ios": "https://dc.lft.to/lastmile_qr_scan"}, "is_disabled": 0, "fusion_lat": 0.0, "name": "65515837fc08814a3cd429b3c9c43191", "fusion_lon": 0.0}, {"is_reserved": 0, "type": "electric_scooter", "bike_id": "4d4b76b03920cdfa1818d282383533f0", "lat": 38.90030766666667, "lon": -76.99637216666666, "rental_uris": {"android": "https://dc.lft.to/lastmile_qr_scan", "ios": "https://dc.lft.to/lastmile_qr_scan"}, "is_disabled": 0, "fusion_lat": 0.0, "name": "4d4b76b03920cdfa1818d282383533f0", "fusion_lon": 0.0}, {"is_reserved": 0, "type": "electric_scooter", "bike_id": "3bd62c4ad6e4924d9dae0a51faa15867", "lat": 38.90013283333333, "lon": -77.027156, "rental_uris": {"android": "https://dc.lft.to/lastmile_qr_scan", "ios": "https://dc.lft.to/lastmile_qr_scan"}, "is_disabled": 0, "fusion_lat": 0.0, "name": "3bd62c4ad6e4924d9dae0a51faa15867", "fusion_lon": 0.0}, {"is_reserved": 0, "type": "electric_bike", "bike_id": "aac24c48324215fdfe183d07191ca4ec", "lat": 38.986729, "lon": -77.10059, "rental_uris": {"android": "https://dc.lft.to/lastmile_qr_scan", "ios": "https://dc.lft.to/lastmile_qr_scan"}, "is_disabled": 0, "fusion_lat": 0.0, "name": "aac24c48324215fdfe183d07191ca4ec", "fusion_lon": 0.0}, {"is_reserved": 0, "type": "electric_scooter", "bike_id": "7a2c85f78a3ec75f7035516d3c52de7c", "lat": 38.924549, "lon": -77.00852333333333, "rental_uris": {"android": "https://dc.lft.to/lastmile_qr_scan", "ios": "https://dc.lft.to/lastmile_qr_scan"}, "is_disabled": 0, "fusion_lat": 0.0, "name": "7a2c85f78a3ec75f7035516d3c52de7c", "fusion_lon": 0.0}, {"is_reserved": 0, "type": "electric_scooter", "bike_id": "06690cd990a94e8d3c64649b4bae129e", "lat": 38.95284266666667, "lon": -77.06870966666666, "rental_uris": {"android": "https://dc.lft.to/lastmile_qr_scan", "ios": "https://dc.lft.to/lastmile_qr_scan"}, "is_disabled": 0, "fusion_lat": 0.0, "name": "06690cd990a94e8d3c64649b4bae129e", "fusion_lon": 0.0}, {"is_reserved": 0, "type": "electric_scooter", "bike_id": "387d11b18e4bc45ac5c2e508bf22e556", "lat": 38.94518516666667, "lon": -77.02117, "rental_uris": {"android": "https://dc.lft.to/lastmile_qr_scan", "ios": "https://dc.lft.to/lastmile_qr_scan"}, "is_disabled": 0, "fusion_lat": 0.0, "name": "387d11b18e4bc45ac5c2e508bf22e556", "fusion_lon": 0.0}, {"is_reserved": 0, "type": "electric_scooter", "bike_id": "24355205f79a8a0cd93d6a21a42ed3c2", "lat": 38.893355666666665, "lon": -77.02946366666667, "rental_uris": {"android": "https://dc.lft.to/lastmile_qr_scan", "ios": "https://dc.lft.to/lastmile_qr_scan"}, "is_disabled": 0, "fusion_lat": 0.0, "name": "24355205f79a8a0cd93d6a21a42ed3c2", "fusion_lon": 0.0}, {"is_reserved": 0, "type": "electric_scooter", "bike_id": "4d414ca68db4fb80a0462f91e9b26107", "lat": 38.905945333333335, "lon": -77.06413466666666, "rental_uris": {"android": "https://dc.lft.to/lastmile_qr_scan", "ios": "https://dc.lft.to/lastmile_qr_scan"}, "is_disabled": 0, "fusion_lat": 0.0, "name": "4d414ca68db4fb80a0462f91e9b26107", "fusion_lon": 0.0}, {"is_reserved": 0, "type": "electric_scooter", "bike_id": "1afa39f205a367d901f69f9d04d59f9b", "lat": 38.92089683333333, "lon": -77.07185833333334, "rental_uris": {"android": "https://dc.lft.to/lastmile_qr_scan", "ios": "https://dc.lft.to/lastmile_qr_scan"}, "is_disabled": 0, "fusion_lat": 0.0, "name": "1afa39f205a367d901f69f9d04d59f9b", "fusion_lon": 0.0}, {"is_reserved": 0, "type": "electric_scooter", "bike_id": "adb2b2ac8477a0c3d1a5d3e293e44feb", "lat": 38.907476333333335, "lon": -77.00315016666667, "rental_uris": {"android": "https://dc.lft.to/lastmile_qr_scan", "ios": "https://dc.lft.to/lastmile_qr_scan"}, "is_disabled": 0, "fusion_lat": 0.0, "name": "adb2b2ac8477a0c3d1a5d3e293e44feb", "fusion_lon": 0.0}, {"is_reserved": 0, "type": "electric_scooter", "bike_id": "305ab1c6e9d73eb1abd2a17e15a385ae", "lat": 38.89234316666667, "lon": -77.01970366666667, "rental_uris": {"android": "https://dc.lft.to/lastmile_qr_scan", "ios": "https://dc.lft.to/lastmile_qr_scan"}, "is_disabled": 0, "fusion_lat": 0.0, "name": "305ab1c6e9d73eb1abd2a17e15a385ae", "fusion_lon": 0.0}, {"is_reserved": 0, "type": "electric_scooter", "bike_id": "3ae6dd3055b8b55c1a3c7ce585ca4e1a", "lat": 38.92412983333333, "lon": -76.95147616666667, "rental_uris": {"android": "https://dc.lft.to/lastmile_qr_scan", "ios": "https://dc.lft.to/lastmile_qr_scan"}, "is_disabled": 0, "fusion_lat": 0.0, "name": "3ae6dd3055b8b55c1a3c7ce585ca4e1a", "fusion_lon": 0.0}, {"is_reserved": 0, "type": "electric_scooter", "bike_id": "f5f884e2e639c91f4babd840d1a9bc71", "lat": 38.900322, "lon": -77.032053, "rental_uris": {"android": "https://dc.lft.to/lastmile_qr_scan", "ios": "https://dc.lft.to/lastmile_qr_scan"}, "is_disabled": 0, "fusion_lat": 0.0, "name": "f5f884e2e639c91f4babd840d1a9bc71", "fusion_lon": 0.0}, {"is_reserved": 0, "type": "electric_scooter", "bike_id": "dd577335db08faadf5a6d2034a5a89d4", "lat": 38.916956, "lon": -77.0396905, "rental_uris": {"android": "https://dc.lft.to/lastmile_qr_scan", "ios": "https://dc.lft.to/lastmile_qr_scan"}, "is_disabled": 0, "fusion_lat": 0.0, "name": "dd577335db08faadf5a6d2034a5a89d4", "fusion_lon": 0.0}, {"is_reserved": 0, "type": "electric_scooter", "bike_id": "e6d3103cc42786121dba4c9887f236af", "lat": 38.898011833333335, "lon": -76.9888905, "rental_uris": {"android": "https://dc.lft.to/lastmile_qr_scan", "ios": "https://dc.lft.to/lastmile_qr_scan"}, "is_disabled": 0, "fusion_lat": 0.0, "name": "e6d3103cc42786121dba4c9887f236af", "fusion_lon": 0.0}, {"is_reserved": 0, "type": "electric_scooter", "bike_id": "04da9975ef3da9c1d28861dffb05ec27", "lat": 38.8873795, "lon": -77.01351366666667, "rental_uris": {"android": "https://dc.lft.to/lastmile_qr_scan", "ios": "https://dc.lft.to/lastmile_qr_scan"}, "is_disabled": 0, "fusion_lat": 0.0, "name": "04da9975ef3da9c1d28861dffb05ec27", "fusion_lon": 0.0}, {"is_reserved": 0, "type": "electric_scooter", "bike_id": "6f51117b0095233374eceb7191f139ed", "lat": 38.903761, "lon": -77.02857916666666, "rental_uris": {"android": "https://dc.lft.to/lastmile_qr_scan", "ios": "https://dc.lft.to/lastmile_qr_scan"}, "is_disabled": 0, "fusion_lat": 0.0, "name": "6f51117b0095233374eceb7191f139ed", "fusion_lon": 0.0}, {"is_reserved": 0, "type": "electric_scooter", "bike_id": "9fdd2824d4287636c8304a452537cc64", "lat": 38.898816833333335, "lon": -77.0488925, "rental_uris": {"android": "https://dc.lft.to/lastmile_qr_scan", "ios": "https://dc.lft.to/lastmile_qr_scan"}, "is_disabled": 0, "fusion_lat": 0.0, "name": "9fdd2824d4287636c8304a452537cc64", "fusion_lon": 0.0}, {"is_reserved": 0, "type": "electric_bike", "bike_id": "caf1e72b89034eede310d4622781f78d", "lat": 38.910461833333336, "lon": -77.02194, "rental_uris": {"android": "https://dc.lft.to/lastmile_qr_scan", "ios": "https://dc.lft.to/lastmile_qr_scan"}, "is_disabled": 0, "fusion_lat": 0.0, "name": "caf1e72b89034eede310d4622781f78d", "fusion_lon": 0.0}, {"is_reserved": 0, "type": "electric_scooter", "bike_id": "be282844d4dc1dab2d3144b16b35e291", "lat": 38.8992735, "lon": -77.01889683333333, "rental_uris": {"android": "https://dc.lft.to/lastmile_qr_scan", "ios": "https://dc.lft.to/lastmile_qr_scan"}, "is_disabled": 0, "fusion_lat": 0.0, "name": "be282844d4dc1dab2d3144b16b35e291", "fusion_lon": 0.0}, {"is_reserved": 0, "type": "electric_bike", "bike_id": "cc8c495eded9fc6b5617924b096173b3", "lat": 39.00027216666667, "lon": -77.047398, "rental_uris": {"android": "https://dc.lft.to/lastmile_qr_scan", "ios": "https://dc.lft.to/lastmile_qr_scan"}, "is_disabled": 0, "fusion_lat": 0.0, "name": "cc8c495eded9fc6b5617924b096173b3", "fusion_lon": 0.0}, {"is_reserved": 0, "type": "electric_scooter", "bike_id": "8e2a92d5d4e31862f82e4000eaf8aa5f", "lat": 38.89728516666667, "lon": -77.0032215, "rental_uris": {"android": "https://dc.lft.to/lastmile_qr_scan", "ios": "https://dc.lft.to/lastmile_qr_scan"}, "is_disabled": 0, "fusion_lat": 0.0, "name": "8e2a92d5d4e31862f82e4000eaf8aa5f", "fusion_lon": 0.0}, {"is_reserved": 0, "type": "electric_scooter", "bike_id": "5651b0e2447e59ce13f01c68b94191c4", "lat": 38.91083166666667, "lon": -77.02201783333334, "rental_uris": {"android": "https://dc.lft.to/lastmile_qr_scan", "ios": "https://dc.lft.to/lastmile_qr_scan"}, "is_disabled": 0, "fusion_lat": 0.0, "name": "5651b0e2447e59ce13f01c68b94191c4", "fusion_lon": 0.0}, {"is_reserved": 0, "type": "electric_scooter", "bike_id": "90a69467fdf765305c555a88e5f93a75", "lat": 38.9323765, "lon": -76.9950255, "rental_uris": {"android": "https://dc.lft.to/lastmile_qr_scan", "ios": "https://dc.lft.to/lastmile_qr_scan"}, "is_disabled": 0, "fusion_lat": 0.0, "name": "90a69467fdf765305c555a88e5f93a75", "fusion_lon": 0.0}, {"is_reserved": 0, "type": "electric_scooter", "bike_id": "7bfd7fec5978c027a6a14e2c4ba6c1c6", "lat": 38.92163516666667, "lon": -77.03403783333333, "rental_uris": {"android": "https://dc.lft.to/lastmile_qr_scan", "ios": "https://dc.lft.to/lastmile_qr_scan"}, "is_disabled": 0, "fusion_lat": 0.0, "name": "7bfd7fec5978c027a6a14e2c4ba6c1c6", "fusion_lon": 0.0}, {"is_reserved": 0, "type": "electric_scooter", "bike_id": "2f2e4cf506828e915e46304f888fb2e3", "lat": 38.9418075, "lon": -77.024941, "rental_uris": {"android": "https://dc.lft.to/lastmile_qr_scan", "ios": "https://dc.lft.to/lastmile_qr_scan"}, "is_disabled": 0, "fusion_lat": 0.0, "name": "2f2e4cf506828e915e46304f888fb2e3", "fusion_lon": 0.0}, {"is_reserved": 0, "type": "electric_scooter", "bike_id": "33a438fd849e1c45ce7e0e1643badc60", "lat": 38.90773183333334, "lon": -77.03535166666667, "rental_uris": {"android": "https://dc.lft.to/lastmile_qr_scan", "ios": "https://dc.lft.to/lastmile_qr_scan"}, "is_disabled": 0, "fusion_lat": 0.0, "name": "33a438fd849e1c45ce7e0e1643badc60", "fusion_lon": 0.0}, {"is_reserved": 0, "type": "electric_scooter", "bike_id": "4f010ea2eb3fe877f54d52d981a1c34f", "lat": 38.904236, "lon": -77.03030683333333, "rental_uris": {"android": "https://dc.lft.to/lastmile_qr_scan", "ios": "https://dc.lft.to/lastmile_qr_scan"}, "is_disabled": 0, "fusion_lat": 0.0, "name": "4f010ea2eb3fe877f54d52d981a1c34f", "fusion_lon": 0.0}, {"is_reserved": 0, "type": "electric_scooter", "bike_id": "13ab120f5a5953ec2949589414152ad5", "lat": 38.88257133333333, "lon": -77.0062175, "rental_uris": {"android": "https://dc.lft.to/lastmile_qr_scan", "ios": "https://dc.lft.to/lastmile_qr_scan"}, "is_disabled": 0, "fusion_lat": 0.0, "name": "13ab120f5a5953ec2949589414152ad5", "fusion_lon": 0.0}, {"is_reserved": 0, "type": "electric_scooter", "bike_id": "4e17c0f751a4dc1fa57bb130587ffcba", "lat": 38.90851983333334, "lon": -77.01013783333333, "rental_uris": {"android": "https://dc.lft.to/lastmile_qr_scan", "ios": "https://dc.lft.to/lastmile_qr_scan"}, "is_disabled": 0, "fusion_lat": 0.0, "name": "4e17c0f751a4dc1fa57bb130587ffcba", "fusion_lon": 0.0}, {"is_reserved": 0, "type": "electric_scooter", "bike_id": "2649beacdaa05893a8e67d24a85166a0", "lat": 38.924862833333336, "lon": -77.02145166666666, "rental_uris": {"android": "https://dc.lft.to/lastmile_qr_scan", "ios": "https://dc.lft.to/lastmile_qr_scan"}, "is_disabled": 0, "fusion_lat": 0.0, "name": "2649beacdaa05893a8e67d24a85166a0", "fusion_lon": 0.0}, {"is_reserved": 0, "type": "electric_bike", "bike_id": "0b1254391e0e268bf4ce37bcba526fc6", "lat": 38.91422933333333, "lon": -77.03208816666667, "rental_uris": {"android": "https://dc.lft.to/lastmile_qr_scan", "ios": "https://dc.lft.to/lastmile_qr_scan"}, "is_disabled": 0, "fusion_lat": 0.0, "name": "0b1254391e0e268bf4ce37bcba526fc6", "fusion_lon": 0.0}, {"is_reserved": 0, "type": "electric_scooter", "bike_id": "47c8e87407d5427654371565bbda2fec", "lat": 38.93409316666666, "lon": -77.04218633333333, "rental_uris": {"android": "https://dc.lft.to/lastmile_qr_scan", "ios": "https://dc.lft.to/lastmile_qr_scan"}, "is_disabled": 0, "fusion_lat": 0.0, "name": "47c8e87407d5427654371565bbda2fec", "fusion_lon": 0.0}, {"is_reserved": 0, "type": "electric_bike", "bike_id": "9bdbca7dbfa3bc9313203dd5ad30962c", "lat": 38.915368, "lon": -77.0753025, "rental_uris": {"android": "https://dc.lft.to/lastmile_qr_scan", "ios": "https://dc.lft.to/lastmile_qr_scan"}, "is_disabled": 0, "fusion_lat": 0.0, "name": "9bdbca7dbfa3bc9313203dd5ad30962c", "fusion_lon": 0.0}, {"is_reserved": 0, "type": "electric_scooter", "bike_id": "31e6cfbe6ff68177dd4e8aae7418cdb0", "lat": 38.922376, "lon": -77.04248433333333, "rental_uris": {"android": "https://dc.lft.to/lastmile_qr_scan", "ios": "https://dc.lft.to/lastmile_qr_scan"}, "is_disabled": 0, "fusion_lat": 0.0, "name": "31e6cfbe6ff68177dd4e8aae7418cdb0", "fusion_lon": 0.0}, {"is_reserved": 0, "type": "electric_scooter", "bike_id": "01a268ace6a3271328e4e400dc61f81f", "lat": 38.874734, "lon": -77.00334683333334, "rental_uris": {"android": "https://dc.lft.to/lastmile_qr_scan", "ios": "https://dc.lft.to/lastmile_qr_scan"}, "is_disabled": 0, "fusion_lat": 0.0, "name": "01a268ace6a3271328e4e400dc61f81f", "fusion_lon": 0.0}, {"is_reserved": 0, "type": "electric_scooter", "bike_id": "b809e766977a6de1eb40f87652c9ece6", "lat": 38.915622666666664, "lon": -77.04479566666667, "rental_uris": {"android": "https://dc.lft.to/lastmile_qr_scan", "ios": "https://dc.lft.to/lastmile_qr_scan"}, "is_disabled": 0, "fusion_lat": 0.0, "name": "b809e766977a6de1eb40f87652c9ece6", "fusion_lon": 0.0}, {"is_reserved": 0, "type": "electric_scooter", "bike_id": "dd9ab667134a7557659f5adbd626fba1", "lat": 38.9100945, "lon": -77.044203, "rental_uris": {"android": "https://dc.lft.to/lastmile_qr_scan", "ios": "https://dc.lft.to/lastmile_qr_scan"}, "is_disabled": 0, "fusion_lat": 0.0, "name": "dd9ab667134a7557659f5adbd626fba1", "fusion_lon": 0.0}, {"is_reserved": 0, "type": "electric_scooter", "bike_id": "099e26957c252f6c67232de277e308b0", "lat": 38.91018183333333, "lon": -76.99372033333333, "rental_uris": {"android": "https://dc.lft.to/lastmile_qr_scan", "ios": "https://dc.lft.to/lastmile_qr_scan"}, "is_disabled": 0, "fusion_lat": 0.0, "name": "099e26957c252f6c67232de277e308b0", "fusion_lon": 0.0}, {"is_reserved": 0, "type": "electric_scooter", "bike_id": "8fab132fd87cdb66b88b59d4aebacb6a", "lat": 38.9001955, "lon": -76.99526816666666, "rental_uris": {"android": "https://dc.lft.to/lastmile_qr_scan", "ios": "https://dc.lft.to/lastmile_qr_scan"}, "is_disabled": 0, "fusion_lat": 0.0, "name": "8fab132fd87cdb66b88b59d4aebacb6a", "fusion_lon": 0.0}, {"is_reserved": 0, "type": "electric_scooter", "bike_id": "124f439381d09718a72164adb230ce0b", "lat": 38.897896833333334, "lon": -77.04803133333333, "rental_uris": {"android": "https://dc.lft.to/lastmile_qr_scan", "ios": "https://dc.lft.to/lastmile_qr_scan"}, "is_disabled": 0, "fusion_lat": 0.0, "name": "124f439381d09718a72164adb230ce0b", "fusion_lon": 0.0}, {"is_reserved": 0, "type": "electric_scooter", "bike_id": "d4c4441590afcd93a4bf21015178e020", "lat": 38.903747833333334, "lon": -77.036747, "rental_uris": {"android": "https://dc.lft.to/lastmile_qr_scan", "ios": "https://dc.lft.to/lastmile_qr_scan"}, "is_disabled": 0, "fusion_lat": 0.0, "name": "d4c4441590afcd93a4bf21015178e020", "fusion_lon": 0.0}, {"is_reserved": 0, "type": "electric_scooter", "bike_id": "b5d0c3290b7ea709332f4ee618cba496", "lat": 38.89219216666667, "lon": -77.023097, "rental_uris": {"android": "https://dc.lft.to/lastmile_qr_scan", "ios": "https://dc.lft.to/lastmile_qr_scan"}, "is_disabled": 0, "fusion_lat": 0.0, "name": "b5d0c3290b7ea709332f4ee618cba496", "fusion_lon": 0.0}, {"is_reserved": 0, "type": "electric_scooter", "bike_id": "443fda343b87c9a60643d7b3b2182889", "lat": 38.9170045, "lon": -77.01191516666667, "rental_uris": {"android": "https://dc.lft.to/lastmile_qr_scan", "ios": "https://dc.lft.to/lastmile_qr_scan"}, "is_disabled": 0, "fusion_lat": 0.0, "name": "443fda343b87c9a60643d7b3b2182889", "fusion_lon": 0.0}, {"is_reserved": 0, "type": "electric_bike", "bike_id": "511c379b68d8f7cfdbaec2cfed42505b", "lat": 38.84332116666667, "lon": -76.99738366666666, "rental_uris": {"android": "https://dc.lft.to/lastmile_qr_scan", "ios": "https://dc.lft.to/lastmile_qr_scan"}, "is_disabled": 0, "fusion_lat": 0.0, "name": "511c379b68d8f7cfdbaec2cfed42505b", "fusion_lon": 0.0}, {"is_reserved": 0, "type": "electric_scooter", "bike_id": "333907e9ec8f72b4e8c9e8774e607d3a", "lat": 38.886179166666665, "lon": -77.00403166666666, "rental_uris": {"android": "https://dc.lft.to/lastmile_qr_scan", "ios": "https://dc.lft.to/lastmile_qr_scan"}, "is_disabled": 0, "fusion_lat": 0.0, "name": "333907e9ec8f72b4e8c9e8774e607d3a", "fusion_lon": 0.0}, {"is_reserved": 0, "type": "electric_scooter", "bike_id": "8bdfc5702d527458f66cd15d770d95ff", "lat": 38.92003416666667, "lon": -76.9850185, "rental_uris": {"android": "https://dc.lft.to/lastmile_qr_scan", "ios": "https://dc.lft.to/lastmile_qr_scan"}, "is_disabled": 0, "fusion_lat": 0.0, "name": "8bdfc5702d527458f66cd15d770d95ff", "fusion_lon": 0.0}, {"is_reserved": 0, "type": "electric_scooter", "bike_id": "0b78aa9cc1cad5793606afe9e219850c", "lat": 38.920315333333335, "lon": -77.0373065, "rental_uris": {"android": "https://dc.lft.to/lastmile_qr_scan", "ios": "https://dc.lft.to/lastmile_qr_scan"}, "is_disabled": 0, "fusion_lat": 0.0, "name": "0b78aa9cc1cad5793606afe9e219850c", "fusion_lon": 0.0}, {"is_reserved": 0, "type": "electric_scooter", "bike_id": "8e043dce18609c0e54e32bd67d777924", "lat": 38.92406666666667, "lon": -77.03538566666667, "rental_uris": {"android": "https://dc.lft.to/lastmile_qr_scan", "ios": "https://dc.lft.to/lastmile_qr_scan"}, "is_disabled": 0, "fusion_lat": 0.0, "name": "8e043dce18609c0e54e32bd67d777924", "fusion_lon": 0.0}, {"is_reserved": 0, "type": "electric_scooter", "bike_id": "92c34721df98b7ed98d6bb0daaa70cb5", "lat": 38.890105166666665, "lon": -77.0332035, "rental_uris": {"android": "https://dc.lft.to/lastmile_qr_scan", "ios": "https://dc.lft.to/lastmile_qr_scan"}, "is_disabled": 0, "fusion_lat": 0.0, "name": "92c34721df98b7ed98d6bb0daaa70cb5", "fusion_lon": 0.0}, {"is_reserved": 0, "type": "electric_scooter", "bike_id": "717993db4a5832666b4cffa2fb58cc18", "lat": 38.926053, "lon": -77.05177833333333, "rental_uris": {"android": "https://dc.lft.to/lastmile_qr_scan", "ios": "https://dc.lft.to/lastmile_qr_scan"}, "is_disabled": 0, "fusion_lat": 0.0, "name": "717993db4a5832666b4cffa2fb58cc18", "fusion_lon": 0.0}, {"is_reserved": 0, "type": "electric_scooter", "bike_id": "b92519636e67528d140836bfed1a0afc", "lat": 38.908303, "lon": -76.987129, "rental_uris": {"android": "https://dc.lft.to/lastmile_qr_scan", "ios": "https://dc.lft.to/lastmile_qr_scan"}, "is_disabled": 0, "fusion_lat": 0.0, "name": "b92519636e67528d140836bfed1a0afc", "fusion_lon": 0.0}, {"is_reserved": 0, "type": "electric_bike", "bike_id": "c838644e8c47c9e4ceb3c590f1152e7c", "lat": 38.99103, "lon": -76.88155583333334, "rental_uris": {"android": "https://dc.lft.to/lastmile_qr_scan", "ios": "https://dc.lft.to/lastmile_qr_scan"}, "is_disabled": 0, "fusion_lat": 0.0, "name": "c838644e8c47c9e4ceb3c590f1152e7c", "fusion_lon": 0.0}, {"is_reserved": 0, "type": "electric_scooter", "bike_id": "a190985a4e883f3853e29bf791310f54", "lat": 38.916948, "lon": -77.03237683333333, "rental_uris": {"android": "https://dc.lft.to/lastmile_qr_scan", "ios": "https://dc.lft.to/lastmile_qr_scan"}, "is_disabled": 0, "fusion_lat": 0.0, "name": "a190985a4e883f3853e29bf791310f54", "fusion_lon": 0.0}, {"is_reserved": 0, "type": "electric_bike", "bike_id": "77b60df9516929cc7cac979ae263029a", "lat": 38.87077716666667, "lon": -77.0119725, "rental_uris": {"android": "https://dc.lft.to/lastmile_qr_scan", "ios": "https://dc.lft.to/lastmile_qr_scan"}, "is_disabled": 0, "fusion_lat": 0.0, "name": "77b60df9516929cc7cac979ae263029a", "fusion_lon": 0.0}, {"is_reserved": 0, "type": "electric_scooter", "bike_id": "638887cb5f21160198d2aff90715432f", "lat": 38.905524166666666, "lon": -77.03395683333333, "rental_uris": {"android": "https://dc.lft.to/lastmile_qr_scan", "ios": "https://dc.lft.to/lastmile_qr_scan"}, "is_disabled": 0, "fusion_lat": 0.0, "name": "638887cb5f21160198d2aff90715432f", "fusion_lon": 0.0}, {"is_reserved": 0, "type": "electric_scooter", "bike_id": "482cfc52bb44277ee27394d8e2ca76ce", "lat": 38.907273333333336, "lon": -77.0317145, "rental_uris": {"android": "https://dc.lft.to/lastmile_qr_scan", "ios": "https://dc.lft.to/lastmile_qr_scan"}, "is_disabled": 0, "fusion_lat": 0.0, "name": "482cfc52bb44277ee27394d8e2ca76ce", "fusion_lon": 0.0}, {"is_reserved": 0, "type": "electric_scooter", "bike_id": "266332de346251758875ba73587d5a81", "lat": 38.926168833333335, "lon": -77.0377345, "rental_uris": {"android": "https://dc.lft.to/lastmile_qr_scan", "ios": "https://dc.lft.to/lastmile_qr_scan"}, "is_disabled": 0, "fusion_lat": 0.0, "name": "266332de346251758875ba73587d5a81", "fusion_lon": 0.0}, {"is_reserved": 0, "type": "electric_scooter", "bike_id": "59d728f93913750284f1f30ee2f5efdd", "lat": 38.847996, "lon": -76.97829183333333, "rental_uris": {"android": "https://dc.lft.to/lastmile_qr_scan", "ios": "https://dc.lft.to/lastmile_qr_scan"}, "is_disabled": 0, "fusion_lat": 0.0, "name": "59d728f93913750284f1f30ee2f5efdd", "fusion_lon": 0.0}, {"is_reserved": 0, "type": "electric_scooter", "bike_id": "9e18658f7ce0b563390836f9dfd4058c", "lat": 38.931984, "lon": -77.03851316666666, "rental_uris": {"android": "https://dc.lft.to/lastmile_qr_scan", "ios": "https://dc.lft.to/lastmile_qr_scan"}, "is_disabled": 0, "fusion_lat": 0.0, "name": "9e18658f7ce0b563390836f9dfd4058c", "fusion_lon": 0.0}, {"is_reserved": 0, "type": "electric_bike", "bike_id": "6cccba1130e9d71c3b4902d9c7f06528", "lat": 38.80378783333333, "lon": -76.988126, "rental_uris": {"android": "https://dc.lft.to/lastmile_qr_scan", "ios": "https://dc.lft.to/lastmile_qr_scan"}, "is_disabled": 0, "fusion_lat": 0.0, "name": "6cccba1130e9d71c3b4902d9c7f06528", "fusion_lon": 0.0}, {"is_reserved": 0, "type": "electric_scooter", "bike_id": "bf543f5ae6eadc79cca04a76f9c8b207", "lat": 38.92239566666667, "lon": -77.0470665, "rental_uris": {"android": "https://dc.lft.to/lastmile_qr_scan", "ios": "https://dc.lft.to/lastmile_qr_scan"}, "is_disabled": 0, "fusion_lat": 0.0, "name": "bf543f5ae6eadc79cca04a76f9c8b207", "fusion_lon": 0.0}, {"is_reserved": 0, "type": "electric_scooter", "bike_id": "6e5bdac6fef61ea7281be680fb8026cb", "lat": 38.9031735, "lon": -77.01078083333333, "rental_uris": {"android": "https://dc.lft.to/lastmile_qr_scan", "ios": "https://dc.lft.to/lastmile_qr_scan"}, "is_disabled": 0, "fusion_lat": 0.0, "name": "6e5bdac6fef61ea7281be680fb8026cb", "fusion_lon": 0.0}, {"is_reserved": 0, "type": "electric_scooter", "bike_id": "0f965df138bafe214f1ac48513e464d4", "lat": 38.912510833333336, "lon": -77.0453455, "rental_uris": {"android": "https://dc.lft.to/lastmile_qr_scan", "ios": "https://dc.lft.to/lastmile_qr_scan"}, "is_disabled": 0, "fusion_lat": 0.0, "name": "0f965df138bafe214f1ac48513e464d4", "fusion_lon": 0.0}, {"is_reserved": 0, "type": "electric_scooter", "bike_id": "47a7a4adaba71899c41034b4f536cb37", "lat": 38.9139185, "lon": -77.04333466666667, "rental_uris": {"android": "https://dc.lft.to/lastmile_qr_scan", "ios": "https://dc.lft.to/lastmile_qr_scan"}, "is_disabled": 0, "fusion_lat": 0.0, "name": "47a7a4adaba71899c41034b4f536cb37", "fusion_lon": 0.0}, {"is_reserved": 0, "type": "electric_bike", "bike_id": "9bf94e7cd630c8e47459476343553386", "lat": 38.917010166666664, "lon": -77.05718183333333, "rental_uris": {"android": "https://dc.lft.to/lastmile_qr_scan", "ios": "https://dc.lft.to/lastmile_qr_scan"}, "is_disabled": 0, "fusion_lat": 0.0, "name": "9bf94e7cd630c8e47459476343553386", "fusion_lon": 0.0}, {"is_reserved": 0, "type": "electric_bike", "bike_id": "5a7d3cde2c542c2e1046de0a031c23b6", "lat": 38.92069333333333, "lon": -76.9958155, "rental_uris": {"android": "https://dc.lft.to/lastmile_qr_scan", "ios": "https://dc.lft.to/lastmile_qr_scan"}, "is_disabled": 0, "fusion_lat": 0.0, "name": "5a7d3cde2c542c2e1046de0a031c23b6", "fusion_lon": 0.0}, {"is_reserved": 0, "type": "electric_scooter", "bike_id": "c13e50b3a21c586549bef312f684dce9", "lat": 38.88290216666667, "lon": -77.02409583333333, "rental_uris": {"android": "https://dc.lft.to/lastmile_qr_scan", "ios": "https://dc.lft.to/lastmile_qr_scan"}, "is_disabled": 0, "fusion_lat": 0.0, "name": "c13e50b3a21c586549bef312f684dce9", "fusion_lon": 0.0}, {"is_reserved": 0, "type": "electric_scooter", "bike_id": "cb092cdf484904ba2cb7e8c015b5f928", "lat": 38.91123983333333, "lon": -77.01674483333333, "rental_uris": {"android": "https://dc.lft.to/lastmile_qr_scan", "ios": "https://dc.lft.to/lastmile_qr_scan"}, "is_disabled": 0, "fusion_lat": 0.0, "name": "cb092cdf484904ba2cb7e8c015b5f928", "fusion_lon": 0.0}, {"is_reserved": 0, "type": "electric_scooter", "bike_id": "493f707172d4633eb44ee585251444a8", "lat": 38.90273283333333, "lon": -77.036309, "rental_uris": {"android": "https://dc.lft.to/lastmile_qr_scan", "ios": "https://dc.lft.to/lastmile_qr_scan"}, "is_disabled": 0, "fusion_lat": 0.0, "name": "493f707172d4633eb44ee585251444a8", "fusion_lon": 0.0}, {"is_reserved": 0, "type": "electric_scooter", "bike_id": "70704b4f612d310cbcd21afcefe077f1", "lat": 38.89734166666667, "lon": -77.05000116666666, "rental_uris": {"android": "https://dc.lft.to/lastmile_qr_scan", "ios": "https://dc.lft.to/lastmile_qr_scan"}, "is_disabled": 0, "fusion_lat": 0.0, "name": "70704b4f612d310cbcd21afcefe077f1", "fusion_lon": 0.0}, {"is_reserved": 0, "type": "electric_bike", "bike_id": "621a0c7dc151d9da834a83770b4a291d", "lat": 38.9203105, "lon": -76.979538, "rental_uris": {"android": "https://dc.lft.to/lastmile_qr_scan", "ios": "https://dc.lft.to/lastmile_qr_scan"}, "is_disabled": 0, "fusion_lat": 0.0, "name": "621a0c7dc151d9da834a83770b4a291d", "fusion_lon": 0.0}, {"is_reserved": 0, "type": "electric_scooter", "bike_id": "78559d4293c41ab0b1cba394af58c697", "lat": 38.917497833333336, "lon": -77.00443733333333, "rental_uris": {"android": "https://dc.lft.to/lastmile_qr_scan", "ios": "https://dc.lft.to/lastmile_qr_scan"}, "is_disabled": 0, "fusion_lat": 0.0, "name": "78559d4293c41ab0b1cba394af58c697", "fusion_lon": 0.0}, {"is_reserved": 0, "type": "electric_scooter", "bike_id": "2b92c61dede6c25e4b6ac76485d09019", "lat": 38.908997166666666, "lon": -77.00269583333333, "rental_uris": {"android": "https://dc.lft.to/lastmile_qr_scan", "ios": "https://dc.lft.to/lastmile_qr_scan"}, "is_disabled": 0, "fusion_lat": 0.0, "name": "2b92c61dede6c25e4b6ac76485d09019", "fusion_lon": 0.0}, {"is_reserved": 0, "type": "electric_scooter", "bike_id": "b9da5c3bbf4b2ab3c36c776232eccd13", "lat": 38.92394183333333, "lon": -77.0429855, "rental_uris": {"android": "https://dc.lft.to/lastmile_qr_scan", "ios": "https://dc.lft.to/lastmile_qr_scan"}, "is_disabled": 0, "fusion_lat": 0.0, "name": "b9da5c3bbf4b2ab3c36c776232eccd13", "fusion_lon": 0.0}, {"is_reserved": 0, "type": "electric_scooter", "bike_id": "6af9166e3baedd4c1d1d4ddd2d204bff", "lat": 38.92390483333333, "lon": -77.02965, "rental_uris": {"android": "https://dc.lft.to/lastmile_qr_scan", "ios": "https://dc.lft.to/lastmile_qr_scan"}, "is_disabled": 0, "fusion_lat": 0.0, "name": "6af9166e3baedd4c1d1d4ddd2d204bff", "fusion_lon": 0.0}, {"is_reserved": 0, "type": "electric_scooter", "bike_id": "06e77beebd70c26d6c1574e990bc61a7", "lat": 38.96795133333333, "lon": -77.02437516666667, "rental_uris": {"android": "https://dc.lft.to/lastmile_qr_scan", "ios": "https://dc.lft.to/lastmile_qr_scan"}, "is_disabled": 0, "fusion_lat": 0.0, "name": "06e77beebd70c26d6c1574e990bc61a7", "fusion_lon": 0.0}, {"is_reserved": 0, "type": "electric_scooter", "bike_id": "500f2032f51c2524539ed7c86859dc2e", "lat": 38.91714966666667, "lon": -77.07278966666667, "rental_uris": {"android": "https://dc.lft.to/lastmile_qr_scan", "ios": "https://dc.lft.to/lastmile_qr_scan"}, "is_disabled": 0, "fusion_lat": 0.0, "name": "500f2032f51c2524539ed7c86859dc2e", "fusion_lon": 0.0}, {"is_reserved": 0, "type": "electric_scooter", "bike_id": "ecb050de7f19e1fd798de8bb616b0709", "lat": 38.932334833333336, "lon": -76.995046, "rental_uris": {"android": "https://dc.lft.to/lastmile_qr_scan", "ios": "https://dc.lft.to/lastmile_qr_scan"}, "is_disabled": 0, "fusion_lat": 0.0, "name": "ecb050de7f19e1fd798de8bb616b0709", "fusion_lon": 0.0}, {"is_reserved": 0, "type": "electric_scooter", "bike_id": "923b5e8871622170c78ac99ca3c0a462", "lat": 38.92446733333333, "lon": -77.020225, "rental_uris": {"android": "https://dc.lft.to/lastmile_qr_scan", "ios": "https://dc.lft.to/lastmile_qr_scan"}, "is_disabled": 0, "fusion_lat": 0.0, "name": "923b5e8871622170c78ac99ca3c0a462", "fusion_lon": 0.0}, {"is_reserved": 0, "type": "electric_scooter", "bike_id": "71ee628b52c1dba0e0ff706007eca115", "lat": 38.90347966666667, "lon": -77.042809, "rental_uris": {"android": "https://dc.lft.to/lastmile_qr_scan", "ios": "https://dc.lft.to/lastmile_qr_scan"}, "is_disabled": 0, "fusion_lat": 0.0, "name": "71ee628b52c1dba0e0ff706007eca115", "fusion_lon": 0.0}, {"is_reserved": 0, "type": "electric_scooter", "bike_id": "7e88e2f689b8d74c0b34ebb5bcbb3951", "lat": 38.89725966666666, "lon": -77.02442366666666, "rental_uris": {"android": "https://dc.lft.to/lastmile_qr_scan", "ios": "https://dc.lft.to/lastmile_qr_scan"}, "is_disabled": 0, "fusion_lat": 0.0, "name": "7e88e2f689b8d74c0b34ebb5bcbb3951", "fusion_lon": 0.0}, {"is_reserved": 0, "type": "electric_scooter", "bike_id": "c9b379090495327f981a89a687abeefa", "lat": 38.88738683333333, "lon": -77.013495, "rental_uris": {"android": "https://dc.lft.to/lastmile_qr_scan", "ios": "https://dc.lft.to/lastmile_qr_scan"}, "is_disabled": 0, "fusion_lat": 0.0, "name": "c9b379090495327f981a89a687abeefa", "fusion_lon": 0.0}, {"is_reserved": 0, "type": "electric_scooter", "bike_id": "2b78cfbe46d4351d6fe9dd3ddbce0a8f", "lat": 38.925494, "lon": -76.99957483333333, "rental_uris": {"android": "https://dc.lft.to/lastmile_qr_scan", "ios": "https://dc.lft.to/lastmile_qr_scan"}, "is_disabled": 0, "fusion_lat": 0.0, "name": "2b78cfbe46d4351d6fe9dd3ddbce0a8f", "fusion_lon": 0.0}, {"is_reserved": 0, "type": "electric_scooter", "bike_id": "2bd5e0cf9319252c33526983503ba5b9", "lat": 38.9084235, "lon": -77.029471, "rental_uris": {"android": "https://dc.lft.to/lastmile_qr_scan", "ios": "https://dc.lft.to/lastmile_qr_scan"}, "is_disabled": 0, "fusion_lat": 0.0, "name": "2bd5e0cf9319252c33526983503ba5b9", "fusion_lon": 0.0}, {"is_reserved": 0, "type": "electric_scooter", "bike_id": "34d9554313bfa7bc9d931dcfb3d3d7c0", "lat": 38.916315833333336, "lon": -77.0480165, "rental_uris": {"android": "https://dc.lft.to/lastmile_qr_scan", "ios": "https://dc.lft.to/lastmile_qr_scan"}, "is_disabled": 0, "fusion_lat": 0.0, "name": "34d9554313bfa7bc9d931dcfb3d3d7c0", "fusion_lon": 0.0}, {"is_reserved": 0, "type": "electric_scooter", "bike_id": "623759c68cae94a37f2d5cf44fcf9e9f", "lat": 38.90364783333333, "lon": -77.03121333333333, "rental_uris": {"android": "https://dc.lft.to/lastmile_qr_scan", "ios": "https://dc.lft.to/lastmile_qr_scan"}, "is_disabled": 0, "fusion_lat": 0.0, "name": "623759c68cae94a37f2d5cf44fcf9e9f", "fusion_lon": 0.0}, {"is_reserved": 0, "type": "electric_scooter", "bike_id": "cbbfc8fa529619ea4d92d8499a93298e", "lat": 38.9014085, "lon": -77.0377065, "rental_uris": {"android": "https://dc.lft.to/lastmile_qr_scan", "ios": "https://dc.lft.to/lastmile_qr_scan"}, "is_disabled": 0, "fusion_lat": 0.0, "name": "cbbfc8fa529619ea4d92d8499a93298e", "fusion_lon": 0.0}, {"is_reserved": 0, "type": "electric_scooter", "bike_id": "8a53861a72fc44d57e0e82fcf61f410d", "lat": 38.9062935, "lon": -77.03150516666666, "rental_uris": {"android": "https://dc.lft.to/lastmile_qr_scan", "ios": "https://dc.lft.to/lastmile_qr_scan"}, "is_disabled": 0, "fusion_lat": 0.0, "name": "8a53861a72fc44d57e0e82fcf61f410d", "fusion_lon": 0.0}, {"is_reserved": 0, "type": "electric_scooter", "bike_id": "7e5f587723cf9525fea579e1ee41cd55", "lat": 38.91706966666667, "lon": -77.02407416666667, "rental_uris": {"android": "https://dc.lft.to/lastmile_qr_scan", "ios": "https://dc.lft.to/lastmile_qr_scan"}, "is_disabled": 0, "fusion_lat": 0.0, "name": "7e5f587723cf9525fea579e1ee41cd55", "fusion_lon": 0.0}, {"is_reserved": 0, "type": "electric_scooter", "bike_id": "97400cac2074fb348d012ed2966a9048", "lat": 38.91768966666667, "lon": -77.03199916666667, "rental_uris": {"android": "https://dc.lft.to/lastmile_qr_scan", "ios": "https://dc.lft.to/lastmile_qr_scan"}, "is_disabled": 0, "fusion_lat": 0.0, "name": "97400cac2074fb348d012ed2966a9048", "fusion_lon": 0.0}, {"is_reserved": 0, "type": "electric_scooter", "bike_id": "f59519b9e58f08fb0a132ae12e7f00fb", "lat": 38.935944666666664, "lon": -77.033656, "rental_uris": {"android": "https://dc.lft.to/lastmile_qr_scan", "ios": "https://dc.lft.to/lastmile_qr_scan"}, "is_disabled": 0, "fusion_lat": 0.0, "name": "f59519b9e58f08fb0a132ae12e7f00fb", "fusion_lon": 0.0}, {"is_reserved": 0, "type": "electric_scooter", "bike_id": "243bbda78a9b09dfd06d0e963749b68f", "lat": 38.91546866666667, "lon": -77.032524, "rental_uris": {"android": "https://dc.lft.to/lastmile_qr_scan", "ios": "https://dc.lft.to/lastmile_qr_scan"}, "is_disabled": 0, "fusion_lat": 0.0, "name": "243bbda78a9b09dfd06d0e963749b68f", "fusion_lon": 0.0}, {"is_reserved": 0, "type": "electric_bike", "bike_id": "c4d20a733b124ba7b9bea1f41f3d4343", "lat": 38.973106, "lon": -76.99489916666667, "rental_uris": {"android": "https://dc.lft.to/lastmile_qr_scan", "ios": "https://dc.lft.to/lastmile_qr_scan"}, "is_disabled": 0, "fusion_lat": 0.0, "name": "c4d20a733b124ba7b9bea1f41f3d4343", "fusion_lon": 0.0}, {"is_reserved": 0, "type": "electric_scooter", "bike_id": "58f5244f76a17cf1016a3c4d717afca6", "lat": 38.91263416666666, "lon": -77.038661, "rental_uris": {"android": "https://dc.lft.to/lastmile_qr_scan", "ios": "https://dc.lft.to/lastmile_qr_scan"}, "is_disabled": 0, "fusion_lat": 0.0, "name": "58f5244f76a17cf1016a3c4d717afca6", "fusion_lon": 0.0}, {"is_reserved": 0, "type": "electric_scooter", "bike_id": "f0da00e994da5c907d2970ed8e9c9778", "lat": 38.89988266666667, "lon": -76.99481233333333, "rental_uris": {"android": "https://dc.lft.to/lastmile_qr_scan", "ios": "https://dc.lft.to/lastmile_qr_scan"}, "is_disabled": 0, "fusion_lat": 0.0, "name": "f0da00e994da5c907d2970ed8e9c9778", "fusion_lon": 0.0}, {"is_reserved": 0, "type": "electric_scooter", "bike_id": "3f1f96ab2c8f56258fffeb250366eec4", "lat": 38.9030425, "lon": -76.9765015, "rental_uris": {"android": "https://dc.lft.to/lastmile_qr_scan", "ios": "https://dc.lft.to/lastmile_qr_scan"}, "is_disabled": 0, "fusion_lat": 0.0, "name": "3f1f96ab2c8f56258fffeb250366eec4", "fusion_lon": 0.0}, {"is_reserved": 0, "type": "electric_scooter", "bike_id": "4dac4d4057d0d17c4cb6cf5f2e6d1cb7", "lat": 38.885365166666666, "lon": -77.0217575, "rental_uris": {"android": "https://dc.lft.to/lastmile_qr_scan", "ios": "https://dc.lft.to/lastmile_qr_scan"}, "is_disabled": 0, "fusion_lat": 0.0, "name": "4dac4d4057d0d17c4cb6cf5f2e6d1cb7", "fusion_lon": 0.0}, {"is_reserved": 0, "type": "electric_scooter", "bike_id": "e4d554bed1225670e495dea1c6a2985c", "lat": 38.91630516666667, "lon": -77.007595, "rental_uris": {"android": "https://dc.lft.to/lastmile_qr_scan", "ios": "https://dc.lft.to/lastmile_qr_scan"}, "is_disabled": 0, "fusion_lat": 0.0, "name": "e4d554bed1225670e495dea1c6a2985c", "fusion_lon": 0.0}, {"is_reserved": 0, "type": "electric_scooter", "bike_id": "018194e41afb5793214a57d4f5fba518", "lat": 38.900275, "lon": -76.98855666666667, "rental_uris": {"android": "https://dc.lft.to/lastmile_qr_scan", "ios": "https://dc.lft.to/lastmile_qr_scan"}, "is_disabled": 0, "fusion_lat": 0.0, "name": "018194e41afb5793214a57d4f5fba518", "fusion_lon": 0.0}, {"is_reserved": 0, "type": "electric_scooter", "bike_id": "b16ceb042a1cb81a63a628fac161913b", "lat": 38.8939455, "lon": -77.022559, "rental_uris": {"android": "https://dc.lft.to/lastmile_qr_scan", "ios": "https://dc.lft.to/lastmile_qr_scan"}, "is_disabled": 0, "fusion_lat": 0.0, "name": "b16ceb042a1cb81a63a628fac161913b", "fusion_lon": 0.0}, {"is_reserved": 0, "type": "electric_scooter", "bike_id": "352e29b9837da9259ce62a58eededb87", "lat": 38.89483633333333, "lon": -77.04991383333333, "rental_uris": {"android": "https://dc.lft.to/lastmile_qr_scan", "ios": "https://dc.lft.to/lastmile_qr_scan"}, "is_disabled": 0, "fusion_lat": 0.0, "name": "352e29b9837da9259ce62a58eededb87", "fusion_lon": 0.0}, {"is_reserved": 0, "type": "electric_scooter", "bike_id": "1a07f69b88c20fd491902e630ba66637", "lat": 38.91656866666667, "lon": -77.03845883333334, "rental_uris": {"android": "https://dc.lft.to/lastmile_qr_scan", "ios": "https://dc.lft.to/lastmile_qr_scan"}, "is_disabled": 0, "fusion_lat": 0.0, "name": "1a07f69b88c20fd491902e630ba66637", "fusion_lon": 0.0}, {"is_reserved": 0, "type": "electric_bike", "bike_id": "cbd6077133987f081413d33918776a2b", "lat": 38.879397, "lon": -77.00783683333333, "rental_uris": {"android": "https://dc.lft.to/lastmile_qr_scan", "ios": "https://dc.lft.to/lastmile_qr_scan"}, "is_disabled": 0, "fusion_lat": 0.0, "name": "cbd6077133987f081413d33918776a2b", "fusion_lon": 0.0}, {"is_reserved": 0, "type": "electric_scooter", "bike_id": "eb00ec3e55b9c85702fce16d3e3a1372", "lat": 38.92270283333333, "lon": -77.03666716666666, "rental_uris": {"android": "https://dc.lft.to/lastmile_qr_scan", "ios": "https://dc.lft.to/lastmile_qr_scan"}, "is_disabled": 0, "fusion_lat": 0.0, "name": "eb00ec3e55b9c85702fce16d3e3a1372", "fusion_lon": 0.0}, {"is_reserved": 0, "type": "electric_scooter", "bike_id": "98bf2897ef8500dddedd7f6f0a09a6d8", "lat": 38.867173666666666, "lon": -76.9807115, "rental_uris": {"android": "https://dc.lft.to/lastmile_qr_scan", "ios": "https://dc.lft.to/lastmile_qr_scan"}, "is_disabled": 0, "fusion_lat": 0.0, "name": "98bf2897ef8500dddedd7f6f0a09a6d8", "fusion_lon": 0.0}, {"is_reserved": 0, "type": "electric_scooter", "bike_id": "24daf48203279322c36351c79dcef3ff", "lat": 38.91936033333333, "lon": -77.01880233333333, "rental_uris": {"android": "https://dc.lft.to/lastmile_qr_scan", "ios": "https://dc.lft.to/lastmile_qr_scan"}, "is_disabled": 0, "fusion_lat": 0.0, "name": "24daf48203279322c36351c79dcef3ff", "fusion_lon": 0.0}, {"is_reserved": 0, "type": "electric_scooter", "bike_id": "b6786cb8286c14f1a41759d9cad9b256", "lat": 38.892207166666665, "lon": -77.023019, "rental_uris": {"android": "https://dc.lft.to/lastmile_qr_scan", "ios": "https://dc.lft.to/lastmile_qr_scan"}, "is_disabled": 0, "fusion_lat": 0.0, "name": "b6786cb8286c14f1a41759d9cad9b256", "fusion_lon": 0.0}, {"is_reserved": 0, "type": "electric_scooter", "bike_id": "7d99c3de8469d8d36e4e025c7edca65c", "lat": 38.906414833333336, "lon": -77.017906, "rental_uris": {"android": "https://dc.lft.to/lastmile_qr_scan", "ios": "https://dc.lft.to/lastmile_qr_scan"}, "is_disabled": 0, "fusion_lat": 0.0, "name": "7d99c3de8469d8d36e4e025c7edca65c", "fusion_lon": 0.0}, {"is_reserved": 0, "type": "electric_scooter", "bike_id": "1c9e3197af18fbc0259fd482d77e6a35", "lat": 38.88767333333333, "lon": -76.983203, "rental_uris": {"android": "https://dc.lft.to/lastmile_qr_scan", "ios": "https://dc.lft.to/lastmile_qr_scan"}, "is_disabled": 0, "fusion_lat": 0.0, "name": "1c9e3197af18fbc0259fd482d77e6a35", "fusion_lon": 0.0}, {"is_reserved": 0, "type": "electric_scooter", "bike_id": "1865990d8e0a6a355c5b31021c8cc464", "lat": 38.898100666666664, "lon": -76.996877, "rental_uris": {"android": "https://dc.lft.to/lastmile_qr_scan", "ios": "https://dc.lft.to/lastmile_qr_scan"}, "is_disabled": 0, "fusion_lat": 0.0, "name": "1865990d8e0a6a355c5b31021c8cc464", "fusion_lon": 0.0}, {"is_reserved": 0, "type": "electric_scooter", "bike_id": "b0d3b1985d650193e21d65eec9ffbc43", "lat": 38.892208833333335, "lon": -77.046494, "rental_uris": {"android": "https://dc.lft.to/lastmile_qr_scan", "ios": "https://dc.lft.to/lastmile_qr_scan"}, "is_disabled": 0, "fusion_lat": 0.0, "name": "b0d3b1985d650193e21d65eec9ffbc43", "fusion_lon": 0.0}, {"is_reserved": 0, "type": "electric_scooter", "bike_id": "e1b0ae91bf9bd7d91845a4249ebb55d7", "lat": 38.94181066666667, "lon": -77.02530383333334, "rental_uris": {"android": "https://dc.lft.to/lastmile_qr_scan", "ios": "https://dc.lft.to/lastmile_qr_scan"}, "is_disabled": 0, "fusion_lat": 0.0, "name": "e1b0ae91bf9bd7d91845a4249ebb55d7", "fusion_lon": 0.0}, {"is_reserved": 0, "type": "electric_bike", "bike_id": "b49366f13b810a7c1068a64df588e41e", "lat": 38.89593166666667, "lon": -76.90687966666667, "rental_uris": {"android": "https://dc.lft.to/lastmile_qr_scan", "ios": "https://dc.lft.to/lastmile_qr_scan"}, "is_disabled": 0, "fusion_lat": 0.0, "name": "b49366f13b810a7c1068a64df588e41e", "fusion_lon": 0.0}, {"is_reserved": 0, "type": "electric_scooter", "bike_id": "d97430b99bfa8d15a6e8d176e78e5c93", "lat": 38.887743666666665, "lon": -76.93257766666666, "rental_uris": {"android": "https://dc.lft.to/lastmile_qr_scan", "ios": "https://dc.lft.to/lastmile_qr_scan"}, "is_disabled": 0, "fusion_lat": 0.0, "name": "d97430b99bfa8d15a6e8d176e78e5c93", "fusion_lon": 0.0}, {"is_reserved": 0, "type": "electric_scooter", "bike_id": "64e372a7a5eaa18884c33b92b54544c5", "lat": 38.881197, "lon": -77.01975433333334, "rental_uris": {"android": "https://dc.lft.to/lastmile_qr_scan", "ios": "https://dc.lft.to/lastmile_qr_scan"}, "is_disabled": 0, "fusion_lat": 0.0, "name": "64e372a7a5eaa18884c33b92b54544c5", "fusion_lon": 0.0}, {"is_reserved": 0, "type": "electric_scooter", "bike_id": "7c09ad4c58baf3c940fa4a557282a77f", "lat": 38.92142333333334, "lon": -77.044864, "rental_uris": {"android": "https://dc.lft.to/lastmile_qr_scan", "ios": "https://dc.lft.to/lastmile_qr_scan"}, "is_disabled": 0, "fusion_lat": 0.0, "name": "7c09ad4c58baf3c940fa4a557282a77f", "fusion_lon": 0.0}, {"is_reserved": 0, "type": "electric_scooter", "bike_id": "598cc27f84da041481fdcc69f13c2812", "lat": 38.905646, "lon": -77.01849716666666, "rental_uris": {"android": "https://dc.lft.to/lastmile_qr_scan", "ios": "https://dc.lft.to/lastmile_qr_scan"}, "is_disabled": 0, "fusion_lat": 0.0, "name": "598cc27f84da041481fdcc69f13c2812", "fusion_lon": 0.0}, {"is_reserved": 0, "type": "electric_scooter", "bike_id": "b75e28952b69f673481e2aeaee409ba1", "lat": 38.89583866666667, "lon": -77.02171133333333, "rental_uris": {"android": "https://dc.lft.to/lastmile_qr_scan", "ios": "https://dc.lft.to/lastmile_qr_scan"}, "is_disabled": 0, "fusion_lat": 0.0, "name": "b75e28952b69f673481e2aeaee409ba1", "fusion_lon": 0.0}, {"is_reserved": 0, "type": "electric_bike", "bike_id": "7a290ba7655b064c58b729d88b5b5f2f", "lat": 38.867522666666666, "lon": -76.94528533333333, "rental_uris": {"android": "https://dc.lft.to/lastmile_qr_scan", "ios": "https://dc.lft.to/lastmile_qr_scan"}, "is_disabled": 0, "fusion_lat": 0.0, "name": "7a290ba7655b064c58b729d88b5b5f2f", "fusion_lon": 0.0}, {"is_reserved": 0, "type": "electric_bike", "bike_id": "0f3a2bf1a6525adf25e2f8422b15cfad", "lat": 38.9186055, "lon": -76.96089133333334, "rental_uris": {"android": "https://dc.lft.to/lastmile_qr_scan", "ios": "https://dc.lft.to/lastmile_qr_scan"}, "is_disabled": 0, "fusion_lat": 0.0, "name": "0f3a2bf1a6525adf25e2f8422b15cfad", "fusion_lon": 0.0}, {"is_reserved": 0, "type": "electric_scooter", "bike_id": "0be00c60a0c53d187559451d2468fda1", "lat": 38.90602066666667, "lon": -77.05699666666666, "rental_uris": {"android": "https://dc.lft.to/lastmile_qr_scan", "ios": "https://dc.lft.to/lastmile_qr_scan"}, "is_disabled": 0, "fusion_lat": 0.0, "name": "0be00c60a0c53d187559451d2468fda1", "fusion_lon": 0.0}, {"is_reserved": 0, "type": "electric_scooter", "bike_id": "b7d8ed2e9fc37c5ed82f309363493238", "lat": 38.90246066666667, "lon": -77.020754, "rental_uris": {"android": "https://dc.lft.to/lastmile_qr_scan", "ios": "https://dc.lft.to/lastmile_qr_scan"}, "is_disabled": 0, "fusion_lat": 0.0, "name": "b7d8ed2e9fc37c5ed82f309363493238", "fusion_lon": 0.0}, {"is_reserved": 0, "type": "electric_scooter", "bike_id": "853d4b0e4626a2f3e245dacc74517daa", "lat": 38.926951333333335, "lon": -77.022933, "rental_uris": {"android": "https://dc.lft.to/lastmile_qr_scan", "ios": "https://dc.lft.to/lastmile_qr_scan"}, "is_disabled": 0, "fusion_lat": 0.0, "name": "853d4b0e4626a2f3e245dacc74517daa", "fusion_lon": 0.0}, {"is_reserved": 0, "type": "electric_scooter", "bike_id": "7f49c1877b6213cd65c6c6a7f8144e94", "lat": 38.91507766666667, "lon": -77.003393, "rental_uris": {"android": "https://dc.lft.to/lastmile_qr_scan", "ios": "https://dc.lft.to/lastmile_qr_scan"}, "is_disabled": 0, "fusion_lat": 0.0, "name": "7f49c1877b6213cd65c6c6a7f8144e94", "fusion_lon": 0.0}, {"is_reserved": 0, "type": "electric_scooter", "bike_id": "534e23804be3dd534cbefc1133b62193", "lat": 38.9207115, "lon": -77.02210166666667, "rental_uris": {"android": "https://dc.lft.to/lastmile_qr_scan", "ios": "https://dc.lft.to/lastmile_qr_scan"}, "is_disabled": 0, "fusion_lat": 0.0, "name": "534e23804be3dd534cbefc1133b62193", "fusion_lon": 0.0}, {"is_reserved": 0, "type": "electric_scooter", "bike_id": "01659dea3aa0f715e85b511ec5338cdc", "lat": 38.899699, "lon": -77.0263945, "rental_uris": {"android": "https://dc.lft.to/lastmile_qr_scan", "ios": "https://dc.lft.to/lastmile_qr_scan"}, "is_disabled": 0, "fusion_lat": 0.0, "name": "01659dea3aa0f715e85b511ec5338cdc", "fusion_lon": 0.0}, {"is_reserved": 0, "type": "electric_scooter", "bike_id": "315406aa86a995ec2d32f2ad1f909584", "lat": 38.918055333333335, "lon": -77.02495283333333, "rental_uris": {"android": "https://dc.lft.to/lastmile_qr_scan", "ios": "https://dc.lft.to/lastmile_qr_scan"}, "is_disabled": 0, "fusion_lat": 0.0, "name": "315406aa86a995ec2d32f2ad1f909584", "fusion_lon": 0.0}, {"is_reserved": 0, "type": "electric_scooter", "bike_id": "28355c75f2b22ce9f4b97010b4fee4aa", "lat": 38.94181783333333, "lon": -77.02527816666667, "rental_uris": {"android": "https://dc.lft.to/lastmile_qr_scan", "ios": "https://dc.lft.to/lastmile_qr_scan"}, "is_disabled": 0, "fusion_lat": 0.0, "name": "28355c75f2b22ce9f4b97010b4fee4aa", "fusion_lon": 0.0}, {"is_reserved": 0, "type": "electric_scooter", "bike_id": "bad64067b0673002cb8cd34c41b74a1a", "lat": 38.9204015, "lon": -77.03408233333333, "rental_uris": {"android": "https://dc.lft.to/lastmile_qr_scan", "ios": "https://dc.lft.to/lastmile_qr_scan"}, "is_disabled": 0, "fusion_lat": 0.0, "name": "bad64067b0673002cb8cd34c41b74a1a", "fusion_lon": 0.0}, {"is_reserved": 0, "type": "electric_scooter", "bike_id": "b5ba530a3533381df84b62c289c67548", "lat": 38.935258166666664, "lon": -77.01940433333333, "rental_uris": {"android": "https://dc.lft.to/lastmile_qr_scan", "ios": "https://dc.lft.to/lastmile_qr_scan"}, "is_disabled": 0, "fusion_lat": 0.0, "name": "b5ba530a3533381df84b62c289c67548", "fusion_lon": 0.0}, {"is_reserved": 0, "type": "electric_scooter", "bike_id": "30cca3cc164ce03656a3d8b81728d4f7", "lat": 38.8713505, "lon": -77.01354683333334, "rental_uris": {"android": "https://dc.lft.to/lastmile_qr_scan", "ios": "https://dc.lft.to/lastmile_qr_scan"}, "is_disabled": 0, "fusion_lat": 0.0, "name": "30cca3cc164ce03656a3d8b81728d4f7", "fusion_lon": 0.0}, {"is_reserved": 0, "type": "electric_scooter", "bike_id": "e7ca030e7176ec92f49066455231e0f1", "lat": 38.9126785, "lon": -77.03512116666667, "rental_uris": {"android": "https://dc.lft.to/lastmile_qr_scan", "ios": "https://dc.lft.to/lastmile_qr_scan"}, "is_disabled": 0, "fusion_lat": 0.0, "name": "e7ca030e7176ec92f49066455231e0f1", "fusion_lon": 0.0}, {"is_reserved": 0, "type": "electric_scooter", "bike_id": "9dfd018d222a811590632f0b24c49574", "lat": 38.89950983333333, "lon": -76.97906866666666, "rental_uris": {"android": "https://dc.lft.to/lastmile_qr_scan", "ios": "https://dc.lft.to/lastmile_qr_scan"}, "is_disabled": 0, "fusion_lat": 0.0, "name": "9dfd018d222a811590632f0b24c49574", "fusion_lon": 0.0}, {"is_reserved": 0, "type": "electric_scooter", "bike_id": "7111c8204d4ca09c46539e30c6554cf0", "lat": 38.911748333333335, "lon": -77.03863383333334, "rental_uris": {"android": "https://dc.lft.to/lastmile_qr_scan", "ios": "https://dc.lft.to/lastmile_qr_scan"}, "is_disabled": 0, "fusion_lat": 0.0, "name": "7111c8204d4ca09c46539e30c6554cf0", "fusion_lon": 0.0}, {"is_reserved": 0, "type": "electric_scooter", "bike_id": "a9af336a1286bc5dd62ff7f6cd65d58e", "lat": 38.90694, "lon": -76.98352816666667, "rental_uris": {"android": "https://dc.lft.to/lastmile_qr_scan", "ios": "https://dc.lft.to/lastmile_qr_scan"}, "is_disabled": 0, "fusion_lat": 0.0, "name": "a9af336a1286bc5dd62ff7f6cd65d58e", "fusion_lon": 0.0}, {"is_reserved": 0, "type": "electric_scooter", "bike_id": "087df55fc78987cdc8880904e13c32ec", "lat": 38.9203625, "lon": -77.0313305, "rental_uris": {"android": "https://dc.lft.to/lastmile_qr_scan", "ios": "https://dc.lft.to/lastmile_qr_scan"}, "is_disabled": 0, "fusion_lat": 0.0, "name": "087df55fc78987cdc8880904e13c32ec", "fusion_lon": 0.0}, {"is_reserved": 0, "type": "electric_scooter", "bike_id": "c6db2e311d321bdb09a99dab81f19538", "lat": 38.873711666666665, "lon": -77.00088383333333, "rental_uris": {"android": "https://dc.lft.to/lastmile_qr_scan", "ios": "https://dc.lft.to/lastmile_qr_scan"}, "is_disabled": 0, "fusion_lat": 0.0, "name": "c6db2e311d321bdb09a99dab81f19538", "fusion_lon": 0.0}, {"is_reserved": 0, "type": "electric_bike", "bike_id": "0894442cc1f9301f586a60b60042ec66", "lat": 39.04230183333333, "lon": -76.9973495, "rental_uris": {"android": "https://dc.lft.to/lastmile_qr_scan", "ios": "https://dc.lft.to/lastmile_qr_scan"}, "is_disabled": 0, "fusion_lat": 0.0, "name": "0894442cc1f9301f586a60b60042ec66", "fusion_lon": 0.0}, {"is_reserved": 0, "type": "electric_bike", "bike_id": "9fb0ce5481ab2010b88b039f0c298a57", "lat": 38.973392, "lon": -76.99593283333333, "rental_uris": {"android": "https://dc.lft.to/lastmile_qr_scan", "ios": "https://dc.lft.to/lastmile_qr_scan"}, "is_disabled": 0, "fusion_lat": 0.0, "name": "9fb0ce5481ab2010b88b039f0c298a57", "fusion_lon": 0.0}, {"is_reserved": 0, "type": "electric_scooter", "bike_id": "6f026bb28c78ce19984a4399d595b146", "lat": 38.89503916666666, "lon": -76.93475116666667, "rental_uris": {"android": "https://dc.lft.to/lastmile_qr_scan", "ios": "https://dc.lft.to/lastmile_qr_scan"}, "is_disabled": 0, "fusion_lat": 0.0, "name": "6f026bb28c78ce19984a4399d595b146", "fusion_lon": 0.0}, {"is_reserved": 0, "type": "electric_scooter", "bike_id": "71bd68d8883794cdcbc5f8a34a638203", "lat": 38.91129866666667, "lon": -76.98460716666666, "rental_uris": {"android": "https://dc.lft.to/lastmile_qr_scan", "ios": "https://dc.lft.to/lastmile_qr_scan"}, "is_disabled": 0, "fusion_lat": 0.0, "name": "71bd68d8883794cdcbc5f8a34a638203", "fusion_lon": 0.0}, {"is_reserved": 0, "type": "electric_scooter", "bike_id": "cdb218738f8c15fd6eec7b0554d87fb1", "lat": 38.91830183333333, "lon": -77.022892, "rental_uris": {"android": "https://dc.lft.to/lastmile_qr_scan", "ios": "https://dc.lft.to/lastmile_qr_scan"}, "is_disabled": 0, "fusion_lat": 0.0, "name": "cdb218738f8c15fd6eec7b0554d87fb1", "fusion_lon": 0.0}, {"is_reserved": 0, "type": "electric_scooter", "bike_id": "645bb39097c09596d4cf516f57c8e169", "lat": 38.93248066666666, "lon": -77.0385, "rental_uris": {"android": "https://dc.lft.to/lastmile_qr_scan", "ios": "https://dc.lft.to/lastmile_qr_scan"}, "is_disabled": 0, "fusion_lat": 0.0, "name": "645bb39097c09596d4cf516f57c8e169", "fusion_lon": 0.0}, {"is_reserved": 0, "type": "electric_scooter", "bike_id": "105a4363007c77ccd82d16015975f709", "lat": 38.89942583333333, "lon": -77.02567616666667, "rental_uris": {"android": "https://dc.lft.to/lastmile_qr_scan", "ios": "https://dc.lft.to/lastmile_qr_scan"}, "is_disabled": 0, "fusion_lat": 0.0, "name": "105a4363007c77ccd82d16015975f709", "fusion_lon": 0.0}, {"is_reserved": 0, "type": "electric_scooter", "bike_id": "2dac209cc1f7900e497c3ab32d2e75a6", "lat": 38.9008195, "lon": -76.9800895, "rental_uris": {"android": "https://dc.lft.to/lastmile_qr_scan", "ios": "https://dc.lft.to/lastmile_qr_scan"}, "is_disabled": 0, "fusion_lat": 0.0, "name": "2dac209cc1f7900e497c3ab32d2e75a6", "fusion_lon": 0.0}, {"is_reserved": 0, "type": "electric_scooter", "bike_id": "5a9719193f970fea461dcf19aa342acb", "lat": 38.89272283333333, "lon": -76.92996866666667, "rental_uris": {"android": "https://dc.lft.to/lastmile_qr_scan", "ios": "https://dc.lft.to/lastmile_qr_scan"}, "is_disabled": 0, "fusion_lat": 0.0, "name": "5a9719193f970fea461dcf19aa342acb", "fusion_lon": 0.0}, {"is_reserved": 0, "type": "electric_scooter", "bike_id": "63091dab46db26370b8b1d378639b2c1", "lat": 38.91483616666667, "lon": -77.00231683333334, "rental_uris": {"android": "https://dc.lft.to/lastmile_qr_scan", "ios": "https://dc.lft.to/lastmile_qr_scan"}, "is_disabled": 0, "fusion_lat": 0.0, "name": "63091dab46db26370b8b1d378639b2c1", "fusion_lon": 0.0}, {"is_reserved": 0, "type": "electric_scooter", "bike_id": "dd63ea6fa59f2f9879e2bc0394c539e5", "lat": 38.9002465, "lon": -77.00201783333333, "rental_uris": {"android": "https://dc.lft.to/lastmile_qr_scan", "ios": "https://dc.lft.to/lastmile_qr_scan"}, "is_disabled": 0, "fusion_lat": 0.0, "name": "dd63ea6fa59f2f9879e2bc0394c539e5", "fusion_lon": 0.0}, {"is_reserved": 0, "type": "electric_scooter", "bike_id": "368ba3c7820d202225d7b65a03cdeb9f", "lat": 38.90365383333334, "lon": -77.02574966666667, "rental_uris": {"android": "https://dc.lft.to/lastmile_qr_scan", "ios": "https://dc.lft.to/lastmile_qr_scan"}, "is_disabled": 0, "fusion_lat": 0.0, "name": "368ba3c7820d202225d7b65a03cdeb9f", "fusion_lon": 0.0}, {"is_reserved": 0, "type": "electric_scooter", "bike_id": "c3002415bf143340492fd237b63168e4", "lat": 38.89618466666667, "lon": -76.97680216666667, "rental_uris": {"android": "https://dc.lft.to/lastmile_qr_scan", "ios": "https://dc.lft.to/lastmile_qr_scan"}, "is_disabled": 0, "fusion_lat": 0.0, "name": "c3002415bf143340492fd237b63168e4", "fusion_lon": 0.0}, {"is_reserved": 0, "type": "electric_scooter", "bike_id": "0150ebd1c5e5e6347814db9cb0f7092c", "lat": 38.896677833333335, "lon": -76.93210833333333, "rental_uris": {"android": "https://dc.lft.to/lastmile_qr_scan", "ios": "https://dc.lft.to/lastmile_qr_scan"}, "is_disabled": 0, "fusion_lat": 0.0, "name": "0150ebd1c5e5e6347814db9cb0f7092c", "fusion_lon": 0.0}, {"is_reserved": 0, "type": "electric_scooter", "bike_id": "9aa2caec0bf93d7acc17f5e16561d70c", "lat": 38.920143333333336, "lon": -77.03160016666666, "rental_uris": {"android": "https://dc.lft.to/lastmile_qr_scan", "ios": "https://dc.lft.to/lastmile_qr_scan"}, "is_disabled": 0, "fusion_lat": 0.0, "name": "9aa2caec0bf93d7acc17f5e16561d70c", "fusion_lon": 0.0}, {"is_reserved": 0, "type": "electric_scooter", "bike_id": "1107e6ae0f12e3d3eebb892c8b3a1609", "lat": 38.883942166666664, "lon": -76.93041183333334, "rental_uris": {"android": "https://dc.lft.to/lastmile_qr_scan", "ios": "https://dc.lft.to/lastmile_qr_scan"}, "is_disabled": 0, "fusion_lat": 0.0, "name": "1107e6ae0f12e3d3eebb892c8b3a1609", "fusion_lon": 0.0}, {"is_reserved": 0, "type": "electric_scooter", "bike_id": "a15f4342dbb346348a0aaa39eb848c5b", "lat": 38.925759666666664, "lon": -76.9950295, "rental_uris": {"android": "https://dc.lft.to/lastmile_qr_scan", "ios": "https://dc.lft.to/lastmile_qr_scan"}, "is_disabled": 0, "fusion_lat": 0.0, "name": "a15f4342dbb346348a0aaa39eb848c5b", "fusion_lon": 0.0}, {"is_reserved": 0, "type": "electric_scooter", "bike_id": "337e4c145f698fd059c407e4f25c4c12", "lat": 38.9165605, "lon": -77.02277666666667, "rental_uris": {"android": "https://dc.lft.to/lastmile_qr_scan", "ios": "https://dc.lft.to/lastmile_qr_scan"}, "is_disabled": 0, "fusion_lat": 0.0, "name": "337e4c145f698fd059c407e4f25c4c12", "fusion_lon": 0.0}, {"is_reserved": 0, "type": "electric_scooter", "bike_id": "854bc606ccc85a11a998befc82f2e2dc", "lat": 38.923167666666664, "lon": -77.04127066666666, "rental_uris": {"android": "https://dc.lft.to/lastmile_qr_scan", "ios": "https://dc.lft.to/lastmile_qr_scan"}, "is_disabled": 0, "fusion_lat": 0.0, "name": "854bc606ccc85a11a998befc82f2e2dc", "fusion_lon": 0.0}, {"is_reserved": 0, "type": "electric_scooter", "bike_id": "ef403090b08d760792673ee8e4641fa6", "lat": 38.91265083333333, "lon": -77.03718516666666, "rental_uris": {"android": "https://dc.lft.to/lastmile_qr_scan", "ios": "https://dc.lft.to/lastmile_qr_scan"}, "is_disabled": 0, "fusion_lat": 0.0, "name": "ef403090b08d760792673ee8e4641fa6", "fusion_lon": 0.0}, {"is_reserved": 0, "type": "electric_bike", "bike_id": "32f3484ee6464c59013e275c072860b0", "lat": 38.882456, "lon": -76.96256483333333, "rental_uris": {"android": "https://dc.lft.to/lastmile_qr_scan", "ios": "https://dc.lft.to/lastmile_qr_scan"}, "is_disabled": 0, "fusion_lat": 0.0, "name": "32f3484ee6464c59013e275c072860b0", "fusion_lon": 0.0}, {"is_reserved": 0, "type": "electric_scooter", "bike_id": "20eb2f3e9fd2b955162e3fe523e2737a", "lat": 38.889866833333336, "lon": -77.0007055, "rental_uris": {"android": "https://dc.lft.to/lastmile_qr_scan", "ios": "https://dc.lft.to/lastmile_qr_scan"}, "is_disabled": 0, "fusion_lat": 0.0, "name": "20eb2f3e9fd2b955162e3fe523e2737a", "fusion_lon": 0.0}, {"is_reserved": 0, "type": "electric_bike", "bike_id": "82d040e5330c06efef78d89e19f3974b", "lat": 38.918549, "lon": -76.96085616666667, "rental_uris": {"android": "https://dc.lft.to/lastmile_qr_scan", "ios": "https://dc.lft.to/lastmile_qr_scan"}, "is_disabled": 0, "fusion_lat": 0.0, "name": "82d040e5330c06efef78d89e19f3974b", "fusion_lon": 0.0}, {"is_reserved": 0, "type": "electric_scooter", "bike_id": "c1d684d9045bdfb503edfb84b1e2dff7", "lat": 38.904079833333334, "lon": -77.06773333333334, "rental_uris": {"android": "https://dc.lft.to/lastmile_qr_scan", "ios": "https://dc.lft.to/lastmile_qr_scan"}, "is_disabled": 0, "fusion_lat": 0.0, "name": "c1d684d9045bdfb503edfb84b1e2dff7", "fusion_lon": 0.0}, {"is_reserved": 0, "type": "electric_scooter", "bike_id": "420975d762fc97962036cf9707ee4abd", "lat": 38.92091466666667, "lon": -77.01372483333333, "rental_uris": {"android": "https://dc.lft.to/lastmile_qr_scan", "ios": "https://dc.lft.to/lastmile_qr_scan"}, "is_disabled": 0, "fusion_lat": 0.0, "name": "420975d762fc97962036cf9707ee4abd", "fusion_lon": 0.0}, {"is_reserved": 0, "type": "electric_scooter", "bike_id": "108fab36f880f460bdad894311d031f1", "lat": 38.890115333333334, "lon": -77.03320783333334, "rental_uris": {"android": "https://dc.lft.to/lastmile_qr_scan", "ios": "https://dc.lft.to/lastmile_qr_scan"}, "is_disabled": 0, "fusion_lat": 0.0, "name": "108fab36f880f460bdad894311d031f1", "fusion_lon": 0.0}, {"is_reserved": 0, "type": "electric_bike", "bike_id": "1625cc828f94ab4e95d65ebbf3f9a24f", "lat": 38.84049816666667, "lon": -77.05597483333334, "rental_uris": {"android": "https://dc.lft.to/lastmile_qr_scan", "ios": "https://dc.lft.to/lastmile_qr_scan"}, "is_disabled": 0, "fusion_lat": 0.0, "name": "1625cc828f94ab4e95d65ebbf3f9a24f", "fusion_lon": 0.0}, {"is_reserved": 0, "type": "electric_scooter", "bike_id": "e3f2de79407f45cd506ba135f22a1dfb", "lat": 38.89607616666667, "lon": -77.02269616666666, "rental_uris": {"android": "https://dc.lft.to/lastmile_qr_scan", "ios": "https://dc.lft.to/lastmile_qr_scan"}, "is_disabled": 0, "fusion_lat": 0.0, "name": "e3f2de79407f45cd506ba135f22a1dfb", "fusion_lon": 0.0}, {"is_reserved": 0, "type": "electric_scooter", "bike_id": "4a624d55e41ddf93308f8bd85f682a08", "lat": 38.92585366666667, "lon": -77.01218466666667, "rental_uris": {"android": "https://dc.lft.to/lastmile_qr_scan", "ios": "https://dc.lft.to/lastmile_qr_scan"}, "is_disabled": 0, "fusion_lat": 0.0, "name": "4a624d55e41ddf93308f8bd85f682a08", "fusion_lon": 0.0}, {"is_reserved": 0, "type": "electric_scooter", "bike_id": "79f4f80774e07a8eeb1220a876bbff72", "lat": 38.92065366666667, "lon": -77.04193733333334, "rental_uris": {"android": "https://dc.lft.to/lastmile_qr_scan", "ios": "https://dc.lft.to/lastmile_qr_scan"}, "is_disabled": 0, "fusion_lat": 0.0, "name": "79f4f80774e07a8eeb1220a876bbff72", "fusion_lon": 0.0}, {"is_reserved": 0, "type": "electric_scooter", "bike_id": "812ed32449c1487ecc17aa4a9f07fe67", "lat": 38.905116666666665, "lon": -77.06768516666666, "rental_uris": {"android": "https://dc.lft.to/lastmile_qr_scan", "ios": "https://dc.lft.to/lastmile_qr_scan"}, "is_disabled": 0, "fusion_lat": 0.0, "name": "812ed32449c1487ecc17aa4a9f07fe67", "fusion_lon": 0.0}, {"is_reserved": 0, "type": "electric_bike", "bike_id": "befa4e86eb8fd342d595c69fee38f808", "lat": 38.99514216666667, "lon": -77.02900033333333, "rental_uris": {"android": "https://dc.lft.to/lastmile_qr_scan", "ios": "https://dc.lft.to/lastmile_qr_scan"}, "is_disabled": 0, "fusion_lat": 0.0, "name": "befa4e86eb8fd342d595c69fee38f808", "fusion_lon": 0.0}, {"is_reserved": 0, "type": "electric_scooter", "bike_id": "53da0455c7d6e71aa95c9d3122f51456", "lat": 38.899328, "lon": -77.03204016666666, "rental_uris": {"android": "https://dc.lft.to/lastmile_qr_scan", "ios": "https://dc.lft.to/lastmile_qr_scan"}, "is_disabled": 0, "fusion_lat": 0.0, "name": "53da0455c7d6e71aa95c9d3122f51456", "fusion_lon": 0.0}, {"is_reserved": 0, "type": "electric_scooter", "bike_id": "d038d082436265d050476bffeeba5359", "lat": 38.918416, "lon": -77.035186, "rental_uris": {"android": "https://dc.lft.to/lastmile_qr_scan", "ios": "https://dc.lft.to/lastmile_qr_scan"}, "is_disabled": 0, "fusion_lat": 0.0, "name": "d038d082436265d050476bffeeba5359", "fusion_lon": 0.0}, {"is_reserved": 0, "type": "electric_scooter", "bike_id": "56e4cb45c953be790acd19096e07b1b9", "lat": 38.92362883333333, "lon": -77.036538, "rental_uris": {"android": "https://dc.lft.to/lastmile_qr_scan", "ios": "https://dc.lft.to/lastmile_qr_scan"}, "is_disabled": 0, "fusion_lat": 0.0, "name": "56e4cb45c953be790acd19096e07b1b9", "fusion_lon": 0.0}, {"is_reserved": 0, "type": "electric_scooter", "bike_id": "93d8654a74b20750e0ce6852440c4c6c", "lat": 38.9177785, "lon": -77.024105, "rental_uris": {"android": "https://dc.lft.to/lastmile_qr_scan", "ios": "https://dc.lft.to/lastmile_qr_scan"}, "is_disabled": 0, "fusion_lat": 0.0, "name": "93d8654a74b20750e0ce6852440c4c6c", "fusion_lon": 0.0}, {"is_reserved": 0, "type": "electric_scooter", "bike_id": "3cb5a43353d82a54ed79f2da49caaeb8", "lat": 38.90838883333333, "lon": -76.99195633333333, "rental_uris": {"android": "https://dc.lft.to/lastmile_qr_scan", "ios": "https://dc.lft.to/lastmile_qr_scan"}, "is_disabled": 0, "fusion_lat": 0.0, "name": "3cb5a43353d82a54ed79f2da49caaeb8", "fusion_lon": 0.0}, {"is_reserved": 0, "type": "electric_scooter", "bike_id": "10a4575670a9904708a219f89af7c936", "lat": 38.88989466666666, "lon": -76.99295566666666, "rental_uris": {"android": "https://dc.lft.to/lastmile_qr_scan", "ios": "https://dc.lft.to/lastmile_qr_scan"}, "is_disabled": 0, "fusion_lat": 0.0, "name": "10a4575670a9904708a219f89af7c936", "fusion_lon": 0.0}, {"is_reserved": 0, "type": "electric_scooter", "bike_id": "0bc839e4dcc2e0ffea78d17fc79608d4", "lat": 38.921090166666666, "lon": -77.03183116666666, "rental_uris": {"android": "https://dc.lft.to/lastmile_qr_scan", "ios": "https://dc.lft.to/lastmile_qr_scan"}, "is_disabled": 0, "fusion_lat": 0.0, "name": "0bc839e4dcc2e0ffea78d17fc79608d4", "fusion_lon": 0.0}, {"is_reserved": 0, "type": "electric_scooter", "bike_id": "c9b5f70412b751501d574e3c8bd18205", "lat": 38.915916333333335, "lon": -77.041676, "rental_uris": {"android": "https://dc.lft.to/lastmile_qr_scan", "ios": "https://dc.lft.to/lastmile_qr_scan"}, "is_disabled": 0, "fusion_lat": 0.0, "name": "c9b5f70412b751501d574e3c8bd18205", "fusion_lon": 0.0}, {"is_reserved": 0, "type": "electric_scooter", "bike_id": "7d2bbdcbaf4e313ecd0405a57ec2c01c", "lat": 38.882824166666666, "lon": -76.9948555, "rental_uris": {"android": "https://dc.lft.to/lastmile_qr_scan", "ios": "https://dc.lft.to/lastmile_qr_scan"}, "is_disabled": 0, "fusion_lat": 0.0, "name": "7d2bbdcbaf4e313ecd0405a57ec2c01c", "fusion_lon": 0.0}, {"is_reserved": 0, "type": "electric_bike", "bike_id": "103ecf77b8a982ea88d7c6ea20063e15", "lat": 38.94537416666667, "lon": -77.3446425, "rental_uris": {"android": "https://dc.lft.to/lastmile_qr_scan", "ios": "https://dc.lft.to/lastmile_qr_scan"}, "is_disabled": 0, "fusion_lat": 0.0, "name": "103ecf77b8a982ea88d7c6ea20063e15", "fusion_lon": 0.0}, {"is_reserved": 0, "type": "electric_bike", "bike_id": "61faeaeac385cc279215bcd23b85d398", "lat": 38.830479, "lon": -77.01249516666667, "rental_uris": {"android": "https://dc.lft.to/lastmile_qr_scan", "ios": "https://dc.lft.to/lastmile_qr_scan"}, "is_disabled": 0, "fusion_lat": 0.0, "name": "61faeaeac385cc279215bcd23b85d398", "fusion_lon": 0.0}, {"is_reserved": 0, "type": "electric_bike", "bike_id": "5824d858e3ab263dbdefd47d5d75bc98", "lat": 39.08432916666667, "lon": -76.951464, "rental_uris": {"android": "https://dc.lft.to/lastmile_qr_scan", "ios": "https://dc.lft.to/lastmile_qr_scan"}, "is_disabled": 0, "fusion_lat": 0.0, "name": "5824d858e3ab263dbdefd47d5d75bc98", "fusion_lon": 0.0}, {"is_reserved": 0, "type": "electric_scooter", "bike_id": "047b5cabdedb3b613b900ae35c6cd4d7", "lat": 38.912567833333334, "lon": -77.02510166666667, "rental_uris": {"android": "https://dc.lft.to/lastmile_qr_scan", "ios": "https://dc.lft.to/lastmile_qr_scan"}, "is_disabled": 0, "fusion_lat": 0.0, "name": "047b5cabdedb3b613b900ae35c6cd4d7", "fusion_lon": 0.0}, {"is_reserved": 0, "type": "electric_scooter", "bike_id": "de6d1e960e9c8ba5381b25baa5ff219f", "lat": 38.900881166666665, "lon": -77.02564083333333, "rental_uris": {"android": "https://dc.lft.to/lastmile_qr_scan", "ios": "https://dc.lft.to/lastmile_qr_scan"}, "is_disabled": 0, "fusion_lat": 0.0, "name": "de6d1e960e9c8ba5381b25baa5ff219f", "fusion_lon": 0.0}, {"is_reserved": 0, "type": "electric_scooter", "bike_id": "f90502756ca557d5b6fd7360520affbc", "lat": 38.900267166666666, "lon": -76.98764416666667, "rental_uris": {"android": "https://dc.lft.to/lastmile_qr_scan", "ios": "https://dc.lft.to/lastmile_qr_scan"}, "is_disabled": 0, "fusion_lat": 0.0, "name": "f90502756ca557d5b6fd7360520affbc", "fusion_lon": 0.0}, {"is_reserved": 0, "type": "electric_scooter", "bike_id": "19906e1a385eb6576909b72fe36595ac", "lat": 38.92334616666667, "lon": -77.01901466666666, "rental_uris": {"android": "https://dc.lft.to/lastmile_qr_scan", "ios": "https://dc.lft.to/lastmile_qr_scan"}, "is_disabled": 0, "fusion_lat": 0.0, "name": "19906e1a385eb6576909b72fe36595ac", "fusion_lon": 0.0}, {"is_reserved": 0, "type": "electric_scooter", "bike_id": "2b5f652f70919560ce80a9cd5786a407", "lat": 38.924817, "lon": -77.02140483333334, "rental_uris": {"android": "https://dc.lft.to/lastmile_qr_scan", "ios": "https://dc.lft.to/lastmile_qr_scan"}, "is_disabled": 0, "fusion_lat": 0.0, "name": "2b5f652f70919560ce80a9cd5786a407", "fusion_lon": 0.0}, {"is_reserved": 0, "type": "electric_scooter", "bike_id": "47624d7ad2f733833fb0b977b0f91bbb", "lat": 38.90513, "lon": -77.00214116666666, "rental_uris": {"android": "https://dc.lft.to/lastmile_qr_scan", "ios": "https://dc.lft.to/lastmile_qr_scan"}, "is_disabled": 0, "fusion_lat": 0.0, "name": "47624d7ad2f733833fb0b977b0f91bbb", "fusion_lon": 0.0}, {"is_reserved": 0, "type": "electric_scooter", "bike_id": "23ac3210206a26384201ed396f9e1d8a", "lat": 38.892753, "lon": -76.92917083333333, "rental_uris": {"android": "https://dc.lft.to/lastmile_qr_scan", "ios": "https://dc.lft.to/lastmile_qr_scan"}, "is_disabled": 0, "fusion_lat": 0.0, "name": "23ac3210206a26384201ed396f9e1d8a", "fusion_lon": 0.0}, {"is_reserved": 0, "type": "electric_scooter", "bike_id": "983722ddbbbedd4db15b68382ebc4e3f", "lat": 38.91794066666667, "lon": -77.04021816666666, "rental_uris": {"android": "https://dc.lft.to/lastmile_qr_scan", "ios": "https://dc.lft.to/lastmile_qr_scan"}, "is_disabled": 0, "fusion_lat": 0.0, "name": "983722ddbbbedd4db15b68382ebc4e3f", "fusion_lon": 0.0}, {"is_reserved": 0, "type": "electric_scooter", "bike_id": "2bdf5099a3e7655cc3ec3b130fe7f2b0", "lat": 38.87301266666667, "lon": -77.01557683333333, "rental_uris": {"android": "https://dc.lft.to/lastmile_qr_scan", "ios": "https://dc.lft.to/lastmile_qr_scan"}, "is_disabled": 0, "fusion_lat": 0.0, "name": "2bdf5099a3e7655cc3ec3b130fe7f2b0", "fusion_lon": 0.0}, {"is_reserved": 0, "type": "electric_bike", "bike_id": "9e67d807e16a793c4efc595927010170", "lat": 38.903087166666666, "lon": -76.98432066666666, "rental_uris": {"android": "https://dc.lft.to/lastmile_qr_scan", "ios": "https://dc.lft.to/lastmile_qr_scan"}, "is_disabled": 0, "fusion_lat": 0.0, "name": "9e67d807e16a793c4efc595927010170", "fusion_lon": 0.0},