{"data": {"bikes": [{"bike_id": "e2a436098d89f7b1fa76011529358751", "type": "electric_scooter", "is_disabled": 0, "lat": 38.92480416666667, "rental_uris": {"ios": "https://dc.lft.to/lastmile_qr_scan", "android": "https://dc.lft.to/lastmile_qr_scan"}, "is_reserved": 0, "fusion_lon": 0.0, "fusion_lat": 0.0, "lon": -77.02668666666666, "name": "e2a436098d89f7b1fa76011529358751"}, {"bike_id": "c77691cd392ae8588e84cbd4654d4654", "type": "electric_scooter", "is_disabled": 0, "lat": 38.88050116666667, "rental_uris": {"ios": "https://dc.lft.to/lastmile_qr_scan", "android": "https://dc.lft.to/lastmile_qr_scan"}, "is_reserved": 0, "fusion_lon": 0.0, "fusion_lat": 0.0, "lon": -77.00527383333333, "name": "c77691cd392ae8588e84cbd4654d4654"}, {"bike_id": "bd444b209d6e65a67f2fd2f78a37d018", "type": "electric_scooter", "is_disabled": 0, "lat": 38.941994333333334, "rental_uris": {"ios": "https://dc.lft.to/lastmile_qr_scan", "android": "https://dc.lft.to/lastmile_qr_scan"}, "is_reserved": 0, "fusion_lon": 0.0, "fusion_lat": 0.0, "lon": -77.023508, "name": "bd444b209d6e65a67f2fd2f78a37d018"}, {"bike_id": "b247ae53e9c52137fddd4dde50f01c28", "type": "electric_scooter", "is_disabled": 0, "lat": 38.9282405, "rental_uris": {"ios": "https://dc.lft.to/lastmile_qr_scan", "android": "https://dc.lft.to/lastmile_qr_scan"}, "is_reserved": 0, "fusion_lon": 0.0, "fusion_lat": 0.0, "lon": -77.02256333333334, "name": "b247ae53e9c52137fddd4dde50f01c28"}, {"bike_id": "e3a5b819f167a577c570deb3f8d00076", "type": "electric_scooter", "is_disabled": 0, "lat": 38.9071825, "rental_uris": {"ios": "https://dc.lft.to/lastmile_qr_scan", "android": "https://dc.lft.to/lastmile_qr_scan"}, "is_reserved": 0, "fusion_lon": 0.0, "fusion_lat": 0.0, "lon": -77.01466283333333, "name": "e3a5b819f167a577c570deb3f8d00076"}, {"bike_id": "ca25bef9b7ac301214b71f4ee0a1be32", "type": "electric_scooter", "is_disabled": 0, "lat": 38.89176883333333, "rental_uris": {"ios": "https://dc.lft.to/lastmile_qr_scan", "android": "https://dc.lft.to/lastmile_qr_scan"}, "is_reserved": 0, "fusion_lon": 0.0, "fusion_lat": 0.0, "lon": -77.0220305, "name": "ca25bef9b7ac301214b71f4ee0a1be32"}, {"bike_id": "c5263556cfa2cc7988c0977ffae369df", "type": "electric_scooter", "is_disabled": 0, "lat": 38.934652666666665, "rental_uris": {"ios": "https://dc.lft.to/lastmile_qr_scan", "android": "https://dc.lft.to/lastmile_qr_scan"}, "is_reserved": 0, "fusion_lon": 0.0, "fusion_lat": 0.0, "lon": -77.0293405, "name": "c5263556cfa2cc7988c0977ffae369df"}, {"bike_id": "afe1022a5d399073d375f5be0a183c92", "type": "electric_scooter", "is_disabled": 0, "lat": 38.905790833333334, "rental_uris": {"ios": "https://dc.lft.to/lastmile_qr_scan", "android": "https://dc.lft.to/lastmile_qr_scan"}, "is_reserved": 0, "fusion_lon": 0.0, "fusion_lat": 0.0, "lon": -77.02603666666667, "name": "afe1022a5d399073d375f5be0a183c92"}, {"bike_id": "572e2611d8d6b8a8895c164742f44012", "type": "electric_scooter", "is_disabled": 0, "lat": 38.935357333333336, "rental_uris": {"ios": "https://dc.lft.to/lastmile_qr_scan", "android": "https://dc.lft.to/lastmile_qr_scan"}, "is_reserved": 0, "fusion_lon": 0.0, "fusion_lat": 0.0, "lon": -77.02351116666667, "name": "572e2611d8d6b8a8895c164742f44012"}, {"bike_id": "3e91cb1ebb1a18a5a78b8d9d5c8640d3", "type": "electric_scooter", "is_disabled": 0, "lat": 38.91422516666667, "rental_uris": {"ios": "https://dc.lft.to/lastmile_qr_scan", "android": "https://dc.lft.to/lastmile_qr_scan"}, "is_reserved": 0, "fusion_lon": 0.0, "fusion_lat": 0.0, "lon": -77.02286016666666, "name": "3e91cb1ebb1a18a5a78b8d9d5c8640d3"}, {"bike_id": "f344ad2a271199c71f99e3923d4d69fa", "type": "electric_scooter", "is_disabled": 0, "lat": 38.92078933333333, "rental_uris": {"ios": "https://dc.lft.to/lastmile_qr_scan", "android": "https://dc.lft.to/lastmile_qr_scan"}, "is_reserved": 0, "fusion_lon": 0.0, "fusion_lat": 0.0, "lon": -77.02516433333334, "name": "f344ad2a271199c71f99e3923d4d69fa"}, {"bike_id": "ae9698cf4d95bfcdb938f4fd29db237b", "type": "electric_scooter", "is_disabled": 0, "lat": 38.87023583333333, "rental_uris": {"ios": "https://dc.lft.to/lastmile_qr_scan", "android": "https://dc.lft.to/lastmile_qr_scan"}, "is_reserved": 0, "fusion_lon": 0.0, "fusion_lat": 0.0, "lon": -76.98086683333334, "name": "ae9698cf4d95bfcdb938f4fd29db237b"}, {"bike_id": "71204f088638ffffb035a3d6999ea225", "type": "electric_scooter", "is_disabled": 0, "lat": 38.91265816666667, "rental_uris": {"ios": "https://dc.lft.to/lastmile_qr_scan", "android": "https://dc.lft.to/lastmile_qr_scan"}, "is_reserved": 0, "fusion_lon": 0.0, "fusion_lat": 0.0, "lon": -77.00492883333334, "name": "71204f088638ffffb035a3d6999ea225"}, {"bike_id": "e3ffd6fb7fa2a3ee5698353567fb50e0", "type": "electric_scooter", "is_disabled": 0, "lat": 38.935015166666666, "rental_uris": {"ios": "https://dc.lft.to/lastmile_qr_scan", "android": "https://dc.lft.to/lastmile_qr_scan"}, "is_reserved": 0, "fusion_lon": 0.0, "fusion_lat": 0.0, "lon": -77.07398583333334, "name": "e3ffd6fb7fa2a3ee5698353567fb50e0"}, {"bike_id": "0a4653d35358bf2a4d09ffd6e4ca9b63", "type": "electric_scooter", "is_disabled": 0, "lat": 38.8766925, "rental_uris": {"ios": "https://dc.lft.to/lastmile_qr_scan", "android": "https://dc.lft.to/lastmile_qr_scan"}, "is_reserved": 0, "fusion_lon": 0.0, "fusion_lat": 0.0, "lon": -77.00273466666667, "name": "0a4653d35358bf2a4d09ffd6e4ca9b63"}, {"bike_id": "9cfa02de571feb0b73f9e2b489ba59bc", "type": "electric_scooter", "is_disabled": 0, "lat": 38.93087516666667, "rental_uris": {"ios": "https://dc.lft.to/lastmile_qr_scan", "android": "https://dc.lft.to/lastmile_qr_scan"}, "is_reserved": 0, "fusion_lon": 0.0, "fusion_lat": 0.0, "lon": -77.02562183333333, "name": "9cfa02de571feb0b73f9e2b489ba59bc"}, {"bike_id": "5722ae9bc9b4119bec9358a47f94295f", "type": "electric_scooter", "is_disabled": 0, "lat": 38.9260385, "rental_uris": {"ios": "https://dc.lft.to/lastmile_qr_scan", "android": "https://dc.lft.to/lastmile_qr_scan"}, "is_reserved": 0, "fusion_lon": 0.0, "fusion_lat": 0.0, "lon": -77.02155466666666, "name": "5722ae9bc9b4119bec9358a47f94295f"}, {"bike_id": "c4e220e8532e41e89cfa5e8beadbb256", "type": "electric_scooter", "is_disabled": 0, "lat": 38.907363833333335, "rental_uris": {"ios": "https://dc.lft.to/lastmile_qr_scan", "android": "https://dc.lft.to/lastmile_qr_scan"}, "is_reserved": 0, "fusion_lon": 0.0, "fusion_lat": 0.0, "lon": -77.01311016666666, "name": "c4e220e8532e41e89cfa5e8beadbb256"}, {"bike_id": "8ebe3b6eb8e3985c1082d14c83a67d20", "type": "electric_scooter", "is_disabled": 0, "lat": 38.918462, "rental_uris": {"ios": "https://dc.lft.to/lastmile_qr_scan", "android": "https://dc.lft.to/lastmile_qr_scan"}, "is_reserved": 0, "fusion_lon": 0.0, "fusion_lat": 0.0, "lon": -77.0483535, "name": "8ebe3b6eb8e3985c1082d14c83a67d20"}, {"bike_id": "e744ddb3ed36920ba8965670f18a7fea", "type": "electric_scooter", "is_disabled": 0, "lat": 38.8668495, "rental_uris": {"ios": "https://dc.lft.to/lastmile_qr_scan", "android": "https://dc.lft.to/lastmile_qr_scan"}, "is_reserved": 0, "fusion_lon": 0.0, "fusion_lat": 0.0, "lon": -76.98582383333333, "name": "e744ddb3ed36920ba8965670f18a7fea"}, {"bike_id": "6179446eda648e572180479746498a79", "type": "electric_scooter", "is_disabled": 0, "lat": 38.86687283333333, "rental_uris": {"ios": "https://dc.lft.to/lastmile_qr_scan", "android": "https://dc.lft.to/lastmile_qr_scan"}, "is_reserved": 0, "fusion_lon": 0.0, "fusion_lat": 0.0, "lon": -76.98587283333333, "name": "6179446eda648e572180479746498a79"}, {"bike_id": "884a67f991e4e26104c41b1e0ed29485", "type": "electric_scooter", "is_disabled": 0, "lat": 38.91145216666666, "rental_uris": {"ios": "https://dc.lft.to/lastmile_qr_scan", "android": "https://dc.lft.to/lastmile_qr_scan"}, "is_reserved": 0, "fusion_lon": 0.0, "fusion_lat": 0.0, "lon": -77.02801866666667, "name": "884a67f991e4e26104c41b1e0ed29485"}, {"bike_id": "65b9857efc24528a66cafdf983257c95", "type": "electric_scooter", "is_disabled": 0, "lat": 38.9180935, "rental_uris": {"ios": "https://dc.lft.to/lastmile_qr_scan", "android": "https://dc.lft.to/lastmile_qr_scan"}, "is_reserved": 0, "fusion_lon": 0.0, "fusion_lat": 0.0, "lon": -77.0325695, "name": "65b9857efc24528a66cafdf983257c95"}, {"bike_id": "6c5b331b06c46601a626f0074ac06776", "type": "electric_scooter", "is_disabled": 0, "lat": 38.9262025, "rental_uris": {"ios": "https://dc.lft.to/lastmile_qr_scan", "android": "https://dc.lft.to/lastmile_qr_scan"}, "is_reserved": 0, "fusion_lon": 0.0, "fusion_lat": 0.0, "lon": -77.04331533333334, "name": "6c5b331b06c46601a626f0074ac06776"}, {"bike_id": "87e3b5fd9ee6470a7db92ae5f353a7e3", "type": "electric_scooter", "is_disabled": 0, "lat": 38.91332, "rental_uris": {"ios": "https://dc.lft.to/lastmile_qr_scan", "android": "https://dc.lft.to/lastmile_qr_scan"}, "is_reserved": 0, "fusion_lon": 0.0, "fusion_lat": 0.0, "lon": -77.0197875, "name": "87e3b5fd9ee6470a7db92ae5f353a7e3"}, {"bike_id": "65e70f2bde02e3910e44a66c29f2e6e0", "type": "electric_scooter", "is_disabled": 0, "lat": 38.935356666666664, "rental_uris": {"ios": "https://dc.lft.to/lastmile_qr_scan", "android": "https://dc.lft.to/lastmile_qr_scan"}, "is_reserved": 0, "fusion_lon": 0.0, "fusion_lat": 0.0, "lon": -77.03882916666667, "name": "65e70f2bde02e3910e44a66c29f2e6e0"}, {"bike_id": "c3d147a3045fabf582d44d87599bb5d8", "type": "electric_scooter", "is_disabled": 0, "lat": 38.907991, "rental_uris": {"ios": "https://dc.lft.to/lastmile_qr_scan", "android": "https://dc.lft.to/lastmile_qr_scan"}, "is_reserved": 0, "fusion_lon": 0.0, "fusion_lat": 0.0, "lon": -77.0312945, "name": "c3d147a3045fabf582d44d87599bb5d8"}, {"bike_id": "b221213e8f55997fba46cb2e8f762d4f", "type": "electric_scooter", "is_disabled": 0, "lat": 38.910114166666666, "rental_uris": {"ios": "https://dc.lft.to/lastmile_qr_scan", "android": "https://dc.lft.to/lastmile_qr_scan"}, "is_reserved": 0, "fusion_lon": 0.0, "fusion_lat": 0.0, "lon": -77.01620433333333, "name": "b221213e8f55997fba46cb2e8f762d4f"}, {"bike_id": "abea15b27a4ec53e56728550b1291ec9", "type": "electric_scooter", "is_disabled": 0, "lat": 38.914225333333334, "rental_uris": {"ios": "https://dc.lft.to/lastmile_qr_scan", "android": "https://dc.lft.to/lastmile_qr_scan"}, "is_reserved": 0, "fusion_lon": 0.0, "fusion_lat": 0.0, "lon": -77.022875, "name": "abea15b27a4ec53e56728550b1291ec9"}, {"bike_id": "f63eee8a51a06f7f6d8c4c3785995252", "type": "electric_scooter", "is_disabled": 0, "lat": 38.90500316666667, "rental_uris": {"ios": "https://dc.lft.to/lastmile_qr_scan", "android": "https://dc.lft.to/lastmile_qr_scan"}, "is_reserved": 0, "fusion_lon": 0.0, "fusion_lat": 0.0, "lon": -77.0600315, "name": "f63eee8a51a06f7f6d8c4c3785995252"}, {"bike_id": "f0ab7790cb6d70bbb18daa58f4eb7c17", "type": "electric_scooter", "is_disabled": 0, "lat": 38.90189016666667, "rental_uris": {"ios": "https://dc.lft.to/lastmile_qr_scan", "android": "https://dc.lft.to/lastmile_qr_scan"}, "is_reserved": 0, "fusion_lon": 0.0, "fusion_lat": 0.0, "lon": -77.03967483333334, "name": "f0ab7790cb6d70bbb18daa58f4eb7c17"}, {"bike_id": "061ef872adc6ae58347826308adc1f13", "type": "electric_scooter", "is_disabled": 0, "lat": 38.952790666666665, "rental_uris": {"ios": "https://dc.lft.to/lastmile_qr_scan", "android": "https://dc.lft.to/lastmile_qr_scan"}, "is_reserved": 0, "fusion_lon": 0.0, "fusion_lat": 0.0, "lon": -77.06840716666666, "name": "061ef872adc6ae58347826308adc1f13"}, {"bike_id": "9a0acc093be59b28b84f17975c24fde3", "type": "electric_scooter", "is_disabled": 0, "lat": 38.936383, "rental_uris": {"ios": "https://dc.lft.to/lastmile_qr_scan", "android": "https://dc.lft.to/lastmile_qr_scan"}, "is_reserved": 0, "fusion_lon": 0.0, "fusion_lat": 0.0, "lon": -77.03653283333334, "name": "9a0acc093be59b28b84f17975c24fde3"}, {"bike_id": "fff260142f98d09f45d2b24c9717eff8", "type": "electric_scooter", "is_disabled": 0, "lat": 38.923457, "rental_uris": {"ios": "https://dc.lft.to/lastmile_qr_scan", "android": "https://dc.lft.to/lastmile_qr_scan"}, "is_reserved": 0, "fusion_lon": 0.0, "fusion_lat": 0.0, "lon": -77.05046966666667, "name": "fff260142f98d09f45d2b24c9717eff8"}, {"bike_id": "39579e3703e7ffe7d8aaadd33ed8c7e9", "type": "electric_bike", "is_disabled": 0, "lat": 38.93567133333333, "rental_uris": {"ios": "https://dc.lft.to/lastmile_qr_scan", "android": "https://dc.lft.to/lastmile_qr_scan"}, "is_reserved": 0, "fusion_lon": 0.0, "fusion_lat": 0.0, "lon": -77.03695083333334, "name": "39579e3703e7ffe7d8aaadd33ed8c7e9"}, {"bike_id": "beb00de03692f11469629a828bdc3d99", "type": "electric_scooter", "is_disabled": 0, "lat": 38.924818, "rental_uris": {"ios": "https://dc.lft.to/lastmile_qr_scan", "android": "https://dc.lft.to/lastmile_qr_scan"}, "is_reserved": 0, "fusion_lon": 0.0, "fusion_lat": 0.0, "lon": -77.02711783333334, "name": "beb00de03692f11469629a828bdc3d99"}, {"bike_id": "0dd43eb4aee218343145b424ed40b42f", "type": "electric_scooter", "is_disabled": 0, "lat": 38.92869783333333, "rental_uris": {"ios": "https://dc.lft.to/lastmile_qr_scan", "android": "https://dc.lft.to/lastmile_qr_scan"}, "is_reserved": 0, "fusion_lon": 0.0, "fusion_lat": 0.0, "lon": -77.02175833333334, "name": "0dd43eb4aee218343145b424ed40b42f"}, {"bike_id": "3ef2475b828e0955c2c3cd43f6105f8a", "type": "electric_scooter", "is_disabled": 0, "lat": 38.8768295, "rental_uris": {"ios": "https://dc.lft.to/lastmile_qr_scan", "android": "https://dc.lft.to/lastmile_qr_scan"}, "is_reserved": 0, "fusion_lon": 0.0, "fusion_lat": 0.0, "lon": -77.01992583333333, "name": "3ef2475b828e0955c2c3cd43f6105f8a"}, {"bike_id": "313cbdd0902e0144357fca292d3cba21", "type": "electric_bike", "is_disabled": 0, "lat": 38.85438966666667, "rental_uris": {"ios": "https://dc.lft.to/lastmile_qr_scan", "android": "https://dc.lft.to/lastmile_qr_scan"}, "is_reserved": 0, "fusion_lon": 0.0, "fusion_lat": 0.0, "lon": -77.083073, "name": "313cbdd0902e0144357fca292d3cba21"}, {"bike_id": "356e4769dfdb4cf696c8fb9b1004a706", "type": "electric_scooter", "is_disabled": 0, "lat": 38.92325533333333, "rental_uris": {"ios": "https://dc.lft.to/lastmile_qr_scan", "android": "https://dc.lft.to/lastmile_qr_scan"}, "is_reserved": 0, "fusion_lon": 0.0, "fusion_lat": 0.0, "lon": -77.00890933333334, "name": "356e4769dfdb4cf696c8fb9b1004a706"}, {"bike_id": "aef02859e29c292b3778827cfbd5037b", "type": "electric_scooter", "is_disabled": 0, "lat": 38.9221755, "rental_uris": {"ios": "https://dc.lft.to/lastmile_qr_scan", "android": "https://dc.lft.to/lastmile_qr_scan"}, "is_reserved": 0, "fusion_lon": 0.0, "fusion_lat": 0.0, "lon": -77.02699866666667, "name": "aef02859e29c292b3778827cfbd5037b"}, {"bike_id": "e023798bfab5bb2444cfa19e27acee09", "type": "electric_scooter", "is_disabled": 0, "lat": 38.90275183333333, "rental_uris": {"ios": "https://dc.lft.to/lastmile_qr_scan", "android": "https://dc.lft.to/lastmile_qr_scan"}, "is_reserved": 0, "fusion_lon": 0.0, "fusion_lat": 0.0, "lon": -77.0385755, "name": "e023798bfab5bb2444cfa19e27acee09"}, {"bike_id": "24af3ab9f5315d9c905feb79e24deb36", "type": "electric_scooter", "is_disabled": 0, "lat": 38.90664966666667, "rental_uris": {"ios": "https://dc.lft.to/lastmile_qr_scan", "android": "https://dc.lft.to/lastmile_qr_scan"}, "is_reserved": 0, "fusion_lon": 0.0, "fusion_lat": 0.0, "lon": -77.03532466666667, "name": "24af3ab9f5315d9c905feb79e24deb36"}, {"bike_id": "9b907fea4d7a23d959b639bfb4efe69b", "type": "electric_scooter", "is_disabled": 0, "lat": 38.9111045, "rental_uris": {"ios": "https://dc.lft.to/lastmile_qr_scan", "android": "https://dc.lft.to/lastmile_qr_scan"}, "is_reserved": 0, "fusion_lon": 0.0, "fusion_lat": 0.0, "lon": -77.005387, "name": "9b907fea4d7a23d959b639bfb4efe69b"}, {"bike_id": "2fa78ea47265d3ec0f7ed0a048a06364", "type": "electric_scooter", "is_disabled": 0, "lat": 38.90267683333333, "rental_uris": {"ios": "https://dc.lft.to/lastmile_qr_scan", "android": "https://dc.lft.to/lastmile_qr_scan"}, "is_reserved": 0, "fusion_lon": 0.0, "fusion_lat": 0.0, "lon": -77.00331766666666, "name": "2fa78ea47265d3ec0f7ed0a048a06364"}, {"bike_id": "bf66cbdb24c7cceb36c190d463e6e767", "type": "electric_scooter", "is_disabled": 0, "lat": 38.917529, "rental_uris": {"ios": "https://dc.lft.to/lastmile_qr_scan", "android": "https://dc.lft.to/lastmile_qr_scan"}, "is_reserved": 0, "fusion_lon": 0.0, "fusion_lat": 0.0, "lon": -77.02813433333333, "name": "bf66cbdb24c7cceb36c190d463e6e767"}, {"bike_id": "d1c83036c9fbfd15605f35fc7fa0b147", "type": "electric_bike", "is_disabled": 0, "lat": 38.878820833333336, "rental_uris": {"ios": "https://dc.lft.to/lastmile_qr_scan", "android": "https://dc.lft.to/lastmile_qr_scan"}, "is_reserved": 0, "fusion_lon": 0.0, "fusion_lat": 0.0, "lon": -77.09611066666666, "name": "d1c83036c9fbfd15605f35fc7fa0b147"}, {"bike_id": "58dabae09837af621f015b67be90af13", "type": "electric_scooter", "is_disabled": 0, "lat": 38.90508066666666, "rental_uris": {"ios": "https://dc.lft.to/lastmile_qr_scan", "android": "https://dc.lft.to/lastmile_qr_scan"}, "is_reserved": 0, "fusion_lon": 0.0, "fusion_lat": 0.0, "lon": -77.01968916666667, "name": "58dabae09837af621f015b67be90af13"}, {"bike_id": "6aa526a26b9d8c2d972ba912c952f295", "type": "electric_scooter", "is_disabled": 0, "lat": 38.919885, "rental_uris": {"ios": "https://dc.lft.to/lastmile_qr_scan", "android": "https://dc.lft.to/lastmile_qr_scan"}, "is_reserved": 0, "fusion_lon": 0.0, "fusion_lat": 0.0, "lon": -77.03262166666667, "name": "6aa526a26b9d8c2d972ba912c952f295"}, {"bike_id": "07efdece294ec545fb95e8c1a5a9e873", "type": "electric_scooter", "is_disabled": 0, "lat": 38.90127116666667, "rental_uris": {"ios": "https://dc.lft.to/lastmile_qr_scan", "android": "https://dc.lft.to/lastmile_qr_scan"}, "is_reserved": 0, "fusion_lon": 0.0, "fusion_lat": 0.0, "lon": -77.0451515, "name": "07efdece294ec545fb95e8c1a5a9e873"}, {"bike_id": "e8069e441da59287856277fe904f361e", "type": "electric_scooter", "is_disabled": 0, "lat": 38.93208283333333, "rental_uris": {"ios": "https://dc.lft.to/lastmile_qr_scan", "android": "https://dc.lft.to/lastmile_qr_scan"}, "is_reserved": 0, "fusion_lon": 0.0, "fusion_lat": 0.0, "lon": -77.03664916666666, "name": "e8069e441da59287856277fe904f361e"}, {"bike_id": "a5e00ee37e4809731b7b5c6e90ee2ef3", "type": "electric_scooter", "is_disabled": 0, "lat": 38.920935166666666, "rental_uris": {"ios": "https://dc.lft.to/lastmile_qr_scan", "android": "https://dc.lft.to/lastmile_qr_scan"}, "is_reserved": 0, "fusion_lon": 0.0, "fusion_lat": 0.0, "lon": -77.02531316666666, "name": "a5e00ee37e4809731b7b5c6e90ee2ef3"}, {"bike_id": "e5b4026e398ca7548609be1e4a0092d7", "type": "electric_scooter", "is_disabled": 0, "lat": 38.92777666666667, "rental_uris": {"ios": "https://dc.lft.to/lastmile_qr_scan", "android": "https://dc.lft.to/lastmile_qr_scan"}, "is_reserved": 0, "fusion_lon": 0.0, "fusion_lat": 0.0, "lon": -77.0231495, "name": "e5b4026e398ca7548609be1e4a0092d7"}, {"bike_id": "b0abb41fce62b4928fda80fa8fccb6fb", "type": "electric_scooter", "is_disabled": 0, "lat": 38.909623333333336, "rental_uris": {"ios": "https://dc.lft.to/lastmile_qr_scan", "android": "https://dc.lft.to/lastmile_qr_scan"}, "is_reserved": 0, "fusion_lon": 0.0, "fusion_lat": 0.0, "lon": -77.03941916666666, "name": "b0abb41fce62b4928fda80fa8fccb6fb"}, {"bike_id": "a8c4816ba2160c044f147fc7b8cf2b71", "type": "electric_bike", "is_disabled": 0, "lat": 38.854872, "rental_uris": {"ios": "https://dc.lft.to/lastmile_qr_scan", "android": "https://dc.lft.to/lastmile_qr_scan"}, "is_reserved": 0, "fusion_lon": 0.0, "fusion_lat": 0.0, "lon": -77.116109, "name": "a8c4816ba2160c044f147fc7b8cf2b71"}, {"bike_id": "d793d12315d38259173ec24e1eb256e0", "type": "electric_scooter", "is_disabled": 0, "lat": 38.92567966666667, "rental_uris": {"ios": "https://dc.lft.to/lastmile_qr_scan", "android": "https://dc.lft.to/lastmile_qr_scan"}, "is_reserved": 0, "fusion_lon": 0.0, "fusion_lat": 0.0, "lon": -77.05258466666666, "name": "d793d12315d38259173ec24e1eb256e0"}, {"bike_id": "fbc38ea6990f619dc88af65230364f6a", "type": "electric_scooter", "is_disabled": 0, "lat": 38.909625166666665, "rental_uris": {"ios": "https://dc.lft.to/lastmile_qr_scan", "android": "https://dc.lft.to/lastmile_qr_scan"}, "is_reserved": 0, "fusion_lon": 0.0, "fusion_lat": 0.0, "lon": -77.048706, "name": "fbc38ea6990f619dc88af65230364f6a"}, {"bike_id": "ee251f2ad43d90a94f05d9170351177d", "type": "electric_scooter", "is_disabled": 0, "lat": 38.8953755, "rental_uris": {"ios": "https://dc.lft.to/lastmile_qr_scan", "android": "https://dc.lft.to/lastmile_qr_scan"}, "is_reserved": 0, "fusion_lon": 0.0, "fusion_lat": 0.0, "lon": -76.99479716666667, "name": "ee251f2ad43d90a94f05d9170351177d"}, {"bike_id": "0b6f4aef9cf6441bed42d97383751ac7", "type": "electric_scooter", "is_disabled": 0, "lat": 38.918756, "rental_uris": {"ios": "https://dc.lft.to/lastmile_qr_scan", "android": "https://dc.lft.to/lastmile_qr_scan"}, "is_reserved": 0, "fusion_lon": 0.0, "fusion_lat": 0.0, "lon": -77.0702795, "name": "0b6f4aef9cf6441bed42d97383751ac7"}, {"bike_id": "046f8d3ed924e637ff01ba59a9bba597", "type": "electric_bike", "is_disabled": 0, "lat": 38.855203833333334, "rental_uris": {"ios": "https://dc.lft.to/lastmile_qr_scan", "android": "https://dc.lft.to/lastmile_qr_scan"}, "is_reserved": 0, "fusion_lon": 0.0, "fusion_lat": 0.0, "lon": -77.11993, "name": "046f8d3ed924e637ff01ba59a9bba597"}, {"bike_id": "273426b394cf42653fc4c4b6fec94955", "type": "electric_bike", "is_disabled": 0, "lat": 38.993305166666666, "rental_uris": {"ios": "https://dc.lft.to/lastmile_qr_scan", "android": "https://dc.lft.to/lastmile_qr_scan"}, "is_reserved": 0, "fusion_lon": 0.0, "fusion_lat": 0.0, "lon": -76.946127, "name": "273426b394cf42653fc4c4b6fec94955"}, {"bike_id": "a7f84aa9ea665872ac096dce535ffe43", "type": "electric_scooter", "is_disabled": 0, "lat": 38.90040966666667, "rental_uris": {"ios": "https://dc.lft.to/lastmile_qr_scan", "android": "https://dc.lft.to/lastmile_qr_scan"}, "is_reserved": 0, "fusion_lon": 0.0, "fusion_lat": 0.0, "lon": -77.03416766666666, "name": "a7f84aa9ea665872ac096dce535ffe43"}, {"bike_id": "a21fb898b68c7349d5294675c069abe2", "type": "electric_scooter", "is_disabled": 0, "lat": 38.91397966666667, "rental_uris": {"ios": "https://dc.lft.to/lastmile_qr_scan", "android": "https://dc.lft.to/lastmile_qr_scan"}, "is_reserved": 0, "fusion_lon": 0.0, "fusion_lat": 0.0, "lon": -76.98195883333334, "name": "a21fb898b68c7349d5294675c069abe2"}, {"bike_id": "eabc7ad2719dd8dc0cb1f7a804e5cfb3", "type": "electric_scooter", "is_disabled": 0, "lat": 38.906828833333336, "rental_uris": {"ios": "https://dc.lft.to/lastmile_qr_scan", "android": "https://dc.lft.to/lastmile_qr_scan"}, "is_reserved": 0, "fusion_lon": 0.0, "fusion_lat": 0.0, "lon": -77.02692533333334, "name": "eabc7ad2719dd8dc0cb1f7a804e5cfb3"}, {"bike_id": "b1352ce2a3a45f8b3fb9a52f391e0de2", "type": "electric_scooter", "is_disabled": 0, "lat": 38.86678083333334, "rental_uris": {"ios": "https://dc.lft.to/lastmile_qr_scan", "android": "https://dc.lft.to/lastmile_qr_scan"}, "is_reserved": 0, "fusion_lon": 0.0, "fusion_lat": 0.0, "lon": -76.98535466666667, "name": "b1352ce2a3a45f8b3fb9a52f391e0de2"}, {"bike_id": "2697e7371d3fd4850e8b126a61aa7516", "type": "electric_scooter", "is_disabled": 0, "lat": 38.92085083333333, "rental_uris": {"ios": "https://dc.lft.to/lastmile_qr_scan", "android": "https://dc.lft.to/lastmile_qr_scan"}, "is_reserved": 0, "fusion_lon": 0.0, "fusion_lat": 0.0, "lon": -77.02512083333333, "name": "2697e7371d3fd4850e8b126a61aa7516"}, {"bike_id": "f83bd5e37464d7ed879dba13126ba5fb", "type": "electric_scooter", "is_disabled": 0, "lat": 38.89713716666667, "rental_uris": {"ios": "https://dc.lft.to/lastmile_qr_scan", "android": "https://dc.lft.to/lastmile_qr_scan"}, "is_reserved": 0, "fusion_lon": 0.0, "fusion_lat": 0.0, "lon": -77.00854566666666, "name": "f83bd5e37464d7ed879dba13126ba5fb"}, {"bike_id": "ae8fa1a235034e928f92d909f9d10bac", "type": "electric_scooter", "is_disabled": 0, "lat": 38.9234155, "rental_uris": {"ios": "https://dc.lft.to/lastmile_qr_scan", "android": "https://dc.lft.to/lastmile_qr_scan"}, "is_reserved": 0, "fusion_lon": 0.0, "fusion_lat": 0.0, "lon": -77.04167283333334, "name": "ae8fa1a235034e928f92d909f9d10bac"}, {"bike_id": "ca6ce1da3a81a764d9fce87ba56062a8", "type": "electric_bike", "is_disabled": 0, "lat": 38.9631205, "rental_uris": {"ios": "https://dc.lft.to/lastmile_qr_scan", "android": "https://dc.lft.to/lastmile_qr_scan"}, "is_reserved": 0, "fusion_lon": 0.0, "fusion_lat": 0.0, "lon": -77.011034, "name": "ca6ce1da3a81a764d9fce87ba56062a8"}, {"bike_id": "0ada5e53e9c1242b698ad91d9c2d6b6b", "type": "electric_scooter", "is_disabled": 0, "lat": 38.899260166666664, "rental_uris": {"ios": "https://dc.lft.to/lastmile_qr_scan", "android": "https://dc.lft.to/lastmile_qr_scan"}, "is_reserved": 0, "fusion_lon": 0.0, "fusion_lat": 0.0, "lon": -77.0536675, "name": "0ada5e53e9c1242b698ad91d9c2d6b6b"}, {"bike_id": "623dcf10f9a674af0da59c9055eb65cd", "type": "electric_scooter", "is_disabled": 0, "lat": 38.90531266666667, "rental_uris": {"ios": "https://dc.lft.to/lastmile_qr_scan", "android": "https://dc.lft.to/lastmile_qr_scan"}, "is_reserved": 0, "fusion_lon": 0.0, "fusion_lat": 0.0, "lon": -77.0613625, "name": "623dcf10f9a674af0da59c9055eb65cd"}, {"bike_id": "555a681ad587f1bcb6f6e0f1d48242a3", "type": "electric_bike", "is_disabled": 0, "lat": 38.963228666666666, "rental_uris": {"ios": "https://dc.lft.to/lastmile_qr_scan", "android": "https://dc.lft.to/lastmile_qr_scan"}, "is_reserved": 0, "fusion_lon": 0.0, "fusion_lat": 0.0, "lon": -76.97357616666666, "name": "555a681ad587f1bcb6f6e0f1d48242a3"}, {"bike_id": "0071c60ab3e99097fbf1cf23b5b0143b", "type": "electric_scooter", "is_disabled": 0, "lat": 38.9011415, "rental_uris": {"ios": "https://dc.lft.to/lastmile_qr_scan", "android": "https://dc.lft.to/lastmile_qr_scan"}, "is_reserved": 0, "fusion_lon": 0.0, "fusion_lat": 0.0, "lon": -77.01817666666666, "name": "0071c60ab3e99097fbf1cf23b5b0143b"}, {"bike_id": "9672d5ffbb18579755baa9e0fe10bb22", "type": "electric_scooter", "is_disabled": 0, "lat": 38.90503916666667, "rental_uris": {"ios": "https://dc.lft.to/lastmile_qr_scan", "android": "https://dc.lft.to/lastmile_qr_scan"}, "is_reserved": 0, "fusion_lon": 0.0, "fusion_lat": 0.0, "lon": -77.06009566666667, "name": "9672d5ffbb18579755baa9e0fe10bb22"}, {"bike_id": "fee21c9d035b9592da8885048826ffb6", "type": "electric_scooter", "is_disabled": 0, "lat": 38.909534666666666, "rental_uris": {"ios": "https://dc.lft.to/lastmile_qr_scan", "android": "https://dc.lft.to/lastmile_qr_scan"}, "is_reserved": 0, "fusion_lon": 0.0, "fusion_lat": 0.0, "lon": -77.0269695, "name": "fee21c9d035b9592da8885048826ffb6"}, {"bike_id": "871908a42bfd975436d979047f1d9152", "type": "electric_scooter", "is_disabled": 0, "lat": 38.92340566666667, "rental_uris": {"ios": "https://dc.lft.to/lastmile_qr_scan", "android": "https://dc.lft.to/lastmile_qr_scan"}, "is_reserved": 0, "fusion_lon": 0.0, "fusion_lat": 0.0, "lon": -77.05049933333333, "name": "871908a42bfd975436d979047f1d9152"}, {"bike_id": "29107ec4550c1bdecbf1a1c1de12faf9", "type": "electric_scooter", "is_disabled": 0, "lat": 38.91618183333333, "rental_uris": {"ios": "https://dc.lft.to/lastmile_qr_scan", "android": "https://dc.lft.to/lastmile_qr_scan"}, "is_reserved": 0, "fusion_lon": 0.0, "fusion_lat": 0.0, "lon": -77.03637866666666, "name": "29107ec4550c1bdecbf1a1c1de12faf9"}, {"bike_id": "4f898eb5fd4f8d74502289b7864739b8", "type": "electric_scooter", "is_disabled": 0, "lat": 38.908965, "rental_uris": {"ios": "https://dc.lft.to/lastmile_qr_scan", "android": "https://dc.lft.to/lastmile_qr_scan"}, "is_reserved": 0, "fusion_lon": 0.0, "fusion_lat": 0.0, "lon": -77.0861915, "name": "4f898eb5fd4f8d74502289b7864739b8"}, {"bike_id": "b4fa20ea8442f17a64995137e3daaf70", "type": "electric_scooter", "is_disabled": 0, "lat": 38.93963633333333, "rental_uris": {"ios": "https://dc.lft.to/lastmile_qr_scan", "android": "https://dc.lft.to/lastmile_qr_scan"}, "is_reserved": 0, "fusion_lon": 0.0, "fusion_lat": 0.0, "lon": -77.02494216666666, "name": "b4fa20ea8442f17a64995137e3daaf70"}, {"bike_id": "c91512588de6c078cf205cca666af3f7", "type": "electric_scooter", "is_disabled": 0, "lat": 38.9255175, "rental_uris": {"ios": "https://dc.lft.to/lastmile_qr_scan", "android": "https://dc.lft.to/lastmile_qr_scan"}, "is_reserved": 0, "fusion_lon": 0.0, "fusion_lat": 0.0, "lon": -77.02282266666667, "name": "c91512588de6c078cf205cca666af3f7"}, {"bike_id": "a307f49b66dc15ee4d0f4eadff988a35", "type": "electric_scooter", "is_disabled": 0, "lat": 38.8708265, "rental_uris": {"ios": "https://dc.lft.to/lastmile_qr_scan", "android": "https://dc.lft.to/lastmile_qr_scan"}, "is_reserved": 0, "fusion_lon": 0.0, "fusion_lat": 0.0, "lon": -77.011878, "name": "a307f49b66dc15ee4d0f4eadff988a35"}, {"bike_id": "d33600a7eb501b5030716275b8250314", "type": "electric_scooter", "is_disabled": 0, "lat": 38.958937, "rental_uris": {"ios": "https://dc.lft.to/lastmile_qr_scan", "android": "https://dc.lft.to/lastmile_qr_scan"}, "is_reserved": 0, "fusion_lon": 0.0, "fusion_lat": 0.0, "lon": -77.085991, "name": "d33600a7eb501b5030716275b8250314"}, {"bike_id": "708f61199b5ddcec0d5cbe89c7881d81", "type": "electric_scooter", "is_disabled": 0, "lat": 38.931974333333336, "rental_uris": {"ios": "https://dc.lft.to/lastmile_qr_scan", "android": "https://dc.lft.to/lastmile_qr_scan"}, "is_reserved": 0, "fusion_lon": 0.0, "fusion_lat": 0.0, "lon": -77.01957183333333, "name": "708f61199b5ddcec0d5cbe89c7881d81"}, {"bike_id": "e316fc1447c8eecf34a0b8aed78da099", "type": "electric_scooter", "is_disabled": 0, "lat": 38.871226, "rental_uris": {"ios": "https://dc.lft.to/lastmile_qr_scan", "android": "https://dc.lft.to/lastmile_qr_scan"}, "is_reserved": 0, "fusion_lon": 0.0, "fusion_lat": 0.0, "lon": -77.00755383333333, "name": "e316fc1447c8eecf34a0b8aed78da099"}, {"bike_id": "82bf60ce42e8b9ebe3a0177bd9dcdd18", "type": "electric_scooter", "is_disabled": 0, "lat": 38.916381, "rental_uris": {"ios": "https://dc.lft.to/lastmile_qr_scan", "android": "https://dc.lft.to/lastmile_qr_scan"}, "is_reserved": 0, "fusion_lon": 0.0, "fusion_lat": 0.0, "lon": -77.000452, "name": "82bf60ce42e8b9ebe3a0177bd9dcdd18"}, {"bike_id": "2a55e80ba52debf466bca4b381f40c98", "type": "electric_scooter", "is_disabled": 0, "lat": 38.9147965, "rental_uris": {"ios": "https://dc.lft.to/lastmile_qr_scan", "android": "https://dc.lft.to/lastmile_qr_scan"}, "is_reserved": 0, "fusion_lon": 0.0, "fusion_lat": 0.0, "lon": -77.02185783333333, "name": "2a55e80ba52debf466bca4b381f40c98"}, {"bike_id": "3484b4293b97f54f3901c23238b5cfca", "type": "electric_scooter", "is_disabled": 0, "lat": 38.862406666666665, "rental_uris": {"ios": "https://dc.lft.to/lastmile_qr_scan", "android": "https://dc.lft.to/lastmile_qr_scan"}, "is_reserved": 0, "fusion_lon": 0.0, "fusion_lat": 0.0, "lon": -76.9951575, "name": "3484b4293b97f54f3901c23238b5cfca"}, {"bike_id": "9184eb95f547ec61f6d33f3aff7e2b95", "type": "electric_scooter", "is_disabled": 0, "lat": 38.9048025, "rental_uris": {"ios": "https://dc.lft.to/lastmile_qr_scan", "android": "https://dc.lft.to/lastmile_qr_scan"}, "is_reserved": 0, "fusion_lon": 0.0, "fusion_lat": 0.0, "lon": -77.03551666666667, "name": "9184eb95f547ec61f6d33f3aff7e2b95"}, {"bike_id": "85fe54ae17e94d809f6390abd0bb4333", "type": "electric_scooter", "is_disabled": 0, "lat": 38.89328916666667, "rental_uris": {"ios": "https://dc.lft.to/lastmile_qr_scan", "android": "https://dc.lft.to/lastmile_qr_scan"}, "is_reserved": 0, "fusion_lon": 0.0, "fusion_lat": 0.0, "lon": -77.048761, "name": "85fe54ae17e94d809f6390abd0bb4333"}, {"bike_id": "9f345249d9e06d122edd76e7c0842d25", "type": "electric_scooter", "is_disabled": 0, "lat": 38.918167, "rental_uris": {"ios": "https://dc.lft.to/lastmile_qr_scan", "android": "https://dc.lft.to/lastmile_qr_scan"}, "is_reserved": 0, "fusion_lon": 0.0, "fusion_lat": 0.0, "lon": -77.01022516666667, "name": "9f345249d9e06d122edd76e7c0842d25"}, {"bike_id": "410bac97ac06e6ccf0789649aca474fc", "type": "electric_scooter", "is_disabled": 0, "lat": 38.915735, "rental_uris": {"ios": "https://dc.lft.to/lastmile_qr_scan", "android": "https://dc.lft.to/lastmile_qr_scan"}, "is_reserved": 0, "fusion_lon": 0.0, "fusion_lat": 0.0, "lon": -77.03465633333333, "name": "410bac97ac06e6ccf0789649aca474fc"}, {"bike_id": "a292926df1334cacb381b87f32c5ae3a", "type": "electric_scooter", "is_disabled": 0, "lat": 38.90128416666667, "rental_uris": {"ios": "https://dc.lft.to/lastmile_qr_scan", "android": "https://dc.lft.to/lastmile_qr_scan"}, "is_reserved": 0, "fusion_lon": 0.0, "fusion_lat": 0.0, "lon": -77.04990183333334, "name": "a292926df1334cacb381b87f32c5ae3a"}, {"bike_id": "78a11c71078d246c4fa13f88241ea842", "type": "electric_scooter", "is_disabled": 0, "lat": 38.88034066666667, "rental_uris": {"ios": "https://dc.lft.to/lastmile_qr_scan", "android": "https://dc.lft.to/lastmile_qr_scan"}, "is_reserved": 0, "fusion_lon": 0.0, "fusion_lat": 0.0, "lon": -77.02509166666667, "name": "78a11c71078d246c4fa13f88241ea842"}, {"bike_id": "b3303b8833b04bc65dee89bc698a1f7e", "type": "electric_bike", "is_disabled": 0, "lat": 38.799870166666665, "rental_uris": {"ios": "https://dc.lft.to/lastmile_qr_scan", "android": "https://dc.lft.to/lastmile_qr_scan"}, "is_reserved": 0, "fusion_lon": 0.0, "fusion_lat": 0.0, "lon": -77.12973633333333, "name": "b3303b8833b04bc65dee89bc698a1f7e"}, {"bike_id": "e8906a019d9286b0828111d66565cb88", "type": "electric_scooter", "is_disabled": 0, "lat": 38.907872, "rental_uris": {"ios": "https://dc.lft.to/lastmile_qr_scan", "android": "https://dc.lft.to/lastmile_qr_scan"}, "is_reserved": 0, "fusion_lon": 0.0, "fusion_lat": 0.0, "lon": -77.01106833333333, "name": "e8906a019d9286b0828111d66565cb88"}, {"bike_id": "fcf332b74ff1e213517d2432c4733f42", "type": "electric_scooter", "is_disabled": 0, "lat": 38.89855816666667, "rental_uris": {"ios": "https://dc.lft.to/lastmile_qr_scan", "android": "https://dc.lft.to/lastmile_qr_scan"}, "is_reserved": 0, "fusion_lon": 0.0, "fusion_lat": 0.0, "lon": -76.99034183333333, "name": "fcf332b74ff1e213517d2432c4733f42"}, {"bike_id": "c7ab1ea7f2e2aa0a719e2a4b3a1888e7", "type": "electric_scooter", "is_disabled": 0, "lat": 38.922623, "rental_uris": {"ios": "https://dc.lft.to/lastmile_qr_scan", "android": "https://dc.lft.to/lastmile_qr_scan"}, "is_reserved": 0, "fusion_lon": 0.0, "fusion_lat": 0.0, "lon": -77.03520933333333, "name": "c7ab1ea7f2e2aa0a719e2a4b3a1888e7"}, {"bike_id": "8b676a0864eed5369cf31d4dfef1cb4e", "type": "electric_scooter", "is_disabled": 0, "lat": 38.91122266666667, "rental_uris": {"ios": "https://dc.lft.to/lastmile_qr_scan", "android": "https://dc.lft.to/lastmile_qr_scan"}, "is_reserved": 0, "fusion_lon": 0.0, "fusion_lat": 0.0, "lon": -77.0382995, "name": "8b676a0864eed5369cf31d4dfef1cb4e"}, {"bike_id": "17ebf8d34f1d44e3ce8e32f8823b9882", "type": "electric_scooter", "is_disabled": 0, "lat": 38.917104333333334, "rental_uris": {"ios": "https://dc.lft.to/lastmile_qr_scan", "android": "https://dc.lft.to/lastmile_qr_scan"}, "is_reserved": 0, "fusion_lon": 0.0, "fusion_lat": 0.0, "lon": -77.010735, "name": "17ebf8d34f1d44e3ce8e32f8823b9882"}, {"bike_id": "453fe0b60e401a3a0c2381dd45495ab9", "type": "electric_bike", "is_disabled": 0, "lat": 38.871923833333334, "rental_uris": {"ios": "https://dc.lft.to/lastmile_qr_scan", "android": "https://dc.lft.to/lastmile_qr_scan"}, "is_reserved": 0, "fusion_lon": 0.0, "fusion_lat": 0.0, "lon": -77.01223216666666, "name": "453fe0b60e401a3a0c2381dd45495ab9"}, {"bike_id": "828b7af7d6565427f2c060cd70c11dcd", "type": "electric_scooter", "is_disabled": 0, "lat": 38.907884333333335, "rental_uris": {"ios": "https://dc.lft.to/lastmile_qr_scan", "android": "https://dc.lft.to/lastmile_qr_scan"}, "is_reserved": 0, "fusion_lon": 0.0, "fusion_lat": 0.0, "lon": -77.0204035, "name": "828b7af7d6565427f2c060cd70c11dcd"}, {"bike_id": "fc0ccde45f45faf7d3aaad1d827fe32f", "type": "electric_scooter", "is_disabled": 0, "lat": 38.863768, "rental_uris": {"ios": "https://dc.lft.to/lastmile_qr_scan", "android": "https://dc.lft.to/lastmile_qr_scan"}, "is_reserved": 0, "fusion_lon": 0.0, "fusion_lat": 0.0, "lon": -76.9905675, "name": "fc0ccde45f45faf7d3aaad1d827fe32f"}, {"bike_id": "2402348efb521995a5322b61da4f1194", "type": "electric_scooter", "is_disabled": 0, "lat": 38.879149, "rental_uris": {"ios": "https://dc.lft.to/lastmile_qr_scan", "android": "https://dc.lft.to/lastmile_qr_scan"}, "is_reserved": 0, "fusion_lon": 0.0, "fusion_lat": 0.0, "lon": -76.99506, "name": "2402348efb521995a5322b61da4f1194"}, {"bike_id": "2876b5dab9c7eeae42f237a06460d2e9", "type": "electric_scooter", "is_disabled": 0, "lat": 38.86251633333333, "rental_uris": {"ios": "https://dc.lft.to/lastmile_qr_scan", "android": "https://dc.lft.to/lastmile_qr_scan"}, "is_reserved": 0, "fusion_lon": 0.0, "fusion_lat": 0.0, "lon": -76.99263533333334, "name": "2876b5dab9c7eeae42f237a06460d2e9"}, {"bike_id": "4d7211f911a51bded7ea048a5328c94b", "type": "electric_scooter", "is_disabled": 0, "lat": 38.911421, "rental_uris": {"ios": "https://dc.lft.to/lastmile_qr_scan", "android": "https://dc.lft.to/lastmile_qr_scan"}, "is_reserved": 0, "fusion_lon": 0.0, "fusion_lat": 0.0, "lon": -77.026902, "name": "4d7211f911a51bded7ea048a5328c94b"}, {"bike_id": "cb7e3c96680c393e5ae2174668a7d228", "type": "electric_bike", "is_disabled": 0, "lat": 38.895659333333334, "rental_uris": {"ios": "https://dc.lft.to/lastmile_qr_scan", "android": "https://dc.lft.to/lastmile_qr_scan"}, "is_reserved": 0, "fusion_lon": 0.0, "fusion_lat": 0.0, "lon": -77.1274, "name": "cb7e3c96680c393e5ae2174668a7d228"}, {"bike_id": "116bba37d0ecb2f0c7c6c29dc85492cb", "type": "electric_bike", "is_disabled": 0, "lat": 38.868698, "rental_uris": {"ios": "https://dc.lft.to/lastmile_qr_scan", "android": "https://dc.lft.to/lastmile_qr_scan"}, "is_reserved": 0, "fusion_lon": 0.0, "fusion_lat": 0.0, "lon": -76.9578835, "name": "116bba37d0ecb2f0c7c6c29dc85492cb"}, {"bike_id": "4bd1d15f30f82fd5210340b5153c829e", "type": "electric_scooter", "is_disabled": 0, "lat": 38.91292416666667, "rental_uris": {"ios": "https://dc.lft.to/lastmile_qr_scan", "android": "https://dc.lft.to/lastmile_qr_scan"}, "is_reserved": 0, "fusion_lon": 0.0, "fusion_lat": 0.0, "lon": -77.01975066666667, "name": "4bd1d15f30f82fd5210340b5153c829e"}, {"bike_id": "77df96f57307f610b53a476bb86c6cad", "type": "electric_bike", "is_disabled": 0, "lat": 38.9083075, "rental_uris": {"ios": "https://dc.lft.to/lastmile_qr_scan", "android": "https://dc.lft.to/lastmile_qr_scan"}, "is_reserved": 0, "fusion_lon": 0.0, "fusion_lat": 0.0, "lon": -76.94155733333334, "name": "77df96f57307f610b53a476bb86c6cad"}, {"bike_id": "78863880dbc1a6ffa70608124d3039ea", "type": "electric_scooter", "is_disabled": 0, "lat": 38.90784583333333, "rental_uris": {"ios": "https://dc.lft.to/lastmile_qr_scan", "android": "https://dc.lft.to/lastmile_qr_scan"}, "is_reserved": 0, "fusion_lon": 0.0, "fusion_lat": 0.0, "lon": -77.01862583333333, "name": "78863880dbc1a6ffa70608124d3039ea"}, {"bike_id": "4e9f16ec8fcb981f6f361f8c58782218", "type": "electric_scooter", "is_disabled": 0, "lat": 38.88932833333333, "rental_uris": {"ios": "https://dc.lft.to/lastmile_qr_scan", "android": "https://dc.lft.to/lastmile_qr_scan"}, "is_reserved": 0, "fusion_lon": 0.0, "fusion_lat": 0.0, "lon": -77.015029, "name": "4e9f16ec8fcb981f6f361f8c58782218"}, {"bike_id": "8920b111368ba7a603321bdd82156e01", "type": "electric_scooter", "is_disabled": 0, "lat": 38.90689916666667, "rental_uris": {"ios": "https://dc.lft.to/lastmile_qr_scan", "android": "https://dc.lft.to/lastmile_qr_scan"}, "is_reserved": 0, "fusion_lon": 0.0, "fusion_lat": 0.0, "lon": -77.05328, "name": "8920b111368ba7a603321bdd82156e01"}, {"bike_id": "11447f093495ede191c6a2d3b4a6de08", "type": "electric_scooter", "is_disabled": 0, "lat": 38.917293666666666, "rental_uris": {"ios": "https://dc.lft.to/lastmile_qr_scan", "android": "https://dc.lft.to/lastmile_qr_scan"}, "is_reserved": 0, "fusion_lon": 0.0, "fusion_lat": 0.0, "lon": -77.02507883333334, "name": "11447f093495ede191c6a2d3b4a6de08"}, {"bike_id": "68c59979d30ca6a097abcb10668306e3", "type": "electric_scooter", "is_disabled": 0, "lat": 38.931172833333335, "rental_uris": {"ios": "https://dc.lft.to/lastmile_qr_scan", "android": "https://dc.lft.to/lastmile_qr_scan"}, "is_reserved": 0, "fusion_lon": 0.0, "fusion_lat": 0.0, "lon": -77.02097566666667, "name": "68c59979d30ca6a097abcb10668306e3"}, {"bike_id": "adc984930a0f11f57460887f7f410398", "type": "electric_scooter", "is_disabled": 0, "lat": 38.93325333333333, "rental_uris": {"ios": "https://dc.lft.to/lastmile_qr_scan", "android": "https://dc.lft.to/lastmile_qr_scan"}, "is_reserved": 0, "fusion_lon": 0.0, "fusion_lat": 0.0, "lon": -77.0343145, "name": "adc984930a0f11f57460887f7f410398"}, {"bike_id": "079064bb9efd53a2b3e1b3c2ff3f5606", "type": "electric_scooter", "is_disabled": 0, "lat": 38.923733, "rental_uris": {"ios": "https://dc.lft.to/lastmile_qr_scan", "android": "https://dc.lft.to/lastmile_qr_scan"}, "is_reserved": 0, "fusion_lon": 0.0, "fusion_lat": 0.0, "lon": -77.03131666666667, "name": "079064bb9efd53a2b3e1b3c2ff3f5606"}, {"bike_id": "845771cbb5cb9b6eb24f7f035a715cd2", "type": "electric_scooter", "is_disabled": 0, "lat": 38.91445866666667, "rental_uris": {"ios": "https://dc.lft.to/lastmile_qr_scan", "android": "https://dc.lft.to/lastmile_qr_scan"}, "is_reserved": 0, "fusion_lon": 0.0, "fusion_lat": 0.0, "lon": -77.0228935, "name": "845771cbb5cb9b6eb24f7f035a715cd2"}, {"bike_id": "b8a51b8a01ace6733d869ac5fff0e32a", "type": "electric_bike", "is_disabled": 0, "lat": 38.8694005, "rental_uris": {"ios": "https://dc.lft.to/lastmile_qr_scan", "android": "https://dc.lft.to/lastmile_qr_scan"}, "is_reserved": 0, "fusion_lon": 0.0, "fusion_lat": 0.0, "lon": -77.09468133333333, "name": "b8a51b8a01ace6733d869ac5fff0e32a"}, {"bike_id": "3692ff515791c63327d740e5d286b080", "type": "electric_scooter", "is_disabled": 0, "lat": 38.88369133333333, "rental_uris": {"ios": "https://dc.lft.to/lastmile_qr_scan", "android": "https://dc.lft.to/lastmile_qr_scan"}, "is_reserved": 0, "fusion_lon": 0.0, "fusion_lat": 0.0, "lon": -76.9951725, "name": "3692ff515791c63327d740e5d286b080"}, {"bike_id": "e723cd89ee8e18a878e82ac1ce23eaa1", "type": "electric_scooter", "is_disabled": 0, "lat": 38.8843375, "rental_uris": {"ios": "https://dc.lft.to/lastmile_qr_scan", "android": "https://dc.lft.to/lastmile_qr_scan"}, "is_reserved": 0, "fusion_lon": 0.0, "fusion_lat": 0.0, "lon": -76.9574765, "name": "e723cd89ee8e18a878e82ac1ce23eaa1"}, {"bike_id": "3ab43e9cffcb91a79c6f7372ee8d377c", "type": "electric_scooter", "is_disabled": 0, "lat": 38.9268585, "rental_uris": {"ios": "https://dc.lft.to/lastmile_qr_scan", "android": "https://dc.lft.to/lastmile_qr_scan"}, "is_reserved": 0, "fusion_lon": 0.0, "fusion_lat": 0.0, "lon": -77.02783933333333, "name": "3ab43e9cffcb91a79c6f7372ee8d377c"}, {"bike_id": "96eb58678f0cc2a4611b98fc44eb9aca", "type": "electric_scooter", "is_disabled": 0, "lat": 38.91975016666667, "rental_uris": {"ios": "https://dc.lft.to/lastmile_qr_scan", "android": "https://dc.lft.to/lastmile_qr_scan"}, "is_reserved": 0, "fusion_lon": 0.0, "fusion_lat": 0.0, "lon": -77.0190745, "name": "96eb58678f0cc2a4611b98fc44eb9aca"}, {"bike_id": "8a67e815644759f7ff977e845d71d0de", "type": "electric_scooter", "is_disabled": 0, "lat": 38.957368333333335, "rental_uris": {"ios": "https://dc.lft.to/lastmile_qr_scan", "android": "https://dc.lft.to/lastmile_qr_scan"}, "is_reserved": 0, "fusion_lon": 0.0, "fusion_lat": 0.0, "lon": -77.024213, "name": "8a67e815644759f7ff977e845d71d0de"}, {"bike_id": "cb39f5b59fdd7ac41b103158539a9ec3", "type": "electric_scooter", "is_disabled": 0, "lat": 38.91555966666667, "rental_uris": {"ios": "https://dc.lft.to/lastmile_qr_scan", "android": "https://dc.lft.to/lastmile_qr_scan"}, "is_reserved": 0, "fusion_lon": 0.0, "fusion_lat": 0.0, "lon": -77.0233505, "name": "cb39f5b59fdd7ac41b103158539a9ec3"}, {"bike_id": "ce2296daca5c59ca9d7792178e605712", "type": "electric_scooter", "is_disabled": 0, "lat": 38.91413166666667, "rental_uris": {"ios": "https://dc.lft.to/lastmile_qr_scan", "android": "https://dc.lft.to/lastmile_qr_scan"}, "is_reserved": 0, "fusion_lon": 0.0, "fusion_lat": 0.0, "lon": -77.04464716666666, "name": "ce2296daca5c59ca9d7792178e605712"}, {"bike_id": "ee8028f8a049db4ff7ddabc63220a826", "type": "electric_scooter", "is_disabled": 0, "lat": 38.93652316666667, "rental_uris": {"ios": "https://dc.lft.to/lastmile_qr_scan", "android": "https://dc.lft.to/lastmile_qr_scan"}, "is_reserved": 0, "fusion_lon": 0.0, "fusion_lat": 0.0, "lon": -77.02637016666667, "name": "ee8028f8a049db4ff7ddabc63220a826"}, {"bike_id": "045be3958cbaecda651bbef084bbfb0f", "type": "electric_scooter", "is_disabled": 0, "lat": 38.93110933333333, "rental_uris": {"ios": "https://dc.lft.to/lastmile_qr_scan", "android": "https://dc.lft.to/lastmile_qr_scan"}, "is_reserved": 0, "fusion_lon": 0.0, "fusion_lat": 0.0, "lon": -77.03816483333334, "name": "045be3958cbaecda651bbef084bbfb0f"}, {"bike_id": "c8b4934cee3356365a1342e59a6c5f61", "type": "electric_scooter", "is_disabled": 0, "lat": 38.9170055, "rental_uris": {"ios": "https://dc.lft.to/lastmile_qr_scan", "android": "https://dc.lft.to/lastmile_qr_scan"}, "is_reserved": 0, "fusion_lon": 0.0, "fusion_lat": 0.0, "lon": -77.03210783333333, "name": "c8b4934cee3356365a1342e59a6c5f61"}, {"bike_id": "6ffaa31a06b7bf0f077acd5409c24ddb", "type": "electric_scooter", "is_disabled": 0, "lat": 38.888518166666664, "rental_uris": {"ios": "https://dc.lft.to/lastmile_qr_scan", "android": "https://dc.lft.to/lastmile_qr_scan"}, "is_reserved": 0, "fusion_lon": 0.0, "fusion_lat": 0.0, "lon": -76.92678716666667, "name": "6ffaa31a06b7bf0f077acd5409c24ddb"}, {"bike_id": "d1ad1766e452a3578bc6316097f339f4", "type": "electric_scooter", "is_disabled": 0, "lat": 38.93067333333333, "rental_uris": {"ios": "https://dc.lft.to/lastmile_qr_scan", "android": "https://dc.lft.to/lastmile_qr_scan"}, "is_reserved": 0, "fusion_lon": 0.0, "fusion_lat": 0.0, "lon": -77.02978466666667, "name": "d1ad1766e452a3578bc6316097f339f4"}, {"bike_id": "6174f5642101f8571e0fe7887e2d41b5", "type": "electric_scooter", "is_disabled": 0, "lat": 38.9224225, "rental_uris": {"ios": "https://dc.lft.to/lastmile_qr_scan", "android": "https://dc.lft.to/lastmile_qr_scan"}, "is_reserved": 0, "fusion_lon": 0.0, "fusion_lat": 0.0, "lon": -77.039104, "name": "6174f5642101f8571e0fe7887e2d41b5"}, {"bike_id": "666391ba00281fa5ff83054a43a58638", "type": "electric_bike", "is_disabled": 0, "lat": 38.857734666666666, "rental_uris": {"ios": "https://dc.lft.to/lastmile_qr_scan", "android": "https://dc.lft.to/lastmile_qr_scan"}, "is_reserved": 0, "fusion_lon": 0.0, "fusion_lat": 0.0, "lon": -76.987664, "name": "666391ba00281fa5ff83054a43a58638"}, {"bike_id": "f4b6dd7799549cecc2d23db80a0e4e95", "type": "electric_scooter", "is_disabled": 0, "lat": 38.915504166666665, "rental_uris": {"ios": "https://dc.lft.to/lastmile_qr_scan", "android": "https://dc.lft.to/lastmile_qr_scan"}, "is_reserved": 0, "fusion_lon": 0.0, "fusion_lat": 0.0, "lon": -77.03504666666667, "name": "f4b6dd7799549cecc2d23db80a0e4e95"}, {"bike_id": "6e02b0bbd50e3ce757255a4775374e39", "type": "electric_scooter", "is_disabled": 0, "lat": 38.928838, "rental_uris": {"ios": "https://dc.lft.to/lastmile_qr_scan", "android": "https://dc.lft.to/lastmile_qr_scan"}, "is_reserved": 0, "fusion_lon": 0.0, "fusion_lat": 0.0, "lon": -77.02714883333333, "name": "6e02b0bbd50e3ce757255a4775374e39"}, {"bike_id": "5e473e38d15857be375c382dd4aa6061", "type": "electric_bike", "is_disabled": 0, "lat": 38.938660666666664, "rental_uris": {"ios": "https://dc.lft.to/lastmile_qr_scan", "android": "https://dc.lft.to/lastmile_qr_scan"}, "is_reserved": 0, "fusion_lon": 0.0, "fusion_lat": 0.0, "lon": -77.02693016666667, "name": "5e473e38d15857be375c382dd4aa6061"}, {"bike_id": "37db1bb58db3011ba328123776701f52", "type": "electric_scooter", "is_disabled": 0, "lat": 38.919156, "rental_uris": {"ios": "https://dc.lft.to/lastmile_qr_scan", "android": "https://dc.lft.to/lastmile_qr_scan"}, "is_reserved": 0, "fusion_lon": 0.0, "fusion_lat": 0.0, "lon": -77.03420183333333, "name": "37db1bb58db3011ba328123776701f52"}, {"bike_id": "d00dfe7e50b6dc094640a3e5396c7512", "type": "electric_scooter", "is_disabled": 0, "lat": 38.92655933333333, "rental_uris": {"ios": "https://dc.lft.to/lastmile_qr_scan", "android": "https://dc.lft.to/lastmile_qr_scan"}, "is_reserved": 0, "fusion_lon": 0.0, "fusion_lat": 0.0, "lon": -77.03724933333334, "name": "d00dfe7e50b6dc094640a3e5396c7512"}, {"bike_id": "839c176da34f77366acc1fa733381cd7", "type": "electric_scooter", "is_disabled": 0, "lat": 38.936614666666664, "rental_uris": {"ios": "https://dc.lft.to/lastmile_qr_scan", "android": "https://dc.lft.to/lastmile_qr_scan"}, "is_reserved": 0, "fusion_lon": 0.0, "fusion_lat": 0.0, "lon": -77.054966, "name": "839c176da34f77366acc1fa733381cd7"}, {"bike_id": "8b0c8d44de473d6ed1bbc15452a62e0b", "type": "electric_scooter", "is_disabled": 0, "lat": 38.92825166666667, "rental_uris": {"ios": "https://dc.lft.to/lastmile_qr_scan", "android": "https://dc.lft.to/lastmile_qr_scan"}, "is_reserved": 0, "fusion_lon": 0.0, "fusion_lat": 0.0, "lon": -77.02258166666667, "name": "8b0c8d44de473d6ed1bbc15452a62e0b"}, {"bike_id": "b48024c7dd57db6e6d49f08aa96b1965", "type": "electric_scooter", "is_disabled": 0, "lat": 38.92361733333333, "rental_uris": {"ios": "https://dc.lft.to/lastmile_qr_scan", "android": "https://dc.lft.to/lastmile_qr_scan"}, "is_reserved": 0, "fusion_lon": 0.0, "fusion_lat": 0.0, "lon": -77.04150933333334, "name": "b48024c7dd57db6e6d49f08aa96b1965"}, {"bike_id": "65c1263533ede30125899ef674d41d44", "type": "electric_scooter", "is_disabled": 0, "lat": 38.906850166666665, "rental_uris": {"ios": "https://dc.lft.to/lastmile_qr_scan", "android": "https://dc.lft.to/lastmile_qr_scan"}, "is_reserved": 0, "fusion_lon": 0.0, "fusion_lat": 0.0, "lon": -77.026932, "name": "65c1263533ede30125899ef674d41d44"}, {"bike_id": "90d66011fbd45dc002c1bbe093024d16", "type": "electric_scooter", "is_disabled": 0, "lat": 38.91639883333333, "rental_uris": {"ios": "https://dc.lft.to/lastmile_qr_scan", "android": "https://dc.lft.to/lastmile_qr_scan"}, "is_reserved": 0, "fusion_lon": 0.0, "fusion_lat": 0.0, "lon": -77.0479475, "name": "90d66011fbd45dc002c1bbe093024d16"}, {"bike_id": "279a30603946d305d1018e0532be902b", "type": "electric_scooter", "is_disabled": 0, "lat": 38.92485333333333, "rental_uris": {"ios": "https://dc.lft.to/lastmile_qr_scan", "android": "https://dc.lft.to/lastmile_qr_scan"}, "is_reserved": 0, "fusion_lon": 0.0, "fusion_lat": 0.0, "lon": -77.05754316666666, "name": "279a30603946d305d1018e0532be902b"}, {"bike_id": "7a551e85434dadb2bba62c16972cd11f", "type": "electric_scooter", "is_disabled": 0, "lat": 38.909107, "rental_uris": {"ios": "https://dc.lft.to/lastmile_qr_scan", "android": "https://dc.lft.to/lastmile_qr_scan"}, "is_reserved": 0, "fusion_lon": 0.0, "fusion_lat": 0.0, "lon": -76.98422783333334, "name": "7a551e85434dadb2bba62c16972cd11f"}, {"bike_id": "9cd655dc515001a6904e3c0c1813e025", "type": "electric_scooter", "is_disabled": 0, "lat": 38.933212, "rental_uris": {"ios": "https://dc.lft.to/lastmile_qr_scan", "android": "https://dc.lft.to/lastmile_qr_scan"}, "is_reserved": 0, "fusion_lon": 0.0, "fusion_lat": 0.0, "lon": -77.03262383333333, "name": "9cd655dc515001a6904e3c0c1813e025"}, {"bike_id": "9a248991dec6f1e85034b0717448addd", "type": "electric_scooter", "is_disabled": 0, "lat": 38.893125, "rental_uris": {"ios": "https://dc.lft.to/lastmile_qr_scan", "android": "https://dc.lft.to/lastmile_qr_scan"}, "is_reserved": 0, "fusion_lon": 0.0, "fusion_lat": 0.0, "lon": -76.9397915, "name": "9a248991dec6f1e85034b0717448addd"}, {"bike_id": "853b4bb01865229007c13bcff75b25bf", "type": "electric_scooter", "is_disabled": 0, "lat": 38.879668833333334, "rental_uris": {"ios": "https://dc.lft.to/lastmile_qr_scan", "android": "https://dc.lft.to/lastmile_qr_scan"}, "is_reserved": 0, "fusion_lon": 0.0, "fusion_lat": 0.0, "lon": -76.98556866666667, "name": "853b4bb01865229007c13bcff75b25bf"}, {"bike_id": "60ad1618213567ffddddcc3067f4ad51", "type": "electric_scooter", "is_disabled": 0, "lat": 38.91590866666667, "rental_uris": {"ios": "https://dc.lft.to/lastmile_qr_scan", "android": "https://dc.lft.to/lastmile_qr_scan"}, "is_reserved": 0, "fusion_lon": 0.0, "fusion_lat": 0.0, "lon": -77.045246, "name": "60ad1618213567ffddddcc3067f4ad51"}, {"bike_id": "1bb115429057925b6b2aa8a73ac8e512", "type": "electric_scooter", "is_disabled": 0, "lat": 38.92041866666667, "rental_uris": {"ios": "https://dc.lft.to/lastmile_qr_scan", "android": "https://dc.lft.to/lastmile_qr_scan"}, "is_reserved": 0, "fusion_lon": 0.0, "fusion_lat": 0.0, "lon": -77.0172755, "name": "1bb115429057925b6b2aa8a73ac8e512"}, {"bike_id": "55340e870193c67d83a2e066a5ca81ca", "type": "electric_scooter", "is_disabled": 0, "lat": 38.877323, "rental_uris": {"ios": "https://dc.lft.to/lastmile_qr_scan", "android": "https://dc.lft.to/lastmile_qr_scan"}, "is_reserved": 0, "fusion_lon": 0.0, "fusion_lat": 0.0, "lon": -77.01775883333333, "name": "55340e870193c67d83a2e066a5ca81ca"}, {"bike_id": "539c9aee4c6c9e468015c717b7002ba0", "type": "electric_scooter", "is_disabled": 0, "lat": 38.909696, "rental_uris": {"ios": "https://dc.lft.to/lastmile_qr_scan", "android": "https://dc.lft.to/lastmile_qr_scan"}, "is_reserved": 0, "fusion_lon": 0.0, "fusion_lat": 0.0, "lon": -77.02307, "name": "539c9aee4c6c9e468015c717b7002ba0"}, {"bike_id": "9714f21038c7a81cfe87950d307c7794", "type": "electric_scooter", "is_disabled": 0, "lat": 38.89893033333333, "rental_uris": {"ios": "https://dc.lft.to/lastmile_qr_scan", "android": "https://dc.lft.to/lastmile_qr_scan"}, "is_reserved": 0, "fusion_lon": 0.0, "fusion_lat": 0.0, "lon": -77.0151095, "name": "9714f21038c7a81cfe87950d307c7794"}, {"bike_id": "ecf67ef0f463a550cc8e9f5378dba3d3", "type": "electric_scooter", "is_disabled": 0, "lat": 38.951547166666664, "rental_uris": {"ios": "https://dc.lft.to/lastmile_qr_scan", "android": "https://dc.lft.to/lastmile_qr_scan"}, "is_reserved": 0, "fusion_lon": 0.0, "fusion_lat": 0.0, "lon": -77.01868116666667, "name": "ecf67ef0f463a550cc8e9f5378dba3d3"}, {"bike_id": "6603300322e49a5eec3a395af0fdc553", "type": "electric_scooter", "is_disabled": 0, "lat": 38.91635816666667, "rental_uris": {"ios": "https://dc.lft.to/lastmile_qr_scan", "android": "https://dc.lft.to/lastmile_qr_scan"}, "is_reserved": 0, "fusion_lon": 0.0, "fusion_lat": 0.0, "lon": -77.04238816666667, "name": "6603300322e49a5eec3a395af0fdc553"}, {"bike_id": "2fb7d4ab2dae5a04b2c59ac633545cf3", "type": "electric_scooter", "is_disabled": 0, "lat": 38.874127333333334, "rental_uris": {"ios": "https://dc.lft.to/lastmile_qr_scan", "android": "https://dc.lft.to/lastmile_qr_scan"}, "is_reserved": 0, "fusion_lon": 0.0, "fusion_lat": 0.0, "lon": -76.97112583333333, "name": "2fb7d4ab2dae5a04b2c59ac633545cf3"}, {"bike_id": "903adb1286496d16a853b9eecf097dac", "type": "electric_scooter", "is_disabled": 0, "lat": 38.89328166666667, "rental_uris": {"ios": "https://dc.lft.to/lastmile_qr_scan", "android": "https://dc.lft.to/lastmile_qr_scan"}, "is_reserved": 0, "fusion_lon": 0.0, "fusion_lat": 0.0, "lon": -77.04875866666667, "name": "903adb1286496d16a853b9eecf097dac"}, {"bike_id": "dee542f0b0f91ec9441cfe33f1abc996", "type": "electric_scooter", "is_disabled": 0, "lat": 38.895000833333334, "rental_uris": {"ios": "https://dc.lft.to/lastmile_qr_scan", "android": "https://dc.lft.to/lastmile_qr_scan"}, "is_reserved": 0, "fusion_lon": 0.0, "fusion_lat": 0.0, "lon": -76.934811, "name": "dee542f0b0f91ec9441cfe33f1abc996"}, {"bike_id": "bb766810ee85ef1365e9adf584d35a24", "type": "electric_scooter", "is_disabled": 0, "lat": 38.91497, "rental_uris": {"ios": "https://dc.lft.to/lastmile_qr_scan", "android": "https://dc.lft.to/lastmile_qr_scan"}, "is_reserved": 0, "fusion_lon": 0.0, "fusion_lat": 0.0, "lon": -76.9837505, "name": "bb766810ee85ef1365e9adf584d35a24"}, {"bike_id": "aea3bbb772c7975d1a0899432801ca5f", "type": "electric_scooter", "is_disabled": 0, "lat": 38.91509083333333, "rental_uris": {"ios": "https://dc.lft.to/lastmile_qr_scan", "android": "https://dc.lft.to/lastmile_qr_scan"}, "is_reserved": 0, "fusion_lon": 0.0, "fusion_lat": 0.0, "lon": -77.0228325, "name": "aea3bbb772c7975d1a0899432801ca5f"}, {"bike_id": "551b9494c9a971f4ebc6123ee64bac9f", "type": "electric_bike", "is_disabled": 0, "lat": 38.99537266666667, "rental_uris": {"ios": "https://dc.lft.to/lastmile_qr_scan", "android": "https://dc.lft.to/lastmile_qr_scan"}, "is_reserved": 0, "fusion_lon": 0.0, "fusion_lat": 0.0, "lon": -77.06949833333333, "name": "551b9494c9a971f4ebc6123ee64bac9f"}, {"bike_id": "fcc75cc80a054ee89622cf2ec613a60a", "type": "electric_scooter", "is_disabled": 0, "lat": 38.911989166666665, "rental_uris": {"ios": "https://dc.lft.to/lastmile_qr_scan", "android": "https://dc.lft.to/lastmile_qr_scan"}, "is_reserved": 0, "fusion_lon": 0.0, "fusion_lat": 0.0, "lon": -77.019031, "name": "fcc75cc80a054ee89622cf2ec613a60a"}, {"bike_id": "ed6d027b29950761c2dc4e4e10acb3da", "type": "electric_bike", "is_disabled": 0, "lat": 38.89206866666667, "rental_uris": {"ios": "https://dc.lft.to/lastmile_qr_scan", "android": "https://dc.lft.to/lastmile_qr_scan"}, "is_reserved": 0, "fusion_lon": 0.0, "fusion_lat": 0.0, "lon": -76.97682966666666, "name": "ed6d027b29950761c2dc4e4e10acb3da"}, {"bike_id": "c955a55a9eb8de1f03f9263b088752a2", "type": "electric_scooter", "is_disabled": 0, "lat": 38.9352135, "rental_uris": {"ios": "https://dc.lft.to/lastmile_qr_scan", "android": "https://dc.lft.to/lastmile_qr_scan"}, "is_reserved": 0, "fusion_lon": 0.0, "fusion_lat": 0.0, "lon": -77.05437866666666, "name": "c955a55a9eb8de1f03f9263b088752a2"}, {"bike_id": "aaf2f44e6fe8bad534ee95ce35852478", "type": "electric_scooter", "is_disabled": 0, "lat": 38.951156, "rental_uris": {"ios": "https://dc.lft.to/lastmile_qr_scan", "android": "https://dc.lft.to/lastmile_qr_scan"}, "is_reserved": 0, "fusion_lon": 0.0, "fusion_lat": 0.0, "lon": -77.01430616666667, "name": "aaf2f44e6fe8bad534ee95ce35852478"}, {"bike_id": "ce48571534c14fa3aef7620bc5ead2c7", "type": "electric_scooter", "is_disabled": 0, "lat": 38.86697816666667, "rental_uris": {"ios": "https://dc.lft.to/lastmile_qr_scan", "android": "https://dc.lft.to/lastmile_qr_scan"}, "is_reserved": 0, "fusion_lon": 0.0, "fusion_lat": 0.0, "lon": -76.9857575, "name": "ce48571534c14fa3aef7620bc5ead2c7"}, {"bike_id": "ec3cc197bb4a087d64b2d7cc25ebd562", "type": "electric_bike", "is_disabled": 0, "lat": 38.9426235, "rental_uris": {"ios": "https://dc.lft.to/lastmile_qr_scan", "android": "https://dc.lft.to/lastmile_qr_scan"}, "is_reserved": 0, "fusion_lon": 0.0, "fusion_lat": 0.0, "lon": -76.99071166666667, "name": "ec3cc197bb4a087d64b2d7cc25ebd562"}, {"bike_id": "5bdc34fe24ddbe700a632c619b7b1f3f", "type": "electric_scooter", "is_disabled": 0, "lat": 38.9261835, "rental_uris": {"ios": "https://dc.lft.to/lastmile_qr_scan", "android": "https://dc.lft.to/lastmile_qr_scan"}, "is_reserved": 0, "fusion_lon": 0.0, "fusion_lat": 0.0, "lon": -77.04326066666667, "name": "5bdc34fe24ddbe700a632c619b7b1f3f"}, {"bike_id": "4078f4e9abcb9c7f287e07bfe92f09b4", "type": "electric_bike", "is_disabled": 0, "lat": 38.85877033333333, "rental_uris": {"ios": "https://dc.lft.to/lastmile_qr_scan", "android": "https://dc.lft.to/lastmile_qr_scan"}, "is_reserved": 0, "fusion_lon": 0.0, "fusion_lat": 0.0, "lon": -77.095598, "name": "4078f4e9abcb9c7f287e07bfe92f09b4"}, {"bike_id": "a7617b8791037e8e8fe307ceb5478121", "type": "electric_scooter", "is_disabled": 0, "lat": 38.9125505, "rental_uris": {"ios": "https://dc.lft.to/lastmile_qr_scan", "android": "https://dc.lft.to/lastmile_qr_scan"}, "is_reserved": 0, "fusion_lon": 0.0, "fusion_lat": 0.0, "lon": -77.03863116666666, "name": "a7617b8791037e8e8fe307ceb5478121"}, {"bike_id": "1b9bb85308038e04f091b3cd39b4eacc", "type": "electric_scooter", "is_disabled": 0, "lat": 38.92542783333333, "rental_uris": {"ios": "https://dc.lft.to/lastmile_qr_scan", "android": "https://dc.lft.to/lastmile_qr_scan"}, "is_reserved": 0, "fusion_lon": 0.0, "fusion_lat": 0.0, "lon": -77.03358233333333, "name": "1b9bb85308038e04f091b3cd39b4eacc"}, {"bike_id": "3f9c00960c6258e45aae857bee6aa55b", "type": "electric_scooter", "is_disabled": 0, "lat": 38.9007765, "rental_uris": {"ios": "https://dc.lft.to/lastmile_qr_scan", "android": "https://dc.lft.to/lastmile_qr_scan"}, "is_reserved": 0, "fusion_lon": 0.0, "fusion_lat": 0.0, "lon": -77.04751583333334, "name": "3f9c00960c6258e45aae857bee6aa55b"}, {"bike_id": "be08d2393d89fde138ef43adeaf72786", "type": "electric_bike", "is_disabled": 0, "lat": 38.9564365, "rental_uris": {"ios": "https://dc.lft.to/lastmile_qr_scan", "android": "https://dc.lft.to/lastmile_qr_scan"}, "is_reserved": 0, "fusion_lon": 0.0, "fusion_lat": 0.0, "lon": -76.997926, "name": "be08d2393d89fde138ef43adeaf72786"}, {"bike_id": "edcde5f67ae8a6f47caacd55ec3d0d57", "type": "electric_scooter", "is_disabled": 0, "lat": 38.92120383333334, "rental_uris": {"ios": "https://dc.lft.to/lastmile_qr_scan", "android": "https://dc.lft.to/lastmile_qr_scan"}, "is_reserved": 0, "fusion_lon": 0.0, "fusion_lat": 0.0, "lon": -77.03667533333333, "name": "edcde5f67ae8a6f47caacd55ec3d0d57"}, {"bike_id": "81086ae7112ad88ca3639e7c15414438", "type": "electric_scooter", "is_disabled": 0, "lat": 38.920916, "rental_uris": {"ios": "https://dc.lft.to/lastmile_qr_scan", "android": "https://dc.lft.to/lastmile_qr_scan"}, "is_reserved": 0, "fusion_lon": 0.0, "fusion_lat": 0.0, "lon": -77.00439366666667, "name": "81086ae7112ad88ca3639e7c15414438"}, {"bike_id": "67ed843e45e3eca4ffd0426b799b66a0", "type": "electric_scooter", "is_disabled": 0, "lat": 38.91917266666667, "rental_uris": {"ios": "https://dc.lft.to/lastmile_qr_scan", "android": "https://dc.lft.to/lastmile_qr_scan"}, "is_reserved": 0, "fusion_lon": 0.0, "fusion_lat": 0.0, "lon": -77.03390683333333, "name": "67ed843e45e3eca4ffd0426b799b66a0"}, {"bike_id": "07ce55e09051ce17d311797ce1f96c94", "type": "electric_scooter", "is_disabled": 0, "lat": 38.91967483333333, "rental_uris": {"ios": "https://dc.lft.to/lastmile_qr_scan", "android": "https://dc.lft.to/lastmile_qr_scan"}, "is_reserved": 0, "fusion_lon": 0.0, "fusion_lat": 0.0, "lon": -77.03854033333333, "name": "07ce55e09051ce17d311797ce1f96c94"}, {"bike_id": "fc92ab03e2177d55a9a96e1b71869977", "type": "electric_scooter", "is_disabled": 0, "lat": 38.92052066666667, "rental_uris": {"ios": "https://dc.lft.to/lastmile_qr_scan", "android": "https://dc.lft.to/lastmile_qr_scan"}, "is_reserved": 0, "fusion_lon": 0.0, "fusion_lat": 0.0, "lon": -77.02370366666666, "name": "fc92ab03e2177d55a9a96e1b71869977"}, {"bike_id": "596969cab2116900c4e21301c7437927", "type": "electric_scooter", "is_disabled": 0, "lat": 38.90851083333333, "rental_uris": {"ios": "https://dc.lft.to/lastmile_qr_scan", "android": "https://dc.lft.to/lastmile_qr_scan"}, "is_reserved": 0, "fusion_lon": 0.0, "fusion_lat": 0.0, "lon": -77.022424, "name": "596969cab2116900c4e21301c7437927"}, {"bike_id": "3437df47341e482aad6f62b45837ce87", "type": "electric_scooter", "is_disabled": 0, "lat": 38.896271, "rental_uris": {"ios": "https://dc.lft.to/lastmile_qr_scan", "android": "https://dc.lft.to/lastmile_qr_scan"}, "is_reserved": 0, "fusion_lon": 0.0, "fusion_lat": 0.0, "lon": -77.0329235, "name": "3437df47341e482aad6f62b45837ce87"}, {"bike_id": "a6c4c57a8d98cc358fbdff76b8d75ce0", "type": "electric_scooter", "is_disabled": 0, "lat": 38.91639166666667, "rental_uris": {"ios": "https://dc.lft.to/lastmile_qr_scan", "android": "https://dc.lft.to/lastmile_qr_scan"}, "is_reserved": 0, "fusion_lon": 0.0, "fusion_lat": 0.0, "lon": -77.01085216666667, "name": "a6c4c57a8d98cc358fbdff76b8d75ce0"}, {"bike_id": "1324e11282832432e4148bed41139740", "type": "electric_bike", "is_disabled": 0, "lat": 39.013713833333334, "rental_uris": {"ios": "https://dc.lft.to/lastmile_qr_scan", "android": "https://dc.lft.to/lastmile_qr_scan"}, "is_reserved": 0, "fusion_lon": 0.0, "fusion_lat": 0.0, "lon": -76.921364, "name": "1324e11282832432e4148bed41139740"}, {"bike_id": "cde88d0e57fd9f5d11a12f2eb9fffd64", "type": "electric_scooter", "is_disabled": 0, "lat": 38.924439, "rental_uris": {"ios": "https://dc.lft.to/lastmile_qr_scan", "android": "https://dc.lft.to/lastmile_qr_scan"}, "is_reserved": 0, "fusion_lon": 0.0, "fusion_lat": 0.0, "lon": -77.0441255, "name": "cde88d0e57fd9f5d11a12f2eb9fffd64"}, {"bike_id": "47d2c1a464343120b7a9d92a32af1199", "type": "electric_scooter", "is_disabled": 0, "lat": 38.92017416666667, "rental_uris": {"ios": "https://dc.lft.to/lastmile_qr_scan", "android": "https://dc.lft.to/lastmile_qr_scan"}, "is_reserved": 0, "fusion_lon": 0.0, "fusion_lat": 0.0, "lon": -77.0180615, "name": "47d2c1a464343120b7a9d92a32af1199"}, {"bike_id": "76f57630b521a2e7450624e86698a6c5", "type": "electric_bike", "is_disabled": 0, "lat": 38.85937783333333, "rental_uris": {"ios": "https://dc.lft.to/lastmile_qr_scan", "android": "https://dc.lft.to/lastmile_qr_scan"}, "is_reserved": 0, "fusion_lon": 0.0, "fusion_lat": 0.0, "lon": -77.1182975, "name": "76f57630b521a2e7450624e86698a6c5"}, {"bike_id": "025dfeb952bad19da1ce1f89e22cc28d", "type": "electric_scooter", "is_disabled": 0, "lat": 38.892369, "rental_uris": {"ios": "https://dc.lft.to/lastmile_qr_scan", "android": "https://dc.lft.to/lastmile_qr_scan"}, "is_reserved": 0, "fusion_lon": 0.0, "fusion_lat": 0.0, "lon": -77.02382216666666, "name": "025dfeb952bad19da1ce1f89e22cc28d"}, {"bike_id": "f8b3dc0b62942e6facf09db0b6c4acae", "type": "electric_scooter", "is_disabled": 0, "lat": 38.87786783333333, "rental_uris": {"ios": "https://dc.lft.to/lastmile_qr_scan", "android": "https://dc.lft.to/lastmile_qr_scan"}, "is_reserved": 0, "fusion_lon": 0.0, "fusion_lat": 0.0, "lon": -77.0034385, "name": "f8b3dc0b62942e6facf09db0b6c4acae"}, {"bike_id": "5aa765d873c441c5907583eebef74641", "type": "electric_scooter", "is_disabled": 0, "lat": 38.922333, "rental_uris": {"ios": "https://dc.lft.to/lastmile_qr_scan", "android": "https://dc.lft.to/lastmile_qr_scan"}, "is_reserved": 0, "fusion_lon": 0.0, "fusion_lat": 0.0, "lon": -77.04710333333334, "name": "5aa765d873c441c5907583eebef74641"}, {"bike_id": "ae2a712902e47b5113f5ceb771458626", "type": "electric_bike", "is_disabled": 0, "lat": 38.898109833333336, "rental_uris": {"ios": "https://dc.lft.to/lastmile_qr_scan", "android": "https://dc.lft.to/lastmile_qr_scan"}, "is_reserved": 0, "fusion_lon": 0.0, "fusion_lat": 0.0, "lon": -76.99070466666667, "name": "ae2a712902e47b5113f5ceb771458626"}, {"bike_id": "fc8614a50347669a57bc77bc7adc7708", "type": "electric_scooter", "is_disabled": 0, "lat": 38.9208035, "rental_uris": {"ios": "https://dc.lft.to/lastmile_qr_scan", "android": "https://dc.lft.to/lastmile_qr_scan"}, "is_reserved": 0, "fusion_lon": 0.0, "fusion_lat": 0.0, "lon": -77.00450716666667, "name": "fc8614a50347669a57bc77bc7adc7708"}, {"bike_id": "731a84350775f4691f6a210f094270ec", "type": "electric_scooter", "is_disabled": 0, "lat": 38.9059775, "rental_uris": {"ios": "https://dc.lft.to/lastmile_qr_scan", "android": "https://dc.lft.to/lastmile_qr_scan"}, "is_reserved": 0, "fusion_lon": 0.0, "fusion_lat": 0.0, "lon": -77.06803683333334, "name": "731a84350775f4691f6a210f094270ec"}, {"bike_id": "ea079ae0e638a70fb681e0a883c98a89", "type": "electric_scooter", "is_disabled": 0, "lat": 38.949805166666664, "rental_uris": {"ios": "https://dc.lft.to/lastmile_qr_scan", "android": "https://dc.lft.to/lastmile_qr_scan"}, "is_reserved": 0, "fusion_lon": 0.0, "fusion_lat": 0.0, "lon": -77.02650266666667, "name": "ea079ae0e638a70fb681e0a883c98a89"}, {"bike_id": "2ce8f317f58dadbab148848df94387da", "type": "electric_bike", "is_disabled": 0, "lat": 38.83608983333333, "rental_uris": {"ios": "https://dc.lft.to/lastmile_qr_scan", "android": "https://dc.lft.to/lastmile_qr_scan"}, "is_reserved": 0, "fusion_lon": 0.0, "fusion_lat": 0.0, "lon": -77.0037885, "name": "2ce8f317f58dadbab148848df94387da"}, {"bike_id": "510362c8472e79d70f0e859f62497a7c", "type": "electric_scooter", "is_disabled": 0, "lat": 38.91916066666667, "rental_uris": {"ios": "https://dc.lft.to/lastmile_qr_scan", "android": "https://dc.lft.to/lastmile_qr_scan"}, "is_reserved": 0, "fusion_lon": 0.0, "fusion_lat": 0.0, "lon": -77.0334005, "name": "510362c8472e79d70f0e859f62497a7c"}, {"bike_id": "2398a2cc8f8cb344d2daa745bba8c39e", "type": "electric_bike", "is_disabled": 0, "lat": 38.8237155, "rental_uris": {"ios": "https://dc.lft.to/lastmile_qr_scan", "android": "https://dc.lft.to/lastmile_qr_scan"}, "is_reserved": 0, "fusion_lon": 0.0, "fusion_lat": 0.0, "lon": -77.002194, "name": "2398a2cc8f8cb344d2daa745bba8c39e"}, {"bike_id": "9b3c98fc064d9b0f259f3e0cd0777abe", "type": "electric_bike", "is_disabled": 0, "lat": 38.956402, "rental_uris": {"ios": "https://dc.lft.to/lastmile_qr_scan", "android": "https://dc.lft.to/lastmile_qr_scan"}, "is_reserved": 0, "fusion_lon": 0.0, "fusion_lat": 0.0, "lon": -76.93873566666667, "name": "9b3c98fc064d9b0f259f3e0cd0777abe"}, {"bike_id": "964ace5b18651a6bb6d83e7497fc2682", "type": "electric_scooter", "is_disabled": 0, "lat": 38.92425516666667, "rental_uris": {"ios": "https://dc.lft.to/lastmile_qr_scan", "android": "https://dc.lft.to/lastmile_qr_scan"}, "is_reserved": 0, "fusion_lon": 0.0, "fusion_lat": 0.0, "lon": -77.0226705, "name": "964ace5b18651a6bb6d83e7497fc2682"}, {"bike_id": "2d9853633d8124f3fa19ba4b2a64f67a", "type": "electric_scooter", "is_disabled": 0, "lat": 38.8841965, "rental_uris": {"ios": "https://dc.lft.to/lastmile_qr_scan", "android": "https://dc.lft.to/lastmile_qr_scan"}, "is_reserved": 0, "fusion_lon": 0.0, "fusion_lat": 0.0, "lon": -77.007387, "name": "2d9853633d8124f3fa19ba4b2a64f67a"}, {"bike_id": "9bcd72acc131100650d52e06e7c15a30", "type": "electric_scooter", "is_disabled": 0, "lat": 38.8637535, "rental_uris": {"ios": "https://dc.lft.to/lastmile_qr_scan", "android": "https://dc.lft.to/lastmile_qr_scan"}, "is_reserved": 0, "fusion_lon": 0.0, "fusion_lat": 0.0, "lon": -76.99057283333333, "name": "9bcd72acc131100650d52e06e7c15a30"}, {"bike_id": "48290f0addaa46faa7ddeee841e10571", "type": "electric_scooter", "is_disabled": 0, "lat": 38.87233116666667, "rental_uris": {"ios": "https://dc.lft.to/lastmile_qr_scan", "android": "https://dc.lft.to/lastmile_qr_scan"}, "is_reserved": 0, "fusion_lon": 0.0, "fusion_lat": 0.0, "lon": -77.01160983333334, "name": "48290f0addaa46faa7ddeee841e10571"}, {"bike_id": "9cdf0f3c912905da217e624c8f0c1c7f", "type": "electric_scooter", "is_disabled": 0, "lat": 38.984344166666666, "rental_uris": {"ios": "https://dc.lft.to/lastmile_qr_scan", "android": "https://dc.lft.to/lastmile_qr_scan"}, "is_reserved": 0, "fusion_lon": 0.0, "fusion_lat": 0.0, "lon": -77.026714, "name": "9cdf0f3c912905da217e624c8f0c1c7f"}, {"bike_id": "7c3ae5fd3280bbb979605a6f3cdbbc8a", "type": "electric_scooter", "is_disabled": 0, "lat": 38.91769083333333, "rental_uris": {"ios": "https://dc.lft.to/lastmile_qr_scan", "android": "https://dc.lft.to/lastmile_qr_scan"}, "is_reserved": 0, "fusion_lon": 0.0, "fusion_lat": 0.0, "lon": -77.047693, "name": "7c3ae5fd3280bbb979605a6f3cdbbc8a"}, {"bike_id": "fd26f5d8af7f077f1861d36c7ba9f2da", "type": "electric_scooter", "is_disabled": 0, "lat": 38.935475833333335, "rental_uris": {"ios": "https://dc.lft.to/lastmile_qr_scan", "android": "https://dc.lft.to/lastmile_qr_scan"}, "is_reserved": 0, "fusion_lon": 0.0, "fusion_lat": 0.0, "lon": -77.02503633333333, "name": "fd26f5d8af7f077f1861d36c7ba9f2da"}, {"bike_id": "e6adbe25e6e500cb0e7fb89d6ffc955c", "type": "electric_scooter", "is_disabled": 0, "lat": 38.928263, "rental_uris": {"ios": "https://dc.lft.to/lastmile_qr_scan", "android": "https://dc.lft.to/lastmile_qr_scan"}, "is_reserved": 0, "fusion_lon": 0.0, "fusion_lat": 0.0, "lon": -77.02257866666666, "name": "e6adbe25e6e500cb0e7fb89d6ffc955c"}, {"bike_id": "330399130121faf9a2e6c17096e87f0a", "type": "electric_bike", "is_disabled": 0, "lat": 38.940204333333334, "rental_uris": {"ios": "https://dc.lft.to/lastmile_qr_scan", "android": "https://dc.lft.to/lastmile_qr_scan"}, "is_reserved": 0, "fusion_lon": 0.0, "fusion_lat": 0.0, "lon": -76.97609516666667, "name": "330399130121faf9a2e6c17096e87f0a"}, {"bike_id": "d2d611218df396d56f9f6485209e9366", "type": "electric_bike", "is_disabled": 0, "lat": 38.873026333333335, "rental_uris": {"ios": "https://dc.lft.to/lastmile_qr_scan", "android": "https://dc.lft.to/lastmile_qr_scan"}, "is_reserved": 0, "fusion_lon": 0.0, "fusion_lat": 0.0, "lon": -77.13924916666667, "name": "d2d611218df396d56f9f6485209e9366"}, {"bike_id": "1ae1b01a65497a250270a64ecff8d6ad", "type": "electric_scooter", "is_disabled": 0, "lat": 38.932768833333334, "rental_uris": {"ios": "https://dc.lft.to/lastmile_qr_scan", "android": "https://dc.lft.to/lastmile_qr_scan"}, "is_reserved": 0, "fusion_lon": 0.0, "fusion_lat": 0.0, "lon": -77.04536416666667, "name": "1ae1b01a65497a250270a64ecff8d6ad"}, {"bike_id": "2cca168bf85bcade214d67507ec61dbf", "type": "electric_scooter", "is_disabled": 0, "lat": 38.916374833333336, "rental_uris": {"ios": "https://dc.lft.to/lastmile_qr_scan", "android": "https://dc.lft.to/lastmile_qr_scan"}, "is_reserved": 0, "fusion_lon": 0.0, "fusion_lat": 0.0, "lon": -77.025484, "name": "2cca168bf85bcade214d67507ec61dbf"}, {"bike_id": "5666219f41bc752445f1de9bcfe3a649", "type": "electric_scooter", "is_disabled": 0, "lat": 38.90391533333333, "rental_uris": {"ios": "https://dc.lft.to/lastmile_qr_scan", "android": "https://dc.lft.to/lastmile_qr_scan"}, "is_reserved": 0, "fusion_lon": 0.0, "fusion_lat": 0.0, "lon": -76.98200166666666, "name": "5666219f41bc752445f1de9bcfe3a649"}, {"bike_id": "5a03ca1ee4b6bf0a8f3ce86b767517ed", "type": "electric_scooter", "is_disabled": 0, "lat": 38.878011666666666, "rental_uris": {"ios": "https://dc.lft.to/lastmile_qr_scan", "android": "https://dc.lft.to/lastmile_qr_scan"}, "is_reserved": 0, "fusion_lon": 0.0, "fusion_lat": 0.0, "lon": -77.017464, "name": "5a03ca1ee4b6bf0a8f3ce86b767517ed"}, {"bike_id": "dcb9f2b6614e61bd304d281640a50ec6", "type": "electric_scooter", "is_disabled": 0, "lat": 38.896897833333334, "rental_uris": {"ios": "https://dc.lft.to/lastmile_qr_scan", "android": "https://dc.lft.to/lastmile_qr_scan"}, "is_reserved": 0, "fusion_lon": 0.0, "fusion_lat": 0.0, "lon": -77.07103483333333, "name": "dcb9f2b6614e61bd304d281640a50ec6"}, {"bike_id": "d80db7527e24ba09611e6b8a7329d304", "type": "electric_scooter", "is_disabled": 0, "lat": 38.89228716666667, "rental_uris": {"ios": "https://dc.lft.to/lastmile_qr_scan", "android": "https://dc.lft.to/lastmile_qr_scan"}, "is_reserved": 0, "fusion_lon": 0.0, "fusion_lat": 0.0, "lon": -77.04860516666666, "name": "d80db7527e24ba09611e6b8a7329d304"}, {"bike_id": "41e64b91c6dc37c89bcb97c2ea2c45d4", "type": "electric_scooter", "is_disabled": 0, "lat": 38.900847666666664, "rental_uris": {"ios": "https://dc.lft.to/lastmile_qr_scan", "android": "https://dc.lft.to/lastmile_qr_scan"}, "is_reserved": 0, "fusion_lon": 0.0, "fusion_lat": 0.0, "lon": -77.009155, "name": "41e64b91c6dc37c89bcb97c2ea2c45d4"}, {"bike_id": "a2a46e466c3a979a1c96226203933933", "type": "electric_scooter", "is_disabled": 0, "lat": 38.91987183333333, "rental_uris": {"ios": "https://dc.lft.to/lastmile_qr_scan", "android": "https://dc.lft.to/lastmile_qr_scan"}, "is_reserved": 0, "fusion_lon": 0.0, "fusion_lat": 0.0, "lon": -77.03260966666667, "name": "a2a46e466c3a979a1c96226203933933"}, {"bike_id": "27dee990b0b197424ba1f73b42d96209", "type": "electric_scooter", "is_disabled": 0, "lat": 38.919352, "rental_uris": {"ios": "https://dc.lft.to/lastmile_qr_scan", "android": "https://dc.lft.to/lastmile_qr_scan"}, "is_reserved": 0, "fusion_lon": 0.0, "fusion_lat": 0.0, "lon": -77.013936, "name": "27dee990b0b197424ba1f73b42d96209"}, {"bike_id": "5818fc86feea44fcb49c39d4ccafeadc", "type": "electric_scooter", "is_disabled": 0, "lat": 38.91473766666667, "rental_uris": {"ios": "https://dc.lft.to/lastmile_qr_scan", "android": "https://dc.lft.to/lastmile_qr_scan"}, "is_reserved": 0, "fusion_lon": 0.0, "fusion_lat": 0.0, "lon": -76.98374016666666, "name": "5818fc86feea44fcb49c39d4ccafeadc"}, {"bike_id": "81a5a649e72beaee4375a47a4d60ce52", "type": "electric_scooter", "is_disabled": 0, "lat": 38.9225965, "rental_uris": {"ios": "https://dc.lft.to/lastmile_qr_scan", "android": "https://dc.lft.to/lastmile_qr_scan"}, "is_reserved": 0, "fusion_lon": 0.0, "fusion_lat": 0.0, "lon": -77.03885666666666, "name": "81a5a649e72beaee4375a47a4d60ce52"}, {"bike_id": "e14d072a753eea303a7c6c6b8764d14d", "type": "electric_scooter", "is_disabled": 0, "lat": 38.9057, "rental_uris": {"ios": "https://dc.lft.to/lastmile_qr_scan", "android": "https://dc.lft.to/lastmile_qr_scan"}, "is_reserved": 0, "fusion_lon": 0.0, "fusion_lat": 0.0, "lon": -77.00584066666667, "name": "e14d072a753eea303a7c6c6b8764d14d"}, {"bike_id": "ac07267ff8ae39ccf3de7e6cffda189f", "type": "electric_scooter", "is_disabled": 0, "lat": 38.90972566666667, "rental_uris": {"ios": "https://dc.lft.to/lastmile_qr_scan", "android": "https://dc.lft.to/lastmile_qr_scan"}, "is_reserved": 0, "fusion_lon": 0.0, "fusion_lat": 0.0, "lon": -77.03946283333333, "name": "ac07267ff8ae39ccf3de7e6cffda189f"}, {"bike_id": "804c4fc5114e0407cad4d77cfa06078c", "type": "electric_scooter", "is_disabled": 0, "lat": 38.93267316666667, "rental_uris": {"ios": "https://dc.lft.to/lastmile_qr_scan", "android": "https://dc.lft.to/lastmile_qr_scan"}, "is_reserved": 0, "fusion_lon": 0.0, "fusion_lat": 0.0, "lon": -77.032629, "name": "804c4fc5114e0407cad4d77cfa06078c"}, {"bike_id": "f93b6cca893f20970ae8128510c7bd23", "type": "electric_scooter", "is_disabled": 0, "lat": 38.92400033333333, "rental_uris": {"ios": "https://dc.lft.to/lastmile_qr_scan", "android": "https://dc.lft.to/lastmile_qr_scan"}, "is_reserved": 0, "fusion_lon": 0.0, "fusion_lat": 0.0, "lon": -76.9937515, "name": "f93b6cca893f20970ae8128510c7bd23"}, {"bike_id": "287a3f54e230a530ab32342782dece8d", "type": "electric_scooter", "is_disabled": 0, "lat": 38.8851815, "rental_uris": {"ios": "https://dc.lft.to/lastmile_qr_scan", "android": "https://dc.lft.to/lastmile_qr_scan"}, "is_reserved": 0, "fusion_lon": 0.0, "fusion_lat": 0.0, "lon": -77.0282295, "name": "287a3f54e230a530ab32342782dece8d"}, {"bike_id": "73014c366f0a5765fb2240e18075e572", "type": "electric_scooter", "is_disabled": 0, "lat": 38.9234495, "rental_uris": {"ios": "https://dc.lft.to/lastmile_qr_scan", "android": "https://dc.lft.to/lastmile_qr_scan"}, "is_reserved": 0, "fusion_lon": 0.0, "fusion_lat": 0.0, "lon": -77.05047116666667, "name": "73014c366f0a5765fb2240e18075e572"}, {"bike_id": "ae87681ed7fd71a5435f4ac5cbe33b29", "type": "electric_scooter", "is_disabled": 0, "lat": 38.865106, "rental_uris": {"ios": "https://dc.lft.to/lastmile_qr_scan", "android": "https://dc.lft.to/lastmile_qr_scan"}, "is_reserved": 0, "fusion_lon": 0.0, "fusion_lat": 0.0, "lon": -76.97427316666666, "name": "ae87681ed7fd71a5435f4ac5cbe33b29"}, {"bike_id": "0cba7af860377a8f7cbbff910309b367", "type": "electric_scooter", "is_disabled": 0, "lat": 38.90019366666667, "rental_uris": {"ios": "https://dc.lft.to/lastmile_qr_scan", "android": "https://dc.lft.to/lastmile_qr_scan"}, "is_reserved": 0, "fusion_lon": 0.0, "fusion_lat": 0.0, "lon": -77.006744, "name": "0cba7af860377a8f7cbbff910309b367"}, {"bike_id": "26ea67e680e08ca0fdd8a5d762a1cc64", "type": "electric_bike", "is_disabled": 0, "lat": 38.956224666666664, "rental_uris": {"ios": "https://dc.lft.to/lastmile_qr_scan", "android": "https://dc.lft.to/lastmile_qr_scan"}, "is_reserved": 0, "fusion_lon": 0.0, "fusion_lat": 0.0, "lon": -77.02589133333333, "name": "26ea67e680e08ca0fdd8a5d762a1cc64"}, {"bike_id": "b28146ce1f5eaa7f55136a4f8ffb2972", "type": "electric_scooter", "is_disabled": 0, "lat": 38.87096283333333, "rental_uris": {"ios": "https://dc.lft.to/lastmile_qr_scan", "android": "https://dc.lft.to/lastmile_qr_scan"}, "is_reserved": 0, "fusion_lon": 0.0, "fusion_lat": 0.0, "lon": -77.00805366666667, "name": "b28146ce1f5eaa7f55136a4f8ffb2972"}, {"bike_id": "bb5c34224aec12a31f8289decff1cd16", "type": "electric_scooter", "is_disabled": 0, "lat": 38.921253, "rental_uris": {"ios": "https://dc.lft.to/lastmile_qr_scan", "android": "https://dc.lft.to/lastmile_qr_scan"}, "is_reserved": 0, "fusion_lon": 0.0, "fusion_lat": 0.0, "lon": -77.0442155, "name": "bb5c34224aec12a31f8289decff1cd16"}, {"bike_id": "d78f312387c43be278f7f31ef85b702e", "type": "electric_scooter", "is_disabled": 0, "lat": 38.912037166666664, "rental_uris": {"ios": "https://dc.lft.to/lastmile_qr_scan", "android": "https://dc.lft.to/lastmile_qr_scan"}, "is_reserved": 0, "fusion_lon": 0.0, "fusion_lat": 0.0, "lon": -77.03838383333333, "name": "d78f312387c43be278f7f31ef85b702e"}, {"bike_id": "aa7c6465676a6a5bb6f0c1ffd7ace8ae", "type": "electric_scooter", "is_disabled": 0, "lat": 38.914533166666665, "rental_uris": {"ios": "https://dc.lft.to/lastmile_qr_scan", "android": "https://dc.lft.to/lastmile_qr_scan"}, "is_reserved": 0, "fusion_lon": 0.0, "fusion_lat": 0.0, "lon": -77.072699, "name": "aa7c6465676a6a5bb6f0c1ffd7ace8ae"}, {"bike_id": "e0b63fef449e1ecfa7f3262ae4d87490", "type": "electric_scooter", "is_disabled": 0, "lat": 38.91911833333333, "rental_uris": {"ios": "https://dc.lft.to/lastmile_qr_scan", "android": "https://dc.lft.to/lastmile_qr_scan"}, "is_reserved": 0, "fusion_lon": 0.0, "fusion_lat": 0.0, "lon": -77.02945483333333, "name": "e0b63fef449e1ecfa7f3262ae4d87490"}, {"bike_id": "dbe0e0b8b1346dcea2a4285ae62f3894", "type": "electric_scooter", "is_disabled": 0, "lat": 38.9619195, "rental_uris": {"ios": "https://dc.lft.to/lastmile_qr_scan", "android": "https://dc.lft.to/lastmile_qr_scan"}, "is_reserved": 0, "fusion_lon": 0.0, "fusion_lat": 0.0, "lon": -77.02807466666667, "name": "dbe0e0b8b1346dcea2a4285ae62f3894"}, {"bike_id": "6d8226a387a644a71e9e57014b9c29ac", "type": "electric_scooter", "is_disabled": 0, "lat": 38.86249016666667, "rental_uris": {"ios": "https://dc.lft.to/lastmile_qr_scan", "android": "https://dc.lft.to/lastmile_qr_scan"}, "is_reserved": 0, "fusion_lon": 0.0, "fusion_lat": 0.0, "lon": -76.995001, "name": "6d8226a387a644a71e9e57014b9c29ac"}, {"bike_id": "2fc43f2794bc6e604a2d8b51e3d297ca", "type": "electric_scooter", "is_disabled": 0, "lat": 38.906736333333335, "rental_uris": {"ios": "https://dc.lft.to/lastmile_qr_scan", "android": "https://dc.lft.to/lastmile_qr_scan"}, "is_reserved": 0, "fusion_lon": 0.0, "fusion_lat": 0.0, "lon": -77.07174633333334, "name": "2fc43f2794bc6e604a2d8b51e3d297ca"}, {"bike_id": "0fb4fe052974474e109899ef7e874dac", "type": "electric_scooter", "is_disabled": 0, "lat": 38.90659616666667, "rental_uris": {"ios": "https://dc.lft.to/lastmile_qr_scan", "android": "https://dc.lft.to/lastmile_qr_scan"}, "is_reserved": 0, "fusion_lon": 0.0, "fusion_lat": 0.0, "lon": -77.0145545, "name": "0fb4fe052974474e109899ef7e874dac"}, {"bike_id": "bd2ea50dad4a00b7db74152642f6d47b", "type": "electric_scooter", "is_disabled": 0, "lat": 38.903337666666665, "rental_uris": {"ios": "https://dc.lft.to/lastmile_qr_scan", "android": "https://dc.lft.to/lastmile_qr_scan"}, "is_reserved": 0, "fusion_lon": 0.0, "fusion_lat": 0.0, "lon": -77.06927966666667, "name": "bd2ea50dad4a00b7db74152642f6d47b"}, {"bike_id": "b77f19e4aa17069810fea1c3584354f0", "type": "electric_scooter", "is_disabled": 0, "lat": 38.984305166666665, "rental_uris": {"ios": "https://dc.lft.to/lastmile_qr_scan", "android": "https://dc.lft.to/lastmile_qr_scan"}, "is_reserved": 0, "fusion_lon": 0.0, "fusion_lat": 0.0, "lon": -77.026729, "name": "b77f19e4aa17069810fea1c3584354f0"}, {"bike_id": "08a50b36991b9a0ea416dadcb6a4fc7e", "type": "electric_scooter", "is_disabled": 0, "lat": 38.92707566666667, "rental_uris": {"ios": "https://dc.lft.to/lastmile_qr_scan", "android": "https://dc.lft.to/lastmile_qr_scan"}, "is_reserved": 0, "fusion_lon": 0.0, "fusion_lat": 0.0, "lon": -77.02329566666667, "name": "08a50b36991b9a0ea416dadcb6a4fc7e"}, {"bike_id": "4c29376015f7cbcc1ab8151665d8089f", "type": "electric_scooter", "is_disabled": 0, "lat": 38.90060583333333, "rental_uris": {"ios": "https://dc.lft.to/lastmile_qr_scan", "android": "https://dc.lft.to/lastmile_qr_scan"}, "is_reserved": 0, "fusion_lon": 0.0, "fusion_lat": 0.0, "lon": -77.0349795, "name": "4c29376015f7cbcc1ab8151665d8089f"}, {"bike_id": "03319f30b65b877dec240edb74a6d220", "type": "electric_scooter", "is_disabled": 0, "lat": 38.9040065, "rental_uris": {"ios": "https://dc.lft.to/lastmile_qr_scan", "android": "https://dc.lft.to/lastmile_qr_scan"}, "is_reserved": 0, "fusion_lon": 0.0, "fusion_lat": 0.0, "lon": -76.98947883333334, "name": "03319f30b65b877dec240edb74a6d220"}, {"bike_id": "1d9b0c465ac1ea1c33c2b46d8a388e43", "type": "electric_scooter", "is_disabled": 0, "lat": 38.91918416666667, "rental_uris": {"ios": "https://dc.lft.to/lastmile_qr_scan", "android": "https://dc.lft.to/lastmile_qr_scan"}, "is_reserved": 0, "fusion_lon": 0.0, "fusion_lat": 0.0, "lon": -77.04462716666667, "name": "1d9b0c465ac1ea1c33c2b46d8a388e43"}, {"bike_id": "d6457123983c1b120a6e6929b4fcbe3d", "type": "electric_scooter", "is_disabled": 0, "lat": 38.957853666666665, "rental_uris": {"ios": "https://dc.lft.to/lastmile_qr_scan", "android": "https://dc.lft.to/lastmile_qr_scan"}, "is_reserved": 0, "fusion_lon": 0.0, "fusion_lat": 0.0, "lon": -77.01993416666667, "name": "d6457123983c1b120a6e6929b4fcbe3d"}, {"bike_id": "af9b93358e319b34b3c2e9e8e0e13177", "type": "electric_scooter", "is_disabled": 0, "lat": 38.9073205, "rental_uris": {"ios": "https://dc.lft.to/lastmile_qr_scan", "android": "https://dc.lft.to/lastmile_qr_scan"}, "is_reserved": 0, "fusion_lon": 0.0, "fusion_lat": 0.0, "lon": -77.029497, "name": "af9b93358e319b34b3c2e9e8e0e13177"}, {"bike_id": "d38c4af96ad9007f79b32195807ed23d", "type": "electric_scooter", "is_disabled": 0, "lat": 38.90032566666667, "rental_uris": {"ios": "https://dc.lft.to/lastmile_qr_scan", "android": "https://dc.lft.to/lastmile_qr_scan"}, "is_reserved": 0, "fusion_lon": 0.0, "fusion_lat": 0.0, "lon": -77.01764233333333, "name": "d38c4af96ad9007f79b32195807ed23d"}, {"bike_id": "889454f87fb99ec7b4fe8ae15d51a6c6", "type": "electric_scooter", "is_disabled": 0, "lat": 38.902620166666665, "rental_uris": {"ios": "https://dc.lft.to/lastmile_qr_scan", "android": "https://dc.lft.to/lastmile_qr_scan"}, "is_reserved": 0, "fusion_lon": 0.0, "fusion_lat": 0.0, "lon": -77.01841983333334, "name": "889454f87fb99ec7b4fe8ae15d51a6c6"}, {"bike_id": "60a892fa0c88e54733b0a71fa586ac9f", "type": "electric_scooter", "is_disabled": 0, "lat": 38.916147, "rental_uris": {"ios": "https://dc.lft.to/lastmile_qr_scan", "android": "https://dc.lft.to/lastmile_qr_scan"}, "is_reserved": 0, "fusion_lon": 0.0, "fusion_lat": 0.0, "lon": -77.048605, "name": "60a892fa0c88e54733b0a71fa586ac9f"}, {"bike_id": "05795e764ff4cbc4615bea8899404a5c", "type": "electric_scooter", "is_disabled": 0, "lat": 38.9186435, "rental_uris": {"ios": "https://dc.lft.to/lastmile_qr_scan", "android": "https://dc.lft.to/lastmile_qr_scan"}, "is_reserved": 0, "fusion_lon": 0.0, "fusion_lat": 0.0, "lon": -77.02800033333334, "name": "05795e764ff4cbc4615bea8899404a5c"}, {"bike_id": "82be2c13d0affe845f93529e4573d9a0", "type": "electric_scooter", "is_disabled": 0, "lat": 38.90132033333333, "rental_uris": {"ios": "https://dc.lft.to/lastmile_qr_scan", "android": "https://dc.lft.to/lastmile_qr_scan"}, "is_reserved": 0, "fusion_lon": 0.0, "fusion_lat": 0.0, "lon": -77.02460066666667, "name": "82be2c13d0affe845f93529e4573d9a0"}, {"bike_id": "1cb5df3319960012c3ce6395c881d2c1", "type": "electric_scooter", "is_disabled": 0, "lat": 38.89618333333333, "rental_uris": {"ios": "https://dc.lft.to/lastmile_qr_scan", "android": "https://dc.lft.to/lastmile_qr_scan"}, "is_reserved": 0, "fusion_lon": 0.0, "fusion_lat": 0.0, "lon": -77.000248, "name": "1cb5df3319960012c3ce6395c881d2c1"}, {"bike_id": "a0244522dc76638205f563ffd5be1837", "type": "electric_scooter", "is_disabled": 0, "lat": 38.915692, "rental_uris": {"ios": "https://dc.lft.to/lastmile_qr_scan", "android": "https://dc.lft.to/lastmile_qr_scan"}, "is_reserved": 0, "fusion_lon": 0.0, "fusion_lat": 0.0, "lon": -77.02386433333334, "name": "a0244522dc76638205f563ffd5be1837"}, {"bike_id": "6fb803fe1c6c7a83315590d19e53642d", "type": "electric_scooter", "is_disabled": 0, "lat": 38.8925735, "rental_uris": {"ios": "https://dc.lft.to/lastmile_qr_scan", "android": "https://dc.lft.to/lastmile_qr_scan"}, "is_reserved": 0, "fusion_lon": 0.0, "fusion_lat": 0.0, "lon": -77.03343733333334, "name": "6fb803fe1c6c7a83315590d19e53642d"}, {"bike_id": "b42211d54e0bf033636958f3b616e9ae", "type": "electric_bike", "is_disabled": 0, "lat": 38.87134733333333, "rental_uris": {"ios": "https://dc.lft.to/lastmile_qr_scan", "android": "https://dc.lft.to/lastmile_qr_scan"}, "is_reserved": 0, "fusion_lon": 0.0, "fusion_lat": 0.0, "lon": -77.10027166666667, "name": "b42211d54e0bf033636958f3b616e9ae"}, {"bike_id": "51ac94f6d43a936dc69a32f8aa49be1c", "type": "electric_bike", "is_disabled": 0, "lat": 38.8360965, "rental_uris": {"ios": "https://dc.lft.to/lastmile_qr_scan", "android": "https://dc.lft.to/lastmile_qr_scan"}, "is_reserved": 0, "fusion_lon": 0.0, "fusion_lat": 0.0, "lon": -77.003825, "name": "51ac94f6d43a936dc69a32f8aa49be1c"}, {"bike_id": "23bb143a4bf733824bfe67267ef11d17", "type": "electric_scooter", "is_disabled": 0, "lat": 38.903115, "rental_uris": {"ios": "https://dc.lft.to/lastmile_qr_scan", "android": "https://dc.lft.to/lastmile_qr_scan"}, "is_reserved": 0, "fusion_lon": 0.0, "fusion_lat": 0.0, "lon": -76.98358316666666, "name": "23bb143a4bf733824bfe67267ef11d17"}, {"bike_id": "7bc52e048bfe89a64d97a27686409c36", "type": "electric_scooter", "is_disabled": 0, "lat": 38.90338533333333, "rental_uris": {"ios": "https://dc.lft.to/lastmile_qr_scan", "android": "https://dc.lft.to/lastmile_qr_scan"}, "is_reserved": 0, "fusion_lon": 0.0, "fusion_lat": 0.0, "lon": -76.97583733333333, "name": "7bc52e048bfe89a64d97a27686409c36"}, {"bike_id": "d845cc9a61bb7f7c999c446dbfcd8a0b", "type": "electric_scooter", "is_disabled": 0, "lat": 38.90819466666667, "rental_uris": {"ios": "https://dc.lft.to/lastmile_qr_scan", "android": "https://dc.lft.to/lastmile_qr_scan"}, "is_reserved": 0, "fusion_lon": 0.0, "fusion_lat": 0.0, "lon": -77.04355216666667, "name": "d845cc9a61bb7f7c999c446dbfcd8a0b"}, {"bike_id": "0041c919414018b387aebb03e31bb613", "type": "electric_scooter", "is_disabled": 0, "lat": 38.924480333333335, "rental_uris": {"ios": "https://dc.lft.to/lastmile_qr_scan", "android": "https://dc.lft.to/lastmile_qr_scan"}, "is_reserved": 0, "fusion_lon": 0.0, "fusion_lat": 0.0, "lon": -77.024107, "name": "0041c919414018b387aebb03e31bb613"}, {"bike_id": "a641c8c352ce0c4fabda192d817f2cb4", "type": "electric_scooter", "is_disabled": 0, "lat": 38.88074233333333, "rental_uris": {"ios": "https://dc.lft.to/lastmile_qr_scan", "android": "https://dc.lft.to/lastmile_qr_scan"}, "is_reserved": 0, "fusion_lon": 0.0, "fusion_lat": 0.0, "lon": -76.99508966666667, "name": "a641c8c352ce0c4fabda192d817f2cb4"}, {"bike_id": "e751efc21a5abc3b2a35e6c35b127539", "type": "electric_scooter", "is_disabled": 0, "lat": 38.9346365, "rental_uris": {"ios": "https://dc.lft.to/lastmile_qr_scan", "android": "https://dc.lft.to/lastmile_qr_scan"}, "is_reserved": 0, "fusion_lon": 0.0, "fusion_lat": 0.0, "lon": -77.02798933333334, "name": "e751efc21a5abc3b2a35e6c35b127539"}, {"bike_id": "94ceef44f9d19c6d2edc7a54f4ce9422", "type": "electric_scooter", "is_disabled": 0, "lat": 38.8745815, "rental_uris": {"ios": "https://dc.lft.to/lastmile_qr_scan", "android": "https://dc.lft.to/lastmile_qr_scan"}, "is_reserved": 0, "fusion_lon": 0.0, "fusion_lat": 0.0, "lon": -77.002964, "name": "94ceef44f9d19c6d2edc7a54f4ce9422"}, {"bike_id": "1ac807be4124dbb1fb106658435f82d0", "type": "electric_scooter", "is_disabled": 0, "lat": 38.862488, "rental_uris": {"ios": "https://dc.lft.to/lastmile_qr_scan", "android": "https://dc.lft.to/lastmile_qr_scan"}, "is_reserved": 0, "fusion_lon": 0.0, "fusion_lat": 0.0, "lon": -76.99500233333333, "name": "1ac807be4124dbb1fb106658435f82d0"}, {"bike_id": "8695e4ef926b64c1267c71d34d121480", "type": "electric_scooter", "is_disabled": 0, "lat": 38.94842116666667, "rental_uris": {"ios": "https://dc.lft.to/lastmile_qr_scan", "android": "https://dc.lft.to/lastmile_qr_scan"}, "is_reserved": 0, "fusion_lon": 0.0, "fusion_lat": 0.0, "lon": -77.02545433333333, "name": "8695e4ef926b64c1267c71d34d121480"}, {"bike_id": "6438a8f0c0e298adf962f4303f618fe5", "type": "electric_scooter", "is_disabled": 0, "lat": 38.8544555, "rental_uris": {"ios": "https://dc.lft.to/lastmile_qr_scan", "android": "https://dc.lft.to/lastmile_qr_scan"}, "is_reserved": 0, "fusion_lon": 0.0, "fusion_lat": 0.0, "lon": -76.98606716666667, "name": "6438a8f0c0e298adf962f4303f618fe5"}, {"bike_id": "deb735d08a4f045851a6f38b29c87bdf", "type": "electric_scooter", "is_disabled": 0, "lat": 38.9342615, "rental_uris": {"ios": "https://dc.lft.to/lastmile_qr_scan", "android": "https://dc.lft.to/lastmile_qr_scan"}, "is_reserved": 0, "fusion_lon": 0.0, "fusion_lat": 0.0, "lon": -77.03907483333333, "name": "deb735d08a4f045851a6f38b29c87bdf"}, {"bike_id": "5bfd65a3734ee5b0bdc836c804a700e1", "type": "electric_scooter", "is_disabled": 0, "lat": 38.9182425, "rental_uris": {"ios": "https://dc.lft.to/lastmile_qr_scan", "android": "https://dc.lft.to/lastmile_qr_scan"}, "is_reserved": 0, "fusion_lon": 0.0, "fusion_lat": 0.0, "lon": -77.03668666666667, "name": "5bfd65a3734ee5b0bdc836c804a700e1"}, {"bike_id": "679680c45de99804d28764dc69159723", "type": "electric_bike", "is_disabled": 0, "lat": 38.854322333333336, "rental_uris": {"ios": "https://dc.lft.to/lastmile_qr_scan", "android": "https://dc.lft.to/lastmile_qr_scan"}, "is_reserved": 0, "fusion_lon": 0.0, "fusion_lat": 0.0, "lon": -77.12083733333333, "name": "679680c45de99804d28764dc69159723"}, {"bike_id": "c2790be0c2ce8981e8ec56ba0e9495f8", "type": "electric_scooter", "is_disabled": 0, "lat": 38.942970333333335, "rental_uris": {"ios": "https://dc.lft.to/lastmile_qr_scan", "android": "https://dc.lft.to/lastmile_qr_scan"}, "is_reserved": 0, "fusion_lon": 0.0, "fusion_lat": 0.0, "lon": -77.02165716666667, "name": "c2790be0c2ce8981e8ec56ba0e9495f8"}, {"bike_id": "70a1b6b781d9280693e8e588b6b39d06", "type": "electric_scooter", "is_disabled": 0, "lat": 38.90743966666667, "rental_uris": {"ios": "https://dc.lft.to/lastmile_qr_scan", "android": "https://dc.lft.to/lastmile_qr_scan"}, "is_reserved": 0, "fusion_lon": 0.0, "fusion_lat": 0.0, "lon": -77.04499133333333, "name": "70a1b6b781d9280693e8e588b6b39d06"}, {"bike_id": "276df8c4af1af36971f6185037758fb3", "type": "electric_scooter", "is_disabled": 0, "lat": 38.93330433333333, "rental_uris": {"ios": "https://dc.lft.to/lastmile_qr_scan", "android": "https://dc.lft.to/lastmile_qr_scan"}, "is_reserved": 0, "fusion_lon": 0.0, "fusion_lat": 0.0, "lon": -77.0292495, "name": "276df8c4af1af36971f6185037758fb3"}, {"bike_id": "6434d3b00a057cd5f4d53b17b8c78089", "type": "electric_scooter", "is_disabled": 0, "lat": 38.91163933333333, "rental_uris": {"ios": "https://dc.lft.to/lastmile_qr_scan", "android": "https://dc.lft.to/lastmile_qr_scan"}, "is_reserved": 0, "fusion_lon": 0.0, "fusion_lat": 0.0, "lon": -77.01621483333334, "name": "6434d3b00a057cd5f4d53b17b8c78089"}, {"bike_id": "30bb2064e0915553d30b03b7acfc48aa", "type": "electric_scooter", "is_disabled": 0, "lat": 38.91932033333333, "rental_uris": {"ios": "https://dc.lft.to/lastmile_qr_scan", "android": "https://dc.lft.to/lastmile_qr_scan"}, "is_reserved": 0, "fusion_lon": 0.0, "fusion_lat": 0.0, "lon": -77.04494966666667, "name": "30bb2064e0915553d30b03b7acfc48aa"}, {"bike_id": "62f9d7dbd53e1656a269a4b1122a9203", "type": "electric_scooter", "is_disabled": 0, "lat": 38.9078685, "rental_uris": {"ios": "https://dc.lft.to/lastmile_qr_scan", "android": "https://dc.lft.to/lastmile_qr_scan"}, "is_reserved": 0, "fusion_lon": 0.0, "fusion_lat": 0.0, "lon": -77.048915, "name": "62f9d7dbd53e1656a269a4b1122a9203"}, {"bike_id": "3bbbf08c4329403001f31ea9262bbb42", "type": "electric_scooter", "is_disabled": 0, "lat": 38.90686616666667, "rental_uris": {"ios": "https://dc.lft.to/lastmile_qr_scan", "android": "https://dc.lft.to/lastmile_qr_scan"}, "is_reserved": 0, "fusion_lon": 0.0, "fusion_lat": 0.0, "lon": -77.02690033333333, "name": "3bbbf08c4329403001f31ea9262bbb42"}, {"bike_id": "8c36ac36a1a54619c023da3bdd4e78d5", "type": "electric_scooter", "is_disabled": 0, "lat": 38.90564066666666, "rental_uris": {"ios": "https://dc.lft.to/lastmile_qr_scan", "android": "https://dc.lft.to/lastmile_qr_scan"}, "is_reserved": 0, "fusion_lon": 0.0, "fusion_lat": 0.0, "lon": -77.0058755, "name": "8c36ac36a1a54619c023da3bdd4e78d5"}, {"bike_id": "937c534190fe1cfd0831979ef388a858", "type": "electric_scooter", "is_disabled": 0, "lat": 38.92451616666666, "rental_uris": {"ios": "https://dc.lft.to/lastmile_qr_scan", "android": "https://dc.lft.to/lastmile_qr_scan"}, "is_reserved": 0, "fusion_lon": 0.0, "fusion_lat": 0.0, "lon": -77.04111833333333, "name": "937c534190fe1cfd0831979ef388a858"}, {"bike_id": "932a194653b90d85a220d7921d0308d5", "type": "electric_scooter", "is_disabled": 0, "lat": 38.92749166666667, "rental_uris": {"ios": "https://dc.lft.to/lastmile_qr_scan", "android": "https://dc.lft.to/lastmile_qr_scan"}, "is_reserved": 0, "fusion_lon": 0.0, "fusion_lat": 0.0, "lon": -77.0357075, "name": "932a194653b90d85a220d7921d0308d5"}, {"bike_id": "19122dd377b8951453b97e566918181f", "type": "electric_scooter", "is_disabled": 0, "lat": 38.9232965, "rental_uris": {"ios": "https://dc.lft.to/lastmile_qr_scan", "android": "https://dc.lft.to/lastmile_qr_scan"}, "is_reserved": 0, "fusion_lon": 0.0, "fusion_lat": 0.0, "lon": -77.00049783333333, "name": "19122dd377b8951453b97e566918181f"}, {"bike_id": "0958177a87cc158793549683e6ee478d", "type": "electric_scooter", "is_disabled": 0, "lat": 38.89540266666667, "rental_uris": {"ios": "https://dc.lft.to/lastmile_qr_scan", "android": "https://dc.lft.to/lastmile_qr_scan"}, "is_reserved": 0, "fusion_lon": 0.0, "fusion_lat": 0.0, "lon": -76.9492825, "name": "0958177a87cc158793549683e6ee478d"}, {"bike_id": "6a0c844d8132903531cbe0787f3d0a51", "type": "electric_scooter", "is_disabled": 0, "lat": 38.897988833333336, "rental_uris": {"ios": "https://dc.lft.to/lastmile_qr_scan", "android": "https://dc.lft.to/lastmile_qr_scan"}, "is_reserved": 0, "fusion_lon": 0.0, "fusion_lat": 0.0, "lon": -77.011866, "name": "6a0c844d8132903531cbe0787f3d0a51"}, {"bike_id": "de8989bb11a2422793b75e9143d41210", "type": "electric_scooter", "is_disabled": 0, "lat": 38.9001465, "rental_uris": {"ios": "https://dc.lft.to/lastmile_qr_scan", "android": "https://dc.lft.to/lastmile_qr_scan"}, "is_reserved": 0, "fusion_lon": 0.0, "fusion_lat": 0.0, "lon": -77.00666633333333, "name": "de8989bb11a2422793b75e9143d41210"}, {"bike_id": "a99853e17d57758588e9a824c206ea26", "type": "electric_scooter", "is_disabled": 0, "lat": 38.9029195, "rental_uris": {"ios": "https://dc.lft.to/lastmile_qr_scan", "android": "https://dc.lft.to/lastmile_qr_scan"}, "is_reserved": 0, "fusion_lon": 0.0, "fusion_lat": 0.0, "lon": -77.038415, "name": "a99853e17d57758588e9a824c206ea26"}, {"bike_id": "f4291a801ddb8d388cf7ba9d1c3db40e", "type": "electric_scooter", "is_disabled": 0, "lat": 38.90615366666667, "rental_uris": {"ios": "https://dc.lft.to/lastmile_qr_scan", "android": "https://dc.lft.to/lastmile_qr_scan"}, "is_reserved": 0, "fusion_lon": 0.0, "fusion_lat": 0.0, "lon": -77.04103116666667, "name": "f4291a801ddb8d388cf7ba9d1c3db40e"}, {"bike_id": "cc86138917d7591e4d7ee716f3a434fa", "type": "electric_scooter", "is_disabled": 0, "lat": 38.928918333333336, "rental_uris": {"ios": "https://dc.lft.to/lastmile_qr_scan", "android": "https://dc.lft.to/lastmile_qr_scan"}, "is_reserved": 0, "fusion_lon": 0.0, "fusion_lat": 0.0, "lon": -77.0324765, "name": "cc86138917d7591e4d7ee716f3a434fa"}, {"bike_id": "5479773daba7c21612d4513974a57f89", "type": "electric_scooter", "is_disabled": 0, "lat": 38.900411166666665, "rental_uris": {"ios": "https://dc.lft.to/lastmile_qr_scan", "android": "https://dc.lft.to/lastmile_qr_scan"},