{"data": {"bikes": [{"fusion_lat": 0.0, "type": "electric_scooter", "name": "f36f07216ea130f1c932ab083dcf3a70", "fusion_lon": 0.0, "bike_id": "f36f07216ea130f1c932ab083dcf3a70", "is_reserved": 0, "rental_uris": {"android": "https://dc.lft.to/lastmile_qr_scan", "ios": "https://dc.lft.to/lastmile_qr_scan"}, "lat": 38.94284016666667, "is_disabled": 0, "lon": -77.0280175}, {"fusion_lat": 0.0, "type": "electric_scooter", "name": "6988a723645e340157b23dc0afede8c7", "fusion_lon": 0.0, "bike_id": "6988a723645e340157b23dc0afede8c7", "is_reserved": 0, "rental_uris": {"android": "https://dc.lft.to/lastmile_qr_scan", "ios": "https://dc.lft.to/lastmile_qr_scan"}, "lat": 38.95121316666667, "is_disabled": 0, "lon": -76.98670666666666}, {"fusion_lat": 0.0, "type": "electric_scooter", "name": "f2972625fd3fe30dcc50a698fa995827", "fusion_lon": 0.0, "bike_id": "f2972625fd3fe30dcc50a698fa995827", "is_reserved": 0, "rental_uris": {"android": "https://dc.lft.to/lastmile_qr_scan", "ios": "https://dc.lft.to/lastmile_qr_scan"}, "lat": 38.921791, "is_disabled": 0, "lon": -77.04004333333333}, {"fusion_lat": 0.0, "type": "electric_scooter", "name": "3b89b55d3018d1c35850d90a7956a142", "fusion_lon": 0.0, "bike_id": "3b89b55d3018d1c35850d90a7956a142", "is_reserved": 0, "rental_uris": {"android": "https://dc.lft.to/lastmile_qr_scan", "ios": "https://dc.lft.to/lastmile_qr_scan"}, "lat": 38.92520183333333, "is_disabled": 0, "lon": -77.05040566666666}, {"fusion_lat": 0.0, "type": "electric_scooter", "name": "6cf7677670e4962e37b30df58b8c3f16", "fusion_lon": 0.0, "bike_id": "6cf7677670e4962e37b30df58b8c3f16", "is_reserved": 0, "rental_uris": {"android": "https://dc.lft.to/lastmile_qr_scan", "ios": "https://dc.lft.to/lastmile_qr_scan"}, "lat": 38.89228166666667, "is_disabled": 0, "lon": -77.027992}, {"fusion_lat": 0.0, "type": "electric_scooter", "name": "ec9b1d1d15240f38f456736b9183ab67", "fusion_lon": 0.0, "bike_id": "ec9b1d1d15240f38f456736b9183ab67", "is_reserved": 0, "rental_uris": {"android": "https://dc.lft.to/lastmile_qr_scan", "ios": "https://dc.lft.to/lastmile_qr_scan"}, "lat": 38.89713283333333, "is_disabled": 0, "lon": -77.03305166666667}, {"fusion_lat": 0.0, "type": "electric_scooter", "name": "7d09bb20ece329a7b25db225cbf07a9b", "fusion_lon": 0.0, "bike_id": "7d09bb20ece329a7b25db225cbf07a9b", "is_reserved": 0, "rental_uris": {"android": "https://dc.lft.to/lastmile_qr_scan", "ios": "https://dc.lft.to/lastmile_qr_scan"}, "lat": 38.911974666666666, "is_disabled": 0, "lon": -77.000944}, {"fusion_lat": 0.0, "type": "electric_scooter", "name": "1bbe6d89c0474d80d919658d27f81cfc", "fusion_lon": 0.0, "bike_id": "1bbe6d89c0474d80d919658d27f81cfc", "is_reserved": 0, "rental_uris": {"android": "https://dc.lft.to/lastmile_qr_scan", "ios": "https://dc.lft.to/lastmile_qr_scan"}, "lat": 38.892380333333335, "is_disabled": 0, "lon": -77.04163183333333}, {"fusion_lat": 0.0, "type": "electric_scooter", "name": "862d155f4ec2e059eaaf8eb8f628140a", "fusion_lon": 0.0, "bike_id": "862d155f4ec2e059eaaf8eb8f628140a", "is_reserved": 0, "rental_uris": {"android": "https://dc.lft.to/lastmile_qr_scan", "ios": "https://dc.lft.to/lastmile_qr_scan"}, "lat": 38.90684066666667, "is_disabled": 0, "lon": -77.0162205}, {"fusion_lat": 0.0, "type": "electric_scooter", "name": "acddeebf69a8d994eab3d9e94e8a0792", "fusion_lon": 0.0, "bike_id": "acddeebf69a8d994eab3d9e94e8a0792", "is_reserved": 0, "rental_uris": {"android": "https://dc.lft.to/lastmile_qr_scan", "ios": "https://dc.lft.to/lastmile_qr_scan"}, "lat": 38.873935333333336, "is_disabled": 0, "lon": -77.00029383333333}, {"fusion_lat": 0.0, "type": "electric_scooter", "name": "260beaf001b1b7b522a33d4a098ddfb1", "fusion_lon": 0.0, "bike_id": "260beaf001b1b7b522a33d4a098ddfb1", "is_reserved": 0, "rental_uris": {"android": "https://dc.lft.to/lastmile_qr_scan", "ios": "https://dc.lft.to/lastmile_qr_scan"}, "lat": 38.905543, "is_disabled": 0, "lon": -77.0060135}, {"fusion_lat": 0.0, "type": "electric_scooter", "name": "4e35de4cfef44d4686258f242fc3b98b", "fusion_lon": 0.0, "bike_id": "4e35de4cfef44d4686258f242fc3b98b", "is_reserved": 0, "rental_uris": {"android": "https://dc.lft.to/lastmile_qr_scan", "ios": "https://dc.lft.to/lastmile_qr_scan"}, "lat": 38.86244533333333, "is_disabled": 0, "lon": -76.99499866666666}, {"fusion_lat": 0.0, "type": "electric_bike", "name": "ba9fae76583bedfbad7437355219b5f2", "fusion_lon": 0.0, "bike_id": "ba9fae76583bedfbad7437355219b5f2", "is_reserved": 0, "rental_uris": {"android": "https://dc.lft.to/lastmile_qr_scan", "ios": "https://dc.lft.to/lastmile_qr_scan"}, "lat": 38.89613633333333, "is_disabled": 0, "lon": -76.907451}, {"fusion_lat": 0.0, "type": "electric_scooter", "name": "9197dc7115582dc3470b43ef6e37542e", "fusion_lon": 0.0, "bike_id": "9197dc7115582dc3470b43ef6e37542e", "is_reserved": 0, "rental_uris": {"android": "https://dc.lft.to/lastmile_qr_scan", "ios": "https://dc.lft.to/lastmile_qr_scan"}, "lat": 38.9013885, "is_disabled": 0, "lon": -77.01617833333333}, {"fusion_lat": 0.0, "type": "electric_scooter", "name": "4634b87dd203786ece1ff9fb3c83f698", "fusion_lon": 0.0, "bike_id": "4634b87dd203786ece1ff9fb3c83f698", "is_reserved": 0, "rental_uris": {"android": "https://dc.lft.to/lastmile_qr_scan", "ios": "https://dc.lft.to/lastmile_qr_scan"}, "lat": 38.94399416666667, "is_disabled": 0, "lon": -77.02679383333333}, {"fusion_lat": 0.0, "type": "electric_scooter", "name": "ab9920d6953717c1afafe9fe2cb24de0", "fusion_lon": 0.0, "bike_id": "ab9920d6953717c1afafe9fe2cb24de0", "is_reserved": 0, "rental_uris": {"android": "https://dc.lft.to/lastmile_qr_scan", "ios": "https://dc.lft.to/lastmile_qr_scan"}, "lat": 38.8666365, "is_disabled": 0, "lon": -76.98511133333334}, {"fusion_lat": 0.0, "type": "electric_scooter", "name": "32014b45f0dbdaeee7c8f9439724f25e", "fusion_lon": 0.0, "bike_id": "32014b45f0dbdaeee7c8f9439724f25e", "is_reserved": 0, "rental_uris": {"android": "https://dc.lft.to/lastmile_qr_scan", "ios": "https://dc.lft.to/lastmile_qr_scan"}, "lat": 38.92997, "is_disabled": 0, "lon": -77.01557233333334}, {"fusion_lat": 0.0, "type": "electric_scooter", "name": "9669e6b1f793f6c0401c1978e0ec26e6", "fusion_lon": 0.0, "bike_id": "9669e6b1f793f6c0401c1978e0ec26e6", "is_reserved": 0, "rental_uris": {"android": "https://dc.lft.to/lastmile_qr_scan", "ios": "https://dc.lft.to/lastmile_qr_scan"}, "lat": 38.912371, "is_disabled": 0, "lon": -77.009199}, {"fusion_lat": 0.0, "type": "electric_scooter", "name": "c8b6922f55b81ff91579c3b803f41d34", "fusion_lon": 0.0, "bike_id": "c8b6922f55b81ff91579c3b803f41d34", "is_reserved": 0, "rental_uris": {"android": "https://dc.lft.to/lastmile_qr_scan", "ios": "https://dc.lft.to/lastmile_qr_scan"}, "lat": 38.925788, "is_disabled": 0, "lon": -77.0286175}, {"fusion_lat": 0.0, "type": "electric_scooter", "name": "65c2e708081757bb260f40389ac5b0ca", "fusion_lon": 0.0, "bike_id": "65c2e708081757bb260f40389ac5b0ca", "is_reserved": 0, "rental_uris": {"android": "https://dc.lft.to/lastmile_qr_scan", "ios": "https://dc.lft.to/lastmile_qr_scan"}, "lat": 38.902476666666665, "is_disabled": 0, "lon": -76.97414566666667}, {"fusion_lat": 0.0, "type": "electric_scooter", "name": "db6c99bd4f7a2d710fffd9e047a7ad5b", "fusion_lon": 0.0, "bike_id": "db6c99bd4f7a2d710fffd9e047a7ad5b", "is_reserved": 0, "rental_uris": {"android": "https://dc.lft.to/lastmile_qr_scan", "ios": "https://dc.lft.to/lastmile_qr_scan"}, "lat": 38.8747275, "is_disabled": 0, "lon": -77.0159715}, {"fusion_lat": 0.0, "type": "electric_scooter", "name": "35f6014ccabc11eb02f4156138341d71", "fusion_lon": 0.0, "bike_id": "35f6014ccabc11eb02f4156138341d71", "is_reserved": 0, "rental_uris": {"android": "https://dc.lft.to/lastmile_qr_scan", "ios": "https://dc.lft.to/lastmile_qr_scan"}, "lat": 38.922522666666666, "is_disabled": 0, "lon": -77.02856633333333}, {"fusion_lat": 0.0, "type": "electric_scooter", "name": "23dd4d78f74b56d6248b43343a9ce9ee", "fusion_lon": 0.0, "bike_id": "23dd4d78f74b56d6248b43343a9ce9ee", "is_reserved": 0, "rental_uris": {"android": "https://dc.lft.to/lastmile_qr_scan", "ios": "https://dc.lft.to/lastmile_qr_scan"}, "lat": 38.8977355, "is_disabled": 0, "lon": -77.05461133333333}, {"fusion_lat": 0.0, "type": "electric_scooter", "name": "87989c76e6f2638139e9e1b6b3dc8fce", "fusion_lon": 0.0, "bike_id": "87989c76e6f2638139e9e1b6b3dc8fce", "is_reserved": 0, "rental_uris": {"android": "https://dc.lft.to/lastmile_qr_scan", "ios": "https://dc.lft.to/lastmile_qr_scan"}, "lat": 38.90876016666667, "is_disabled": 0, "lon": -77.02349783333334}, {"fusion_lat": 0.0, "type": "electric_scooter", "name": "55650cb8814c6baa1f4fc2456febcf1e", "fusion_lon": 0.0, "bike_id": "55650cb8814c6baa1f4fc2456febcf1e", "is_reserved": 0, "rental_uris": {"android": "https://dc.lft.to/lastmile_qr_scan", "ios": "https://dc.lft.to/lastmile_qr_scan"}, "lat": 38.928239166666664, "is_disabled": 0, "lon": -77.02256366666667}, {"fusion_lat": 0.0, "type": "electric_scooter", "name": "eb20ea0bf9b0c66493055b24b7d32833", "fusion_lon": 0.0, "bike_id": "eb20ea0bf9b0c66493055b24b7d32833", "is_reserved": 0, "rental_uris": {"android": "https://dc.lft.to/lastmile_qr_scan", "ios": "https://dc.lft.to/lastmile_qr_scan"}, "lat": 38.89881116666667, "is_disabled": 0, "lon": -77.025904}, {"fusion_lat": 0.0, "type": "electric_scooter", "name": "e35b4038208fd67a8a9ea31be299f354", "fusion_lon": 0.0, "bike_id": "e35b4038208fd67a8a9ea31be299f354", "is_reserved": 0, "rental_uris": {"android": "https://dc.lft.to/lastmile_qr_scan", "ios": "https://dc.lft.to/lastmile_qr_scan"}, "lat": 38.91473333333333, "is_disabled": 0, "lon": -77.06941616666667}, {"fusion_lat": 0.0, "type": "electric_scooter", "name": "74498f2c83e1e3c4a6b2d7178522054c", "fusion_lon": 0.0, "bike_id": "74498f2c83e1e3c4a6b2d7178522054c", "is_reserved": 0, "rental_uris": {"android": "https://dc.lft.to/lastmile_qr_scan", "ios": "https://dc.lft.to/lastmile_qr_scan"}, "lat": 38.92900433333333, "is_disabled": 0, "lon": -77.00417883333333}, {"fusion_lat": 0.0, "type": "electric_bike", "name": "925233b68e5c0c5e5a58df4dec6e73cf", "fusion_lon": 0.0, "bike_id": "925233b68e5c0c5e5a58df4dec6e73cf", "is_reserved": 0, "rental_uris": {"android": "https://dc.lft.to/lastmile_qr_scan", "ios": "https://dc.lft.to/lastmile_qr_scan"}, "lat": 38.86263, "is_disabled": 0, "lon": -76.98356216666667}, {"fusion_lat": 0.0, "type": "electric_scooter", "name": "4f14d0de46aeeedbece26b64f9d1d26a", "fusion_lon": 0.0, "bike_id": "4f14d0de46aeeedbece26b64f9d1d26a", "is_reserved": 0, "rental_uris": {"android": "https://dc.lft.to/lastmile_qr_scan", "ios": "https://dc.lft.to/lastmile_qr_scan"}, "lat": 38.921020666666664, "is_disabled": 0, "lon": -77.04357266666666}, {"fusion_lat": 0.0, "type": "electric_scooter", "name": "ba677f1ea01cde178e03d6ad92865352", "fusion_lon": 0.0, "bike_id": "ba677f1ea01cde178e03d6ad92865352", "is_reserved": 0, "rental_uris": {"android": "https://dc.lft.to/lastmile_qr_scan", "ios": "https://dc.lft.to/lastmile_qr_scan"}, "lat": 38.89219083333333, "is_disabled": 0, "lon": -77.02627966666667}, {"fusion_lat": 0.0, "type": "electric_scooter", "name": "54678225d13554d384c88c5d2a583337", "fusion_lon": 0.0, "bike_id": "54678225d13554d384c88c5d2a583337", "is_reserved": 0, "rental_uris": {"android": "https://dc.lft.to/lastmile_qr_scan", "ios": "https://dc.lft.to/lastmile_qr_scan"}, "lat": 38.944376, "is_disabled": 0, "lon": -77.02783983333333}, {"fusion_lat": 0.0, "type": "electric_scooter", "name": "4f71ae30404eabc43f348821b1e412e7", "fusion_lon": 0.0, "bike_id": "4f71ae30404eabc43f348821b1e412e7", "is_reserved": 0, "rental_uris": {"android": "https://dc.lft.to/lastmile_qr_scan", "ios": "https://dc.lft.to/lastmile_qr_scan"}, "lat": 38.935754833333334, "is_disabled": 0, "lon": -77.02120983333333}, {"fusion_lat": 0.0, "type": "electric_scooter", "name": "d8094f611634bf0c288043eb32341094", "fusion_lon": 0.0, "bike_id": "d8094f611634bf0c288043eb32341094", "is_reserved": 0, "rental_uris": {"android": "https://dc.lft.to/lastmile_qr_scan", "ios": "https://dc.lft.to/lastmile_qr_scan"}, "lat": 38.86696233333333, "is_disabled": 0, "lon": -76.98592933333333}, {"fusion_lat": 0.0, "type": "electric_scooter", "name": "a7e57bd0a8b563e5bcd4cc35d5a6c77a", "fusion_lon": 0.0, "bike_id": "a7e57bd0a8b563e5bcd4cc35d5a6c77a", "is_reserved": 0, "rental_uris": {"android": "https://dc.lft.to/lastmile_qr_scan", "ios": "https://dc.lft.to/lastmile_qr_scan"}, "lat": 38.904221666666665, "is_disabled": 0, "lon": -77.03454416666666}, {"fusion_lat": 0.0, "type": "electric_bike", "name": "96d9077940b7740c8b409e582ee28b7b", "fusion_lon": 0.0, "bike_id": "96d9077940b7740c8b409e582ee28b7b", "is_reserved": 0, "rental_uris": {"android": "https://dc.lft.to/lastmile_qr_scan", "ios": "https://dc.lft.to/lastmile_qr_scan"}, "lat": 38.87278166666667, "is_disabled": 0, "lon": -77.2331635}, {"fusion_lat": 0.0, "type": "electric_bike", "name": "1ddc877877bb0529918f234d7417589a", "fusion_lon": 0.0, "bike_id": "1ddc877877bb0529918f234d7417589a", "is_reserved": 0, "rental_uris": {"android": "https://dc.lft.to/lastmile_qr_scan", "ios": "https://dc.lft.to/lastmile_qr_scan"}, "lat": 38.9101905, "is_disabled": 0, "lon": -77.22796566666666}, {"fusion_lat": 0.0, "type": "electric_scooter", "name": "eb14fa58cd5f0055c7a87fd3f2569d40", "fusion_lon": 0.0, "bike_id": "eb14fa58cd5f0055c7a87fd3f2569d40", "is_reserved": 0, "rental_uris": {"android": "https://dc.lft.to/lastmile_qr_scan", "ios": "https://dc.lft.to/lastmile_qr_scan"}, "lat": 38.90084483333333, "is_disabled": 0, "lon": -77.04771283333334}, {"fusion_lat": 0.0, "type": "electric_scooter", "name": "de458e69699cb94726e385ed385accf1", "fusion_lon": 0.0, "bike_id": "de458e69699cb94726e385ed385accf1", "is_reserved": 0, "rental_uris": {"android": "https://dc.lft.to/lastmile_qr_scan", "ios": "https://dc.lft.to/lastmile_qr_scan"}, "lat": 38.92244783333334, "is_disabled": 0, "lon": -77.0212135}, {"fusion_lat": 0.0, "type": "electric_scooter", "name": "611adb6a438d8841fb3eeb21e323e2d2", "fusion_lon": 0.0, "bike_id": "611adb6a438d8841fb3eeb21e323e2d2", "is_reserved": 0, "rental_uris": {"android": "https://dc.lft.to/lastmile_qr_scan", "ios": "https://dc.lft.to/lastmile_qr_scan"}, "lat": 38.89220516666666, "is_disabled": 0, "lon": -77.02235266666666}, {"fusion_lat": 0.0, "type": "electric_bike", "name": "dcae206907ca407d26e3bd45b9675e31", "fusion_lon": 0.0, "bike_id": "dcae206907ca407d26e3bd45b9675e31", "is_reserved": 0, "rental_uris": {"android": "https://dc.lft.to/lastmile_qr_scan", "ios": "https://dc.lft.to/lastmile_qr_scan"}, "lat": 38.942282666666664, "is_disabled": 0, "lon": -76.96622933333333}, {"fusion_lat": 0.0, "type": "electric_scooter", "name": "c20d1d21882d95ed97d1a2558c532ad2", "fusion_lon": 0.0, "bike_id": "c20d1d21882d95ed97d1a2558c532ad2", "is_reserved": 0, "rental_uris": {"android": "https://dc.lft.to/lastmile_qr_scan", "ios": "https://dc.lft.to/lastmile_qr_scan"}, "lat": 38.8928735, "is_disabled": 0, "lon": -77.0123635}, {"fusion_lat": 0.0, "type": "electric_scooter", "name": "5a1fef95b4f2765f72d26d707da60a00", "fusion_lon": 0.0, "bike_id": "5a1fef95b4f2765f72d26d707da60a00", "is_reserved": 0, "rental_uris": {"android": "https://dc.lft.to/lastmile_qr_scan", "ios": "https://dc.lft.to/lastmile_qr_scan"}, "lat": 38.88725866666667, "is_disabled": 0, "lon": -77.02820866666667}, {"fusion_lat": 0.0, "type": "electric_scooter", "name": "3ae5b5edbec2429dbc56da202679f3e2", "fusion_lon": 0.0, "bike_id": "3ae5b5edbec2429dbc56da202679f3e2", "is_reserved": 0, "rental_uris": {"android": "https://dc.lft.to/lastmile_qr_scan", "ios": "https://dc.lft.to/lastmile_qr_scan"}, "lat": 38.92087216666667, "is_disabled": 0, "lon": -77.03170316666667}, {"fusion_lat": 0.0, "type": "electric_scooter", "name": "3ba826d221e167691fee1f130b287249", "fusion_lon": 0.0, "bike_id": "3ba826d221e167691fee1f130b287249", "is_reserved": 0, "rental_uris": {"android": "https://dc.lft.to/lastmile_qr_scan", "ios": "https://dc.lft.to/lastmile_qr_scan"}, "lat": 38.876326, "is_disabled": 0, "lon": -77.01081216666667}, {"fusion_lat": 0.0, "type": "electric_scooter", "name": "d87ed57e003fe068b5f97149e8bcdaca", "fusion_lon": 0.0, "bike_id": "d87ed57e003fe068b5f97149e8bcdaca", "is_reserved": 0, "rental_uris": {"android": "https://dc.lft.to/lastmile_qr_scan", "ios": "https://dc.lft.to/lastmile_qr_scan"}, "lat": 38.865346333333335, "is_disabled": 0, "lon": -76.98703266666666}, {"fusion_lat": 0.0, "type": "electric_scooter", "name": "b50141acf65766ce693e5d0ac81878a1", "fusion_lon": 0.0, "bike_id": "b50141acf65766ce693e5d0ac81878a1", "is_reserved": 0, "rental_uris": {"android": "https://dc.lft.to/lastmile_qr_scan", "ios": "https://dc.lft.to/lastmile_qr_scan"}, "lat": 38.9274335, "is_disabled": 0, "lon": -77.0356215}, {"fusion_lat": 0.0, "type": "electric_scooter", "name": "aede2d4f9e3c73d295738add670f44c1", "fusion_lon": 0.0, "bike_id": "aede2d4f9e3c73d295738add670f44c1", "is_reserved": 0, "rental_uris": {"android": "https://dc.lft.to/lastmile_qr_scan", "ios": "https://dc.lft.to/lastmile_qr_scan"}, "lat": 38.94198683333333, "is_disabled": 0, "lon": -77.0250865}, {"fusion_lat": 0.0, "type": "electric_scooter", "name": "e20afee92eadb017b2cd3a587a788452", "fusion_lon": 0.0, "bike_id": "e20afee92eadb017b2cd3a587a788452", "is_reserved": 0, "rental_uris": {"android": "https://dc.lft.to/lastmile_qr_scan", "ios": "https://dc.lft.to/lastmile_qr_scan"}, "lat": 38.92150016666667, "is_disabled": 0, "lon": -77.04206566666667}, {"fusion_lat": 0.0, "type": "electric_scooter", "name": "e1be39ae011dfa03e617b7ce1733e51e", "fusion_lon": 0.0, "bike_id": "e1be39ae011dfa03e617b7ce1733e51e", "is_reserved": 0, "rental_uris": {"android": "https://dc.lft.to/lastmile_qr_scan", "ios": "https://dc.lft.to/lastmile_qr_scan"}, "lat": 38.895095833333336, "is_disabled": 0, "lon": -76.94886066666666}, {"fusion_lat": 0.0, "type": "electric_scooter", "name": "3242b201be1fcfc522462d8bf5bbbf41", "fusion_lon": 0.0, "bike_id": "3242b201be1fcfc522462d8bf5bbbf41", "is_reserved": 0, "rental_uris": {"android": "https://dc.lft.to/lastmile_qr_scan", "ios": "https://dc.lft.to/lastmile_qr_scan"}, "lat": 38.896125, "is_disabled": 0, "lon": -76.999712}, {"fusion_lat": 0.0, "type": "electric_bike", "name": "fa09212e8ace01da766fcca276958bee", "fusion_lon": 0.0, "bike_id": "fa09212e8ace01da766fcca276958bee", "is_reserved": 0, "rental_uris": {"android": "https://dc.lft.to/lastmile_qr_scan", "ios": "https://dc.lft.to/lastmile_qr_scan"}, "lat": 39.043188666666666, "is_disabled": 0, "lon": -77.051546}, {"fusion_lat": 0.0, "type": "electric_scooter", "name": "45c5a3467bde4515d5cbd36b26ef31fc", "fusion_lon": 0.0, "bike_id": "45c5a3467bde4515d5cbd36b26ef31fc", "is_reserved": 0, "rental_uris": {"android": "https://dc.lft.to/lastmile_qr_scan", "ios": "https://dc.lft.to/lastmile_qr_scan"}, "lat": 38.905075833333335, "is_disabled": 0, "lon": -76.99608333333333}, {"fusion_lat": 0.0, "type": "electric_scooter", "name": "8f44429a91d4e71378360220dd433913", "fusion_lon": 0.0, "bike_id": "8f44429a91d4e71378360220dd433913", "is_reserved": 0, "rental_uris": {"android": "https://dc.lft.to/lastmile_qr_scan", "ios": "https://dc.lft.to/lastmile_qr_scan"}, "lat": 38.9203455, "is_disabled": 0, "lon": -77.01220466666666}, {"fusion_lat": 0.0, "type": "electric_scooter", "name": "f7695fc187bab861751acf75b3d120f6", "fusion_lon": 0.0, "bike_id": "f7695fc187bab861751acf75b3d120f6", "is_reserved": 0, "rental_uris": {"android": "https://dc.lft.to/lastmile_qr_scan", "ios": "https://dc.lft.to/lastmile_qr_scan"}, "lat": 38.9117245, "is_disabled": 0, "lon": -77.00457916666667}, {"fusion_lat": 0.0, "type": "electric_scooter", "name": "92c140672aa928c9e11e80e2ce9a2eac", "fusion_lon": 0.0, "bike_id": "92c140672aa928c9e11e80e2ce9a2eac", "is_reserved": 0, "rental_uris": {"android": "https://dc.lft.to/lastmile_qr_scan", "ios": "https://dc.lft.to/lastmile_qr_scan"}, "lat": 38.9309975, "is_disabled": 0, "lon": -77.02538216666666}, {"fusion_lat": 0.0, "type": "electric_scooter", "name": "1171dc691decdd737eb1a386dade70a0", "fusion_lon": 0.0, "bike_id": "1171dc691decdd737eb1a386dade70a0", "is_reserved": 0, "rental_uris": {"android": "https://dc.lft.to/lastmile_qr_scan", "ios": "https://dc.lft.to/lastmile_qr_scan"}, "lat": 38.90027883333333, "is_disabled": 0, "lon": -77.03173366666667}, {"fusion_lat": 0.0, "type": "electric_scooter", "name": "b71c7af77e110127742df4ba6317cc48", "fusion_lon": 0.0, "bike_id": "b71c7af77e110127742df4ba6317cc48", "is_reserved": 0, "rental_uris": {"android": "https://dc.lft.to/lastmile_qr_scan", "ios": "https://dc.lft.to/lastmile_qr_scan"}, "lat": 38.891926166666664, "is_disabled": 0, "lon": -76.93303733333333}, {"fusion_lat": 0.0, "type": "electric_scooter", "name": "49b6a1fb7959764e8e997fe1e42d2358", "fusion_lon": 0.0, "bike_id": "49b6a1fb7959764e8e997fe1e42d2358", "is_reserved": 0, "rental_uris": {"android": "https://dc.lft.to/lastmile_qr_scan", "ios": "https://dc.lft.to/lastmile_qr_scan"}, "lat": 38.95399666666667, "is_disabled": 0, "lon": -77.0278465}, {"fusion_lat": 0.0, "type": "electric_scooter", "name": "743c1d5f00ee08dd2b2a4e1aea4f174d", "fusion_lon": 0.0, "bike_id": "743c1d5f00ee08dd2b2a4e1aea4f174d", "is_reserved": 0, "rental_uris": {"android": "https://dc.lft.to/lastmile_qr_scan", "ios": "https://dc.lft.to/lastmile_qr_scan"}, "lat": 38.8734225, "is_disabled": 0, "lon": -76.99164483333334}, {"fusion_lat": 0.0, "type": "electric_scooter", "name": "b60d73e98f3b4b027a6059d72cd5f6ae", "fusion_lon": 0.0, "bike_id": "b60d73e98f3b4b027a6059d72cd5f6ae", "is_reserved": 0, "rental_uris": {"android": "https://dc.lft.to/lastmile_qr_scan", "ios": "https://dc.lft.to/lastmile_qr_scan"}, "lat": 38.907279333333335, "is_disabled": 0, "lon": -76.98694566666667}, {"fusion_lat": 0.0, "type": "electric_scooter", "name": "5b2e9c72cb4c568c70ddd5e2467e5838", "fusion_lon": 0.0, "bike_id": "5b2e9c72cb4c568c70ddd5e2467e5838", "is_reserved": 0, "rental_uris": {"android": "https://dc.lft.to/lastmile_qr_scan", "ios": "https://dc.lft.to/lastmile_qr_scan"}, "lat": 38.9237045, "is_disabled": 0, "lon": -77.019157}, {"fusion_lat": 0.0, "type": "electric_scooter", "name": "50fef65cbb4d87a3e118126eab3d5df3", "fusion_lon": 0.0, "bike_id": "50fef65cbb4d87a3e118126eab3d5df3", "is_reserved": 0, "rental_uris": {"android": "https://dc.lft.to/lastmile_qr_scan", "ios": "https://dc.lft.to/lastmile_qr_scan"}, "lat": 38.92652733333333, "is_disabled": 0, "lon": -77.0242225}, {"fusion_lat": 0.0, "type": "electric_scooter", "name": "8401b4e92b9edf36b0ae0cca7c0f1369", "fusion_lon": 0.0, "bike_id": "8401b4e92b9edf36b0ae0cca7c0f1369", "is_reserved": 0, "rental_uris": {"android": "https://dc.lft.to/lastmile_qr_scan", "ios": "https://dc.lft.to/lastmile_qr_scan"}, "lat": 38.90736283333333, "is_disabled": 0, "lon": -77.02692}, {"fusion_lat": 0.0, "type": "electric_scooter", "name": "d78b0a9016445307c04f4c0972fb5a2e", "fusion_lon": 0.0, "bike_id": "d78b0a9016445307c04f4c0972fb5a2e", "is_reserved": 0, "rental_uris": {"android": "https://dc.lft.to/lastmile_qr_scan", "ios": "https://dc.lft.to/lastmile_qr_scan"}, "lat": 38.91125066666667, "is_disabled": 0, "lon": -77.03189333333333}, {"fusion_lat": 0.0, "type": "electric_scooter", "name": "dbaaf0596988ea9b0412975a3128ef71", "fusion_lon": 0.0, "bike_id": "dbaaf0596988ea9b0412975a3128ef71", "is_reserved": 0, "rental_uris": {"android": "https://dc.lft.to/lastmile_qr_scan", "ios": "https://dc.lft.to/lastmile_qr_scan"}, "lat": 38.8924235, "is_disabled": 0, "lon": -77.02209466666666}, {"fusion_lat": 0.0, "type": "electric_scooter", "name": "f70bd0734de39abdf70e49f7863d4a18", "fusion_lon": 0.0, "bike_id": "f70bd0734de39abdf70e49f7863d4a18", "is_reserved": 0, "rental_uris": {"android": "https://dc.lft.to/lastmile_qr_scan", "ios": "https://dc.lft.to/lastmile_qr_scan"}, "lat": 38.9057755, "is_disabled": 0, "lon": -77.06280033333333}, {"fusion_lat": 0.0, "type": "electric_scooter", "name": "0b9fd070e71258259be917acb25dcbfa", "fusion_lon": 0.0, "bike_id": "0b9fd070e71258259be917acb25dcbfa", "is_reserved": 0, "rental_uris": {"android": "https://dc.lft.to/lastmile_qr_scan", "ios": "https://dc.lft.to/lastmile_qr_scan"}, "lat": 38.9224425, "is_disabled": 0, "lon": -77.02985233333334}, {"fusion_lat": 0.0, "type": "electric_scooter", "name": "a12cad755f619105b7707cc79ec1ebd9", "fusion_lon": 0.0, "bike_id": "a12cad755f619105b7707cc79ec1ebd9", "is_reserved": 0, "rental_uris": {"android": "https://dc.lft.to/lastmile_qr_scan", "ios": "https://dc.lft.to/lastmile_qr_scan"}, "lat": 38.911841333333335, "is_disabled": 0, "lon": -77.0349265}, {"fusion_lat": 0.0, "type": "electric_scooter", "name": "e7a6ffad3aedfb03c3445704d6a6ab60", "fusion_lon": 0.0, "bike_id": "e7a6ffad3aedfb03c3445704d6a6ab60", "is_reserved": 0, "rental_uris": {"android": "https://dc.lft.to/lastmile_qr_scan", "ios": "https://dc.lft.to/lastmile_qr_scan"}, "lat": 38.9375795, "is_disabled": 0, "lon": -77.02495}, {"fusion_lat": 0.0, "type": "electric_scooter", "name": "8550aa18b0dd63d74c0fe84bc23b4566", "fusion_lon": 0.0, "bike_id": "8550aa18b0dd63d74c0fe84bc23b4566", "is_reserved": 0, "rental_uris": {"android": "https://dc.lft.to/lastmile_qr_scan", "ios": "https://dc.lft.to/lastmile_qr_scan"}, "lat": 38.89223883333333, "is_disabled": 0, "lon": -77.02779466666667}, {"fusion_lat": 0.0, "type": "electric_scooter", "name": "676e838ae2ace9ae004086d92d573010", "fusion_lon": 0.0, "bike_id": "676e838ae2ace9ae004086d92d573010", "is_reserved": 0, "rental_uris": {"android": "https://dc.lft.to/lastmile_qr_scan", "ios": "https://dc.lft.to/lastmile_qr_scan"}, "lat": 38.901024166666666, "is_disabled": 0, "lon": -77.0449535}, {"fusion_lat": 0.0, "type": "electric_scooter", "name": "9b5c063fa4dc2ad7619d586abfc00a40", "fusion_lon": 0.0, "bike_id": "9b5c063fa4dc2ad7619d586abfc00a40", "is_reserved": 0, "rental_uris": {"android": "https://dc.lft.to/lastmile_qr_scan", "ios": "https://dc.lft.to/lastmile_qr_scan"}, "lat": 38.91053266666667, "is_disabled": 0, "lon": -77.031861}, {"fusion_lat": 0.0, "type": "electric_scooter", "name": "f0e55326ecbbf0dabb47a1adae6c1b3a", "fusion_lon": 0.0, "bike_id": "f0e55326ecbbf0dabb47a1adae6c1b3a", "is_reserved": 0, "rental_uris": {"android": "https://dc.lft.to/lastmile_qr_scan", "ios": "https://dc.lft.to/lastmile_qr_scan"}, "lat": 38.88743133333333, "is_disabled": 0, "lon": -77.0315945}, {"fusion_lat": 0.0, "type": "electric_scooter", "name": "ffabb16c4db10f87e4fc257d40b49d8a", "fusion_lon": 0.0, "bike_id": "ffabb16c4db10f87e4fc257d40b49d8a", "is_reserved": 0, "rental_uris": {"android": "https://dc.lft.to/lastmile_qr_scan", "ios": "https://dc.lft.to/lastmile_qr_scan"}, "lat": 38.9333545, "is_disabled": 0, "lon": -77.02623016666666}, {"fusion_lat": 0.0, "type": "electric_bike", "name": "3d4299adb615bb8b0e3eb38cc83ff629", "fusion_lon": 0.0, "bike_id": "3d4299adb615bb8b0e3eb38cc83ff629", "is_reserved": 0, "rental_uris": {"android": "https://dc.lft.to/lastmile_qr_scan", "ios": "https://dc.lft.to/lastmile_qr_scan"}, "lat": 38.956413, "is_disabled": 0, "lon": -77.02223583333334}, {"fusion_lat": 0.0, "type": "electric_bike", "name": "1a8477aa09f456ab8048226018260577", "fusion_lon": 0.0, "bike_id": "1a8477aa09f456ab8048226018260577", "is_reserved": 0, "rental_uris": {"android": "https://dc.lft.to/lastmile_qr_scan", "ios": "https://dc.lft.to/lastmile_qr_scan"}, "lat": 38.79511166666666, "is_disabled": 0, "lon": -77.00697166666667}, {"fusion_lat": 0.0, "type": "electric_scooter", "name": "bfe60b9b7318e61315c5b873070ca517", "fusion_lon": 0.0, "bike_id": "bfe60b9b7318e61315c5b873070ca517", "is_reserved": 0, "rental_uris": {"android": "https://dc.lft.to/lastmile_qr_scan", "ios": "https://dc.lft.to/lastmile_qr_scan"}, "lat": 38.925657666666666, "is_disabled": 0, "lon": -77.03742833333334}, {"fusion_lat": 0.0, "type": "electric_scooter", "name": "6cc5e552c8af81932b349fbb85a17eee", "fusion_lon": 0.0, "bike_id": "6cc5e552c8af81932b349fbb85a17eee", "is_reserved": 0, "rental_uris": {"android": "https://dc.lft.to/lastmile_qr_scan", "ios": "https://dc.lft.to/lastmile_qr_scan"}, "lat": 38.8916505, "is_disabled": 0, "lon": -76.95183683333333}, {"fusion_lat": 0.0, "type": "electric_scooter", "name": "bbe9e56e12ae9dda56cf11de2fb3be90", "fusion_lon": 0.0, "bike_id": "bbe9e56e12ae9dda56cf11de2fb3be90", "is_reserved": 0, "rental_uris": {"android": "https://dc.lft.to/lastmile_qr_scan", "ios": "https://dc.lft.to/lastmile_qr_scan"}, "lat": 38.89226416666666, "is_disabled": 0, "lon": -77.031819}, {"fusion_lat": 0.0, "type": "electric_scooter", "name": "3f3c469c61518d6a701df6a3a86bc3e0", "fusion_lon": 0.0, "bike_id": "3f3c469c61518d6a701df6a3a86bc3e0", "is_reserved": 0, "rental_uris": {"android": "https://dc.lft.to/lastmile_qr_scan", "ios": "https://dc.lft.to/lastmile_qr_scan"}, "lat": 38.94205733333333, "is_disabled": 0, "lon": -77.02512383333334}, {"fusion_lat": 0.0, "type": "electric_bike", "name": "a5feb1b962c2769aa19311c125c04586", "fusion_lon": 0.0, "bike_id": "a5feb1b962c2769aa19311c125c04586", "is_reserved": 0, "rental_uris": {"android": "https://dc.lft.to/lastmile_qr_scan", "ios": "https://dc.lft.to/lastmile_qr_scan"}, "lat": 38.81739133333333, "is_disabled": 0, "lon": -77.0566885}, {"fusion_lat": 0.0, "type": "electric_scooter", "name": "b98e9e59c4d4cba9e217de21d1f02f1f", "fusion_lon": 0.0, "bike_id": "b98e9e59c4d4cba9e217de21d1f02f1f", "is_reserved": 0, "rental_uris": {"android": "https://dc.lft.to/lastmile_qr_scan", "ios": "https://dc.lft.to/lastmile_qr_scan"}, "lat": 38.903838666666665, "is_disabled": 0, "lon": -77.04185366666667}, {"fusion_lat": 0.0, "type": "electric_scooter", "name": "779b80c0575c40f0e2095b9fd3cb3332", "fusion_lon": 0.0, "bike_id": "779b80c0575c40f0e2095b9fd3cb3332", "is_reserved": 0, "rental_uris": {"android": "https://dc.lft.to/lastmile_qr_scan", "ios": "https://dc.lft.to/lastmile_qr_scan"}, "lat": 38.911121, "is_disabled": 0, "lon": -77.0383215}, {"fusion_lat": 0.0, "type": "electric_scooter", "name": "260ec5fce3ef709f85c12d52169fdc1c", "fusion_lon": 0.0, "bike_id": "260ec5fce3ef709f85c12d52169fdc1c", "is_reserved": 0, "rental_uris": {"android": "https://dc.lft.to/lastmile_qr_scan", "ios": "https://dc.lft.to/lastmile_qr_scan"}, "lat": 38.9072655, "is_disabled": 0, "lon": -77.0318295}, {"fusion_lat": 0.0, "type": "electric_scooter", "name": "5daf8712bd04ebecd212aa316c6e5391", "fusion_lon": 0.0, "bike_id": "5daf8712bd04ebecd212aa316c6e5391", "is_reserved": 0, "rental_uris": {"android": "https://dc.lft.to/lastmile_qr_scan", "ios": "https://dc.lft.to/lastmile_qr_scan"}, "lat": 38.887379333333335, "is_disabled": 0, "lon": -77.027459}, {"fusion_lat": 0.0, "type": "electric_scooter", "name": "8c5d1f9109d165a3b4a27d40dcc22703", "fusion_lon": 0.0, "bike_id": "8c5d1f9109d165a3b4a27d40dcc22703", "is_reserved": 0, "rental_uris": {"android": "https://dc.lft.to/lastmile_qr_scan", "ios": "https://dc.lft.to/lastmile_qr_scan"}, "lat": 38.91056116666667, "is_disabled": 0, "lon": -77.05316683333334}, {"fusion_lat": 0.0, "type": "electric_scooter", "name": "d1946e8c1b13a1eaaf06242378067d7b", "fusion_lon": 0.0, "bike_id": "d1946e8c1b13a1eaaf06242378067d7b", "is_reserved": 0, "rental_uris": {"android": "https://dc.lft.to/lastmile_qr_scan", "ios": "https://dc.lft.to/lastmile_qr_scan"}, "lat": 38.930795, "is_disabled": 0, "lon": -77.03760483333333}, {"fusion_lat": 0.0, "type": "electric_scooter", "name": "4b12f8b68dca3a9b38e7516b3f1b6b6a", "fusion_lon": 0.0, "bike_id": "4b12f8b68dca3a9b38e7516b3f1b6b6a", "is_reserved": 0, "rental_uris": {"android": "https://dc.lft.to/lastmile_qr_scan", "ios": "https://dc.lft.to/lastmile_qr_scan"}, "lat": 38.93629766666667, "is_disabled": 0, "lon": -77.0365625}, {"fusion_lat": 0.0, "type": "electric_scooter", "name": "1a189521531a66006fde11a24dc2d6bd", "fusion_lon": 0.0, "bike_id": "1a189521531a66006fde11a24dc2d6bd", "is_reserved": 0, "rental_uris": {"android": "https://dc.lft.to/lastmile_qr_scan", "ios": "https://dc.lft.to/lastmile_qr_scan"}, "lat": 38.886805833333334, "is_disabled": 0, "lon": -76.9546845}, {"fusion_lat": 0.0, "type": "electric_scooter", "name": "d858f1b4dd81e3829e8f487bd67de9e3", "fusion_lon": 0.0, "bike_id": "d858f1b4dd81e3829e8f487bd67de9e3", "is_reserved": 0, "rental_uris": {"android": "https://dc.lft.to/lastmile_qr_scan", "ios": "https://dc.lft.to/lastmile_qr_scan"}, "lat": 38.86504566666667, "is_disabled": 0, "lon": -76.99004316666667}, {"fusion_lat": 0.0, "type": "electric_scooter", "name": "1dc024616bca017f3b8d1fa4fd87553f", "fusion_lon": 0.0, "bike_id": "1dc024616bca017f3b8d1fa4fd87553f", "is_reserved": 0, "rental_uris": {"android": "https://dc.lft.to/lastmile_qr_scan", "ios": "https://dc.lft.to/lastmile_qr_scan"}, "lat": 38.90883083333333, "is_disabled": 0, "lon": -76.98545933333334}, {"fusion_lat": 0.0, "type": "electric_scooter", "name": "62c23ac60533689d3f8c34f2ca23babb", "fusion_lon": 0.0, "bike_id": "62c23ac60533689d3f8c34f2ca23babb", "is_reserved": 0, "rental_uris": {"android": "https://dc.lft.to/lastmile_qr_scan", "ios": "https://dc.lft.to/lastmile_qr_scan"}, "lat": 38.8923605, "is_disabled": 0, "lon": -77.03141133333334}, {"fusion_lat": 0.0, "type": "electric_scooter", "name": "a239227f2163d70177186f723009a954", "fusion_lon": 0.0, "bike_id": "a239227f2163d70177186f723009a954", "is_reserved": 0, "rental_uris": {"android": "https://dc.lft.to/lastmile_qr_scan", "ios": "https://dc.lft.to/lastmile_qr_scan"}, "lat": 38.92581833333333, "is_disabled": 0, "lon": -77.02610716666666}, {"fusion_lat": 0.0, "type": "electric_scooter", "name": "72db508f7d5bd5024a31882d903f76a8", "fusion_lon": 0.0, "bike_id": "72db508f7d5bd5024a31882d903f76a8", "is_reserved": 0, "rental_uris": {"android": "https://dc.lft.to/lastmile_qr_scan", "ios": "https://dc.lft.to/lastmile_qr_scan"}, "lat": 38.9190385, "is_disabled": 0, "lon": -77.0031915}, {"fusion_lat": 0.0, "type": "electric_scooter", "name": "5ca8aa7529ad71a1ccc9eeb61e14e9e4", "fusion_lon": 0.0, "bike_id": "5ca8aa7529ad71a1ccc9eeb61e14e9e4", "is_reserved": 0, "rental_uris": {"android": "https://dc.lft.to/lastmile_qr_scan", "ios": "https://dc.lft.to/lastmile_qr_scan"}, "lat": 38.844268, "is_disabled": 0, "lon": -76.99783383333333}, {"fusion_lat": 0.0, "type": "electric_scooter", "name": "09bebcccf0df7ee1984876184f3c97b7", "fusion_lon": 0.0, "bike_id": "09bebcccf0df7ee1984876184f3c97b7", "is_reserved": 0, "rental_uris": {"android": "https://dc.lft.to/lastmile_qr_scan", "ios": "https://dc.lft.to/lastmile_qr_scan"}, "lat": 38.913221666666665, "is_disabled": 0, "lon": -77.01507183333334}, {"fusion_lat": 0.0, "type": "electric_scooter", "name": "70691dcdc1176c0e8c84d52d570f4ff2", "fusion_lon": 0.0, "bike_id": "70691dcdc1176c0e8c84d52d570f4ff2", "is_reserved": 0, "rental_uris": {"android": "https://dc.lft.to/lastmile_qr_scan", "ios": "https://dc.lft.to/lastmile_qr_scan"}, "lat": 38.879704833333335, "is_disabled": 0, "lon": -77.01374566666667}, {"fusion_lat": 0.0, "type": "electric_scooter", "name": "88f0bc5899d22bf707fde8c9b99057dc", "fusion_lon": 0.0, "bike_id": "88f0bc5899d22bf707fde8c9b99057dc", "is_reserved": 0, "rental_uris": {"android": "https://dc.lft.to/lastmile_qr_scan", "ios": "https://dc.lft.to/lastmile_qr_scan"}, "lat": 38.8973935, "is_disabled": 0, "lon": -76.9472895}, {"fusion_lat": 0.0, "type": "electric_scooter", "name": "61797cec4cda5f4d3d30c41e55b4d079", "fusion_lon": 0.0, "bike_id": "61797cec4cda5f4d3d30c41e55b4d079", "is_reserved": 0, "rental_uris": {"android": "https://dc.lft.to/lastmile_qr_scan", "ios": "https://dc.lft.to/lastmile_qr_scan"}, "lat": 38.9483825, "is_disabled": 0, "lon": -77.02543366666667}, {"fusion_lat": 0.0, "type": "electric_scooter", "name": "483eb38a67f9824b15673c7c611417d9", "fusion_lon": 0.0, "bike_id": "483eb38a67f9824b15673c7c611417d9", "is_reserved": 0, "rental_uris": {"android": "https://dc.lft.to/lastmile_qr_scan", "ios": "https://dc.lft.to/lastmile_qr_scan"}, "lat": 38.9049605, "is_disabled": 0, "lon": -77.02591633333333}, {"fusion_lat": 0.0, "type": "electric_scooter", "name": "eb7b9b8eda6da825afc19a5bacc026d9", "fusion_lon": 0.0, "bike_id": "eb7b9b8eda6da825afc19a5bacc026d9", "is_reserved": 0, "rental_uris": {"android": "https://dc.lft.to/lastmile_qr_scan", "ios": "https://dc.lft.to/lastmile_qr_scan"}, "lat": 38.91103116666667, "is_disabled": 0, "lon": -77.046704}, {"fusion_lat": 0.0, "type": "electric_scooter", "name": "89bc2677e652a927af25a6ca9c1492c1", "fusion_lon": 0.0, "bike_id": "89bc2677e652a927af25a6ca9c1492c1", "is_reserved": 0, "rental_uris": {"android": "https://dc.lft.to/lastmile_qr_scan", "ios": "https://dc.lft.to/lastmile_qr_scan"}, "lat": 38.92392516666666, "is_disabled": 0, "lon": -77.02041516666667}, {"fusion_lat": 0.0, "type": "electric_scooter", "name": "0bd24dca4c82c842952825e815284bff", "fusion_lon": 0.0, "bike_id": "0bd24dca4c82c842952825e815284bff", "is_reserved": 0, "rental_uris": {"android": "https://dc.lft.to/lastmile_qr_scan", "ios": "https://dc.lft.to/lastmile_qr_scan"}, "lat": 38.91243033333333, "is_disabled": 0, "lon": -77.0448405}, {"fusion_lat": 0.0, "type": "electric_scooter", "name": "109655cc3a29630c4a8e42ed6f2d5e02", "fusion_lon": 0.0, "bike_id": "109655cc3a29630c4a8e42ed6f2d5e02", "is_reserved": 0, "rental_uris": {"android": "https://dc.lft.to/lastmile_qr_scan", "ios": "https://dc.lft.to/lastmile_qr_scan"}, "lat": 38.94956666666667, "is_disabled": 0, "lon": -77.0272165}, {"fusion_lat": 0.0, "type": "electric_scooter", "name": "02906f0deb96e6618ecb77b0e7158216", "fusion_lon": 0.0, "bike_id": "02906f0deb96e6618ecb77b0e7158216", "is_reserved": 0, "rental_uris": {"android": "https://dc.lft.to/lastmile_qr_scan", "ios": "https://dc.lft.to/lastmile_qr_scan"}, "lat": 38.9195205, "is_disabled": 0, "lon": -77.04567683333333}, {"fusion_lat": 0.0, "type": "electric_scooter", "name": "a3df7101b80b44d086245bc1099dc6db", "fusion_lon": 0.0, "bike_id": "a3df7101b80b44d086245bc1099dc6db", "is_reserved": 0, "rental_uris": {"android": "https://dc.lft.to/lastmile_qr_scan", "ios": "https://dc.lft.to/lastmile_qr_scan"}, "lat": 38.927612, "is_disabled": 0, "lon": -77.02286766666667}, {"fusion_lat": 0.0, "type": "electric_bike", "name": "c89455841cf64f6445da91b64cc74c50", "fusion_lon": 0.0, "bike_id": "c89455841cf64f6445da91b64cc74c50", "is_reserved": 0, "rental_uris": {"android": "https://dc.lft.to/lastmile_qr_scan", "ios": "https://dc.lft.to/lastmile_qr_scan"}, "lat": 38.91948, "is_disabled": 0, "lon": -77.04514866666666}, {"fusion_lat": 0.0, "type": "electric_scooter", "name": "565799dddeda2b37cb8dd6fced27a292", "fusion_lon": 0.0, "bike_id": "565799dddeda2b37cb8dd6fced27a292", "is_reserved": 0, "rental_uris": {"android": "https://dc.lft.to/lastmile_qr_scan", "ios": "https://dc.lft.to/lastmile_qr_scan"}, "lat": 38.92135833333333, "is_disabled": 0, "lon": -76.99569933333333}, {"fusion_lat": 0.0, "type": "electric_scooter", "name": "6511f6a8316b52e0971c1480f2d9bfc6", "fusion_lon": 0.0, "bike_id": "6511f6a8316b52e0971c1480f2d9bfc6", "is_reserved": 0, "rental_uris": {"android": "https://dc.lft.to/lastmile_qr_scan", "ios": "https://dc.lft.to/lastmile_qr_scan"}, "lat": 38.94177533333333, "is_disabled": 0, "lon": -77.0274715}, {"fusion_lat": 0.0, "type": "electric_scooter", "name": "d9ee0154990e25811cff35eb0f5952b6", "fusion_lon": 0.0, "bike_id": "d9ee0154990e25811cff35eb0f5952b6", "is_reserved": 0, "rental_uris": {"android": "https://dc.lft.to/lastmile_qr_scan", "ios": "https://dc.lft.to/lastmile_qr_scan"}, "lat": 38.908185833333334, "is_disabled": 0, "lon": -77.00229083333333}, {"fusion_lat": 0.0, "type": "electric_scooter", "name": "0e18414560c0892d8582f18ef1feceaf", "fusion_lon": 0.0, "bike_id": "0e18414560c0892d8582f18ef1feceaf", "is_reserved": 0, "rental_uris": {"android": "https://dc.lft.to/lastmile_qr_scan", "ios": "https://dc.lft.to/lastmile_qr_scan"}, "lat": 38.8935055, "is_disabled": 0, "lon": -77.003333}, {"fusion_lat": 0.0, "type": "electric_scooter", "name": "5e61a08740f067309f0a4678cded8ad5", "fusion_lon": 0.0, "bike_id": "5e61a08740f067309f0a4678cded8ad5", "is_reserved": 0, "rental_uris": {"android": "https://dc.lft.to/lastmile_qr_scan", "ios": "https://dc.lft.to/lastmile_qr_scan"}, "lat": 38.937126, "is_disabled": 0, "lon": -77.03632983333334}, {"fusion_lat": 0.0, "type": "electric_scooter", "name": "89eb646b45a3cee66e464cc1510974ff", "fusion_lon": 0.0, "bike_id": "89eb646b45a3cee66e464cc1510974ff", "is_reserved": 0, "rental_uris": {"android": "https://dc.lft.to/lastmile_qr_scan", "ios": "https://dc.lft.to/lastmile_qr_scan"}, "lat": 38.916801, "is_disabled": 0, "lon": -77.03689766666666}, {"fusion_lat": 0.0, "type": "electric_scooter", "name": "b90f9322886ac4c5c8e3678a4d5dbdfe", "fusion_lon": 0.0, "bike_id": "b90f9322886ac4c5c8e3678a4d5dbdfe", "is_reserved": 0, "rental_uris": {"android": "https://dc.lft.to/lastmile_qr_scan", "ios": "https://dc.lft.to/lastmile_qr_scan"}, "lat": 38.89170516666667, "is_disabled": 0, "lon": -77.01547366666667}, {"fusion_lat": 0.0, "type": "electric_scooter", "name": "60691b1ba7f46417437d3b360b3629ef", "fusion_lon": 0.0, "bike_id": "60691b1ba7f46417437d3b360b3629ef", "is_reserved": 0, "rental_uris": {"android": "https://dc.lft.to/lastmile_qr_scan", "ios": "https://dc.lft.to/lastmile_qr_scan"}, "lat": 38.940751666666664, "is_disabled": 0, "lon": -77.027206}, {"fusion_lat": 0.0, "type": "electric_scooter", "name": "9f5bf488aa950aa68f771817eca25c81", "fusion_lon": 0.0, "bike_id": "9f5bf488aa950aa68f771817eca25c81", "is_reserved": 0, "rental_uris": {"android": "https://dc.lft.to/lastmile_qr_scan", "ios": "https://dc.lft.to/lastmile_qr_scan"}, "lat": 38.87647883333333, "is_disabled": 0, "lon": -77.00220566666667}, {"fusion_lat": 0.0, "type": "electric_scooter", "name": "f5d5f9a5a3c42db084c9db3f47179ae7", "fusion_lon": 0.0, "bike_id": "f5d5f9a5a3c42db084c9db3f47179ae7", "is_reserved": 0, "rental_uris": {"android": "https://dc.lft.to/lastmile_qr_scan", "ios": "https://dc.lft.to/lastmile_qr_scan"}, "lat": 38.91695266666667, "is_disabled": 0, "lon": -77.02596983333333}, {"fusion_lat": 0.0, "type": "electric_scooter", "name": "0a1141a39b2831148e6653fcede577e7", "fusion_lon": 0.0, "bike_id": "0a1141a39b2831148e6653fcede577e7", "is_reserved": 0, "rental_uris": {"android": "https://dc.lft.to/lastmile_qr_scan", "ios": "https://dc.lft.to/lastmile_qr_scan"}, "lat": 38.91806116666667, "is_disabled": 0, "lon": -77.03026916666667}, {"fusion_lat": 0.0, "type": "electric_scooter", "name": "fb1e5597c9f5ce86372f120c77353414", "fusion_lon": 0.0, "bike_id": "fb1e5597c9f5ce86372f120c77353414", "is_reserved": 0, "rental_uris": {"android": "https://dc.lft.to/lastmile_qr_scan", "ios": "https://dc.lft.to/lastmile_qr_scan"}, "lat": 38.91707016666667, "is_disabled": 0, "lon": -77.02828166666667}, {"fusion_lat": 0.0, "type": "electric_scooter", "name": "0c3ec9526cd766ab17a162e677c9ef43", "fusion_lon": 0.0, "bike_id": "0c3ec9526cd766ab17a162e677c9ef43", "is_reserved": 0, "rental_uris": {"android": "https://dc.lft.to/lastmile_qr_scan", "ios": "https://dc.lft.to/lastmile_qr_scan"}, "lat": 38.91906516666667, "is_disabled": 0, "lon": -77.023925}, {"fusion_lat": 0.0, "type": "electric_scooter", "name": "a7fe790fa97668978947b4a41c961be7", "fusion_lon": 0.0, "bike_id": "a7fe790fa97668978947b4a41c961be7", "is_reserved": 0, "rental_uris": {"android": "https://dc.lft.to/lastmile_qr_scan", "ios": "https://dc.lft.to/lastmile_qr_scan"}, "lat": 38.92088366666667, "is_disabled": 0, "lon": -77.07365233333333}, {"fusion_lat": 0.0, "type": "electric_scooter", "name": "d1f62558b77b3d8ff5d282ee0ff3b355", "fusion_lon": 0.0, "bike_id": "d1f62558b77b3d8ff5d282ee0ff3b355", "is_reserved": 0, "rental_uris": {"android": "https://dc.lft.to/lastmile_qr_scan", "ios": "https://dc.lft.to/lastmile_qr_scan"}, "lat": 38.941135, "is_disabled": 0, "lon": -77.01535833333334}, {"fusion_lat": 0.0, "type": "electric_scooter", "name": "92f652431c8d1cae6f2c1b0079b3f83f", "fusion_lon": 0.0, "bike_id": "92f652431c8d1cae6f2c1b0079b3f83f", "is_reserved": 0, "rental_uris": {"android": "https://dc.lft.to/lastmile_qr_scan", "ios": "https://dc.lft.to/lastmile_qr_scan"}, "lat": 38.93746933333333, "is_disabled": 0, "lon": -77.024974}, {"fusion_lat": 0.0, "type": "electric_scooter", "name": "8f6a5c91641be389df61d05052631c04", "fusion_lon": 0.0, "bike_id": "8f6a5c91641be389df61d05052631c04", "is_reserved": 0, "rental_uris": {"android": "https://dc.lft.to/lastmile_qr_scan", "ios": "https://dc.lft.to/lastmile_qr_scan"}, "lat": 38.93676966666666, "is_disabled": 0, "lon": -77.0359155}, {"fusion_lat": 0.0, "type": "electric_scooter", "name": "fab41b6cf8cf43747273bcc1353b1e63", "fusion_lon": 0.0, "bike_id": "fab41b6cf8cf43747273bcc1353b1e63", "is_reserved": 0, "rental_uris": {"android": "https://dc.lft.to/lastmile_qr_scan", "ios": "https://dc.lft.to/lastmile_qr_scan"}, "lat": 38.926443166666665, "is_disabled": 0, "lon": -77.0415505}, {"fusion_lat": 0.0, "type": "electric_bike", "name": "13ccb423032f51fc304c334057604ee7", "fusion_lon": 0.0, "bike_id": "13ccb423032f51fc304c334057604ee7", "is_reserved": 0, "rental_uris": {"android": "https://dc.lft.to/lastmile_qr_scan", "ios": "https://dc.lft.to/lastmile_qr_scan"}, "lat": 38.9189545, "is_disabled": 0, "lon": -77.07042216666666}, {"fusion_lat": 0.0, "type": "electric_scooter", "name": "eb54be3e683515ad733223ed86c0650c", "fusion_lon": 0.0, "bike_id": "eb54be3e683515ad733223ed86c0650c", "is_reserved": 0, "rental_uris": {"android": "https://dc.lft.to/lastmile_qr_scan", "ios": "https://dc.lft.to/lastmile_qr_scan"}, "lat": 38.903453, "is_disabled": 0, "lon": -77.06121433333334}, {"fusion_lat": 0.0, "type": "electric_scooter", "name": "f1cc012dd174e6ff2d40243688845c0f", "fusion_lon": 0.0, "bike_id": "f1cc012dd174e6ff2d40243688845c0f", "is_reserved": 0, "rental_uris": {"android": "https://dc.lft.to/lastmile_qr_scan", "ios": "https://dc.lft.to/lastmile_qr_scan"}, "lat": 38.8369725, "is_disabled": 0, "lon": -77.00576}, {"fusion_lat": 0.0, "type": "electric_scooter", "name": "972f1bc8716892516da09812c42825df", "fusion_lon": 0.0, "bike_id": "972f1bc8716892516da09812c42825df", "is_reserved": 0, "rental_uris": {"android": "https://dc.lft.to/lastmile_qr_scan", "ios": "https://dc.lft.to/lastmile_qr_scan"}, "lat": 38.92478366666667, "is_disabled": 0, "lon": -77.03492933333334}, {"fusion_lat": 0.0, "type": "electric_scooter", "name": "2ebca769f4d6a0440aeb68b8e01cac6d", "fusion_lon": 0.0, "bike_id": "2ebca769f4d6a0440aeb68b8e01cac6d", "is_reserved": 0, "rental_uris": {"android": "https://dc.lft.to/lastmile_qr_scan", "ios": "https://dc.lft.to/lastmile_qr_scan"}, "lat": 38.844240666666664, "is_disabled": 0, "lon": -76.99776383333334}, {"fusion_lat": 0.0, "type": "electric_scooter", "name": "a210be318467cf0011fbb941beea248f", "fusion_lon": 0.0, "bike_id": "a210be318467cf0011fbb941beea248f", "is_reserved": 0, "rental_uris": {"android": "https://dc.lft.to/lastmile_qr_scan", "ios": "https://dc.lft.to/lastmile_qr_scan"}, "lat": 38.896237666666664, "is_disabled": 0, "lon": -77.03958666666666}, {"fusion_lat": 0.0, "type": "electric_scooter", "name": "fe13bd8c921ccaf9a9b06769925e8028", "fusion_lon": 0.0, "bike_id": "fe13bd8c921ccaf9a9b06769925e8028", "is_reserved": 0, "rental_uris": {"android": "https://dc.lft.to/lastmile_qr_scan", "ios": "https://dc.lft.to/lastmile_qr_scan"}, "lat": 38.949397833333336, "is_disabled": 0, "lon": -77.02444116666666}, {"fusion_lat": 0.0, "type": "electric_bike", "name": "53eeb89b2ab88a2fe9dc9e4c55a40739", "fusion_lon": 0.0, "bike_id": "53eeb89b2ab88a2fe9dc9e4c55a40739", "is_reserved": 0, "rental_uris": {"android": "https://dc.lft.to/lastmile_qr_scan", "ios": "https://dc.lft.to/lastmile_qr_scan"}, "lat": 38.92968166666667, "is_disabled": 0, "lon": -77.1856495}, {"fusion_lat": 0.0, "type": "electric_bike", "name": "183862e7fc5a96ec73d68e3b95b47ef9", "fusion_lon": 0.0, "bike_id": "183862e7fc5a96ec73d68e3b95b47ef9", "is_reserved": 0, "rental_uris": {"android": "https://dc.lft.to/lastmile_qr_scan", "ios": "https://dc.lft.to/lastmile_qr_scan"}, "lat": 38.864890333333335, "is_disabled": 0, "lon": -76.97742116666667}, {"fusion_lat": 0.0, "type": "electric_bike", "name": "7f4a2168bde585107b2efafaa83da6f7", "fusion_lon": 0.0, "bike_id": "7f4a2168bde585107b2efafaa83da6f7", "is_reserved": 0, "rental_uris": {"android": "https://dc.lft.to/lastmile_qr_scan", "ios": "https://dc.lft.to/lastmile_qr_scan"}, "lat": 38.93167616666667, "is_disabled": 0, "lon": -76.88401083333333}, {"fusion_lat": 0.0, "type": "electric_bike", "name": "92cd96caa88bff1eb8c722b3271cd467", "fusion_lon": 0.0, "bike_id": "92cd96caa88bff1eb8c722b3271cd467", "is_reserved": 0, "rental_uris": {"android": "https://dc.lft.to/lastmile_qr_scan", "ios": "https://dc.lft.to/lastmile_qr_scan"}, "lat": 38.95444, "is_disabled": 0, "lon": -76.98909833333333}, {"fusion_lat": 0.0, "type": "electric_bike", "name": "a3f07ed8a2ec9947fab26f10e8c4dad2", "fusion_lon": 0.0, "bike_id": "a3f07ed8a2ec9947fab26f10e8c4dad2", "is_reserved": 0, "rental_uris": {"android": "https://dc.lft.to/lastmile_qr_scan", "ios": "https://dc.lft.to/lastmile_qr_scan"}, "lat": 39.0549835, "is_disabled": 0, "lon": -77.04651033333333}, {"fusion_lat": 0.0, "type": "electric_bike", "name": "878bcffb34d4318be263893c20af5b6f", "fusion_lon": 0.0, "bike_id": "878bcffb34d4318be263893c20af5b6f", "is_reserved": 0, "rental_uris": {"android": "https://dc.lft.to/lastmile_qr_scan", "ios": "https://dc.lft.to/lastmile_qr_scan"}, "lat": 38.9532715, "is_disabled": 0, "lon": -76.98243516666666}, {"fusion_lat": 0.0, "type": "electric_scooter", "name": "a30ccc9ca894e3f5e558c9805016854b", "fusion_lon": 0.0, "bike_id": "a30ccc9ca894e3f5e558c9805016854b", "is_reserved": 0, "rental_uris": {"android": "https://dc.lft.to/lastmile_qr_scan", "ios": "https://dc.lft.to/lastmile_qr_scan"}, "lat": 38.952963, "is_disabled": 0, "lon": -77.00299683333333}, {"fusion_lat": 0.0, "type": "electric_bike", "name": "4913f5ac9c1b5b48cd9ca2a24d1c024e", "fusion_lon": 0.0, "bike_id": "4913f5ac9c1b5b48cd9ca2a24d1c024e", "is_reserved": 0, "rental_uris": {"android": "https://dc.lft.to/lastmile_qr_scan", "ios": "https://dc.lft.to/lastmile_qr_scan"}, "lat": 38.904812, "is_disabled": 0, "lon": -76.97334566666666}, {"fusion_lat": 0.0, "type": "electric_scooter", "name": "86ae0f30340802289e2019b33c74120b", "fusion_lon": 0.0, "bike_id": "86ae0f30340802289e2019b33c74120b", "is_reserved": 0, "rental_uris": {"android": "https://dc.lft.to/lastmile_qr_scan", "ios": "https://dc.lft.to/lastmile_qr_scan"}, "lat": 38.8669615, "is_disabled": 0, "lon": -76.98593283333334}, {"fusion_lat": 0.0, "type": "electric_scooter", "name": "c9064f7f41a901e56458ff62cc9db6f8", "fusion_lon": 0.0, "bike_id": "c9064f7f41a901e56458ff62cc9db6f8", "is_reserved": 0, "rental_uris": {"android": "https://dc.lft.to/lastmile_qr_scan", "ios": "https://dc.lft.to/lastmile_qr_scan"}, "lat": 38.924836, "is_disabled": 0, "lon": -77.021395}, {"fusion_lat": 0.0, "type": "electric_scooter", "name": "8931b4dd9dab3aebbaa679ccac1e02fe", "fusion_lon": 0.0, "bike_id": "8931b4dd9dab3aebbaa679ccac1e02fe", "is_reserved": 0, "rental_uris": {"android": "https://dc.lft.to/lastmile_qr_scan", "ios": "https://dc.lft.to/lastmile_qr_scan"}, "lat": 38.8850875, "is_disabled": 0, "lon": -76.99762933333334}, {"fusion_lat": 0.0, "type": "electric_scooter", "name": "83f6a325bcc5cf3e6ce42f4657ec5f18", "fusion_lon": 0.0, "bike_id": "83f6a325bcc5cf3e6ce42f4657ec5f18", "is_reserved": 0, "rental_uris": {"android": "https://dc.lft.to/lastmile_qr_scan", "ios": "https://dc.lft.to/lastmile_qr_scan"}, "lat": 38.93087466666667, "is_disabled": 0, "lon": -77.03447983333334}, {"fusion_lat": 0.0, "type": "electric_scooter", "name": "2a7f899d2e2a1c13361a35d28090d246", "fusion_lon": 0.0, "bike_id": "2a7f899d2e2a1c13361a35d28090d246", "is_reserved": 0, "rental_uris": {"android": "https://dc.lft.to/lastmile_qr_scan", "ios": "https://dc.lft.to/lastmile_qr_scan"}, "lat": 38.90126933333333, "is_disabled": 0, "lon": -77.01639533333334}, {"fusion_lat": 0.0, "type": "electric_scooter", "name": "efb9c953cd8cf0cf3db8f6f0a9f4c797", "fusion_lon": 0.0, "bike_id": "efb9c953cd8cf0cf3db8f6f0a9f4c797", "is_reserved": 0, "rental_uris": {"android": "https://dc.lft.to/lastmile_qr_scan", "ios": "https://dc.lft.to/lastmile_qr_scan"}, "lat": 38.92534066666666, "is_disabled": 0, "lon": -76.97214433333333}, {"fusion_lat": 0.0, "type": "electric_scooter", "name": "dcb9d5e85092b71bc7855b612eb8c1ba", "fusion_lon": 0.0, "bike_id": "dcb9d5e85092b71bc7855b612eb8c1ba", "is_reserved": 0, "rental_uris": {"android": "https://dc.lft.to/lastmile_qr_scan", "ios": "https://dc.lft.to/lastmile_qr_scan"}, "lat": 38.919239166666664, "is_disabled": 0, "lon": -77.03159733333334}, {"fusion_lat": 0.0, "type": "electric_scooter", "name": "3e3f2f88611aaa401ad23adec7e666a4", "fusion_lon": 0.0, "bike_id": "3e3f2f88611aaa401ad23adec7e666a4", "is_reserved": 0, "rental_uris": {"android": "https://dc.lft.to/lastmile_qr_scan", "ios": "https://dc.lft.to/lastmile_qr_scan"}, "lat": 38.924456166666666, "is_disabled": 0, "lon": -77.0339905}, {"fusion_lat": 0.0, "type": "electric_scooter", "name": "aa4659849c7be096cede7449a6706dee", "fusion_lon": 0.0, "bike_id": "aa4659849c7be096cede7449a6706dee", "is_reserved": 0, "rental_uris": {"android": "https://dc.lft.to/lastmile_qr_scan", "ios": "https://dc.lft.to/lastmile_qr_scan"}, "lat": 38.90881683333333, "is_disabled": 0, "lon": -77.02297783333333}, {"fusion_lat": 0.0, "type": "electric_scooter", "name": "a1a5fa8ed8b495a5794a700c8e07ada4", "fusion_lon": 0.0, "bike_id": "a1a5fa8ed8b495a5794a700c8e07ada4", "is_reserved": 0, "rental_uris": {"android": "https://dc.lft.to/lastmile_qr_scan", "ios": "https://dc.lft.to/lastmile_qr_scan"}, "lat": 38.9362665, "is_disabled": 0, "lon": -77.03651966666666}, {"fusion_lat": 0.0, "type": "electric_scooter", "name": "32e798ad17475e2a0e2fad1dc769b5a1", "fusion_lon": 0.0, "bike_id": "32e798ad17475e2a0e2fad1dc769b5a1", "is_reserved": 0, "rental_uris": {"android": "https://dc.lft.to/lastmile_qr_scan", "ios": "https://dc.lft.to/lastmile_qr_scan"}, "lat": 38.921918833333336, "is_disabled": 0, "lon": -77.04346233333334}, {"fusion_lat": 0.0, "type": "electric_scooter", "name": "b755034c4726629c5b16b93a328049da", "fusion_lon": 0.0, "bike_id": "b755034c4726629c5b16b93a328049da", "is_reserved": 0, "rental_uris": {"android": "https://dc.lft.to/lastmile_qr_scan", "ios": "https://dc.lft.to/lastmile_qr_scan"}, "lat": 38.90010766666666, "is_disabled": 0, "lon": -76.930285}, {"fusion_lat": 0.0, "type": "electric_scooter", "name": "0b473b675a2c0f2aa5129654d1a7552a", "fusion_lon": 0.0, "bike_id": "0b473b675a2c0f2aa5129654d1a7552a", "is_reserved": 0, "rental_uris": {"android": "https://dc.lft.to/lastmile_qr_scan", "ios": "https://dc.lft.to/lastmile_qr_scan"}, "lat": 38.90244666666667, "is_disabled": 0, "lon": -77.01936166666667}, {"fusion_lat": 0.0, "type": "electric_scooter", "name": "6fcfeecd275d5a187128852229767f7d", "fusion_lon": 0.0, "bike_id": "6fcfeecd275d5a187128852229767f7d", "is_reserved": 0, "rental_uris": {"android": "https://dc.lft.to/lastmile_qr_scan", "ios": "https://dc.lft.to/lastmile_qr_scan"}, "lat": 38.89340133333334, "is_disabled": 0, "lon": -77.0116855}, {"fusion_lat": 0.0, "type": "electric_scooter", "name": "7c404d124314000711cafd96bdfcdf9c", "fusion_lon": 0.0, "bike_id": "7c404d124314000711cafd96bdfcdf9c", "is_reserved": 0, "rental_uris": {"android": "https://dc.lft.to/lastmile_qr_scan", "ios": "https://dc.lft.to/lastmile_qr_scan"}, "lat": 38.8873335, "is_disabled": 0, "lon": -77.025769}, {"fusion_lat": 0.0, "type": "electric_scooter", "name": "e1239bc91e94aea0beeddc3e839cfd6b", "fusion_lon": 0.0, "bike_id": "e1239bc91e94aea0beeddc3e839cfd6b", "is_reserved": 0, "rental_uris": {"android": "https://dc.lft.to/lastmile_qr_scan", "ios": "https://dc.lft.to/lastmile_qr_scan"}, "lat": 38.910750666666665, "is_disabled": 0, "lon": -77.037101}, {"fusion_lat": 0.0, "type": "electric_scooter", "name": "e8f90a4e29aca9a022858bb9f5a4d68f", "fusion_lon": 0.0, "bike_id": "e8f90a4e29aca9a022858bb9f5a4d68f", "is_reserved": 0, "rental_uris": {"android": "https://dc.lft.to/lastmile_qr_scan", "ios": "https://dc.lft.to/lastmile_qr_scan"}, "lat": 38.8923115, "is_disabled": 0, "lon": -77.03179816666666}, {"fusion_lat": 0.0, "type": "electric_scooter", "name": "cf77c326cc8965dd9550ce2e4c0458cc", "fusion_lon": 0.0, "bike_id": "cf77c326cc8965dd9550ce2e4c0458cc", "is_reserved": 0, "rental_uris": {"android": "https://dc.lft.to/lastmile_qr_scan", "ios": "https://dc.lft.to/lastmile_qr_scan"}, "lat": 38.90021333333333, "is_disabled": 0, "lon": -76.98426083333334}, {"fusion_lat": 0.0, "type": "electric_scooter", "name": "339d98234d58cacf90138327f30ab56c", "fusion_lon": 0.0, "bike_id": "339d98234d58cacf90138327f30ab56c", "is_reserved": 0, "rental_uris": {"android": "https://dc.lft.to/lastmile_qr_scan", "ios": "https://dc.lft.to/lastmile_qr_scan"}, "lat": 38.90392033333333, "is_disabled": 0, "lon": -77.0627095}, {"fusion_lat": 0.0, "type": "electric_scooter", "name": "0fd09e6fbc2f5c84b72b1378714b42d9", "fusion_lon": 0.0, "bike_id": "0fd09e6fbc2f5c84b72b1378714b42d9", "is_reserved": 0, "rental_uris": {"android": "https://dc.lft.to/lastmile_qr_scan", "ios": "https://dc.lft.to/lastmile_qr_scan"}, "lat": 38.90154666666667, "is_disabled": 0, "lon": -76.99027183333334}, {"fusion_lat": 0.0, "type": "electric_scooter", "name": "f2cf7175f0fcfc5592c18efe157d350a", "fusion_lon": 0.0, "bike_id": "f2cf7175f0fcfc5592c18efe157d350a", "is_reserved": 0, "rental_uris": {"android": "https://dc.lft.to/lastmile_qr_scan", "ios": "https://dc.lft.to/lastmile_qr_scan"}, "lat": 38.901836, "is_disabled": 0, "lon": -76.9806075}, {"fusion_lat": 0.0, "type": "electric_scooter", "name": "affb4cf73311b95816fa02b39894bf6c", "fusion_lon": 0.0, "bike_id": "affb4cf73311b95816fa02b39894bf6c", "is_reserved": 0, "rental_uris": {"android": "https://dc.lft.to/lastmile_qr_scan", "ios": "https://dc.lft.to/lastmile_qr_scan"}, "lat": 38.917466, "is_disabled": 0, "lon": -77.03188616666667}, {"fusion_lat": 0.0, "type": "electric_scooter", "name": "f4068ec38325e8b836a11f0240ae915e", "fusion_lon": 0.0, "bike_id": "f4068ec38325e8b836a11f0240ae915e", "is_reserved": 0, "rental_uris": {"android": "https://dc.lft.to/lastmile_qr_scan", "ios": "https://dc.lft.to/lastmile_qr_scan"}, "lat": 38.9024115, "is_disabled": 0, "lon": -76.98969}, {"fusion_lat": 0.0, "type": "electric_scooter", "name": "4bb0504dee36c1baea5047ff2c3d1a3c", "fusion_lon": 0.0, "bike_id": "4bb0504dee36c1baea5047ff2c3d1a3c", "is_reserved": 0, "rental_uris": {"android": "https://dc.lft.to/lastmile_qr_scan", "ios": "https://dc.lft.to/lastmile_qr_scan"}, "lat": 38.9097145, "is_disabled": 0, "lon": -77.02404883333334}, {"fusion_lat": 0.0, "type": "electric_bike", "name": "5b7c9c96a2778866134c2999af53ebbe", "fusion_lon": 0.0, "bike_id": "5b7c9c96a2778866134c2999af53ebbe", "is_reserved": 0, "rental_uris": {"android": "https://dc.lft.to/lastmile_qr_scan", "ios": "https://dc.lft.to/lastmile_qr_scan"}, "lat": 38.96858133333333, "is_disabled": 0, "lon": -77.00045816666666}, {"fusion_lat": 0.0, "type": "electric_scooter", "name": "6f79bd1a6a609e87249e69dadd81cdb5", "fusion_lon": 0.0, "bike_id": "6f79bd1a6a609e87249e69dadd81cdb5", "is_reserved": 0, "rental_uris": {"android": "https://dc.lft.to/lastmile_qr_scan", "ios": "https://dc.lft.to/lastmile_qr_scan"}, "lat": 38.911262, "is_disabled": 0, "lon": -77.044236}, {"fusion_lat": 0.0, "type": "electric_scooter", "name": "f46e98f1100eb57304061fc001b70e80", "fusion_lon": 0.0, "bike_id": "f46e98f1100eb57304061fc001b70e80", "is_reserved": 0, "rental_uris": {"android": "https://dc.lft.to/lastmile_qr_scan", "ios": "https://dc.lft.to/lastmile_qr_scan"}, "lat": 38.94201533333333, "is_disabled": 0, "lon": -77.02501033333333}, {"fusion_lat": 0.0, "type": "electric_scooter", "name": "8d0c8def57819f85135d7f00d1b0c03d", "fusion_lon": 0.0, "bike_id": "8d0c8def57819f85135d7f00d1b0c03d", "is_reserved": 0, "rental_uris": {"android": "https://dc.lft.to/lastmile_qr_scan", "ios": "https://dc.lft.to/lastmile_qr_scan"}, "lat": 38.92892483333333, "is_disabled": 0, "lon": -77.01939116666667}, {"fusion_lat": 0.0, "type": "electric_bike", "name": "a4a1411c81bd23ef773bf5f4e10bf8f5", "fusion_lon": 0.0, "bike_id": "a4a1411c81bd23ef773bf5f4e10bf8f5", "is_reserved": 0, "rental_uris": {"android": "https://dc.lft.to/lastmile_qr_scan", "ios": "https://dc.lft.to/lastmile_qr_scan"}, "lat": 38.957607333333335, "is_disabled": 0, "lon": -77.00709166666667}, {"fusion_lat": 0.0, "type": "electric_scooter", "name": "efd18c1d49f0942cf99acafe2f6f11d7", "fusion_lon": 0.0, "bike_id": "efd18c1d49f0942cf99acafe2f6f11d7", "is_reserved": 0, "rental_uris": {"android": "https://dc.lft.to/lastmile_qr_scan", "ios": "https://dc.lft.to/lastmile_qr_scan"}, "lat": 38.86505566666666, "is_disabled": 0, "lon": -76.990048}, {"fusion_lat": 0.0, "type": "electric_scooter", "name": "b18239b591200e052f20899a7ae62610", "fusion_lon": 0.0, "bike_id": "b18239b591200e052f20899a7ae62610", "is_reserved": 0, "rental_uris": {"android": "https://dc.lft.to/lastmile_qr_scan", "ios": "https://dc.lft.to/lastmile_qr_scan"}, "lat": 38.9498425, "is_disabled": 0, "lon": -77.02707083333334}, {"fusion_lat": 0.0, "type": "electric_scooter", "name": "3238de830e82a229c8576cda9abcc15f", "fusion_lon": 0.0, "bike_id": "3238de830e82a229c8576cda9abcc15f", "is_reserved": 0, "rental_uris": {"android": "https://dc.lft.to/lastmile_qr_scan", "ios": "https://dc.lft.to/lastmile_qr_scan"}, "lat": 38.90167316666667, "is_disabled": 0, "lon": -77.051036}, {"fusion_lat": 0.0, "type": "electric_scooter", "name": "a08b4932bd71a6112fd6a4231728c059", "fusion_lon": 0.0, "bike_id": "a08b4932bd71a6112fd6a4231728c059", "is_reserved": 0, "rental_uris": {"android": "https://dc.lft.to/lastmile_qr_scan", "ios": "https://dc.lft.to/lastmile_qr_scan"}, "lat": 38.9361105, "is_disabled": 0, "lon": -77.05891716666666}, {"fusion_lat": 0.0, "type": "electric_scooter", "name": "48e00b84d45e98b39cf89cc3bfd5bc4c", "fusion_lon": 0.0, "bike_id": "48e00b84d45e98b39cf89cc3bfd5bc4c", "is_reserved": 0, "rental_uris": {"android": "https://dc.lft.to/lastmile_qr_scan", "ios": "https://dc.lft.to/lastmile_qr_scan"}, "lat": 38.886142, "is_disabled": 0, "lon": -77.01994566666667}, {"fusion_lat": 0.0, "type": "electric_scooter", "name": "5373b65276e32636f2f6f9f8314d7a75", "fusion_lon": 0.0, "bike_id": "5373b65276e32636f2f6f9f8314d7a75", "is_reserved": 0, "rental_uris": {"android": "https://dc.lft.to/lastmile_qr_scan", "ios": "https://dc.lft.to/lastmile_qr_scan"}, "lat": 38.914129, "is_disabled": 0, "lon": -77.0381615}, {"fusion_lat": 0.0, "type": "electric_scooter", "name": "1d24c321e501f87b3914624f9fa19cb7", "fusion_lon": 0.0, "bike_id": "1d24c321e501f87b3914624f9fa19cb7", "is_reserved": 0, "rental_uris": {"android": "https://dc.lft.to/lastmile_qr_scan", "ios": "https://dc.lft.to/lastmile_qr_scan"}, "lat": 38.89510083333333, "is_disabled": 0, "lon": -76.94887416666667}, {"fusion_lat": 0.0, "type": "electric_scooter", "name": "c5a3a73512241ffc070d4ac65308bdb6", "fusion_lon": 0.0, "bike_id": "c5a3a73512241ffc070d4ac65308bdb6", "is_reserved": 0, "rental_uris": {"android": "https://dc.lft.to/lastmile_qr_scan", "ios": "https://dc.lft.to/lastmile_qr_scan"}, "lat": 38.8987685, "is_disabled": 0, "lon": -76.9319495}, {"fusion_lat": 0.0, "type": "electric_scooter", "name": "01ad4c62ce8106bc06c5edc7ebf118f0", "fusion_lon": 0.0, "bike_id": "01ad4c62ce8106bc06c5edc7ebf118f0", "is_reserved": 0, "rental_uris": {"android": "https://dc.lft.to/lastmile_qr_scan", "ios": "https://dc.lft.to/lastmile_qr_scan"}, "lat": 38.92554116666667, "is_disabled": 0, "lon": -77.02961783333333}, {"fusion_lat": 0.0, "type": "electric_bike", "name": "226b8e87bdbb8c66ab9b2ceffd25bd02", "fusion_lon": 0.0, "bike_id": "226b8e87bdbb8c66ab9b2ceffd25bd02", "is_reserved": 0, "rental_uris": {"android": "https://dc.lft.to/lastmile_qr_scan", "ios": "https://dc.lft.to/lastmile_qr_scan"}, "lat": 38.9363885, "is_disabled": 0, "lon": -77.03322883333334}, {"fusion_lat": 0.0, "type": "electric_scooter", "name": "682bbd0ec3172b77508e970f83fb6957", "fusion_lon": 0.0, "bike_id": "682bbd0ec3172b77508e970f83fb6957", "is_reserved": 0, "rental_uris": {"android": "https://dc.lft.to/lastmile_qr_scan", "ios": "https://dc.lft.to/lastmile_qr_scan"}, "lat": 38.9143655, "is_disabled": 0, "lon": -77.06707216666666}, {"fusion_lat": 0.0, "type": "electric_scooter", "name": "29860e9259738f3b99ff0edd0161dcef", "fusion_lon": 0.0, "bike_id": "29860e9259738f3b99ff0edd0161dcef", "is_reserved": 0, "rental_uris": {"android": "https://dc.lft.to/lastmile_qr_scan", "ios": "https://dc.lft.to/lastmile_qr_scan"}, "lat": 38.9073495, "is_disabled": 0, "lon": -77.0238415}, {"fusion_lat": 0.0, "type": "electric_scooter", "name": "f9fdfccffa1b4a6ee9458eb6e5592665", "fusion_lon": 0.0, "bike_id": "f9fdfccffa1b4a6ee9458eb6e5592665", "is_reserved": 0, "rental_uris": {"android": "https://dc.lft.to/lastmile_qr_scan", "ios": "https://dc.lft.to/lastmile_qr_scan"}, "lat": 38.921611166666665, "is_disabled": 0, "lon": -77.03385166666666}, {"fusion_lat": 0.0, "type": "electric_scooter", "name": "b1839d518d7152ca427b84d74c7a02e5", "fusion_lon": 0.0, "bike_id": "b1839d518d7152ca427b84d74c7a02e5", "is_reserved": 0, "rental_uris": {"android": "https://dc.lft.to/lastmile_qr_scan", "ios": "https://dc.lft.to/lastmile_qr_scan"}, "lat": 38.91124133333334, "is_disabled": 0, "lon": -77.04363416666666}, {"fusion_lat": 0.0, "type": "electric_scooter", "name": "8f9dfb60c71b7b699f28435951ccfd88", "fusion_lon": 0.0, "bike_id": "8f9dfb60c71b7b699f28435951ccfd88", "is_reserved": 0, "rental_uris": {"android": "https://dc.lft.to/lastmile_qr_scan", "ios": "https://dc.lft.to/lastmile_qr_scan"}, "lat": 38.912626333333336, "is_disabled": 0, "lon": -77.0473165}, {"fusion_lat": 0.0, "type": "electric_scooter", "name": "7d6a4b9baf3182d207861ffd145af495", "fusion_lon": 0.0, "bike_id": "7d6a4b9baf3182d207861ffd145af495", "is_reserved": 0, "rental_uris": {"android": "https://dc.lft.to/lastmile_qr_scan", "ios": "https://dc.lft.to/lastmile_qr_scan"}, "lat": 38.91267033333333, "is_disabled": 0, "lon": -77.04418916666667}, {"fusion_lat": 0.0, "type": "electric_scooter", "name": "8c961f6a96566c920d6879efb8e88bd1", "fusion_lon": 0.0, "bike_id": "8c961f6a96566c920d6879efb8e88bd1", "is_reserved": 0, "rental_uris": {"android": "https://dc.lft.to/lastmile_qr_scan", "ios": "https://dc.lft.to/lastmile_qr_scan"}, "lat": 38.899117833333335, "is_disabled": 0, "lon": -76.93373166666666}, {"fusion_lat": 0.0, "type": "electric_scooter", "name": "a5d6b3173e5205d873cd90039ad5c917", "fusion_lon": 0.0, "bike_id": "a5d6b3173e5205d873cd90039ad5c917", "is_reserved": 0, "rental_uris": {"android": "https://dc.lft.to/lastmile_qr_scan", "ios": "https://dc.lft.to/lastmile_qr_scan"}, "lat": 38.919392333333334, "is_disabled": 0, "lon": -77.00189766666666}, {"fusion_lat": 0.0, "type": "electric_scooter", "name": "1941d48a0c168f29737726036b165179", "fusion_lon": 0.0, "bike_id": "1941d48a0c168f29737726036b165179", "is_reserved": 0, "rental_uris": {"android": "https://dc.lft.to/lastmile_qr_scan", "ios": "https://dc.lft.to/lastmile_qr_scan"}, "lat": 38.919017333333336, "is_disabled": 0, "lon": -77.02393783333333}, {"fusion_lat": 0.0, "type": "electric_scooter", "name": "ecc8b31d20d1cc41336252dd139d4639", "fusion_lon": 0.0, "bike_id": "ecc8b31d20d1cc41336252dd139d4639", "is_reserved": 0, "rental_uris": {"android": "https://dc.lft.to/lastmile_qr_scan", "ios": "https://dc.lft.to/lastmile_qr_scan"}, "lat": 38.91056783333333, "is_disabled": 0, "lon": -77.04107433333333}, {"fusion_lat": 0.0, "type": "electric_scooter", "name": "20fdc4e84628a73698cfbc53fcaf5227", "fusion_lon": 0.0, "bike_id": "20fdc4e84628a73698cfbc53fcaf5227", "is_reserved": 0, "rental_uris": {"android": "https://dc.lft.to/lastmile_qr_scan", "ios": "https://dc.lft.to/lastmile_qr_scan"}, "lat": 38.903543666666664, "is_disabled": 0, "lon": -77.06006616666667}, {"fusion_lat": 0.0, "type": "electric_bike", "name": "f5b169e102a396ab3ba034c35050764c", "fusion_lon": 0.0, "bike_id": "f5b169e102a396ab3ba034c35050764c", "is_reserved": 0, "rental_uris": {"android": "https://dc.lft.to/lastmile_qr_scan", "ios": "https://dc.lft.to/lastmile_qr_scan"}, "lat": 39.05787566666667, "is_disabled": 0, "lon": -77.15020166666666}, {"fusion_lat": 0.0, "type": "electric_scooter", "name": "fd8947501103d2e73c1e567c0bf7438e", "fusion_lon": 0.0, "bike_id": "fd8947501103d2e73c1e567c0bf7438e", "is_reserved": 0, "rental_uris": {"android": "https://dc.lft.to/lastmile_qr_scan", "ios": "https://dc.lft.to/lastmile_qr_scan"}, "lat": 38.90955666666667, "is_disabled": 0, "lon": -77.02202733333333}, {"fusion_lat": 0.0, "type": "electric_scooter", "name": "0c176bcc4bbd5631d38e22425800f25e", "fusion_lon": 0.0, "bike_id": "0c176bcc4bbd5631d38e22425800f25e", "is_reserved": 0, "rental_uris": {"android": "https://dc.lft.to/lastmile_qr_scan", "ios": "https://dc.lft.to/lastmile_qr_scan"}, "lat": 38.91801983333333, "is_disabled": 0, "lon": -77.03433783333334}, {"fusion_lat": 0.0, "type": "electric_scooter", "name": "70326bfe27566bdf2ce7eb8358e42d84", "fusion_lon": 0.0, "bike_id": "70326bfe27566bdf2ce7eb8358e42d84", "is_reserved": 0, "rental_uris": {"android": "https://dc.lft.to/lastmile_qr_scan", "ios": "https://dc.lft.to/lastmile_qr_scan"}, "lat": 38.835640833333336, "is_disabled": 0, "lon": -76.994965}, {"fusion_lat": 0.0, "type": "electric_scooter", "name": "fc26576987562ad3178f7f2faeb58e2a", "fusion_lon": 0.0, "bike_id": "fc26576987562ad3178f7f2faeb58e2a", "is_reserved": 0, "rental_uris": {"android": "https://dc.lft.to/lastmile_qr_scan", "ios": "https://dc.lft.to/lastmile_qr_scan"}, "lat": 38.915300333333334, "is_disabled": 0, "lon": -77.0254705}, {"fusion_lat": 0.0, "type": "electric_scooter", "name": "ced83f2ce78f2986a4253e7c232d760c", "fusion_lon": 0.0, "bike_id": "ced83f2ce78f2986a4253e7c232d760c", "is_reserved": 0, "rental_uris": {"android": "https://dc.lft.to/lastmile_qr_scan", "ios": "https://dc.lft.to/lastmile_qr_scan"}, "lat": 38.899908, "is_disabled": 0, "lon": -77.041293}, {"fusion_lat": 0.0, "type": "electric_scooter", "name": "e1956cdcb87e3c4b92a28fb78a6bf050", "fusion_lon": 0.0, "bike_id": "e1956cdcb87e3c4b92a28fb78a6bf050", "is_reserved": 0, "rental_uris": {"android": "https://dc.lft.to/lastmile_qr_scan", "ios": "https://dc.lft.to/lastmile_qr_scan"}, "lat": 38.922376, "is_disabled": 0, "lon": -77.0308455}, {"fusion_lat": 0.0, "type": "electric_scooter", "name": "c8dcf2b0b7e33119c1f8f9341e691d03", "fusion_lon": 0.0, "bike_id": "c8dcf2b0b7e33119c1f8f9341e691d03", "is_reserved": 0, "rental_uris": {"android": "https://dc.lft.to/lastmile_qr_scan", "ios": "https://dc.lft.to/lastmile_qr_scan"}, "lat": 38.917641333333336, "is_disabled": 0, "lon": -77.03220916666666}, {"fusion_lat": 0.0, "type": "electric_scooter", "name": "003a71692ceb6cfbbf32578875f8c34f", "fusion_lon": 0.0, "bike_id": "003a71692ceb6cfbbf32578875f8c34f", "is_reserved": 0, "rental_uris": {"android": "https://dc.lft.to/lastmile_qr_scan", "ios": "https://dc.lft.to/lastmile_qr_scan"}, "lat": 38.90969033333333, "is_disabled": 0, "lon": -77.0386715}, {"fusion_lat": 0.0, "type": "electric_scooter", "name": "c7c63e9ea1e6009d160495296cc8ef11", "fusion_lon": 0.0, "bike_id": "c7c63e9ea1e6009d160495296cc8ef11", "is_reserved": 0, "rental_uris": {"android": "https://dc.lft.to/lastmile_qr_scan", "ios": "https://dc.lft.to/lastmile_qr_scan"}, "lat": 38.90064566666667, "is_disabled": 0, "lon": -76.92747733333333}, {"fusion_lat": 0.0, "type": "electric_scooter", "name": "f8d03a9c0d237474b4380e4310516ce3", "fusion_lon": 0.0, "bike_id": "f8d03a9c0d237474b4380e4310516ce3", "is_reserved": 0, "rental_uris": {"android": "https://dc.lft.to/lastmile_qr_scan", "ios": "https://dc.lft.to/lastmile_qr_scan"}, "lat": 38.899784, "is_disabled": 0, "lon": -77.048255}, {"fusion_lat": 0.0, "type": "electric_scooter", "name": "c001ad85aab8c4a07253d30812189c62", "fusion_lon": 0.0, "bike_id": "c001ad85aab8c4a07253d30812189c62", "is_reserved": 0, "rental_uris": {"android": "https://dc.lft.to/lastmile_qr_scan", "ios": "https://dc.lft.to/lastmile_qr_scan"}, "lat": 38.887933833333335, "is_disabled": 0, "lon": -76.93358033333334}, {"fusion_lat": 0.0, "type": "electric_scooter", "name": "12f35e4725d83c3378f16ae61c6050ee", "fusion_lon": 0.0, "bike_id": "12f35e4725d83c3378f16ae61c6050ee", "is_reserved": 0, "rental_uris": {"android": "https://dc.lft.to/lastmile_qr_scan", "ios": "https://dc.lft.to/lastmile_qr_scan"}, "lat": 38.892332, "is_disabled": 0, "lon": -77.03188633333333}, {"fusion_lat": 0.0, "type": "electric_scooter", "name": "0d13abbdab87413d998e9b379c14b7b5", "fusion_lon": 0.0, "bike_id": "0d13abbdab87413d998e9b379c14b7b5", "is_reserved": 0, "rental_uris": {"android": "https://dc.lft.to/lastmile_qr_scan", "ios": "https://dc.lft.to/lastmile_qr_scan"}, "lat": 38.9337055, "is_disabled": 0, "lon": -77.02358833333334}, {"fusion_lat": 0.0, "type": "electric_scooter", "name": "d9c8f09ad9d2bcfc37a85f8f1a07cb05", "fusion_lon": 0.0, "bike_id": "d9c8f09ad9d2bcfc37a85f8f1a07cb05", "is_reserved": 0, "rental_uris": {"android": "https://dc.lft.to/lastmile_qr_scan", "ios": "https://dc.lft.to/lastmile_qr_scan"}, "lat": 38.88809833333333, "is_disabled": 0, "lon": -76.93346633333333}, {"fusion_lat": 0.0, "type": "electric_scooter", "name": "2aa4e087f0b6b1afea17346c113bdaa0", "fusion_lon": 0.0, "bike_id": "2aa4e087f0b6b1afea17346c113bdaa0", "is_reserved": 0, "rental_uris": {"android": "https://dc.lft.to/lastmile_qr_scan", "ios": "https://dc.lft.to/lastmile_qr_scan"}, "lat": 38.9211005, "is_disabled": 0, "lon": -77.04224266666667}, {"fusion_lat": 0.0, "type": "electric_scooter", "name": "17173414053614bbd8c8db16e25d73f1", "fusion_lon": 0.0, "bike_id": "17173414053614bbd8c8db16e25d73f1", "is_reserved": 0, "rental_uris": {"android": "https://dc.lft.to/lastmile_qr_scan", "ios": "https://dc.lft.to/lastmile_qr_scan"}, "lat": 38.897124833333336, "is_disabled": 0, "lon": -77.02713433333334}, {"fusion_lat": 0.0, "type": "electric_scooter", "name": "724f360e6da5256f3098f0987a97a3c8", "fusion_lon": 0.0, "bike_id": "724f360e6da5256f3098f0987a97a3c8", "is_reserved": 0, "rental_uris": {"android": "https://dc.lft.to/lastmile_qr_scan", "ios": "https://dc.lft.to/lastmile_qr_scan"}, "lat": 38.933629833333335, "is_disabled": 0, "lon": -77.05727216666666}, {"fusion_lat": 0.0, "type": "electric_scooter", "name": "fabdc65a6528d30475035987ddd462de", "fusion_lon": 0.0, "bike_id": "fabdc65a6528d30475035987ddd462de", "is_reserved": 0, "rental_uris": {"android": "https://dc.lft.to/lastmile_qr_scan", "ios": "https://dc.lft.to/lastmile_qr_scan"}, "lat": 38.9167585, "is_disabled": 0, "lon": -76.97891666666666}, {"fusion_lat": 0.0, "type": "electric_scooter", "name": "82dbd800080c7d6bce701ebc586ace5a", "fusion_lon": 0.0, "bike_id": "82dbd800080c7d6bce701ebc586ace5a", "is_reserved": 0, "rental_uris": {"android": "https://dc.lft.to/lastmile_qr_scan", "ios": "https://dc.lft.to/lastmile_qr_scan"}, "lat": 38.8664275, "is_disabled": 0, "lon": -76.985312}, {"fusion_lat": 0.0, "type": "electric_scooter", "name": "ede9647f6bd22e8de661be532355942c", "fusion_lon": 0.0, "bike_id": "ede9647f6bd22e8de661be532355942c", "is_reserved": 0, "rental_uris": {"android": "https://dc.lft.to/lastmile_qr_scan", "ios": "https://dc.lft.to/lastmile_qr_scan"}, "lat": 38.909643, "is_disabled": 0, "lon": -77.02420183333334}, {"fusion_lat": 0.0, "type": "electric_scooter", "name": "76f60258c0f4e6f50d6148a3238559cb", "fusion_lon": 0.0, "bike_id": "76f60258c0f4e6f50d6148a3238559cb", "is_reserved": 0, "rental_uris": {"android": "https://dc.lft.to/lastmile_qr_scan", "ios": "https://dc.lft.to/lastmile_qr_scan"}, "lat": 38.89224316666667, "is_disabled": 0, "lon": -77.04470683333334}, {"fusion_lat": 0.0, "type": "electric_scooter", "name": "dadea7ec8e7d959b52781cfc0a0ea1d8", "fusion_lon": 0.0, "bike_id": "dadea7ec8e7d959b52781cfc0a0ea1d8", "is_reserved": 0, "rental_uris": {"android": "https://dc.lft.to/lastmile_qr_scan", "ios": "https://dc.lft.to/lastmile_qr_scan"}, "lat": 38.918056666666665, "is_disabled": 0, "lon": -77.0248945}, {"fusion_lat": 0.0, "type": "electric_scooter", "name": "7ccf09b7e5cfe59c91de2b0d5f81833e", "fusion_lon": 0.0, "bike_id": "7ccf09b7e5cfe59c91de2b0d5f81833e", "is_reserved": 0, "rental_uris": {"android": "https://dc.lft.to/lastmile_qr_scan", "ios": "https://dc.lft.to/lastmile_qr_scan"}, "lat": 38.90031966666667, "is_disabled": 0, "lon": -76.9863275}, {"fusion_lat": 0.0, "type": "electric_scooter", "name": "bb879a1a65b542c70b882b22737b2dbb", "fusion_lon": 0.0, "bike_id": "bb879a1a65b542c70b882b22737b2dbb", "is_reserved": 0, "rental_uris": {"android": "https://dc.lft.to/lastmile_qr_scan", "ios": "https://dc.lft.to/lastmile_qr_scan"}, "lat": 38.91553616666667, "is_disabled": 0, "lon": -77.02980816666667}, {"fusion_lat": 0.0, "type": "electric_scooter", "name": "abb4a33a64a4cb0ffc342bc891857c79", "fusion_lon": 0.0, "bike_id": "abb4a33a64a4cb0ffc342bc891857c79", "is_reserved": 0, "rental_uris": {"android": "https://dc.lft.to/lastmile_qr_scan", "ios": "https://dc.lft.to/lastmile_qr_scan"}, "lat": 38.9171905, "is_disabled": 0, "lon": -77.02533416666667}, {"fusion_lat": 0.0, "type": "electric_scooter", "name": "dd57d7f5acd6f328d13a1d6dada61d17", "fusion_lon": 0.0, "bike_id": "dd57d7f5acd6f328d13a1d6dada61d17", "is_reserved": 0, "rental_uris": {"android": "https://dc.lft.to/lastmile_qr_scan", "ios": "https://dc.lft.to/lastmile_qr_scan"}, "lat": 38.893243, "is_disabled": 0, "lon": -77.0120945}, {"fusion_lat": 0.0, "type": "electric_scooter", "name": "ff4afecc6c476ee999342ffcbd8d4935", "fusion_lon": 0.0, "bike_id": "ff4afecc6c476ee999342ffcbd8d4935", "is_reserved": 0, "rental_uris": {"android": "https://dc.lft.to/lastmile_qr_scan", "ios": "https://dc.lft.to/lastmile_qr_scan"}, "lat": 38.92769066666666, "is_disabled": 0, "lon": -77.02779133333334}, {"fusion_lat": 0.0, "type": "electric_scooter", "name": "46518c4f36ae97d2f21dae147e36aff8", "fusion_lon": 0.0, "bike_id": "46518c4f36ae97d2f21dae147e36aff8", "is_reserved": 0, "rental_uris": {"android": "https://dc.lft.to/lastmile_qr_scan", "ios": "https://dc.lft.to/lastmile_qr_scan"}, "lat": 38.91688383333333, "is_disabled": 0, "lon": -77.02200833333333}, {"fusion_lat": 0.0, "type": "electric_scooter", "name": "d24da1a7ee828ad547440e6ab9eb830f", "fusion_lon": 0.0, "bike_id": "d24da1a7ee828ad547440e6ab9eb830f", "is_reserved": 0, "rental_uris": {"android": "https://dc.lft.to/lastmile_qr_scan", "ios": "https://dc.lft.to/lastmile_qr_scan"}, "lat": 38.91701066666667, "is_disabled": 0, "lon": -77.034871}, {"fusion_lat": 0.0, "type": "electric_scooter", "name": "6b6b4d5af4ba5441c97ed5b448393e1f", "fusion_lon": 0.0, "bike_id": "6b6b4d5af4ba5441c97ed5b448393e1f", "is_reserved": 0, "rental_uris": {"android": "https://dc.lft.to/lastmile_qr_scan", "ios": "https://dc.lft.to/lastmile_qr_scan"}, "lat": 38.907235, "is_disabled": 0, "lon": -77.0347145}, {"fusion_lat": 0.0, "type": "electric_scooter", "name": "47b55b62297338103dd22b08c4110d57", "fusion_lon": 0.0, "bike_id": "47b55b62297338103dd22b08c4110d57", "is_reserved": 0, "rental_uris": {"android": "https://dc.lft.to/lastmile_qr_scan", "ios": "https://dc.lft.to/lastmile_qr_scan"}, "lat": 38.88426916666667, "is_disabled": 0, "lon": -77.0304635}, {"fusion_lat": 0.0, "type": "electric_scooter", "name": "fcbc4d6b367fcbaf355cfe44d502ba07", "fusion_lon": 0.0, "bike_id": "fcbc4d6b367fcbaf355cfe44d502ba07", "is_reserved": 0, "rental_uris": {"android": "https://dc.lft.to/lastmile_qr_scan", "ios": "https://dc.lft.to/lastmile_qr_scan"}, "lat": 38.9418, "is_disabled": 0, "lon": -77.025328}, {"fusion_lat": 0.0, "type": "electric_scooter", "name": "1e2417ab08f343b839d0ff56c949820d", "fusion_lon": 0.0, "bike_id": "1e2417ab08f343b839d0ff56c949820d", "is_reserved": 0, "rental_uris": {"android": "https://dc.lft.to/lastmile_qr_scan", "ios": "https://dc.lft.to/lastmile_qr_scan"}, "lat": 38.9406755, "is_disabled": 0, "lon": -77.0253085}, {"fusion_lat": 0.0, "type": "electric_scooter", "name": "e2aff779f73f838b2ca2a8cc2345b55f", "fusion_lon": 0.0, "bike_id": "e2aff779f73f838b2ca2a8cc2345b55f", "is_reserved": 0, "rental_uris": {"android": "https://dc.lft.to/lastmile_qr_scan", "ios": "https://dc.lft.to/lastmile_qr_scan"}, "lat": 38.916774, "is_disabled": 0, "lon": -77.03691733333334}, {"fusion_lat": 0.0, "type": "electric_scooter", "name": "0248e955244b41c62641dce91ea1b35f", "fusion_lon": 0.0, "bike_id": "0248e955244b41c62641dce91ea1b35f", "is_reserved": 0, "rental_uris": {"android": "https://dc.lft.to/lastmile_qr_scan", "ios": "https://dc.lft.to/lastmile_qr_scan"}, "lat": 38.85252833333333, "is_disabled": 0, "lon": -76.97009783333333}, {"fusion_lat": 0.0, "type": "electric_scooter", "name": "51e8c5d5bbdf64f862f6ad045cf30935", "fusion_lon": 0.0, "bike_id": "51e8c5d5bbdf64f862f6ad045cf30935", "is_reserved": 0, "rental_uris": {"android": "https://dc.lft.to/lastmile_qr_scan", "ios": "https://dc.lft.to/lastmile_qr_scan"}, "lat": 38.88990366666667, "is_disabled": 0, "lon": -76.93108683333334}, {"fusion_lat": 0.0, "type": "electric_scooter", "name": "dbb2ee667e863367a46f1a3b6789ab0c", "fusion_lon": 0.0, "bike_id": "dbb2ee667e863367a46f1a3b6789ab0c", "is_reserved": 0, "rental_uris": {"android": "https://dc.lft.to/lastmile_qr_scan", "ios": "https://dc.lft.to/lastmile_qr_scan"}, "lat": 38.90321866666667, "is_disabled": 0, "lon": -77.03281783333334}, {"fusion_lat": 0.0, "type": "electric_scooter", "name": "d69e9a3a725a539a25d90531483ef892", "fusion_lon": 0.0, "bike_id": "d69e9a3a725a539a25d90531483ef892", "is_reserved": 0, "rental_uris": {"android": "https://dc.lft.to/lastmile_qr_scan", "ios": "https://dc.lft.to/lastmile_qr_scan"}, "lat": 38.901591333333336, "is_disabled": 0, "lon": -76.980755}, {"fusion_lat": 0.0, "type": "electric_scooter", "name": "94526bc16dc77de4ea2972c117b4b2d4", "fusion_lon": 0.0, "bike_id": "94526bc16dc77de4ea2972c117b4b2d4", "is_reserved": 0, "rental_uris": {"android": "https://dc.lft.to/lastmile_qr_scan", "ios": "https://dc.lft.to/lastmile_qr_scan"}, "lat": 38.894315666666664, "is_disabled": 0, "lon": -77.02104483333333}, {"fusion_lat": 0.0, "type": "electric_scooter", "name": "8eaeada7e4794072f2fde7ec502d1ee2", "fusion_lon": 0.0, "bike_id": "8eaeada7e4794072f2fde7ec502d1ee2", "is_reserved": 0, "rental_uris": {"android": "https://dc.lft.to/lastmile_qr_scan", "ios": "https://dc.lft.to/lastmile_qr_scan"}, "lat": 38.91406966666667, "is_disabled": 0, "lon": -77.032306}, {"fusion_lat": 0.0, "type": "electric_scooter", "name": "2a4caa4a3ec94dc5ee52887268d37d49", "fusion_lon": 0.0, "bike_id": "2a4caa4a3ec94dc5ee52887268d37d49", "is_reserved": 0, "rental_uris": {"android": "https://dc.lft.to/lastmile_qr_scan", "ios": "https://dc.lft.to/lastmile_qr_scan"}, "lat": 38.892141333333335, "is_disabled": 0, "lon": -77.03164866666667}, {"fusion_lat": 0.0, "type": "electric_scooter", "name": "09052a875457667843589d8c6cb8e41b", "fusion_lon": 0.0, "bike_id": "09052a875457667843589d8c6cb8e41b", "is_reserved": 0, "rental_uris": {"android": "https://dc.lft.to/lastmile_qr_scan", "ios": "https://dc.lft.to/lastmile_qr_scan"}, "lat": 38.91759616666667, "is_disabled": 0, "lon": -77.03135066666667}, {"fusion_lat": 0.0, "type": "electric_scooter", "name": "d232b26521616e447f17470a95a1f548", "fusion_lon": 0.0, "bike_id": "d232b26521616e447f17470a95a1f548", "is_reserved": 0, "rental_uris": {"android": "https://dc.lft.to/lastmile_qr_scan", "ios": "https://dc.lft.to/lastmile_qr_scan"}, "lat": 38.893134, "is_disabled": 0, "lon": -76.95115233333334}, {"fusion_lat": 0.0, "type": "electric_bike", "name": "cbffe4defef278f23430cf09ff033497", "fusion_lon": 0.0, "bike_id": "cbffe4defef278f23430cf09ff033497", "is_reserved": 0, "rental_uris": {"android": "https://dc.lft.to/lastmile_qr_scan", "ios": "https://dc.lft.to/lastmile_qr_scan"}, "lat": 38.93683216666667, "is_disabled": 0, "lon": -77.033276}, {"fusion_lat": 0.0, "type": "electric_scooter", "name": "f9379be6715cd298c2893b2c6e9aaf67", "fusion_lon": 0.0, "bike_id": "f9379be6715cd298c2893b2c6e9aaf67", "is_reserved": 0, "rental_uris": {"android": "https://dc.lft.to/lastmile_qr_scan", "ios": "https://dc.lft.to/lastmile_qr_scan"}, "lat": 38.900343166666666, "is_disabled": 0, "lon": -77.0318995}, {"fusion_lat": 0.0, "type": "electric_bike", "name": "3d50925240537991b311c323971c7e03", "fusion_lon": 0.0, "bike_id": "3d50925240537991b311c323971c7e03", "is_reserved": 0, "rental_uris": {"android": "https://dc.lft.to/lastmile_qr_scan", "ios": "https://dc.lft.to/lastmile_qr_scan"}, "lat": 38.91177, "is_disabled": 0, "lon": -77.08812166666667}, {"fusion_lat": 0.0, "type": "electric_scooter", "name": "23f352fac79099b2ce6b2fab68b4a00f", "fusion_lon": 0.0, "bike_id": "23f352fac79099b2ce6b2fab68b4a00f", "is_reserved": 0, "rental_uris": {"android": "https://dc.lft.to/lastmile_qr_scan", "ios": "https://dc.lft.to/lastmile_qr_scan"}, "lat": 38.83491933333333, "is_disabled": 0, "lon": -77.0067525}, {"fusion_lat": 0.0, "type": "electric_scooter", "name": "8ea50bf23ebb9a3911cf3065601bc138", "fusion_lon": 0.0, "bike_id": "8ea50bf23ebb9a3911cf3065601bc138", "is_reserved": 0, "rental_uris": {"android": "https://dc.lft.to/lastmile_qr_scan", "ios": "https://dc.lft.to/lastmile_qr_scan"}, "lat": 38.894857333333334, "is_disabled": 0, "lon": -77.01084016666667}, {"fusion_lat": 0.0, "type": "electric_scooter", "name": "9655565eadc0ba5aa354011d71adc3c5", "fusion_lon": 0.0, "bike_id": "9655565eadc0ba5aa354011d71adc3c5", "is_reserved": 0, "rental_uris": {"android": "https://dc.lft.to/lastmile_qr_scan", "ios": "https://dc.lft.to/lastmile_qr_scan"}, "lat": 38.884755, "is_disabled": 0, "lon": -76.99710183333333}, {"fusion_lat": 0.0, "type": "electric_bike", "name": "6c3bde3c4008e2148bfb2995b9a69a0f", "fusion_lon": 0.0, "bike_id": "6c3bde3c4008e2148bfb2995b9a69a0f", "is_reserved": 0, "rental_uris": {"android": "https://dc.lft.to/lastmile_qr_scan", "ios": "https://dc.lft.to/lastmile_qr_scan"}, "lat": 38.8427225, "is_disabled": 0, "lon": -76.98836516666667}, {"fusion_lat": 0.0, "type": "electric_bike", "name": "787e3511920e2e549c30388163b587e9", "fusion_lon": 0.0, "bike_id": "787e3511920e2e549c30388163b587e9", "is_reserved": 0, "rental_uris": {"android": "https://dc.lft.to/lastmile_qr_scan", "ios": "https://dc.lft.to/lastmile_qr_scan"}, "lat": 38.97683083333333, "is_disabled": 0, "lon": -77.09308733333333}, {"fusion_lat": 0.0, "type": "electric_scooter", "name": "34d39134a97585ba6ee28806564837b2", "fusion_lon": 0.0, "bike_id": "34d39134a97585ba6ee28806564837b2", "is_reserved": 0, "rental_uris": {"android": "https://dc.lft.to/lastmile_qr_scan", "ios": "https://dc.lft.to/lastmile_qr_scan"}, "lat": 38.918654, "is_disabled": 0, "lon": -77.041735}, {"fusion_lat": 0.0, "type": "electric_scooter", "name": "0480719548f393a431bcc877057b9a92", "fusion_lon": 0.0, "bike_id": "0480719548f393a431bcc877057b9a92", "is_reserved": 0, "rental_uris": {"android": "https://dc.lft.to/lastmile_qr_scan", "ios": "https://dc.lft.to/lastmile_qr_scan"}, "lat": 38.8764245, "is_disabled": 0, "lon": -77.00649533333333}, {"fusion_lat": 0.0, "type": "electric_scooter", "name": "8ccc8087ddc681438d0cd46f88491eec", "fusion_lon": 0.0, "bike_id": "8ccc8087ddc681438d0cd46f88491eec", "is_reserved": 0, "rental_uris": {"android": "https://dc.lft.to/lastmile_qr_scan", "ios": "https://dc.lft.to/lastmile_qr_scan"}, "lat": 38.884363, "is_disabled": 0, "lon": -76.9294445}, {"fusion_lat": 0.0, "type": "electric_scooter", "name": "cf4a8b95663789f36b5a1b769b3fa66d", "fusion_lon": 0.0, "bike_id": "cf4a8b95663789f36b5a1b769b3fa66d", "is_reserved": 0, "rental_uris": {"android": "https://dc.lft.to/lastmile_qr_scan", "ios": "https://dc.lft.to/lastmile_qr_scan"}, "lat": 38.919759, "is_disabled": 0, "lon": -77.01204566666667}, {"fusion_lat": 0.0, "type": "electric_scooter", "name": "66fb47f242160b04e2a5aaf91d08fbfe", "fusion_lon": 0.0, "bike_id": "66fb47f242160b04e2a5aaf91d08fbfe", "is_reserved": 0, "rental_uris": {"android": "https://dc.lft.to/lastmile_qr_scan", "ios": "https://dc.lft.to/lastmile_qr_scan"}, "lat": 38.89994566666667, "is_disabled": 0, "lon": -77.00124016666666}, {"fusion_lat": 0.0, "type": "electric_scooter", "name": "ad178b19ad0bf34abb9ef739abd070c2", "fusion_lon": 0.0, "bike_id": "ad178b19ad0bf34abb9ef739abd070c2", "is_reserved": 0, "rental_uris": {"android": "https://dc.lft.to/lastmile_qr_scan", "ios": "https://dc.lft.to/lastmile_qr_scan"}, "lat": 38.893497833333335, "is_disabled": 0, "lon": -77.02222933333333}, {"fusion_lat": 0.0, "type": "electric_scooter", "name": "c61fc0a956d18a8d374a1e8f505d1cf9", "fusion_lon": 0.0, "bike_id": "c61fc0a956d18a8d374a1e8f505d1cf9", "is_reserved": 0, "rental_uris": {"android": "https://dc.lft.to/lastmile_qr_scan", "ios": "https://dc.lft.to/lastmile_qr_scan"}, "lat": 38.908757, "is_disabled": 0, "lon": -77.02315733333333}, {"fusion_lat": 0.0, "type": "electric_scooter", "name": "fd59b72b5b40397f92e0d5d268219969", "fusion_lon": 0.0, "bike_id": "fd59b72b5b40397f92e0d5d268219969", "is_reserved": 0, "rental_uris": {"android": "https://dc.lft.to/lastmile_qr_scan", "ios": "https://dc.lft.to/lastmile_qr_scan"}, "lat": 38.91095966666666, "is_disabled": 0, "lon": -77.04479566666667}, {"fusion_lat": 0.0, "type": "electric_scooter", "name": "fc8ac28f9291293fc638b805adc52602", "fusion_lon": 0.0, "bike_id": "fc8ac28f9291293fc638b805adc52602", "is_reserved": 0, "rental_uris": {"android": "https://dc.lft.to/lastmile_qr_scan", "ios": "https://dc.lft.to/lastmile_qr_scan"}, "lat": 38.900134666666666, "is_disabled": 0, "lon": -77.04394166666667}, {"fusion_lat": 0.0, "type": "electric_scooter", "name": "3c7bb0a880a7e1728f563456decf3179", "fusion_lon": 0.0, "bike_id": "3c7bb0a880a7e1728f563456decf3179", "is_reserved": 0, "rental_uris": {"android": "https://dc.lft.to/lastmile_qr_scan", "ios": "https://dc.lft.to/lastmile_qr_scan"}, "lat": 38.90810483333333, "is_disabled": 0, "lon": -77.04323933333333}, {"fusion_lat": 0.0, "type": "electric_scooter", "name": "c211db5aa1667e95e832ed4253d771b1", "fusion_lon": 0.0, "bike_id": "c211db5aa1667e95e832ed4253d771b1", "is_reserved": 0, "rental_uris": {"android": "https://dc.lft.to/lastmile_qr_scan", "ios": "https://dc.lft.to/lastmile_qr_scan"}, "lat": 38.928269, "is_disabled": 0, "lon": -77.02156866666667}, {"fusion_lat": 0.0, "type": "electric_scooter", "name": "9b8cd2f147ac71c5f92d567fbd2e8b4e", "fusion_lon": 0.0, "bike_id": "9b8cd2f147ac71c5f92d567fbd2e8b4e", "is_reserved": 0, "rental_uris": {"android": "https://dc.lft.to/lastmile_qr_scan", "ios": "https://dc.lft.to/lastmile_qr_scan"}, "lat": 38.8724765, "is_disabled": 0, "lon": -76.97725433333333}, {"fusion_lat": 0.0, "type": "electric_scooter", "name": "4f77090ed8c4587c4142fee0096ad70b", "fusion_lon": 0.0, "bike_id": "4f77090ed8c4587c4142fee0096ad70b", "is_reserved": 0, "rental_uris": {"android": "https://dc.lft.to/lastmile_qr_scan", "ios": "https://dc.lft.to/lastmile_qr_scan"}, "lat": 38.89321566666667, "is_disabled": 0, "lon": -77.0467465}, {"fusion_lat": 0.0, "type": "electric_scooter", "name": "6b6921f57c16f69b26641aaf5b585904", "fusion_lon": 0.0, "bike_id": "6b6921f57c16f69b26641aaf5b585904", "is_reserved": 0, "rental_uris": {"android": "https://dc.lft.to/lastmile_qr_scan", "ios": "https://dc.lft.to/lastmile_qr_scan"}, "lat": 38.996021999999996, "is_disabled": 0, "lon": -77.03216566666667}, {"fusion_lat": 0.0, "type": "electric_scooter", "name": "1ea541eea89459d99ca82dea41c5dbed", "fusion_lon": 0.0, "bike_id": "1ea541eea89459d99ca82dea41c5dbed", "is_reserved": 0, "rental_uris": {"android": "https://dc.lft.to/lastmile_qr_scan", "ios": "https://dc.lft.to/lastmile_qr_scan"}, "lat": 38.939658333333334, "is_disabled": 0, "lon": -77.02490716666667}, {"fusion_lat": 0.0, "type": "electric_scooter", "name": "bda0cc08a1769604e42338666dcf726c", "fusion_lon": 0.0, "bike_id": "bda0cc08a1769604e42338666dcf726c", "is_reserved": 0, "rental_uris": {"android": "https://dc.lft.to/lastmile_qr_scan", "ios": "https://dc.lft.to/lastmile_qr_scan"}, "lat": 38.926791333333334, "is_disabled": 0, "lon": -77.02670016666667}, {"fusion_lat": 0.0, "type": "electric_scooter", "name": "2d6f2133d937ebd6eb6a43badf0a6501", "fusion_lon": 0.0, "bike_id": "2d6f2133d937ebd6eb6a43badf0a6501", "is_reserved": 0, "rental_uris": {"android": "https://dc.lft.to/lastmile_qr_scan", "ios": "https://dc.lft.to/lastmile_qr_scan"}, "lat": 38.904728166666665, "is_disabled": 0, "lon": -76.98055383333333}, {"fusion_lat": 0.0, "type": "electric_scooter", "name": "9758e8a1723006f3f28d499d327f3276", "fusion_lon": 0.0, "bike_id": "9758e8a1723006f3f28d499d327f3276", "is_reserved": 0, "rental_uris": {"android": "https://dc.lft.to/lastmile_qr_scan", "ios": "https://dc.lft.to/lastmile_qr_scan"}, "lat": 38.907224166666666, "is_disabled": 0, "lon": -77.02326783333334}, {"fusion_lat": 0.0, "type": "electric_scooter", "name": "454e49a6a11f54ddfb3db3dfae67cfee", "fusion_lon": 0.0, "bike_id": "454e49a6a11f54ddfb3db3dfae67cfee", "is_reserved": 0, "rental_uris": {"android": "https://dc.lft.to/lastmile_qr_scan", "ios": "https://dc.lft.to/lastmile_qr_scan"}, "lat": 38.8923775, "is_disabled": 0, "lon": -77.02380783333334}, {"fusion_lat": 0.0, "type": "electric_scooter", "name": "4d2bf9131d52639259b54706422ad34b", "fusion_lon": 0.0, "bike_id": "4d2bf9131d52639259b54706422ad34b", "is_reserved": 0, "rental_uris": {"android": "https://dc.lft.to/lastmile_qr_scan", "ios": "https://dc.lft.to/lastmile_qr_scan"}, "lat": 38.907585166666664, "is_disabled": 0, "lon": -77.00087783333333}, {"fusion_lat": 0.0, "type": "electric_scooter", "name": "a11d613e3d9474a78ce2beab94c4bce2", "fusion_lon": 0.0, "bike_id": "a11d613e3d9474a78ce2beab94c4bce2", "is_reserved": 0, "rental_uris": {"android": "https://dc.lft.to/lastmile_qr_scan", "ios": "https://dc.lft.to/lastmile_qr_scan"}, "lat": 38.905644833333334, "is_disabled": 0, "lon": -77.03917966666667}, {"fusion_lat": 0.0, "type": "electric_scooter", "name": "911e1ce6ede1ad7c41cd462f704e8001", "fusion_lon": 0.0, "bike_id": "911e1ce6ede1ad7c41cd462f704e8001", "is_reserved": 0, "rental_uris": {"android": "https://dc.lft.to/lastmile_qr_scan", "ios": "https://dc.lft.to/lastmile_qr_scan"}, "lat": 38.9133925, "is_disabled": 0, "lon": -77.036358}, {"fusion_lat": 0.0, "type": "electric_bike", "name": "e8a7f41f0e1e544e16a731ad96710613", "fusion_lon": 0.0, "bike_id": "e8a7f41f0e1e544e16a731ad96710613", "is_reserved": 0, "rental_uris": {"android": "https://dc.lft.to/lastmile_qr_scan", "ios": "https://dc.lft.to/lastmile_qr_scan"}, "lat": 38.84614583333333, "is_disabled": 0, "lon": -76.969172}, {"fusion_lat": 0.0, "type": "electric_scooter", "name": "1d03d3456e52550e79cadaed107ad89a", "fusion_lon": 0.0, "bike_id": "1d03d3456e52550e79cadaed107ad89a", "is_reserved": 0, "rental_uris": {"android": "https://dc.lft.to/lastmile_qr_scan", "ios": "https://dc.lft.to/lastmile_qr_scan"}, "lat": 38.959349, "is_disabled": 0, "lon": -77.031181}, {"fusion_lat": 0.0, "type": "electric_scooter", "name": "6b29c25bffe588d26af753e0c38a4d73", "fusion_lon": 0.0, "bike_id": "6b29c25bffe588d26af753e0c38a4d73", "is_reserved": 0, "rental_uris": {"android": "https://dc.lft.to/lastmile_qr_scan", "ios": "https://dc.lft.to/lastmile_qr_scan"}, "lat": 38.8736515, "is_disabled": 0, "lon": -76.97010466666667}, {"fusion_lat": 0.0, "type": "electric_scooter", "name": "93339baec0a3eaf763e4995866df3923", "fusion_lon": 0.0, "bike_id": "93339baec0a3eaf763e4995866df3923", "is_reserved": 0, "rental_uris": {"android": "https://dc.lft.to/lastmile_qr_scan", "ios": "https://dc.lft.to/lastmile_qr_scan"}, "lat": 38.90636083333333, "is_disabled": 0, "lon": -77.05113866666667}, {"fusion_lat": 0.0, "type": "electric_scooter", "name": "e14d75ad4d81f6803ab7e8a42ef31292", "fusion_lon": 0.0, "bike_id": "e14d75ad4d81f6803ab7e8a42ef31292", "is_reserved": 0, "rental_uris": {"android": "https://dc.lft.to/lastmile_qr_scan", "ios": "https://dc.lft.to/lastmile_qr_scan"}, "lat": 38.942927, "is_disabled": 0, "lon": -77.0216785}, {"fusion_lat": 0.0, "type": "electric_scooter", "name": "fb09d21b90735d964ad327131fea22b4", "fusion_lon": 0.0, "bike_id": "fb09d21b90735d964ad327131fea22b4", "is_reserved": 0, "rental_uris": {"android": "https://dc.lft.to/lastmile_qr_scan", "ios": "https://dc.lft.to/lastmile_qr_scan"}, "lat": 38.9269745, "is_disabled": 0, "lon": -77.024074}, {"fusion_lat": 0.0, "type": "electric_scooter", "name": "24a6b9f0a7e97af2cb78a0f267c5bb9c", "fusion_lon": 0.0, "bike_id": "24a6b9f0a7e97af2cb78a0f267c5bb9c", "is_reserved": 0, "rental_uris": {"android": "https://dc.lft.to/lastmile_qr_scan", "ios": "https://dc.lft.to/lastmile_qr_scan"}, "lat": 38.9218535, "is_disabled": 0, "lon": -77.02983316666666}, {"fusion_lat": 0.0, "type": "electric_scooter", "name": "ebf75783f04eca9e6c62412ec51b4f39", "fusion_lon": 0.0, "bike_id": "ebf75783f04eca9e6c62412ec51b4f39", "is_reserved": 0, "rental_uris": {"android": "https://dc.lft.to/lastmile_qr_scan", "ios": "https://dc.lft.to/lastmile_qr_scan"}, "lat": 38.915944833333334, "is_disabled": 0, "lon": -77.04479616666667}, {"fusion_lat": 0.0, "type": "electric_scooter", "name": "b502deab0da7e12cd1254c6764f6ffd6", "fusion_lon": 0.0, "bike_id": "b502deab0da7e12cd1254c6764f6ffd6", "is_reserved": 0, "rental_uris": {"android": "https://dc.lft.to/lastmile_qr_scan", "ios": "https://dc.lft.to/lastmile_qr_scan"}, "lat": 38.91142716666667, "is_disabled": 0, "lon": -77.004775}, {"fusion_lat": 0.0, "type": "electric_scooter", "name": "007f15d50f49f692dc50f196d18e46d6", "fusion_lon": 0.0, "bike_id": "007f15d50f49f692dc50f196d18e46d6", "is_reserved": 0, "rental_uris": {"android": "https://dc.lft.to/lastmile_qr_scan", "ios": "https://dc.lft.to/lastmile_qr_scan"}, "lat": 38.95200583333333, "is_disabled": 0, "lon": -77.027341}, {"fusion_lat": 0.0, "type": "electric_scooter", "name": "8a375edfc031a5517132e0fede07f89e", "fusion_lon": 0.0, "bike_id": "8a375edfc031a5517132e0fede07f89e", "is_reserved": 0, "rental_uris": {"android": "https://dc.lft.to/lastmile_qr_scan", "ios": "https://dc.lft.to/lastmile_qr_scan"}, "lat": 38.888725666666666, "is_disabled": 0, "lon": -76.99033466666667}, {"fusion_lat": 0.0, "type": "electric_scooter", "name": "99d85f1c0589a83c7b0679f78e4d1a9e", "fusion_lon": 0.0, "bike_id": "99d85f1c0589a83c7b0679f78e4d1a9e", "is_reserved": 0, "rental_uris": {"android": "https://dc.lft.to/lastmile_qr_scan", "ios": "https://dc.lft.to/lastmile_qr_scan"}, "lat": 38.90571083333333, "is_disabled": 0, "lon": -76.97630066666666}, {"fusion_lat": 0.0, "type": "electric_scooter", "name": "0d1fd7c9bf797d4f46d23fd9290f238e", "fusion_lon": 0.0, "bike_id": "0d1fd7c9bf797d4f46d23fd9290f238e", "is_reserved": 0, "rental_uris": {"android": "https://dc.lft.to/lastmile_qr_scan", "ios": "https://dc.lft.to/lastmile_qr_scan"}, "lat": 38.8850185, "is_disabled": 0, "lon": -77.01600283333333}, {"fusion_lat": 0.0, "type": "electric_scooter", "name": "b26bee743e628fee4ff1881545e7571e", "fusion_lon": 0.0, "bike_id": "b26bee743e628fee4ff1881545e7571e", "is_reserved": 0, "rental_uris": {"android": "https://dc.lft.to/lastmile_qr_scan", "ios": "https://dc.lft.to/lastmile_qr_scan"}, "lat": 38.93371333333333, "is_disabled": 0, "lon": -77.05728433333333}, {"fusion_lat": 0.0, "type": "electric_scooter", "name": "f70f3b4315e133778d9efdd643a0d1f2", "fusion_lon": 0.0, "bike_id": "f70f3b4315e133778d9efdd643a0d1f2", "is_reserved": 0, "rental_uris": {"android": "https://dc.lft.to/lastmile_qr_scan", "ios": "https://dc.lft.to/lastmile_qr_scan"}, "lat": 38.88132566666667, "is_disabled": 0, "lon": -77.026253}, {"fusion_lat": 0.0, "type": "electric_scooter", "name": "ea7c27aeb43d20053904f1350849d7d5", "fusion_lon": 0.0, "bike_id": "ea7c27aeb43d20053904f1350849d7d5", "is_reserved": 0, "rental_uris": {"android": "https://dc.lft.to/lastmile_qr_scan", "ios": "https://dc.lft.to/lastmile_qr_scan"}, "lat": 38.89008916666667, "is_disabled": 0, "lon": -76.93745533333333}, {"fusion_lat": 0.0, "type": "electric_scooter", "name": "ba63537ae1f2e9010c950e6cb4cbb24a", "fusion_lon": 0.0, "bike_id": "ba63537ae1f2e9010c950e6cb4cbb24a", "is_reserved": 0, "rental_uris": {"android": "https://dc.lft.to/lastmile_qr_scan", "ios": "https://dc.lft.to/lastmile_qr_scan"}, "lat": 38.920508, "is_disabled": 0, "lon": -77.03471066666667},