{"data": {"bikes": [{"name": "976fb84ebd925c6d7bb807f43320d29a", "fusion_lat": 0.0, "type": "electric_bike", "lat": 38.94922, "is_reserved": 0, "is_disabled": 0, "fusion_lon": 0.0, "bike_id": "976fb84ebd925c6d7bb807f43320d29a", "lon": -77.00795466666666, "rental_uris": {"ios": "https://dc.lft.to/lastmile_qr_scan", "android": "https://dc.lft.to/lastmile_qr_scan"}}, {"name": "ab38ae24e2418674bff45ca791a07d18", "fusion_lat": 0.0, "type": "electric_bike", "lat": 39.000160666666666, "is_reserved": 0, "is_disabled": 0, "fusion_lon": 0.0, "bike_id": "ab38ae24e2418674bff45ca791a07d18", "lon": -77.0174265, "rental_uris": {"ios": "https://dc.lft.to/lastmile_qr_scan", "android": "https://dc.lft.to/lastmile_qr_scan"}}, {"name": "f8d7d0f90748601928e9276e5ce4d4dd", "fusion_lat": 0.0, "type": "electric_scooter", "lat": 38.924268, "is_reserved": 0, "is_disabled": 0, "fusion_lon": 0.0, "bike_id": "f8d7d0f90748601928e9276e5ce4d4dd", "lon": -77.04479433333333, "rental_uris": {"ios": "https://dc.lft.to/lastmile_qr_scan", "android": "https://dc.lft.to/lastmile_qr_scan"}}, {"name": "2cb75740016fbfa373d8015efbef028d", "fusion_lat": 0.0, "type": "electric_scooter", "lat": 38.93066833333334, "is_reserved": 0, "is_disabled": 0, "fusion_lon": 0.0, "bike_id": "2cb75740016fbfa373d8015efbef028d", "lon": -77.029782, "rental_uris": {"ios": "https://dc.lft.to/lastmile_qr_scan", "android": "https://dc.lft.to/lastmile_qr_scan"}}, {"name": "a1a2e111668fcfb8e1784c8475fe5300", "fusion_lat": 0.0, "type": "electric_bike", "lat": 38.812560500000004, "is_reserved": 0, "is_disabled": 0, "fusion_lon": 0.0, "bike_id": "a1a2e111668fcfb8e1784c8475fe5300", "lon": -77.1177005, "rental_uris": {"ios": "https://dc.lft.to/lastmile_qr_scan", "android": "https://dc.lft.to/lastmile_qr_scan"}}, {"name": "bf0617b53516b7dd0d5d557f66813c53", "fusion_lat": 0.0, "type": "electric_scooter", "lat": 38.91839916666667, "is_reserved": 0, "is_disabled": 0, "fusion_lon": 0.0, "bike_id": "bf0617b53516b7dd0d5d557f66813c53", "lon": -77.02295183333334, "rental_uris": {"ios": "https://dc.lft.to/lastmile_qr_scan", "android": "https://dc.lft.to/lastmile_qr_scan"}}, {"name": "9f6dbd582be6d8275dcdf77f9ed65700", "fusion_lat": 0.0, "type": "electric_scooter", "lat": 38.885041666666666, "is_reserved": 0, "is_disabled": 0, "fusion_lon": 0.0, "bike_id": "9f6dbd582be6d8275dcdf77f9ed65700", "lon": -77.022048, "rental_uris": {"ios": "https://dc.lft.to/lastmile_qr_scan", "android": "https://dc.lft.to/lastmile_qr_scan"}}, {"name": "11358b3b5c45e693f75595175cfc2766", "fusion_lat": 0.0, "type": "electric_scooter", "lat": 38.90378583333333, "is_reserved": 0, "is_disabled": 0, "fusion_lon": 0.0, "bike_id": "11358b3b5c45e693f75595175cfc2766", "lon": -77.03437516666666, "rental_uris": {"ios": "https://dc.lft.to/lastmile_qr_scan", "android": "https://dc.lft.to/lastmile_qr_scan"}}, {"name": "d605b238b49ded04bd196c2bfe06c484", "fusion_lat": 0.0, "type": "electric_scooter", "lat": 38.920758666666664, "is_reserved": 0, "is_disabled": 0, "fusion_lon": 0.0, "bike_id": "d605b238b49ded04bd196c2bfe06c484", "lon": -77.02313416666667, "rental_uris": {"ios": "https://dc.lft.to/lastmile_qr_scan", "android": "https://dc.lft.to/lastmile_qr_scan"}}, {"name": "1ac4738e1c17c62a547e94b5cc0139ab", "fusion_lat": 0.0, "type": "electric_scooter", "lat": 38.93960466666667, "is_reserved": 0, "is_disabled": 0, "fusion_lon": 0.0, "bike_id": "1ac4738e1c17c62a547e94b5cc0139ab", "lon": -77.02753366666667, "rental_uris": {"ios": "https://dc.lft.to/lastmile_qr_scan", "android": "https://dc.lft.to/lastmile_qr_scan"}}, {"name": "3edcc45aa7b8ff789e922fe31346cf58", "fusion_lat": 0.0, "type": "electric_scooter", "lat": 38.89234316666667, "is_reserved": 0, "is_disabled": 0, "fusion_lon": 0.0, "bike_id": "3edcc45aa7b8ff789e922fe31346cf58", "lon": -77.01506733333333, "rental_uris": {"ios": "https://dc.lft.to/lastmile_qr_scan", "android": "https://dc.lft.to/lastmile_qr_scan"}}, {"name": "3878d73eab690e2448cedf2f03d053ea", "fusion_lat": 0.0, "type": "electric_bike", "lat": 38.85688483333333, "is_reserved": 0, "is_disabled": 0, "fusion_lon": 0.0, "bike_id": "3878d73eab690e2448cedf2f03d053ea", "lon": -77.085394, "rental_uris": {"ios": "https://dc.lft.to/lastmile_qr_scan", "android": "https://dc.lft.to/lastmile_qr_scan"}}, {"name": "e87e65c8068edb7e4b655715132855bc", "fusion_lat": 0.0, "type": "electric_scooter", "lat": 38.9163345, "is_reserved": 0, "is_disabled": 0, "fusion_lon": 0.0, "bike_id": "e87e65c8068edb7e4b655715132855bc", "lon": -77.00097316666667, "rental_uris": {"ios": "https://dc.lft.to/lastmile_qr_scan", "android": "https://dc.lft.to/lastmile_qr_scan"}}, {"name": "f7a4247efc45ffc3bf92deb397e1d9e6", "fusion_lat": 0.0, "type": "electric_scooter", "lat": 38.923177833333334, "is_reserved": 0, "is_disabled": 0, "fusion_lon": 0.0, "bike_id": "f7a4247efc45ffc3bf92deb397e1d9e6", "lon": -77.054642, "rental_uris": {"ios": "https://dc.lft.to/lastmile_qr_scan", "android": "https://dc.lft.to/lastmile_qr_scan"}}, {"name": "d48f8dfb594773dcb7ff76b657095354", "fusion_lat": 0.0, "type": "electric_scooter", "lat": 38.92681733333333, "is_reserved": 0, "is_disabled": 0, "fusion_lon": 0.0, "bike_id": "d48f8dfb594773dcb7ff76b657095354", "lon": -77.02775033333333, "rental_uris": {"ios": "https://dc.lft.to/lastmile_qr_scan", "android": "https://dc.lft.to/lastmile_qr_scan"}}, {"name": "6d7a8a916ffad6906baf31003d3d222d", "fusion_lat": 0.0, "type": "electric_scooter", "lat": 38.90587933333333, "is_reserved": 0, "is_disabled": 0, "fusion_lon": 0.0, "bike_id": "6d7a8a916ffad6906baf31003d3d222d", "lon": -77.04885433333334, "rental_uris": {"ios": "https://dc.lft.to/lastmile_qr_scan", "android": "https://dc.lft.to/lastmile_qr_scan"}}, {"name": "84cfe737bd39cf53464b405203a7a6b3", "fusion_lat": 0.0, "type": "electric_scooter", "lat": 38.930183166666666, "is_reserved": 0, "is_disabled": 0, "fusion_lon": 0.0, "bike_id": "84cfe737bd39cf53464b405203a7a6b3", "lon": -77.03790366666667, "rental_uris": {"ios": "https://dc.lft.to/lastmile_qr_scan", "android": "https://dc.lft.to/lastmile_qr_scan"}}, {"name": "0322c6459c3eae6040726fc2edc33bdc", "fusion_lat": 0.0, "type": "electric_scooter", "lat": 38.90863433333333, "is_reserved": 0, "is_disabled": 0, "fusion_lon": 0.0, "bike_id": "0322c6459c3eae6040726fc2edc33bdc", "lon": -77.04337866666667, "rental_uris": {"ios": "https://dc.lft.to/lastmile_qr_scan", "android": "https://dc.lft.to/lastmile_qr_scan"}}, {"name": "55cc2e2dc6785a421cf6fec844ef1401", "fusion_lat": 0.0, "type": "electric_scooter", "lat": 38.90567083333333, "is_reserved": 0, "is_disabled": 0, "fusion_lon": 0.0, "bike_id": "55cc2e2dc6785a421cf6fec844ef1401", "lon": -77.0209645, "rental_uris": {"ios": "https://dc.lft.to/lastmile_qr_scan", "android": "https://dc.lft.to/lastmile_qr_scan"}}, {"name": "1d3627e07b21aa5910d6126defd8c077", "fusion_lat": 0.0, "type": "electric_scooter", "lat": 38.90656516666667, "is_reserved": 0, "is_disabled": 0, "fusion_lon": 0.0, "bike_id": "1d3627e07b21aa5910d6126defd8c077", "lon": -77.03909933333334, "rental_uris": {"ios": "https://dc.lft.to/lastmile_qr_scan", "android": "https://dc.lft.to/lastmile_qr_scan"}}, {"name": "6deb83fb485039c45f36ba83b0463aeb", "fusion_lat": 0.0, "type": "electric_scooter", "lat": 38.96563, "is_reserved": 0, "is_disabled": 0, "fusion_lon": 0.0, "bike_id": "6deb83fb485039c45f36ba83b0463aeb", "lon": -77.01624933333333, "rental_uris": {"ios": "https://dc.lft.to/lastmile_qr_scan", "android": "https://dc.lft.to/lastmile_qr_scan"}}, {"name": "f8f80f805de5230b0fbf6a9d6c15f2a5", "fusion_lat": 0.0, "type": "electric_scooter", "lat": 38.931069666666666, "is_reserved": 0, "is_disabled": 0, "fusion_lon": 0.0, "bike_id": "f8f80f805de5230b0fbf6a9d6c15f2a5", "lon": -77.03728833333334, "rental_uris": {"ios": "https://dc.lft.to/lastmile_qr_scan", "android": "https://dc.lft.to/lastmile_qr_scan"}}, {"name": "407b96f289761ff38bc653ce506ef39d", "fusion_lat": 0.0, "type": "electric_scooter", "lat": 38.898534166666664, "is_reserved": 0, "is_disabled": 0, "fusion_lon": 0.0, "bike_id": "407b96f289761ff38bc653ce506ef39d", "lon": -77.02000283333334, "rental_uris": {"ios": "https://dc.lft.to/lastmile_qr_scan", "android": "https://dc.lft.to/lastmile_qr_scan"}}, {"name": "f16ee359943834565a5f6a464562efa2", "fusion_lat": 0.0, "type": "electric_bike", "lat": 38.928687, "is_reserved": 0, "is_disabled": 0, "fusion_lon": 0.0, "bike_id": "f16ee359943834565a5f6a464562efa2", "lon": -76.961054, "rental_uris": {"ios": "https://dc.lft.to/lastmile_qr_scan", "android": "https://dc.lft.to/lastmile_qr_scan"}}, {"name": "2d3b50210a2d3016c24603693e81671c", "fusion_lat": 0.0, "type": "electric_scooter", "lat": 38.905184, "is_reserved": 0, "is_disabled": 0, "fusion_lon": 0.0, "bike_id": "2d3b50210a2d3016c24603693e81671c", "lon": -77.05128366666666, "rental_uris": {"ios": "https://dc.lft.to/lastmile_qr_scan", "android": "https://dc.lft.to/lastmile_qr_scan"}}, {"name": "570975284348aa022aefd5013a5671fa", "fusion_lat": 0.0, "type": "electric_scooter", "lat": 38.907345666666664, "is_reserved": 0, "is_disabled": 0, "fusion_lon": 0.0, "bike_id": "570975284348aa022aefd5013a5671fa", "lon": -77.0107115, "rental_uris": {"ios": "https://dc.lft.to/lastmile_qr_scan", "android": "https://dc.lft.to/lastmile_qr_scan"}}, {"name": "faed6b01c3784fa9b6df229c7bdf6403", "fusion_lat": 0.0, "type": "electric_scooter", "lat": 38.942580666666665, "is_reserved": 0, "is_disabled": 0, "fusion_lon": 0.0, "bike_id": "faed6b01c3784fa9b6df229c7bdf6403", "lon": -77.0413025, "rental_uris": {"ios": "https://dc.lft.to/lastmile_qr_scan", "android": "https://dc.lft.to/lastmile_qr_scan"}}, {"name": "3d72b7fce5833c7f0e40b5167c1b086b", "fusion_lat": 0.0, "type": "electric_scooter", "lat": 38.885333, "is_reserved": 0, "is_disabled": 0, "fusion_lon": 0.0, "bike_id": "3d72b7fce5833c7f0e40b5167c1b086b", "lon": -76.98052316666667, "rental_uris": {"ios": "https://dc.lft.to/lastmile_qr_scan", "android": "https://dc.lft.to/lastmile_qr_scan"}}, {"name": "ccfdeaee9bd384b4bc4392484d00720a", "fusion_lat": 0.0, "type": "electric_scooter", "lat": 38.90145033333334, "is_reserved": 0, "is_disabled": 0, "fusion_lon": 0.0, "bike_id": "ccfdeaee9bd384b4bc4392484d00720a", "lon": -76.97426933333334, "rental_uris": {"ios": "https://dc.lft.to/lastmile_qr_scan", "android": "https://dc.lft.to/lastmile_qr_scan"}}, {"name": "66a368a4d16565af6079391fb83a4187", "fusion_lat": 0.0, "type": "electric_scooter", "lat": 38.90164516666667, "is_reserved": 0, "is_disabled": 0, "fusion_lon": 0.0, "bike_id": "66a368a4d16565af6079391fb83a4187", "lon": -77.02556883333334, "rental_uris": {"ios": "https://dc.lft.to/lastmile_qr_scan", "android": "https://dc.lft.to/lastmile_qr_scan"}}, {"name": "fc3ee4636b74673d6f8a6b88367a8036", "fusion_lat": 0.0, "type": "electric_scooter", "lat": 38.9077025, "is_reserved": 0, "is_disabled": 0, "fusion_lon": 0.0, "bike_id": "fc3ee4636b74673d6f8a6b88367a8036", "lon": -77.03856416666666, "rental_uris": {"ios": "https://dc.lft.to/lastmile_qr_scan", "android": "https://dc.lft.to/lastmile_qr_scan"}}, {"name": "eb8867e2d8da94b9733ee3be542d84fb", "fusion_lat": 0.0, "type": "electric_scooter", "lat": 38.9373965, "is_reserved": 0, "is_disabled": 0, "fusion_lon": 0.0, "bike_id": "eb8867e2d8da94b9733ee3be542d84fb", "lon": -77.032686, "rental_uris": {"ios": "https://dc.lft.to/lastmile_qr_scan", "android": "https://dc.lft.to/lastmile_qr_scan"}}, {"name": "170af25384a8408e5f1bf84ac0885cf4", "fusion_lat": 0.0, "type": "electric_scooter", "lat": 38.862490333333334, "is_reserved": 0, "is_disabled": 0, "fusion_lon": 0.0, "bike_id": "170af25384a8408e5f1bf84ac0885cf4", "lon": -76.99530716666666, "rental_uris": {"ios": "https://dc.lft.to/lastmile_qr_scan", "android": "https://dc.lft.to/lastmile_qr_scan"}}, {"name": "2e1d13c3840ea8b328ad0a9b65b218d5", "fusion_lat": 0.0, "type": "electric_scooter", "lat": 38.909814833333336, "is_reserved": 0, "is_disabled": 0, "fusion_lon": 0.0, "bike_id": "2e1d13c3840ea8b328ad0a9b65b218d5", "lon": -77.06711933333334, "rental_uris": {"ios": "https://dc.lft.to/lastmile_qr_scan", "android": "https://dc.lft.to/lastmile_qr_scan"}}, {"name": "e754475dbbe327585964b7a3396cb916", "fusion_lat": 0.0, "type": "electric_scooter", "lat": 38.909069, "is_reserved": 0, "is_disabled": 0, "fusion_lon": 0.0, "bike_id": "e754475dbbe327585964b7a3396cb916", "lon": -77.027152, "rental_uris": {"ios": "https://dc.lft.to/lastmile_qr_scan", "android": "https://dc.lft.to/lastmile_qr_scan"}}, {"name": "00354721f6c8c0edc93563c8696fc457", "fusion_lat": 0.0, "type": "electric_scooter", "lat": 38.87417416666667, "is_reserved": 0, "is_disabled": 0, "fusion_lon": 0.0, "bike_id": "00354721f6c8c0edc93563c8696fc457", "lon": -76.9608685, "rental_uris": {"ios": "https://dc.lft.to/lastmile_qr_scan", "android": "https://dc.lft.to/lastmile_qr_scan"}}, {"name": "536c697470142ea087886497db4198ac", "fusion_lat": 0.0, "type": "electric_scooter", "lat": 38.879239166666665, "is_reserved": 0, "is_disabled": 0, "fusion_lon": 0.0, "bike_id": "536c697470142ea087886497db4198ac", "lon": -76.99255733333334, "rental_uris": {"ios": "https://dc.lft.to/lastmile_qr_scan", "android": "https://dc.lft.to/lastmile_qr_scan"}}, {"name": "af204560d1304640d5ea27817def2008", "fusion_lat": 0.0, "type": "electric_scooter", "lat": 38.8966275, "is_reserved": 0, "is_disabled": 0, "fusion_lon": 0.0, "bike_id": "af204560d1304640d5ea27817def2008", "lon": -76.94852283333333, "rental_uris": {"ios": "https://dc.lft.to/lastmile_qr_scan", "android": "https://dc.lft.to/lastmile_qr_scan"}}, {"name": "c6abd9175d112ed83d433016448f0548", "fusion_lat": 0.0, "type": "electric_scooter", "lat": 38.903740166666665, "is_reserved": 0, "is_disabled": 0, "fusion_lon": 0.0, "bike_id": "c6abd9175d112ed83d433016448f0548", "lon": -77.04692833333333, "rental_uris": {"ios": "https://dc.lft.to/lastmile_qr_scan", "android": "https://dc.lft.to/lastmile_qr_scan"}}, {"name": "017ccd099b9cb960e66bf87ce2a82a51", "fusion_lat": 0.0, "type": "electric_scooter", "lat": 38.907439, "is_reserved": 0, "is_disabled": 0, "fusion_lon": 0.0, "bike_id": "017ccd099b9cb960e66bf87ce2a82a51", "lon": -77.003325, "rental_uris": {"ios": "https://dc.lft.to/lastmile_qr_scan", "android": "https://dc.lft.to/lastmile_qr_scan"}}, {"name": "cadfbfebbdb5e62ffd154981b7ccc5d7", "fusion_lat": 0.0, "type": "electric_scooter", "lat": 38.900926166666665, "is_reserved": 0, "is_disabled": 0, "fusion_lon": 0.0, "bike_id": "cadfbfebbdb5e62ffd154981b7ccc5d7", "lon": -77.00839316666666, "rental_uris": {"ios": "https://dc.lft.to/lastmile_qr_scan", "android": "https://dc.lft.to/lastmile_qr_scan"}}, {"name": "09489d92cdc6230e60f3d83b1b66b7b8", "fusion_lat": 0.0, "type": "electric_scooter", "lat": 38.94292883333333, "is_reserved": 0, "is_disabled": 0, "fusion_lon": 0.0, "bike_id": "09489d92cdc6230e60f3d83b1b66b7b8", "lon": -77.02169933333333, "rental_uris": {"ios": "https://dc.lft.to/lastmile_qr_scan", "android": "https://dc.lft.to/lastmile_qr_scan"}}, {"name": "ac5111b796df144db036b4a3c76681fa", "fusion_lat": 0.0, "type": "electric_scooter", "lat": 38.918186, "is_reserved": 0, "is_disabled": 0, "fusion_lon": 0.0, "bike_id": "ac5111b796df144db036b4a3c76681fa", "lon": -77.04005983333333, "rental_uris": {"ios": "https://dc.lft.to/lastmile_qr_scan", "android": "https://dc.lft.to/lastmile_qr_scan"}}, {"name": "edfcf2a180ac389eb48b62d17f11fea2", "fusion_lat": 0.0, "type": "electric_scooter", "lat": 38.91875233333333, "is_reserved": 0, "is_disabled": 0, "fusion_lon": 0.0, "bike_id": "edfcf2a180ac389eb48b62d17f11fea2", "lon": -77.02306733333333, "rental_uris": {"ios": "https://dc.lft.to/lastmile_qr_scan", "android": "https://dc.lft.to/lastmile_qr_scan"}}, {"name": "c521a0e703d6e22286a395680d2364cb", "fusion_lat": 0.0, "type": "electric_scooter", "lat": 38.856592, "is_reserved": 0, "is_disabled": 0, "fusion_lon": 0.0, "bike_id": "c521a0e703d6e22286a395680d2364cb", "lon": -76.99090216666667, "rental_uris": {"ios": "https://dc.lft.to/lastmile_qr_scan", "android": "https://dc.lft.to/lastmile_qr_scan"}}, {"name": "68533e893a1f5c322e6a0d1a7cce52fe", "fusion_lat": 0.0, "type": "electric_scooter", "lat": 38.89221416666667, "is_reserved": 0, "is_disabled": 0, "fusion_lon": 0.0, "bike_id": "68533e893a1f5c322e6a0d1a7cce52fe", "lon": -77.03021616666666, "rental_uris": {"ios": "https://dc.lft.to/lastmile_qr_scan", "android": "https://dc.lft.to/lastmile_qr_scan"}}, {"name": "c49b1e00d668e8c4283d2179450943f1", "fusion_lat": 0.0, "type": "electric_scooter", "lat": 38.90559833333333, "is_reserved": 0, "is_disabled": 0, "fusion_lon": 0.0, "bike_id": "c49b1e00d668e8c4283d2179450943f1", "lon": -77.001927, "rental_uris": {"ios": "https://dc.lft.to/lastmile_qr_scan", "android": "https://dc.lft.to/lastmile_qr_scan"}}, {"name": "046d4b105e788af4bb3ea5acc926f63f", "fusion_lat": 0.0, "type": "electric_scooter", "lat": 38.916854666666666, "is_reserved": 0, "is_disabled": 0, "fusion_lon": 0.0, "bike_id": "046d4b105e788af4bb3ea5acc926f63f", "lon": -77.022854, "rental_uris": {"ios": "https://dc.lft.to/lastmile_qr_scan", "android": "https://dc.lft.to/lastmile_qr_scan"}}, {"name": "9c988f7f64ea869da6bfe5c3f678045b", "fusion_lat": 0.0, "type": "electric_scooter", "lat": 38.9066335, "is_reserved": 0, "is_disabled": 0, "fusion_lon": 0.0, "bike_id": "9c988f7f64ea869da6bfe5c3f678045b", "lon": -77.03818483333333, "rental_uris": {"ios": "https://dc.lft.to/lastmile_qr_scan", "android": "https://dc.lft.to/lastmile_qr_scan"}}, {"name": "667b3b0dfe17ca39964612b61e876590", "fusion_lat": 0.0, "type": "electric_scooter", "lat": 38.90965833333333, "is_reserved": 0, "is_disabled": 0, "fusion_lon": 0.0, "bike_id": "667b3b0dfe17ca39964612b61e876590", "lon": -77.04472983333334, "rental_uris": {"ios": "https://dc.lft.to/lastmile_qr_scan", "android": "https://dc.lft.to/lastmile_qr_scan"}}, {"name": "f3bc0dd565b21c7894dbb2cfed8066d8", "fusion_lat": 0.0, "type": "electric_scooter", "lat": 38.958352166666664, "is_reserved": 0, "is_disabled": 0, "fusion_lon": 0.0, "bike_id": "f3bc0dd565b21c7894dbb2cfed8066d8", "lon": -77.02683, "rental_uris": {"ios": "https://dc.lft.to/lastmile_qr_scan", "android": "https://dc.lft.to/lastmile_qr_scan"}}, {"name": "4e50998a07e555f690cd9e3e6f6d9ef3", "fusion_lat": 0.0, "type": "electric_scooter", "lat": 38.924201333333336, "is_reserved": 0, "is_disabled": 0, "fusion_lon": 0.0, "bike_id": "4e50998a07e555f690cd9e3e6f6d9ef3", "lon": -77.01945516666666, "rental_uris": {"ios": "https://dc.lft.to/lastmile_qr_scan", "android": "https://dc.lft.to/lastmile_qr_scan"}}, {"name": "3caed717ae26d29455126a85dbcdfbe3", "fusion_lat": 0.0, "type": "electric_scooter", "lat": 38.929720333333336, "is_reserved": 0, "is_disabled": 0, "fusion_lon": 0.0, "bike_id": "3caed717ae26d29455126a85dbcdfbe3", "lon": -77.036562, "rental_uris": {"ios": "https://dc.lft.to/lastmile_qr_scan", "android": "https://dc.lft.to/lastmile_qr_scan"}}, {"name": "e1fa21a069dcbceb7379a4b477451448", "fusion_lat": 0.0, "type": "electric_scooter", "lat": 38.89682883333333, "is_reserved": 0, "is_disabled": 0, "fusion_lon": 0.0, "bike_id": "e1fa21a069dcbceb7379a4b477451448", "lon": -77.0489715, "rental_uris": {"ios": "https://dc.lft.to/lastmile_qr_scan", "android": "https://dc.lft.to/lastmile_qr_scan"}}, {"name": "086301874dd5596796187b158f4a0eb6", "fusion_lat": 0.0, "type": "electric_scooter", "lat": 38.90281216666666, "is_reserved": 0, "is_disabled": 0, "fusion_lon": 0.0, "bike_id": "086301874dd5596796187b158f4a0eb6", "lon": -77.03215216666666, "rental_uris": {"ios": "https://dc.lft.to/lastmile_qr_scan", "android": "https://dc.lft.to/lastmile_qr_scan"}}, {"name": "9eaabf963cf4051b7cc3e9ca222be737", "fusion_lat": 0.0, "type": "electric_scooter", "lat": 38.89886533333333, "is_reserved": 0, "is_disabled": 0, "fusion_lon": 0.0, "bike_id": "9eaabf963cf4051b7cc3e9ca222be737", "lon": -77.02187183333334, "rental_uris": {"ios": "https://dc.lft.to/lastmile_qr_scan", "android": "https://dc.lft.to/lastmile_qr_scan"}}, {"name": "f161f78408ebcd57fbb4845019eb2688", "fusion_lat": 0.0, "type": "electric_scooter", "lat": 38.904797, "is_reserved": 0, "is_disabled": 0, "fusion_lon": 0.0, "bike_id": "f161f78408ebcd57fbb4845019eb2688", "lon": -77.04160083333333, "rental_uris": {"ios": "https://dc.lft.to/lastmile_qr_scan", "android": "https://dc.lft.to/lastmile_qr_scan"}}, {"name": "515ed390a813e34fa78dec052fa30a08", "fusion_lat": 0.0, "type": "electric_bike", "lat": 38.954833666666666, "is_reserved": 0, "is_disabled": 0, "fusion_lon": 0.0, "bike_id": "515ed390a813e34fa78dec052fa30a08", "lon": -77.08240333333333, "rental_uris": {"ios": "https://dc.lft.to/lastmile_qr_scan", "android": "https://dc.lft.to/lastmile_qr_scan"}}, {"name": "c6d0c20e847b353bc3663d61d161fb0d", "fusion_lat": 0.0, "type": "electric_scooter", "lat": 38.90495, "is_reserved": 0, "is_disabled": 0, "fusion_lon": 0.0, "bike_id": "c6d0c20e847b353bc3663d61d161fb0d", "lon": -77.0414625, "rental_uris": {"ios": "https://dc.lft.to/lastmile_qr_scan", "android": "https://dc.lft.to/lastmile_qr_scan"}}, {"name": "2c8e5e81603113a45508c814c03be8a6", "fusion_lat": 0.0, "type": "electric_scooter", "lat": 38.89226, "is_reserved": 0, "is_disabled": 0, "fusion_lon": 0.0, "bike_id": "2c8e5e81603113a45508c814c03be8a6", "lon": -77.045025, "rental_uris": {"ios": "https://dc.lft.to/lastmile_qr_scan", "android": "https://dc.lft.to/lastmile_qr_scan"}}, {"name": "0a8739934f5a59541a936a273399ef99", "fusion_lat": 0.0, "type": "electric_scooter", "lat": 38.91941966666667, "is_reserved": 0, "is_disabled": 0, "fusion_lon": 0.0, "bike_id": "0a8739934f5a59541a936a273399ef99", "lon": -77.0237635, "rental_uris": {"ios": "https://dc.lft.to/lastmile_qr_scan", "android": "https://dc.lft.to/lastmile_qr_scan"}}, {"name": "83e0d671217e10339f1a8c87dcfec112", "fusion_lat": 0.0, "type": "electric_scooter", "lat": 38.91695833333333, "is_reserved": 0, "is_disabled": 0, "fusion_lon": 0.0, "bike_id": "83e0d671217e10339f1a8c87dcfec112", "lon": -77.02889033333334, "rental_uris": {"ios": "https://dc.lft.to/lastmile_qr_scan", "android": "https://dc.lft.to/lastmile_qr_scan"}}, {"name": "e803ea9fcd92df66cb0b936dc33cbe5d", "fusion_lat": 0.0, "type": "electric_scooter", "lat": 38.90267766666667, "is_reserved": 0, "is_disabled": 0, "fusion_lon": 0.0, "bike_id": "e803ea9fcd92df66cb0b936dc33cbe5d", "lon": -77.038596, "rental_uris": {"ios": "https://dc.lft.to/lastmile_qr_scan", "android": "https://dc.lft.to/lastmile_qr_scan"}}, {"name": "ae62181a0c87327741ed1df8f1cb1e75", "fusion_lat": 0.0, "type": "electric_bike", "lat": 39.05345833333333, "is_reserved": 0, "is_disabled": 0, "fusion_lon": 0.0, "bike_id": "ae62181a0c87327741ed1df8f1cb1e75", "lon": -77.13595966666666, "rental_uris": {"ios": "https://dc.lft.to/lastmile_qr_scan", "android": "https://dc.lft.to/lastmile_qr_scan"}}, {"name": "d0c20c07ef0800e03744834a0b224f05", "fusion_lat": 0.0, "type": "electric_bike", "lat": 38.886152, "is_reserved": 0, "is_disabled": 0, "fusion_lon": 0.0, "bike_id": "d0c20c07ef0800e03744834a0b224f05", "lon": -77.1075495, "rental_uris": {"ios": "https://dc.lft.to/lastmile_qr_scan", "android": "https://dc.lft.to/lastmile_qr_scan"}}, {"name": "380446302a46c4f0f4c9ac155c8b3d64", "fusion_lat": 0.0, "type": "electric_scooter", "lat": 38.902721, "is_reserved": 0, "is_disabled": 0, "fusion_lon": 0.0, "bike_id": "380446302a46c4f0f4c9ac155c8b3d64", "lon": -77.03848083333334, "rental_uris": {"ios": "https://dc.lft.to/lastmile_qr_scan", "android": "https://dc.lft.to/lastmile_qr_scan"}}, {"name": "71cd36d85369910382d3a9c6a3b81398", "fusion_lat": 0.0, "type": "electric_scooter", "lat": 38.93392216666667, "is_reserved": 0, "is_disabled": 0, "fusion_lon": 0.0, "bike_id": "71cd36d85369910382d3a9c6a3b81398", "lon": -77.07381983333333, "rental_uris": {"ios": "https://dc.lft.to/lastmile_qr_scan", "android": "https://dc.lft.to/lastmile_qr_scan"}}, {"name": "491bb31f3c77d573b49ae769982c2120", "fusion_lat": 0.0, "type": "electric_scooter", "lat": 38.91113466666667, "is_reserved": 0, "is_disabled": 0, "fusion_lon": 0.0, "bike_id": "491bb31f3c77d573b49ae769982c2120", "lon": -77.032616, "rental_uris": {"ios": "https://dc.lft.to/lastmile_qr_scan", "android": "https://dc.lft.to/lastmile_qr_scan"}}, {"name": "c04fdb5fd94f9c5b38adb46440d624ed", "fusion_lat": 0.0, "type": "electric_scooter", "lat": 38.894905, "is_reserved": 0, "is_disabled": 0, "fusion_lon": 0.0, "bike_id": "c04fdb5fd94f9c5b38adb46440d624ed", "lon": -77.01016083333333, "rental_uris": {"ios": "https://dc.lft.to/lastmile_qr_scan", "android": "https://dc.lft.to/lastmile_qr_scan"}}, {"name": "da09f8c8e4c58daebc2114c58754103d", "fusion_lat": 0.0, "type": "electric_scooter", "lat": 38.862648166666666, "is_reserved": 0, "is_disabled": 0, "fusion_lon": 0.0, "bike_id": "da09f8c8e4c58daebc2114c58754103d", "lon": -76.98718233333334, "rental_uris": {"ios": "https://dc.lft.to/lastmile_qr_scan", "android": "https://dc.lft.to/lastmile_qr_scan"}}, {"name": "f02fafb750ee04877b87fd65cf9d8eba", "fusion_lat": 0.0, "type": "electric_scooter", "lat": 38.904414833333334, "is_reserved": 0, "is_disabled": 0, "fusion_lon": 0.0, "bike_id": "f02fafb750ee04877b87fd65cf9d8eba", "lon": -77.03125666666666, "rental_uris": {"ios": "https://dc.lft.to/lastmile_qr_scan", "android": "https://dc.lft.to/lastmile_qr_scan"}}, {"name": "1ccea485eba45aeb7bbe39b1baa87758", "fusion_lat": 0.0, "type": "electric_scooter", "lat": 38.8840125, "is_reserved": 0, "is_disabled": 0, "fusion_lon": 0.0, "bike_id": "1ccea485eba45aeb7bbe39b1baa87758", "lon": -76.93042283333334, "rental_uris": {"ios": "https://dc.lft.to/lastmile_qr_scan", "android": "https://dc.lft.to/lastmile_qr_scan"}}, {"name": "c80aebd94aa2c3818a47e033dc95d1dc", "fusion_lat": 0.0, "type": "electric_scooter", "lat": 38.924764333333336, "is_reserved": 0, "is_disabled": 0, "fusion_lon": 0.0, "bike_id": "c80aebd94aa2c3818a47e033dc95d1dc", "lon": -77.03127516666666, "rental_uris": {"ios": "https://dc.lft.to/lastmile_qr_scan", "android": "https://dc.lft.to/lastmile_qr_scan"}}, {"name": "63b8a28ad81167ada680dfbf7b63a12e", "fusion_lat": 0.0, "type": "electric_scooter", "lat": 38.93115916666667, "is_reserved": 0, "is_disabled": 0, "fusion_lon": 0.0, "bike_id": "63b8a28ad81167ada680dfbf7b63a12e", "lon": -77.0239665, "rental_uris": {"ios": "https://dc.lft.to/lastmile_qr_scan", "android": "https://dc.lft.to/lastmile_qr_scan"}}, {"name": "f9a565fbfe0d43f6341a6199a8b360b5", "fusion_lat": 0.0, "type": "electric_scooter", "lat": 38.91859483333333, "is_reserved": 0, "is_disabled": 0, "fusion_lon": 0.0, "bike_id": "f9a565fbfe0d43f6341a6199a8b360b5", "lon": -77.01502616666667, "rental_uris": {"ios": "https://dc.lft.to/lastmile_qr_scan", "android": "https://dc.lft.to/lastmile_qr_scan"}}, {"name": "3da34fbb6b6ee7c50908afa3a1a1a1ab", "fusion_lat": 0.0, "type": "electric_scooter", "lat": 38.8984475, "is_reserved": 0, "is_disabled": 0, "fusion_lon": 0.0, "bike_id": "3da34fbb6b6ee7c50908afa3a1a1a1ab", "lon": -77.0073085, "rental_uris": {"ios": "https://dc.lft.to/lastmile_qr_scan", "android": "https://dc.lft.to/lastmile_qr_scan"}}, {"name": "4e2fe4f222918519c84af2e90bc1856a", "fusion_lat": 0.0, "type": "electric_scooter", "lat": 38.90082483333333, "is_reserved": 0, "is_disabled": 0, "fusion_lon": 0.0, "bike_id": "4e2fe4f222918519c84af2e90bc1856a", "lon": -77.04996283333334, "rental_uris": {"ios": "https://dc.lft.to/lastmile_qr_scan", "android": "https://dc.lft.to/lastmile_qr_scan"}}, {"name": "ef06707b7a75ee21900afb316df57094", "fusion_lat": 0.0, "type": "electric_scooter", "lat": 38.90593483333333, "is_reserved": 0, "is_disabled": 0, "fusion_lon": 0.0, "bike_id": "ef06707b7a75ee21900afb316df57094", "lon": -77.00624733333333, "rental_uris": {"ios": "https://dc.lft.to/lastmile_qr_scan", "android": "https://dc.lft.to/lastmile_qr_scan"}}, {"name": "2deebdc68d1f3a8008b5da8890f09d47", "fusion_lat": 0.0, "type": "electric_scooter", "lat": 38.9072695, "is_reserved": 0, "is_disabled": 0, "fusion_lon": 0.0, "bike_id": "2deebdc68d1f3a8008b5da8890f09d47", "lon": -77.04328083333333, "rental_uris": {"ios": "https://dc.lft.to/lastmile_qr_scan", "android": "https://dc.lft.to/lastmile_qr_scan"}}, {"name": "ec515812da9fdf15c22e027b77580469", "fusion_lat": 0.0, "type": "electric_scooter", "lat": 38.92680166666667, "is_reserved": 0, "is_disabled": 0, "fusion_lon": 0.0, "bike_id": "ec515812da9fdf15c22e027b77580469", "lon": -77.01517533333333, "rental_uris": {"ios": "https://dc.lft.to/lastmile_qr_scan", "android": "https://dc.lft.to/lastmile_qr_scan"}}, {"name": "7d07c0053f67dc1ca4812ebbbd0ddd3c", "fusion_lat": 0.0, "type": "electric_scooter", "lat": 38.907658, "is_reserved": 0, "is_disabled": 0, "fusion_lon": 0.0, "bike_id": "7d07c0053f67dc1ca4812ebbbd0ddd3c", "lon": -77.03862133333334, "rental_uris": {"ios": "https://dc.lft.to/lastmile_qr_scan", "android": "https://dc.lft.to/lastmile_qr_scan"}}, {"name": "0a34015ff790a311ddfb9683c341f4ec", "fusion_lat": 0.0, "type": "electric_scooter", "lat": 38.93574383333333, "is_reserved": 0, "is_disabled": 0, "fusion_lon": 0.0, "bike_id": "0a34015ff790a311ddfb9683c341f4ec", "lon": -77.021202, "rental_uris": {"ios": "https://dc.lft.to/lastmile_qr_scan", "android": "https://dc.lft.to/lastmile_qr_scan"}}, {"name": "eebdd928de93207188f60d08bfbb6888", "fusion_lat": 0.0, "type": "electric_scooter", "lat": 38.897487, "is_reserved": 0, "is_disabled": 0, "fusion_lon": 0.0, "bike_id": "eebdd928de93207188f60d08bfbb6888", "lon": -76.9960815, "rental_uris": {"ios": "https://dc.lft.to/lastmile_qr_scan", "android": "https://dc.lft.to/lastmile_qr_scan"}}, {"name": "1511e5cacb3c12e11c322debc260a68c", "fusion_lat": 0.0, "type": "electric_bike", "lat": 38.89780733333333, "is_reserved": 0, "is_disabled": 0, "fusion_lon": 0.0, "bike_id": "1511e5cacb3c12e11c322debc260a68c", "lon": -76.90442033333333, "rental_uris": {"ios": "https://dc.lft.to/lastmile_qr_scan", "android": "https://dc.lft.to/lastmile_qr_scan"}}, {"name": "69704a63479869122a20b2badc8b714e", "fusion_lat": 0.0, "type": "electric_scooter", "lat": 38.939023, "is_reserved": 0, "is_disabled": 0, "fusion_lon": 0.0, "bike_id": "69704a63479869122a20b2badc8b714e", "lon": -77.03281683333333, "rental_uris": {"ios": "https://dc.lft.to/lastmile_qr_scan", "android": "https://dc.lft.to/lastmile_qr_scan"}}, {"name": "e814a32da30ea5156b20e6820d403ff0", "fusion_lat": 0.0, "type": "electric_scooter", "lat": 38.89528683333333, "is_reserved": 0, "is_disabled": 0, "fusion_lon": 0.0, "bike_id": "e814a32da30ea5156b20e6820d403ff0", "lon": -77.02428533333334, "rental_uris": {"ios": "https://dc.lft.to/lastmile_qr_scan", "android": "https://dc.lft.to/lastmile_qr_scan"}}, {"name": "41f9fe9acfa12c7ff2c9def58f0a0900", "fusion_lat": 0.0, "type": "electric_scooter", "lat": 38.8953395, "is_reserved": 0, "is_disabled": 0, "fusion_lon": 0.0, "bike_id": "41f9fe9acfa12c7ff2c9def58f0a0900", "lon": -77.042842, "rental_uris": {"ios": "https://dc.lft.to/lastmile_qr_scan", "android": "https://dc.lft.to/lastmile_qr_scan"}}, {"name": "2990625d11f2ca9bbd2883b3c21b9f28", "fusion_lat": 0.0, "type": "electric_scooter", "lat": 38.886548, "is_reserved": 0, "is_disabled": 0, "fusion_lon": 0.0, "bike_id": "2990625d11f2ca9bbd2883b3c21b9f28", "lon": -77.013744, "rental_uris": {"ios": "https://dc.lft.to/lastmile_qr_scan", "android": "https://dc.lft.to/lastmile_qr_scan"}}, {"name": "08102cffefa1e0678810cf28d75d7532", "fusion_lat": 0.0, "type": "electric_scooter", "lat": 38.912527, "is_reserved": 0, "is_disabled": 0, "fusion_lon": 0.0, "bike_id": "08102cffefa1e0678810cf28d75d7532", "lon": -77.03840183333334, "rental_uris": {"ios": "https://dc.lft.to/lastmile_qr_scan", "android": "https://dc.lft.to/lastmile_qr_scan"}}, {"name": "290ce9de64b066979922e8eae130418a", "fusion_lat": 0.0, "type": "electric_scooter", "lat": 38.9299425, "is_reserved": 0, "is_disabled": 0, "fusion_lon": 0.0, "bike_id": "290ce9de64b066979922e8eae130418a", "lon": -77.02484766666667, "rental_uris": {"ios": "https://dc.lft.to/lastmile_qr_scan", "android": "https://dc.lft.to/lastmile_qr_scan"}}, {"name": "b03628ed6b3e15cd93ce73306f04178f", "fusion_lat": 0.0, "type": "electric_bike", "lat": 38.906875166666666, "is_reserved": 0, "is_disabled": 0, "fusion_lon": 0.0, "bike_id": "b03628ed6b3e15cd93ce73306f04178f", "lon": -76.9518625, "rental_uris": {"ios": "https://dc.lft.to/lastmile_qr_scan", "android": "https://dc.lft.to/lastmile_qr_scan"}}, {"name": "8d87206f259c2d68bef72d092818bea9", "fusion_lat": 0.0, "type": "electric_scooter", "lat": 38.90617866666667, "is_reserved": 0, "is_disabled": 0, "fusion_lon": 0.0, "bike_id": "8d87206f259c2d68bef72d092818bea9", "lon": -77.02407333333333, "rental_uris": {"ios": "https://dc.lft.to/lastmile_qr_scan", "android": "https://dc.lft.to/lastmile_qr_scan"}}, {"name": "be1dddfb948b47ca246dfc899f8a2751", "fusion_lat": 0.0, "type": "electric_scooter", "lat": 38.90377, "is_reserved": 0, "is_disabled": 0, "fusion_lon": 0.0, "bike_id": "be1dddfb948b47ca246dfc899f8a2751", "lon": -77.0109435, "rental_uris": {"ios": "https://dc.lft.to/lastmile_qr_scan", "android": "https://dc.lft.to/lastmile_qr_scan"}}, {"name": "2ca591942761357e17a26cb8b5fc26ec", "fusion_lat": 0.0, "type": "electric_scooter", "lat": 38.91694966666667, "is_reserved": 0, "is_disabled": 0, "fusion_lon": 0.0, "bike_id": "2ca591942761357e17a26cb8b5fc26ec", "lon": -77.03142383333333, "rental_uris": {"ios": "https://dc.lft.to/lastmile_qr_scan", "android": "https://dc.lft.to/lastmile_qr_scan"}}, {"name": "5a4cb01a04f51aa8dcad3f806d7b4889", "fusion_lat": 0.0, "type": "electric_scooter", "lat": 38.89851983333333, "is_reserved": 0, "is_disabled": 0, "fusion_lon": 0.0, "bike_id": "5a4cb01a04f51aa8dcad3f806d7b4889", "lon": -76.99030266666666, "rental_uris": {"ios": "https://dc.lft.to/lastmile_qr_scan", "android": "https://dc.lft.to/lastmile_qr_scan"}}, {"name": "89f039cda720c47ca6e6c99ce4b6d4a0", "fusion_lat": 0.0, "type": "electric_scooter", "lat": 38.92036083333333, "is_reserved": 0, "is_disabled": 0, "fusion_lon": 0.0, "bike_id": "89f039cda720c47ca6e6c99ce4b6d4a0", "lon": -76.9780215, "rental_uris": {"ios": "https://dc.lft.to/lastmile_qr_scan", "android": "https://dc.lft.to/lastmile_qr_scan"}}, {"name": "8c60034b1c09193f1be74ef5b55a6de5", "fusion_lat": 0.0, "type": "electric_scooter", "lat": 38.898335833333334, "is_reserved": 0, "is_disabled": 0, "fusion_lon": 0.0, "bike_id": "8c60034b1c09193f1be74ef5b55a6de5", "lon": -76.9457075, "rental_uris": {"ios": "https://dc.lft.to/lastmile_qr_scan", "android": "https://dc.lft.to/lastmile_qr_scan"}}, {"name": "459159f7d4a450a8fc0f853ff732ad76", "fusion_lat": 0.0, "type": "electric_bike", "lat": 38.93565366666667, "is_reserved": 0, "is_disabled": 0, "fusion_lon": 0.0, "bike_id": "459159f7d4a450a8fc0f853ff732ad76", "lon": -77.10441316666666, "rental_uris": {"ios": "https://dc.lft.to/lastmile_qr_scan", "android": "https://dc.lft.to/lastmile_qr_scan"}}, {"name": "b9b79e3d56bbca9e04c8bbad79864134", "fusion_lat": 0.0, "type": "electric_bike", "lat": 38.8022735, "is_reserved": 0, "is_disabled": 0, "fusion_lon": 0.0, "bike_id": "b9b79e3d56bbca9e04c8bbad79864134", "lon": -77.07913383333333, "rental_uris": {"ios": "https://dc.lft.to/lastmile_qr_scan", "android": "https://dc.lft.to/lastmile_qr_scan"}}, {"name": "3cb6ea46c9533370813fd9c77ddff2e3", "fusion_lat": 0.0, "type": "electric_scooter", "lat": 38.931904833333334, "is_reserved": 0, "is_disabled": 0, "fusion_lon": 0.0, "bike_id": "3cb6ea46c9533370813fd9c77ddff2e3", "lon": -77.02779383333333, "rental_uris": {"ios": "https://dc.lft.to/lastmile_qr_scan", "android": "https://dc.lft.to/lastmile_qr_scan"}}, {"name": "d09a04d9712e1e5b998f4b83462b72d6", "fusion_lat": 0.0, "type": "electric_scooter", "lat": 38.8984905, "is_reserved": 0, "is_disabled": 0, "fusion_lon": 0.0, "bike_id": "d09a04d9712e1e5b998f4b83462b72d6", "lon": -77.03311516666666, "rental_uris": {"ios": "https://dc.lft.to/lastmile_qr_scan", "android": "https://dc.lft.to/lastmile_qr_scan"}}, {"name": "1c656f7aa677043a571a23b1f610400f", "fusion_lat": 0.0, "type": "electric_bike", "lat": 38.892948833333335, "is_reserved": 0, "is_disabled": 0, "fusion_lon": 0.0, "bike_id": "1c656f7aa677043a571a23b1f610400f", "lon": -77.01367766666667, "rental_uris": {"ios": "https://dc.lft.to/lastmile_qr_scan", "android": "https://dc.lft.to/lastmile_qr_scan"}}, {"name": "5e823877f239c76d59590fc82223a507", "fusion_lat": 0.0, "type": "electric_scooter", "lat": 38.91189383333333, "is_reserved": 0, "is_disabled": 0, "fusion_lon": 0.0, "bike_id": "5e823877f239c76d59590fc82223a507", "lon": -77.0072735, "rental_uris": {"ios": "https://dc.lft.to/lastmile_qr_scan", "android": "https://dc.lft.to/lastmile_qr_scan"}}, {"name": "fa3f7d089fb40226369c26f5dd565d20", "fusion_lat": 0.0, "type": "electric_scooter", "lat": 38.931106666666665, "is_reserved": 0, "is_disabled": 0, "fusion_lon": 0.0, "bike_id": "fa3f7d089fb40226369c26f5dd565d20", "lon": -77.038403, "rental_uris": {"ios": "https://dc.lft.to/lastmile_qr_scan", "android": "https://dc.lft.to/lastmile_qr_scan"}}, {"name": "44adf956da09b0fadc43ad95451bd95a", "fusion_lat": 0.0, "type": "electric_scooter", "lat": 38.939399, "is_reserved": 0, "is_disabled": 0, "fusion_lon": 0.0, "bike_id": "44adf956da09b0fadc43ad95451bd95a", "lon": -77.03620683333334, "rental_uris": {"ios": "https://dc.lft.to/lastmile_qr_scan", "android": "https://dc.lft.to/lastmile_qr_scan"}}, {"name": "f233e1ecaf11397f589ed290cf5a0b0e", "fusion_lat": 0.0, "type": "electric_scooter", "lat": 38.902897833333334, "is_reserved": 0, "is_disabled": 0, "fusion_lon": 0.0, "bike_id": "f233e1ecaf11397f589ed290cf5a0b0e", "lon": -77.06275083333334, "rental_uris": {"ios": "https://dc.lft.to/lastmile_qr_scan", "android": "https://dc.lft.to/lastmile_qr_scan"}}, {"name": "7c2c009a96e8c698a502abfac3375f18", "fusion_lat": 0.0, "type": "electric_scooter", "lat": 38.9039665, "is_reserved": 0, "is_disabled": 0, "fusion_lon": 0.0, "bike_id": "7c2c009a96e8c698a502abfac3375f18", "lon": -76.98098683333333, "rental_uris": {"ios": "https://dc.lft.to/lastmile_qr_scan", "android": "https://dc.lft.to/lastmile_qr_scan"}}, {"name": "922e7c94cbd347fefa19e9f4cafb6b3c", "fusion_lat": 0.0, "type": "electric_scooter", "lat": 38.907364666666666, "is_reserved": 0, "is_disabled": 0, "fusion_lon": 0.0, "bike_id": "922e7c94cbd347fefa19e9f4cafb6b3c", "lon": -77.04674483333334, "rental_uris": {"ios": "https://dc.lft.to/lastmile_qr_scan", "android": "https://dc.lft.to/lastmile_qr_scan"}}, {"name": "d92de07ba579a280c0bda4511febdf46", "fusion_lat": 0.0, "type": "electric_scooter", "lat": 38.90513766666667, "is_reserved": 0, "is_disabled": 0, "fusion_lon": 0.0, "bike_id": "d92de07ba579a280c0bda4511febdf46", "lon": -77.06936966666666, "rental_uris": {"ios": "https://dc.lft.to/lastmile_qr_scan", "android": "https://dc.lft.to/lastmile_qr_scan"}}, {"name": "e4d1c57d13381e6d22c8b520a747692f", "fusion_lat": 0.0, "type": "electric_scooter", "lat": 38.91109433333333, "is_reserved": 0, "is_disabled": 0, "fusion_lon": 0.0, "bike_id": "e4d1c57d13381e6d22c8b520a747692f", "lon": -77.0105795, "rental_uris": {"ios": "https://dc.lft.to/lastmile_qr_scan", "android": "https://dc.lft.to/lastmile_qr_scan"}}, {"name": "fe813143848b857db4a959759ceaeb24", "fusion_lat": 0.0, "type": "electric_scooter", "lat": 38.917850333333334, "is_reserved": 0, "is_disabled": 0, "fusion_lon": 0.0, "bike_id": "fe813143848b857db4a959759ceaeb24", "lon": -77.02340466666666, "rental_uris": {"ios": "https://dc.lft.to/lastmile_qr_scan", "android": "https://dc.lft.to/lastmile_qr_scan"}}, {"name": "1e9badb99b316ed651227d72b50c6536", "fusion_lat": 0.0, "type": "electric_scooter", "lat": 38.91056716666667, "is_reserved": 0, "is_disabled": 0, "fusion_lon": 0.0, "bike_id": "1e9badb99b316ed651227d72b50c6536", "lon": -77.04270166666667, "rental_uris": {"ios": "https://dc.lft.to/lastmile_qr_scan", "android": "https://dc.lft.to/lastmile_qr_scan"}}, {"name": "37c3642d5b0cc77d4e37a0b819bca94d", "fusion_lat": 0.0, "type": "electric_scooter", "lat": 38.90576466666667, "is_reserved": 0, "is_disabled": 0, "fusion_lon": 0.0, "bike_id": "37c3642d5b0cc77d4e37a0b819bca94d", "lon": -77.02213266666666, "rental_uris": {"ios": "https://dc.lft.to/lastmile_qr_scan", "android": "https://dc.lft.to/lastmile_qr_scan"}}, {"name": "e7ce40b8e54f81c5c74ef47ecda6234f", "fusion_lat": 0.0, "type": "electric_scooter", "lat": 38.903725666666666, "is_reserved": 0, "is_disabled": 0, "fusion_lon": 0.0, "bike_id": "e7ce40b8e54f81c5c74ef47ecda6234f", "lon": -77.04637616666666, "rental_uris": {"ios": "https://dc.lft.to/lastmile_qr_scan", "android": "https://dc.lft.to/lastmile_qr_scan"}}, {"name": "640144c84d82fe4fd40808387d904a16", "fusion_lat": 0.0, "type": "electric_scooter", "lat": 38.94084266666667, "is_reserved": 0, "is_disabled": 0, "fusion_lon": 0.0, "bike_id": "640144c84d82fe4fd40808387d904a16", "lon": -77.017801, "rental_uris": {"ios": "https://dc.lft.to/lastmile_qr_scan", "android": "https://dc.lft.to/lastmile_qr_scan"}}, {"name": "f5847a453d0228c8baeb4ee0f1c04633", "fusion_lat": 0.0, "type": "electric_scooter", "lat": 38.902286333333336, "is_reserved": 0, "is_disabled": 0, "fusion_lon": 0.0, "bike_id": "f5847a453d0228c8baeb4ee0f1c04633", "lon": -77.0512265, "rental_uris": {"ios": "https://dc.lft.to/lastmile_qr_scan", "android": "https://dc.lft.to/lastmile_qr_scan"}}, {"name": "c27defb586248143ce0177c320e16aaf", "fusion_lat": 0.0, "type": "electric_scooter", "lat": 38.893590333333336, "is_reserved": 0, "is_disabled": 0, "fusion_lon": 0.0, "bike_id": "c27defb586248143ce0177c320e16aaf", "lon": -76.949819, "rental_uris": {"ios": "https://dc.lft.to/lastmile_qr_scan", "android": "https://dc.lft.to/lastmile_qr_scan"}}, {"name": "8412bde2844a84172eaf3c5d52deb1ff", "fusion_lat": 0.0, "type": "electric_scooter", "lat": 38.84262583333334, "is_reserved": 0, "is_disabled": 0, "fusion_lon": 0.0, "bike_id": "8412bde2844a84172eaf3c5d52deb1ff", "lon": -77.00225816666666, "rental_uris": {"ios": "https://dc.lft.to/lastmile_qr_scan", "android": "https://dc.lft.to/lastmile_qr_scan"}}, {"name": "4303d24d40f93840e2b36c208b3396a2", "fusion_lat": 0.0, "type": "electric_bike", "lat": 38.90701283333333, "is_reserved": 0, "is_disabled": 0, "fusion_lon": 0.0, "bike_id": "4303d24d40f93840e2b36c208b3396a2", "lon": -77.00017933333334, "rental_uris": {"ios": "https://dc.lft.to/lastmile_qr_scan", "android": "https://dc.lft.to/lastmile_qr_scan"}}, {"name": "1e55b016a6f5a09e91af37772d6df403", "fusion_lat": 0.0, "type": "electric_bike", "lat": 38.86908283333333, "is_reserved": 0, "is_disabled": 0, "fusion_lon": 0.0, "bike_id": "1e55b016a6f5a09e91af37772d6df403", "lon": -77.13182, "rental_uris": {"ios": "https://dc.lft.to/lastmile_qr_scan", "android": "https://dc.lft.to/lastmile_qr_scan"}}, {"name": "1a388f0feaf7f21463cd97880084fdbc", "fusion_lat": 0.0, "type": "electric_bike", "lat": 38.83443916666667, "is_reserved": 0, "is_disabled": 0, "fusion_lon": 0.0, "bike_id": "1a388f0feaf7f21463cd97880084fdbc", "lon": -77.008351, "rental_uris": {"ios": "https://dc.lft.to/lastmile_qr_scan", "android": "https://dc.lft.to/lastmile_qr_scan"}}, {"name": "76038a30f5f64b6eefa03e78650fe66a", "fusion_lat": 0.0, "type": "electric_scooter", "lat": 38.900457, "is_reserved": 0, "is_disabled": 0, "fusion_lon": 0.0, "bike_id": "76038a30f5f64b6eefa03e78650fe66a", "lon": -76.98835216666667, "rental_uris": {"ios": "https://dc.lft.to/lastmile_qr_scan", "android": "https://dc.lft.to/lastmile_qr_scan"}}, {"name": "923690544f015207fd784c105b4b323e", "fusion_lat": 0.0, "type": "electric_scooter", "lat": 38.906989333333335, "is_reserved": 0, "is_disabled": 0, "fusion_lon": 0.0, "bike_id": "923690544f015207fd784c105b4b323e", "lon": -77.02393433333333, "rental_uris": {"ios": "https://dc.lft.to/lastmile_qr_scan", "android": "https://dc.lft.to/lastmile_qr_scan"}}, {"name": "660969d7fcf81037dfec8717e52646da", "fusion_lat": 0.0, "type": "electric_scooter", "lat": 38.931535833333335, "is_reserved": 0, "is_disabled": 0, "fusion_lon": 0.0, "bike_id": "660969d7fcf81037dfec8717e52646da", "lon": -77.029599, "rental_uris": {"ios": "https://dc.lft.to/lastmile_qr_scan", "android": "https://dc.lft.to/lastmile_qr_scan"}}, {"name": "ca6b545920adc4bd7497b03746af4b77", "fusion_lat": 0.0, "type": "electric_scooter", "lat": 38.910268333333335, "is_reserved": 0, "is_disabled": 0, "fusion_lon": 0.0, "bike_id": "ca6b545920adc4bd7497b03746af4b77", "lon": -77.00757433333334, "rental_uris": {"ios": "https://dc.lft.to/lastmile_qr_scan", "android": "https://dc.lft.to/lastmile_qr_scan"}}, {"name": "ddd9fafb0cd013ef73e7d0612270d08d", "fusion_lat": 0.0, "type": "electric_scooter", "lat": 38.909712, "is_reserved": 0, "is_disabled": 0, "fusion_lon": 0.0, "bike_id": "ddd9fafb0cd013ef73e7d0612270d08d", "lon": -77.0217805, "rental_uris": {"ios": "https://dc.lft.to/lastmile_qr_scan", "android": "https://dc.lft.to/lastmile_qr_scan"}}, {"name": "ea8639c8d396afc12b956d9be607d5d0", "fusion_lat": 0.0, "type": "electric_scooter", "lat": 38.90358966666667, "is_reserved": 0, "is_disabled": 0, "fusion_lon": 0.0, "bike_id": "ea8639c8d396afc12b956d9be607d5d0", "lon": -77.04308483333334, "rental_uris": {"ios": "https://dc.lft.to/lastmile_qr_scan", "android": "https://dc.lft.to/lastmile_qr_scan"}}, {"name": "f47eb3ca19cbf6a14b08a99f6a7aacc9", "fusion_lat": 0.0, "type": "electric_scooter", "lat": 38.93662033333333, "is_reserved": 0, "is_disabled": 0, "fusion_lon": 0.0, "bike_id": "f47eb3ca19cbf6a14b08a99f6a7aacc9", "lon": -77.0326585, "rental_uris": {"ios": "https://dc.lft.to/lastmile_qr_scan", "android": "https://dc.lft.to/lastmile_qr_scan"}}, {"name": "5ec77b939a397fc9c854aacc0af178f9", "fusion_lat": 0.0, "type": "electric_scooter", "lat": 38.9140495, "is_reserved": 0, "is_disabled": 0, "fusion_lon": 0.0, "bike_id": "5ec77b939a397fc9c854aacc0af178f9", "lon": -77.03995716666667, "rental_uris": {"ios": "https://dc.lft.to/lastmile_qr_scan", "android": "https://dc.lft.to/lastmile_qr_scan"}}, {"name": "44d29ac3993e32d8023f289601be1142", "fusion_lat": 0.0, "type": "electric_scooter", "lat": 38.878143666666666, "is_reserved": 0, "is_disabled": 0, "fusion_lon": 0.0, "bike_id": "44d29ac3993e32d8023f289601be1142", "lon": -77.0034485, "rental_uris": {"ios": "https://dc.lft.to/lastmile_qr_scan", "android": "https://dc.lft.to/lastmile_qr_scan"}}, {"name": "083bbfda9ebfc15d1242687008f4ed2b", "fusion_lat": 0.0, "type": "electric_scooter", "lat": 38.9088225, "is_reserved": 0, "is_disabled": 0, "fusion_lon": 0.0, "bike_id": "083bbfda9ebfc15d1242687008f4ed2b", "lon": -77.07588083333333, "rental_uris": {"ios": "https://dc.lft.to/lastmile_qr_scan", "android": "https://dc.lft.to/lastmile_qr_scan"}}, {"name": "9ad0e5f74799464493b43052bf96b902", "fusion_lat": 0.0, "type": "electric_scooter", "lat": 38.892439333333336, "is_reserved": 0, "is_disabled": 0, "fusion_lon": 0.0, "bike_id": "9ad0e5f74799464493b43052bf96b902", "lon": -77.01355466666666, "rental_uris": {"ios": "https://dc.lft.to/lastmile_qr_scan", "android": "https://dc.lft.to/lastmile_qr_scan"}}, {"name": "55d5d8f955e99a66a2d0bd8868385180", "fusion_lat": 0.0, "type": "electric_scooter", "lat": 38.90637533333334, "is_reserved": 0, "is_disabled": 0, "fusion_lon": 0.0, "bike_id": "55d5d8f955e99a66a2d0bd8868385180", "lon": -77.0058935, "rental_uris": {"ios": "https://dc.lft.to/lastmile_qr_scan", "android": "https://dc.lft.to/lastmile_qr_scan"}}, {"name": "8bba6bd0f6c277f5fcee8e8ad2513320", "fusion_lat": 0.0, "type": "electric_scooter", "lat": 38.91143133333333, "is_reserved": 0, "is_disabled": 0, "fusion_lon": 0.0, "bike_id": "8bba6bd0f6c277f5fcee8e8ad2513320", "lon": -77.01897166666667, "rental_uris": {"ios": "https://dc.lft.to/lastmile_qr_scan", "android": "https://dc.lft.to/lastmile_qr_scan"}}, {"name": "0554cd70f92a4f4a7ab332d0fe5cbe22", "fusion_lat": 0.0, "type": "electric_scooter", "lat": 38.917103, "is_reserved": 0, "is_disabled": 0, "fusion_lon": 0.0, "bike_id": "0554cd70f92a4f4a7ab332d0fe5cbe22", "lon": -77.0289235, "rental_uris": {"ios": "https://dc.lft.to/lastmile_qr_scan", "android": "https://dc.lft.to/lastmile_qr_scan"}}, {"name": "dffc9bf2304acae5f2ebfd02780e6900", "fusion_lat": 0.0, "type": "electric_scooter", "lat": 38.92914533333333, "is_reserved": 0, "is_disabled": 0, "fusion_lon": 0.0, "bike_id": "dffc9bf2304acae5f2ebfd02780e6900", "lon": -77.01957616666667, "rental_uris": {"ios": "https://dc.lft.to/lastmile_qr_scan", "android": "https://dc.lft.to/lastmile_qr_scan"}}, {"name": "94820354cecdeeed66ea11652de5193f", "fusion_lat": 0.0, "type": "electric_scooter", "lat": 38.917160833333334, "is_reserved": 0, "is_disabled": 0, "fusion_lon": 0.0, "bike_id": "94820354cecdeeed66ea11652de5193f", "lon": -77.03553, "rental_uris": {"ios": "https://dc.lft.to/lastmile_qr_scan", "android": "https://dc.lft.to/lastmile_qr_scan"}}, {"name": "c79992ba5675058335d957cedd15d6ac", "fusion_lat": 0.0, "type": "electric_scooter", "lat": 38.917753, "is_reserved": 0, "is_disabled": 0, "fusion_lon": 0.0, "bike_id": "c79992ba5675058335d957cedd15d6ac", "lon": -77.0474705, "rental_uris": {"ios": "https://dc.lft.to/lastmile_qr_scan", "android": "https://dc.lft.to/lastmile_qr_scan"}}, {"name": "1ea615d5ff4f19190a9c3577e5f2f5e6", "fusion_lat": 0.0, "type": "electric_bike", "lat": 38.88684816666667, "is_reserved": 0, "is_disabled": 0, "fusion_lon": 0.0, "bike_id": "1ea615d5ff4f19190a9c3577e5f2f5e6", "lon": -77.096933, "rental_uris": {"ios": "https://dc.lft.to/lastmile_qr_scan", "android": "https://dc.lft.to/lastmile_qr_scan"}}, {"name": "4baa4a8d6f274d31d452864c5e5c126a", "fusion_lat": 0.0, "type": "electric_scooter", "lat": 38.921526166666666, "is_reserved": 0, "is_disabled": 0, "fusion_lon": 0.0, "bike_id": "4baa4a8d6f274d31d452864c5e5c126a", "lon": -77.033834, "rental_uris": {"ios": "https://dc.lft.to/lastmile_qr_scan", "android": "https://dc.lft.to/lastmile_qr_scan"}}, {"name": "553bc5813e33a2515a3d354b861bbb20", "fusion_lat": 0.0, "type": "electric_scooter", "lat": 38.87700066666667, "is_reserved": 0, "is_disabled": 0, "fusion_lon": 0.0, "bike_id": "553bc5813e33a2515a3d354b861bbb20", "lon": -77.01767266666667, "rental_uris": {"ios": "https://dc.lft.to/lastmile_qr_scan", "android": "https://dc.lft.to/lastmile_qr_scan"}}, {"name": "69edf5b943bda2f25fd01d31ae4a0541", "fusion_lat": 0.0, "type": "electric_scooter", "lat": 38.92151583333333, "is_reserved": 0, "is_disabled": 0, "fusion_lon": 0.0, "bike_id": "69edf5b943bda2f25fd01d31ae4a0541", "lon": -77.03867866666667, "rental_uris": {"ios": "https://dc.lft.to/lastmile_qr_scan", "android": "https://dc.lft.to/lastmile_qr_scan"}}, {"name": "a066b28c8d06f01eed599aee81cd7891", "fusion_lat": 0.0, "type": "electric_scooter", "lat": 38.903428, "is_reserved": 0, "is_disabled": 0, "fusion_lon": 0.0, "bike_id": "a066b28c8d06f01eed599aee81cd7891", "lon": -77.00571983333333, "rental_uris": {"ios": "https://dc.lft.to/lastmile_qr_scan", "android": "https://dc.lft.to/lastmile_qr_scan"}}, {"name": "ea9fb66beec1907a5a45665ca21735ee", "fusion_lat": 0.0, "type": "electric_scooter", "lat": 38.93715566666667, "is_reserved": 0, "is_disabled": 0, "fusion_lon": 0.0, "bike_id": "ea9fb66beec1907a5a45665ca21735ee", "lon": -77.02462233333334, "rental_uris": {"ios": "https://dc.lft.to/lastmile_qr_scan", "android": "https://dc.lft.to/lastmile_qr_scan"}}, {"name": "896b23c71cc463373b9e6b08fb3270ed", "fusion_lat": 0.0, "type": "electric_scooter", "lat": 38.9207265, "is_reserved": 0, "is_disabled": 0, "fusion_lon": 0.0, "bike_id": "896b23c71cc463373b9e6b08fb3270ed", "lon": -77.02312233333333, "rental_uris": {"ios": "https://dc.lft.to/lastmile_qr_scan", "android": "https://dc.lft.to/lastmile_qr_scan"}}, {"name": "db6963ab7104da96bf677cf37198b1ec", "fusion_lat": 0.0, "type": "electric_scooter", "lat": 38.9013935, "is_reserved": 0, "is_disabled": 0, "fusion_lon": 0.0, "bike_id": "db6963ab7104da96bf677cf37198b1ec", "lon": -77.042344, "rental_uris": {"ios": "https://dc.lft.to/lastmile_qr_scan", "android": "https://dc.lft.to/lastmile_qr_scan"}}, {"name": "f7342b7de5bc37a18ec6cb1d11374f5e", "fusion_lat": 0.0, "type": "electric_scooter", "lat": 38.92155366666667, "is_reserved": 0, "is_disabled": 0, "fusion_lon": 0.0, "bike_id": "f7342b7de5bc37a18ec6cb1d11374f5e", "lon": -77.03378366666666, "rental_uris": {"ios": "https://dc.lft.to/lastmile_qr_scan", "android": "https://dc.lft.to/lastmile_qr_scan"}}, {"name": "588c873e1a7d07932b06dd372e548d82", "fusion_lat": 0.0, "type": "electric_scooter", "lat": 38.89728266666667, "is_reserved": 0, "is_disabled": 0, "fusion_lon": 0.0, "bike_id": "588c873e1a7d07932b06dd372e548d82", "lon": -77.02052666666667, "rental_uris": {"ios": "https://dc.lft.to/lastmile_qr_scan", "android": "https://dc.lft.to/lastmile_qr_scan"}}, {"name": "346d5b16998af2525d333f3387763972", "fusion_lat": 0.0, "type": "electric_scooter", "lat": 38.9001045, "is_reserved": 0, "is_disabled": 0, "fusion_lon": 0.0, "bike_id": "346d5b16998af2525d333f3387763972", "lon": -77.040219, "rental_uris": {"ios": "https://dc.lft.to/lastmile_qr_scan", "android": "https://dc.lft.to/lastmile_qr_scan"}}, {"name": "4d611ef0bd20248626b546638c2bbc0d", "fusion_lat": 0.0, "type": "electric_scooter", "lat": 38.903307833333336, "is_reserved": 0, "is_disabled": 0, "fusion_lon": 0.0, "bike_id": "4d611ef0bd20248626b546638c2bbc0d", "lon": -77.03351516666666, "rental_uris": {"ios": "https://dc.lft.to/lastmile_qr_scan", "android": "https://dc.lft.to/lastmile_qr_scan"}}, {"name": "34670595aa5e936906c31d5bb9ecea06", "fusion_lat": 0.0, "type": "electric_scooter", "lat": 38.9085055, "is_reserved": 0, "is_disabled": 0, "fusion_lon": 0.0, "bike_id": "34670595aa5e936906c31d5bb9ecea06", "lon": -77.01097366666667, "rental_uris": {"ios": "https://dc.lft.to/lastmile_qr_scan", "android": "https://dc.lft.to/lastmile_qr_scan"}}, {"name": "da8c11b0f0b13405dd36d1a823cc9b57", "fusion_lat": 0.0, "type": "electric_scooter", "lat": 38.93703383333333, "is_reserved": 0, "is_disabled": 0, "fusion_lon": 0.0, "bike_id": "da8c11b0f0b13405dd36d1a823cc9b57", "lon": -77.023999, "rental_uris": {"ios": "https://dc.lft.to/lastmile_qr_scan", "android": "https://dc.lft.to/lastmile_qr_scan"}}, {"name": "01a566a36081610f7ff7a4a25328a0b0", "fusion_lat": 0.0, "type": "electric_scooter", "lat": 38.895496666666666, "is_reserved": 0, "is_disabled": 0, "fusion_lon": 0.0, "bike_id": "01a566a36081610f7ff7a4a25328a0b0", "lon": -77.01110866666667, "rental_uris": {"ios": "https://dc.lft.to/lastmile_qr_scan", "android": "https://dc.lft.to/lastmile_qr_scan"}}, {"name": "89a1b1e677e7a88120b996039f4605e8", "fusion_lat": 0.0, "type": "electric_scooter", "lat": 38.903110833333336, "is_reserved": 0, "is_disabled": 0, "fusion_lon": 0.0, "bike_id": "89a1b1e677e7a88120b996039f4605e8", "lon": -77.04173533333334, "rental_uris": {"ios": "https://dc.lft.to/lastmile_qr_scan", "android": "https://dc.lft.to/lastmile_qr_scan"}}, {"name": "5d3777eb012842b533f9841bef167a8b", "fusion_lat": 0.0, "type": "electric_scooter", "lat": 38.93206566666667, "is_reserved": 0, "is_disabled": 0, "fusion_lon": 0.0, "bike_id": "5d3777eb012842b533f9841bef167a8b", "lon": -77.02736616666667, "rental_uris": {"ios": "https://dc.lft.to/lastmile_qr_scan", "android": "https://dc.lft.to/lastmile_qr_scan"}}, {"name": "94e7398a4f97efd2033882709d1eaacc", "fusion_lat": 0.0, "type": "electric_scooter", "lat": 38.899861666666666, "is_reserved": 0, "is_disabled": 0, "fusion_lon": 0.0, "bike_id": "94e7398a4f97efd2033882709d1eaacc", "lon": -77.031372, "rental_uris": {"ios": "https://dc.lft.to/lastmile_qr_scan", "android": "https://dc.lft.to/lastmile_qr_scan"}}, {"name": "71d28546c3148e6b99fc9b7602838931", "fusion_lat": 0.0, "type": "electric_scooter", "lat": 38.89909633333333, "is_reserved": 0, "is_disabled": 0, "fusion_lon": 0.0, "bike_id": "71d28546c3148e6b99fc9b7602838931", "lon": -77.03948466666667, "rental_uris": {"ios": "https://dc.lft.to/lastmile_qr_scan", "android": "https://dc.lft.to/lastmile_qr_scan"}}, {"name": "390465a63a4d02af13a007f82757b8fb", "fusion_lat": 0.0, "type": "electric_scooter", "lat": 38.896116166666665, "is_reserved": 0, "is_disabled": 0, "fusion_lon": 0.0, "bike_id": "390465a63a4d02af13a007f82757b8fb", "lon": -77.04681, "rental_uris": {"ios": "https://dc.lft.to/lastmile_qr_scan", "android": "https://dc.lft.to/lastmile_qr_scan"}}, {"name": "c8f695b26f8984def92208f7faf31197", "fusion_lat": 0.0, "type": "electric_scooter", "lat": 38.9148755, "is_reserved": 0, "is_disabled": 0, "fusion_lon": 0.0, "bike_id": "c8f695b26f8984def92208f7faf31197", "lon": -77.03244933333333, "rental_uris": {"ios": "https://dc.lft.to/lastmile_qr_scan", "android": "https://dc.lft.to/lastmile_qr_scan"}}, {"name": "a77c4bdddc0a3ccc278e65a9f8608a3b", "fusion_lat": 0.0, "type": "electric_scooter", "lat": 38.91935933333333, "is_reserved": 0, "is_disabled": 0, "fusion_lon": 0.0, "bike_id": "a77c4bdddc0a3ccc278e65a9f8608a3b", "lon": -77.03100833333333, "rental_uris": {"ios": "https://dc.lft.to/lastmile_qr_scan", "android": "https://dc.lft.to/lastmile_qr_scan"}}, {"name": "9ed9634bad8766b5f76631bdc8f79770", "fusion_lat": 0.0, "type": "electric_scooter", "lat": 38.91336416666667, "is_reserved": 0, "is_disabled": 0, "fusion_lon": 0.0, "bike_id": "9ed9634bad8766b5f76631bdc8f79770", "lon": -77.03119166666667, "rental_uris": {"ios": "https://dc.lft.to/lastmile_qr_scan", "android": "https://dc.lft.to/lastmile_qr_scan"}}, {"name": "0655f555d2df1baebf8d3ac3b93ea563", "fusion_lat": 0.0, "type": "electric_scooter", "lat": 38.912490166666664, "is_reserved": 0, "is_disabled": 0, "fusion_lon": 0.0, "bike_id": "0655f555d2df1baebf8d3ac3b93ea563", "lon": -77.04869583333333, "rental_uris": {"ios": "https://dc.lft.to/lastmile_qr_scan", "android": "https://dc.lft.to/lastmile_qr_scan"}}, {"name": "9db3bf8a3dbdcb70f7a114d09c3c3bd4", "fusion_lat": 0.0, "type": "electric_scooter", "lat": 38.930667166666666, "is_reserved": 0, "is_disabled": 0, "fusion_lon": 0.0, "bike_id": "9db3bf8a3dbdcb70f7a114d09c3c3bd4", "lon": -77.03957033333333, "rental_uris": {"ios": "https://dc.lft.to/lastmile_qr_scan", "android": "https://dc.lft.to/lastmile_qr_scan"}}, {"name": "346705f125956382240eadbe83e6a452", "fusion_lat": 0.0, "type": "electric_scooter", "lat": 38.874958666666664, "is_reserved": 0, "is_disabled": 0, "fusion_lon": 0.0, "bike_id": "346705f125956382240eadbe83e6a452", "lon": -77.001715, "rental_uris": {"ios": "https://dc.lft.to/lastmile_qr_scan", "android": "https://dc.lft.to/lastmile_qr_scan"}}, {"name": "844ed191f7c94469a693d97ee39ff443", "fusion_lat": 0.0, "type": "electric_scooter", "lat": 38.918777166666665, "is_reserved": 0, "is_disabled": 0, "fusion_lon": 0.0, "bike_id": "844ed191f7c94469a693d97ee39ff443", "lon": -77.04341833333334, "rental_uris": {"ios": "https://dc.lft.to/lastmile_qr_scan", "android": "https://dc.lft.to/lastmile_qr_scan"}}, {"name": "997701272bfe14efb0bca4303383d0ef", "fusion_lat": 0.0, "type": "electric_bike", "lat": 38.96841333333333, "is_reserved": 0, "is_disabled": 0, "fusion_lon": 0.0, "bike_id": "997701272bfe14efb0bca4303383d0ef", "lon": -77.03327716666666, "rental_uris": {"ios": "https://dc.lft.to/lastmile_qr_scan", "android": "https://dc.lft.to/lastmile_qr_scan"}}, {"name": "e071f6a03c590c8afefb60d2d6c880bd", "fusion_lat": 0.0, "type": "electric_scooter", "lat": 38.9319675, "is_reserved": 0, "is_disabled": 0, "fusion_lon": 0.0, "bike_id": "e071f6a03c590c8afefb60d2d6c880bd", "lon": -77.03444816666666, "rental_uris": {"ios": "https://dc.lft.to/lastmile_qr_scan", "android": "https://dc.lft.to/lastmile_qr_scan"}}, {"name": "3d72a3adae9c94021a8c27d87fa13be7", "fusion_lat": 0.0, "type": "electric_scooter", "lat": 38.90215533333333, "is_reserved": 0, "is_disabled": 0, "fusion_lon": 0.0, "bike_id": "3d72a3adae9c94021a8c27d87fa13be7", "lon": -77.02327833333334, "rental_uris": {"ios": "https://dc.lft.to/lastmile_qr_scan", "android": "https://dc.lft.to/lastmile_qr_scan"}}, {"name": "8ff71f2487350c9e13afc2751e20b805", "fusion_lat": 0.0, "type": "electric_scooter", "lat": 38.892304, "is_reserved": 0, "is_disabled": 0, "fusion_lon": 0.0, "bike_id": "8ff71f2487350c9e13afc2751e20b805", "lon": -77.03372883333333, "rental_uris": {"ios": "https://dc.lft.to/lastmile_qr_scan", "android": "https://dc.lft.to/lastmile_qr_scan"}}, {"name": "a7718dd42a2c62f8bbe8da361792b8c8", "fusion_lat": 0.0, "type": "electric_scooter", "lat": 38.940674, "is_reserved": 0, "is_disabled": 0, "fusion_lon": 0.0, "bike_id": "a7718dd42a2c62f8bbe8da361792b8c8", "lon": -77.02962066666667, "rental_uris": {"ios": "https://dc.lft.to/lastmile_qr_scan", "android": "https://dc.lft.to/lastmile_qr_scan"}}, {"name": "d9f7e20a25f89e65056ff3d58627df5c", "fusion_lat": 0.0, "type": "electric_scooter", "lat": 38.919363833333335, "is_reserved": 0, "is_disabled": 0, "fusion_lon": 0.0, "bike_id": "d9f7e20a25f89e65056ff3d58627df5c", "lon": -77.02361333333333, "rental_uris": {"ios": "https://dc.lft.to/lastmile_qr_scan", "android": "https://dc.lft.to/lastmile_qr_scan"}}, {"name": "d7124b80d3e47d166915480feb1f9289", "fusion_lat": 0.0, "type": "electric_scooter", "lat": 38.907411833333335, "is_reserved": 0, "is_disabled": 0, "fusion_lon": 0.0, "bike_id": "d7124b80d3e47d166915480feb1f9289", "lon": -77.02691866666666, "rental_uris": {"ios": "https://dc.lft.to/lastmile_qr_scan", "android": "https://dc.lft.to/lastmile_qr_scan"}}, {"name": "87c780effcaf86591d6b949fa48aaf62", "fusion_lat": 0.0, "type": "electric_scooter", "lat": 38.90598216666667, "is_reserved": 0, "is_disabled": 0, "fusion_lon": 0.0, "bike_id": "87c780effcaf86591d6b949fa48aaf62", "lon": -77.0467415, "rental_uris": {"ios": "https://dc.lft.to/lastmile_qr_scan", "android": "https://dc.lft.to/lastmile_qr_scan"}}, {"name": "0d7b6f384107c6d6118e1ed2c5d68df0", "fusion_lat": 0.0, "type": "electric_scooter", "lat": 38.91539916666667, "is_reserved": 0, "is_disabled": 0, "fusion_lon": 0.0, "bike_id": "0d7b6f384107c6d6118e1ed2c5d68df0", "lon": -77.03208916666667, "rental_uris": {"ios": "https://dc.lft.to/lastmile_qr_scan", "android": "https://dc.lft.to/lastmile_qr_scan"}}, {"name": "e0151cca669e8b9dea65ce4714450756", "fusion_lat": 0.0, "type": "electric_scooter", "lat": 38.8954065, "is_reserved": 0, "is_disabled": 0, "fusion_lon": 0.0, "bike_id": "e0151cca669e8b9dea65ce4714450756", "lon": -77.0405155, "rental_uris": {"ios": "https://dc.lft.to/lastmile_qr_scan", "android": "https://dc.lft.to/lastmile_qr_scan"}}, {"name": "e1ddbec687d151f6e2890d1c77d44d83", "fusion_lat": 0.0, "type": "electric_scooter", "lat": 38.91808566666667, "is_reserved": 0, "is_disabled": 0, "fusion_lon": 0.0, "bike_id": "e1ddbec687d151f6e2890d1c77d44d83", "lon": -77.046257, "rental_uris": {"ios": "https://dc.lft.to/lastmile_qr_scan", "android": "https://dc.lft.to/lastmile_qr_scan"}}, {"name": "d4c2f93d0c0db5a20c25d2b82cee161a", "fusion_lat": 0.0, "type": "electric_scooter", "lat": 38.9229975, "is_reserved": 0, "is_disabled": 0, "fusion_lon": 0.0, "bike_id": "d4c2f93d0c0db5a20c25d2b82cee161a", "lon": -77.043016, "rental_uris": {"ios": "https://dc.lft.to/lastmile_qr_scan", "android": "https://dc.lft.to/lastmile_qr_scan"}}, {"name": "2bc88bfc5768c5d18a225df2c93ef960", "fusion_lat": 0.0, "type": "electric_scooter", "lat": 38.921845, "is_reserved": 0, "is_disabled": 0, "fusion_lon": 0.0, "bike_id": "2bc88bfc5768c5d18a225df2c93ef960", "lon": -77.04286766666667, "rental_uris": {"ios": "https://dc.lft.to/lastmile_qr_scan", "android": "https://dc.lft.to/lastmile_qr_scan"}}, {"name": "f0b269a31516b92c68ccd8c215dec4f5", "fusion_lat": 0.0, "type": "electric_scooter", "lat": 38.905599, "is_reserved": 0, "is_disabled": 0, "fusion_lon": 0.0, "bike_id": "f0b269a31516b92c68ccd8c215dec4f5", "lon": -77.0455835, "rental_uris": {"ios": "https://dc.lft.to/lastmile_qr_scan", "android": "https://dc.lft.to/lastmile_qr_scan"}}, {"name": "4ff22ef1dbbe2ea6749c38fc3392ada3", "fusion_lat": 0.0, "type": "electric_scooter", "lat": 38.927228, "is_reserved": 0, "is_disabled": 0, "fusion_lon": 0.0, "bike_id": "4ff22ef1dbbe2ea6749c38fc3392ada3", "lon": -77.02278683333333, "rental_uris": {"ios": "https://dc.lft.to/lastmile_qr_scan", "android": "https://dc.lft.to/lastmile_qr_scan"}}, {"name": "8af6b24f702facee51c759545cdfb814", "fusion_lat": 0.0, "type": "electric_scooter", "lat": 38.91285416666667, "is_reserved": 0, "is_disabled": 0, "fusion_lon": 0.0, "bike_id": "8af6b24f702facee51c759545cdfb814", "lon": -77.044954, "rental_uris": {"ios": "https://dc.lft.to/lastmile_qr_scan", "android": "https://dc.lft.to/lastmile_qr_scan"}}, {"name": "f85504c6ebe29d98f454c6f8f416993c", "fusion_lat": 0.0, "type": "electric_scooter", "lat": 38.892299333333334, "is_reserved": 0, "is_disabled": 0, "fusion_lon": 0.0, "bike_id": "f85504c6ebe29d98f454c6f8f416993c", "lon": -77.03377766666667, "rental_uris": {"ios": "https://dc.lft.to/lastmile_qr_scan", "android": "https://dc.lft.to/lastmile_qr_scan"}}, {"name": "76c4800c4c0c44e07fd82f76d93b6a25", "fusion_lat": 0.0, "type": "electric_scooter", "lat": 38.87628816666667, "is_reserved": 0, "is_disabled": 0, "fusion_lon": 0.0, "bike_id": "76c4800c4c0c44e07fd82f76d93b6a25", "lon": -76.965283, "rental_uris": {"ios": "https://dc.lft.to/lastmile_qr_scan", "android": "https://dc.lft.to/lastmile_qr_scan"}}, {"name": "dc4fda3e47bd71052be63920dfe1e95d", "fusion_lat": 0.0, "type": "electric_scooter", "lat": 38.90628383333333, "is_reserved": 0, "is_disabled": 0, "fusion_lon": 0.0, "bike_id": "dc4fda3e47bd71052be63920dfe1e95d", "lon": -77.00593166666667, "rental_uris": {"ios": "https://dc.lft.to/lastmile_qr_scan", "android": "https://dc.lft.to/lastmile_qr_scan"}}, {"name": "bd89ffb64ca9a766b781a3324f7c59a1", "fusion_lat": 0.0, "type": "electric_scooter", "lat": 38.9229125, "is_reserved": 0, "is_disabled": 0, "fusion_lon": 0.0, "bike_id": "bd89ffb64ca9a766b781a3324f7c59a1", "lon": -77.029625, "rental_uris": {"ios": "https://dc.lft.to/lastmile_qr_scan", "android": "https://dc.lft.to/lastmile_qr_scan"}}, {"name": "b012727ce4b30dce81bb77cf7f435c70", "fusion_lat": 0.0, "type": "electric_scooter", "lat": 38.874987, "is_reserved": 0, "is_disabled": 0, "fusion_lon": 0.0, "bike_id": "b012727ce4b30dce81bb77cf7f435c70", "lon": -76.99793, "rental_uris": {"ios": "https://dc.lft.to/lastmile_qr_scan", "android": "https://dc.lft.to/lastmile_qr_scan"}}, {"name": "1fbafb702922ca68909fb7b9003feb65", "fusion_lat": 0.0, "type": "electric_scooter", "lat": 38.88498366666666, "is_reserved": 0, "is_disabled": 0, "fusion_lon": 0.0, "bike_id": "1fbafb702922ca68909fb7b9003feb65", "lon": -77.0219255, "rental_uris": {"ios": "https://dc.lft.to/lastmile_qr_scan", "android": "https://dc.lft.to/lastmile_qr_scan"}}, {"name": "0579449cfac963bca3777173360f676c", "fusion_lat": 0.0, "type": "electric_scooter", "lat": 38.905691, "is_reserved": 0, "is_disabled": 0, "fusion_lon": 0.0, "bike_id": "0579449cfac963bca3777173360f676c", "lon": -77.05700983333334, "rental_uris": {"ios": "https://dc.lft.to/lastmile_qr_scan", "android": "https://dc.lft.to/lastmile_qr_scan"}}, {"name": "100ae39bff99cbc413bffe5f63e3c46b", "fusion_lat": 0.0, "type": "electric_scooter", "lat": 38.869168333333334, "is_reserved": 0, "is_disabled": 0, "fusion_lon": 0.0, "bike_id": "100ae39bff99cbc413bffe5f63e3c46b", "lon": -76.97501333333334, "rental_uris": {"ios": "https://dc.lft.to/lastmile_qr_scan", "android": "https://dc.lft.to/lastmile_qr_scan"}}, {"name": "f50ec532552ae9f90f2ebc3da2082fc0", "fusion_lat": 0.0, "type": "electric_scooter", "lat": 38.8878295, "is_reserved": 0, "is_disabled": 0, "fusion_lon": 0.0, "bike_id": "f50ec532552ae9f90f2ebc3da2082fc0", "lon": -76.95533633333334, "rental_uris": {"ios": "https://dc.lft.to/lastmile_qr_scan", "android": "https://dc.lft.to/lastmile_qr_scan"}}, {"name": "f87a8ebd115204894181ef14ad6db62e", "fusion_lat": 0.0, "type": "electric_scooter", "lat": 38.8995825, "is_reserved": 0, "is_disabled": 0, "fusion_lon": 0.0, "bike_id": "f87a8ebd115204894181ef14ad6db62e", "lon": -76.99495133333333, "rental_uris": {"ios": "https://dc.lft.to/lastmile_qr_scan", "android": "https://dc.lft.to/lastmile_qr_scan"}}, {"name": "5778a3e974800681524668857ce05f93", "fusion_lat": 0.0, "type": "electric_scooter", "lat": 38.934575, "is_reserved": 0, "is_disabled": 0, "fusion_lon": 0.0, "bike_id": "5778a3e974800681524668857ce05f93", "lon": -77.08636016666667, "rental_uris": {"ios": "https://dc.lft.to/lastmile_qr_scan", "android": "https://dc.lft.to/lastmile_qr_scan"}}, {"name": "d2a23ba573f48ab726ecf817dfa9a4f6", "fusion_lat": 0.0, "type": "electric_scooter", "lat": 38.89835716666666, "is_reserved": 0, "is_disabled": 0, "fusion_lon": 0.0, "bike_id": "d2a23ba573f48ab726ecf817dfa9a4f6", "lon": -77.04239383333334, "rental_uris": {"ios": "https://dc.lft.to/lastmile_qr_scan", "android": "https://dc.lft.to/lastmile_qr_scan"}}, {"name": "84505b9810486bc8acf5d28f0f45c5b0", "fusion_lat": 0.0, "type": "electric_scooter", "lat": 38.934229, "is_reserved": 0, "is_disabled": 0, "fusion_lon": 0.0, "bike_id": "84505b9810486bc8acf5d28f0f45c5b0", "lon": -77.05763433333334, "rental_uris": {"ios": "https://dc.lft.to/lastmile_qr_scan", "android": "https://dc.lft.to/lastmile_qr_scan"}}, {"name": "48727a8d930dbf7aa7a42a906b219f7a", "fusion_lat": 0.0, "type": "electric_scooter", "lat": 38.9012825, "is_reserved": 0, "is_disabled": 0, "fusion_lon": 0.0, "bike_id": "48727a8d930dbf7aa7a42a906b219f7a", "lon": -77.04996116666666, "rental_uris": {"ios": "https://dc.lft.to/lastmile_qr_scan", "android": "https://dc.lft.to/lastmile_qr_scan"}}, {"name": "3bd1686e3d4b91881c4972c57e885b22", "fusion_lat": 0.0, "type": "electric_scooter", "lat": 38.91153283333333, "is_reserved": 0, "is_disabled": 0, "fusion_lon": 0.0, "bike_id": "3bd1686e3d4b91881c4972c57e885b22", "lon": -77.044264, "rental_uris": {"ios": "https://dc.lft.to/lastmile_qr_scan", "android": "https://dc.lft.to/lastmile_qr_scan"}}, {"name": "1884ece38e02a443e51fcd67ad37c9f3", "fusion_lat": 0.0, "type": "electric_scooter", "lat": 38.897387333333334, "is_reserved": 0, "is_disabled": 0, "fusion_lon": 0.0, "bike_id": "1884ece38e02a443e51fcd67ad37c9f3", "lon": -76.93851516666666, "rental_uris": {"ios": "https://dc.lft.to/lastmile_qr_scan", "android": "https://dc.lft.to/lastmile_qr_scan"}}, {"name": "af4c52fc50ce444a4e104590893ecfd8", "fusion_lat": 0.0, "type": "electric_scooter", "lat": 38.9027655, "is_reserved": 0, "is_disabled": 0, "fusion_lon": 0.0, "bike_id": "af4c52fc50ce444a4e104590893ecfd8", "lon": -77.02820983333334, "rental_uris": {"ios": "https://dc.lft.to/lastmile_qr_scan", "android": "https://dc.lft.to/lastmile_qr_scan"}}, {"name": "e5079b05b5d100a303a160f44b9614fe", "fusion_lat": 0.0, "type": "electric_scooter", "lat": 38.886858333333336, "is_reserved": 0, "is_disabled": 0, "fusion_lon": 0.0, "bike_id": "e5079b05b5d100a303a160f44b9614fe", "lon": -76.957663, "rental_uris": {"ios": "https://dc.lft.to/lastmile_qr_scan", "android": "https://dc.lft.to/lastmile_qr_scan"}}, {"name": "5edc94d898350b55f763cbf3b97c59f6", "fusion_lat": 0.0, "type": "electric_scooter", "lat": 38.9111525, "is_reserved": 0, "is_disabled": 0, "fusion_lon": 0.0, "bike_id": "5edc94d898350b55f763cbf3b97c59f6", "lon": -77.03140083333334, "rental_uris": {"ios": "https://dc.lft.to/lastmile_qr_scan", "android": "https://dc.lft.to/lastmile_qr_scan"}}, {"name": "5ea1a4919fa23b5ce74f8b3cb3bc669f", "fusion_lat": 0.0, "type": "electric_scooter", "lat": 38.915999666666664, "is_reserved": 0, "is_disabled": 0, "fusion_lon": 0.0, "bike_id": "5ea1a4919fa23b5ce74f8b3cb3bc669f", "lon": -77.03859233333333, "rental_uris": {"ios": "https://dc.lft.to/lastmile_qr_scan", "android": "https://dc.lft.to/lastmile_qr_scan"}}, {"name": "fea38bcef1c7e91330828ae6efe38539", "fusion_lat": 0.0, "type": "electric_scooter", "lat": 38.89521166666667, "is_reserved": 0, "is_disabled": 0, "fusion_lon": 0.0, "bike_id": "fea38bcef1c7e91330828ae6efe38539", "lon": -77.02580233333333, "rental_uris": {"ios": "https://dc.lft.to/lastmile_qr_scan", "android": "https://dc.lft.to/lastmile_qr_scan"}}, {"name": "4ce68d87b631568291703874fd1fa63e", "fusion_lat": 0.0, "type": "electric_scooter", "lat": 38.941734333333336, "is_reserved": 0, "is_disabled": 0, "fusion_lon": 0.0, "bike_id": "4ce68d87b631568291703874fd1fa63e", "lon": -77.0251115, "rental_uris": {"ios": "https://dc.lft.to/lastmile_qr_scan", "android": "https://dc.lft.to/lastmile_qr_scan"}}, {"name": "8a01dea90d3c61db10095d3a5ff86dfc", "fusion_lat": 0.0, "type": "electric_scooter", "lat": 38.89201683333334, "is_reserved": 0, "is_disabled": 0, "fusion_lon": 0.0, "bike_id": "8a01dea90d3c61db10095d3a5ff86dfc", "lon": -76.99196683333334, "rental_uris": {"ios": "https://dc.lft.to/lastmile_qr_scan", "android": "https://dc.lft.to/lastmile_qr_scan"}}, {"name": "5aa0cf019700c4e40714aa32f7ebe555", "fusion_lat": 0.0, "type": "electric_bike", "lat": 38.838295333333335, "is_reserved": 0, "is_disabled": 0, "fusion_lon": 0.0, "bike_id": "5aa0cf019700c4e40714aa32f7ebe555", "lon": -76.9968415, "rental_uris": {"ios": "https://dc.lft.to/lastmile_qr_scan", "android": "https://dc.lft.to/lastmile_qr_scan"}}, {"name": "3e343f80a4e872f503e046572d037c0b", "fusion_lat": 0.0, "type": "electric_scooter", "lat": 38.9170995, "is_reserved": 0, "is_disabled": 0, "fusion_lon": 0.0, "bike_id": "3e343f80a4e872f503e046572d037c0b", "lon": -77.02782333333333, "rental_uris": {"ios": "https://dc.lft.to/lastmile_qr_scan", "android": "https://dc.lft.to/lastmile_qr_scan"}}, {"name": "bfcaed51e5e7c8f83d88d52441665a43", "fusion_lat": 0.0, "type": "electric_scooter", "lat": 38.85848516666667, "is_reserved": 0, "is_disabled": 0, "fusion_lon": 0.0, "bike_id": "bfcaed51e5e7c8f83d88d52441665a43", "lon": -76.95880916666667, "rental_uris": {"ios": "https://dc.lft.to/lastmile_qr_scan", "android": "https://dc.lft.to/lastmile_qr_scan"}}, {"name": "f301e8bfe47b627a2aaef1db69897659", "fusion_lat": 0.0, "type": "electric_scooter", "lat": 38.93205183333333, "is_reserved": 0, "is_disabled": 0, "fusion_lon": 0.0, "bike_id": "f301e8bfe47b627a2aaef1db69897659", "lon": -77.0385235, "rental_uris": {"ios": "https://dc.lft.to/lastmile_qr_scan", "android": "https://dc.lft.to/lastmile_qr_scan"}}, {"name": "27cc1179509589a6bb15a62b06cc6c34", "fusion_lat": 0.0, "type": "electric_scooter", "lat": 38.909595833333334, "is_reserved": 0, "is_disabled": 0, "fusion_lon": 0.0, "bike_id": "27cc1179509589a6bb15a62b06cc6c34", "lon": -77.04646716666667, "rental_uris": {"ios": "https://dc.lft.to/lastmile_qr_scan", "android": "https://dc.lft.to/lastmile_qr_scan"}}, {"name": "ef03f3d7c134dad71014b86929b2035c", "fusion_lat": 0.0, "type": "electric_scooter", "lat": 38.90035533333333, "is_reserved": 0, "is_disabled": 0, "fusion_lon": 0.0, "bike_id": "ef03f3d7c134dad71014b86929b2035c", "lon": -77.04329666666666, "rental_uris": {"ios": "https://dc.lft.to/lastmile_qr_scan", "android": "https://dc.lft.to/lastmile_qr_scan"}}, {"name": "b8d9702b13095997e5cce695d3606ef5", "fusion_lat": 0.0, "type": "electric_scooter", "lat": 38.907771833333335, "is_reserved": 0, "is_disabled": 0, "fusion_lon": 0.0, "bike_id": "b8d9702b13095997e5cce695d3606ef5", "lon": -77.071652, "rental_uris": {"ios": "https://dc.lft.to/lastmile_qr_scan", "android": "https://dc.lft.to/lastmile_qr_scan"}}, {"name": "8013883a772656499542cb059b21bd16", "fusion_lat": 0.0, "type": "electric_bike", "lat": 38.799851333333336, "is_reserved": 0, "is_disabled": 0, "fusion_lon": 0.0, "bike_id": "8013883a772656499542cb059b21bd16", "lon": -77.1298085, "rental_uris": {"ios": "https://dc.lft.to/lastmile_qr_scan", "android": "https://dc.lft.to/lastmile_qr_scan"}}, {"name": "7edb959e5430b5d2cdb326c9ecd58d23", "fusion_lat": 0.0, "type": "electric_scooter", "lat": 38.90499666666667, "is_reserved": 0, "is_disabled": 0, "fusion_lon": 0.0, "bike_id": "7edb959e5430b5d2cdb326c9ecd58d23", "lon": -77.065294, "rental_uris": {"ios": "https://dc.lft.to/lastmile_qr_scan", "android": "https://dc.lft.to/lastmile_qr_scan"}}, {"name": "5238648adc9dbdc66687e8010fc56473", "fusion_lat": 0.0, "type": "electric_scooter", "lat": 38.90216983333333, "is_reserved": 0, "is_disabled": 0, "fusion_lon": 0.0, "bike_id": "5238648adc9dbdc66687e8010fc56473", "lon": -77.0232805, "rental_uris": {"ios": "https://dc.lft.to/lastmile_qr_scan", "android": "https://dc.lft.to/lastmile_qr_scan"}}, {"name": "39e4643267647d643d019b2d3434c723", "fusion_lat": 0.0, "type": "electric_scooter", "lat": 38.91233866666666, "is_reserved": 0, "is_disabled": 0, "fusion_lon": 0.0, "bike_id": "39e4643267647d643d019b2d3434c723", "lon": -77.03840916666667, "rental_uris": {"ios": "https://dc.lft.to/lastmile_qr_scan", "android": "https://dc.lft.to/lastmile_qr_scan"}}, {"name": "0b712862407750120f99a392709941bd", "fusion_lat": 0.0, "type": "electric_scooter", "lat": 38.90270783333333, "is_reserved": 0, "is_disabled": 0, "fusion_lon": 0.0, "bike_id": "0b712862407750120f99a392709941bd", "lon": -77.04601383333333, "rental_uris": {"ios": "https://dc.lft.to/lastmile_qr_scan", "android": "https://dc.lft.to/lastmile_qr_scan"}}, {"name": "03c632b1363d5e5c52231c032030f758", "fusion_lat": 0.0, "type": "electric_scooter", "lat": 38.91040666666667, "is_reserved": 0, "is_disabled": 0, "fusion_lon": 0.0, "bike_id": "03c632b1363d5e5c52231c032030f758", "lon": -77.04830466666667, "rental_uris": {"ios": "https://dc.lft.to/lastmile_qr_scan", "android": "https://dc.lft.to/lastmile_qr_scan"}}, {"name": "38dcb1942894b99af9a0f064458eb79c", "fusion_lat": 0.0, "type": "electric_bike", "lat": 38.918829, "is_reserved": 0, "is_disabled": 0, "fusion_lon": 0.0, "bike_id": "38dcb1942894b99af9a0f064458eb79c", "lon": -77.03197583333333, "rental_uris": {"ios": "https://dc.lft.to/lastmile_qr_scan", "android": "https://dc.lft.to/lastmile_qr_scan"}}, {"name": "95adc08139e15d4fe51102bd375c7112", "fusion_lat": 0.0, "type": "electric_scooter", "lat": 38.86359266666667, "is_reserved": 0, "is_disabled": 0, "fusion_lon": 0.0, "bike_id": "95adc08139e15d4fe51102bd375c7112", "lon": -76.99062183333334, "rental_uris": {"ios": "https://dc.lft.to/lastmile_qr_scan", "android": "https://dc.lft.to/lastmile_qr_scan"}}, {"name": "ba2266e6a6c84b559f710878a87f935e", "fusion_lat": 0.0, "type": "electric_scooter", "lat": 38.92150316666667, "is_reserved": 0, "is_disabled": 0, "fusion_lon": 0.0, "bike_id": "ba2266e6a6c84b559f710878a87f935e", "lon": -77.03508016666666, "rental_uris": {"ios": "https://dc.lft.to/lastmile_qr_scan", "android": "https://dc.lft.to/lastmile_qr_scan"}}, {"name": "729746116125298fa655071f8b4170c0", "fusion_lat": 0.0, "type": "electric_scooter", "lat": 38.961431833333336, "is_reserved": 0, "is_disabled": 0, "fusion_lon": 0.0, "bike_id": "729746116125298fa655071f8b4170c0", "lon": -77.02803566666667, "rental_uris": {"ios": "https://dc.lft.to/lastmile_qr_scan", "android": "https://dc.lft.to/lastmile_qr_scan"}}, {"name": "f28ecddfe8aff7a4ce90cc87fd2383fe", "fusion_lat": 0.0, "type": "electric_scooter", "lat": 38.941260166666666, "is_reserved": 0, "is_disabled": 0, "fusion_lon": 0.0, "bike_id": "f28ecddfe8aff7a4ce90cc87fd2383fe", "lon": -77.0205345, "rental_uris": {"ios": "https://dc.lft.to/lastmile_qr_scan", "android": "https://dc.lft.to/lastmile_qr_scan"}}, {"name": "257f3c0f86727fa8d131879bd2c88474", "fusion_lat": 0.0, "type": "electric_bike", "lat": 38.939764, "is_reserved": 0, "is_disabled": 0, "fusion_lon": 0.0, "bike_id": "257f3c0f86727fa8d131879bd2c88474", "lon": -76.95484633333334, "rental_uris": {"ios": "https://dc.lft.to/lastmile_qr_scan", "android": "https://dc.lft.to/lastmile_qr_scan"}}, {"name": "6f93569e564dfb3a9d95821320177a70", "fusion_lat": 0.0, "type": "electric_scooter", "lat": 38.900292, "is_reserved": 0, "is_disabled": 0, "fusion_lon": 0.0, "bike_id": "6f93569e564dfb3a9d95821320177a70", "lon": -77.04684933333333, "rental_uris": {"ios": "https://dc.lft.to/lastmile_qr_scan", "android": "https://dc.lft.to/lastmile_qr_scan"}}, {"name": "05bfe6ac33a25da0214f9670d984f0d8", "fusion_lat": 0.0, "type": "electric_scooter", "lat": 38.92265183333333, "is_reserved": 0, "is_disabled": 0, "fusion_lon": 0.0, "bike_id": "05bfe6ac33a25da0214f9670d984f0d8", "lon": -77.04137866666666, "rental_uris": {"ios": "https://dc.lft.to/lastmile_qr_scan", "android": "https://dc.lft.to/lastmile_qr_scan"}}, {"name": "dc0d5316fc3aa6b0357cb1639d918271", "fusion_lat": 0.0, "type": "electric_scooter", "lat": 38.90203916666667, "is_reserved": 0, "is_disabled": 0, "fusion_lon": 0.0, "bike_id": "dc0d5316fc3aa6b0357cb1639d918271", "lon": -77.0221745, "rental_uris": {"ios": "https://dc.lft.to/lastmile_qr_scan", "android": "https://dc.lft.to/lastmile_qr_scan"}}, {"name": "7f612ab414615311d6667b7a223426c4", "fusion_lat": 0.0, "type": "electric_scooter", "lat": 38.900185666666665, "is_reserved": 0, "is_disabled": 0, "fusion_lon": 0.0, "bike_id": "7f612ab414615311d6667b7a223426c4", "lon": -76.99644666666667, "rental_uris": {"ios": "https://dc.lft.to/lastmile_qr_scan", "android": "https://dc.lft.to/lastmile_qr_scan"}}, {"name": "3f96693cd671cb1ae032737593d108a5", "fusion_lat": 0.0, "type": "electric_scooter", "lat": 38.89801883333333, "is_reserved": 0, "is_disabled": 0, "fusion_lon": 0.0, "bike_id": "3f96693cd671cb1ae032737593d108a5", "lon": -76.99161533333333, "rental_uris": {"ios": "https://dc.lft.to/lastmile_qr_scan", "android": "https://dc.lft.to/lastmile_qr_scan"}}, {"name": "a6de21513018421a77eca3ddd97b4c36", "fusion_lat": 0.0, "type": "electric_scooter", "lat": 38.91125816666667, "is_reserved": 0, "is_disabled": 0, "fusion_lon": 0.0, "bike_id": "a6de21513018421a77eca3ddd97b4c36", "lon": -77.021987, "rental_uris": {"ios": "https://dc.lft.to/lastmile_qr_scan", "android": "https://dc.lft.to/lastmile_qr_scan"}}, {"name": "9794f8ec395dae7264d2802d688062dc", "fusion_lat": 0.0, "type": "electric_scooter", "lat": 38.911963, "is_reserved": 0, "is_disabled": 0, "fusion_lon": 0.0, "bike_id": "9794f8ec395dae7264d2802d688062dc", "lon": -77.0384755, "rental_uris": {"ios": "https://dc.lft.to/lastmile_qr_scan", "android": "https://dc.lft.to/lastmile_qr_scan"}}, {"name": "8d19c35a4907cde7df794488d5b89de0", "fusion_lat": 0.0, "type": "electric_scooter", "lat": 38.87866483333333, "is_reserved": 0, "is_disabled": 0, "fusion_lon": 0.0, "bike_id": "8d19c35a4907cde7df794488d5b89de0", "lon": -76.96523216666667, "rental_uris": {"ios": "https://dc.lft.to/lastmile_qr_scan", "android": "https://dc.lft.to/lastmile_qr_scan"}}, {"name": "f8ebfc9100a7d9106c8fb1c99a118205", "fusion_lat": 0.0, "type": "electric_scooter", "lat": 38.918069, "is_reserved": 0, "is_disabled": 0, "fusion_lon": 0.0, "bike_id": "f8ebfc9100a7d9106c8fb1c99a118205", "lon": -77.02493633333333, "rental_uris": {"ios": "https://dc.lft.to/lastmile_qr_scan", "android": "https://dc.lft.to/lastmile_qr_scan"}}, {"name": "6b17030c9ca78659cbe567ccaa90503f", "fusion_lat": 0.0, "type": "electric_scooter", "lat": 38.9087965, "is_reserved": 0, "is_disabled": 0, "fusion_lon": 0.0, "bike_id": "6b17030c9ca78659cbe567ccaa90503f", "lon": -77.07602916666667, "rental_uris": {"ios": "https://dc.lft.to/lastmile_qr_scan", "android": "https://dc.lft.to/lastmile_qr_scan"}}, {"name": "f27a35de046748684eb299bd28570b17", "fusion_lat": 0.0, "type": "electric_scooter", "lat": 38.90343216666667, "is_reserved": 0, "is_disabled": 0, "fusion_lon": 0.0, "bike_id": "f27a35de046748684eb299bd28570b17", "lon": -77.05439566666666, "rental_uris": {"ios": "https://dc.lft.to/lastmile_qr_scan", "android": "https://dc.lft.to/lastmile_qr_scan"}}, {"name": "6bfceab11f0b50f2873d56a6569b2220", "fusion_lat": 0.0, "type": "electric_scooter", "lat": 38.895179, "is_reserved": 0, "is_disabled": 0, "fusion_lon": 0.0, "bike_id": "6bfceab11f0b50f2873d56a6569b2220", "lon": -76.992082, "rental_uris": {"ios": "https://dc.lft.to/lastmile_qr_scan", "android": "https://dc.lft.to/lastmile_qr_scan"}}, {"name": "0a2c75e980874a1498624bcc4b7b45e1", "fusion_lat": 0.0, "type": "electric_scooter", "lat": 38.899130666666665, "is_reserved": 0, "is_disabled": 0, "fusion_lon": 0.0, "bike_id": "0a2c75e980874a1498624bcc4b7b45e1", "lon": -77.03275316666667, "rental_uris": {"ios": "https://dc.lft.to/lastmile_qr_scan", "android": "https://dc.lft.to/lastmile_qr_scan"}}, {"name": "ed2fba85a2b82f9c9603048b3dadfa6e", "fusion_lat": 0.0, "type": "electric_scooter", "lat": 38.88220283333333, "is_reserved": 0, "is_disabled": 0, "fusion_lon": 0.0, "bike_id": "ed2fba85a2b82f9c9603048b3dadfa6e", "lon": -76.94177516666667, "rental_uris": {"ios": "https://dc.lft.to/lastmile_qr_scan", "android": "https://dc.lft.to/lastmile_qr_scan"}}, {"name": "e7ef4a56c5c52cbdb50ebd8137bb19c6", "fusion_lat": 0.0, "type": "electric_scooter", "lat": 38.88157116666667, "is_reserved": 0, "is_disabled": 0, "fusion_lon": 0.0, "bike_id": "e7ef4a56c5c52cbdb50ebd8137bb19c6", "lon": -77.01307433333334, "rental_uris": {"ios": "https://dc.lft.to/lastmile_qr_scan", "android": "https://dc.lft.to/lastmile_qr_scan"}}, {"name": "409d5846d3d2afb2006e505cf0af95da", "fusion_lat": 0.0, "type": "electric_scooter", "lat": 38.902568, "is_reserved": 0, "is_disabled": 0, "fusion_lon": 0.0, "bike_id": "409d5846d3d2afb2006e505cf0af95da", "lon": -77.03166366666666, "rental_uris": {"ios": "https://dc.lft.to/lastmile_qr_scan", "android": "https://dc.lft.to/lastmile_qr_scan"}}, {"name": "396422d27a9e1ecb93208b55f7d631f5", "fusion_lat": 0.0, "type": "electric_scooter", "lat": 38.921046833333335, "is_reserved": 0, "is_disabled": 0, "fusion_lon": 0.0, "bike_id": "396422d27a9e1ecb93208b55f7d631f5", "lon": -77.05470616666666, "rental_uris": {"ios": "https://dc.lft.to/lastmile_qr_scan", "android": "https://dc.lft.to/lastmile_qr_scan"}}, {"name": "983de080e25a62b0f711688becc9090b", "fusion_lat": 0.0, "type": "electric_scooter", "lat": 38.9087005, "is_reserved": 0, "is_disabled": 0, "fusion_lon": 0.0, "bike_id": "983de080e25a62b0f711688becc9090b", "lon": -77.01293483333333, "rental_uris": {"ios": "https://dc.lft.to/lastmile_qr_scan", "android": "https://dc.lft.to/lastmile_qr_scan"}}, {"name": "4f7b94e6ec80f72a020a606d1221d53f", "fusion_lat": 0.0, "type": "electric_scooter", "lat": 38.900487166666665, "is_reserved": 0, "is_disabled": 0, "fusion_lon": 0.0, "bike_id": "4f7b94e6ec80f72a020a606d1221d53f", "lon": -76.99147683333334, "rental_uris": {"ios": "https://dc.lft.to/lastmile_qr_scan", "android": "https://dc.lft.to/lastmile_qr_scan"}}, {"name": "7f60148ab4a98aa50d6130aec8198dc5", "fusion_lat": 0.0, "type": "electric_scooter", "lat": 38.91840466666667, "is_reserved": 0, "is_disabled": 0, "fusion_lon": 0.0, "bike_id": "7f60148ab4a98aa50d6130aec8198dc5", "lon": -77.02319066666666, "rental_uris": {"ios": "https://dc.lft.to/lastmile_qr_scan", "android": "https://dc.lft.to/lastmile_qr_scan"}}, {"name": "7e49f720acff7c7999fb654ce6b74c28", "fusion_lat": 0.0, "type": "electric_scooter", "lat": 38.915654, "is_reserved": 0, "is_disabled": 0, "fusion_lon": 0.0, "bike_id": "7e49f720acff7c7999fb654ce6b74c28", "lon": -77.0255505, "rental_uris": {"ios": "https://dc.lft.to/lastmile_qr_scan", "android": "https://dc.lft.to/lastmile_qr_scan"}}, {"name": "faae83877a7f80bd347ad31bde8b2278", "fusion_lat": 0.0, "type": "electric_scooter", "lat": 38.862617666666665, "is_reserved": 0, "is_disabled": 0, "fusion_lon": 0.0, "bike_id": "faae83877a7f80bd347ad31bde8b2278", "lon": -76.98711933333334, "rental_uris": {"ios": "https://dc.lft.to/lastmile_qr_scan", "android": "https://dc.lft.to/lastmile_qr_scan"}}, {"name": "d49fd101caf9c3b596756e3f64cf75e0", "fusion_lat": 0.0, "type": "electric_scooter", "lat": 38.9214165, "is_reserved": 0, "is_disabled": 0, "fusion_lon": 0.0, "bike_id": "d49fd101caf9c3b596756e3f64cf75e0", "lon": -77.041192, "rental_uris": {"ios": "https://dc.lft.to/lastmile_qr_scan", "android": "https://dc.lft.to/lastmile_qr_scan"}}, {"name": "c8cacec7ec423eb22b50d0c10488b8ca", "fusion_lat": 0.0, "type": "electric_scooter", "lat": 38.91940783333333, "is_reserved": 0, "is_disabled": 0, "fusion_lon": 0.0, "bike_id": "c8cacec7ec423eb22b50d0c10488b8ca", "lon": -77.03439, "rental_uris": {"ios": "https://dc.lft.to/lastmile_qr_scan", "android": "https://dc.lft.to/lastmile_qr_scan"}}, {"name": "4cb5fe1a452984f589ea7b2cbd1e4044", "fusion_lat": 0.0, "type": "electric_scooter", "lat": 38.920488, "is_reserved": 0, "is_disabled": 0, "fusion_lon": 0.0, "bike_id": "4cb5fe1a452984f589ea7b2cbd1e4044", "lon": -77.0243645, "rental_uris": {"ios": "https://dc.lft.to/lastmile_qr_scan", "android": "https://dc.lft.to/lastmile_qr_scan"}}, {"name": "4d4763db1c144cf35d7743e08bb12be2", "fusion_lat": 0.0, "type": "electric_scooter", "lat": 38.92950366666667, "is_reserved": 0, "is_disabled": 0, "fusion_lon": 0.0, "bike_id": "4d4763db1c144cf35d7743e08bb12be2", "lon": -77.0377455, "rental_uris": {"ios": "https://dc.lft.to/lastmile_qr_scan", "android": "https://dc.lft.to/lastmile_qr_scan"}}, {"name": "0ebbfe840f406393eff255fb75071514", "fusion_lat": 0.0, "type": "electric_scooter", "lat": 38.909739333333334, "is_reserved": 0, "is_disabled": 0, "fusion_lon": 0.0, "bike_id": "0ebbfe840f406393eff255fb75071514", "lon": -77.04663816666667, "rental_uris": {"ios": "https://dc.lft.to/lastmile_qr_scan", "android": "https://dc.lft.to/lastmile_qr_scan"}}, {"name": "128b4331efc882a1e3b09f67a53e3742", "fusion_lat": 0.0, "type": "electric_scooter", "lat": 38.921458333333334, "is_reserved": 0, "is_disabled": 0, "fusion_lon": 0.0, "bike_id": "128b4331efc882a1e3b09f67a53e3742", "lon": -77.04562283333334, "rental_uris": {"ios": "https://dc.lft.to/lastmile_qr_scan", "android": "https://dc.lft.to/lastmile_qr_scan"}}, {"name": "8eafee0195a803fe135d743b90762ce3", "fusion_lat": 0.0, "type": "electric_scooter", "lat": 38.924736333333335, "is_reserved": 0, "is_disabled": 0, "fusion_lon": 0.0, "bike_id": "8eafee0195a803fe135d743b90762ce3", "lon": -77.03056733333334, "rental_uris": {"ios": "https://dc.lft.to/lastmile_qr_scan", "android": "https://dc.lft.to/lastmile_qr_scan"}}, {"name": "c984ea7ca030d225e90ee2fb1135bfde", "fusion_lat": 0.0, "type": "electric_scooter", "lat": 38.87690033333333, "is_reserved": 0, "is_disabled": 0, "fusion_lon": 0.0, "bike_id": "c984ea7ca030d225e90ee2fb1135bfde", "lon": -77.00750583333334, "rental_uris": {"ios": "https://dc.lft.to/lastmile_qr_scan", "android": "https://dc.lft.to/lastmile_qr_scan"}}, {"name": "cb3e5cdc2d8a9cedbabc1a86567eba90", "fusion_lat": 0.0, "type": "electric_scooter", "lat": 38.8998725, "is_reserved": 0, "is_disabled": 0, "fusion_lon": 0.0, "bike_id": "cb3e5cdc2d8a9cedbabc1a86567eba90", "lon": -77.03200933333333, "rental_uris": {"ios": "https://dc.lft.to/lastmile_qr_scan", "android": "https://dc.lft.to/lastmile_qr_scan"}}, {"name": "93755f4ec4ef0923cc1376095c9e4bf2", "fusion_lat": 0.0, "type": "electric_scooter", "lat": 38.94175033333333, "is_reserved": 0, "is_disabled": 0, "fusion_lon": 0.0, "bike_id": "93755f4ec4ef0923cc1376095c9e4bf2", "lon": -77.02509066666667, "rental_uris": {"ios": "https://dc.lft.to/lastmile_qr_scan", "android": "https://dc.lft.to/lastmile_qr_scan"}}, {"name": "6512de70f1b0287a471547f5e34a17b1", "fusion_lat": 0.0, "type": "electric_scooter", "lat": 38.89832833333333, "is_reserved": 0, "is_disabled": 0, "fusion_lon": 0.0, "bike_id": "6512de70f1b0287a471547f5e34a17b1", "lon": -76.9464465, "rental_uris": {"ios": "https://dc.lft.to/lastmile_qr_scan", "android": "https://dc.lft.to/lastmile_qr_scan"}}, {"name": "ce457bfe869c455c2df1df2fda2106ad", "fusion_lat": 0.0, "type": "electric_scooter", "lat": 38.9170855, "is_reserved": 0, "is_disabled": 0, "fusion_lon": 0.0, "bike_id": "ce457bfe869c455c2df1df2fda2106ad", "lon": -77.0285235, "rental_uris": {"ios": "https://dc.lft.to/lastmile_qr_scan", "android": "https://dc.lft.to/lastmile_qr_scan"}}, {"name": "3f4df86e57d8ed8efe875f2cfa61d4e5", "fusion_lat": 0.0, "type": "electric_scooter", "lat": 38.898335833333334, "is_reserved": 0, "is_disabled": 0, "fusion_lon": 0.0, "bike_id": "3f4df86e57d8ed8efe875f2cfa61d4e5", "lon": -77.00739166666666, "rental_uris": {"ios": "https://dc.lft.to/lastmile_qr_scan", "android": "https://dc.lft.to/lastmile_qr_scan"}}, {"name": "73c8f597ce1056806b4b13aa4362af5e", "fusion_lat": 0.0, "type": "electric_scooter", "lat": 38.92181266666667, "is_reserved": 0, "is_disabled": 0, "fusion_lon": 0.0, "bike_id": "73c8f597ce1056806b4b13aa4362af5e", "lon": -77.02415333333333, "rental_uris": {"ios": "https://dc.lft.to/lastmile_qr_scan", "android": "https://dc.lft.to/lastmile_qr_scan"}}, {"name": "34c6a159e2ed90b80ae3c57172ad7ec7", "fusion_lat": 0.0, "type": "electric_scooter", "lat": 38.917865, "is_reserved": 0, "is_disabled": 0, "fusion_lon": 0.0, "bike_id": "34c6a159e2ed90b80ae3c57172ad7ec7", "lon": -77.0344955, "rental_uris": {"ios": "https://dc.lft.to/lastmile_qr_scan", "android": "https://dc.lft.to/lastmile_qr_scan"}}, {"name": "481911e77081b5585362985a5f17ce05", "fusion_lat": 0.0, "type": "electric_scooter", "lat": 38.9272435, "is_reserved": 0, "is_disabled": 0, "fusion_lon": 0.0, "bike_id": "481911e77081b5585362985a5f17ce05", "lon": -77.02586733333334, "rental_uris": {"ios": "https://dc.lft.to/lastmile_qr_scan", "android": "https://dc.lft.to/lastmile_qr_scan"}}, {"name": "5c57b8c151a0fa43abec5bfaf536ddf7", "fusion_lat": 0.0, "type": "electric_scooter", "lat": 38.9096675, "is_reserved": 0, "is_disabled": 0, "fusion_lon": 0.0, "bike_id": "5c57b8c151a0fa43abec5bfaf536ddf7", "lon": -77.03886833333334, "rental_uris": {"ios": "https://dc.lft.to/lastmile_qr_scan", "android": "https://dc.lft.to/lastmile_qr_scan"}}, {"name": "3f8dbf7d793063ca687893b22f92a41b", "fusion_lat": 0.0, "type": "electric_scooter", "lat": 38.9091605, "is_reserved": 0, "is_disabled": 0, "fusion_lon": 0.0, "bike_id": "3f8dbf7d793063ca687893b22f92a41b", "lon": -77.01889783333333, "rental_uris": {"ios": "https://dc.lft.to/lastmile_qr_scan", "android": "https://dc.lft.to/lastmile_qr_scan"}}, {"name": "a5057a0987046295f8800dfe411c85c3", "fusion_lat": 0.0, "type": "electric_scooter", "lat": 38.894845333333336, "is_reserved": 0, "is_disabled": 0, "fusion_lon": 0.0, "bike_id": "a5057a0987046295f8800dfe411c85c3", "lon": -76.9486985, "rental_uris": {"ios": "https://dc.lft.to/lastmile_qr_scan", "android": "https://dc.lft.to/lastmile_qr_scan"}}, {"name": "cbdfc71f628a21418b3df615ba7f92db", "fusion_lat": 0.0, "type": "electric_scooter", "lat": 38.92585533333333, "is_reserved": 0, "is_disabled": 0, "fusion_lon": 0.0, "bike_id": "cbdfc71f628a21418b3df615ba7f92db", "lon": -77.053075, "rental_uris": {"ios": "https://dc.lft.to/lastmile_qr_scan", "android": "https://dc.lft.to/lastmile_qr_scan"}}, {"name": "ae5ae810ae7a1f6e6f6e64cc27884b89", "fusion_lat": 0.0, "type": "electric_scooter", "lat": 38.8965715, "is_reserved": 0, "is_disabled": 0, "fusion_lon": 0.0, "bike_id": "ae5ae810ae7a1f6e6f6e64cc27884b89", "lon": -77.05027516666667, "rental_uris": {"ios": "https://dc.lft.to/lastmile_qr_scan", "android": "https://dc.lft.to/lastmile_qr_scan"}}, {"name": "e66e1263281acc5807f8b75c2a33e426", "fusion_lat": 0.0, "type": "electric_scooter", "lat": 38.9106065, "is_reserved": 0, "is_disabled": 0, "fusion_lon": 0.0, "bike_id": "e66e1263281acc5807f8b75c2a33e426", "lon": -77.04576933333334, "rental_uris": {"ios": "https://dc.lft.to/lastmile_qr_scan", "android": "https://dc.lft.to/lastmile_qr_scan"}}, {"name": "845bd4c81ed636fcb2f5ef1bcb126caa", "fusion_lat": 0.0, "type": "electric_scooter", "lat": 38.952187333333335, "is_reserved": 0, "is_disabled": 0, "fusion_lon": 0.0, "bike_id": "845bd4c81ed636fcb2f5ef1bcb126caa", "lon": -77.07067366666666, "rental_uris": {"ios": "https://dc.lft.to/lastmile_qr_scan", "android": "https://dc.lft.to/lastmile_qr_scan"}}, {"name": "e475fcdb373e61934be181197a5ad684", "fusion_lat": 0.0, "type": "electric_scooter", "lat": 38.93233433333333, "is_reserved": 0, "is_disabled": 0, "fusion_lon": 0.0, "bike_id": "e475fcdb373e61934be181197a5ad684", "lon": -77.030938, "rental_uris": {"ios": "https://dc.lft.to/lastmile_qr_scan", "android": "https://dc.lft.to/lastmile_qr_scan"}}, {"name": "7fee2be9850385c5abf4049a70b9bedd", "fusion_lat": 0.0, "type": "electric_scooter", "lat": 38.9189435, "is_reserved": 0, "is_disabled": 0, "fusion_lon": 0.0, "bike_id": "7fee2be9850385c5abf4049a70b9bedd", "lon": -77.05290616666667, "rental_uris": {"ios": "https://dc.lft.to/lastmile_qr_scan", "android": "https://dc.lft.to/lastmile_qr_scan"}}, {"name": "d757220398a6a7a9ee86560a9c986f38", "fusion_lat": 0.0, "type": "electric_scooter", "lat": 38.88377833333333, "is_reserved": 0, "is_disabled": 0, "fusion_lon": 0.0, "bike_id": "d757220398a6a7a9ee86560a9c986f38", "lon": -76.99522816666666, "rental_uris": {"ios": "https://dc.lft.to/lastmile_qr_scan", "android": "https://dc.lft.to/lastmile_qr_scan"}}, {"name": "5cf63508c50cb8261c0f5d7c4cf38e9a", "fusion_lat": 0.0, "type": "electric_scooter", "lat": 38.86509, "is_reserved": 0, "is_disabled": 0, "fusion_lon": 0.0, "bike_id": "5cf63508c50cb8261c0f5d7c4cf38e9a", "lon": -76.99006616666667, "rental_uris": {"ios": "https://dc.lft.to/lastmile_qr_scan", "android": "https://dc.lft.to/lastmile_qr_scan"}}, {"name": "4b5208d21928a1cbedc388e9a48b9592", "fusion_lat": 0.0, "type": "electric_scooter", "lat": 38.8950325, "is_reserved": 0, "is_disabled": 0, "fusion_lon": 0.0, "bike_id": "4b5208d21928a1cbedc388e9a48b9592", "lon": -77.0241725, "rental_uris": {"ios": "https://dc.lft.to/lastmile_qr_scan", "android": "https://dc.lft.to/lastmile_qr_scan"}}, {"name": "005c99de635d71c0717032fb47b6ed5d", "fusion_lat": 0.0, "type": "electric_bike", "lat": 38.879295166666665, "is_reserved": 0, "is_disabled": 0, "fusion_lon": 0.0, "bike_id": "005c99de635d71c0717032fb47b6ed5d", "lon": -77.023775, "rental_uris": {"ios": "https://dc.lft.to/lastmile_qr_scan", "android": "https://dc.lft.to/lastmile_qr_scan"}}, {"name": "32c995834fd52bf7dfc42b22b8b0ade5", "fusion_lat": 0.0, "type": "electric_bike", "lat": 38.82729583333333, "is_reserved": 0, "is_disabled": 0, "fusion_lon": 0.0, "bike_id": "32c995834fd52bf7dfc42b22b8b0ade5", "lon": -77.00868116666666, "rental_uris": {"ios": "https://dc.lft.to/lastmile_qr_scan", "android": "https://dc.lft.to/lastmile_qr_scan"}}, {"name": "d002c2e9b39275e0af6798665dbbc9c2", "fusion_lat": 0.0, "type": "electric_scooter", "lat": 38.8992425, "is_reserved": 0, "is_disabled": 0, "fusion_lon": 0.0, "bike_id": "d002c2e9b39275e0af6798665dbbc9c2", "lon": -77.033001, "rental_uris": {"ios": "https://dc.lft.to/lastmile_qr_scan", "android": "https://dc.lft.to/lastmile_qr_scan"}}, {"name": "59459eb5e5a11cd3a6f7e6ebfaa0fa90", "fusion_lat": 0.0, "type": "electric_scooter", "lat": 38.885989333333335, "is_reserved": 0, "is_disabled": 0, "fusion_lon": 0.0, "bike_id": "59459eb5e5a11cd3a6f7e6ebfaa0fa90", "lon": -77.02203966666667, "rental_uris": {"ios": "https://dc.lft.to/lastmile_qr_scan", "android": "https://dc.lft.to/lastmile_qr_scan"}}, {"name": "004a6f03ad5e6e7ef45cb172b774c398", "fusion_lat": 0.0, "type": "electric_scooter", "lat": 38.919433833333336, "is_reserved": 0, "is_disabled": 0, "fusion_lon": 0.0, "bike_id": "004a6f03ad5e6e7ef45cb172b774c398", "lon": -77.0454705, "rental_uris": {"ios": "https://dc.lft.to/lastmile_qr_scan", "android": "https://dc.lft.to/lastmile_qr_scan"}}, {"name": "1cedfdbfff7ee3744fe8e2dab63628f3", "fusion_lat": 0.0, "type": "electric_scooter", "lat": 38.932495333333335, "is_reserved": 0, "is_disabled": 0, "fusion_lon": 0.0, "bike_id": "1cedfdbfff7ee3744fe8e2dab63628f3", "lon": -77.03847816666666, "rental_uris": {"ios": "https://dc.lft.to/lastmile_qr_scan", "android": "https://dc.lft.to/lastmile_qr_scan"}}, {"name": "755477117189bb511c5c50f489abef02", "fusion_lat": 0.0, "type": "electric_scooter", "lat": 38.89975166666667, "is_reserved": 0, "is_disabled": 0, "fusion_lon": 0.0, "bike_id": "755477117189bb511c5c50f489abef02", "lon": -77.029409, "rental_uris": {"ios": "https://dc.lft.to/lastmile_qr_scan", "android": "https://dc.lft.to/lastmile_qr_scan"}}, {"name": "fc316750b5593f687e7c2dd0d0ba17e6", "fusion_lat": 0.0, "type": "electric_scooter", "lat": 38.860804333333334, "is_reserved": 0, "is_disabled": 0, "fusion_lon": 0.0, "bike_id": "fc316750b5593f687e7c2dd0d0ba17e6", "lon": -76.96733966666666, "rental_uris": {"ios": "https://dc.lft.to/lastmile_qr_scan", "android": "https://dc.lft.to/lastmile_qr_scan"}}, {"name": "f736009132fa4314f9733efe6ba9ab55", "fusion_lat": 0.0, "type": "electric_scooter", "lat": 38.914712, "is_reserved": 0, "is_disabled": 0, "fusion_lon": 0.0, "bike_id": "f736009132fa4314f9733efe6ba9ab55", "lon": -76.98112449999999, "rental_uris": {"ios": "https://dc.lft.to/lastmile_qr_scan", "android": "https://dc.lft.to/lastmile_qr_scan"}},