{"data": {"bikes": [{"lon": -77.00753166666667, "bike_id": "971646d5a8bcc638154e0573784fbd7c", "lat": 38.8764975, "fusion_lon": 0.0, "fusion_lat": 0.0, "type": "electric_scooter", "name": "971646d5a8bcc638154e0573784fbd7c", "is_disabled": 0, "rental_uris": {"ios": "https://dc.lft.to/lastmile_qr_scan", "android": "https://dc.lft.to/lastmile_qr_scan"}, "is_reserved": 0}, {"lon": -77.005538, "bike_id": "265aed15cf1ceaf630980498ba36f35a", "lat": 38.87473283333333, "fusion_lon": 0.0, "fusion_lat": 0.0, "type": "electric_scooter", "name": "265aed15cf1ceaf630980498ba36f35a", "is_disabled": 0, "rental_uris": {"ios": "https://dc.lft.to/lastmile_qr_scan", "android": "https://dc.lft.to/lastmile_qr_scan"}, "is_reserved": 0}, {"lon": -77.05602566666667, "bike_id": "f81c88241284e6980cd82c84deb905af", "lat": 38.937016166666666, "fusion_lon": 0.0, "fusion_lat": 0.0, "type": "electric_scooter", "name": "f81c88241284e6980cd82c84deb905af", "is_disabled": 0, "rental_uris": {"ios": "https://dc.lft.to/lastmile_qr_scan", "android": "https://dc.lft.to/lastmile_qr_scan"}, "is_reserved": 0}, {"lon": -77.03661016666666, "bike_id": "ef5065f83a8cba1372b63de8f9d7f5c8", "lat": 38.93629516666667, "fusion_lon": 0.0, "fusion_lat": 0.0, "type": "electric_scooter", "name": "ef5065f83a8cba1372b63de8f9d7f5c8", "is_disabled": 0, "rental_uris": {"ios": "https://dc.lft.to/lastmile_qr_scan", "android": "https://dc.lft.to/lastmile_qr_scan"}, "is_reserved": 0}, {"lon": -77.02942466666667, "bike_id": "490687c3366db67375e371fa9eb69524", "lat": 38.8984825, "fusion_lon": 0.0, "fusion_lat": 0.0, "type": "electric_scooter", "name": "490687c3366db67375e371fa9eb69524", "is_disabled": 0, "rental_uris": {"ios": "https://dc.lft.to/lastmile_qr_scan", "android": "https://dc.lft.to/lastmile_qr_scan"}, "is_reserved": 0}, {"lon": -76.99596566666666, "bike_id": "f6f98142226b3c40e8d359418b348991", "lat": 38.8570045, "fusion_lon": 0.0, "fusion_lat": 0.0, "type": "electric_scooter", "name": "f6f98142226b3c40e8d359418b348991", "is_disabled": 0, "rental_uris": {"ios": "https://dc.lft.to/lastmile_qr_scan", "android": "https://dc.lft.to/lastmile_qr_scan"}, "is_reserved": 0}, {"lon": -77.01366983333334, "bike_id": "c24815433795568f4d505bf08c52cd7a", "lat": 38.88707266666667, "fusion_lon": 0.0, "fusion_lat": 0.0, "type": "electric_scooter", "name": "c24815433795568f4d505bf08c52cd7a", "is_disabled": 0, "rental_uris": {"ios": "https://dc.lft.to/lastmile_qr_scan", "android": "https://dc.lft.to/lastmile_qr_scan"}, "is_reserved": 0}, {"lon": -77.02577366666667, "bike_id": "4e0821b0f94eb8be961a4cad4370f05c", "lat": 38.92739, "fusion_lon": 0.0, "fusion_lat": 0.0, "type": "electric_scooter", "name": "4e0821b0f94eb8be961a4cad4370f05c", "is_disabled": 0, "rental_uris": {"ios": "https://dc.lft.to/lastmile_qr_scan", "android": "https://dc.lft.to/lastmile_qr_scan"}, "is_reserved": 0}, {"lon": -77.03049716666666, "bike_id": "6fad998b0a58075d749052d0058f35b6", "lat": 38.898399166666664, "fusion_lon": 0.0, "fusion_lat": 0.0, "type": "electric_scooter", "name": "6fad998b0a58075d749052d0058f35b6", "is_disabled": 0, "rental_uris": {"ios": "https://dc.lft.to/lastmile_qr_scan", "android": "https://dc.lft.to/lastmile_qr_scan"}, "is_reserved": 0}, {"lon": -77.0460815, "bike_id": "f13ae24334de9269acfcec45e14de1a3", "lat": 38.916129, "fusion_lon": 0.0, "fusion_lat": 0.0, "type": "electric_scooter", "name": "f13ae24334de9269acfcec45e14de1a3", "is_disabled": 0, "rental_uris": {"ios": "https://dc.lft.to/lastmile_qr_scan", "android": "https://dc.lft.to/lastmile_qr_scan"}, "is_reserved": 0}, {"lon": -77.023967, "bike_id": "765d672379a8c00da3cc95f7c6c0ec57", "lat": 38.919959, "fusion_lon": 0.0, "fusion_lat": 0.0, "type": "electric_scooter", "name": "765d672379a8c00da3cc95f7c6c0ec57", "is_disabled": 0, "rental_uris": {"ios": "https://dc.lft.to/lastmile_qr_scan", "android": "https://dc.lft.to/lastmile_qr_scan"}, "is_reserved": 0}, {"lon": -76.988254, "bike_id": "953c53290672539e654d2fd9d9df6a20", "lat": 38.89076566666667, "fusion_lon": 0.0, "fusion_lat": 0.0, "type": "electric_scooter", "name": "953c53290672539e654d2fd9d9df6a20", "is_disabled": 0, "rental_uris": {"ios": "https://dc.lft.to/lastmile_qr_scan", "android": "https://dc.lft.to/lastmile_qr_scan"}, "is_reserved": 0}, {"lon": -77.05361766666667, "bike_id": "0b2bf424320df520769aff9eabe4164b", "lat": 38.92724416666667, "fusion_lon": 0.0, "fusion_lat": 0.0, "type": "electric_scooter", "name": "0b2bf424320df520769aff9eabe4164b", "is_disabled": 0, "rental_uris": {"ios": "https://dc.lft.to/lastmile_qr_scan", "android": "https://dc.lft.to/lastmile_qr_scan"}, "is_reserved": 0}, {"lon": -77.01526466666667, "bike_id": "71ad48a0c37d59a568723a214650318f", "lat": 38.91763316666667, "fusion_lon": 0.0, "fusion_lat": 0.0, "type": "electric_scooter", "name": "71ad48a0c37d59a568723a214650318f", "is_disabled": 0, "rental_uris": {"ios": "https://dc.lft.to/lastmile_qr_scan", "android": "https://dc.lft.to/lastmile_qr_scan"}, "is_reserved": 0}, {"lon": -77.08978466666667, "bike_id": "b61df53ee1a2d2f2f27a3557747a77ce", "lat": 38.87482283333333, "fusion_lon": 0.0, "fusion_lat": 0.0, "type": "electric_bike", "name": "b61df53ee1a2d2f2f27a3557747a77ce", "is_disabled": 0, "rental_uris": {"ios": "https://dc.lft.to/lastmile_qr_scan", "android": "https://dc.lft.to/lastmile_qr_scan"}, "is_reserved": 0}, {"lon": -77.02171783333333, "bike_id": "0593cd6f6ff047edf77f53e0bb6c8983", "lat": 38.919857666666665, "fusion_lon": 0.0, "fusion_lat": 0.0, "type": "electric_scooter", "name": "0593cd6f6ff047edf77f53e0bb6c8983", "is_disabled": 0, "rental_uris": {"ios": "https://dc.lft.to/lastmile_qr_scan", "android": "https://dc.lft.to/lastmile_qr_scan"}, "is_reserved": 0}, {"lon": -76.98525933333333, "bike_id": "bf5bfe87fe0cec52ef332d4f4900bf17", "lat": 38.9046125, "fusion_lon": 0.0, "fusion_lat": 0.0, "type": "electric_scooter", "name": "bf5bfe87fe0cec52ef332d4f4900bf17", "is_disabled": 0, "rental_uris": {"ios": "https://dc.lft.to/lastmile_qr_scan", "android": "https://dc.lft.to/lastmile_qr_scan"}, "is_reserved": 0}, {"lon": -77.01793916666666, "bike_id": "dc2625656ba884554aca82c871b579b3", "lat": 38.92132066666667, "fusion_lon": 0.0, "fusion_lat": 0.0, "type": "electric_scooter", "name": "dc2625656ba884554aca82c871b579b3", "is_disabled": 0, "rental_uris": {"ios": "https://dc.lft.to/lastmile_qr_scan", "android": "https://dc.lft.to/lastmile_qr_scan"}, "is_reserved": 0}, {"lon": -77.04738916666666, "bike_id": "23eb5632d48fd6aac33881849e36e91b", "lat": 38.917672, "fusion_lon": 0.0, "fusion_lat": 0.0, "type": "electric_scooter", "name": "23eb5632d48fd6aac33881849e36e91b", "is_disabled": 0, "rental_uris": {"ios": "https://dc.lft.to/lastmile_qr_scan", "android": "https://dc.lft.to/lastmile_qr_scan"}, "is_reserved": 0}, {"lon": -77.04816616666666, "bike_id": "41032e3f1939861cc5d686d02951432b", "lat": 38.90729983333333, "fusion_lon": 0.0, "fusion_lat": 0.0, "type": "electric_scooter", "name": "41032e3f1939861cc5d686d02951432b", "is_disabled": 0, "rental_uris": {"ios": "https://dc.lft.to/lastmile_qr_scan", "android": "https://dc.lft.to/lastmile_qr_scan"}, "is_reserved": 0}, {"lon": -77.0223895, "bike_id": "b8f200a254baddcd3174f2dcdbb9582f", "lat": 38.897505333333335, "fusion_lon": 0.0, "fusion_lat": 0.0, "type": "electric_scooter", "name": "b8f200a254baddcd3174f2dcdbb9582f", "is_disabled": 0, "rental_uris": {"ios": "https://dc.lft.to/lastmile_qr_scan", "android": "https://dc.lft.to/lastmile_qr_scan"}, "is_reserved": 0}, {"lon": -77.11708383333334, "bike_id": "193f1c9017fb14cff9003db0d5c4a849", "lat": 38.867446, "fusion_lon": 0.0, "fusion_lat": 0.0, "type": "electric_bike", "name": "193f1c9017fb14cff9003db0d5c4a849", "is_disabled": 0, "rental_uris": {"ios": "https://dc.lft.to/lastmile_qr_scan", "android": "https://dc.lft.to/lastmile_qr_scan"}, "is_reserved": 0}, {"lon": -77.02979816666667, "bike_id": "dc0e35efeb5f2a87ea69dfc4d1f867e7", "lat": 38.907208833333335, "fusion_lon": 0.0, "fusion_lat": 0.0, "type": "electric_scooter", "name": "dc0e35efeb5f2a87ea69dfc4d1f867e7", "is_disabled": 0, "rental_uris": {"ios": "https://dc.lft.to/lastmile_qr_scan", "android": "https://dc.lft.to/lastmile_qr_scan"}, "is_reserved": 0}, {"lon": -77.01347483333333, "bike_id": "74f18cb4c862009e82ee7107f650ab6b", "lat": 38.87811166666667, "fusion_lon": 0.0, "fusion_lat": 0.0, "type": "electric_scooter", "name": "74f18cb4c862009e82ee7107f650ab6b", "is_disabled": 0, "rental_uris": {"ios": "https://dc.lft.to/lastmile_qr_scan", "android": "https://dc.lft.to/lastmile_qr_scan"}, "is_reserved": 0}, {"lon": -77.027018, "bike_id": "b0c5309e7775a26ac3db7f46392097b5", "lat": 38.90660316666666, "fusion_lon": 0.0, "fusion_lat": 0.0, "type": "electric_scooter", "name": "b0c5309e7775a26ac3db7f46392097b5", "is_disabled": 0, "rental_uris": {"ios": "https://dc.lft.to/lastmile_qr_scan", "android": "https://dc.lft.to/lastmile_qr_scan"}, "is_reserved": 0}, {"lon": -77.05042783333333, "bike_id": "b83d41c882192faeea7f0351e91c3241", "lat": 38.923613333333336, "fusion_lon": 0.0, "fusion_lat": 0.0, "type": "electric_scooter", "name": "b83d41c882192faeea7f0351e91c3241", "is_disabled": 0, "rental_uris": {"ios": "https://dc.lft.to/lastmile_qr_scan", "android": "https://dc.lft.to/lastmile_qr_scan"}, "is_reserved": 0}, {"lon": -76.99146966666666, "bike_id": "765c4addab74c2e6941b06f9df778695", "lat": 38.882254833333334, "fusion_lon": 0.0, "fusion_lat": 0.0, "type": "electric_scooter", "name": "765c4addab74c2e6941b06f9df778695", "is_disabled": 0, "rental_uris": {"ios": "https://dc.lft.to/lastmile_qr_scan", "android": "https://dc.lft.to/lastmile_qr_scan"}, "is_reserved": 0}, {"lon": -77.02970566666667, "bike_id": "edc550682229c710203f0361c84bd08a", "lat": 38.89712033333333, "fusion_lon": 0.0, "fusion_lat": 0.0, "type": "electric_scooter", "name": "edc550682229c710203f0361c84bd08a", "is_disabled": 0, "rental_uris": {"ios": "https://dc.lft.to/lastmile_qr_scan", "android": "https://dc.lft.to/lastmile_qr_scan"}, "is_reserved": 0}, {"lon": -77.02004533333333, "bike_id": "c53363c6d41f75650c1d83126281ab8a", "lat": 38.93112416666666, "fusion_lon": 0.0, "fusion_lat": 0.0, "type": "electric_scooter", "name": "c53363c6d41f75650c1d83126281ab8a", "is_disabled": 0, "rental_uris": {"ios": "https://dc.lft.to/lastmile_qr_scan", "android": "https://dc.lft.to/lastmile_qr_scan"}, "is_reserved": 0}, {"lon": -77.03260516666667, "bike_id": "fa492ee065e1d4d6859f49f6cfa2bcce", "lat": 38.9284625, "fusion_lon": 0.0, "fusion_lat": 0.0, "type": "electric_scooter", "name": "fa492ee065e1d4d6859f49f6cfa2bcce", "is_disabled": 0, "rental_uris": {"ios": "https://dc.lft.to/lastmile_qr_scan", "android": "https://dc.lft.to/lastmile_qr_scan"}, "is_reserved": 0}, {"lon": -77.04276416666667, "bike_id": "a75d5d68a635a5297d8cb9e846669b3e", "lat": 38.92245333333334, "fusion_lon": 0.0, "fusion_lat": 0.0, "type": "electric_scooter", "name": "a75d5d68a635a5297d8cb9e846669b3e", "is_disabled": 0, "rental_uris": {"ios": "https://dc.lft.to/lastmile_qr_scan", "android": "https://dc.lft.to/lastmile_qr_scan"}, "is_reserved": 0}, {"lon": -77.025882, "bike_id": "c40929e09967ce98fe9c766415609d8e", "lat": 38.89232366666667, "fusion_lon": 0.0, "fusion_lat": 0.0, "type": "electric_scooter", "name": "c40929e09967ce98fe9c766415609d8e", "is_disabled": 0, "rental_uris": {"ios": "https://dc.lft.to/lastmile_qr_scan", "android": "https://dc.lft.to/lastmile_qr_scan"}, "is_reserved": 0}, {"lon": -77.0273355, "bike_id": "078de98ba57eda7dae636e29aeca2ede", "lat": 38.9438435, "fusion_lon": 0.0, "fusion_lat": 0.0, "type": "electric_scooter", "name": "078de98ba57eda7dae636e29aeca2ede", "is_disabled": 0, "rental_uris": {"ios": "https://dc.lft.to/lastmile_qr_scan", "android": "https://dc.lft.to/lastmile_qr_scan"}, "is_reserved": 0}, {"lon": -77.049593, "bike_id": "51dd48ffadbff4dc8d8a2e72713b7630", "lat": 38.898292833333336, "fusion_lon": 0.0, "fusion_lat": 0.0, "type": "electric_scooter", "name": "51dd48ffadbff4dc8d8a2e72713b7630", "is_disabled": 0, "rental_uris": {"ios": "https://dc.lft.to/lastmile_qr_scan", "android": "https://dc.lft.to/lastmile_qr_scan"}, "is_reserved": 0}, {"lon": -76.9732975, "bike_id": "b98c56fe85ead299d6c8940a3ff339f2", "lat": 38.90411483333333, "fusion_lon": 0.0, "fusion_lat": 0.0, "type": "electric_scooter", "name": "b98c56fe85ead299d6c8940a3ff339f2", "is_disabled": 0, "rental_uris": {"ios": "https://dc.lft.to/lastmile_qr_scan", "android": "https://dc.lft.to/lastmile_qr_scan"}, "is_reserved": 0}, {"lon": -77.04581183333333, "bike_id": "4dbe3cedd32c1c38fed0a1cfc6eeb4b5", "lat": 38.91923516666667, "fusion_lon": 0.0, "fusion_lat": 0.0, "type": "electric_scooter", "name": "4dbe3cedd32c1c38fed0a1cfc6eeb4b5", "is_disabled": 0, "rental_uris": {"ios": "https://dc.lft.to/lastmile_qr_scan", "android": "https://dc.lft.to/lastmile_qr_scan"}, "is_reserved": 0}, {"lon": -77.03660483333333, "bike_id": "55261fbaf5cf0103b7f9f6aa2a7eecfd", "lat": 38.917552, "fusion_lon": 0.0, "fusion_lat": 0.0, "type": "electric_scooter", "name": "55261fbaf5cf0103b7f9f6aa2a7eecfd", "is_disabled": 0, "rental_uris": {"ios": "https://dc.lft.to/lastmile_qr_scan", "android": "https://dc.lft.to/lastmile_qr_scan"}, "is_reserved": 0}, {"lon": -77.10593483333334, "bike_id": "234edb8fbd209fe29f23c89e2031b01b", "lat": 38.90388816666667, "fusion_lon": 0.0, "fusion_lat": 0.0, "type": "electric_bike", "name": "234edb8fbd209fe29f23c89e2031b01b", "is_disabled": 0, "rental_uris": {"ios": "https://dc.lft.to/lastmile_qr_scan", "android": "https://dc.lft.to/lastmile_qr_scan"}, "is_reserved": 0}, {"lon": -77.02418783333333, "bike_id": "dd001f0eea965fc5c139e7d0538ca81d", "lat": 38.92653983333334, "fusion_lon": 0.0, "fusion_lat": 0.0, "type": "electric_scooter", "name": "dd001f0eea965fc5c139e7d0538ca81d", "is_disabled": 0, "rental_uris": {"ios": "https://dc.lft.to/lastmile_qr_scan", "android": "https://dc.lft.to/lastmile_qr_scan"}, "is_reserved": 0}, {"lon": -77.04131283333334, "bike_id": "df30a76b2767b7c7a289f8a0f51d8d42", "lat": 38.90616633333333, "fusion_lon": 0.0, "fusion_lat": 0.0, "type": "electric_scooter", "name": "df30a76b2767b7c7a289f8a0f51d8d42", "is_disabled": 0, "rental_uris": {"ios": "https://dc.lft.to/lastmile_qr_scan", "android": "https://dc.lft.to/lastmile_qr_scan"}, "is_reserved": 0}, {"lon": -77.0351675, "bike_id": "ca3e9019a8579e4cffa67f0c8b9e2d66", "lat": 38.9234065, "fusion_lon": 0.0, "fusion_lat": 0.0, "type": "electric_scooter", "name": "ca3e9019a8579e4cffa67f0c8b9e2d66", "is_disabled": 0, "rental_uris": {"ios": "https://dc.lft.to/lastmile_qr_scan", "android": "https://dc.lft.to/lastmile_qr_scan"}, "is_reserved": 0}, {"lon": -77.011997, "bike_id": "1d25fd8147af04dddd903a68be5ab1c6", "lat": 38.91917983333333, "fusion_lon": 0.0, "fusion_lat": 0.0, "type": "electric_scooter", "name": "1d25fd8147af04dddd903a68be5ab1c6", "is_disabled": 0, "rental_uris": {"ios": "https://dc.lft.to/lastmile_qr_scan", "android": "https://dc.lft.to/lastmile_qr_scan"}, "is_reserved": 0}, {"lon": -77.024349, "bike_id": "c8e686dba6c513c1d9c1d67bfc09e79c", "lat": 38.9169525, "fusion_lon": 0.0, "fusion_lat": 0.0, "type": "electric_scooter", "name": "c8e686dba6c513c1d9c1d67bfc09e79c", "is_disabled": 0, "rental_uris": {"ios": "https://dc.lft.to/lastmile_qr_scan", "android": "https://dc.lft.to/lastmile_qr_scan"}, "is_reserved": 0}, {"lon": -77.02203583333333, "bike_id": "cd522fb8087d5d95d1dac617ae44b5d8", "lat": 38.90053666666667, "fusion_lon": 0.0, "fusion_lat": 0.0, "type": "electric_scooter", "name": "cd522fb8087d5d95d1dac617ae44b5d8", "is_disabled": 0, "rental_uris": {"ios": "https://dc.lft.to/lastmile_qr_scan", "android": "https://dc.lft.to/lastmile_qr_scan"}, "is_reserved": 0}, {"lon": -77.0113055, "bike_id": "936ef7596bd0381b88ba95abd5680ffc", "lat": 38.88527216666667, "fusion_lon": 0.0, "fusion_lat": 0.0, "type": "electric_scooter", "name": "936ef7596bd0381b88ba95abd5680ffc", "is_disabled": 0, "rental_uris": {"ios": "https://dc.lft.to/lastmile_qr_scan", "android": "https://dc.lft.to/lastmile_qr_scan"}, "is_reserved": 0}, {"lon": -77.047819, "bike_id": "fb7d2a6b555bdf6ecb46b7e7042457c6", "lat": 38.912338166666665, "fusion_lon": 0.0, "fusion_lat": 0.0, "type": "electric_scooter", "name": "fb7d2a6b555bdf6ecb46b7e7042457c6", "is_disabled": 0, "rental_uris": {"ios": "https://dc.lft.to/lastmile_qr_scan", "android": "https://dc.lft.to/lastmile_qr_scan"}, "is_reserved": 0}, {"lon": -77.07411733333333, "bike_id": "ffd3bf7d5c89a0ef846f57f8d88bc151", "lat": 38.96278816666667, "fusion_lon": 0.0, "fusion_lat": 0.0, "type": "electric_scooter", "name": "ffd3bf7d5c89a0ef846f57f8d88bc151", "is_disabled": 0, "rental_uris": {"ios": "https://dc.lft.to/lastmile_qr_scan", "android": "https://dc.lft.to/lastmile_qr_scan"}, "is_reserved": 0}, {"lon": -77.02305866666667, "bike_id": "c01b4dab5eeafa5093fddfaddd8ac4c0", "lat": 38.927273666666665, "fusion_lon": 0.0, "fusion_lat": 0.0, "type": "electric_scooter", "name": "c01b4dab5eeafa5093fddfaddd8ac4c0", "is_disabled": 0, "rental_uris": {"ios": "https://dc.lft.to/lastmile_qr_scan", "android": "https://dc.lft.to/lastmile_qr_scan"}, "is_reserved": 0}, {"lon": -77.02837183333334, "bike_id": "8844c8c778315fa60b1a53e70e6e60bc", "lat": 38.88769116666667, "fusion_lon": 0.0, "fusion_lat": 0.0, "type": "electric_scooter", "name": "8844c8c778315fa60b1a53e70e6e60bc", "is_disabled": 0, "rental_uris": {"ios": "https://dc.lft.to/lastmile_qr_scan", "android": "https://dc.lft.to/lastmile_qr_scan"}, "is_reserved": 0}, {"lon": -76.94199183333333, "bike_id": "c43a100adc9543b32e6ba04da19ff679", "lat": 38.893756333333336, "fusion_lon": 0.0, "fusion_lat": 0.0, "type": "electric_scooter", "name": "c43a100adc9543b32e6ba04da19ff679", "is_disabled": 0, "rental_uris": {"ios": "https://dc.lft.to/lastmile_qr_scan", "android": "https://dc.lft.to/lastmile_qr_scan"}, "is_reserved": 0}, {"lon": -77.0450805, "bike_id": "c40dc6d7c7a449c550bb50dbabdb5d8a", "lat": 38.9051205, "fusion_lon": 0.0, "fusion_lat": 0.0, "type": "electric_scooter", "name": "c40dc6d7c7a449c550bb50dbabdb5d8a", "is_disabled": 0, "rental_uris": {"ios": "https://dc.lft.to/lastmile_qr_scan", "android": "https://dc.lft.to/lastmile_qr_scan"}, "is_reserved": 0}, {"lon": -77.00006716666667, "bike_id": "73dac1db0f1506562e30dad1f1025936", "lat": 38.89740116666667, "fusion_lon": 0.0, "fusion_lat": 0.0, "type": "electric_scooter", "name": "73dac1db0f1506562e30dad1f1025936", "is_disabled": 0, "rental_uris": {"ios": "https://dc.lft.to/lastmile_qr_scan", "android": "https://dc.lft.to/lastmile_qr_scan"}, "is_reserved": 0}, {"lon": -76.94676783333334, "bike_id": "d02499c62d13ffd6b8b82474913e2129", "lat": 38.88625233333333, "fusion_lon": 0.0, "fusion_lat": 0.0, "type": "electric_scooter", "name": "d02499c62d13ffd6b8b82474913e2129", "is_disabled": 0, "rental_uris": {"ios": "https://dc.lft.to/lastmile_qr_scan", "android": "https://dc.lft.to/lastmile_qr_scan"}, "is_reserved": 0}, {"lon": -77.0180575, "bike_id": "3e1bed853df6f4b8c2bad11afb0eaf8b", "lat": 38.92033133333334, "fusion_lon": 0.0, "fusion_lat": 0.0, "type": "electric_scooter", "name": "3e1bed853df6f4b8c2bad11afb0eaf8b", "is_disabled": 0, "rental_uris": {"ios": "https://dc.lft.to/lastmile_qr_scan", "android": "https://dc.lft.to/lastmile_qr_scan"}, "is_reserved": 0}, {"lon": -77.0412815, "bike_id": "ab2835b01704803ecd864868c5944395", "lat": 38.915547833333335, "fusion_lon": 0.0, "fusion_lat": 0.0, "type": "electric_scooter", "name": "ab2835b01704803ecd864868c5944395", "is_disabled": 0, "rental_uris": {"ios": "https://dc.lft.to/lastmile_qr_scan", "android": "https://dc.lft.to/lastmile_qr_scan"}, "is_reserved": 0}, {"lon": -76.96524983333333, "bike_id": "be4d6301308378340873480fd98a0ec5", "lat": 38.876327, "fusion_lon": 0.0, "fusion_lat": 0.0, "type": "electric_scooter", "name": "be4d6301308378340873480fd98a0ec5", "is_disabled": 0, "rental_uris": {"ios": "https://dc.lft.to/lastmile_qr_scan", "android": "https://dc.lft.to/lastmile_qr_scan"}, "is_reserved": 0}, {"lon": -77.02807766666666, "bike_id": "786814e46f85c73987fb02590454bd6a", "lat": 38.907421666666664, "fusion_lon": 0.0, "fusion_lat": 0.0, "type": "electric_scooter", "name": "786814e46f85c73987fb02590454bd6a", "is_disabled": 0, "rental_uris": {"ios": "https://dc.lft.to/lastmile_qr_scan", "android": "https://dc.lft.to/lastmile_qr_scan"}, "is_reserved": 0}, {"lon": -77.10843783333333, "bike_id": "fc703efc64e3fc7a7c1e2985eddb1aa3", "lat": 38.812044666666665, "fusion_lon": 0.0, "fusion_lat": 0.0, "type": "electric_bike", "name": "fc703efc64e3fc7a7c1e2985eddb1aa3", "is_disabled": 0, "rental_uris": {"ios": "https://dc.lft.to/lastmile_qr_scan", "android": "https://dc.lft.to/lastmile_qr_scan"}, "is_reserved": 0}, {"lon": -76.99758, "bike_id": "89b01d596a697553fd61542e5147affe", "lat": 38.8876635, "fusion_lon": 0.0, "fusion_lat": 0.0, "type": "electric_scooter", "name": "89b01d596a697553fd61542e5147affe", "is_disabled": 0, "rental_uris": {"ios": "https://dc.lft.to/lastmile_qr_scan", "android": "https://dc.lft.to/lastmile_qr_scan"}, "is_reserved": 0}, {"lon": -77.01515333333333, "bike_id": "b606db5199b2ae59c52ebbc251916bc7", "lat": 38.884980166666665, "fusion_lon": 0.0, "fusion_lat": 0.0, "type": "electric_scooter", "name": "b606db5199b2ae59c52ebbc251916bc7", "is_disabled": 0, "rental_uris": {"ios": "https://dc.lft.to/lastmile_qr_scan", "android": "https://dc.lft.to/lastmile_qr_scan"}, "is_reserved": 0}, {"lon": -77.065796, "bike_id": "c98fe250a35889331ec2db8f2b504aac", "lat": 38.91136783333334, "fusion_lon": 0.0, "fusion_lat": 0.0, "type": "electric_bike", "name": "c98fe250a35889331ec2db8f2b504aac", "is_disabled": 0, "rental_uris": {"ios": "https://dc.lft.to/lastmile_qr_scan", "android": "https://dc.lft.to/lastmile_qr_scan"}, "is_reserved": 0}, {"lon": -77.03421583333333, "bike_id": "12ee233e075d0b350bcfc8a58c4172d5", "lat": 38.92736216666667, "fusion_lon": 0.0, "fusion_lat": 0.0, "type": "electric_scooter", "name": "12ee233e075d0b350bcfc8a58c4172d5", "is_disabled": 0, "rental_uris": {"ios": "https://dc.lft.to/lastmile_qr_scan", "android": "https://dc.lft.to/lastmile_qr_scan"}, "is_reserved": 0}, {"lon": -76.98840566666667, "bike_id": "3cff22712d416c2afdc780248858684e", "lat": 38.89667566666667, "fusion_lon": 0.0, "fusion_lat": 0.0, "type": "electric_scooter", "name": "3cff22712d416c2afdc780248858684e", "is_disabled": 0, "rental_uris": {"ios": "https://dc.lft.to/lastmile_qr_scan", "android": "https://dc.lft.to/lastmile_qr_scan"}, "is_reserved": 0}, {"lon": -77.05755, "bike_id": "6aa6d0db648a00302220a35c4a70c286", "lat": 38.9249415, "fusion_lon": 0.0, "fusion_lat": 0.0, "type": "electric_bike", "name": "6aa6d0db648a00302220a35c4a70c286", "is_disabled": 0, "rental_uris": {"ios": "https://dc.lft.to/lastmile_qr_scan", "android": "https://dc.lft.to/lastmile_qr_scan"}, "is_reserved": 0}, {"lon": -77.03269366666666, "bike_id": "c34daf10d40b9bf6edd4ddd5f5581060", "lat": 38.904477, "fusion_lon": 0.0, "fusion_lat": 0.0, "type": "electric_scooter", "name": "c34daf10d40b9bf6edd4ddd5f5581060", "is_disabled": 0, "rental_uris": {"ios": "https://dc.lft.to/lastmile_qr_scan", "android": "https://dc.lft.to/lastmile_qr_scan"}, "is_reserved": 0}, {"lon": -76.97860383333334, "bike_id": "74057684b431dde841f944c02ff81f37", "lat": 38.8707205, "fusion_lon": 0.0, "fusion_lat": 0.0, "type": "electric_scooter", "name": "74057684b431dde841f944c02ff81f37", "is_disabled": 0, "rental_uris": {"ios": "https://dc.lft.to/lastmile_qr_scan", "android": "https://dc.lft.to/lastmile_qr_scan"}, "is_reserved": 0}, {"lon": -77.029499, "bike_id": "23e9ba31db3d6a002d61e6d1527124ab", "lat": 38.921768, "fusion_lon": 0.0, "fusion_lat": 0.0, "type": "electric_scooter", "name": "23e9ba31db3d6a002d61e6d1527124ab", "is_disabled": 0, "rental_uris": {"ios": "https://dc.lft.to/lastmile_qr_scan", "android": "https://dc.lft.to/lastmile_qr_scan"}, "is_reserved": 0}, {"lon": -77.0216725, "bike_id": "69c69a4bec3093150b40b416fc220fee", "lat": 38.88754733333333, "fusion_lon": 0.0, "fusion_lat": 0.0, "type": "electric_scooter", "name": "69c69a4bec3093150b40b416fc220fee", "is_disabled": 0, "rental_uris": {"ios": "https://dc.lft.to/lastmile_qr_scan", "android": "https://dc.lft.to/lastmile_qr_scan"}, "is_reserved": 0}, {"lon": -77.01787166666666, "bike_id": "d15076ffb7dd076458ce24ed3334c9fd", "lat": 38.9014295, "fusion_lon": 0.0, "fusion_lat": 0.0, "type": "electric_scooter", "name": "d15076ffb7dd076458ce24ed3334c9fd", "is_disabled": 0, "rental_uris": {"ios": "https://dc.lft.to/lastmile_qr_scan", "android": "https://dc.lft.to/lastmile_qr_scan"}, "is_reserved": 0}, {"lon": -77.02648833333333, "bike_id": "5c15697d9d4502f9593deaac913d720c", "lat": 38.9309765, "fusion_lon": 0.0, "fusion_lat": 0.0, "type": "electric_scooter", "name": "5c15697d9d4502f9593deaac913d720c", "is_disabled": 0, "rental_uris": {"ios": "https://dc.lft.to/lastmile_qr_scan", "android": "https://dc.lft.to/lastmile_qr_scan"}, "is_reserved": 0}, {"lon": -77.00188833333333, "bike_id": "d13078a48d6117953401a52308b9811a", "lat": 38.91481183333333, "fusion_lon": 0.0, "fusion_lat": 0.0, "type": "electric_scooter", "name": "d13078a48d6117953401a52308b9811a", "is_disabled": 0, "rental_uris": {"ios": "https://dc.lft.to/lastmile_qr_scan", "android": "https://dc.lft.to/lastmile_qr_scan"}, "is_reserved": 0}, {"lon": -77.00568716666666, "bike_id": "f31eed951cb8080e061c38bf82f09b42", "lat": 38.905665, "fusion_lon": 0.0, "fusion_lat": 0.0, "type": "electric_scooter", "name": "f31eed951cb8080e061c38bf82f09b42", "is_disabled": 0, "rental_uris": {"ios": "https://dc.lft.to/lastmile_qr_scan", "android": "https://dc.lft.to/lastmile_qr_scan"}, "is_reserved": 0}, {"lon": -77.02378233333333, "bike_id": "6718dd09dd08f461d4b4c7d321181d79", "lat": 38.901045, "fusion_lon": 0.0, "fusion_lat": 0.0, "type": "electric_scooter", "name": "6718dd09dd08f461d4b4c7d321181d79", "is_disabled": 0, "rental_uris": {"ios": "https://dc.lft.to/lastmile_qr_scan", "android": "https://dc.lft.to/lastmile_qr_scan"}, "is_reserved": 0}, {"lon": -77.0364815, "bike_id": "dadf506848ada28e3208cbc894d20c9a", "lat": 38.93614866666667, "fusion_lon": 0.0, "fusion_lat": 0.0, "type": "electric_scooter", "name": "dadf506848ada28e3208cbc894d20c9a", "is_disabled": 0, "rental_uris": {"ios": "https://dc.lft.to/lastmile_qr_scan", "android": "https://dc.lft.to/lastmile_qr_scan"}, "is_reserved": 0}, {"lon": -77.02449233333333, "bike_id": "b93df013f512d17190ac9d0bd7b96ca9", "lat": 38.899854500000004, "fusion_lon": 0.0, "fusion_lat": 0.0, "type": "electric_scooter", "name": "b93df013f512d17190ac9d0bd7b96ca9", "is_disabled": 0, "rental_uris": {"ios": "https://dc.lft.to/lastmile_qr_scan", "android": "https://dc.lft.to/lastmile_qr_scan"}, "is_reserved": 0}, {"lon": -77.03639333333334, "bike_id": "aaf64eb5746609c8cbd72cc53e444440", "lat": 38.9234675, "fusion_lon": 0.0, "fusion_lat": 0.0, "type": "electric_scooter", "name": "aaf64eb5746609c8cbd72cc53e444440", "is_disabled": 0, "rental_uris": {"ios": "https://dc.lft.to/lastmile_qr_scan", "android": "https://dc.lft.to/lastmile_qr_scan"}, "is_reserved": 0}, {"lon": -77.02363116666666, "bike_id": "a108c08593d11e142c21add42cfd0370", "lat": 38.920740333333335, "fusion_lon": 0.0, "fusion_lat": 0.0, "type": "electric_scooter", "name": "a108c08593d11e142c21add42cfd0370", "is_disabled": 0, "rental_uris": {"ios": "https://dc.lft.to/lastmile_qr_scan", "android": "https://dc.lft.to/lastmile_qr_scan"}, "is_reserved": 0}, {"lon": -77.0640445, "bike_id": "2c225dc0ffe4219384cfa86ea425ed96", "lat": 38.84066816666667, "fusion_lon": 0.0, "fusion_lat": 0.0, "type": "electric_bike", "name": "2c225dc0ffe4219384cfa86ea425ed96", "is_disabled": 0, "rental_uris": {"ios": "https://dc.lft.to/lastmile_qr_scan", "android": "https://dc.lft.to/lastmile_qr_scan"}, "is_reserved": 0}, {"lon": -77.02160183333334, "bike_id": "49a6918954562a74a36db8d4f13766bb", "lat": 38.909716, "fusion_lon": 0.0, "fusion_lat": 0.0, "type": "electric_scooter", "name": "49a6918954562a74a36db8d4f13766bb", "is_disabled": 0, "rental_uris": {"ios": "https://dc.lft.to/lastmile_qr_scan", "android": "https://dc.lft.to/lastmile_qr_scan"}, "is_reserved": 0}, {"lon": -77.04093866666666, "bike_id": "8b3ab200191bb738a9fe190b0e76e184", "lat": 38.92311566666667, "fusion_lon": 0.0, "fusion_lat": 0.0, "type": "electric_scooter", "name": "8b3ab200191bb738a9fe190b0e76e184", "is_disabled": 0, "rental_uris": {"ios": "https://dc.lft.to/lastmile_qr_scan", "android": "https://dc.lft.to/lastmile_qr_scan"}, "is_reserved": 0}, {"lon": -76.98244166666667, "bike_id": "2297f9fe8461d442d4a653323858431a", "lat": 38.86460616666667, "fusion_lon": 0.0, "fusion_lat": 0.0, "type": "electric_scooter", "name": "2297f9fe8461d442d4a653323858431a", "is_disabled": 0, "rental_uris": {"ios": "https://dc.lft.to/lastmile_qr_scan", "android": "https://dc.lft.to/lastmile_qr_scan"}, "is_reserved": 0}, {"lon": -77.04698733333333, "bike_id": "8f6dfa9f4ee1c3c841a07f6b5082e211", "lat": 38.919084, "fusion_lon": 0.0, "fusion_lat": 0.0, "type": "electric_scooter", "name": "8f6dfa9f4ee1c3c841a07f6b5082e211", "is_disabled": 0, "rental_uris": {"ios": "https://dc.lft.to/lastmile_qr_scan", "android": "https://dc.lft.to/lastmile_qr_scan"}, "is_reserved": 0}, {"lon": -77.04250833333333, "bike_id": "e445ee8505f112c7d16f637593ae6871", "lat": 38.922046333333334, "fusion_lon": 0.0, "fusion_lat": 0.0, "type": "electric_scooter", "name": "e445ee8505f112c7d16f637593ae6871", "is_disabled": 0, "rental_uris": {"ios": "https://dc.lft.to/lastmile_qr_scan", "android": "https://dc.lft.to/lastmile_qr_scan"}, "is_reserved": 0}, {"lon": -77.03062183333333, "bike_id": "a6d513975336214eadddce3c7b46a2fa", "lat": 38.924750333333336, "fusion_lon": 0.0, "fusion_lat": 0.0, "type": "electric_scooter", "name": "a6d513975336214eadddce3c7b46a2fa", "is_disabled": 0, "rental_uris": {"ios": "https://dc.lft.to/lastmile_qr_scan", "android": "https://dc.lft.to/lastmile_qr_scan"}, "is_reserved": 0}, {"lon": -77.00183916666667, "bike_id": "7939d3bef2693b5f2f557f98405f80fe", "lat": 38.894753, "fusion_lon": 0.0, "fusion_lat": 0.0, "type": "electric_scooter", "name": "7939d3bef2693b5f2f557f98405f80fe", "is_disabled": 0, "rental_uris": {"ios": "https://dc.lft.to/lastmile_qr_scan", "android": "https://dc.lft.to/lastmile_qr_scan"}, "is_reserved": 0}, {"lon": -77.02165216666667, "bike_id": "72c8f503f39f087f4a873dfe1e08b81d", "lat": 38.90083383333333, "fusion_lon": 0.0, "fusion_lat": 0.0, "type": "electric_scooter", "name": "72c8f503f39f087f4a873dfe1e08b81d", "is_disabled": 0, "rental_uris": {"ios": "https://dc.lft.to/lastmile_qr_scan", "android": "https://dc.lft.to/lastmile_qr_scan"}, "is_reserved": 0}, {"lon": -77.01499933333334, "bike_id": "a7e8be7a0453354da600c8eed8e22bbb", "lat": 38.945339, "fusion_lon": 0.0, "fusion_lat": 0.0, "type": "electric_scooter", "name": "a7e8be7a0453354da600c8eed8e22bbb", "is_disabled": 0, "rental_uris": {"ios": "https://dc.lft.to/lastmile_qr_scan", "android": "https://dc.lft.to/lastmile_qr_scan"}, "is_reserved": 0}, {"lon": -76.98556966666666, "bike_id": "9a53854050124257836183b27c177027", "lat": 38.910351, "fusion_lon": 0.0, "fusion_lat": 0.0, "type": "electric_scooter", "name": "9a53854050124257836183b27c177027", "is_disabled": 0, "rental_uris": {"ios": "https://dc.lft.to/lastmile_qr_scan", "android": "https://dc.lft.to/lastmile_qr_scan"}, "is_reserved": 0}, {"lon": -77.001126, "bike_id": "76ad01e5eeb422b486fb77e83e0e0c96", "lat": 38.919685333333334, "fusion_lon": 0.0, "fusion_lat": 0.0, "type": "electric_scooter", "name": "76ad01e5eeb422b486fb77e83e0e0c96", "is_disabled": 0, "rental_uris": {"ios": "https://dc.lft.to/lastmile_qr_scan", "android": "https://dc.lft.to/lastmile_qr_scan"}, "is_reserved": 0}, {"lon": -76.981043, "bike_id": "a631261425ae7e74118cd88816852735", "lat": 38.87730533333333, "fusion_lon": 0.0, "fusion_lat": 0.0, "type": "electric_bike", "name": "a631261425ae7e74118cd88816852735", "is_disabled": 0, "rental_uris": {"ios": "https://dc.lft.to/lastmile_qr_scan", "android": "https://dc.lft.to/lastmile_qr_scan"}, "is_reserved": 0}, {"lon": -77.00593516666666, "bike_id": "fb7a26a5d1897d87c631f529c4fc5737", "lat": 38.90035266666667, "fusion_lon": 0.0, "fusion_lat": 0.0, "type": "electric_scooter", "name": "fb7a26a5d1897d87c631f529c4fc5737", "is_disabled": 0, "rental_uris": {"ios": "https://dc.lft.to/lastmile_qr_scan", "android": "https://dc.lft.to/lastmile_qr_scan"}, "is_reserved": 0}, {"lon": -76.99786266666666, "bike_id": "150d7ea32a2bd97ec075de79b3a8dc8e", "lat": 38.890926666666665, "fusion_lon": 0.0, "fusion_lat": 0.0, "type": "electric_scooter", "name": "150d7ea32a2bd97ec075de79b3a8dc8e", "is_disabled": 0, "rental_uris": {"ios": "https://dc.lft.to/lastmile_qr_scan", "android": "https://dc.lft.to/lastmile_qr_scan"}, "is_reserved": 0}, {"lon": -77.02939683333334, "bike_id": "d3b7236c84f2c937a46d159242a8f6a4", "lat": 38.90508283333333, "fusion_lon": 0.0, "fusion_lat": 0.0, "type": "electric_scooter", "name": "d3b7236c84f2c937a46d159242a8f6a4", "is_disabled": 0, "rental_uris": {"ios": "https://dc.lft.to/lastmile_qr_scan", "android": "https://dc.lft.to/lastmile_qr_scan"}, "is_reserved": 0}, {"lon": -77.011896, "bike_id": "3a7cdbce150ec5c98c597feba68ef3ae", "lat": 38.915568666666665, "fusion_lon": 0.0, "fusion_lat": 0.0, "type": "electric_scooter", "name": "3a7cdbce150ec5c98c597feba68ef3ae", "is_disabled": 0, "rental_uris": {"ios": "https://dc.lft.to/lastmile_qr_scan", "android": "https://dc.lft.to/lastmile_qr_scan"}, "is_reserved": 0}, {"lon": -77.0000645, "bike_id": "a70053a38e1bdcf31e3d541aeeff041c", "lat": 38.875032166666664, "fusion_lon": 0.0, "fusion_lat": 0.0, "type": "electric_scooter", "name": "a70053a38e1bdcf31e3d541aeeff041c", "is_disabled": 0, "rental_uris": {"ios": "https://dc.lft.to/lastmile_qr_scan", "android": "https://dc.lft.to/lastmile_qr_scan"}, "is_reserved": 0}, {"lon": -77.04176333333334, "bike_id": "de99fce37b0068907f9e9abf853b9588", "lat": 38.917713666666664, "fusion_lon": 0.0, "fusion_lat": 0.0, "type": "electric_scooter", "name": "de99fce37b0068907f9e9abf853b9588", "is_disabled": 0, "rental_uris": {"ios": "https://dc.lft.to/lastmile_qr_scan", "android": "https://dc.lft.to/lastmile_qr_scan"}, "is_reserved": 0}, {"lon": -77.0172915, "bike_id": "511df34064d081abb801b9ad5bf902b7", "lat": 38.872745, "fusion_lon": 0.0, "fusion_lat": 0.0, "type": "electric_scooter", "name": "511df34064d081abb801b9ad5bf902b7", "is_disabled": 0, "rental_uris": {"ios": "https://dc.lft.to/lastmile_qr_scan", "android": "https://dc.lft.to/lastmile_qr_scan"}, "is_reserved": 0}, {"lon": -77.12222616666666, "bike_id": "458969029c7bdb68407dc3eb1567d800", "lat": 38.8530065, "fusion_lon": 0.0, "fusion_lat": 0.0, "type": "electric_bike", "name": "458969029c7bdb68407dc3eb1567d800", "is_disabled": 0, "rental_uris": {"ios": "https://dc.lft.to/lastmile_qr_scan", "android": "https://dc.lft.to/lastmile_qr_scan"}, "is_reserved": 0}, {"lon": -77.03859, "bike_id": "61c784eaebc7ca8c37edd9ec308128b0", "lat": 38.91559083333333, "fusion_lon": 0.0, "fusion_lat": 0.0, "type": "electric_scooter", "name": "61c784eaebc7ca8c37edd9ec308128b0", "is_disabled": 0, "rental_uris": {"ios": "https://dc.lft.to/lastmile_qr_scan", "android": "https://dc.lft.to/lastmile_qr_scan"}, "is_reserved": 0}, {"lon": -76.98229516666666, "bike_id": "2a6a444a54133426d82cafae94880c93", "lat": 38.866276, "fusion_lon": 0.0, "fusion_lat": 0.0, "type": "electric_scooter", "name": "2a6a444a54133426d82cafae94880c93", "is_disabled": 0, "rental_uris": {"ios": "https://dc.lft.to/lastmile_qr_scan", "android": "https://dc.lft.to/lastmile_qr_scan"}, "is_reserved": 0}, {"lon": -76.99043116666667, "bike_id": "a36d98d169bcacd66fe9a30164ad01a7", "lat": 38.88416866666667, "fusion_lon": 0.0, "fusion_lat": 0.0, "type": "electric_scooter", "name": "a36d98d169bcacd66fe9a30164ad01a7", "is_disabled": 0, "rental_uris": {"ios": "https://dc.lft.to/lastmile_qr_scan", "android": "https://dc.lft.to/lastmile_qr_scan"}, "is_reserved": 0}, {"lon": -77.015612, "bike_id": "15a6fb681c97ead2cc30c91cd5cdbda5", "lat": 38.88030333333333, "fusion_lon": 0.0, "fusion_lat": 0.0, "type": "electric_scooter", "name": "15a6fb681c97ead2cc30c91cd5cdbda5", "is_disabled": 0, "rental_uris": {"ios": "https://dc.lft.to/lastmile_qr_scan", "android": "https://dc.lft.to/lastmile_qr_scan"}, "is_reserved": 0}, {"lon": -77.0313635, "bike_id": "e5c199dfc0d15f20664aa65182e5b95e", "lat": 38.915547333333336, "fusion_lon": 0.0, "fusion_lat": 0.0, "type": "electric_scooter", "name": "e5c199dfc0d15f20664aa65182e5b95e", "is_disabled": 0, "rental_uris": {"ios": "https://dc.lft.to/lastmile_qr_scan", "android": "https://dc.lft.to/lastmile_qr_scan"}, "is_reserved": 0}, {"lon": -76.91596233333334, "bike_id": "009fe6326efcaf8caeb3a0a2fbe189db", "lat": 38.87980833333334, "fusion_lon": 0.0, "fusion_lat": 0.0, "type": "electric_bike", "name": "009fe6326efcaf8caeb3a0a2fbe189db", "is_disabled": 0, "rental_uris": {"ios": "https://dc.lft.to/lastmile_qr_scan", "android": "https://dc.lft.to/lastmile_qr_scan"}, "is_reserved": 0}, {"lon": -77.02608833333333, "bike_id": "b06f938564fc99f7c21f6a7f5d059c25", "lat": 38.905177, "fusion_lon": 0.0, "fusion_lat": 0.0, "type": "electric_scooter", "name": "b06f938564fc99f7c21f6a7f5d059c25", "is_disabled": 0, "rental_uris": {"ios": "https://dc.lft.to/lastmile_qr_scan", "android": "https://dc.lft.to/lastmile_qr_scan"}, "is_reserved": 0}, {"lon": -77.03212333333333, "bike_id": "c1a1e8acb99533bb2e469e7d6f93b2dc", "lat": 38.914714333333336, "fusion_lon": 0.0, "fusion_lat": 0.0, "type": "electric_scooter", "name": "c1a1e8acb99533bb2e469e7d6f93b2dc", "is_disabled": 0, "rental_uris": {"ios": "https://dc.lft.to/lastmile_qr_scan", "android": "https://dc.lft.to/lastmile_qr_scan"}, "is_reserved": 0}, {"lon": -77.05887433333334, "bike_id": "c20734ff3ddbad5112d6afc75c4f3cfb", "lat": 38.942449333333336, "fusion_lon": 0.0, "fusion_lat": 0.0, "type": "electric_scooter", "name": "c20734ff3ddbad5112d6afc75c4f3cfb", "is_disabled": 0, "rental_uris": {"ios": "https://dc.lft.to/lastmile_qr_scan", "android": "https://dc.lft.to/lastmile_qr_scan"}, "is_reserved": 0}, {"lon": -77.0604165, "bike_id": "2e0491f9b699d7c85611af313b09d17f", "lat": 38.938293333333334, "fusion_lon": 0.0, "fusion_lat": 0.0, "type": "electric_scooter", "name": "2e0491f9b699d7c85611af313b09d17f", "is_disabled": 0, "rental_uris": {"ios": "https://dc.lft.to/lastmile_qr_scan", "android": "https://dc.lft.to/lastmile_qr_scan"}, "is_reserved": 0}, {"lon": -77.07339333333333, "bike_id": "f340fb41f55a282662ea00e8f99f550d", "lat": 38.91100516666667, "fusion_lon": 0.0, "fusion_lat": 0.0, "type": "electric_scooter", "name": "f340fb41f55a282662ea00e8f99f550d", "is_disabled": 0, "rental_uris": {"ios": "https://dc.lft.to/lastmile_qr_scan", "android": "https://dc.lft.to/lastmile_qr_scan"}, "is_reserved": 0}, {"lon": -77.04566416666667, "bike_id": "467ec0e0b1278b4ec661a83f4b939669", "lat": 38.918315666666665, "fusion_lon": 0.0, "fusion_lat": 0.0, "type": "electric_scooter", "name": "467ec0e0b1278b4ec661a83f4b939669", "is_disabled": 0, "rental_uris": {"ios": "https://dc.lft.to/lastmile_qr_scan", "android": "https://dc.lft.to/lastmile_qr_scan"}, "is_reserved": 0}, {"lon": -76.956517, "bike_id": "3e7f03bafc72cdda765926e545a0e37b", "lat": 38.896138, "fusion_lon": 0.0, "fusion_lat": 0.0, "type": "electric_scooter", "name": "3e7f03bafc72cdda765926e545a0e37b", "is_disabled": 0, "rental_uris": {"ios": "https://dc.lft.to/lastmile_qr_scan", "android": "https://dc.lft.to/lastmile_qr_scan"}, "is_reserved": 0}, {"lon": -77.00475333333333, "bike_id": "6a0f201fcec3105559a06547b9dc6bf9", "lat": 38.895848666666666, "fusion_lon": 0.0, "fusion_lat": 0.0, "type": "electric_scooter", "name": "6a0f201fcec3105559a06547b9dc6bf9", "is_disabled": 0, "rental_uris": {"ios": "https://dc.lft.to/lastmile_qr_scan", "android": "https://dc.lft.to/lastmile_qr_scan"}, "is_reserved": 0}, {"lon": -77.00964466666667, "bike_id": "838dd348db128ffa464aec79c1bd3fa9", "lat": 38.91699466666667, "fusion_lon": 0.0, "fusion_lat": 0.0, "type": "electric_scooter", "name": "838dd348db128ffa464aec79c1bd3fa9", "is_disabled": 0, "rental_uris": {"ios": "https://dc.lft.to/lastmile_qr_scan", "android": "https://dc.lft.to/lastmile_qr_scan"}, "is_reserved": 0}, {"lon": -76.96128583333333, "bike_id": "1e31f97a883fb989620b6400e495dc8a", "lat": 38.94214483333333, "fusion_lon": 0.0, "fusion_lat": 0.0, "type": "electric_bike", "name": "1e31f97a883fb989620b6400e495dc8a", "is_disabled": 0, "rental_uris": {"ios": "https://dc.lft.to/lastmile_qr_scan", "android": "https://dc.lft.to/lastmile_qr_scan"}, "is_reserved": 0}, {"lon": -77.04651216666667, "bike_id": "7be8595350739e952572610b75962d6b", "lat": 39.055005, "fusion_lon": 0.0, "fusion_lat": 0.0, "type": "electric_bike", "name": "7be8595350739e952572610b75962d6b", "is_disabled": 0, "rental_uris": {"ios": "https://dc.lft.to/lastmile_qr_scan", "android": "https://dc.lft.to/lastmile_qr_scan"}, "is_reserved": 0}, {"lon": -77.02745833333333, "bike_id": "c830a143f45c19066adc2c209eb48d89", "lat": 38.96572316666666, "fusion_lon": 0.0, "fusion_lat": 0.0, "type": "electric_bike", "name": "c830a143f45c19066adc2c209eb48d89", "is_disabled": 0, "rental_uris": {"ios": "https://dc.lft.to/lastmile_qr_scan", "android": "https://dc.lft.to/lastmile_qr_scan"}, "is_reserved": 0}, {"lon": -77.0180825, "bike_id": "c8ef2bbfb17bf8a84ad9717bf819f049", "lat": 38.964849666666666, "fusion_lon": 0.0, "fusion_lat": 0.0, "type": "electric_scooter", "name": "c8ef2bbfb17bf8a84ad9717bf819f049", "is_disabled": 0, "rental_uris": {"ios": "https://dc.lft.to/lastmile_qr_scan", "android": "https://dc.lft.to/lastmile_qr_scan"}, "is_reserved": 0}, {"lon": -77.12731866666667, "bike_id": "0483826a24ea2f4c620fbd27320c5002", "lat": 38.895656833333334, "fusion_lon": 0.0, "fusion_lat": 0.0, "type": "electric_bike", "name": "0483826a24ea2f4c620fbd27320c5002", "is_disabled": 0, "rental_uris": {"ios": "https://dc.lft.to/lastmile_qr_scan", "android": "https://dc.lft.to/lastmile_qr_scan"}, "is_reserved": 0}, {"lon": -77.03649383333334, "bike_id": "b5303906878c06c70068e9f8105dbf2c", "lat": 38.91322433333333, "fusion_lon": 0.0, "fusion_lat": 0.0, "type": "electric_scooter", "name": "b5303906878c06c70068e9f8105dbf2c", "is_disabled": 0, "rental_uris": {"ios": "https://dc.lft.to/lastmile_qr_scan", "android": "https://dc.lft.to/lastmile_qr_scan"}, "is_reserved": 0}, {"lon": -77.05738916666667, "bike_id": "771403e76ea6a7ce0878ae7ea77691d8", "lat": 38.933923666666665, "fusion_lon": 0.0, "fusion_lat": 0.0, "type": "electric_scooter", "name": "771403e76ea6a7ce0878ae7ea77691d8", "is_disabled": 0, "rental_uris": {"ios": "https://dc.lft.to/lastmile_qr_scan", "android": "https://dc.lft.to/lastmile_qr_scan"}, "is_reserved": 0}, {"lon": -77.04822016666667, "bike_id": "a036fba1110351c8cab31c4d6b1a4b40", "lat": 38.90391433333333, "fusion_lon": 0.0, "fusion_lat": 0.0, "type": "electric_scooter", "name": "a036fba1110351c8cab31c4d6b1a4b40", "is_disabled": 0, "rental_uris": {"ios": "https://dc.lft.to/lastmile_qr_scan", "android": "https://dc.lft.to/lastmile_qr_scan"}, "is_reserved": 0}, {"lon": -77.055929, "bike_id": "f472d3585205e42490e64ea3783791a7", "lat": 38.9314625, "fusion_lon": 0.0, "fusion_lat": 0.0, "type": "electric_scooter", "name": "f472d3585205e42490e64ea3783791a7", "is_disabled": 0, "rental_uris": {"ios": "https://dc.lft.to/lastmile_qr_scan", "android": "https://dc.lft.to/lastmile_qr_scan"}, "is_reserved": 0}, {"lon": -76.88399433333333, "bike_id": "611f3abce32c7c871ca7ae048aac2f50", "lat": 38.931707333333335, "fusion_lon": 0.0, "fusion_lat": 0.0, "type": "electric_bike", "name": "611f3abce32c7c871ca7ae048aac2f50", "is_disabled": 0, "rental_uris": {"ios": "https://dc.lft.to/lastmile_qr_scan", "android": "https://dc.lft.to/lastmile_qr_scan"}, "is_reserved": 0}, {"lon": -77.01785633333333, "bike_id": "be98df622d858cd93751aa89ebdd1a26", "lat": 38.901403333333334, "fusion_lon": 0.0, "fusion_lat": 0.0, "type": "electric_scooter", "name": "be98df622d858cd93751aa89ebdd1a26", "is_disabled": 0, "rental_uris": {"ios": "https://dc.lft.to/lastmile_qr_scan", "android": "https://dc.lft.to/lastmile_qr_scan"}, "is_reserved": 0}, {"lon": -77.0388205, "bike_id": "6ac5249401f6d8a5b688f90030fc10d6", "lat": 38.9487365, "fusion_lon": 0.0, "fusion_lat": 0.0, "type": "electric_scooter", "name": "6ac5249401f6d8a5b688f90030fc10d6", "is_disabled": 0, "rental_uris": {"ios": "https://dc.lft.to/lastmile_qr_scan", "android": "https://dc.lft.to/lastmile_qr_scan"}, "is_reserved": 0}, {"lon": -77.02949283333334, "bike_id": "bd548e89267195197385ef52bc0beb4e", "lat": 38.905239, "fusion_lon": 0.0, "fusion_lat": 0.0, "type": "electric_scooter", "name": "bd548e89267195197385ef52bc0beb4e", "is_disabled": 0, "rental_uris": {"ios": "https://dc.lft.to/lastmile_qr_scan", "android": "https://dc.lft.to/lastmile_qr_scan"}, "is_reserved": 0}, {"lon": -76.98826233333334, "bike_id": "6d06de8aadf3ee851233f4b9593ea774", "lat": 38.890756333333336, "fusion_lon": 0.0, "fusion_lat": 0.0, "type": "electric_scooter", "name": "6d06de8aadf3ee851233f4b9593ea774", "is_disabled": 0, "rental_uris": {"ios": "https://dc.lft.to/lastmile_qr_scan", "android": "https://dc.lft.to/lastmile_qr_scan"}, "is_reserved": 0}, {"lon": -77.00652816666667, "bike_id": "3eabcb98cfdddc8cec0063b0f8785120", "lat": 38.8806875, "fusion_lon": 0.0, "fusion_lat": 0.0, "type": "electric_scooter", "name": "3eabcb98cfdddc8cec0063b0f8785120", "is_disabled": 0, "rental_uris": {"ios": "https://dc.lft.to/lastmile_qr_scan", "android": "https://dc.lft.to/lastmile_qr_scan"}, "is_reserved": 0}, {"lon": -77.02615966666667, "bike_id": "5082f1c51e2978fcaf9e7d90a98a3735", "lat": 38.9298885, "fusion_lon": 0.0, "fusion_lat": 0.0, "type": "electric_scooter", "name": "5082f1c51e2978fcaf9e7d90a98a3735", "is_disabled": 0, "rental_uris": {"ios": "https://dc.lft.to/lastmile_qr_scan", "android": "https://dc.lft.to/lastmile_qr_scan"}, "is_reserved": 0}, {"lon": -77.05471083333333, "bike_id": "ea6f1da51484bbdea498a3a6a79c1226", "lat": 38.897921, "fusion_lon": 0.0, "fusion_lat": 0.0, "type": "electric_scooter", "name": "ea6f1da51484bbdea498a3a6a79c1226", "is_disabled": 0, "rental_uris": {"ios": "https://dc.lft.to/lastmile_qr_scan", "android": "https://dc.lft.to/lastmile_qr_scan"}, "is_reserved": 0}, {"lon": -77.0394175, "bike_id": "e4c223ee99f470e29ebd8685b57809e8", "lat": 38.89908166666667, "fusion_lon": 0.0, "fusion_lat": 0.0, "type": "electric_scooter", "name": "e4c223ee99f470e29ebd8685b57809e8", "is_disabled": 0, "rental_uris": {"ios": "https://dc.lft.to/lastmile_qr_scan", "android": "https://dc.lft.to/lastmile_qr_scan"}, "is_reserved": 0}, {"lon": -77.027782, "bike_id": "16724f2af1d2c6d011ad9ef3afa540da", "lat": 38.96219883333333, "fusion_lon": 0.0, "fusion_lat": 0.0, "type": "electric_scooter", "name": "16724f2af1d2c6d011ad9ef3afa540da", "is_disabled": 0, "rental_uris": {"ios": "https://dc.lft.to/lastmile_qr_scan", "android": "https://dc.lft.to/lastmile_qr_scan"}, "is_reserved": 0}, {"lon": -77.02197383333333, "bike_id": "f3fe6f59c21a528e047500324069f8b9", "lat": 38.90005933333333, "fusion_lon": 0.0, "fusion_lat": 0.0, "type": "electric_scooter", "name": "f3fe6f59c21a528e047500324069f8b9", "is_disabled": 0, "rental_uris": {"ios": "https://dc.lft.to/lastmile_qr_scan", "android": "https://dc.lft.to/lastmile_qr_scan"}, "is_reserved": 0}, {"lon": -77.038412, "bike_id": "a58809b8c7da9f7c42c2e1f55dcf903b", "lat": 38.91015, "fusion_lon": 0.0, "fusion_lat": 0.0, "type": "electric_scooter", "name": "a58809b8c7da9f7c42c2e1f55dcf903b", "is_disabled": 0, "rental_uris": {"ios": "https://dc.lft.to/lastmile_qr_scan", "android": "https://dc.lft.to/lastmile_qr_scan"}, "is_reserved": 0}, {"lon": -77.0509495, "bike_id": "3af2cade2b03bcbe4975bd48b8be3948", "lat": 38.92313566666667, "fusion_lon": 0.0, "fusion_lat": 0.0, "type": "electric_scooter", "name": "3af2cade2b03bcbe4975bd48b8be3948", "is_disabled": 0, "rental_uris": {"ios": "https://dc.lft.to/lastmile_qr_scan", "android": "https://dc.lft.to/lastmile_qr_scan"}, "is_reserved": 0}, {"lon": -76.985947, "bike_id": "5dd23993ae7b7be00297ee9c3b97e7c5", "lat": 38.860642666666664, "fusion_lon": 0.0, "fusion_lat": 0.0, "type": "electric_scooter", "name": "5dd23993ae7b7be00297ee9c3b97e7c5", "is_disabled": 0, "rental_uris": {"ios": "https://dc.lft.to/lastmile_qr_scan", "android": "https://dc.lft.to/lastmile_qr_scan"}, "is_reserved": 0}, {"lon": -77.0404105, "bike_id": "922775908ef22e49f634f1cddbc5c7ef", "lat": 38.903918833333336, "fusion_lon": 0.0, "fusion_lat": 0.0, "type": "electric_scooter", "name": "922775908ef22e49f634f1cddbc5c7ef", "is_disabled": 0, "rental_uris": {"ios": "https://dc.lft.to/lastmile_qr_scan", "android": "https://dc.lft.to/lastmile_qr_scan"}, "is_reserved": 0}, {"lon": -77.044071, "bike_id": "40b4df3c44de4e84540641850f2dcf8a", "lat": 38.93421766666667, "fusion_lon": 0.0, "fusion_lat": 0.0, "type": "electric_scooter", "name": "40b4df3c44de4e84540641850f2dcf8a", "is_disabled": 0, "rental_uris": {"ios": "https://dc.lft.to/lastmile_qr_scan", "android": "https://dc.lft.to/lastmile_qr_scan"}, "is_reserved": 0}, {"lon": -76.96154766666666, "bike_id": "5da13eea84bafa023221892da0b6b087", "lat": 38.883603666666666, "fusion_lon": 0.0, "fusion_lat": 0.0, "type": "electric_scooter", "name": "5da13eea84bafa023221892da0b6b087", "is_disabled": 0, "rental_uris": {"ios": "https://dc.lft.to/lastmile_qr_scan", "android": "https://dc.lft.to/lastmile_qr_scan"}, "is_reserved": 0}, {"lon": -77.04696666666666, "bike_id": "0554512d5ff9ec6fcff55dc5a85b6f73", "lat": 38.9212145, "fusion_lon": 0.0, "fusion_lat": 0.0, "type": "electric_scooter", "name": "0554512d5ff9ec6fcff55dc5a85b6f73", "is_disabled": 0, "rental_uris": {"ios": "https://dc.lft.to/lastmile_qr_scan", "android": "https://dc.lft.to/lastmile_qr_scan"}, "is_reserved": 0}, {"lon": -76.98535483333333, "bike_id": "d21b54563373caea93d0432534ce6d98", "lat": 38.91022233333333, "fusion_lon": 0.0, "fusion_lat": 0.0, "type": "electric_scooter", "name": "d21b54563373caea93d0432534ce6d98", "is_disabled": 0, "rental_uris": {"ios": "https://dc.lft.to/lastmile_qr_scan", "android": "https://dc.lft.to/lastmile_qr_scan"}, "is_reserved": 0}, {"lon": -77.02967066666666, "bike_id": "dd8fce7abf05ed6134567adaf9a0eba9", "lat": 38.931924333333335, "fusion_lon": 0.0, "fusion_lat": 0.0, "type": "electric_scooter", "name": "dd8fce7abf05ed6134567adaf9a0eba9", "is_disabled": 0, "rental_uris": {"ios": "https://dc.lft.to/lastmile_qr_scan", "android": "https://dc.lft.to/lastmile_qr_scan"}, "is_reserved": 0}, {"lon": -77.03112166666666, "bike_id": "fe19827ec376a797c8f310852afd75ea", "lat": 38.9171245, "fusion_lon": 0.0, "fusion_lat": 0.0, "type": "electric_scooter", "name": "fe19827ec376a797c8f310852afd75ea", "is_disabled": 0, "rental_uris": {"ios": "https://dc.lft.to/lastmile_qr_scan", "android": "https://dc.lft.to/lastmile_qr_scan"}, "is_reserved": 0}, {"lon": -76.98727383333333, "bike_id": "b45515cb9cac9fc7ebabdd42c526785f", "lat": 38.86714383333333, "fusion_lon": 0.0, "fusion_lat": 0.0, "type": "electric_scooter", "name": "b45515cb9cac9fc7ebabdd42c526785f", "is_disabled": 0, "rental_uris": {"ios": "https://dc.lft.to/lastmile_qr_scan", "android": "https://dc.lft.to/lastmile_qr_scan"}, "is_reserved": 0}, {"lon": -77.105986, "bike_id": "8624a1870dcf5bc98ca176682e6d1d9e", "lat": 38.9289515, "fusion_lon": 0.0, "fusion_lat": 0.0, "type": "electric_bike", "name": "8624a1870dcf5bc98ca176682e6d1d9e", "is_disabled": 0, "rental_uris": {"ios": "https://dc.lft.to/lastmile_qr_scan", "android": "https://dc.lft.to/lastmile_qr_scan"}, "is_reserved": 0}, {"lon": -76.99181766666666, "bike_id": "0632f2e088067771d47c6e9cf4261454", "lat": 38.905082, "fusion_lon": 0.0, "fusion_lat": 0.0, "type": "electric_scooter", "name": "0632f2e088067771d47c6e9cf4261454", "is_disabled": 0, "rental_uris": {"ios": "https://dc.lft.to/lastmile_qr_scan", "android": "https://dc.lft.to/lastmile_qr_scan"}, "is_reserved": 0}, {"lon": -77.02801816666667, "bike_id": "38740d338a19a1c32745c7bd9c3ffdf2", "lat": 38.8997415, "fusion_lon": 0.0, "fusion_lat": 0.0, "type": "electric_scooter", "name": "38740d338a19a1c32745c7bd9c3ffdf2", "is_disabled": 0, "rental_uris": {"ios": "https://dc.lft.to/lastmile_qr_scan", "android": "https://dc.lft.to/lastmile_qr_scan"}, "is_reserved": 0}, {"lon": -77.032114, "bike_id": "fd507125e3791c9e171494884f2caecd", "lat": 38.9206695, "fusion_lon": 0.0, "fusion_lat": 0.0, "type": "electric_scooter", "name": "fd507125e3791c9e171494884f2caecd", "is_disabled": 0, "rental_uris": {"ios": "https://dc.lft.to/lastmile_qr_scan", "android": "https://dc.lft.to/lastmile_qr_scan"}, "is_reserved": 0}, {"lon": -77.02978416666667, "bike_id": "3b060c4f72a811921ade15cf9b5adb0e", "lat": 38.9474265, "fusion_lon": 0.0, "fusion_lat": 0.0, "type": "electric_scooter", "name": "3b060c4f72a811921ade15cf9b5adb0e", "is_disabled": 0, "rental_uris": {"ios": "https://dc.lft.to/lastmile_qr_scan", "android": "https://dc.lft.to/lastmile_qr_scan"}, "is_reserved": 0}, {"lon": -77.024615, "bike_id": "c687b5b6d37e09b1557967e47e00a3b2", "lat": 38.9009335, "fusion_lon": 0.0, "fusion_lat": 0.0, "type": "electric_scooter", "name": "c687b5b6d37e09b1557967e47e00a3b2", "is_disabled": 0, "rental_uris": {"ios": "https://dc.lft.to/lastmile_qr_scan", "android": "https://dc.lft.to/lastmile_qr_scan"}, "is_reserved": 0}, {"lon": -77.02654916666667, "bike_id": "cbc583f209b46b7b925c405c6cd693da", "lat": 38.978118, "fusion_lon": 0.0, "fusion_lat": 0.0, "type": "electric_scooter", "name": "cbc583f209b46b7b925c405c6cd693da", "is_disabled": 0, "rental_uris": {"ios": "https://dc.lft.to/lastmile_qr_scan", "android": "https://dc.lft.to/lastmile_qr_scan"}, "is_reserved": 0}, {"lon": -76.97712816666666, "bike_id": "0ba9244797abfe5cb2d173ab559bf60d", "lat": 38.88778666666666, "fusion_lon": 0.0, "fusion_lat": 0.0, "type": "electric_scooter", "name": "0ba9244797abfe5cb2d173ab559bf60d", "is_disabled": 0, "rental_uris": {"ios": "https://dc.lft.to/lastmile_qr_scan", "android": "https://dc.lft.to/lastmile_qr_scan"}, "is_reserved": 0}, {"lon": -77.08773216666667, "bike_id": "3936613063d6d637015a6058440b1c4f", "lat": 38.83901, "fusion_lon": 0.0, "fusion_lat": 0.0, "type": "electric_bike", "name": "3936613063d6d637015a6058440b1c4f", "is_disabled": 0, "rental_uris": {"ios": "https://dc.lft.to/lastmile_qr_scan", "android": "https://dc.lft.to/lastmile_qr_scan"}, "is_reserved": 0}, {"lon": -76.97615383333333, "bike_id": "65ac81b4b3d4826f08b81f210ed3fcf5", "lat": 38.89960416666667, "fusion_lon": 0.0, "fusion_lat": 0.0, "type": "electric_scooter", "name": "65ac81b4b3d4826f08b81f210ed3fcf5", "is_disabled": 0, "rental_uris": {"ios": "https://dc.lft.to/lastmile_qr_scan", "android": "https://dc.lft.to/lastmile_qr_scan"}, "is_reserved": 0}, {"lon": -77.01353833333333, "bike_id": "cf31557da4bbe76102473731a7a8c879", "lat": 38.89717516666666, "fusion_lon": 0.0, "fusion_lat": 0.0, "type": "electric_scooter", "name": "cf31557da4bbe76102473731a7a8c879", "is_disabled": 0, "rental_uris": {"ios": "https://dc.lft.to/lastmile_qr_scan", "android": "https://dc.lft.to/lastmile_qr_scan"}, "is_reserved": 0}, {"lon": -77.02749083333333, "bike_id": "a94dea88326e1ea9d6e73066615ba252", "lat": 38.89740666666667, "fusion_lon": 0.0, "fusion_lat": 0.0, "type": "electric_scooter", "name": "a94dea88326e1ea9d6e73066615ba252", "is_disabled": 0, "rental_uris": {"ios": "https://dc.lft.to/lastmile_qr_scan", "android": "https://dc.lft.to/lastmile_qr_scan"}, "is_reserved": 0}, {"lon": -77.0284665, "bike_id": "0d9c8428f859de56e9191d4de686820a", "lat": 38.927673666666664, "fusion_lon": 0.0, "fusion_lat": 0.0, "type": "electric_scooter", "name": "0d9c8428f859de56e9191d4de686820a", "is_disabled": 0, "rental_uris": {"ios": "https://dc.lft.to/lastmile_qr_scan", "android": "https://dc.lft.to/lastmile_qr_scan"}, "is_reserved": 0}, {"lon": -77.04509666666667, "bike_id": "218d801d92537cb528fe2a1c03bf6256", "lat": 38.90349833333333, "fusion_lon": 0.0, "fusion_lat": 0.0, "type": "electric_scooter", "name": "218d801d92537cb528fe2a1c03bf6256", "is_disabled": 0, "rental_uris": {"ios": "https://dc.lft.to/lastmile_qr_scan", "android": "https://dc.lft.to/lastmile_qr_scan"}, "is_reserved": 0}, {"lon": -77.0079245, "bike_id": "128238407e6b565d4c14221be45da522", "lat": 38.896435833333335, "fusion_lon": 0.0, "fusion_lat": 0.0, "type": "electric_scooter", "name": "128238407e6b565d4c14221be45da522", "is_disabled": 0, "rental_uris": {"ios": "https://dc.lft.to/lastmile_qr_scan", "android": "https://dc.lft.to/lastmile_qr_scan"}, "is_reserved": 0}, {"lon": -77.03358333333334, "bike_id": "8a24e4c9a865d8f698d8c7b853d37e37", "lat": 38.93583483333333, "fusion_lon": 0.0, "fusion_lat": 0.0, "type": "electric_scooter", "name": "8a24e4c9a865d8f698d8c7b853d37e37", "is_disabled": 0, "rental_uris": {"ios": "https://dc.lft.to/lastmile_qr_scan", "android": "https://dc.lft.to/lastmile_qr_scan"}, "is_reserved": 0}, {"lon": -76.978745, "bike_id": "dfddd3714be866cc9ff426cf79792bee", "lat": 38.8830395, "fusion_lon": 0.0, "fusion_lat": 0.0, "type": "electric_scooter", "name": "dfddd3714be866cc9ff426cf79792bee", "is_disabled": 0, "rental_uris": {"ios": "https://dc.lft.to/lastmile_qr_scan", "android": "https://dc.lft.to/lastmile_qr_scan"}, "is_reserved": 0}, {"lon": -76.9960565, "bike_id": "fd5f3170ae2ebb0132e10393062576cf", "lat": 38.89471666666667, "fusion_lon": 0.0, "fusion_lat": 0.0, "type": "electric_scooter", "name": "fd5f3170ae2ebb0132e10393062576cf", "is_disabled": 0, "rental_uris": {"ios": "https://dc.lft.to/lastmile_qr_scan", "android": "https://dc.lft.to/lastmile_qr_scan"}, "is_reserved": 0}, {"lon": -77.0411535, "bike_id": "87cd1bb42fed73ce1e6b693bb444e454", "lat": 38.93468333333333, "fusion_lon": 0.0, "fusion_lat": 0.0, "type": "electric_scooter", "name": "87cd1bb42fed73ce1e6b693bb444e454", "is_disabled": 0, "rental_uris": {"ios": "https://dc.lft.to/lastmile_qr_scan", "android": "https://dc.lft.to/lastmile_qr_scan"}, "is_reserved": 0}, {"lon": -77.04167416666667, "bike_id": "1f9f7e9c4cb7474877df4f7afe48f4c8", "lat": 38.91002116666667, "fusion_lon": 0.0, "fusion_lat": 0.0, "type": "electric_scooter", "name": "1f9f7e9c4cb7474877df4f7afe48f4c8", "is_disabled": 0, "rental_uris": {"ios": "https://dc.lft.to/lastmile_qr_scan", "android": "https://dc.lft.to/lastmile_qr_scan"}, "is_reserved": 0}, {"lon": -77.00375133333333, "bike_id": "b0f296f919cd20a613649c85cba436ef", "lat": 38.87950083333333, "fusion_lon": 0.0, "fusion_lat": 0.0, "type": "electric_scooter", "name": "b0f296f919cd20a613649c85cba436ef", "is_disabled": 0, "rental_uris": {"ios": "https://dc.lft.to/lastmile_qr_scan", "android": "https://dc.lft.to/lastmile_qr_scan"}, "is_reserved": 0}, {"lon": -77.13102066666667, "bike_id": "690ba37fc18cecefb84344a8bcc0f67c", "lat": 39.0243535, "fusion_lon": 0.0, "fusion_lat": 0.0, "type": "electric_bike", "name": "690ba37fc18cecefb84344a8bcc0f67c", "is_disabled": 0, "rental_uris": {"ios": "https://dc.lft.to/lastmile_qr_scan", "android": "https://dc.lft.to/lastmile_qr_scan"}, "is_reserved": 0}, {"lon": -77.0394005, "bike_id": "e610b443aa03b473679eb62690221ee6", "lat": 38.9211305, "fusion_lon": 0.0, "fusion_lat": 0.0, "type": "electric_scooter", "name": "e610b443aa03b473679eb62690221ee6", "is_disabled": 0, "rental_uris": {"ios": "https://dc.lft.to/lastmile_qr_scan", "android": "https://dc.lft.to/lastmile_qr_scan"}, "is_reserved": 0}, {"lon": -77.09599633333333, "bike_id": "4abb50195eb5c7aa3cc4b888647c788a", "lat": 39.0289265, "fusion_lon": 0.0, "fusion_lat": 0.0, "type": "electric_bike", "name": "4abb50195eb5c7aa3cc4b888647c788a", "is_disabled": 0, "rental_uris": {"ios": "https://dc.lft.to/lastmile_qr_scan", "android": "https://dc.lft.to/lastmile_qr_scan"}, "is_reserved": 0}, {"lon": -77.0216495, "bike_id": "85c3fb8eb273a25b60c4e5877f75bca2", "lat": 38.90009116666667, "fusion_lon": 0.0, "fusion_lat": 0.0, "type": "electric_scooter", "name": "85c3fb8eb273a25b60c4e5877f75bca2", "is_disabled": 0, "rental_uris": {"ios": "https://dc.lft.to/lastmile_qr_scan", "android": "https://dc.lft.to/lastmile_qr_scan"}, "is_reserved": 0}, {"lon": -77.01119316666667, "bike_id": "c1d4e3ebd0c9bc55286e3208f7e73672", "lat": 38.88553133333333, "fusion_lon": 0.0, "fusion_lat": 0.0, "type": "electric_scooter", "name": "c1d4e3ebd0c9bc55286e3208f7e73672", "is_disabled": 0, "rental_uris": {"ios": "https://dc.lft.to/lastmile_qr_scan", "android": "https://dc.lft.to/lastmile_qr_scan"}, "is_reserved": 0}, {"lon": -77.0295145, "bike_id": "9550c98f7dfbac94daf2c336d3ec8718", "lat": 38.90522466666667, "fusion_lon": 0.0, "fusion_lat": 0.0, "type": "electric_scooter", "name": "9550c98f7dfbac94daf2c336d3ec8718", "is_disabled": 0, "rental_uris": {"ios": "https://dc.lft.to/lastmile_qr_scan", "android": "https://dc.lft.to/lastmile_qr_scan"}, "is_reserved": 0}, {"lon": -77.05626433333333, "bike_id": "4adc34031a4d272c35ed86575c1c913c", "lat": 38.96076383333333, "fusion_lon": 0.0, "fusion_lat": 0.0, "type": "electric_scooter", "name": "4adc34031a4d272c35ed86575c1c913c", "is_disabled": 0, "rental_uris": {"ios": "https://dc.lft.to/lastmile_qr_scan", "android": "https://dc.lft.to/lastmile_qr_scan"}, "is_reserved": 0}, {"lon": -77.03470833333333, "bike_id": "38f3c440fe7e17fe9ba7351cba28a25f", "lat": 38.90741716666667, "fusion_lon": 0.0, "fusion_lat": 0.0, "type": "electric_scooter", "name": "38f3c440fe7e17fe9ba7351cba28a25f", "is_disabled": 0, "rental_uris": {"ios": "https://dc.lft.to/lastmile_qr_scan", "android": "https://dc.lft.to/lastmile_qr_scan"}, "is_reserved": 0}, {"lon": -77.03530383333333, "bike_id": "a926795bd56718cdef784c75a3c65871", "lat": 38.92423083333333, "fusion_lon": 0.0, "fusion_lat": 0.0, "type": "electric_scooter", "name": "a926795bd56718cdef784c75a3c65871", "is_disabled": 0, "rental_uris": {"ios": "https://dc.lft.to/lastmile_qr_scan", "android": "https://dc.lft.to/lastmile_qr_scan"}, "is_reserved": 0}, {"lon": -77.017659, "bike_id": "23c1b63ca68f43ec89801de35aefc17d", "lat": 38.87219416666667, "fusion_lon": 0.0, "fusion_lat": 0.0, "type": "electric_scooter", "name": "23c1b63ca68f43ec89801de35aefc17d", "is_disabled": 0, "rental_uris": {"ios": "https://dc.lft.to/lastmile_qr_scan", "android": "https://dc.lft.to/lastmile_qr_scan"}, "is_reserved": 0}, {"lon": -77.01060033333333, "bike_id": "d5c95d256d899821b114c295a23ad5a7", "lat": 38.96346116666667, "fusion_lon": 0.0, "fusion_lat": 0.0, "type": "electric_scooter", "name": "d5c95d256d899821b114c295a23ad5a7", "is_disabled": 0, "rental_uris": {"ios": "https://dc.lft.to/lastmile_qr_scan", "android": "https://dc.lft.to/lastmile_qr_scan"}, "is_reserved": 0}, {"lon": -77.07006633333333, "bike_id": "d224ab119030afdfc844f4617657afb6", "lat": 38.90593283333333, "fusion_lon": 0.0, "fusion_lat": 0.0, "type": "electric_bike", "name": "d224ab119030afdfc844f4617657afb6", "is_disabled": 0, "rental_uris": {"ios": "https://dc.lft.to/lastmile_qr_scan", "android": "https://dc.lft.to/lastmile_qr_scan"}, "is_reserved": 0}, {"lon": -77.02444, "bike_id": "ae578cad35415981e32f3761ac662f9d", "lat": 38.920673666666666, "fusion_lon": 0.0, "fusion_lat": 0.0, "type": "electric_scooter", "name": "ae578cad35415981e32f3761ac662f9d", "is_disabled": 0, "rental_uris": {"ios": "https://dc.lft.to/lastmile_qr_scan", "android": "https://dc.lft.to/lastmile_qr_scan"}, "is_reserved": 0}, {"lon": -77.00565966666667, "bike_id": "e031d9046844cef03011b263fc13ebe7", "lat": 38.876743833333336, "fusion_lon": 0.0, "fusion_lat": 0.0, "type": "electric_scooter", "name": "e031d9046844cef03011b263fc13ebe7", "is_disabled": 0, "rental_uris": {"ios": "https://dc.lft.to/lastmile_qr_scan", "android": "https://dc.lft.to/lastmile_qr_scan"}, "is_reserved": 0}, {"lon": -77.11915166666667, "bike_id": "b0a8768d788ec32bc5427a26d59a087b", "lat": 38.8763595, "fusion_lon": 0.0, "fusion_lat": 0.0, "type": "electric_bike", "name": "b0a8768d788ec32bc5427a26d59a087b", "is_disabled": 0, "rental_uris": {"ios": "https://dc.lft.to/lastmile_qr_scan", "android": "https://dc.lft.to/lastmile_qr_scan"}, "is_reserved": 0}, {"lon": -77.078057, "bike_id": "5ba7fdc032d7213fffd1f84488ec5ccb", "lat": 38.924612833333335, "fusion_lon": 0.0, "fusion_lat": 0.0, "type": "electric_scooter", "name": "5ba7fdc032d7213fffd1f84488ec5ccb", "is_disabled": 0, "rental_uris": {"ios": "https://dc.lft.to/lastmile_qr_scan", "android": "https://dc.lft.to/lastmile_qr_scan"}, "is_reserved": 0}, {"lon": -77.03969233333333, "bike_id": "e20d1e5d22ad9e555c994d9faecdf628", "lat": 38.923114166666664, "fusion_lon": 0.0, "fusion_lat": 0.0, "type": "electric_scooter", "name": "e20d1e5d22ad9e555c994d9faecdf628", "is_disabled": 0, "rental_uris": {"ios": "https://dc.lft.to/lastmile_qr_scan", "android": "https://dc.lft.to/lastmile_qr_scan"}, "is_reserved": 0}, {"lon": -77.00921983333333, "bike_id": "ea0f4be2a742827cfba17937bdb7e141", "lat": 38.91070916666666, "fusion_lon": 0.0, "fusion_lat": 0.0, "type": "electric_scooter", "name": "ea0f4be2a742827cfba17937bdb7e141", "is_disabled": 0, "rental_uris": {"ios": "https://dc.lft.to/lastmile_qr_scan", "android": "https://dc.lft.to/lastmile_qr_scan"}, "is_reserved": 0}, {"lon": -77.002211, "bike_id": "72cb5ed11f276ade9464da4f0e9a21f6", "lat": 38.9024795, "fusion_lon": 0.0, "fusion_lat": 0.0, "type": "electric_scooter", "name": "72cb5ed11f276ade9464da4f0e9a21f6", "is_disabled": 0, "rental_uris": {"ios": "https://dc.lft.to/lastmile_qr_scan", "android": "https://dc.lft.to/lastmile_qr_scan"}, "is_reserved": 0}, {"lon": -77.03441533333333, "bike_id": "b5d4ea43c737434d8d627710d5994eae", "lat": 38.9171675, "fusion_lon": 0.0, "fusion_lat": 0.0, "type": "electric_scooter", "name": "b5d4ea43c737434d8d627710d5994eae", "is_disabled": 0, "rental_uris": {"ios": "https://dc.lft.to/lastmile_qr_scan", "android": "https://dc.lft.to/lastmile_qr_scan"}, "is_reserved": 0}, {"lon": -77.053332, "bike_id": "62bf9c5581e68cebf8a60fe776883060", "lat": 38.89877533333333, "fusion_lon": 0.0, "fusion_lat": 0.0, "type": "electric_scooter", "name": "62bf9c5581e68cebf8a60fe776883060", "is_disabled": 0, "rental_uris": {"ios": "https://dc.lft.to/lastmile_qr_scan", "android": "https://dc.lft.to/lastmile_qr_scan"}, "is_reserved": 0}, {"lon": -76.99615266666666, "bike_id": "194e9239a2bc12f17c3e8aade8ad51a6", "lat": 38.89999183333333, "fusion_lon": 0.0, "fusion_lat": 0.0, "type": "electric_scooter", "name": "194e9239a2bc12f17c3e8aade8ad51a6", "is_disabled": 0, "rental_uris": {"ios": "https://dc.lft.to/lastmile_qr_scan", "android": "https://dc.lft.to/lastmile_qr_scan"}, "is_reserved": 0}, {"lon": -76.9871165, "bike_id": "d386dac3e82191a3211f4c2966a96153", "lat": 38.8662645, "fusion_lon": 0.0, "fusion_lat": 0.0, "type": "electric_scooter", "name": "d386dac3e82191a3211f4c2966a96153", "is_disabled": 0, "rental_uris": {"ios": "https://dc.lft.to/lastmile_qr_scan", "android": "https://dc.lft.to/lastmile_qr_scan"}, "is_reserved": 0}, {"lon": -77.07433633333333, "bike_id": "22ecfaa15da03be38876952c2b0bf1b8", "lat": 38.999475833333335, "fusion_lon": 0.0, "fusion_lat": 0.0, "type": "electric_bike", "name": "22ecfaa15da03be38876952c2b0bf1b8", "is_disabled": 0, "rental_uris": {"ios": "https://dc.lft.to/lastmile_qr_scan", "android": "https://dc.lft.to/lastmile_qr_scan"}, "is_reserved": 0}, {"lon": -76.94997366666666, "bike_id": "3f6a116bc544e6fd2e5e222a38c6e2ac", "lat": 38.893841, "fusion_lon": 0.0, "fusion_lat": 0.0, "type": "electric_scooter", "name": "3f6a116bc544e6fd2e5e222a38c6e2ac", "is_disabled": 0, "rental_uris": {"ios": "https://dc.lft.to/lastmile_qr_scan", "android": "https://dc.lft.to/lastmile_qr_scan"}, "is_reserved": 0}, {"lon": -77.02428133333333, "bike_id": "54fa0afe3b4e588e59d1e9689df07d10", "lat": 38.91408666666667, "fusion_lon": 0.0, "fusion_lat": 0.0, "type": "electric_scooter", "name": "54fa0afe3b4e588e59d1e9689df07d10", "is_disabled": 0, "rental_uris": {"ios": "https://dc.lft.to/lastmile_qr_scan", "android": "https://dc.lft.to/lastmile_qr_scan"}, "is_reserved": 0}, {"lon": -77.02494133333333, "bike_id": "b9dd5b7e0d053cc2f516b0212f395808", "lat": 38.905641333333335, "fusion_lon": 0.0, "fusion_lat": 0.0, "type": "electric_scooter", "name": "b9dd5b7e0d053cc2f516b0212f395808", "is_disabled": 0, "rental_uris": {"ios": "https://dc.lft.to/lastmile_qr_scan", "android": "https://dc.lft.to/lastmile_qr_scan"}, "is_reserved": 0}, {"lon": -77.0073925, "bike_id": "76f18e7a56e50b9fec242e1bfea80298", "lat": 38.91626133333333, "fusion_lon": 0.0, "fusion_lat": 0.0, "type": "electric_scooter", "name": "76f18e7a56e50b9fec242e1bfea80298", "is_disabled": 0, "rental_uris": {"ios": "https://dc.lft.to/lastmile_qr_scan", "android": "https://dc.lft.to/lastmile_qr_scan"}, "is_reserved": 0}, {"lon": -77.03262366666667, "bike_id": "781c41be29e7c25da631bcf2d1a6b194", "lat": 38.935654166666666, "fusion_lon": 0.0, "fusion_lat": 0.0, "type": "electric_scooter", "name": "781c41be29e7c25da631bcf2d1a6b194", "is_disabled": 0, "rental_uris": {"ios": "https://dc.lft.to/lastmile_qr_scan", "android": "https://dc.lft.to/lastmile_qr_scan"}, "is_reserved": 0}, {"lon": -77.01434, "bike_id": "ddaac3ab20dbd5132fe877012f3cd0c4", "lat": 38.914648666666665, "fusion_lon": 0.0, "fusion_lat": 0.0, "type": "electric_scooter", "name": "ddaac3ab20dbd5132fe877012f3cd0c4", "is_disabled": 0, "rental_uris": {"ios": "https://dc.lft.to/lastmile_qr_scan", "android": "https://dc.lft.to/lastmile_qr_scan"}, "is_reserved": 0}, {"lon": -77.0279995, "bike_id": "33c80827eec8748474e351bf0d5fa7fa", "lat": 38.928690333333336, "fusion_lon": 0.0, "fusion_lat": 0.0, "type": "electric_scooter", "name": "33c80827eec8748474e351bf0d5fa7fa", "is_disabled": 0, "rental_uris": {"ios": "https://dc.lft.to/lastmile_qr_scan", "android": "https://dc.lft.to/lastmile_qr_scan"}, "is_reserved": 0}, {"lon": -77.00674933333333, "bike_id": "1840cafe41ad3db43275b4514183cdf3", "lat": 38.94509166666667, "fusion_lon": 0.0, "fusion_lat": 0.0, "type": "electric_bike", "name": "1840cafe41ad3db43275b4514183cdf3", "is_disabled": 0, "rental_uris": {"ios": "https://dc.lft.to/lastmile_qr_scan", "android": "https://dc.lft.to/lastmile_qr_scan"}, "is_reserved": 0}, {"lon": -77.04411666666667, "bike_id": "8af1221602e88c17c16e4fe9d7e13c9d", "lat": 38.91264133333333, "fusion_lon": 0.0, "fusion_lat": 0.0, "type": "electric_scooter", "name": "8af1221602e88c17c16e4fe9d7e13c9d", "is_disabled": 0, "rental_uris": {"ios": "https://dc.lft.to/lastmile_qr_scan", "android": "https://dc.lft.to/lastmile_qr_scan"}, "is_reserved": 0}, {"lon": -76.94423416666666, "bike_id": "7d7f5ceaefaca574d21b4a2eb98cbe37", "lat": 38.966211333333334, "fusion_lon": 0.0, "fusion_lat": 0.0, "type": "electric_bike", "name": "7d7f5ceaefaca574d21b4a2eb98cbe37", "is_disabled": 0, "rental_uris": {"ios": "https://dc.lft.to/lastmile_qr_scan", "android": "https://dc.lft.to/lastmile_qr_scan"}, "is_reserved": 0}, {"lon": -76.98842483333334, "bike_id": "70bfd3ef82cf7abbed89b320eb8966fc", "lat": 38.842802, "fusion_lon": 0.0, "fusion_lat": 0.0, "type": "electric_bike", "name": "70bfd3ef82cf7abbed89b320eb8966fc", "is_disabled": 0, "rental_uris": {"ios": "https://dc.lft.to/lastmile_qr_scan", "android": "https://dc.lft.to/lastmile_qr_scan"}, "is_reserved": 0}, {"lon": -76.99427683333333, "bike_id": "d7c35eec2321bd66272a3e3aef082e3d", "lat": 38.83610483333333, "fusion_lon": 0.0, "fusion_lat": 0.0, "type": "electric_scooter", "name": "d7c35eec2321bd66272a3e3aef082e3d", "is_disabled": 0, "rental_uris": {"ios": "https://dc.lft.to/lastmile_qr_scan", "android": "https://dc.lft.to/lastmile_qr_scan"}, "is_reserved": 0}, {"lon": -77.02186516666667, "bike_id": "f78e64c77d373364ec8c6a30af531410", "lat": 38.914565833333334, "fusion_lon": 0.0, "fusion_lat": 0.0, "type": "electric_scooter", "name": "f78e64c77d373364ec8c6a30af531410", "is_disabled": 0, "rental_uris": {"ios": "https://dc.lft.to/lastmile_qr_scan", "android": "https://dc.lft.to/lastmile_qr_scan"}, "is_reserved": 0}, {"lon": -77.04154283333334, "bike_id": "7ff11068b7ae028325ec4b7a4055c815", "lat": 38.91810183333333, "fusion_lon": 0.0, "fusion_lat": 0.0, "type": "electric_scooter", "name": "7ff11068b7ae028325ec4b7a4055c815", "is_disabled": 0, "rental_uris": {"ios": "https://dc.lft.to/lastmile_qr_scan", "android": "https://dc.lft.to/lastmile_qr_scan"}, "is_reserved": 0}, {"lon": -77.02167033333333, "bike_id": "3e7470914f2d7d446458ec525b0844f2", "lat": 38.887469333333335, "fusion_lon": 0.0, "fusion_lat": 0.0, "type": "electric_scooter", "name": "3e7470914f2d7d446458ec525b0844f2", "is_disabled": 0, "rental_uris": {"ios": "https://dc.lft.to/lastmile_qr_scan", "android": "https://dc.lft.to/lastmile_qr_scan"}, "is_reserved": 0}, {"lon": -77.02413383333334, "bike_id": "4d37138865a956c6dc078458899b98bc", "lat": 38.91778633333333, "fusion_lon": 0.0, "fusion_lat": 0.0, "type": "electric_scooter", "name": "4d37138865a956c6dc078458899b98bc", "is_disabled": 0, "rental_uris": {"ios": "https://dc.lft.to/lastmile_qr_scan", "android": "https://dc.lft.to/lastmile_qr_scan"}, "is_reserved": 0}, {"lon": -77.02550733333334, "bike_id": "7d78a147212223ecc9621b33729d813c", "lat": 38.941395166666666, "fusion_lon": 0.0, "fusion_lat": 0.0, "type": "electric_scooter", "name": "7d78a147212223ecc9621b33729d813c", "is_disabled": 0, "rental_uris": {"ios": "https://dc.lft.to/lastmile_qr_scan", "android": "https://dc.lft.to/lastmile_qr_scan"}, "is_reserved": 0}, {"lon": -77.03485933333333, "bike_id": "8f7b598a8c9d30f326097d8bbc5f049e", "lat": 38.9327825, "fusion_lon": 0.0, "fusion_lat": 0.0, "type": "electric_scooter", "name": "8f7b598a8c9d30f326097d8bbc5f049e", "is_disabled": 0, "rental_uris": {"ios": "https://dc.lft.to/lastmile_qr_scan", "android": "https://dc.lft.to/lastmile_qr_scan"}, "is_reserved": 0}, {"lon": -76.99505683333334, "bike_id": "09073f411717285f7248dab8d26d351e", "lat": 38.8835025, "fusion_lon": 0.0, "fusion_lat": 0.0, "type": "electric_scooter", "name": "09073f411717285f7248dab8d26d351e", "is_disabled": 0, "rental_uris": {"ios": "https://dc.lft.to/lastmile_qr_scan", "android": "https://dc.lft.to/lastmile_qr_scan"}, "is_reserved": 0}, {"lon": -77.03805183333333, "bike_id": "c30acf23b0a27b2a5d0a2298c11dd7e4", "lat": 38.93399766666667, "fusion_lon": 0.0, "fusion_lat": 0.0, "type": "electric_scooter", "name": "c30acf23b0a27b2a5d0a2298c11dd7e4", "is_disabled": 0, "rental_uris": {"ios": "https://dc.lft.to/lastmile_qr_scan", "android": "https://dc.lft.to/lastmile_qr_scan"}, "is_reserved": 0}, {"lon": -77.09161433333334, "bike_id": "664f62c73a493657c87560415a2f3a9e", "lat": 38.945570333333336, "fusion_lon": 0.0, "fusion_lat": 0.0, "type": "electric_scooter", "name": "664f62c73a493657c87560415a2f3a9e", "is_disabled": 0, "rental_uris": {"ios": "https://dc.lft.to/lastmile_qr_scan", "android": "https://dc.lft.to/lastmile_qr_scan"}, "is_reserved": 0}, {"lon": -77.05600983333333, "bike_id": "4275fc789679f4cbd02d7dd3c7ddbfa9", "lat": 38.9370115, "fusion_lon": 0.0, "fusion_lat": 0.0, "type": "electric_scooter", "name": "4275fc789679f4cbd02d7dd3c7ddbfa9", "is_disabled": 0, "rental_uris": {"ios": "https://dc.lft.to/lastmile_qr_scan", "android": "https://dc.lft.to/lastmile_qr_scan"}, "is_reserved": 0}, {"lon": -76.94569266666667, "bike_id": "bda6a7ba045e9447d0743558ba41137a", "lat": 38.866228666666665, "fusion_lon": 0.0, "fusion_lat": 0.0, "type": "electric_bike", "name": "bda6a7ba045e9447d0743558ba41137a", "is_disabled": 0, "rental_uris": {"ios": "https://dc.lft.to/lastmile_qr_scan", "android": "https://dc.lft.to/lastmile_qr_scan"}, "is_reserved": 0}, {"lon": -76.94199116666667, "bike_id": "ece3c0c9d15579ac599893b5059c4333", "lat": 38.893120333333336, "fusion_lon": 0.0, "fusion_lat": 0.0, "type": "electric_bike", "name": "ece3c0c9d15579ac599893b5059c4333", "is_disabled": 0, "rental_uris": {"ios": "https://dc.lft.to/lastmile_qr_scan", "android": "https://dc.lft.to/lastmile_qr_scan"}, "is_reserved": 0}, {"lon": -77.03622166666666, "bike_id": "163fff6d49c5c7da97ec78059c661d42", "lat": 38.93164516666667, "fusion_lon": 0.0, "fusion_lat": 0.0, "type": "electric_scooter", "name": "163fff6d49c5c7da97ec78059c661d42", "is_disabled": 0, "rental_uris": {"ios": "https://dc.lft.to/lastmile_qr_scan", "android": "https://dc.lft.to/lastmile_qr_scan"}, "is_reserved": 0}, {"lon": -77.02568933333333, "bike_id": "72b9008b444002edd13e2c78e5820145", "lat": 38.92459233333334, "fusion_lon": 0.0, "fusion_lat": 0.0, "type": "electric_scooter", "name": "72b9008b444002edd13e2c78e5820145", "is_disabled": 0, "rental_uris": {"ios": "https://dc.lft.to/lastmile_qr_scan", "android": "https://dc.lft.to/lastmile_qr_scan"}, "is_reserved": 0}, {"lon": -77.03272333333334, "bike_id": "8771ca3e6a3f32370bb7911e38e8abe9", "lat": 38.93247866666667, "fusion_lon": 0.0, "fusion_lat": 0.0, "type": "electric_scooter", "name": "8771ca3e6a3f32370bb7911e38e8abe9", "is_disabled": 0, "rental_uris": {"ios": "https://dc.lft.to/lastmile_qr_scan", "android": "https://dc.lft.to/lastmile_qr_scan"}, "is_reserved": 0}, {"lon": -77.0239495, "bike_id": "8f194a6960f729dbf2724731af8e93a7", "lat": 38.915209, "fusion_lon": 0.0, "fusion_lat": 0.0, "type": "electric_scooter", "name": "8f194a6960f729dbf2724731af8e93a7", "is_disabled": 0, "rental_uris": {"ios": "https://dc.lft.to/lastmile_qr_scan", "android": "https://dc.lft.to/lastmile_qr_scan"}, "is_reserved": 0}, {"lon": -77.001545, "bike_id": "2efd728d4f7681263a4d6963845c61f9", "lat": 38.8751215, "fusion_lon": 0.0, "fusion_lat": 0.0, "type": "electric_scooter", "name": "2efd728d4f7681263a4d6963845c61f9", "is_disabled": 0, "rental_uris": {"ios": "https://dc.lft.to/lastmile_qr_scan", "android": "https://dc.lft.to/lastmile_qr_scan"}, "is_reserved": 0}, {"lon": -77.03858533333333, "bike_id": "50bc0ae536a75956a577875301b63412", "lat": 38.903877, "fusion_lon": 0.0, "fusion_lat": 0.0, "type": "electric_scooter", "name": "50bc0ae536a75956a577875301b63412", "is_disabled": 0, "rental_uris": {"ios": "https://dc.lft.to/lastmile_qr_scan", "android": "https://dc.lft.to/lastmile_qr_scan"}, "is_reserved": 0}, {"lon": -76.99146016666667, "bike_id": "dafce8a63271d63d82eb09f33a57d8b3", "lat": 38.901224666666664, "fusion_lon": 0.0, "fusion_lat": 0.0, "type": "electric_scooter", "name": "dafce8a63271d63d82eb09f33a57d8b3", "is_disabled": 0, "rental_uris": {"ios": "https://dc.lft.to/lastmile_qr_scan", "android": "https://dc.lft.to/lastmile_qr_scan"}, "is_reserved": 0}, {"lon": -77.1253025, "bike_id": "c423dcc4e5298b7fa5af5936fa3f9978", "lat": 39.0563525, "fusion_lon": 0.0, "fusion_lat": 0.0, "type": "electric_bike", "name": "c423dcc4e5298b7fa5af5936fa3f9978", "is_disabled": 0, "rental_uris": {"ios": "https://dc.lft.to/lastmile_qr_scan", "android": "https://dc.lft.to/lastmile_qr_scan"}, "is_reserved": 0}, {"lon": -77.0335735, "bike_id": "32d9e524dd11e5d68b4a5f24bb277d34", "lat": 38.887071, "fusion_lon": 0.0, "fusion_lat": 0.0, "type": "electric_scooter", "name": "32d9e524dd11e5d68b4a5f24bb277d34", "is_disabled": 0, "rental_uris": {"ios": "https://dc.lft.to/lastmile_qr_scan", "android": "https://dc.lft.to/lastmile_qr_scan"}, "is_reserved": 0}, {"lon": -77.0755685, "bike_id": "e3cf67cd9240fcb6fb84e0a08c27d039", "lat": 38.894634, "fusion_lon": 0.0, "fusion_lat": 0.0, "type": "electric_scooter", "name": "e3cf67cd9240fcb6fb84e0a08c27d039", "is_disabled": 0, "rental_uris": {"ios": "https://dc.lft.to/lastmile_qr_scan", "android": "https://dc.lft.to/lastmile_qr_scan"}, "is_reserved": 0}, {"lon": -76.97626616666666, "bike_id": "5fa8f9bf73d0dae659eab576b8c53af4", "lat": 38.905746666666666, "fusion_lon": 0.0, "fusion_lat": 0.0, "type": "electric_scooter", "name": "5fa8f9bf73d0dae659eab576b8c53af4", "is_disabled": 0, "rental_uris": {"ios": "https://dc.lft.to/lastmile_qr_scan", "android": "https://dc.lft.to/lastmile_qr_scan"}, "is_reserved": 0}, {"lon": -77.04484816666667, "bike_id": "3ea9837c9e11cfd86d83144e945c4267", "lat": 38.892640166666666, "fusion_lon": 0.0, "fusion_lat": 0.0, "type": "electric_scooter", "name": "3ea9837c9e11cfd86d83144e945c4267", "is_disabled": 0, "rental_uris": {"ios": "https://dc.lft.to/lastmile_qr_scan", "android": "https://dc.lft.to/lastmile_qr_scan"}, "is_reserved": 0}, {"lon": -77.05914133333333, "bike_id": "8fd130478bdfe71e168d4c7ae5caa71a", "lat": 38.90363216666667, "fusion_lon": 0.0, "fusion_lat": 0.0, "type": "electric_scooter", "name": "8fd130478bdfe71e168d4c7ae5caa71a", "is_disabled": 0, "rental_uris": {"ios": "https://dc.lft.to/lastmile_qr_scan", "android": "https://dc.lft.to/lastmile_qr_scan"}, "is_reserved": 0}, {"lon": -76.978105, "bike_id": "2725c9b0d63de3a1c8eafefa9c61387f", "lat": 38.906750833333334, "fusion_lon": 0.0, "fusion_lat": 0.0, "type": "electric_scooter", "name": "2725c9b0d63de3a1c8eafefa9c61387f", "is_disabled": 0, "rental_uris": {"ios": "https://dc.lft.to/lastmile_qr_scan", "android": "https://dc.lft.to/lastmile_qr_scan"}, "is_reserved": 0}, {"lon": -77.00219833333334, "bike_id": "bd0259e36ee85d4f82412bba5d749a16", "lat": 38.91452483333333, "fusion_lon": 0.0, "fusion_lat": 0.0, "type": "electric_scooter", "name": "bd0259e36ee85d4f82412bba5d749a16", "is_disabled": 0, "rental_uris": {"ios": "https://dc.lft.to/lastmile_qr_scan", "android": "https://dc.lft.to/lastmile_qr_scan"}, "is_reserved": 0}, {"lon": -77.00110883333333, "bike_id": "d91998b9d299f992f1e7d2fca900c966", "lat": 38.917084833333334, "fusion_lon": 0.0, "fusion_lat": 0.0, "type": "electric_scooter", "name": "d91998b9d299f992f1e7d2fca900c966", "is_disabled": 0, "rental_uris": {"ios": "https://dc.lft.to/lastmile_qr_scan", "android": "https://dc.lft.to/lastmile_qr_scan"}, "is_reserved": 0}, {"lon": -76.895402, "bike_id": "22fca315f27dc5e62d0b1cc9b72178c1", "lat": 38.945571666666666, "fusion_lon": 0.0, "fusion_lat": 0.0, "type": "electric_bike", "name": "22fca315f27dc5e62d0b1cc9b72178c1", "is_disabled": 0, "rental_uris": {"ios": "https://dc.lft.to/lastmile_qr_scan", "android": "https://dc.lft.to/lastmile_qr_scan"}, "is_reserved": 0}, {"lon": -77.09468466666667, "bike_id": "8a50c015b6d5ce7d9179cedcb7a0c0fb", "lat": 38.807627, "fusion_lon": 0.0, "fusion_lat": 0.0, "type": "electric_bike", "name": "8a50c015b6d5ce7d9179cedcb7a0c0fb", "is_disabled": 0, "rental_uris": {"ios": "https://dc.lft.to/lastmile_qr_scan", "android": "https://dc.lft.to/lastmile_qr_scan"}, "is_reserved": 0}, {"lon": -77.04169566666667, "bike_id": "e90d4ad7dc951ec099e606f82cbb0324", "lat": 38.90674033333333, "fusion_lon": 0.0, "fusion_lat": 0.0, "type": "electric_scooter", "name": "e90d4ad7dc951ec099e606f82cbb0324", "is_disabled": 0, "rental_uris": {"ios": "https://dc.lft.to/lastmile_qr_scan", "android": "https://dc.lft.to/lastmile_qr_scan"}, "is_reserved": 0}, {"lon": -77.05334183333333, "bike_id": "aae4357e0a92dcc261c3b986c6a4c8df", "lat": 38.90715566666667, "fusion_lon": 0.0, "fusion_lat": 0.0, "type": "electric_scooter", "name": "aae4357e0a92dcc261c3b986c6a4c8df", "is_disabled": 0, "rental_uris": {"ios": "https://dc.lft.to/lastmile_qr_scan", "android": "https://dc.lft.to/lastmile_qr_scan"}, "is_reserved": 0}, {"lon": -77.05592466666667, "bike_id": "493a0691114eafbcc06cc8f48ec6a439", "lat": 38.91621883333333, "fusion_lon": 0.0, "fusion_lat": 0.0, "type": "electric_scooter", "name": "493a0691114eafbcc06cc8f48ec6a439", "is_disabled": 0, "rental_uris": {"ios": "https://dc.lft.to/lastmile_qr_scan", "android": "https://dc.lft.to/lastmile_qr_scan"}, "is_reserved": 0}, {"lon": -77.04392816666666, "bike_id": "f45be56a1c4ecd4ecc7e87a42c84f062", "lat": 38.917725, "fusion_lon": 0.0, "fusion_lat": 0.0, "type": "electric_scooter", "name": "f45be56a1c4ecd4ecc7e87a42c84f062", "is_disabled": 0, "rental_uris": {"ios": "https://dc.lft.to/lastmile_qr_scan", "android": "https://dc.lft.to/lastmile_qr_scan"}, "is_reserved": 0}, {"lon": -77.03839833333333, "bike_id": "b931fbe111c913f415efa9b05eb6f271", "lat": 38.9109455, "fusion_lon": 0.0, "fusion_lat": 0.0, "type": "electric_scooter", "name": "b931fbe111c913f415efa9b05eb6f271", "is_disabled": 0, "rental_uris": {"ios": "https://dc.lft.to/lastmile_qr_scan", "android": "https://dc.lft.to/lastmile_qr_scan"}, "is_reserved": 0}, {"lon": -77.02163583333333, "bike_id": "59e60c34b3bff543a2b3a3c23439b6cf", "lat": 38.8921955, "fusion_lon": 0.0, "fusion_lat": 0.0, "type": "electric_scooter", "name": "59e60c34b3bff543a2b3a3c23439b6cf", "is_disabled": 0, "rental_uris": {"ios": "https://dc.lft.to/lastmile_qr_scan", "android": "https://dc.lft.to/lastmile_qr_scan"}, "is_reserved": 0}, {"lon": -77.0273135, "bike_id": "d059f25fd581fc33937b16d43c3fc3da", "lat": 38.9408995, "fusion_lon": 0.0, "fusion_lat": 0.0, "type": "electric_scooter", "name": "d059f25fd581fc33937b16d43c3fc3da", "is_disabled": 0, "rental_uris": {"ios": "https://dc.lft.to/lastmile_qr_scan", "android": "https://dc.lft.to/lastmile_qr_scan"}, "is_reserved": 0}, {"lon": -77.01979183333333, "bike_id": "1b8dc0bf1b9d5718396ff0ac0567d103", "lat": 38.914927, "fusion_lon": 0.0, "fusion_lat": 0.0, "type": "electric_scooter", "name": "1b8dc0bf1b9d5718396ff0ac0567d103", "is_disabled": 0, "rental_uris": {"ios": "https://dc.lft.to/lastmile_qr_scan", "android": "https://dc.lft.to/lastmile_qr_scan"}, "is_reserved": 0}, {"lon": -77.0613885, "bike_id": "5ec9dc83b8a423857cd39bdc179a86d2", "lat": 38.9052775, "fusion_lon": 0.0, "fusion_lat": 0.0, "type": "electric_scooter", "name": "5ec9dc83b8a423857cd39bdc179a86d2", "is_disabled": 0, "rental_uris": {"ios": "https://dc.lft.to/lastmile_qr_scan", "android": "https://dc.lft.to/lastmile_qr_scan"}, "is_reserved": 0}, {"lon": -77.0747835, "bike_id": "39afe6efbab65bf9caa5fa4b5dcb813d", "lat": 38.963134833333335, "fusion_lon": 0.0, "fusion_lat": 0.0, "type": "electric_scooter", "name": "39afe6efbab65bf9caa5fa4b5dcb813d", "is_disabled": 0, "rental_uris": {"ios": "https://dc.lft.to/lastmile_qr_scan", "android": "https://dc.lft.to/lastmile_qr_scan"}, "is_reserved": 0}, {"lon": -77.00932266666666, "bike_id": "41c7e053036cc87eac03492d2507cffe", "lat": 38.896066166666664, "fusion_lon": 0.0, "fusion_lat": 0.0, "type": "electric_scooter", "name": "41c7e053036cc87eac03492d2507cffe", "is_disabled": 0, "rental_uris": {"ios": "https://dc.lft.to/lastmile_qr_scan", "android": "https://dc.lft.to/lastmile_qr_scan"}, "is_reserved": 0}, {"lon": -77.0244975, "bike_id": "31e23509956157956f0f8721e1479108", "lat": 38.930982166666666, "fusion_lon": 0.0, "fusion_lat": 0.0, "type": "electric_scooter", "name": "31e23509956157956f0f8721e1479108", "is_disabled": 0, "rental_uris": {"ios": "https://dc.lft.to/lastmile_qr_scan", "android": "https://dc.lft.to/lastmile_qr_scan"}, "is_reserved": 0}, {"lon": -77.03547866666666, "bike_id": "a289294f175d01274527e02b06221853", "lat": 38.91838, "fusion_lon": 0.0, "fusion_lat": 0.0, "type": "electric_scooter", "name": "a289294f175d01274527e02b06221853", "is_disabled": 0, "rental_uris": {"ios": "https://dc.lft.to/lastmile_qr_scan", "android": "https://dc.lft.to/lastmile_qr_scan"}, "is_reserved": 0}, {"lon": -77.0188795, "bike_id": "cd36998088167354e6dc84997c5cfd7e", "lat": 38.90045633333333, "fusion_lon": 0.0, "fusion_lat": 0.0, "type": "electric_scooter", "name": "cd36998088167354e6dc84997c5cfd7e", "is_disabled": 0, "rental_uris": {"ios": "https://dc.lft.to/lastmile_qr_scan", "android": "https://dc.lft.to/lastmile_qr_scan"}, "is_reserved": 0}, {"lon": -77.04011133333333, "bike_id": "f576da28a139d6ca2fd7d49f9148ad95", "lat": 38.90992633333333, "fusion_lon": 0.0, "fusion_lat": 0.0, "type": "electric_scooter", "name": "f576da28a139d6ca2fd7d49f9148ad95", "is_disabled": 0, "rental_uris": {"ios": "https://dc.lft.to/lastmile_qr_scan", "android": "https://dc.lft.to/lastmile_qr_scan"}, "is_reserved": 0}, {"lon": -77.02836266666667, "bike_id": "c244d89fc4aee111b4c6d8ffb5170fb6", "lat": 38.887693, "fusion_lon": 0.0, "fusion_lat": 0.0, "type": "electric_scooter", "name": "c244d89fc4aee111b4c6d8ffb5170fb6", "is_disabled": 0, "rental_uris": {"ios": "https://dc.lft.to/lastmile_qr_scan", "android": "https://dc.lft.to/lastmile_qr_scan"}, "is_reserved": 0}, {"lon": -77.1389045, "bike_id": "065040d3a9457b0cf4f02f9548630e45", "lat": 38.896705833333336, "fusion_lon": 0.0, "fusion_lat": 0.0, "type": "electric_bike", "name": "065040d3a9457b0cf4f02f9548630e45", "is_disabled": 0, "rental_uris": {"ios": "https://dc.lft.to/lastmile_qr_scan", "android": "https://dc.lft.to/lastmile_qr_scan"}, "is_reserved": 0}, {"lon": -77.03121316666666, "bike_id": "dd1fce6b922770e4637fb9e40ce6a61d", "lat": 38.904399833333336, "fusion_lon": 0.0, "fusion_lat": 0.0, "type": "electric_scooter", "name": "dd1fce6b922770e4637fb9e40ce6a61d", "is_disabled": 0, "rental_uris": {"ios": "https://dc.lft.to/lastmile_qr_scan", "android": "https://dc.lft.to/lastmile_qr_scan"}, "is_reserved": 0}, {"lon": -77.0217455, "bike_id": "065f4a7c218d55d6f54e15c9c6aad0b9", "lat": 38.91489166666667, "fusion_lon": 0.0, "fusion_lat": 0.0, "type": "electric_scooter", "name": "065f4a7c218d55d6f54e15c9c6aad0b9", "is_disabled": 0, "rental_uris": {"ios": "https://dc.lft.to/lastmile_qr_scan", "android": "https://dc.lft.to/lastmile_qr_scan"}, "is_reserved": 0}, {"lon": -76.98021383333334, "bike_id": "830bc9bc8dfab9654070ad501d4f1a66", "lat": 38.888641166666666, "fusion_lon": 0.0, "fusion_lat": 0.0, "type": "electric_scooter", "name": "830bc9bc8dfab9654070ad501d4f1a66", "is_disabled": 0, "rental_uris": {"ios": "https://dc.lft.to/lastmile_qr_scan", "android": "https://dc.lft.to/lastmile_qr_scan"}, "is_reserved": 0}, {"lon": -77.0591905, "bike_id": "ce929fcc5303110e0a76f27f02488773", "lat": 38.903856833333336, "fusion_lon": 0.0, "fusion_lat": 0.0, "type": "electric_scooter", "name": "ce929fcc5303110e0a76f27f02488773", "is_disabled": 0, "rental_uris": {"ios": "https://dc.lft.to/lastmile_qr_scan", "android": "https://dc.lft.to/lastmile_qr_scan"}, "is_reserved": 0}, {"lon": -77.0196365, "bike_id": "1ffe71fc13936d3273acf318eb139c65", "lat": 38.95653083333333, "fusion_lon": 0.0, "fusion_lat": 0.0, "type": "electric_scooter", "name": "1ffe71fc13936d3273acf318eb139c65", "is_disabled": 0, "rental_uris": {"ios": "https://dc.lft.to/lastmile_qr_scan", "android": "https://dc.lft.to/lastmile_qr_scan"}, "is_reserved": 0}, {"lon": -77.1157165, "bike_id": "c36c38ca6624fbbe3794b3fdabcd3507", "lat": 38.99346166666667, "fusion_lon": 0.0, "fusion_lat": 0.0, "type": "electric_bike", "name": "c36c38ca6624fbbe3794b3fdabcd3507", "is_disabled": 0, "rental_uris": {"ios": "https://dc.lft.to/lastmile_qr_scan", "android": "https://dc.lft.to/lastmile_qr_scan"}, "is_reserved": 0}, {"lon": -77.04424183333333, "bike_id": "71f970f655f7205413a72093ae7a953d", "lat": 38.9211725, "fusion_lon": 0.0, "fusion_lat": 0.0, "type": "electric_scooter", "name": "71f970f655f7205413a72093ae7a953d", "is_disabled": 0, "rental_uris": {"ios": "https://dc.lft.to/lastmile_qr_scan", "android": "https://dc.lft.to/lastmile_qr_scan"}, "is_reserved": 0}, {"lon": -77.01480566666666, "bike_id": "bf853ef9fe228075c51aa63ed454266c", "lat": 38.9587225, "fusion_lon": 0.0, "fusion_lat": 0.0, "type": "electric_scooter", "name": "bf853ef9fe228075c51aa63ed454266c", "is_disabled": 0, "rental_uris": {"ios": "https://dc.lft.to/lastmile_qr_scan", "android": "https://dc.lft.to/lastmile_qr_scan"}, "is_reserved": 0}, {"lon": -77.029647, "bike_id": "3fbc44358840cf2898bc9e18dec741b5", "lat": 38.917244, "fusion_lon": 0.0, "fusion_lat": 0.0, "type": "electric_scooter", "name": "3fbc44358840cf2898bc9e18dec741b5", "is_disabled": 0, "rental_uris": {"ios": "https://dc.lft.to/lastmile_qr_scan", "android": "https://dc.lft.to/lastmile_qr_scan"}, "is_reserved": 0}, {"lon": -77.03711833333334, "bike_id": "a7b52db79ee57d99b6020e29336a1fe6", "lat": 38.926418166666664, "fusion_lon": 0.0, "fusion_lat": 0.0, "type": "electric_scooter", "name": "a7b52db79ee57d99b6020e29336a1fe6", "is_disabled": 0, "rental_uris": {"ios": "https://dc.lft.to/lastmile_qr_scan", "android": "https://dc.lft.to/lastmile_qr_scan"}, "is_reserved": 0}, {"lon": -77.04194333333334, "bike_id": "110997c3dac5c7cd540ea875fc7384b4", "lat": 38.9208245, "fusion_lon": 0.0, "fusion_lat": 0.0, "type": "electric_scooter", "name": "110997c3dac5c7cd540ea875fc7384b4", "is_disabled": 0, "rental_uris": {"ios": "https://dc.lft.to/lastmile_qr_scan", "android": "https://dc.lft.to/lastmile_qr_scan"}, "is_reserved": 0}, {"lon": -76.9984045, "bike_id": "c03cb947ab4133a655e2afc3b10f248c", "lat": 38.9021285, "fusion_lon": 0.0, "fusion_lat": 0.0, "type": "electric_scooter", "name": "c03cb947ab4133a655e2afc3b10f248c", "is_disabled": 0, "rental_uris": {"ios": "https://dc.lft.to/lastmile_qr_scan", "android": "https://dc.lft.to/lastmile_qr_scan"}, "is_reserved": 0}, {"lon": -76.96779633333334, "bike_id": "a125b5a6548c93e1ad0344c25ff0d0b5", "lat": 38.86848483333333, "fusion_lon": 0.0, "fusion_lat": 0.0, "type": "electric_scooter", "name": "a125b5a6548c93e1ad0344c25ff0d0b5", "is_disabled": 0, "rental_uris": {"ios": "https://dc.lft.to/lastmile_qr_scan", "android": "https://dc.lft.to/lastmile_qr_scan"}, "is_reserved": 0}, {"lon": -77.03260433333334, "bike_id": "b7fb758fef18cf5e7f1c86138d5bb41b", "lat": 38.937265833333335, "fusion_lon": 0.0, "fusion_lat": 0.0, "type": "electric_scooter", "name": "b7fb758fef18cf5e7f1c86138d5bb41b", "is_disabled": 0, "rental_uris": {"ios": "https://dc.lft.to/lastmile_qr_scan", "android": "https://dc.lft.to/lastmile_qr_scan"}, "is_reserved": 0}, {"lon": -77.03544816666667, "bike_id": "f627e34b1a69c7aeab628f60e2d8603f", "lat": 38.92414183333333, "fusion_lon": 0.0, "fusion_lat": 0.0, "type": "electric_bike", "name": "f627e34b1a69c7aeab628f60e2d8603f", "is_disabled": 0, "rental_uris": {"ios": "https://dc.lft.to/lastmile_qr_scan", "android": "https://dc.lft.to/lastmile_qr_scan"}, "is_reserved": 0}, {"lon": -76.96152983333333, "bike_id": "73f29e652dccfcbba9ba81e72caaab08", "lat": 38.883590833333336, "fusion_lon": 0.0, "fusion_lat": 0.0, "type": "electric_scooter", "name": "73f29e652dccfcbba9ba81e72caaab08", "is_disabled": 0, "rental_uris": {"ios": "https://dc.lft.to/lastmile_qr_scan", "android": "https://dc.lft.to/lastmile_qr_scan"}, "is_reserved": 0}, {"lon": -77.03862883333333, "bike_id": "d044b05820278f56970613980ceb6572", "lat": 38.94502633333333, "fusion_lon": 0.0, "fusion_lat": 0.0, "type": "electric_scooter", "name": "d044b05820278f56970613980ceb6572", "is_disabled": 0, "rental_uris": {"ios": "https://dc.lft.to/lastmile_qr_scan", "android": "https://dc.lft.to/lastmile_qr_scan"}, "is_reserved": 0}, {"lon": -77.03888433333333, "bike_id": "e32b48214c7c73e38ff237369bc43ceb", "lat": 38.91005216666667, "fusion_lon": 0.0, "fusion_lat": 0.0, "type": "electric_scooter", "name": "e32b48214c7c73e38ff237369bc43ceb", "is_disabled": 0, "rental_uris": {"ios": "https://dc.lft.to/lastmile_qr_scan", "android": "https://dc.lft.to/lastmile_qr_scan"}, "is_reserved": 0}, {"lon": -77.032164, "bike_id": "85a3bd9a96e95738cdb2027bae9e1bae", "lat": 38.914869833333334, "fusion_lon": 0.0, "fusion_lat": 0.0, "type": "electric_scooter", "name": "85a3bd9a96e95738cdb2027bae9e1bae", "is_disabled": 0, "rental_uris": {"ios": "https://dc.lft.to/lastmile_qr_scan", "android": "https://dc.lft.to/lastmile_qr_scan"}, "is_reserved": 0}, {"lon": -77.0261505, "bike_id": "0e2ea678267d8d69acad4e09ef4f3a23", "lat": 38.91419333333333, "fusion_lon": 0.0, "fusion_lat": 0.0, "type": "electric_scooter", "name": "0e2ea678267d8d69acad4e09ef4f3a23", "is_disabled": 0, "rental_uris": {"ios": "https://dc.lft.to/lastmile_qr_scan", "android": "https://dc.lft.to/lastmile_qr_scan"}, "is_reserved": 0}, {"lon": -76.953685, "bike_id": "ec02ff75b18f505637cd1e3a251ec5e2", "lat": 38.892057333333334, "fusion_lon": 0.0, "fusion_lat": 0.0, "type": "electric_scooter", "name": "ec02ff75b18f505637cd1e3a251ec5e2", "is_disabled": 0, "rental_uris": {"ios": "https://dc.lft.to/lastmile_qr_scan", "android": "https://dc.lft.to/lastmile_qr_scan"}, "is_reserved": 0}, {"lon": -77.03481083333334, "bike_id": "73a2658628a989da17d95c2ab28b1608", "lat": 38.92871483333333, "fusion_lon": 0.0, "fusion_lat": 0.0, "type": "electric_scooter", "name": "73a2658628a989da17d95c2ab28b1608", "is_disabled": 0, "rental_uris": {"ios": "https://dc.lft.to/lastmile_qr_scan", "android": "https://dc.lft.to/lastmile_qr_scan"}, "is_reserved": 0}, {"lon": -76.9872515, "bike_id": "723f3ff810ab18cfc44b3b7be23d429e", "lat": 38.866827666666666, "fusion_lon": 0.0, "fusion_lat": 0.0, "type": "electric_scooter", "name": "723f3ff810ab18cfc44b3b7be23d429e", "is_disabled": 0, "rental_uris": {"ios": "https://dc.lft.to/lastmile_qr_scan", "android": "https://dc.lft.to/lastmile_qr_scan"}, "is_reserved": 0}, {"lon": -77.00582983333334, "bike_id": "0d1bcf9c29dc4879ca6a90e77db687a1", "lat": 38.8843835, "fusion_lon": 0.0, "fusion_lat": 0.0, "type": "electric_scooter", "name": "0d1bcf9c29dc4879ca6a90e77db687a1", "is_disabled": 0, "rental_uris": {"ios": "https://dc.lft.to/lastmile_qr_scan", "android": "https://dc.lft.to/lastmile_qr_scan"}, "is_reserved": 0}, {"lon": -76.99534916666667, "bike_id": "fc56bcce8e39adf2c8c98b382878cbdd", "lat": 38.86203416666667, "fusion_lon": 0.0, "fusion_lat": 0.0, "type": "electric_scooter", "name": "fc56bcce8e39adf2c8c98b382878cbdd", "is_disabled": 0, "rental_uris": {"ios": "https://dc.lft.to/lastmile_qr_scan", "android": "https://dc.lft.to/lastmile_qr_scan"}, "is_reserved": 0}, {"lon": -77.1392065, "bike_id": "99ad8350242d0b68368363b1cef5dd3f", "lat": 38.87303766666667, "fusion_lon": 0.0, "fusion_lat": 0.0, "type": "electric_bike", "name": "99ad8350242d0b68368363b1cef5dd3f", "is_disabled": 0, "rental_uris": {"ios": "https://dc.lft.to/lastmile_qr_scan", "android": "https://dc.lft.to/lastmile_qr_scan"}, "is_reserved": 0}, {"lon": -77.02814883333333, "bike_id": "6dec5e1a08014b428cd8767b1645a6cd", "lat": 38.90667416666667, "fusion_lon": 0.0, "fusion_lat": 0.0, "type": "electric_scooter", "name": "6dec5e1a08014b428cd8767b1645a6cd", "is_disabled": 0, "rental_uris": {"ios": "https://dc.lft.to/lastmile_qr_scan", "android": "https://dc.lft.to/lastmile_qr_scan"}, "is_reserved": 0}, {"lon": -77.05566133333333, "bike_id": "f5e2be8f41cfc67eb1178fb6acfd70f3", "lat": 38.897357666666664, "fusion_lon": 0.0, "fusion_lat": 0.0, "type": "electric_scooter", "name": "f5e2be8f41cfc67eb1178fb6acfd70f3", "is_disabled": 0, "rental_uris": {"ios": "https://dc.lft.to/lastmile_qr_scan", "android": "https://dc.lft.to/lastmile_qr_scan"}, "is_reserved": 0}, {"lon": -76.9822745, "bike_id": "ce919a906e08bc67264bbe0b4b8efc4c", "lat": 38.864743, "fusion_lon": 0.0, "fusion_lat": 0.0, "type": "electric_scooter", "name": "ce919a906e08bc67264bbe0b4b8efc4c", "is_disabled": 0, "rental_uris": {"ios": "https://dc.lft.to/lastmile_qr_scan", "android": "https://dc.lft.to/lastmile_qr_scan"}, "is_reserved": 0}, {"lon": -77.03443633333333, "bike_id": "8fef8db205cd58672d09214f356c086e", "lat": 38.9057535, "fusion_lon": 0.0, "fusion_lat": 0.0, "type": "electric_scooter", "name": "8fef8db205cd58672d09214f356c086e", "is_disabled": 0, "rental_uris": {"ios": "https://dc.lft.to/lastmile_qr_scan", "android": "https://dc.lft.to/lastmile_qr_scan"}, "is_reserved": 0}, {"lon": -76.9465245, "bike_id": "7cf37583cbf7002d345ad127d4eb0977", "lat": 38.8982625, "fusion_lon": 0.0, "fusion_lat": 0.0, "type": "electric_scooter", "name": "7cf37583cbf7002d345ad127d4eb0977", "is_disabled": 0, "rental_uris": {"ios": "https://dc.lft.to/lastmile_qr_scan", "android": "https://dc.lft.to/lastmile_qr_scan"}, "is_reserved": 0}, {"lon": -77.03432233333334, "bike_id": "7a788f741880f39f6b981d1b899a84e8", "lat": 38.965334666666664, "fusion_lon": 0.0, "fusion_lat": 0.0, "type": "electric_bike", "name": "7a788f741880f39f6b981d1b899a84e8", "is_disabled": 0, "rental_uris": {"ios": "https://dc.lft.to/lastmile_qr_scan", "android": "https://dc.lft.to/lastmile_qr_scan"}, "is_reserved": 0}, {"lon": -77.01763466666667, "bike_id": "cd3d346657e84ec0db19397b64b55da2", "lat": 38.90021466666666, "fusion_lon": 0.0, "fusion_lat": 0.0, "type": "electric_scooter", "name": "cd3d346657e84ec0db19397b64b55da2", "is_disabled": 0, "rental_uris": {"ios": "https://dc.lft.to/lastmile_qr_scan", "android": "https://dc.lft.to/lastmile_qr_scan"}, "is_reserved": 0}, {"lon": -76.9903305, "bike_id": "130d60357549206719ec533f6a70a5bf", "lat": 38.89601283333333, "fusion_lon": 0.0, "fusion_lat": 0.0, "type": "electric_scooter", "name": "130d60357549206719ec533f6a70a5bf", "is_disabled": 0, "rental_uris": {"ios": "https://dc.lft.to/lastmile_qr_scan", "android": "https://dc.lft.to/lastmile_qr_scan"}, "is_reserved": 0},