{"data": {"bikes": [{"name": "0e998fffcef0d1741e981995573f0aee", "lon": -76.91135583333333, "lat": 38.894250666666665, "type": "electric_scooter", "fusion_lon": 0.0, "is_reserved": 0, "bike_id": "0e998fffcef0d1741e981995573f0aee", "fusion_lat": 0.0, "is_disabled": 0, "rental_uris": {"ios": "https://dc.lft.to/lastmile_qr_scan", "android": "https://dc.lft.to/lastmile_qr_scan"}}, {"name": "96121bd08848ab00013bc9562e43dd1d", "lon": -77.03515783333333, "lat": 38.92731033333333, "type": "electric_scooter", "fusion_lon": 0.0, "is_reserved": 0, "bike_id": "96121bd08848ab00013bc9562e43dd1d", "fusion_lat": 0.0, "is_disabled": 0, "rental_uris": {"ios": "https://dc.lft.to/lastmile_qr_scan", "android": "https://dc.lft.to/lastmile_qr_scan"}}, {"name": "1560966b10eb0519e0d507653393f12c", "lon": -77.0542205, "lat": 38.90244933333334, "type": "electric_scooter", "fusion_lon": 0.0, "is_reserved": 0, "bike_id": "1560966b10eb0519e0d507653393f12c", "fusion_lat": 0.0, "is_disabled": 0, "rental_uris": {"ios": "https://dc.lft.to/lastmile_qr_scan", "android": "https://dc.lft.to/lastmile_qr_scan"}}, {"name": "89a3d048b6a950eefcb1af1404baaae1", "lon": -76.99353066666667, "lat": 38.8450765, "type": "electric_scooter", "fusion_lon": 0.0, "is_reserved": 0, "bike_id": "89a3d048b6a950eefcb1af1404baaae1", "fusion_lat": 0.0, "is_disabled": 0, "rental_uris": {"ios": "https://dc.lft.to/lastmile_qr_scan", "android": "https://dc.lft.to/lastmile_qr_scan"}}, {"name": "9faffd6d2f3ca59f98e47e67d319a568", "lon": -76.98094833333333, "lat": 38.8813705, "type": "electric_bike", "fusion_lon": 0.0, "is_reserved": 0, "bike_id": "9faffd6d2f3ca59f98e47e67d319a568", "fusion_lat": 0.0, "is_disabled": 0, "rental_uris": {"ios": "https://dc.lft.to/lastmile_qr_scan", "android": "https://dc.lft.to/lastmile_qr_scan"}}, {"name": "3965d258d3522afb853bba8a3ea6c84b", "lon": -76.998554, "lat": 38.88746116666667, "type": "electric_scooter", "fusion_lon": 0.0, "is_reserved": 0, "bike_id": "3965d258d3522afb853bba8a3ea6c84b", "fusion_lat": 0.0, "is_disabled": 0, "rental_uris": {"ios": "https://dc.lft.to/lastmile_qr_scan", "android": "https://dc.lft.to/lastmile_qr_scan"}}, {"name": "20c423b956ed20c3fcfd474ace864560", "lon": -76.98348733333333, "lat": 38.914939, "type": "electric_scooter", "fusion_lon": 0.0, "is_reserved": 0, "bike_id": "20c423b956ed20c3fcfd474ace864560", "fusion_lat": 0.0, "is_disabled": 0, "rental_uris": {"ios": "https://dc.lft.to/lastmile_qr_scan", "android": "https://dc.lft.to/lastmile_qr_scan"}}, {"name": "393d058b43bf763b70ee253728fc8796", "lon": -77.041875, "lat": 38.926171, "type": "electric_scooter", "fusion_lon": 0.0, "is_reserved": 0, "bike_id": "393d058b43bf763b70ee253728fc8796", "fusion_lat": 0.0, "is_disabled": 0, "rental_uris": {"ios": "https://dc.lft.to/lastmile_qr_scan", "android": "https://dc.lft.to/lastmile_qr_scan"}}, {"name": "51c1eb966ced07c21de5f229294fb60d", "lon": -77.0562035, "lat": 38.92418966666666, "type": "electric_scooter", "fusion_lon": 0.0, "is_reserved": 0, "bike_id": "51c1eb966ced07c21de5f229294fb60d", "fusion_lat": 0.0, "is_disabled": 0, "rental_uris": {"ios": "https://dc.lft.to/lastmile_qr_scan", "android": "https://dc.lft.to/lastmile_qr_scan"}}, {"name": "13f2e666a824566090e13cdae1b6c87a", "lon": -76.94632833333333, "lat": 38.898459333333335, "type": "electric_scooter", "fusion_lon": 0.0, "is_reserved": 0, "bike_id": "13f2e666a824566090e13cdae1b6c87a", "fusion_lat": 0.0, "is_disabled": 0, "rental_uris": {"ios": "https://dc.lft.to/lastmile_qr_scan", "android": "https://dc.lft.to/lastmile_qr_scan"}}, {"name": "1f3f5644bf86e71ed4683a2c55f11790", "lon": -77.02007116666667, "lat": 38.913181333333334, "type": "electric_scooter", "fusion_lon": 0.0, "is_reserved": 0, "bike_id": "1f3f5644bf86e71ed4683a2c55f11790", "fusion_lat": 0.0, "is_disabled": 0, "rental_uris": {"ios": "https://dc.lft.to/lastmile_qr_scan", "android": "https://dc.lft.to/lastmile_qr_scan"}}, {"name": "255995435d915f1ec6222c37a25f3823", "lon": -77.00228033333333, "lat": 38.9003615, "type": "electric_scooter", "fusion_lon": 0.0, "is_reserved": 0, "bike_id": "255995435d915f1ec6222c37a25f3823", "fusion_lat": 0.0, "is_disabled": 0, "rental_uris": {"ios": "https://dc.lft.to/lastmile_qr_scan", "android": "https://dc.lft.to/lastmile_qr_scan"}}, {"name": "76523a5a5dcbe285e9f36b5328c1e2e3", "lon": -77.0277445, "lat": 38.898384666666665, "type": "electric_scooter", "fusion_lon": 0.0, "is_reserved": 0, "bike_id": "76523a5a5dcbe285e9f36b5328c1e2e3", "fusion_lat": 0.0, "is_disabled": 0, "rental_uris": {"ios": "https://dc.lft.to/lastmile_qr_scan", "android": "https://dc.lft.to/lastmile_qr_scan"}}, {"name": "ff59144b3aee73bf9182b5cb6914fb78", "lon": -76.98244083333333, "lat": 38.908942, "type": "electric_scooter", "fusion_lon": 0.0, "is_reserved": 0, "bike_id": "ff59144b3aee73bf9182b5cb6914fb78", "fusion_lat": 0.0, "is_disabled": 0, "rental_uris": {"ios": "https://dc.lft.to/lastmile_qr_scan", "android": "https://dc.lft.to/lastmile_qr_scan"}}, {"name": "ea4c03726ebe1a1567c72a97d151598f", "lon": -77.01775166666667, "lat": 38.920969166666666, "type": "electric_scooter", "fusion_lon": 0.0, "is_reserved": 0, "bike_id": "ea4c03726ebe1a1567c72a97d151598f", "fusion_lat": 0.0, "is_disabled": 0, "rental_uris": {"ios": "https://dc.lft.to/lastmile_qr_scan", "android": "https://dc.lft.to/lastmile_qr_scan"}}, {"name": "a90f2b59187e64ccd4d88fc1d04360e0", "lon": -77.030647, "lat": 38.922610166666665, "type": "electric_scooter", "fusion_lon": 0.0, "is_reserved": 0, "bike_id": "a90f2b59187e64ccd4d88fc1d04360e0", "fusion_lat": 0.0, "is_disabled": 0, "rental_uris": {"ios": "https://dc.lft.to/lastmile_qr_scan", "android": "https://dc.lft.to/lastmile_qr_scan"}}, {"name": "22d6f7d0a9e66abcd21384d8efec8dc7", "lon": -77.031344, "lat": 38.9237185, "type": "electric_scooter", "fusion_lon": 0.0, "is_reserved": 0, "bike_id": "22d6f7d0a9e66abcd21384d8efec8dc7", "fusion_lat": 0.0, "is_disabled": 0, "rental_uris": {"ios": "https://dc.lft.to/lastmile_qr_scan", "android": "https://dc.lft.to/lastmile_qr_scan"}}, {"name": "bb4cdd8532a528b4737e5c7430864c24", "lon": -77.01603016666667, "lat": 38.91807166666667, "type": "electric_scooter", "fusion_lon": 0.0, "is_reserved": 0, "bike_id": "bb4cdd8532a528b4737e5c7430864c24", "fusion_lat": 0.0, "is_disabled": 0, "rental_uris": {"ios": "https://dc.lft.to/lastmile_qr_scan", "android": "https://dc.lft.to/lastmile_qr_scan"}}, {"name": "1197e623e44fb7a243b43f7883650501", "lon": -76.99732916666666, "lat": 38.90126566666667, "type": "electric_scooter", "fusion_lon": 0.0, "is_reserved": 0, "bike_id": "1197e623e44fb7a243b43f7883650501", "fusion_lat": 0.0, "is_disabled": 0, "rental_uris": {"ios": "https://dc.lft.to/lastmile_qr_scan", "android": "https://dc.lft.to/lastmile_qr_scan"}}, {"name": "ced4727829d86a541640bc038c223109", "lon": -77.0629825, "lat": 38.904024166666666, "type": "electric_scooter", "fusion_lon": 0.0, "is_reserved": 0, "bike_id": "ced4727829d86a541640bc038c223109", "fusion_lat": 0.0, "is_disabled": 0, "rental_uris": {"ios": "https://dc.lft.to/lastmile_qr_scan", "android": "https://dc.lft.to/lastmile_qr_scan"}}, {"name": "ce9215289b2e0144097cd56a2fff188f", "lon": -77.027234, "lat": 38.93424733333333, "type": "electric_scooter", "fusion_lon": 0.0, "is_reserved": 0, "bike_id": "ce9215289b2e0144097cd56a2fff188f", "fusion_lat": 0.0, "is_disabled": 0, "rental_uris": {"ios": "https://dc.lft.to/lastmile_qr_scan", "android": "https://dc.lft.to/lastmile_qr_scan"}}, {"name": "ae24271b924d22d62fd87714d282aac6", "lon": -76.98693216666666, "lat": 38.862595666666664, "type": "electric_scooter", "fusion_lon": 0.0, "is_reserved": 0, "bike_id": "ae24271b924d22d62fd87714d282aac6", "fusion_lat": 0.0, "is_disabled": 0, "rental_uris": {"ios": "https://dc.lft.to/lastmile_qr_scan", "android": "https://dc.lft.to/lastmile_qr_scan"}}, {"name": "14441294dc699d8ba6aac2e271a754a6", "lon": -77.0264485, "lat": 38.8919555, "type": "electric_scooter", "fusion_lon": 0.0, "is_reserved": 0, "bike_id": "14441294dc699d8ba6aac2e271a754a6", "fusion_lat": 0.0, "is_disabled": 0, "rental_uris": {"ios": "https://dc.lft.to/lastmile_qr_scan", "android": "https://dc.lft.to/lastmile_qr_scan"}}, {"name": "d9309a93d739325c3719712845639086", "lon": -77.00845466666667, "lat": 38.912591666666664, "type": "electric_scooter", "fusion_lon": 0.0, "is_reserved": 0, "bike_id": "d9309a93d739325c3719712845639086", "fusion_lat": 0.0, "is_disabled": 0, "rental_uris": {"ios": "https://dc.lft.to/lastmile_qr_scan", "android": "https://dc.lft.to/lastmile_qr_scan"}}, {"name": "8230fd62e828b74e8c20f13af62db08d", "lon": -77.02799633333333, "lat": 38.96157683333333, "type": "electric_scooter", "fusion_lon": 0.0, "is_reserved": 0, "bike_id": "8230fd62e828b74e8c20f13af62db08d", "fusion_lat": 0.0, "is_disabled": 0, "rental_uris": {"ios": "https://dc.lft.to/lastmile_qr_scan", "android": "https://dc.lft.to/lastmile_qr_scan"}}, {"name": "c01d2f1d6e9cc1a73167773c130cca26", "lon": -77.06328083333334, "lat": 38.90771683333333, "type": "electric_scooter", "fusion_lon": 0.0, "is_reserved": 0, "bike_id": "c01d2f1d6e9cc1a73167773c130cca26", "fusion_lat": 0.0, "is_disabled": 0, "rental_uris": {"ios": "https://dc.lft.to/lastmile_qr_scan", "android": "https://dc.lft.to/lastmile_qr_scan"}}, {"name": "a59c5bfed72457b2e14483e8d669e7fe", "lon": -77.03276383333333, "lat": 38.93673583333333, "type": "electric_scooter", "fusion_lon": 0.0, "is_reserved": 0, "bike_id": "a59c5bfed72457b2e14483e8d669e7fe", "fusion_lat": 0.0, "is_disabled": 0, "rental_uris": {"ios": "https://dc.lft.to/lastmile_qr_scan", "android": "https://dc.lft.to/lastmile_qr_scan"}}, {"name": "0a9a26918baa34b0ee0566752557132f", "lon": -77.02766083333333, "lat": 38.9542375, "type": "electric_scooter", "fusion_lon": 0.0, "is_reserved": 0, "bike_id": "0a9a26918baa34b0ee0566752557132f", "fusion_lat": 0.0, "is_disabled": 0, "rental_uris": {"ios": "https://dc.lft.to/lastmile_qr_scan", "android": "https://dc.lft.to/lastmile_qr_scan"}}, {"name": "79004e7cc268ec2fdfc2dfd3fa7e0f4b", "lon": -77.01442433333334, "lat": 38.91969, "type": "electric_scooter", "fusion_lon": 0.0, "is_reserved": 0, "bike_id": "79004e7cc268ec2fdfc2dfd3fa7e0f4b", "fusion_lat": 0.0, "is_disabled": 0, "rental_uris": {"ios": "https://dc.lft.to/lastmile_qr_scan", "android": "https://dc.lft.to/lastmile_qr_scan"}}, {"name": "fb642c5708fd5940d7c39cb6ca044e0f", "lon": -77.05348916666667, "lat": 38.923586666666665, "type": "electric_scooter", "fusion_lon": 0.0, "is_reserved": 0, "bike_id": "fb642c5708fd5940d7c39cb6ca044e0f", "fusion_lat": 0.0, "is_disabled": 0, "rental_uris": {"ios": "https://dc.lft.to/lastmile_qr_scan", "android": "https://dc.lft.to/lastmile_qr_scan"}}, {"name": "2593c8c42e02f4220d55765975322f06", "lon": -77.02773666666667, "lat": 38.954315, "type": "electric_scooter", "fusion_lon": 0.0, "is_reserved": 0, "bike_id": "2593c8c42e02f4220d55765975322f06", "fusion_lat": 0.0, "is_disabled": 0, "rental_uris": {"ios": "https://dc.lft.to/lastmile_qr_scan", "android": "https://dc.lft.to/lastmile_qr_scan"}}, {"name": "e984df0afd33cd2366e789ef551cedf6", "lon": -77.02821283333333, "lat": 38.88736633333333, "type": "electric_scooter", "fusion_lon": 0.0, "is_reserved": 0, "bike_id": "e984df0afd33cd2366e789ef551cedf6", "fusion_lat": 0.0, "is_disabled": 0, "rental_uris": {"ios": "https://dc.lft.to/lastmile_qr_scan", "android": "https://dc.lft.to/lastmile_qr_scan"}}, {"name": "08737a8647340ff1c6f3c14b77ad632b", "lon": -77.04615933333334, "lat": 38.902422666666666, "type": "electric_scooter", "fusion_lon": 0.0, "is_reserved": 0, "bike_id": "08737a8647340ff1c6f3c14b77ad632b", "fusion_lat": 0.0, "is_disabled": 0, "rental_uris": {"ios": "https://dc.lft.to/lastmile_qr_scan", "android": "https://dc.lft.to/lastmile_qr_scan"}}, {"name": "83f05ac5e6a25cf9c014686f3b7e815a", "lon": -77.04758583333333, "lat": 38.917643166666664, "type": "electric_scooter", "fusion_lon": 0.0, "is_reserved": 0, "bike_id": "83f05ac5e6a25cf9c014686f3b7e815a", "fusion_lat": 0.0, "is_disabled": 0, "rental_uris": {"ios": "https://dc.lft.to/lastmile_qr_scan", "android": "https://dc.lft.to/lastmile_qr_scan"}}, {"name": "eb5bd52aba9ded612bb2424f31177f5a", "lon": -76.92525066666667, "lat": 38.95924883333333, "type": "electric_bike", "fusion_lon": 0.0, "is_reserved": 0, "bike_id": "eb5bd52aba9ded612bb2424f31177f5a", "fusion_lat": 0.0, "is_disabled": 0, "rental_uris": {"ios": "https://dc.lft.to/lastmile_qr_scan", "android": "https://dc.lft.to/lastmile_qr_scan"}}, {"name": "923302d7951fde5fadaf7dfda930fd84", "lon": -77.0586365, "lat": 38.93613533333333, "type": "electric_scooter", "fusion_lon": 0.0, "is_reserved": 0, "bike_id": "923302d7951fde5fadaf7dfda930fd84", "fusion_lat": 0.0, "is_disabled": 0, "rental_uris": {"ios": "https://dc.lft.to/lastmile_qr_scan", "android": "https://dc.lft.to/lastmile_qr_scan"}}, {"name": "0b409dbc417c48920ce3c86e6ef702c8", "lon": -76.9899365, "lat": 38.86389116666667, "type": "electric_bike", "fusion_lon": 0.0, "is_reserved": 0, "bike_id": "0b409dbc417c48920ce3c86e6ef702c8", "fusion_lat": 0.0, "is_disabled": 0, "rental_uris": {"ios": "https://dc.lft.to/lastmile_qr_scan", "android": "https://dc.lft.to/lastmile_qr_scan"}}, {"name": "f8abd1493f77a722d2031bc2862bb8b7", "lon": -76.990852, "lat": 38.862394, "type": "electric_bike", "fusion_lon": 0.0, "is_reserved": 0, "bike_id": "f8abd1493f77a722d2031bc2862bb8b7", "fusion_lat": 0.0, "is_disabled": 0, "rental_uris": {"ios": "https://dc.lft.to/lastmile_qr_scan", "android": "https://dc.lft.to/lastmile_qr_scan"}}, {"name": "80dbbeee2369ab836768e7afd025e03f", "lon": -77.033067, "lat": 38.956406333333334, "type": "electric_scooter", "fusion_lon": 0.0, "is_reserved": 0, "bike_id": "80dbbeee2369ab836768e7afd025e03f", "fusion_lat": 0.0, "is_disabled": 0, "rental_uris": {"ios": "https://dc.lft.to/lastmile_qr_scan", "android": "https://dc.lft.to/lastmile_qr_scan"}}, {"name": "d2ffb7b8aeeb6fc0c99d7bdeaa46e248", "lon": -77.02179033333333, "lat": 38.901557333333336, "type": "electric_scooter", "fusion_lon": 0.0, "is_reserved": 0, "bike_id": "d2ffb7b8aeeb6fc0c99d7bdeaa46e248", "fusion_lat": 0.0, "is_disabled": 0, "rental_uris": {"ios": "https://dc.lft.to/lastmile_qr_scan", "android": "https://dc.lft.to/lastmile_qr_scan"}}, {"name": "7de5f1779842320d5eb7d4f818ef90c9", "lon": -77.0160955, "lat": 38.8950895, "type": "electric_scooter", "fusion_lon": 0.0, "is_reserved": 0, "bike_id": "7de5f1779842320d5eb7d4f818ef90c9", "fusion_lat": 0.0, "is_disabled": 0, "rental_uris": {"ios": "https://dc.lft.to/lastmile_qr_scan", "android": "https://dc.lft.to/lastmile_qr_scan"}}, {"name": "90e03b445f09a0befe91a403fa4e53da", "lon": -77.03183433333334, "lat": 38.90818483333334, "type": "electric_scooter", "fusion_lon": 0.0, "is_reserved": 0, "bike_id": "90e03b445f09a0befe91a403fa4e53da", "fusion_lat": 0.0, "is_disabled": 0, "rental_uris": {"ios": "https://dc.lft.to/lastmile_qr_scan", "android": "https://dc.lft.to/lastmile_qr_scan"}}, {"name": "053773ea9c620a460455d8cac599635e", "lon": -77.0424595, "lat": 38.920625333333334, "type": "electric_scooter", "fusion_lon": 0.0, "is_reserved": 0, "bike_id": "053773ea9c620a460455d8cac599635e", "fusion_lat": 0.0, "is_disabled": 0, "rental_uris": {"ios": "https://dc.lft.to/lastmile_qr_scan", "android": "https://dc.lft.to/lastmile_qr_scan"}}, {"name": "1e723f727f93787a0982257b8c2ff2c6", "lon": -77.03065983333333, "lat": 38.91743183333333, "type": "electric_scooter", "fusion_lon": 0.0, "is_reserved": 0, "bike_id": "1e723f727f93787a0982257b8c2ff2c6", "fusion_lat": 0.0, "is_disabled": 0, "rental_uris": {"ios": "https://dc.lft.to/lastmile_qr_scan", "android": "https://dc.lft.to/lastmile_qr_scan"}}, {"name": "fb3598d819586619dbbf6306010cd317", "lon": -76.96258866666666, "lat": 38.882515833333336, "type": "electric_bike", "fusion_lon": 0.0, "is_reserved": 0, "bike_id": "fb3598d819586619dbbf6306010cd317", "fusion_lat": 0.0, "is_disabled": 0, "rental_uris": {"ios": "https://dc.lft.to/lastmile_qr_scan", "android": "https://dc.lft.to/lastmile_qr_scan"}}, {"name": "1dee2ee0e027886bbaaf82d737d9df34", "lon": -77.02612633333334, "lat": 38.90126266666667, "type": "electric_scooter", "fusion_lon": 0.0, "is_reserved": 0, "bike_id": "1dee2ee0e027886bbaaf82d737d9df34", "fusion_lat": 0.0, "is_disabled": 0, "rental_uris": {"ios": "https://dc.lft.to/lastmile_qr_scan", "android": "https://dc.lft.to/lastmile_qr_scan"}}, {"name": "f7e3c5d42a87ae67b71afaf627bdd2aa", "lon": -77.10333866666667, "lat": 38.8742015, "type": "electric_bike", "fusion_lon": 0.0, "is_reserved": 0, "bike_id": "f7e3c5d42a87ae67b71afaf627bdd2aa", "fusion_lat": 0.0, "is_disabled": 0, "rental_uris": {"ios": "https://dc.lft.to/lastmile_qr_scan", "android": "https://dc.lft.to/lastmile_qr_scan"}}, {"name": "768b3f6beee135fe47be65922354ed47", "lon": -77.06075633333333, "lat": 38.901436333333336, "type": "electric_scooter", "fusion_lon": 0.0, "is_reserved": 0, "bike_id": "768b3f6beee135fe47be65922354ed47", "fusion_lat": 0.0, "is_disabled": 0, "rental_uris": {"ios": "https://dc.lft.to/lastmile_qr_scan", "android": "https://dc.lft.to/lastmile_qr_scan"}}, {"name": "b6b7dee5d0639a1f692a8c5c27a1aab4", "lon": -76.9861355, "lat": 38.938284333333335, "type": "electric_scooter", "fusion_lon": 0.0, "is_reserved": 0, "bike_id": "b6b7dee5d0639a1f692a8c5c27a1aab4", "fusion_lat": 0.0, "is_disabled": 0, "rental_uris": {"ios": "https://dc.lft.to/lastmile_qr_scan", "android": "https://dc.lft.to/lastmile_qr_scan"}}, {"name": "ff4e38687ca8a7da3b61fd211d6d1af3", "lon": -76.976498, "lat": 38.898559666666664, "type": "electric_scooter", "fusion_lon": 0.0, "is_reserved": 0, "bike_id": "ff4e38687ca8a7da3b61fd211d6d1af3", "fusion_lat": 0.0, "is_disabled": 0, "rental_uris": {"ios": "https://dc.lft.to/lastmile_qr_scan", "android": "https://dc.lft.to/lastmile_qr_scan"}}, {"name": "f2b786d24348fee41c232ef4c61bd4d3", "lon": -77.0266595, "lat": 38.92781816666667, "type": "electric_scooter", "fusion_lon": 0.0, "is_reserved": 0, "bike_id": "f2b786d24348fee41c232ef4c61bd4d3", "fusion_lat": 0.0, "is_disabled": 0, "rental_uris": {"ios": "https://dc.lft.to/lastmile_qr_scan", "android": "https://dc.lft.to/lastmile_qr_scan"}}, {"name": "39595615dc7d3caa477966fc58446052", "lon": -77.0340945, "lat": 38.9231115, "type": "electric_scooter", "fusion_lon": 0.0, "is_reserved": 0, "bike_id": "39595615dc7d3caa477966fc58446052", "fusion_lat": 0.0, "is_disabled": 0, "rental_uris": {"ios": "https://dc.lft.to/lastmile_qr_scan", "android": "https://dc.lft.to/lastmile_qr_scan"}}, {"name": "4c0b8331dd07bf74f605476b37dee913", "lon": -76.99389133333334, "lat": 38.89728816666667, "type": "electric_scooter", "fusion_lon": 0.0, "is_reserved": 0, "bike_id": "4c0b8331dd07bf74f605476b37dee913", "fusion_lat": 0.0, "is_disabled": 0, "rental_uris": {"ios": "https://dc.lft.to/lastmile_qr_scan", "android": "https://dc.lft.to/lastmile_qr_scan"}}, {"name": "12bc5bf398b73fde57d7737bf977cfd2", "lon": -77.02964216666666, "lat": 38.92331383333333, "type": "electric_scooter", "fusion_lon": 0.0, "is_reserved": 0, "bike_id": "12bc5bf398b73fde57d7737bf977cfd2", "fusion_lat": 0.0, "is_disabled": 0, "rental_uris": {"ios": "https://dc.lft.to/lastmile_qr_scan", "android": "https://dc.lft.to/lastmile_qr_scan"}}, {"name": "22c00f557241768265971a0bd539978e", "lon": -76.99944966666666, "lat": 38.842939, "type": "electric_scooter", "fusion_lon": 0.0, "is_reserved": 0, "bike_id": "22c00f557241768265971a0bd539978e", "fusion_lat": 0.0, "is_disabled": 0, "rental_uris": {"ios": "https://dc.lft.to/lastmile_qr_scan", "android": "https://dc.lft.to/lastmile_qr_scan"}}, {"name": "d0e16e19fa156e6f5afbf6dbbbc209d3", "lon": -77.03936833333333, "lat": 38.915605166666666, "type": "electric_scooter", "fusion_lon": 0.0, "is_reserved": 0, "bike_id": "d0e16e19fa156e6f5afbf6dbbbc209d3", "fusion_lat": 0.0, "is_disabled": 0, "rental_uris": {"ios": "https://dc.lft.to/lastmile_qr_scan", "android": "https://dc.lft.to/lastmile_qr_scan"}}, {"name": "3901c801fa757704984c75f810e71404", "lon": -77.04598066666667, "lat": 38.917162166666664, "type": "electric_scooter", "fusion_lon": 0.0, "is_reserved": 0, "bike_id": "3901c801fa757704984c75f810e71404", "fusion_lat": 0.0, "is_disabled": 0, "rental_uris": {"ios": "https://dc.lft.to/lastmile_qr_scan", "android": "https://dc.lft.to/lastmile_qr_scan"}}, {"name": "dfb1b025fb3e4282e683a2d41f3ceecf", "lon": -77.02958466666666, "lat": 38.92337833333333, "type": "electric_scooter", "fusion_lon": 0.0, "is_reserved": 0, "bike_id": "dfb1b025fb3e4282e683a2d41f3ceecf", "fusion_lat": 0.0, "is_disabled": 0, "rental_uris": {"ios": "https://dc.lft.to/lastmile_qr_scan", "android": "https://dc.lft.to/lastmile_qr_scan"}}, {"name": "6468eda1d3053e878a2bcea95a32fc0c", "lon": -77.00067416666667, "lat": 38.91604866666667, "type": "electric_scooter", "fusion_lon": 0.0, "is_reserved": 0, "bike_id": "6468eda1d3053e878a2bcea95a32fc0c", "fusion_lat": 0.0, "is_disabled": 0, "rental_uris": {"ios": "https://dc.lft.to/lastmile_qr_scan", "android": "https://dc.lft.to/lastmile_qr_scan"}}, {"name": "653b5721b2de516da5bd8e5b7528e24e", "lon": -77.01518233333333, "lat": 38.884023666666664, "type": "electric_scooter", "fusion_lon": 0.0, "is_reserved": 0, "bike_id": "653b5721b2de516da5bd8e5b7528e24e", "fusion_lat": 0.0, "is_disabled": 0, "rental_uris": {"ios": "https://dc.lft.to/lastmile_qr_scan", "android": "https://dc.lft.to/lastmile_qr_scan"}}, {"name": "5d5b89c6a05e70f79808020fea761122", "lon": -77.02041083333333, "lat": 38.892690333333334, "type": "electric_scooter", "fusion_lon": 0.0, "is_reserved": 0, "bike_id": "5d5b89c6a05e70f79808020fea761122", "fusion_lat": 0.0, "is_disabled": 0, "rental_uris": {"ios": "https://dc.lft.to/lastmile_qr_scan", "android": "https://dc.lft.to/lastmile_qr_scan"}}, {"name": "c24a81bbd77f4bcc0efbba3749a3138a", "lon": -77.03122733333333, "lat": 38.914143, "type": "electric_scooter", "fusion_lon": 0.0, "is_reserved": 0, "bike_id": "c24a81bbd77f4bcc0efbba3749a3138a", "fusion_lat": 0.0, "is_disabled": 0, "rental_uris": {"ios": "https://dc.lft.to/lastmile_qr_scan", "android": "https://dc.lft.to/lastmile_qr_scan"}}, {"name": "06d68db59987b8aa7f7a92fc7424feeb", "lon": -77.043311, "lat": 38.892285, "type": "electric_scooter", "fusion_lon": 0.0, "is_reserved": 0, "bike_id": "06d68db59987b8aa7f7a92fc7424feeb", "fusion_lat": 0.0, "is_disabled": 0, "rental_uris": {"ios": "https://dc.lft.to/lastmile_qr_scan", "android": "https://dc.lft.to/lastmile_qr_scan"}}, {"name": "38da8424883f6e2f7c256eef54e9c8a3", "lon": -77.077086, "lat": 38.84096916666667, "type": "electric_bike", "fusion_lon": 0.0, "is_reserved": 0, "bike_id": "38da8424883f6e2f7c256eef54e9c8a3", "fusion_lat": 0.0, "is_disabled": 0, "rental_uris": {"ios": "https://dc.lft.to/lastmile_qr_scan", "android": "https://dc.lft.to/lastmile_qr_scan"}}, {"name": "1d0aac1cb2733668383faa0fb4e073ff", "lon": -77.0159635, "lat": 38.917192666666665, "type": "electric_scooter", "fusion_lon": 0.0, "is_reserved": 0, "bike_id": "1d0aac1cb2733668383faa0fb4e073ff", "fusion_lat": 0.0, "is_disabled": 0, "rental_uris": {"ios": "https://dc.lft.to/lastmile_qr_scan", "android": "https://dc.lft.to/lastmile_qr_scan"}}, {"name": "4be19752280f190a1fc2c328f22fd83d", "lon": -77.04173233333333, "lat": 38.917344166666666, "type": "electric_scooter", "fusion_lon": 0.0, "is_reserved": 0, "bike_id": "4be19752280f190a1fc2c328f22fd83d", "fusion_lat": 0.0, "is_disabled": 0, "rental_uris": {"ios": "https://dc.lft.to/lastmile_qr_scan", "android": "https://dc.lft.to/lastmile_qr_scan"}}, {"name": "9f873090b683ab67a5604072f6c500be", "lon": -77.00454166666667, "lat": 38.920809, "type": "electric_scooter", "fusion_lon": 0.0, "is_reserved": 0, "bike_id": "9f873090b683ab67a5604072f6c500be", "fusion_lat": 0.0, "is_disabled": 0, "rental_uris": {"ios": "https://dc.lft.to/lastmile_qr_scan", "android": "https://dc.lft.to/lastmile_qr_scan"}}, {"name": "8fd11eca839741f92e333ce98984fadb", "lon": -77.05863766666667, "lat": 38.936077833333336, "type": "electric_scooter", "fusion_lon": 0.0, "is_reserved": 0, "bike_id": "8fd11eca839741f92e333ce98984fadb", "fusion_lat": 0.0, "is_disabled": 0, "rental_uris": {"ios": "https://dc.lft.to/lastmile_qr_scan", "android": "https://dc.lft.to/lastmile_qr_scan"}}, {"name": "9a7ddbdb0e5c8d5e97923953a7d1be2c", "lon": -77.00208016666667, "lat": 38.89543833333333, "type": "electric_scooter", "fusion_lon": 0.0, "is_reserved": 0, "bike_id": "9a7ddbdb0e5c8d5e97923953a7d1be2c", "fusion_lat": 0.0, "is_disabled": 0, "rental_uris": {"ios": "https://dc.lft.to/lastmile_qr_scan", "android": "https://dc.lft.to/lastmile_qr_scan"}}, {"name": "c0f9b99d805eefd4dfc4feea65ff7da6", "lon": -76.993645, "lat": 38.92842983333333, "type": "electric_scooter", "fusion_lon": 0.0, "is_reserved": 0, "bike_id": "c0f9b99d805eefd4dfc4feea65ff7da6", "fusion_lat": 0.0, "is_disabled": 0, "rental_uris": {"ios": "https://dc.lft.to/lastmile_qr_scan", "android": "https://dc.lft.to/lastmile_qr_scan"}}, {"name": "5cdc665b144d44c33b422f631dcb7d3b", "lon": -76.9877755, "lat": 38.88294116666667, "type": "electric_scooter", "fusion_lon": 0.0, "is_reserved": 0, "bike_id": "5cdc665b144d44c33b422f631dcb7d3b", "fusion_lat": 0.0, "is_disabled": 0, "rental_uris": {"ios": "https://dc.lft.to/lastmile_qr_scan", "android": "https://dc.lft.to/lastmile_qr_scan"}}, {"name": "945d09deea7204ccbefa8b6ba7bfd087", "lon": -77.02987516666667, "lat": 38.922024666666665, "type": "electric_scooter", "fusion_lon": 0.0, "is_reserved": 0, "bike_id": "945d09deea7204ccbefa8b6ba7bfd087", "fusion_lat": 0.0, "is_disabled": 0, "rental_uris": {"ios": "https://dc.lft.to/lastmile_qr_scan", "android": "https://dc.lft.to/lastmile_qr_scan"}}, {"name": "00e14ae78d7a08e74a5797603d29af1f", "lon": -77.04329633333333, "lat": 38.8922875, "type": "electric_scooter", "fusion_lon": 0.0, "is_reserved": 0, "bike_id": "00e14ae78d7a08e74a5797603d29af1f", "fusion_lat": 0.0, "is_disabled": 0, "rental_uris": {"ios": "https://dc.lft.to/lastmile_qr_scan", "android": "https://dc.lft.to/lastmile_qr_scan"}}, {"name": "a1c8d1c0b866d1b21e99446c8ef5f6c5", "lon": -77.034556, "lat": 38.92154033333333, "type": "electric_scooter", "fusion_lon": 0.0, "is_reserved": 0, "bike_id": "a1c8d1c0b866d1b21e99446c8ef5f6c5", "fusion_lat": 0.0, "is_disabled": 0, "rental_uris": {"ios": "https://dc.lft.to/lastmile_qr_scan", "android": "https://dc.lft.to/lastmile_qr_scan"}}, {"name": "0519a24a35b2030e1102a83cb23021ca", "lon": -77.00286283333334, "lat": 38.91183766666666, "type": "electric_bike", "fusion_lon": 0.0, "is_reserved": 0, "bike_id": "0519a24a35b2030e1102a83cb23021ca", "fusion_lat": 0.0, "is_disabled": 0, "rental_uris": {"ios": "https://dc.lft.to/lastmile_qr_scan", "android": "https://dc.lft.to/lastmile_qr_scan"}}, {"name": "1888998d57510b51a3912656b19aa417", "lon": -77.0332425, "lat": 38.921576, "type": "electric_scooter", "fusion_lon": 0.0, "is_reserved": 0, "bike_id": "1888998d57510b51a3912656b19aa417", "fusion_lat": 0.0, "is_disabled": 0, "rental_uris": {"ios": "https://dc.lft.to/lastmile_qr_scan", "android": "https://dc.lft.to/lastmile_qr_scan"}}, {"name": "f23ebe5d0ec4c875f27c0f09e74915da", "lon": -76.98693583333333, "lat": 38.862542, "type": "electric_scooter", "fusion_lon": 0.0, "is_reserved": 0, "bike_id": "f23ebe5d0ec4c875f27c0f09e74915da", "fusion_lat": 0.0, "is_disabled": 0, "rental_uris": {"ios": "https://dc.lft.to/lastmile_qr_scan", "android": "https://dc.lft.to/lastmile_qr_scan"}}, {"name": "0bfed0f4e4cb4250859bc78857fdf6c9", "lon": -77.03433166666667, "lat": 38.9057805, "type": "electric_scooter", "fusion_lon": 0.0, "is_reserved": 0, "bike_id": "0bfed0f4e4cb4250859bc78857fdf6c9", "fusion_lat": 0.0, "is_disabled": 0, "rental_uris": {"ios": "https://dc.lft.to/lastmile_qr_scan", "android": "https://dc.lft.to/lastmile_qr_scan"}}, {"name": "a94dcebd719b6ce612d5ecd5121e8dd4", "lon": -77.02281733333334, "lat": 38.9096395, "type": "electric_scooter", "fusion_lon": 0.0, "is_reserved": 0, "bike_id": "a94dcebd719b6ce612d5ecd5121e8dd4", "fusion_lat": 0.0, "is_disabled": 0, "rental_uris": {"ios": "https://dc.lft.to/lastmile_qr_scan", "android": "https://dc.lft.to/lastmile_qr_scan"}}, {"name": "1d81bda459f067ae2327444c9c3734cf", "lon": -77.029798, "lat": 38.937023833333335, "type": "electric_bike", "fusion_lon": 0.0, "is_reserved": 0, "bike_id": "1d81bda459f067ae2327444c9c3734cf", "fusion_lat": 0.0, "is_disabled": 0, "rental_uris": {"ios": "https://dc.lft.to/lastmile_qr_scan", "android": "https://dc.lft.to/lastmile_qr_scan"}}, {"name": "95d6b0cd343c5474670c41bd8d2ef868", "lon": -77.0367975, "lat": 38.908435, "type": "electric_scooter", "fusion_lon": 0.0, "is_reserved": 0, "bike_id": "95d6b0cd343c5474670c41bd8d2ef868", "fusion_lat": 0.0, "is_disabled": 0, "rental_uris": {"ios": "https://dc.lft.to/lastmile_qr_scan", "android": "https://dc.lft.to/lastmile_qr_scan"}}, {"name": "9d98531a0b2d6e3ce1aafb80f5f324c3", "lon": -77.029738, "lat": 38.92442466666667, "type": "electric_scooter", "fusion_lon": 0.0, "is_reserved": 0, "bike_id": "9d98531a0b2d6e3ce1aafb80f5f324c3", "fusion_lat": 0.0, "is_disabled": 0, "rental_uris": {"ios": "https://dc.lft.to/lastmile_qr_scan", "android": "https://dc.lft.to/lastmile_qr_scan"}}, {"name": "b353a5d20a08074cb49cb927c1ebfdce", "lon": -77.03668916666666, "lat": 38.92726066666667, "type": "electric_scooter", "fusion_lon": 0.0, "is_reserved": 0, "bike_id": "b353a5d20a08074cb49cb927c1ebfdce", "fusion_lat": 0.0, "is_disabled": 0, "rental_uris": {"ios": "https://dc.lft.to/lastmile_qr_scan", "android": "https://dc.lft.to/lastmile_qr_scan"}}, {"name": "a66c72cb886ff978e4e89c3ed169798a", "lon": -77.07739366666667, "lat": 38.92377316666666, "type": "electric_scooter", "fusion_lon": 0.0, "is_reserved": 0, "bike_id": "a66c72cb886ff978e4e89c3ed169798a", "fusion_lat": 0.0, "is_disabled": 0, "rental_uris": {"ios": "https://dc.lft.to/lastmile_qr_scan", "android": "https://dc.lft.to/lastmile_qr_scan"}}, {"name": "cd6321b608925849e318410c1ea3b400", "lon": -77.023382, "lat": 38.94514783333333, "type": "electric_scooter", "fusion_lon": 0.0, "is_reserved": 0, "bike_id": "cd6321b608925849e318410c1ea3b400", "fusion_lat": 0.0, "is_disabled": 0, "rental_uris": {"ios": "https://dc.lft.to/lastmile_qr_scan", "android": "https://dc.lft.to/lastmile_qr_scan"}}, {"name": "c95ac4b8fb61bb0dd982f27a7a37deeb", "lon": -77.049997, "lat": 38.89233633333333, "type": "electric_scooter", "fusion_lon": 0.0, "is_reserved": 0, "bike_id": "c95ac4b8fb61bb0dd982f27a7a37deeb", "fusion_lat": 0.0, "is_disabled": 0, "rental_uris": {"ios": "https://dc.lft.to/lastmile_qr_scan", "android": "https://dc.lft.to/lastmile_qr_scan"}}, {"name": "18808fcb93aba3a96b5d665ae4d27e93", "lon": -76.9771625, "lat": 38.902606, "type": "electric_scooter", "fusion_lon": 0.0, "is_reserved": 0, "bike_id": "18808fcb93aba3a96b5d665ae4d27e93", "fusion_lat": 0.0, "is_disabled": 0, "rental_uris": {"ios": "https://dc.lft.to/lastmile_qr_scan", "android": "https://dc.lft.to/lastmile_qr_scan"}}, {"name": "0e466970cecb5cc690ced782ef8134ce", "lon": -76.94637033333333, "lat": 38.898449666666664, "type": "electric_scooter", "fusion_lon": 0.0, "is_reserved": 0, "bike_id": "0e466970cecb5cc690ced782ef8134ce", "fusion_lat": 0.0, "is_disabled": 0, "rental_uris": {"ios": "https://dc.lft.to/lastmile_qr_scan", "android": "https://dc.lft.to/lastmile_qr_scan"}}, {"name": "ed95bc38cba694fd83958483a3e128e0", "lon": -77.0344325, "lat": 38.910093, "type": "electric_scooter", "fusion_lon": 0.0, "is_reserved": 0, "bike_id": "ed95bc38cba694fd83958483a3e128e0", "fusion_lat": 0.0, "is_disabled": 0, "rental_uris": {"ios": "https://dc.lft.to/lastmile_qr_scan", "android": "https://dc.lft.to/lastmile_qr_scan"}}, {"name": "cebcff19040f07e59054ee24d8a996cd", "lon": -77.03503683333334, "lat": 38.91708933333334, "type": "electric_scooter", "fusion_lon": 0.0, "is_reserved": 0, "bike_id": "cebcff19040f07e59054ee24d8a996cd", "fusion_lat": 0.0, "is_disabled": 0, "rental_uris": {"ios": "https://dc.lft.to/lastmile_qr_scan", "android": "https://dc.lft.to/lastmile_qr_scan"}}, {"name": "dde6fb362e0898161c5d27c61e2c0e75", "lon": -77.02181466666667, "lat": 38.90160916666667, "type": "electric_scooter", "fusion_lon": 0.0, "is_reserved": 0, "bike_id": "dde6fb362e0898161c5d27c61e2c0e75", "fusion_lat": 0.0, "is_disabled": 0, "rental_uris": {"ios": "https://dc.lft.to/lastmile_qr_scan", "android": "https://dc.lft.to/lastmile_qr_scan"}}, {"name": "8b9ea9e9c23bc1d49ecd46a2215f799a", "lon": -77.02411233333333, "lat": 38.95739, "type": "electric_scooter", "fusion_lon": 0.0, "is_reserved": 0, "bike_id": "8b9ea9e9c23bc1d49ecd46a2215f799a", "fusion_lat": 0.0, "is_disabled": 0, "rental_uris": {"ios": "https://dc.lft.to/lastmile_qr_scan", "android": "https://dc.lft.to/lastmile_qr_scan"}}, {"name": "a8adc51d8644496a045dc9a9a853878d", "lon": -77.02188033333333, "lat": 38.914634, "type": "electric_scooter", "fusion_lon": 0.0, "is_reserved": 0, "bike_id": "a8adc51d8644496a045dc9a9a853878d", "fusion_lat": 0.0, "is_disabled": 0, "rental_uris": {"ios": "https://dc.lft.to/lastmile_qr_scan", "android": "https://dc.lft.to/lastmile_qr_scan"}}, {"name": "61d1bab371c0f47d01109bf8c905c456", "lon": -76.96983816666666, "lat": 38.856156166666665, "type": "electric_scooter", "fusion_lon": 0.0, "is_reserved": 0, "bike_id": "61d1bab371c0f47d01109bf8c905c456", "fusion_lat": 0.0, "is_disabled": 0, "rental_uris": {"ios": "https://dc.lft.to/lastmile_qr_scan", "android": "https://dc.lft.to/lastmile_qr_scan"}}, {"name": "d65c8f3a696315544bcf11fbe6ac7c93", "lon": -77.03300566666667, "lat": 38.928763000000004, "type": "electric_scooter", "fusion_lon": 0.0, "is_reserved": 0, "bike_id": "d65c8f3a696315544bcf11fbe6ac7c93", "fusion_lat": 0.0, "is_disabled": 0, "rental_uris": {"ios": "https://dc.lft.to/lastmile_qr_scan", "android": "https://dc.lft.to/lastmile_qr_scan"}}, {"name": "95de52d2bbc88f7b8cb9a619b7257cc6", "lon": -77.0433545, "lat": 38.908002, "type": "electric_scooter", "fusion_lon": 0.0, "is_reserved": 0, "bike_id": "95de52d2bbc88f7b8cb9a619b7257cc6", "fusion_lat": 0.0, "is_disabled": 0, "rental_uris": {"ios": "https://dc.lft.to/lastmile_qr_scan", "android": "https://dc.lft.to/lastmile_qr_scan"}}, {"name": "f158eeee764568776550fea81a906a75", "lon": -77.03085833333333, "lat": 38.93168633333333, "type": "electric_scooter", "fusion_lon": 0.0, "is_reserved": 0, "bike_id": "f158eeee764568776550fea81a906a75", "fusion_lat": 0.0, "is_disabled": 0, "rental_uris": {"ios": "https://dc.lft.to/lastmile_qr_scan", "android": "https://dc.lft.to/lastmile_qr_scan"}}, {"name": "8f02ebc58a6764fbee8ead0265d61ec5", "lon": -77.04620266666667, "lat": 38.9158535, "type": "electric_scooter", "fusion_lon": 0.0, "is_reserved": 0, "bike_id": "8f02ebc58a6764fbee8ead0265d61ec5", "fusion_lat": 0.0, "is_disabled": 0, "rental_uris": {"ios": "https://dc.lft.to/lastmile_qr_scan", "android": "https://dc.lft.to/lastmile_qr_scan"}}, {"name": "5c8217a8e904d404daeb06cbe701ddd1", "lon": -77.041013, "lat": 38.917765, "type": "electric_scooter", "fusion_lon": 0.0, "is_reserved": 0, "bike_id": "5c8217a8e904d404daeb06cbe701ddd1", "fusion_lat": 0.0, "is_disabled": 0, "rental_uris": {"ios": "https://dc.lft.to/lastmile_qr_scan", "android": "https://dc.lft.to/lastmile_qr_scan"}}, {"name": "b17634754422f0c66aa37077d17c1292", "lon": -77.02139116666666, "lat": 38.937655666666664, "type": "electric_scooter", "fusion_lon": 0.0, "is_reserved": 0, "bike_id": "b17634754422f0c66aa37077d17c1292", "fusion_lat": 0.0, "is_disabled": 0, "rental_uris": {"ios": "https://dc.lft.to/lastmile_qr_scan", "android": "https://dc.lft.to/lastmile_qr_scan"}}, {"name": "e0e4c9c7bae0092ba34cf64271728acf", "lon": -77.039802, "lat": 38.902680333333336, "type": "electric_scooter", "fusion_lon": 0.0, "is_reserved": 0, "bike_id": "e0e4c9c7bae0092ba34cf64271728acf", "fusion_lat": 0.0, "is_disabled": 0, "rental_uris": {"ios": "https://dc.lft.to/lastmile_qr_scan", "android": "https://dc.lft.to/lastmile_qr_scan"}}, {"name": "f8ce82f70c7055685200e06c1830ade7", "lon": -77.06938216666667, "lat": 38.9078825, "type": "electric_scooter", "fusion_lon": 0.0, "is_reserved": 0, "bike_id": "f8ce82f70c7055685200e06c1830ade7", "fusion_lat": 0.0, "is_disabled": 0, "rental_uris": {"ios": "https://dc.lft.to/lastmile_qr_scan", "android": "https://dc.lft.to/lastmile_qr_scan"}}, {"name": "7bdc4b0a3b5a8743d2731ed779a3c2a6", "lon": -77.02808566666667, "lat": 38.88180583333333, "type": "electric_scooter", "fusion_lon": 0.0, "is_reserved": 0, "bike_id": "7bdc4b0a3b5a8743d2731ed779a3c2a6", "fusion_lat": 0.0, "is_disabled": 0, "rental_uris": {"ios": "https://dc.lft.to/lastmile_qr_scan", "android": "https://dc.lft.to/lastmile_qr_scan"}}, {"name": "238f50f2ade1d93dafeb379f6db887a9", "lon": -77.05884016666667, "lat": 38.918305333333336, "type": "electric_scooter", "fusion_lon": 0.0, "is_reserved": 0, "bike_id": "238f50f2ade1d93dafeb379f6db887a9", "fusion_lat": 0.0, "is_disabled": 0, "rental_uris": {"ios": "https://dc.lft.to/lastmile_qr_scan", "android": "https://dc.lft.to/lastmile_qr_scan"}}, {"name": "b907995074a2ade2518db57b42639878", "lon": -77.04011533333333, "lat": 38.922041166666666, "type": "electric_scooter", "fusion_lon": 0.0, "is_reserved": 0, "bike_id": "b907995074a2ade2518db57b42639878", "fusion_lat": 0.0, "is_disabled": 0, "rental_uris": {"ios": "https://dc.lft.to/lastmile_qr_scan", "android": "https://dc.lft.to/lastmile_qr_scan"}}, {"name": "26cac52ba38887a68fea26fac1b9fc5d", "lon": -76.9840095, "lat": 38.867009833333334, "type": "electric_scooter", "fusion_lon": 0.0, "is_reserved": 0, "bike_id": "26cac52ba38887a68fea26fac1b9fc5d", "fusion_lat": 0.0, "is_disabled": 0, "rental_uris": {"ios": "https://dc.lft.to/lastmile_qr_scan", "android": "https://dc.lft.to/lastmile_qr_scan"}}, {"name": "2e029558f980e8623df443b2224c43d9", "lon": -77.01244133333333, "lat": 38.915488833333335, "type": "electric_scooter", "fusion_lon": 0.0, "is_reserved": 0, "bike_id": "2e029558f980e8623df443b2224c43d9", "fusion_lat": 0.0, "is_disabled": 0, "rental_uris": {"ios": "https://dc.lft.to/lastmile_qr_scan", "android": "https://dc.lft.to/lastmile_qr_scan"}}, {"name": "85a4a7ad3696a77b3fc222060ceb5d3d", "lon": -77.03238266666666, "lat": 38.91558366666667, "type": "electric_scooter", "fusion_lon": 0.0, "is_reserved": 0, "bike_id": "85a4a7ad3696a77b3fc222060ceb5d3d", "fusion_lat": 0.0, "is_disabled": 0, "rental_uris": {"ios": "https://dc.lft.to/lastmile_qr_scan", "android": "https://dc.lft.to/lastmile_qr_scan"}}, {"name": "5a78a11056f88fe03a8955b53e0f8a76", "lon": -77.023678, "lat": 38.9021625, "type": "electric_scooter", "fusion_lon": 0.0, "is_reserved": 0, "bike_id": "5a78a11056f88fe03a8955b53e0f8a76", "fusion_lat": 0.0, "is_disabled": 0, "rental_uris": {"ios": "https://dc.lft.to/lastmile_qr_scan", "android": "https://dc.lft.to/lastmile_qr_scan"}}, {"name": "eb66540364c4c1b343a1401c85d23d53", "lon": -76.93341716666667, "lat": 38.8881305, "type": "electric_scooter", "fusion_lon": 0.0, "is_reserved": 0, "bike_id": "eb66540364c4c1b343a1401c85d23d53", "fusion_lat": 0.0, "is_disabled": 0, "rental_uris": {"ios": "https://dc.lft.to/lastmile_qr_scan", "android": "https://dc.lft.to/lastmile_qr_scan"}}, {"name": "47b3bc176fbcc5527e591fad395cf9d4", "lon": -77.04334333333334, "lat": 38.904844, "type": "electric_scooter", "fusion_lon": 0.0, "is_reserved": 0, "bike_id": "47b3bc176fbcc5527e591fad395cf9d4", "fusion_lat": 0.0, "is_disabled": 0, "rental_uris": {"ios": "https://dc.lft.to/lastmile_qr_scan", "android": "https://dc.lft.to/lastmile_qr_scan"}}, {"name": "2fd0feb2a00e585c1274629156e34887", "lon": -77.02678816666666, "lat": 38.89642966666667, "type": "electric_scooter", "fusion_lon": 0.0, "is_reserved": 0, "bike_id": "2fd0feb2a00e585c1274629156e34887", "fusion_lat": 0.0, "is_disabled": 0, "rental_uris": {"ios": "https://dc.lft.to/lastmile_qr_scan", "android": "https://dc.lft.to/lastmile_qr_scan"}}, {"name": "4897c344f756a55152518de58d130fbe", "lon": -77.0500475, "lat": 38.8923155, "type": "electric_scooter", "fusion_lon": 0.0, "is_reserved": 0, "bike_id": "4897c344f756a55152518de58d130fbe", "fusion_lat": 0.0, "is_disabled": 0, "rental_uris": {"ios": "https://dc.lft.to/lastmile_qr_scan", "android": "https://dc.lft.to/lastmile_qr_scan"}}, {"name": "ee848a4866dfb271a65b2f0140275443", "lon": -76.99069683333333, "lat": 38.904224, "type": "electric_scooter", "fusion_lon": 0.0, "is_reserved": 0, "bike_id": "ee848a4866dfb271a65b2f0140275443", "fusion_lat": 0.0, "is_disabled": 0, "rental_uris": {"ios": "https://dc.lft.to/lastmile_qr_scan", "android": "https://dc.lft.to/lastmile_qr_scan"}}, {"name": "4ab93232ffaf7c1020642e6423342d05", "lon": -77.02523433333333, "lat": 38.9096025, "type": "electric_scooter", "fusion_lon": 0.0, "is_reserved": 0, "bike_id": "4ab93232ffaf7c1020642e6423342d05", "fusion_lat": 0.0, "is_disabled": 0, "rental_uris": {"ios": "https://dc.lft.to/lastmile_qr_scan", "android": "https://dc.lft.to/lastmile_qr_scan"}}, {"name": "8510498540ded7e246d63da873e3cea5", "lon": -76.93756433333333, "lat": 38.890406, "type": "electric_scooter", "fusion_lon": 0.0, "is_reserved": 0, "bike_id": "8510498540ded7e246d63da873e3cea5", "fusion_lat": 0.0, "is_disabled": 0, "rental_uris": {"ios": "https://dc.lft.to/lastmile_qr_scan", "android": "https://dc.lft.to/lastmile_qr_scan"}}, {"name": "1e9bffb494d8c6c39be4c24d2b3f7a0d", "lon": -77.007757, "lat": 38.90732933333334, "type": "electric_scooter", "fusion_lon": 0.0, "is_reserved": 0, "bike_id": "1e9bffb494d8c6c39be4c24d2b3f7a0d", "fusion_lat": 0.0, "is_disabled": 0, "rental_uris": {"ios": "https://dc.lft.to/lastmile_qr_scan", "android": "https://dc.lft.to/lastmile_qr_scan"}}, {"name": "b22dfc5e5da7ca34007ac7041e5e71fe", "lon": -77.03214966666667, "lat": 38.896662166666665, "type": "electric_scooter", "fusion_lon": 0.0, "is_reserved": 0, "bike_id": "b22dfc5e5da7ca34007ac7041e5e71fe", "fusion_lat": 0.0, "is_disabled": 0, "rental_uris": {"ios": "https://dc.lft.to/lastmile_qr_scan", "android": "https://dc.lft.to/lastmile_qr_scan"}}, {"name": "7908a465099978506bdb5df2dadc2453", "lon": -77.00180983333334, "lat": 38.900283333333334, "type": "electric_scooter", "fusion_lon": 0.0, "is_reserved": 0, "bike_id": "7908a465099978506bdb5df2dadc2453", "fusion_lat": 0.0, "is_disabled": 0, "rental_uris": {"ios": "https://dc.lft.to/lastmile_qr_scan", "android": "https://dc.lft.to/lastmile_qr_scan"}}, {"name": "dea64a8aefd92c0847aa78c771edd2eb", "lon": -77.073087, "lat": 38.86488, "type": "electric_bike", "fusion_lon": 0.0, "is_reserved": 0, "bike_id": "dea64a8aefd92c0847aa78c771edd2eb", "fusion_lat": 0.0, "is_disabled": 0, "rental_uris": {"ios": "https://dc.lft.to/lastmile_qr_scan", "android": "https://dc.lft.to/lastmile_qr_scan"}}, {"name": "da83a1017c9193a940181a88304f55a0", "lon": -77.04335433333334, "lat": 38.9178415, "type": "electric_scooter", "fusion_lon": 0.0, "is_reserved": 0, "bike_id": "da83a1017c9193a940181a88304f55a0", "fusion_lat": 0.0, "is_disabled": 0, "rental_uris": {"ios": "https://dc.lft.to/lastmile_qr_scan", "android": "https://dc.lft.to/lastmile_qr_scan"}}, {"name": "ccf54d77da14f1f7283003fa861673fe", "lon": -77.0123435, "lat": 38.931062833333336, "type": "electric_scooter", "fusion_lon": 0.0, "is_reserved": 0, "bike_id": "ccf54d77da14f1f7283003fa861673fe", "fusion_lat": 0.0, "is_disabled": 0, "rental_uris": {"ios": "https://dc.lft.to/lastmile_qr_scan", "android": "https://dc.lft.to/lastmile_qr_scan"}}, {"name": "ce83a701e1c12999b789dd3913ad958f", "lon": -76.99779183333334, "lat": 38.844356833333336, "type": "electric_scooter", "fusion_lon": 0.0, "is_reserved": 0, "bike_id": "ce83a701e1c12999b789dd3913ad958f", "fusion_lat": 0.0, "is_disabled": 0, "rental_uris": {"ios": "https://dc.lft.to/lastmile_qr_scan", "android": "https://dc.lft.to/lastmile_qr_scan"}}, {"name": "d6fba12859bf994c42bfdb00e4036833", "lon": -76.943812, "lat": 38.893253, "type": "electric_scooter", "fusion_lon": 0.0, "is_reserved": 0, "bike_id": "d6fba12859bf994c42bfdb00e4036833", "fusion_lat": 0.0, "is_disabled": 0, "rental_uris": {"ios": "https://dc.lft.to/lastmile_qr_scan", "android": "https://dc.lft.to/lastmile_qr_scan"}}, {"name": "e035648379f21d227488b15d645aeda5", "lon": -77.02096033333333, "lat": 38.92146416666667, "type": "electric_scooter", "fusion_lon": 0.0, "is_reserved": 0, "bike_id": "e035648379f21d227488b15d645aeda5", "fusion_lat": 0.0, "is_disabled": 0, "rental_uris": {"ios": "https://dc.lft.to/lastmile_qr_scan", "android": "https://dc.lft.to/lastmile_qr_scan"}}, {"name": "16d342a1197a98ee9d9d0d734b3f0e6d", "lon": -76.97827283333334, "lat": 38.843708, "type": "electric_bike", "fusion_lon": 0.0, "is_reserved": 0, "bike_id": "16d342a1197a98ee9d9d0d734b3f0e6d", "fusion_lat": 0.0, "is_disabled": 0, "rental_uris": {"ios": "https://dc.lft.to/lastmile_qr_scan", "android": "https://dc.lft.to/lastmile_qr_scan"}}, {"name": "5a0adfa1b411ab92c200947dd4407941", "lon": -76.95755216666667, "lat": 38.8843205, "type": "electric_scooter", "fusion_lon": 0.0, "is_reserved": 0, "bike_id": "5a0adfa1b411ab92c200947dd4407941", "fusion_lat": 0.0, "is_disabled": 0, "rental_uris": {"ios": "https://dc.lft.to/lastmile_qr_scan", "android": "https://dc.lft.to/lastmile_qr_scan"}}, {"name": "fd2e1dbcc8f67dbbe405f6e2b98ad2fd", "lon": -77.03743033333333, "lat": 38.929137833333336, "type": "electric_scooter", "fusion_lon": 0.0, "is_reserved": 0, "bike_id": "fd2e1dbcc8f67dbbe405f6e2b98ad2fd", "fusion_lat": 0.0, "is_disabled": 0, "rental_uris": {"ios": "https://dc.lft.to/lastmile_qr_scan", "android": "https://dc.lft.to/lastmile_qr_scan"}}, {"name": "035e062a2d617bc70720346c8ed67428", "lon": -77.0417565, "lat": 38.9155965, "type": "electric_scooter", "fusion_lon": 0.0, "is_reserved": 0, "bike_id": "035e062a2d617bc70720346c8ed67428", "fusion_lat": 0.0, "is_disabled": 0, "rental_uris": {"ios": "https://dc.lft.to/lastmile_qr_scan", "android": "https://dc.lft.to/lastmile_qr_scan"}}, {"name": "f12afb321205f2cb6bea8415484342a5", "lon": -77.043698, "lat": 38.906229833333335, "type": "electric_scooter", "fusion_lon": 0.0, "is_reserved": 0, "bike_id": "f12afb321205f2cb6bea8415484342a5", "fusion_lat": 0.0, "is_disabled": 0, "rental_uris": {"ios": "https://dc.lft.to/lastmile_qr_scan", "android": "https://dc.lft.to/lastmile_qr_scan"}}, {"name": "0fee43832339238ea95b73edc39e920f", "lon": -77.03188483333334, "lat": 38.9192915, "type": "electric_scooter", "fusion_lon": 0.0, "is_reserved": 0, "bike_id": "0fee43832339238ea95b73edc39e920f", "fusion_lat": 0.0, "is_disabled": 0, "rental_uris": {"ios": "https://dc.lft.to/lastmile_qr_scan", "android": "https://dc.lft.to/lastmile_qr_scan"}}, {"name": "b58a6de1e4d129c072b84753b4afb054", "lon": -77.027058, "lat": 38.89984483333333, "type": "electric_scooter", "fusion_lon": 0.0, "is_reserved": 0, "bike_id": "b58a6de1e4d129c072b84753b4afb054", "fusion_lat": 0.0, "is_disabled": 0, "rental_uris": {"ios": "https://dc.lft.to/lastmile_qr_scan", "android": "https://dc.lft.to/lastmile_qr_scan"}}, {"name": "54997b2d84b0051af5f3448846cd5948", "lon": -77.01335183333333, "lat": 38.900623833333334, "type": "electric_scooter", "fusion_lon": 0.0, "is_reserved": 0, "bike_id": "54997b2d84b0051af5f3448846cd5948", "fusion_lat": 0.0, "is_disabled": 0, "rental_uris": {"ios": "https://dc.lft.to/lastmile_qr_scan", "android": "https://dc.lft.to/lastmile_qr_scan"}}, {"name": "8839265b43fee7fa3242edf51f0e176d", "lon": -77.0122565, "lat": 38.921442166666665, "type": "electric_scooter", "fusion_lon": 0.0, "is_reserved": 0, "bike_id": "8839265b43fee7fa3242edf51f0e176d", "fusion_lat": 0.0, "is_disabled": 0, "rental_uris": {"ios": "https://dc.lft.to/lastmile_qr_scan", "android": "https://dc.lft.to/lastmile_qr_scan"}}, {"name": "e65b7a5a7a30ea5994a69d2b4516136f", "lon": -77.036358, "lat": 38.927467666666665, "type": "electric_scooter", "fusion_lon": 0.0, "is_reserved": 0, "bike_id": "e65b7a5a7a30ea5994a69d2b4516136f", "fusion_lat": 0.0, "is_disabled": 0, "rental_uris": {"ios": "https://dc.lft.to/lastmile_qr_scan", "android": "https://dc.lft.to/lastmile_qr_scan"}}, {"name": "8f4182bdc0e76bc0dc2f4962e1d40402", "lon": -77.04598566666667, "lat": 38.919221666666665, "type": "electric_scooter", "fusion_lon": 0.0, "is_reserved": 0, "bike_id": "8f4182bdc0e76bc0dc2f4962e1d40402", "fusion_lat": 0.0, "is_disabled": 0, "rental_uris": {"ios": "https://dc.lft.to/lastmile_qr_scan", "android": "https://dc.lft.to/lastmile_qr_scan"}}, {"name": "bcd46972d43e934a8da0a2d117348f38", "lon": -77.03054883333333, "lat": 38.92373666666667, "type": "electric_scooter", "fusion_lon": 0.0, "is_reserved": 0, "bike_id": "bcd46972d43e934a8da0a2d117348f38", "fusion_lat": 0.0, "is_disabled": 0, "rental_uris": {"ios": "https://dc.lft.to/lastmile_qr_scan", "android": "https://dc.lft.to/lastmile_qr_scan"}}, {"name": "7794c9a6dfa73d1b694edfc4f4ccf5e0", "lon": -77.02982933333334, "lat": 38.934432666666666, "type": "electric_scooter", "fusion_lon": 0.0, "is_reserved": 0, "bike_id": "7794c9a6dfa73d1b694edfc4f4ccf5e0", "fusion_lat": 0.0, "is_disabled": 0, "rental_uris": {"ios": "https://dc.lft.to/lastmile_qr_scan", "android": "https://dc.lft.to/lastmile_qr_scan"}}, {"name": "2e9981a9131bd8dff04d7c06cb59d530", "lon": -77.04352566666667, "lat": 38.91045233333333, "type": "electric_scooter", "fusion_lon": 0.0, "is_reserved": 0, "bike_id": "2e9981a9131bd8dff04d7c06cb59d530", "fusion_lat": 0.0, "is_disabled": 0, "rental_uris": {"ios": "https://dc.lft.to/lastmile_qr_scan", "android": "https://dc.lft.to/lastmile_qr_scan"}}, {"name": "1804102d9fe458d4dbfdaf5a8dbf472d", "lon": -77.0827865, "lat": 38.930153, "type": "electric_scooter", "fusion_lon": 0.0, "is_reserved": 0, "bike_id": "1804102d9fe458d4dbfdaf5a8dbf472d", "fusion_lat": 0.0, "is_disabled": 0, "rental_uris": {"ios": "https://dc.lft.to/lastmile_qr_scan", "android": "https://dc.lft.to/lastmile_qr_scan"}}, {"name": "4f1840d793d9123b814a846c2c928ea7", "lon": -77.02951983333334, "lat": 38.915682, "type": "electric_scooter", "fusion_lon": 0.0, "is_reserved": 0, "bike_id": "4f1840d793d9123b814a846c2c928ea7", "fusion_lat": 0.0, "is_disabled": 0, "rental_uris": {"ios": "https://dc.lft.to/lastmile_qr_scan", "android": "https://dc.lft.to/lastmile_qr_scan"}}, {"name": "3590b083b7a9ab7a6e0d57e19ee282c3", "lon": -77.01821533333333, "lat": 38.922337, "type": "electric_scooter", "fusion_lon": 0.0, "is_reserved": 0, "bike_id": "3590b083b7a9ab7a6e0d57e19ee282c3", "fusion_lat": 0.0, "is_disabled": 0, "rental_uris": {"ios": "https://dc.lft.to/lastmile_qr_scan", "android": "https://dc.lft.to/lastmile_qr_scan"}}, {"name": "d998dbe66254ecedfb814f34c3e8dfc7", "lon": -77.120748, "lat": 38.8542045, "type": "electric_bike", "fusion_lon": 0.0, "is_reserved": 0, "bike_id": "d998dbe66254ecedfb814f34c3e8dfc7", "fusion_lat": 0.0, "is_disabled": 0, "rental_uris": {"ios": "https://dc.lft.to/lastmile_qr_scan", "android": "https://dc.lft.to/lastmile_qr_scan"}}, {"name": "dbb2f402b7468ad8ac3e261a851a9a27", "lon": -76.99033466666667, "lat": 38.9029145, "type": "electric_scooter", "fusion_lon": 0.0, "is_reserved": 0, "bike_id": "dbb2f402b7468ad8ac3e261a851a9a27", "fusion_lat": 0.0, "is_disabled": 0, "rental_uris": {"ios": "https://dc.lft.to/lastmile_qr_scan", "android": "https://dc.lft.to/lastmile_qr_scan"}}, {"name": "77f56b3c8ab746b4cfb5b35c97baf53a", "lon": -77.0268075, "lat": 38.896442666666665, "type": "electric_scooter", "fusion_lon": 0.0, "is_reserved": 0, "bike_id": "77f56b3c8ab746b4cfb5b35c97baf53a", "fusion_lat": 0.0, "is_disabled": 0, "rental_uris": {"ios": "https://dc.lft.to/lastmile_qr_scan", "android": "https://dc.lft.to/lastmile_qr_scan"}}, {"name": "55a528176aa1e09f0c415e9bed360ba3", "lon": -77.02175233333334, "lat": 38.910842, "type": "electric_scooter", "fusion_lon": 0.0, "is_reserved": 0, "bike_id": "55a528176aa1e09f0c415e9bed360ba3", "fusion_lat": 0.0, "is_disabled": 0, "rental_uris": {"ios": "https://dc.lft.to/lastmile_qr_scan", "android": "https://dc.lft.to/lastmile_qr_scan"}}, {"name": "a7b153449fb1480dfb9e7a9d9f6e6c90", "lon": -77.02822433333333, "lat": 38.88624866666667, "type": "electric_scooter", "fusion_lon": 0.0, "is_reserved": 0, "bike_id": "a7b153449fb1480dfb9e7a9d9f6e6c90", "fusion_lat": 0.0, "is_disabled": 0, "rental_uris": {"ios": "https://dc.lft.to/lastmile_qr_scan", "android": "https://dc.lft.to/lastmile_qr_scan"}}, {"name": "f291584ec9e1dd4d400c72006d2ea3f8", "lon": -76.98252383333333, "lat": 38.904530333333334, "type": "electric_scooter", "fusion_lon": 0.0, "is_reserved": 0, "bike_id": "f291584ec9e1dd4d400c72006d2ea3f8", "fusion_lat": 0.0, "is_disabled": 0, "rental_uris": {"ios": "https://dc.lft.to/lastmile_qr_scan", "android": "https://dc.lft.to/lastmile_qr_scan"}}, {"name": "5da16db0d99e61e78a8ee02e2e2a6309", "lon": -77.0725955, "lat": 38.935294, "type": "electric_scooter", "fusion_lon": 0.0, "is_reserved": 0, "bike_id": "5da16db0d99e61e78a8ee02e2e2a6309", "fusion_lat": 0.0, "is_disabled": 0, "rental_uris": {"ios": "https://dc.lft.to/lastmile_qr_scan", "android": "https://dc.lft.to/lastmile_qr_scan"}}, {"name": "3c2237ac6a73ed82993c54d7ab23dc04", "lon": -77.021665, "lat": 38.89486766666667, "type": "electric_scooter", "fusion_lon": 0.0, "is_reserved": 0, "bike_id": "3c2237ac6a73ed82993c54d7ab23dc04", "fusion_lat": 0.0, "is_disabled": 0, "rental_uris": {"ios": "https://dc.lft.to/lastmile_qr_scan", "android": "https://dc.lft.to/lastmile_qr_scan"}}, {"name": "96e046512eda3998e9d7e5429c7b8082", "lon": -77.0230825, "lat": 38.92070866666667, "type": "electric_scooter", "fusion_lon": 0.0, "is_reserved": 0, "bike_id": "96e046512eda3998e9d7e5429c7b8082", "fusion_lat": 0.0, "is_disabled": 0, "rental_uris": {"ios": "https://dc.lft.to/lastmile_qr_scan", "android": "https://dc.lft.to/lastmile_qr_scan"}}, {"name": "e4f8abde244ada5c6fbb152746be9c9c", "lon": -77.06332033333334, "lat": 38.944222, "type": "electric_scooter", "fusion_lon": 0.0, "is_reserved": 0, "bike_id": "e4f8abde244ada5c6fbb152746be9c9c", "fusion_lat": 0.0, "is_disabled": 0, "rental_uris": {"ios": "https://dc.lft.to/lastmile_qr_scan", "android": "https://dc.lft.to/lastmile_qr_scan"}}, {"name": "be71b818ea5a883d49bbfe867272673d", "lon": -77.0236865, "lat": 38.892238166666665, "type": "electric_scooter", "fusion_lon": 0.0, "is_reserved": 0, "bike_id": "be71b818ea5a883d49bbfe867272673d", "fusion_lat": 0.0, "is_disabled": 0, "rental_uris": {"ios": "https://dc.lft.to/lastmile_qr_scan", "android": "https://dc.lft.to/lastmile_qr_scan"}}, {"name": "9014b5f5288043fc4c9c1b4a65b69e81", "lon": -77.02900116666666, "lat": 38.887355666666664, "type": "electric_scooter", "fusion_lon": 0.0, "is_reserved": 0, "bike_id": "9014b5f5288043fc4c9c1b4a65b69e81", "fusion_lat": 0.0, "is_disabled": 0, "rental_uris": {"ios": "https://dc.lft.to/lastmile_qr_scan", "android": "https://dc.lft.to/lastmile_qr_scan"}}, {"name": "aedabf28f17d5ddc2993f8e47dae8dcb", "lon": -77.041797, "lat": 38.9183295, "type": "electric_scooter", "fusion_lon": 0.0, "is_reserved": 0, "bike_id": "aedabf28f17d5ddc2993f8e47dae8dcb", "fusion_lat": 0.0, "is_disabled": 0, "rental_uris": {"ios": "https://dc.lft.to/lastmile_qr_scan", "android": "https://dc.lft.to/lastmile_qr_scan"}}, {"name": "f3495cc776144fa9f30facde31abb317", "lon": -77.03660966666666, "lat": 38.91756066666667, "type": "electric_scooter", "fusion_lon": 0.0, "is_reserved": 0, "bike_id": "f3495cc776144fa9f30facde31abb317", "fusion_lat": 0.0, "is_disabled": 0, "rental_uris": {"ios": "https://dc.lft.to/lastmile_qr_scan", "android": "https://dc.lft.to/lastmile_qr_scan"}}, {"name": "bc82abdabd6bcae29dc970999b0f2303", "lon": -77.01188183333333, "lat": 38.915451833333336, "type": "electric_scooter", "fusion_lon": 0.0, "is_reserved": 0, "bike_id": "bc82abdabd6bcae29dc970999b0f2303", "fusion_lat": 0.0, "is_disabled": 0, "rental_uris": {"ios": "https://dc.lft.to/lastmile_qr_scan", "android": "https://dc.lft.to/lastmile_qr_scan"}}, {"name": "92921523a112ecd9219511617423c58b", "lon": -77.05387116666667, "lat": 38.928172833333335, "type": "electric_scooter", "fusion_lon": 0.0, "is_reserved": 0, "bike_id": "92921523a112ecd9219511617423c58b", "fusion_lat": 0.0, "is_disabled": 0, "rental_uris": {"ios": "https://dc.lft.to/lastmile_qr_scan", "android": "https://dc.lft.to/lastmile_qr_scan"}}, {"name": "1c26ed8278d25f55dec149c47309c130", "lon": -76.99741783333333, "lat": 38.8921585, "type": "electric_scooter", "fusion_lon": 0.0, "is_reserved": 0, "bike_id": "1c26ed8278d25f55dec149c47309c130", "fusion_lat": 0.0, "is_disabled": 0, "rental_uris": {"ios": "https://dc.lft.to/lastmile_qr_scan", "android": "https://dc.lft.to/lastmile_qr_scan"}}, {"name": "9a68bf95a5454db8017b2132121b6383", "lon": -76.953644, "lat": 38.892108666666665, "type": "electric_scooter", "fusion_lon": 0.0, "is_reserved": 0, "bike_id": "9a68bf95a5454db8017b2132121b6383", "fusion_lat": 0.0, "is_disabled": 0, "rental_uris": {"ios": "https://dc.lft.to/lastmile_qr_scan", "android": "https://dc.lft.to/lastmile_qr_scan"}}, {"name": "32c8a4cebae59e16eb31870063d49082", "lon": -76.9871375, "lat": 38.867045, "type": "electric_scooter", "fusion_lon": 0.0, "is_reserved": 0, "bike_id": "32c8a4cebae59e16eb31870063d49082", "fusion_lat": 0.0, "is_disabled": 0, "rental_uris": {"ios": "https://dc.lft.to/lastmile_qr_scan", "android": "https://dc.lft.to/lastmile_qr_scan"}}, {"name": "50d95e46c0ffbc25747a46c1d41cf9ed", "lon": -77.05123516666667, "lat": 38.89965883333333, "type": "electric_scooter", "fusion_lon": 0.0, "is_reserved": 0, "bike_id": "50d95e46c0ffbc25747a46c1d41cf9ed", "fusion_lat": 0.0, "is_disabled": 0, "rental_uris": {"ios": "https://dc.lft.to/lastmile_qr_scan", "android": "https://dc.lft.to/lastmile_qr_scan"}}, {"name": "eb02a47d392b1711c3e3611cd76a642e", "lon": -77.00886883333334, "lat": 38.882078, "type": "electric_scooter", "fusion_lon": 0.0, "is_reserved": 0, "bike_id": "eb02a47d392b1711c3e3611cd76a642e", "fusion_lat": 0.0, "is_disabled": 0, "rental_uris": {"ios": "https://dc.lft.to/lastmile_qr_scan", "android": "https://dc.lft.to/lastmile_qr_scan"}}, {"name": "284e51c9564b55af313994ff88fe8fc7", "lon": -77.0495455, "lat": 38.90113916666667, "type": "electric_scooter", "fusion_lon": 0.0, "is_reserved": 0, "bike_id": "284e51c9564b55af313994ff88fe8fc7", "fusion_lat": 0.0, "is_disabled": 0, "rental_uris": {"ios": "https://dc.lft.to/lastmile_qr_scan", "android": "https://dc.lft.to/lastmile_qr_scan"}}, {"name": "e640b8417be08d2a998a499e6d9001ac", "lon": -77.04444533333333, "lat": 38.90568316666667, "type": "electric_scooter", "fusion_lon": 0.0, "is_reserved": 0, "bike_id": "e640b8417be08d2a998a499e6d9001ac", "fusion_lat": 0.0, "is_disabled": 0, "rental_uris": {"ios": "https://dc.lft.to/lastmile_qr_scan", "android": "https://dc.lft.to/lastmile_qr_scan"}}, {"name": "32e6b8559f35d7d26a7e2278c66a972c", "lon": -77.03371466666667, "lat": 38.9323535, "type": "electric_scooter", "fusion_lon": 0.0, "is_reserved": 0, "bike_id": "32e6b8559f35d7d26a7e2278c66a972c", "fusion_lat": 0.0, "is_disabled": 0, "rental_uris": {"ios": "https://dc.lft.to/lastmile_qr_scan", "android": "https://dc.lft.to/lastmile_qr_scan"}}, {"name": "fb7bbe64cde90c6d6f9ff864c52ba9af", "lon": -76.98532983333334, "lat": 38.8665315, "type": "electric_scooter", "fusion_lon": 0.0, "is_reserved": 0, "bike_id": "fb7bbe64cde90c6d6f9ff864c52ba9af", "fusion_lat": 0.0, "is_disabled": 0, "rental_uris": {"ios": "https://dc.lft.to/lastmile_qr_scan", "android": "https://dc.lft.to/lastmile_qr_scan"}}, {"name": "d6841748e806ffdfad8828cc68cfaf83", "lon": -77.038817, "lat": 38.93341016666667, "type": "electric_scooter", "fusion_lon": 0.0, "is_reserved": 0, "bike_id": "d6841748e806ffdfad8828cc68cfaf83", "fusion_lat": 0.0, "is_disabled": 0, "rental_uris": {"ios": "https://dc.lft.to/lastmile_qr_scan", "android": "https://dc.lft.to/lastmile_qr_scan"}}, {"name": "e6db36b3cf19f16db283d0b438ca5a7c", "lon": -77.04853466666667, "lat": 38.9064325, "type": "electric_scooter", "fusion_lon": 0.0, "is_reserved": 0, "bike_id": "e6db36b3cf19f16db283d0b438ca5a7c", "fusion_lat": 0.0, "is_disabled": 0, "rental_uris": {"ios": "https://dc.lft.to/lastmile_qr_scan", "android": "https://dc.lft.to/lastmile_qr_scan"}}, {"name": "377f9ed6099ba2cc7c32a69a0bb000be", "lon": -77.021632, "lat": 38.899505, "type": "electric_scooter", "fusion_lon": 0.0, "is_reserved": 0, "bike_id": "377f9ed6099ba2cc7c32a69a0bb000be", "fusion_lat": 0.0, "is_disabled": 0, "rental_uris": {"ios": "https://dc.lft.to/lastmile_qr_scan", "android": "https://dc.lft.to/lastmile_qr_scan"}}, {"name": "fce21679a9bf07587587c41b81f4799b", "lon": -77.0271, "lat": 38.900871, "type": "electric_scooter", "fusion_lon": 0.0, "is_reserved": 0, "bike_id": "fce21679a9bf07587587c41b81f4799b", "fusion_lat": 0.0, "is_disabled": 0, "rental_uris": {"ios": "https://dc.lft.to/lastmile_qr_scan", "android": "https://dc.lft.to/lastmile_qr_scan"}}, {"name": "4401a435e62e48fc66ec093696cf5495", "lon": -77.04863133333333, "lat": 38.906625, "type": "electric_scooter", "fusion_lon": 0.0, "is_reserved": 0, "bike_id": "4401a435e62e48fc66ec093696cf5495", "fusion_lat": 0.0, "is_disabled": 0, "rental_uris": {"ios": "https://dc.lft.to/lastmile_qr_scan", "android": "https://dc.lft.to/lastmile_qr_scan"}}, {"name": "005fecf69002e9c5755cb77201fa05b4", "lon": -77.042707, "lat": 38.90850566666667, "type": "electric_scooter", "fusion_lon": 0.0, "is_reserved": 0, "bike_id": "005fecf69002e9c5755cb77201fa05b4", "fusion_lat": 0.0, "is_disabled": 0, "rental_uris": {"ios": "https://dc.lft.to/lastmile_qr_scan", "android": "https://dc.lft.to/lastmile_qr_scan"}}, {"name": "1a40fb414b232ad4cfcf29072f3d6baf", "lon": -77.02674066666667, "lat": 38.8961255, "type": "electric_scooter", "fusion_lon": 0.0, "is_reserved": 0, "bike_id": "1a40fb414b232ad4cfcf29072f3d6baf", "fusion_lat": 0.0, "is_disabled": 0, "rental_uris": {"ios": "https://dc.lft.to/lastmile_qr_scan", "android": "https://dc.lft.to/lastmile_qr_scan"}}, {"name": "342b0e9df7a7ea44bbe897e25dcf94fd", "lon": -77.0432735, "lat": 38.892236, "type": "electric_scooter", "fusion_lon": 0.0, "is_reserved": 0, "bike_id": "342b0e9df7a7ea44bbe897e25dcf94fd", "fusion_lat": 0.0, "is_disabled": 0, "rental_uris": {"ios": "https://dc.lft.to/lastmile_qr_scan", "android": "https://dc.lft.to/lastmile_qr_scan"}}, {"name": "11cc422b1ce589fe1603df564184501f", "lon": -77.0318905, "lat": 38.907800333333334, "type": "electric_scooter", "fusion_lon": 0.0, "is_reserved": 0, "bike_id": "11cc422b1ce589fe1603df564184501f", "fusion_lat": 0.0, "is_disabled": 0, "rental_uris": {"ios": "https://dc.lft.to/lastmile_qr_scan", "android": "https://dc.lft.to/lastmile_qr_scan"}}, {"name": "f8c23e50361eef803f1f214af6b83c49", "lon": -77.02204716666667, "lat": 38.91396366666667, "type": "electric_scooter", "fusion_lon": 0.0, "is_reserved": 0, "bike_id": "f8c23e50361eef803f1f214af6b83c49", "fusion_lat": 0.0, "is_disabled": 0, "rental_uris": {"ios": "https://dc.lft.to/lastmile_qr_scan", "android": "https://dc.lft.to/lastmile_qr_scan"}}, {"name": "23408e1ddc1ae0cd01924a3d0f482516", "lon": -76.997185, "lat": 38.84427816666667, "type": "electric_scooter", "fusion_lon": 0.0, "is_reserved": 0, "bike_id": "23408e1ddc1ae0cd01924a3d0f482516", "fusion_lat": 0.0, "is_disabled": 0, "rental_uris": {"ios": "https://dc.lft.to/lastmile_qr_scan", "android": "https://dc.lft.to/lastmile_qr_scan"}}, {"name": "0147a9f119abfd2f503a7c31cba805fb", "lon": -77.0485035, "lat": 38.919608, "type": "electric_scooter", "fusion_lon": 0.0, "is_reserved": 0, "bike_id": "0147a9f119abfd2f503a7c31cba805fb", "fusion_lat": 0.0, "is_disabled": 0, "rental_uris": {"ios": "https://dc.lft.to/lastmile_qr_scan", "android": "https://dc.lft.to/lastmile_qr_scan"}}, {"name": "e78e863caa54eb677cd5dc73d22aff47", "lon": -76.98842266666666, "lat": 38.89262983333333, "type": "electric_scooter", "fusion_lon": 0.0, "is_reserved": 0, "bike_id": "e78e863caa54eb677cd5dc73d22aff47", "fusion_lat": 0.0, "is_disabled": 0, "rental_uris": {"ios": "https://dc.lft.to/lastmile_qr_scan", "android": "https://dc.lft.to/lastmile_qr_scan"}}, {"name": "fd9d6c533e15b2a67655d23177880743", "lon": -77.02710083333334, "lat": 38.9042425, "type": "electric_scooter", "fusion_lon": 0.0, "is_reserved": 0, "bike_id": "fd9d6c533e15b2a67655d23177880743", "fusion_lat": 0.0, "is_disabled": 0, "rental_uris": {"ios": "https://dc.lft.to/lastmile_qr_scan", "android": "https://dc.lft.to/lastmile_qr_scan"}}, {"name": "fc8fb1030d7fc0bb90d083dfc5f4e19f", "lon": -77.038422, "lat": 38.91199983333333, "type": "electric_scooter", "fusion_lon": 0.0, "is_reserved": 0, "bike_id": "fc8fb1030d7fc0bb90d083dfc5f4e19f", "fusion_lat": 0.0, "is_disabled": 0, "rental_uris": {"ios": "https://dc.lft.to/lastmile_qr_scan", "android": "https://dc.lft.to/lastmile_qr_scan"}}, {"name": "55a1ee8360cee8b7a040c2b29420cb97", "lon": -77.0512225, "lat": 38.92345316666667, "type": "electric_scooter", "fusion_lon": 0.0, "is_reserved": 0, "bike_id": "55a1ee8360cee8b7a040c2b29420cb97", "fusion_lat": 0.0, "is_disabled": 0, "rental_uris": {"ios": "https://dc.lft.to/lastmile_qr_scan", "android": "https://dc.lft.to/lastmile_qr_scan"}}, {"name": "f6e011b23a87e7894844d050ac61f2e7", "lon": -77.03584833333333, "lat": 38.919162666666665, "type": "electric_bike", "fusion_lon": 0.0, "is_reserved": 0, "bike_id": "f6e011b23a87e7894844d050ac61f2e7", "fusion_lat": 0.0, "is_disabled": 0, "rental_uris": {"ios": "https://dc.lft.to/lastmile_qr_scan", "android": "https://dc.lft.to/lastmile_qr_scan"}}, {"name": "f3ccbf540b2c4ab24b0eb1131c7f52f2", "lon": -76.99806016666666, "lat": 38.885700166666666, "type": "electric_scooter", "fusion_lon": 0.0, "is_reserved": 0, "bike_id": "f3ccbf540b2c4ab24b0eb1131c7f52f2", "fusion_lat": 0.0, "is_disabled": 0, "rental_uris": {"ios": "https://dc.lft.to/lastmile_qr_scan", "android": "https://dc.lft.to/lastmile_qr_scan"}}, {"name": "c438df57fbd628796bf132b0f5bd14f0", "lon": -77.047621, "lat": 38.91787816666667, "type": "electric_bike", "fusion_lon": 0.0, "is_reserved": 0, "bike_id": "c438df57fbd628796bf132b0f5bd14f0", "fusion_lat": 0.0, "is_disabled": 0, "rental_uris": {"ios": "https://dc.lft.to/lastmile_qr_scan", "android": "https://dc.lft.to/lastmile_qr_scan"}}, {"name": "1de039cc4eab9cead5eb47ce14ea80ad", "lon": -77.02054933333334, "lat": 38.9269885, "type": "electric_scooter", "fusion_lon": 0.0, "is_reserved": 0, "bike_id": "1de039cc4eab9cead5eb47ce14ea80ad", "fusion_lat": 0.0, "is_disabled": 0, "rental_uris": {"ios": "https://dc.lft.to/lastmile_qr_scan", "android": "https://dc.lft.to/lastmile_qr_scan"}}, {"name": "71179b570259e728df5c3dd7da595428", "lon": -77.04834166666667, "lat": 38.9104225, "type": "electric_scooter", "fusion_lon": 0.0, "is_reserved": 0, "bike_id": "71179b570259e728df5c3dd7da595428", "fusion_lat": 0.0, "is_disabled": 0, "rental_uris": {"ios": "https://dc.lft.to/lastmile_qr_scan", "android": "https://dc.lft.to/lastmile_qr_scan"}}, {"name": "42d496ea223a9ed0b428d3c75f0ada05", "lon": -77.023953, "lat": 38.916568, "type": "electric_scooter", "fusion_lon": 0.0, "is_reserved": 0, "bike_id": "42d496ea223a9ed0b428d3c75f0ada05", "fusion_lat": 0.0, "is_disabled": 0, "rental_uris": {"ios": "https://dc.lft.to/lastmile_qr_scan", "android": "https://dc.lft.to/lastmile_qr_scan"}}, {"name": "8bef949d7899a3e593f22013363952eb", "lon": -77.00580016666666, "lat": 38.885806333333335, "type": "electric_scooter", "fusion_lon": 0.0, "is_reserved": 0, "bike_id": "8bef949d7899a3e593f22013363952eb", "fusion_lat": 0.0, "is_disabled": 0, "rental_uris": {"ios": "https://dc.lft.to/lastmile_qr_scan", "android": "https://dc.lft.to/lastmile_qr_scan"}}, {"name": "1fb585ab40f42f6d002a5a1320c16396", "lon": -77.074343, "lat": 38.9994735, "type": "electric_bike", "fusion_lon": 0.0, "is_reserved": 0, "bike_id": "1fb585ab40f42f6d002a5a1320c16396", "fusion_lat": 0.0, "is_disabled": 0, "rental_uris": {"ios": "https://dc.lft.to/lastmile_qr_scan", "android": "https://dc.lft.to/lastmile_qr_scan"}}, {"name": "cf425459a263ec93c9b8dd8ab20d7226", "lon": -77.023699, "lat": 38.92059616666667, "type": "electric_scooter", "fusion_lon": 0.0, "is_reserved": 0, "bike_id": "cf425459a263ec93c9b8dd8ab20d7226", "fusion_lat": 0.0, "is_disabled": 0, "rental_uris": {"ios": "https://dc.lft.to/lastmile_qr_scan", "android": "https://dc.lft.to/lastmile_qr_scan"}}, {"name": "395e65b4ac8238b071b614a830f7f08e", "lon": -77.025959, "lat": 38.916947, "type": "electric_bike", "fusion_lon": 0.0, "is_reserved": 0, "bike_id": "395e65b4ac8238b071b614a830f7f08e", "fusion_lat": 0.0, "is_disabled": 0, "rental_uris": {"ios": "https://dc.lft.to/lastmile_qr_scan", "android": "https://dc.lft.to/lastmile_qr_scan"}}, {"name": "90269a6167e6d488476e0a417b394e26", "lon": -77.04359633333333, "lat": 38.89843233333333, "type": "electric_scooter", "fusion_lon": 0.0, "is_reserved": 0, "bike_id": "90269a6167e6d488476e0a417b394e26", "fusion_lat": 0.0, "is_disabled": 0, "rental_uris": {"ios": "https://dc.lft.to/lastmile_qr_scan", "android": "https://dc.lft.to/lastmile_qr_scan"}}, {"name": "10c2a4dc3618ba27aacdd8f357294c95", "lon": -77.007629, "lat": 38.825986666666665, "type": "electric_scooter", "fusion_lon": 0.0, "is_reserved": 0, "bike_id": "10c2a4dc3618ba27aacdd8f357294c95", "fusion_lat": 0.0, "is_disabled": 0, "rental_uris": {"ios": "https://dc.lft.to/lastmile_qr_scan", "android": "https://dc.lft.to/lastmile_qr_scan"}}, {"name": "44da12edc26a557754b50f8bb62a6faa", "lon": -76.97536016666666, "lat": 38.840134166666665, "type": "electric_bike", "fusion_lon": 0.0, "is_reserved": 0, "bike_id": "44da12edc26a557754b50f8bb62a6faa", "fusion_lat": 0.0, "is_disabled": 0, "rental_uris": {"ios": "https://dc.lft.to/lastmile_qr_scan", "android": "https://dc.lft.to/lastmile_qr_scan"}}, {"name": "381fbe574cffbceb14faabdb889cdf85", "lon": -77.0238905, "lat": 38.93422233333333, "type": "electric_scooter", "fusion_lon": 0.0, "is_reserved": 0, "bike_id": "381fbe574cffbceb14faabdb889cdf85", "fusion_lat": 0.0, "is_disabled": 0, "rental_uris": {"ios": "https://dc.lft.to/lastmile_qr_scan", "android": "https://dc.lft.to/lastmile_qr_scan"}}, {"name": "558073ff1bc492453af0e131e72527a0", "lon": -77.02440033333333, "lat": 38.92741683333333, "type": "electric_scooter", "fusion_lon": 0.0, "is_reserved": 0, "bike_id": "558073ff1bc492453af0e131e72527a0", "fusion_lat": 0.0, "is_disabled": 0, "rental_uris": {"ios": "https://dc.lft.to/lastmile_qr_scan", "android": "https://dc.lft.to/lastmile_qr_scan"}}, {"name": "e9f1348e3d7122198fdc59f2706d3066", "lon": -77.03835483333333, "lat": 38.911248666666665, "type": "electric_scooter", "fusion_lon": 0.0, "is_reserved": 0, "bike_id": "e9f1348e3d7122198fdc59f2706d3066", "fusion_lat": 0.0, "is_disabled": 0, "rental_uris": {"ios": "https://dc.lft.to/lastmile_qr_scan", "android": "https://dc.lft.to/lastmile_qr_scan"}}, {"name": "eec9a373ca4856a55ab96d226d603da7", "lon": -77.0520775, "lat": 38.92474633333333, "type": "electric_scooter", "fusion_lon": 0.0, "is_reserved": 0, "bike_id": "eec9a373ca4856a55ab96d226d603da7", "fusion_lat": 0.0, "is_disabled": 0, "rental_uris": {"ios": "https://dc.lft.to/lastmile_qr_scan", "android": "https://dc.lft.to/lastmile_qr_scan"}}, {"name": "3d182afb66c4a971cd14e5a5de765315", "lon": -77.12486916666667, "lat": 38.853993, "type": "electric_bike", "fusion_lon": 0.0, "is_reserved": 0, "bike_id": "3d182afb66c4a971cd14e5a5de765315", "fusion_lat": 0.0, "is_disabled": 0, "rental_uris": {"ios": "https://dc.lft.to/lastmile_qr_scan", "android": "https://dc.lft.to/lastmile_qr_scan"}}, {"name": "881cd7b3ea1aa0a032b777b3258f0da8", "lon": -77.02181083333333, "lat": 38.90837033333333, "type": "electric_scooter", "fusion_lon": 0.0, "is_reserved": 0, "bike_id": "881cd7b3ea1aa0a032b777b3258f0da8", "fusion_lat": 0.0, "is_disabled": 0, "rental_uris": {"ios": "https://dc.lft.to/lastmile_qr_scan", "android": "https://dc.lft.to/lastmile_qr_scan"}}, {"name": "08440203c74ad4ef685947d23852ef77", "lon": -77.051776, "lat": 38.924297333333335, "type": "electric_scooter", "fusion_lon": 0.0, "is_reserved": 0, "bike_id": "08440203c74ad4ef685947d23852ef77", "fusion_lat": 0.0, "is_disabled": 0, "rental_uris": {"ios": "https://dc.lft.to/lastmile_qr_scan", "android": "https://dc.lft.to/lastmile_qr_scan"}}, {"name": "37b679f4fc01fe82a40c5a88cd0bc7ee", "lon": -77.03264783333333, "lat": 38.919981166666666, "type": "electric_scooter", "fusion_lon": 0.0, "is_reserved": 0, "bike_id": "37b679f4fc01fe82a40c5a88cd0bc7ee", "fusion_lat": 0.0, "is_disabled": 0, "rental_uris": {"ios": "https://dc.lft.to/lastmile_qr_scan", "android": "https://dc.lft.to/lastmile_qr_scan"}}, {"name": "4505f0447609d3240f700876e4cc9ac0", "lon": -77.04692133333333, "lat": 39.023951833333335, "type": "electric_bike", "fusion_lon": 0.0, "is_reserved": 0, "bike_id": "4505f0447609d3240f700876e4cc9ac0", "fusion_lat": 0.0, "is_disabled": 0, "rental_uris": {"ios": "https://dc.lft.to/lastmile_qr_scan", "android": "https://dc.lft.to/lastmile_qr_scan"}}, {"name": "a31cef7aadb7f3a3f52f61878fa528ee", "lon": -77.03875333333333, "lat": 38.921598, "type": "electric_scooter", "fusion_lon": 0.0, "is_reserved": 0, "bike_id": "a31cef7aadb7f3a3f52f61878fa528ee", "fusion_lat": 0.0, "is_disabled": 0, "rental_uris": {"ios": "https://dc.lft.to/lastmile_qr_scan", "android": "https://dc.lft.to/lastmile_qr_scan"}}, {"name": "c54a272f9615b9321254ee65bd9bb9b0", "lon": -77.04371183333333, "lat": 38.892253333333336, "type": "electric_scooter", "fusion_lon": 0.0, "is_reserved": 0, "bike_id": "c54a272f9615b9321254ee65bd9bb9b0", "fusion_lat": 0.0, "is_disabled": 0, "rental_uris": {"ios": "https://dc.lft.to/lastmile_qr_scan", "android": "https://dc.lft.to/lastmile_qr_scan"}}, {"name": "3f4660c34e145bac1b0fb349991aa465", "lon": -77.03500966666667, "lat": 38.917124333333334, "type": "electric_scooter", "fusion_lon": 0.0, "is_reserved": 0, "bike_id": "3f4660c34e145bac1b0fb349991aa465", "fusion_lat": 0.0, "is_disabled": 0, "rental_uris": {"ios": "https://dc.lft.to/lastmile_qr_scan", "android": "https://dc.lft.to/lastmile_qr_scan"}}, {"name": "3c7ae658ea6be0be6c3ed01d1b5c3813", "lon": -77.04429533333334, "lat": 38.9037315, "type": "electric_scooter", "fusion_lon": 0.0, "is_reserved": 0, "bike_id": "3c7ae658ea6be0be6c3ed01d1b5c3813", "fusion_lat": 0.0, "is_disabled": 0, "rental_uris": {"ios": "https://dc.lft.to/lastmile_qr_scan", "android": "https://dc.lft.to/lastmile_qr_scan"}}, {"name": "725deb8beac6b73406b544a099d0d080", "lon": -77.0238935, "lat": 38.9207635, "type": "electric_scooter", "fusion_lon": 0.0, "is_reserved": 0, "bike_id": "725deb8beac6b73406b544a099d0d080", "fusion_lat": 0.0, "is_disabled": 0, "rental_uris": {"ios": "https://dc.lft.to/lastmile_qr_scan", "android": "https://dc.lft.to/lastmile_qr_scan"}}, {"name": "618f23a14e9a501835687f7c279e8ee3", "lon": -77.07014283333334, "lat": 38.9558045, "type": "electric_scooter", "fusion_lon": 0.0, "is_reserved": 0, "bike_id": "618f23a14e9a501835687f7c279e8ee3", "fusion_lat": 0.0, "is_disabled": 0, "rental_uris": {"ios": "https://dc.lft.to/lastmile_qr_scan", "android": "https://dc.lft.to/lastmile_qr_scan"}}, {"name": "dbe95f28759a46dece460e8a1116a45e", "lon": -77.03707233333333, "lat": 38.935576166666664, "type": "electric_bike", "fusion_lon": 0.0, "is_reserved": 0, "bike_id": "dbe95f28759a46dece460e8a1116a45e", "fusion_lat": 0.0, "is_disabled": 0, "rental_uris": {"ios": "https://dc.lft.to/lastmile_qr_scan", "android": "https://dc.lft.to/lastmile_qr_scan"}}, {"name": "526b6961120646ee114c732e17853ac7", "lon": -76.9638905, "lat": 38.855301833333336, "type": "electric_scooter", "fusion_lon": 0.0, "is_reserved": 0, "bike_id": "526b6961120646ee114c732e17853ac7", "fusion_lat": 0.0, "is_disabled": 0, "rental_uris": {"ios": "https://dc.lft.to/lastmile_qr_scan", "android": "https://dc.lft.to/lastmile_qr_scan"}}, {"name": "a1d9caae9706858f95beaa442daaece5", "lon": -77.04846866666666, "lat": 38.900653166666665, "type": "electric_scooter", "fusion_lon": 0.0, "is_reserved": 0, "bike_id": "a1d9caae9706858f95beaa442daaece5", "fusion_lat": 0.0, "is_disabled": 0, "rental_uris": {"ios": "https://dc.lft.to/lastmile_qr_scan", "android": "https://dc.lft.to/lastmile_qr_scan"}}, {"name": "20ad2bbe9dec95f16acea1fa3b07bc97", "lon": -77.03824183333333, "lat": 38.924695666666665, "type": "electric_scooter", "fusion_lon": 0.0, "is_reserved": 0, "bike_id": "20ad2bbe9dec95f16acea1fa3b07bc97", "fusion_lat": 0.0, "is_disabled": 0, "rental_uris": {"ios": "https://dc.lft.to/lastmile_qr_scan", "android": "https://dc.lft.to/lastmile_qr_scan"}}, {"name": "9f460b2f58c7ec3fb5d94fe807d94a4c", "lon": -77.18745583333333, "lat": 38.89354133333333, "type": "electric_bike", "fusion_lon": 0.0, "is_reserved": 0, "bike_id": "9f460b2f58c7ec3fb5d94fe807d94a4c", "fusion_lat": 0.0, "is_disabled": 0, "rental_uris": {"ios": "https://dc.lft.to/lastmile_qr_scan", "android": "https://dc.lft.to/lastmile_qr_scan"}}, {"name": "79983bee16b48acaf3c65b4d76fd3779", "lon": -77.03498583333334, "lat": 38.92490383333333, "type": "electric_scooter", "fusion_lon": 0.0, "is_reserved": 0, "bike_id": "79983bee16b48acaf3c65b4d76fd3779", "fusion_lat": 0.0, "is_disabled": 0, "rental_uris": {"ios": "https://dc.lft.to/lastmile_qr_scan", "android": "https://dc.lft.to/lastmile_qr_scan"}}, {"name": "0afa3b09cc77d1e97e8594be379c505b", "lon": -77.05000483333333, "lat": 38.90621183333333, "type": "electric_scooter", "fusion_lon": 0.0, "is_reserved": 0, "bike_id": "0afa3b09cc77d1e97e8594be379c505b", "fusion_lat": 0.0, "is_disabled": 0, "rental_uris": {"ios": "https://dc.lft.to/lastmile_qr_scan", "android": "https://dc.lft.to/lastmile_qr_scan"}}, {"name": "3a9cb3d57447a56dffc1ecbff7196794", "lon": -77.03255233333333, "lat": 38.91189283333333, "type": "electric_scooter", "fusion_lon": 0.0, "is_reserved": 0, "bike_id": "3a9cb3d57447a56dffc1ecbff7196794", "fusion_lat": 0.0, "is_disabled": 0, "rental_uris": {"ios": "https://dc.lft.to/lastmile_qr_scan", "android": "https://dc.lft.to/lastmile_qr_scan"}}, {"name": "7e97fdf969d39ee63f5256f9bc0f666d", "lon": -77.02966683333334, "lat": 38.923268666666665, "type": "electric_scooter", "fusion_lon": 0.0, "is_reserved": 0, "bike_id": "7e97fdf969d39ee63f5256f9bc0f666d", "fusion_lat": 0.0, "is_disabled": 0, "rental_uris": {"ios": "https://dc.lft.to/lastmile_qr_scan", "android": "https://dc.lft.to/lastmile_qr_scan"}}, {"name": "569a045486cf3509726996a47487426b", "lon": -77.00757583333333, "lat": 38.91029966666667, "type": "electric_scooter", "fusion_lon": 0.0, "is_reserved": 0, "bike_id": "569a045486cf3509726996a47487426b", "fusion_lat": 0.0, "is_disabled": 0, "rental_uris": {"ios": "https://dc.lft.to/lastmile_qr_scan", "android": "https://dc.lft.to/lastmile_qr_scan"}}, {"name": "f1cdc4238c96b5f33202d7d697c76b58", "lon": -77.02374466666667, "lat": 38.91954116666667, "type": "electric_scooter", "fusion_lon": 0.0, "is_reserved": 0, "bike_id": "f1cdc4238c96b5f33202d7d697c76b58", "fusion_lat": 0.0, "is_disabled": 0, "rental_uris": {"ios": "https://dc.lft.to/lastmile_qr_scan", "android": "https://dc.lft.to/lastmile_qr_scan"}}, {"name": "3cebdfe3d67dddb9c20aec944b66247d", "lon": -77.03654933333334, "lat": 38.91725233333333, "type": "electric_scooter", "fusion_lon": 0.0, "is_reserved": 0, "bike_id": "3cebdfe3d67dddb9c20aec944b66247d", "fusion_lat": 0.0, "is_disabled": 0, "rental_uris": {"ios": "https://dc.lft.to/lastmile_qr_scan", "android": "https://dc.lft.to/lastmile_qr_scan"}}, {"name": "fd5d4e2e82c1471e30faf6445dcc158d", "lon": -77.01213033333333, "lat": 38.870873, "type": "electric_scooter", "fusion_lon": 0.0, "is_reserved": 0, "bike_id": "fd5d4e2e82c1471e30faf6445dcc158d", "fusion_lat": 0.0, "is_disabled": 0, "rental_uris": {"ios": "https://dc.lft.to/lastmile_qr_scan", "android": "https://dc.lft.to/lastmile_qr_scan"}}, {"name": "ade9c587e62e6df068b147aa53dd7919", "lon": -77.03636233333333, "lat": 38.9234565, "type": "electric_scooter", "fusion_lon": 0.0, "is_reserved": 0, "bike_id": "ade9c587e62e6df068b147aa53dd7919", "fusion_lat": 0.0, "is_disabled": 0, "rental_uris": {"ios": "https://dc.lft.to/lastmile_qr_scan", "android": "https://dc.lft.to/lastmile_qr_scan"}}, {"name": "86e456ef41b7b0ded3226224712eedca", "lon": -77.02966816666667, "lat": 38.927805166666666, "type": "electric_bike", "fusion_lon": 0.0, "is_reserved": 0, "bike_id": "86e456ef41b7b0ded3226224712eedca", "fusion_lat": 0.0, "is_disabled": 0, "rental_uris": {"ios": "https://dc.lft.to/lastmile_qr_scan", "android": "https://dc.lft.to/lastmile_qr_scan"}}, {"name": "de2fba306ade18f387bd69ead89fdc48", "lon": -77.00800033333333, "lat": 38.94923, "type": "electric_bike", "fusion_lon": 0.0, "is_reserved": 0, "bike_id": "de2fba306ade18f387bd69ead89fdc48", "fusion_lat": 0.0, "is_disabled": 0, "rental_uris": {"ios": "https://dc.lft.to/lastmile_qr_scan", "android": "https://dc.lft.to/lastmile_qr_scan"}}, {"name": "567fb7aaa9306320decfc3841fa97ea7", "lon": -77.02897483333334, "lat": 38.91720183333334, "type": "electric_scooter", "fusion_lon": 0.0, "is_reserved": 0, "bike_id": "567fb7aaa9306320decfc3841fa97ea7", "fusion_lat": 0.0, "is_disabled": 0, "rental_uris": {"ios": "https://dc.lft.to/lastmile_qr_scan", "android": "https://dc.lft.to/lastmile_qr_scan"}}, {"name": "f5da02e6190367089393800a7fe0a9ec", "lon": -77.029054, "lat": 38.8982965, "type": "electric_scooter", "fusion_lon": 0.0, "is_reserved": 0, "bike_id": "f5da02e6190367089393800a7fe0a9ec", "fusion_lat": 0.0, "is_disabled": 0, "rental_uris": {"ios": "https://dc.lft.to/lastmile_qr_scan", "android": "https://dc.lft.to/lastmile_qr_scan"}}, {"name": "dc96e88872de33853b03170e4c8d2c75", "lon": -77.04190316666667, "lat": 38.892875833333335, "type": "electric_scooter", "fusion_lon": 0.0, "is_reserved": 0, "bike_id": "dc96e88872de33853b03170e4c8d2c75", "fusion_lat": 0.0, "is_disabled": 0, "rental_uris": {"ios": "https://dc.lft.to/lastmile_qr_scan", "android": "https://dc.lft.to/lastmile_qr_scan"}}, {"name": "c2f24c0cc656db7514eb4ed420db1008", "lon": -77.056614, "lat": 38.928742666666665, "type": "electric_bike", "fusion_lon": 0.0, "is_reserved": 0, "bike_id": "c2f24c0cc656db7514eb4ed420db1008", "fusion_lat": 0.0, "is_disabled": 0, "rental_uris": {"ios": "https://dc.lft.to/lastmile_qr_scan", "android": "https://dc.lft.to/lastmile_qr_scan"}}, {"name": "65680800670eb5d09672ca56cf13331e", "lon": -77.02733066666667, "lat": 38.894929166666664, "type": "electric_scooter", "fusion_lon": 0.0, "is_reserved": 0, "bike_id": "65680800670eb5d09672ca56cf13331e", "fusion_lat": 0.0, "is_disabled": 0, "rental_uris": {"ios": "https://dc.lft.to/lastmile_qr_scan", "android": "https://dc.lft.to/lastmile_qr_scan"}}, {"name": "a33fd673f370ae9734cec69589389c3c", "lon": -77.01031116666667, "lat": 38.917146333333335, "type": "electric_scooter", "fusion_lon": 0.0, "is_reserved": 0, "bike_id": "a33fd673f370ae9734cec69589389c3c", "fusion_lat": 0.0, "is_disabled": 0, "rental_uris": {"ios": "https://dc.lft.to/lastmile_qr_scan", "android": "https://dc.lft.to/lastmile_qr_scan"}}, {"name": "37c25fd716c07dfc132669d7753f44e2", "lon": -77.02182416666666, "lat": 38.90999716666666, "type": "electric_scooter", "fusion_lon": 0.0, "is_reserved": 0, "bike_id": "37c25fd716c07dfc132669d7753f44e2", "fusion_lat": 0.0, "is_disabled": 0, "rental_uris": {"ios": "https://dc.lft.to/lastmile_qr_scan", "android": "https://dc.lft.to/lastmile_qr_scan"}}, {"name": "281ff75033963beb0b9110d4b163e746", "lon": -77.03155733333334, "lat": 38.92111833333333, "type": "electric_scooter", "fusion_lon": 0.0, "is_reserved": 0, "bike_id": "281ff75033963beb0b9110d4b163e746", "fusion_lat": 0.0, "is_disabled": 0, "rental_uris": {"ios": "https://dc.lft.to/lastmile_qr_scan", "android": "https://dc.lft.to/lastmile_qr_scan"}}, {"name": "3be7b1dd014564bc537186b4e98a6522", "lon": -77.04268666666667, "lat": 38.908670666666666, "type": "electric_scooter", "fusion_lon": 0.0, "is_reserved": 0, "bike_id": "3be7b1dd014564bc537186b4e98a6522", "fusion_lat": 0.0, "is_disabled": 0, "rental_uris": {"ios": "https://dc.lft.to/lastmile_qr_scan", "android": "https://dc.lft.to/lastmile_qr_scan"}}, {"name": "91e97766858717d871d7a2d0d88c611c", "lon": -77.04158566666666, "lat": 38.91419366666667, "type": "electric_scooter", "fusion_lon": 0.0, "is_reserved": 0, "bike_id": "91e97766858717d871d7a2d0d88c611c", "fusion_lat": 0.0, "is_disabled": 0, "rental_uris": {"ios": "https://dc.lft.to/lastmile_qr_scan", "android": "https://dc.lft.to/lastmile_qr_scan"}}, {"name": "51802f33c13fed19ec425734a3d01665", "lon": -77.03441283333333, "lat": 38.90977266666667, "type": "electric_scooter", "fusion_lon": 0.0, "is_reserved": 0, "bike_id": "51802f33c13fed19ec425734a3d01665", "fusion_lat": 0.0, "is_disabled": 0, "rental_uris": {"ios": "https://dc.lft.to/lastmile_qr_scan", "android": "https://dc.lft.to/lastmile_qr_scan"}}, {"name": "72eb09742194006428d7559c3d698afa", "lon": -76.991252, "lat": 38.86204866666667, "type": "electric_scooter", "fusion_lon": 0.0, "is_reserved": 0, "bike_id": "72eb09742194006428d7559c3d698afa", "fusion_lat": 0.0, "is_disabled": 0, "rental_uris": {"ios": "https://dc.lft.to/lastmile_qr_scan", "android": "https://dc.lft.to/lastmile_qr_scan"}}, {"name": "00dd276e31ef4405f3ede2174fba29fc", "lon": -77.040714, "lat": 38.9178655, "type": "electric_scooter", "fusion_lon": 0.0, "is_reserved": 0, "bike_id": "00dd276e31ef4405f3ede2174fba29fc", "fusion_lat": 0.0, "is_disabled": 0, "rental_uris": {"ios": "https://dc.lft.to/lastmile_qr_scan", "android": "https://dc.lft.to/lastmile_qr_scan"}}, {"name": "75023fbb57a345deb9b3bb666fabd31a", "lon": -77.01618066666667, "lat": 38.901465, "type": "electric_scooter", "fusion_lon": 0.0, "is_reserved": 0, "bike_id": "75023fbb57a345deb9b3bb666fabd31a", "fusion_lat": 0.0, "is_disabled": 0, "rental_uris": {"ios": "https://dc.lft.to/lastmile_qr_scan", "android": "https://dc.lft.to/lastmile_qr_scan"}}, {"name": "0cdd0d65108452f7f95a8b1718d7f78c", "lon": -77.023827, "lat": 38.896167166666665, "type": "electric_scooter", "fusion_lon": 0.0, "is_reserved": 0, "bike_id": "0cdd0d65108452f7f95a8b1718d7f78c", "fusion_lat": 0.0, "is_disabled": 0, "rental_uris": {"ios": "https://dc.lft.to/lastmile_qr_scan", "android": "https://dc.lft.to/lastmile_qr_scan"}}, {"name": "a9f15dff63d4d2c7486a3cd9e8563f87", "lon": -77.0318425, "lat": 38.91355016666667, "type": "electric_scooter", "fusion_lon": 0.0, "is_reserved": 0, "bike_id": "a9f15dff63d4d2c7486a3cd9e8563f87", "fusion_lat": 0.0, "is_disabled": 0, "rental_uris": {"ios": "https://dc.lft.to/lastmile_qr_scan", "android": "https://dc.lft.to/lastmile_qr_scan"}}, {"name": "a2ae96fdd81bf1ab3b1490e086892626", "lon": -77.03181533333333, "lat": 38.91552516666667, "type": "electric_bike", "fusion_lon": 0.0, "is_reserved": 0, "bike_id": "a2ae96fdd81bf1ab3b1490e086892626", "fusion_lat": 0.0, "is_disabled": 0, "rental_uris": {"ios": "https://dc.lft.to/lastmile_qr_scan", "android": "https://dc.lft.to/lastmile_qr_scan"}}, {"name": "8e3ed64a67cf95345503c183b8d0240f", "lon": -76.98885283333334, "lat": 38.86651616666666, "type": "electric_scooter", "fusion_lon": 0.0, "is_reserved": 0, "bike_id": "8e3ed64a67cf95345503c183b8d0240f", "fusion_lat": 0.0, "is_disabled": 0, "rental_uris": {"ios": "https://dc.lft.to/lastmile_qr_scan", "android": "https://dc.lft.to/lastmile_qr_scan"}}, {"name": "1ea4b4420903cba3fe0e4e7b4414064c", "lon": -76.99270833333334, "lat": 38.8864595, "type": "electric_scooter", "fusion_lon": 0.0, "is_reserved": 0, "bike_id": "1ea4b4420903cba3fe0e4e7b4414064c", "fusion_lat": 0.0, "is_disabled": 0, "rental_uris": {"ios": "https://dc.lft.to/lastmile_qr_scan", "android": "https://dc.lft.to/lastmile_qr_scan"}}, {"name": "f584ba232df4cd658f11bd71a98db890", "lon": -77.02934916666666, "lat": 38.899305, "type": "electric_scooter", "fusion_lon": 0.0, "is_reserved": 0, "bike_id": "f584ba232df4cd658f11bd71a98db890", "fusion_lat": 0.0, "is_disabled": 0, "rental_uris": {"ios": "https://dc.lft.to/lastmile_qr_scan", "android": "https://dc.lft.to/lastmile_qr_scan"}}, {"name": "1fd2ba9f00b7f219718b815c0f1493f7", "lon": -76.9376195, "lat": 38.890457166666664, "type": "electric_scooter", "fusion_lon": 0.0, "is_reserved": 0, "bike_id": "1fd2ba9f00b7f219718b815c0f1493f7", "fusion_lat": 0.0, "is_disabled": 0, "rental_uris": {"ios": "https://dc.lft.to/lastmile_qr_scan", "android": "https://dc.lft.to/lastmile_qr_scan"}}, {"name": "490919a294dda8396a004f45efa281f8", "lon": -77.048034, "lat": 38.89224933333333, "type": "electric_scooter", "fusion_lon": 0.0, "is_reserved": 0, "bike_id": "490919a294dda8396a004f45efa281f8", "fusion_lat": 0.0, "is_disabled": 0, "rental_uris": {"ios": "https://dc.lft.to/lastmile_qr_scan", "android": "https://dc.lft.to/lastmile_qr_scan"}}, {"name": "21363689183b68c0021eddbf4f3f0607", "lon": -77.0431305, "lat": 38.926615166666664, "type": "electric_scooter", "fusion_lon": 0.0, "is_reserved": 0, "bike_id": "21363689183b68c0021eddbf4f3f0607", "fusion_lat": 0.0, "is_disabled": 0, "rental_uris": {"ios": "https://dc.lft.to/lastmile_qr_scan", "android": "https://dc.lft.to/lastmile_qr_scan"}}, {"name": "33ca9d76f9e8c37cfebef35fa0d36589", "lon": -77.03470133333333, "lat": 38.922549, "type": "electric_scooter", "fusion_lon": 0.0, "is_reserved": 0, "bike_id": "33ca9d76f9e8c37cfebef35fa0d36589", "fusion_lat": 0.0, "is_disabled": 0, "rental_uris": {"ios": "https://dc.lft.to/lastmile_qr_scan", "android": "https://dc.lft.to/lastmile_qr_scan"}}, {"name": "0549f98823e91ff1ebcb55fe29de9e6e", "lon": -76.93757933333333, "lat": 38.890471166666664, "type": "electric_scooter", "fusion_lon": 0.0, "is_reserved": 0, "bike_id": "0549f98823e91ff1ebcb55fe29de9e6e", "fusion_lat": 0.0, "is_disabled": 0, "rental_uris": {"ios": "https://dc.lft.to/lastmile_qr_scan", "android": "https://dc.lft.to/lastmile_qr_scan"}}, {"name": "6f9752e887f477e86764053d07362201", "lon": -77.0284575, "lat": 38.934213166666666, "type": "electric_scooter", "fusion_lon": 0.0, "is_reserved": 0, "bike_id": "6f9752e887f477e86764053d07362201", "fusion_lat": 0.0, "is_disabled": 0, "rental_uris": {"ios": "https://dc.lft.to/lastmile_qr_scan", "android": "https://dc.lft.to/lastmile_qr_scan"}}, {"name": "4bf030640a4a9aaf885c8941fd82df59", "lon": -77.06713916666666, "lat": 38.95071683333333, "type": "electric_scooter", "fusion_lon": 0.0, "is_reserved": 0, "bike_id": "4bf030640a4a9aaf885c8941fd82df59", "fusion_lat": 0.0, "is_disabled": 0, "rental_uris": {"ios": "https://dc.lft.to/lastmile_qr_scan", "android": "https://dc.lft.to/lastmile_qr_scan"}}, {"name": "126c4692123144d0e14eb90fa701ba1a", "lon": -77.05513666666667, "lat": 38.9094125, "type": "electric_scooter", "fusion_lon": 0.0, "is_reserved": 0, "bike_id": "126c4692123144d0e14eb90fa701ba1a", "fusion_lat": 0.0, "is_disabled": 0, "rental_uris": {"ios": "https://dc.lft.to/lastmile_qr_scan", "android": "https://dc.lft.to/lastmile_qr_scan"}}, {"name": "def53ebcb87a051e26f539b1a7c7a8a8", "lon": -77.00967883333334, "lat": 38.914153666666664, "type": "electric_scooter", "fusion_lon": 0.0, "is_reserved": 0, "bike_id": "def53ebcb87a051e26f539b1a7c7a8a8", "fusion_lat": 0.0, "is_disabled": 0, "rental_uris": {"ios": "https://dc.lft.to/lastmile_qr_scan", "android": "https://dc.lft.to/lastmile_qr_scan"}}, {"name": "bc0e8f63f90a57a9377b2896df1b0b16", "lon": -77.05294633333334, "lat": 38.927938166666664, "type": "electric_scooter", "fusion_lon": 0.0, "is_reserved": 0, "bike_id": "bc0e8f63f90a57a9377b2896df1b0b16", "fusion_lat": 0.0, "is_disabled": 0, "rental_uris": {"ios": "https://dc.lft.to/lastmile_qr_scan", "android": "https://dc.lft.to/lastmile_qr_scan"}}, {"name": "5017dcdd30cbe53142083132f8d5f11e", "lon": -76.99843883333334, "lat": 38.8848015, "type": "electric_scooter", "fusion_lon": 0.0, "is_reserved": 0, "bike_id": "5017dcdd30cbe53142083132f8d5f11e", "fusion_lat": 0.0, "is_disabled": 0, "rental_uris": {"ios": "https://dc.lft.to/lastmile_qr_scan", "android": "https://dc.lft.to/lastmile_qr_scan"}}, {"name": "8ec84a48b34d2c1a249b921d1d947e28", "lon": -77.0384555, "lat": 38.910163833333336, "type": "electric_scooter", "fusion_lon": 0.0, "is_reserved": 0, "bike_id": "8ec84a48b34d2c1a249b921d1d947e28", "fusion_lat": 0.0, "is_disabled": 0, "rental_uris": {"ios": "https://dc.lft.to/lastmile_qr_scan", "android": "https://dc.lft.to/lastmile_qr_scan"}}, {"name": "d2a227b71677f036f979c46a1033521d", "lon": -77.00557116666667, "lat": 38.879060333333335, "type": "electric_scooter", "fusion_lon": 0.0, "is_reserved": 0, "bike_id": "d2a227b71677f036f979c46a1033521d", "fusion_lat": 0.0, "is_disabled": 0, "rental_uris": {"ios": "https://dc.lft.to/lastmile_qr_scan", "android": "https://dc.lft.to/lastmile_qr_scan"}}, {"name": "35e841666f0d9ce72e51560c7dca1d64", "lon": -77.04513166666666, "lat": 38.9120485, "type": "electric_scooter", "fusion_lon": 0.0, "is_reserved": 0, "bike_id": "35e841666f0d9ce72e51560c7dca1d64", "fusion_lat": 0.0, "is_disabled": 0, "rental_uris": {"ios": "https://dc.lft.to/lastmile_qr_scan", "android": "https://dc.lft.to/lastmile_qr_scan"}}, {"name": "770d06a1cd38328dad27c7c6fc5e7018", "lon": -77.0184085, "lat": 38.90963583333333, "type": "electric_scooter", "fusion_lon": 0.0, "is_reserved": 0, "bike_id": "770d06a1cd38328dad27c7c6fc5e7018", "fusion_lat": 0.0, "is_disabled": 0, "rental_uris": {"ios": "https://dc.lft.to/lastmile_qr_scan", "android": "https://dc.lft.to/lastmile_qr_scan"}}, {"name": "52d4d84f081e58e096cca1ea320d1282", "lon": -77.04534683333333, "lat": 38.93460266666666, "type": "electric_bike", "fusion_lon": 0.0, "is_reserved": 0, "bike_id": "52d4d84f081e58e096cca1ea320d1282", "fusion_lat": 0.0, "is_disabled": 0, "rental_uris": {"ios": "https://dc.lft.to/lastmile_qr_scan", "android": "https://dc.lft.to/lastmile_qr_scan"}}, {"name": "200c77e8353a47603fdb50cdec4ae047", "lon": -76.96906583333333, "lat": 38.84617016666667, "type": "electric_bike", "fusion_lon": 0.0, "is_reserved": 0, "bike_id": "200c77e8353a47603fdb50cdec4ae047", "fusion_lat": 0.0, "is_disabled": 0, "rental_uris": {"ios": "https://dc.lft.to/lastmile_qr_scan", "android": "https://dc.lft.to/lastmile_qr_scan"}}, {"name": "086dc100aeb23bc84fd2e07b0138c1f8", "lon": -76.99777366666666, "lat": 38.862134833333336, "type": "electric_bike", "fusion_lon": 0.0, "is_reserved": 0, "bike_id": "086dc100aeb23bc84fd2e07b0138c1f8", "fusion_lat": 0.0, "is_disabled": 0, "rental_uris": {"ios": "https://dc.lft.to/lastmile_qr_scan", "android": "https://dc.lft.to/lastmile_qr_scan"}}, {"name": "009f1ea20eb4c9f3043ad58d16092c5f", "lon": -76.94932533333333, "lat": 38.893498, "type": "electric_scooter", "fusion_lon": 0.0, "is_reserved": 0, "bike_id": "009f1ea20eb4c9f3043ad58d16092c5f", "fusion_lat": 0.0, "is_disabled": 0, "rental_uris": {"ios": "https://dc.lft.to/lastmile_qr_scan", "android": "https://dc.lft.to/lastmile_qr_scan"}}, {"name": "6202301324d27bded8a07ebdfb0d5e5c", "lon": -77.072577, "lat": 38.9334385, "type": "electric_bike", "fusion_lon": 0.0, "is_reserved": 0, "bike_id": "6202301324d27bded8a07ebdfb0d5e5c", "fusion_lat": 0.0, "is_disabled": 0, "rental_uris": {"ios": "https://dc.lft.to/lastmile_qr_scan", "android": "https://dc.lft.to/lastmile_qr_scan"}}, {"name": "3bae7e5ea4703c1bfae03b0dc809fddc", "lon": -77.02777216666667, "lat": 38.897032833333334, "type": "electric_scooter", "fusion_lon": 0.0, "is_reserved": 0, "bike_id": "3bae7e5ea4703c1bfae03b0dc809fddc", "fusion_lat": 0.0, "is_disabled": 0, "rental_uris": {"ios": "https://dc.lft.to/lastmile_qr_scan", "android": "https://dc.lft.to/lastmile_qr_scan"}}, {"name": "05412f04d657b96252aaaae3ef0ce7c8", "lon": -77.00213733333334, "lat": 38.9145175, "type": "electric_scooter", "fusion_lon": 0.0, "is_reserved": 0, "bike_id": "05412f04d657b96252aaaae3ef0ce7c8", "fusion_lat": 0.0, "is_disabled": 0, "rental_uris": {"ios": "https://dc.lft.to/lastmile_qr_scan", "android": "https://dc.lft.to/lastmile_qr_scan"}}, {"name": "93f27ebacced2d482bcc5af8f63d2221", "lon": -77.04501766666667, "lat": 38.842933333333335, "type": "electric_bike", "fusion_lon": 0.0, "is_reserved": 0, "bike_id": "93f27ebacced2d482bcc5af8f63d2221", "fusion_lat": 0.0, "is_disabled": 0, "rental_uris": {"ios": "https://dc.lft.to/lastmile_qr_scan", "android": "https://dc.lft.to/lastmile_qr_scan"}}, {"name": "4beccfad6d2ec99f1d75c26d02a6f7df", "lon": -77.04303983333334, "lat": 38.908575, "type": "electric_scooter", "fusion_lon": 0.0, "is_reserved": 0, "bike_id": "4beccfad6d2ec99f1d75c26d02a6f7df", "fusion_lat": 0.0, "is_disabled": 0, "rental_uris": {"ios": "https://dc.lft.to/lastmile_qr_scan", "android": "https://dc.lft.to/lastmile_qr_scan"}}, {"name": "5fd05e66d60e4bc59703ced1770466f2", "lon": -77.03100883333333, "lat": 38.9507535, "type": "electric_scooter", "fusion_lon": 0.0, "is_reserved": 0, "bike_id": "5fd05e66d60e4bc59703ced1770466f2", "fusion_lat": 0.0, "is_disabled": 0, "rental_uris": {"ios": "https://dc.lft.to/lastmile_qr_scan", "android": "https://dc.lft.to/lastmile_qr_scan"}}, {"name": "2bb5e9202362c11d850f5aba835f82bb", "lon": -77.0209415, "lat": 38.9372165, "type": "electric_bike", "fusion_lon": 0.0, "is_reserved": 0, "bike_id": "2bb5e9202362c11d850f5aba835f82bb", "fusion_lat": 0.0, "is_disabled": 0, "rental_uris": {"ios": "https://dc.lft.to/lastmile_qr_scan", "android": "https://dc.lft.to/lastmile_qr_scan"}}, {"name": "54c420f34bec6c7c694b686231057e2f", "lon": -77.08400683333333, "lat": 38.908081833333334, "type": "electric_scooter", "fusion_lon": 0.0, "is_reserved": 0, "bike_id": "54c420f34bec6c7c694b686231057e2f", "fusion_lat": 0.0, "is_disabled": 0, "rental_uris": {"ios": "https://dc.lft.to/lastmile_qr_scan", "android": "https://dc.lft.to/lastmile_qr_scan"}}, {"name": "547e53341b37a2fe579bfa8dd152829a", "lon": -77.019157, "lat": 38.9237155, "type": "electric_scooter", "fusion_lon": 0.0, "is_reserved": 0, "bike_id": "547e53341b37a2fe579bfa8dd152829a", "fusion_lat": 0.0, "is_disabled": 0, "rental_uris": {"ios": "https://dc.lft.to/lastmile_qr_scan", "android": "https://dc.lft.to/lastmile_qr_scan"}}, {"name": "ef05bc6c962f2bd8c6d8b2d8036a59b3", "lon": -76.9719345, "lat": 38.917903, "type": "electric_bike", "fusion_lon": 0.0, "is_reserved": 0, "bike_id": "ef05bc6c962f2bd8c6d8b2d8036a59b3", "fusion_lat": 0.0, "is_disabled": 0, "rental_uris": {"ios": "https://dc.lft.to/lastmile_qr_scan", "android": "https://dc.lft.to/lastmile_qr_scan"}}, {"name": "bf60bff7549a1a586eb34ccf84af6e90", "lon": -77.04876383333334, "lat": 38.9058295, "type": "electric_scooter", "fusion_lon": 0.0, "is_reserved": 0, "bike_id": "bf60bff7549a1a586eb34ccf84af6e90", "fusion_lat": 0.0, "is_disabled": 0, "rental_uris": {"ios": "https://dc.lft.to/lastmile_qr_scan", "android": "https://dc.lft.to/lastmile_qr_scan"}}, {"name": "51bc0e5bb60e2ede76536c33347008ca", "lon": -76.999122, "lat": 38.924587, "type": "electric_scooter", "fusion_lon": 0.0, "is_reserved": 0, "bike_id": "51bc0e5bb60e2ede76536c33347008ca", "fusion_lat": 0.0, "is_disabled": 0, "rental_uris": {"ios": "https://dc.lft.to/lastmile_qr_scan", "android": "https://dc.lft.to/lastmile_qr_scan"}}, {"name": "b837c9ab9cb24a3a957c412ec1257491", "lon": -77.05760666666667, "lat": 38.93389766666667, "type": "electric_scooter", "fusion_lon": 0.0, "is_reserved": 0, "bike_id": "b837c9ab9cb24a3a957c412ec1257491", "fusion_lat": 0.0, "is_disabled": 0, "rental_uris": {"ios": "https://dc.lft.to/lastmile_qr_scan", "android": "https://dc.lft.to/lastmile_qr_scan"}}, {"name": "157796d6479a4613660146793a4410a6", "lon": -77.051427, "lat": 38.90384483333333, "type": "electric_scooter", "fusion_lon": 0.0, "is_reserved": 0, "bike_id": "157796d6479a4613660146793a4410a6", "fusion_lat": 0.0, "is_disabled": 0, "rental_uris": {"ios": "https://dc.lft.to/lastmile_qr_scan", "android": "https://dc.lft.to/lastmile_qr_scan"}}, {"name": "2f7cdb34f2bb884cab5f568816c4cf52", "lon": -77.0450485, "lat": 38.9037625, "type": "electric_scooter", "fusion_lon": 0.0, "is_reserved": 0, "bike_id": "2f7cdb34f2bb884cab5f568816c4cf52", "fusion_lat": 0.0, "is_disabled": 0, "rental_uris": {"ios": "https://dc.lft.to/lastmile_qr_scan", "android": "https://dc.lft.to/lastmile_qr_scan"}}, {"name": "8755257f71e89ed35b9b0eee82a78010", "lon": -77.04311566666667, "lat": 38.881131833333335, "type": "electric_scooter", "fusion_lon": 0.0, "is_reserved": 0, "bike_id": "8755257f71e89ed35b9b0eee82a78010", "fusion_lat": 0.0, "is_disabled": 0, "rental_uris": {"ios": "https://dc.lft.to/lastmile_qr_scan", "android": "https://dc.lft.to/lastmile_qr_scan"}},