{"data": {"bikes": [{"is_disabled": 0, "is_reserved": 0, "fusion_lat": 0.0, "lat": 38.898244166666665, "fusion_lon": 0.0, "rental_uris": {"ios": "https://dc.lft.to/lastmile_qr_scan", "android": "https://dc.lft.to/lastmile_qr_scan"}, "lon": -76.9927235, "bike_id": "2cec40b537b24e1b6528060eff52c56e", "type": "electric_scooter", "name": "2cec40b537b24e1b6528060eff52c56e"}, {"is_disabled": 0, "is_reserved": 0, "fusion_lat": 0.0, "lat": 38.935508, "fusion_lon": 0.0, "rental_uris": {"ios": "https://dc.lft.to/lastmile_qr_scan", "android": "https://dc.lft.to/lastmile_qr_scan"}, "lon": -77.07698, "bike_id": "7d9900ab54388cf0b58d670c34faaf2c", "type": "electric_scooter", "name": "7d9900ab54388cf0b58d670c34faaf2c"}, {"is_disabled": 0, "is_reserved": 0, "fusion_lat": 0.0, "lat": 38.8711375, "fusion_lon": 0.0, "rental_uris": {"ios": "https://dc.lft.to/lastmile_qr_scan", "android": "https://dc.lft.to/lastmile_qr_scan"}, "lon": -77.00753733333333, "bike_id": "cca891ffe602a0409135dbd452a5ae22", "type": "electric_scooter", "name": "cca891ffe602a0409135dbd452a5ae22"}, {"is_disabled": 0, "is_reserved": 0, "fusion_lat": 0.0, "lat": 38.898055, "fusion_lon": 0.0, "rental_uris": {"ios": "https://dc.lft.to/lastmile_qr_scan", "android": "https://dc.lft.to/lastmile_qr_scan"}, "lon": -77.04878433333333, "bike_id": "4ebbd425ad8c31e4c902b954772b6f75", "type": "electric_scooter", "name": "4ebbd425ad8c31e4c902b954772b6f75"}, {"is_disabled": 0, "is_reserved": 0, "fusion_lat": 0.0, "lat": 38.91928133333333, "fusion_lon": 0.0, "rental_uris": {"ios": "https://dc.lft.to/lastmile_qr_scan", "android": "https://dc.lft.to/lastmile_qr_scan"}, "lon": -77.02483066666667, "bike_id": "10743661bf4fea691bd04698d2799f88", "type": "electric_scooter", "name": "10743661bf4fea691bd04698d2799f88"}, {"is_disabled": 0, "is_reserved": 0, "fusion_lat": 0.0, "lat": 38.91678666666667, "fusion_lon": 0.0, "rental_uris": {"ios": "https://dc.lft.to/lastmile_qr_scan", "android": "https://dc.lft.to/lastmile_qr_scan"}, "lon": -77.03649783333333, "bike_id": "07eb083162be10136246cb04ba7af14d", "type": "electric_scooter", "name": "07eb083162be10136246cb04ba7af14d"}, {"is_disabled": 0, "is_reserved": 0, "fusion_lat": 0.0, "lat": 38.94462333333333, "fusion_lon": 0.0, "rental_uris": {"ios": "https://dc.lft.to/lastmile_qr_scan", "android": "https://dc.lft.to/lastmile_qr_scan"}, "lon": -77.00655516666667, "bike_id": "fde23052196141370c668cc3cd17716d", "type": "electric_scooter", "name": "fde23052196141370c668cc3cd17716d"}, {"is_disabled": 0, "is_reserved": 0, "fusion_lat": 0.0, "lat": 38.91213416666667, "fusion_lon": 0.0, "rental_uris": {"ios": "https://dc.lft.to/lastmile_qr_scan", "android": "https://dc.lft.to/lastmile_qr_scan"}, "lon": -77.006636, "bike_id": "1e0444735e8b1b371099ce2aa9334c6b", "type": "electric_scooter", "name": "1e0444735e8b1b371099ce2aa9334c6b"}, {"is_disabled": 0, "is_reserved": 0, "fusion_lat": 0.0, "lat": 38.92092783333333, "fusion_lon": 0.0, "rental_uris": {"ios": "https://dc.lft.to/lastmile_qr_scan", "android": "https://dc.lft.to/lastmile_qr_scan"}, "lon": -77.02517833333333, "bike_id": "68febdb23180fa7e61f730d201265dcb", "type": "electric_scooter", "name": "68febdb23180fa7e61f730d201265dcb"}, {"is_disabled": 0, "is_reserved": 0, "fusion_lat": 0.0, "lat": 38.9287545, "fusion_lon": 0.0, "rental_uris": {"ios": "https://dc.lft.to/lastmile_qr_scan", "android": "https://dc.lft.to/lastmile_qr_scan"}, "lon": -77.03989866666667, "bike_id": "165e33f7d3a24f2986c70e809d070596", "type": "electric_scooter", "name": "165e33f7d3a24f2986c70e809d070596"}, {"is_disabled": 0, "is_reserved": 0, "fusion_lat": 0.0, "lat": 38.89839533333333, "fusion_lon": 0.0, "rental_uris": {"ios": "https://dc.lft.to/lastmile_qr_scan", "android": "https://dc.lft.to/lastmile_qr_scan"}, "lon": -77.04905216666667, "bike_id": "5ad06377c07db606cae1838a2f29213b", "type": "electric_scooter", "name": "5ad06377c07db606cae1838a2f29213b"}, {"is_disabled": 0, "is_reserved": 0, "fusion_lat": 0.0, "lat": 38.9195525, "fusion_lon": 0.0, "rental_uris": {"ios": "https://dc.lft.to/lastmile_qr_scan", "android": "https://dc.lft.to/lastmile_qr_scan"}, "lon": -77.023028, "bike_id": "0e169b510862edca7af80e62f6a3eec0", "type": "electric_scooter", "name": "0e169b510862edca7af80e62f6a3eec0"}, {"is_disabled": 0, "is_reserved": 0, "fusion_lat": 0.0, "lat": 38.86820066666667, "fusion_lon": 0.0, "rental_uris": {"ios": "https://dc.lft.to/lastmile_qr_scan", "android": "https://dc.lft.to/lastmile_qr_scan"}, "lon": -76.98017316666666, "bike_id": "1153649661aa4eea16c33729200cb587", "type": "electric_bike", "name": "1153649661aa4eea16c33729200cb587"}, {"is_disabled": 0, "is_reserved": 0, "fusion_lat": 0.0, "lat": 38.9058205, "fusion_lon": 0.0, "rental_uris": {"ios": "https://dc.lft.to/lastmile_qr_scan", "android": "https://dc.lft.to/lastmile_qr_scan"}, "lon": -77.04337183333334, "bike_id": "ed1a3aab41ed9368138f676254385af2", "type": "electric_scooter", "name": "ed1a3aab41ed9368138f676254385af2"}, {"is_disabled": 0, "is_reserved": 0, "fusion_lat": 0.0, "lat": 38.9165345, "fusion_lon": 0.0, "rental_uris": {"ios": "https://dc.lft.to/lastmile_qr_scan", "android": "https://dc.lft.to/lastmile_qr_scan"}, "lon": -77.023898, "bike_id": "54ccafc33db9de7e6261bd22c8262d44", "type": "electric_scooter", "name": "54ccafc33db9de7e6261bd22c8262d44"}, {"is_disabled": 0, "is_reserved": 0, "fusion_lat": 0.0, "lat": 38.90725333333334, "fusion_lon": 0.0, "rental_uris": {"ios": "https://dc.lft.to/lastmile_qr_scan", "android": "https://dc.lft.to/lastmile_qr_scan"}, "lon": -77.02505533333333, "bike_id": "349d1cc44fbacf91b0b82b1dc21eb37b", "type": "electric_scooter", "name": "349d1cc44fbacf91b0b82b1dc21eb37b"}, {"is_disabled": 0, "is_reserved": 0, "fusion_lat": 0.0, "lat": 38.90014583333333, "fusion_lon": 0.0, "rental_uris": {"ios": "https://dc.lft.to/lastmile_qr_scan", "android": "https://dc.lft.to/lastmile_qr_scan"}, "lon": -77.05256433333334, "bike_id": "3852192d4c2b9477339101f448fd5378", "type": "electric_scooter", "name": "3852192d4c2b9477339101f448fd5378"}, {"is_disabled": 0, "is_reserved": 0, "fusion_lat": 0.0, "lat": 38.92037066666666, "fusion_lon": 0.0, "rental_uris": {"ios": "https://dc.lft.to/lastmile_qr_scan", "android": "https://dc.lft.to/lastmile_qr_scan"}, "lon": -77.0307195, "bike_id": "c4badf25e66e819f0ad9f52b55ce4cb2", "type": "electric_scooter", "name": "c4badf25e66e819f0ad9f52b55ce4cb2"}, {"is_disabled": 0, "is_reserved": 0, "fusion_lat": 0.0, "lat": 38.9170575, "fusion_lon": 0.0, "rental_uris": {"ios": "https://dc.lft.to/lastmile_qr_scan", "android": "https://dc.lft.to/lastmile_qr_scan"}, "lon": -77.0241, "bike_id": "f54cbe9c9f0b3e1b5bd469b1ddbf67bf", "type": "electric_scooter", "name": "f54cbe9c9f0b3e1b5bd469b1ddbf67bf"}, {"is_disabled": 0, "is_reserved": 0, "fusion_lat": 0.0, "lat": 38.9149535, "fusion_lon": 0.0, "rental_uris": {"ios": "https://dc.lft.to/lastmile_qr_scan", "android": "https://dc.lft.to/lastmile_qr_scan"}, "lon": -76.98358666666667, "bike_id": "d0cba415c6cfd0c6c5d53ea0465fa59c", "type": "electric_scooter", "name": "d0cba415c6cfd0c6c5d53ea0465fa59c"}, {"is_disabled": 0, "is_reserved": 0, "fusion_lat": 0.0, "lat": 38.916920166666664, "fusion_lon": 0.0, "rental_uris": {"ios": "https://dc.lft.to/lastmile_qr_scan", "android": "https://dc.lft.to/lastmile_qr_scan"}, "lon": -77.0372095, "bike_id": "4b45a6317a1ef742db7f19e412437b42", "type": "electric_scooter", "name": "4b45a6317a1ef742db7f19e412437b42"}, {"is_disabled": 0, "is_reserved": 0, "fusion_lat": 0.0, "lat": 38.916885666666666, "fusion_lon": 0.0, "rental_uris": {"ios": "https://dc.lft.to/lastmile_qr_scan", "android": "https://dc.lft.to/lastmile_qr_scan"}, "lon": -77.03433433333333, "bike_id": "0a198daec6e1d8bf2d477810165fefdb", "type": "electric_scooter", "name": "0a198daec6e1d8bf2d477810165fefdb"}, {"is_disabled": 0, "is_reserved": 0, "fusion_lat": 0.0, "lat": 38.94448766666667, "fusion_lon": 0.0, "rental_uris": {"ios": "https://dc.lft.to/lastmile_qr_scan", "android": "https://dc.lft.to/lastmile_qr_scan"}, "lon": -77.03278666666667, "bike_id": "e15525b6d8c7855b9f75437166fbe60d", "type": "electric_scooter", "name": "e15525b6d8c7855b9f75437166fbe60d"}, {"is_disabled": 0, "is_reserved": 0, "fusion_lat": 0.0, "lat": 38.92925916666667, "fusion_lon": 0.0, "rental_uris": {"ios": "https://dc.lft.to/lastmile_qr_scan", "android": "https://dc.lft.to/lastmile_qr_scan"}, "lon": -77.032864, "bike_id": "464c81e46730793b224bb3e038af4535", "type": "electric_scooter", "name": "464c81e46730793b224bb3e038af4535"}, {"is_disabled": 0, "is_reserved": 0, "fusion_lat": 0.0, "lat": 38.9136285, "fusion_lon": 0.0, "rental_uris": {"ios": "https://dc.lft.to/lastmile_qr_scan", "android": "https://dc.lft.to/lastmile_qr_scan"}, "lon": -77.04660883333334, "bike_id": "99e6519cd3f64bded48cafe8f014f7b6", "type": "electric_scooter", "name": "99e6519cd3f64bded48cafe8f014f7b6"}, {"is_disabled": 0, "is_reserved": 0, "fusion_lat": 0.0, "lat": 38.89465833333333, "fusion_lon": 0.0, "rental_uris": {"ios": "https://dc.lft.to/lastmile_qr_scan", "android": "https://dc.lft.to/lastmile_qr_scan"}, "lon": -77.01100866666667, "bike_id": "0d9eceab708c15f1915cc88dfdc9c9ac", "type": "electric_scooter", "name": "0d9eceab708c15f1915cc88dfdc9c9ac"}, {"is_disabled": 0, "is_reserved": 0, "fusion_lat": 0.0, "lat": 38.93527566666667, "fusion_lon": 0.0, "rental_uris": {"ios": "https://dc.lft.to/lastmile_qr_scan", "android": "https://dc.lft.to/lastmile_qr_scan"}, "lon": -77.05432416666666, "bike_id": "5ad82b28e558d9f515f31acc250ce1d4", "type": "electric_scooter", "name": "5ad82b28e558d9f515f31acc250ce1d4"}, {"is_disabled": 0, "is_reserved": 0, "fusion_lat": 0.0, "lat": 38.887126333333335, "fusion_lon": 0.0, "rental_uris": {"ios": "https://dc.lft.to/lastmile_qr_scan", "android": "https://dc.lft.to/lastmile_qr_scan"}, "lon": -76.98379733333333, "bike_id": "ed2321862592bc7c9cc70345b25d5e78", "type": "electric_scooter", "name": "ed2321862592bc7c9cc70345b25d5e78"}, {"is_disabled": 0, "is_reserved": 0, "fusion_lat": 0.0, "lat": 38.92142966666667, "fusion_lon": 0.0, "rental_uris": {"ios": "https://dc.lft.to/lastmile_qr_scan", "android": "https://dc.lft.to/lastmile_qr_scan"}, "lon": -77.03518133333333, "bike_id": "04a73a5e8083e431436c787550a5a02c", "type": "electric_scooter", "name": "04a73a5e8083e431436c787550a5a02c"}, {"is_disabled": 0, "is_reserved": 0, "fusion_lat": 0.0, "lat": 38.90184516666667, "fusion_lon": 0.0, "rental_uris": {"ios": "https://dc.lft.to/lastmile_qr_scan", "android": "https://dc.lft.to/lastmile_qr_scan"}, "lon": -76.97667233333334, "bike_id": "ac1b854938db282bc3f18769acd03d54", "type": "electric_scooter", "name": "ac1b854938db282bc3f18769acd03d54"}, {"is_disabled": 0, "is_reserved": 0, "fusion_lat": 0.0, "lat": 38.905662166666666, "fusion_lon": 0.0, "rental_uris": {"ios": "https://dc.lft.to/lastmile_qr_scan", "android": "https://dc.lft.to/lastmile_qr_scan"}, "lon": -77.003293, "bike_id": "8fb6c19a9d21931cffc8618ea2277557", "type": "electric_scooter", "name": "8fb6c19a9d21931cffc8618ea2277557"}, {"is_disabled": 0, "is_reserved": 0, "fusion_lat": 0.0, "lat": 38.90384433333333, "fusion_lon": 0.0, "rental_uris": {"ios": "https://dc.lft.to/lastmile_qr_scan", "android": "https://dc.lft.to/lastmile_qr_scan"}, "lon": -77.00572416666667, "bike_id": "80baed4b85719f8490e4062c43f48a89", "type": "electric_scooter", "name": "80baed4b85719f8490e4062c43f48a89"}, {"is_disabled": 0, "is_reserved": 0, "fusion_lat": 0.0, "lat": 38.9072035, "fusion_lon": 0.0, "rental_uris": {"ios": "https://dc.lft.to/lastmile_qr_scan", "android": "https://dc.lft.to/lastmile_qr_scan"}, "lon": -77.05042566666667, "bike_id": "293ad3356dd1b3f9c931d94b12865766", "type": "electric_scooter", "name": "293ad3356dd1b3f9c931d94b12865766"}, {"is_disabled": 0, "is_reserved": 0, "fusion_lat": 0.0, "lat": 38.9012835, "fusion_lon": 0.0, "rental_uris": {"ios": "https://dc.lft.to/lastmile_qr_scan", "android": "https://dc.lft.to/lastmile_qr_scan"}, "lon": -77.0035925, "bike_id": "0c1ba7d1ab39f4de7527dca651f23d59", "type": "electric_scooter", "name": "0c1ba7d1ab39f4de7527dca651f23d59"}, {"is_disabled": 0, "is_reserved": 0, "fusion_lat": 0.0, "lat": 38.981483, "fusion_lon": 0.0, "rental_uris": {"ios": "https://dc.lft.to/lastmile_qr_scan", "android": "https://dc.lft.to/lastmile_qr_scan"}, "lon": -77.007711, "bike_id": "af8aa91d43564cedb3bf015c62062659", "type": "electric_bike", "name": "af8aa91d43564cedb3bf015c62062659"}, {"is_disabled": 0, "is_reserved": 0, "fusion_lat": 0.0, "lat": 39.01066466666666, "fusion_lon": 0.0, "rental_uris": {"ios": "https://dc.lft.to/lastmile_qr_scan", "android": "https://dc.lft.to/lastmile_qr_scan"}, "lon": -76.9223855, "bike_id": "721d3cd21e037e978bee3d92edf2113f", "type": "electric_bike", "name": "721d3cd21e037e978bee3d92edf2113f"}, {"is_disabled": 0, "is_reserved": 0, "fusion_lat": 0.0, "lat": 38.901472166666665, "fusion_lon": 0.0, "rental_uris": {"ios": "https://dc.lft.to/lastmile_qr_scan", "android": "https://dc.lft.to/lastmile_qr_scan"}, "lon": -76.9855405, "bike_id": "6d5c1c2fe877cc9c06a02181f5220812", "type": "electric_scooter", "name": "6d5c1c2fe877cc9c06a02181f5220812"}, {"is_disabled": 0, "is_reserved": 0, "fusion_lat": 0.0, "lat": 38.9180565, "fusion_lon": 0.0, "rental_uris": {"ios": "https://dc.lft.to/lastmile_qr_scan", "android": "https://dc.lft.to/lastmile_qr_scan"}, "lon": -77.0249415, "bike_id": "329c7cd8f48f3d0c9f47fe129bff3d83", "type": "electric_scooter", "name": "329c7cd8f48f3d0c9f47fe129bff3d83"}, {"is_disabled": 0, "is_reserved": 0, "fusion_lat": 0.0, "lat": 38.919245, "fusion_lon": 0.0, "rental_uris": {"ios": "https://dc.lft.to/lastmile_qr_scan", "android": "https://dc.lft.to/lastmile_qr_scan"}, "lon": -77.03439133333333, "bike_id": "b249c658f0eacfcd6fda370b746310a1", "type": "electric_scooter", "name": "b249c658f0eacfcd6fda370b746310a1"}, {"is_disabled": 0, "is_reserved": 0, "fusion_lat": 0.0, "lat": 38.87448766666667, "fusion_lon": 0.0, "rental_uris": {"ios": "https://dc.lft.to/lastmile_qr_scan", "android": "https://dc.lft.to/lastmile_qr_scan"}, "lon": -77.00923116666667, "bike_id": "776d6e1b0254252db647cc42ff32415b", "type": "electric_scooter", "name": "776d6e1b0254252db647cc42ff32415b"}, {"is_disabled": 0, "is_reserved": 0, "fusion_lat": 0.0, "lat": 38.878413333333334, "fusion_lon": 0.0, "rental_uris": {"ios": "https://dc.lft.to/lastmile_qr_scan", "android": "https://dc.lft.to/lastmile_qr_scan"}, "lon": -76.9313095, "bike_id": "49707e8c2b51e73271f8b1272f6b3407", "type": "electric_scooter", "name": "49707e8c2b51e73271f8b1272f6b3407"}, {"is_disabled": 0, "is_reserved": 0, "fusion_lat": 0.0, "lat": 38.931791833333335, "fusion_lon": 0.0, "rental_uris": {"ios": "https://dc.lft.to/lastmile_qr_scan", "android": "https://dc.lft.to/lastmile_qr_scan"}, "lon": -77.02342783333333, "bike_id": "b1a130b8a44e97e4c06c9b9f9072e0d6", "type": "electric_scooter", "name": "b1a130b8a44e97e4c06c9b9f9072e0d6"}, {"is_disabled": 0, "is_reserved": 0, "fusion_lat": 0.0, "lat": 38.919884333333336, "fusion_lon": 0.0, "rental_uris": {"ios": "https://dc.lft.to/lastmile_qr_scan", "android": "https://dc.lft.to/lastmile_qr_scan"}, "lon": -76.9730375, "bike_id": "b7c6a8742110fd4cab61b77f8263ce2e", "type": "electric_scooter", "name": "b7c6a8742110fd4cab61b77f8263ce2e"}, {"is_disabled": 0, "is_reserved": 0, "fusion_lat": 0.0, "lat": 38.8428005, "fusion_lon": 0.0, "rental_uris": {"ios": "https://dc.lft.to/lastmile_qr_scan", "android": "https://dc.lft.to/lastmile_qr_scan"}, "lon": -76.98837483333334, "bike_id": "bb7106e21bd799e5dfe41a0fd3218896", "type": "electric_bike", "name": "bb7106e21bd799e5dfe41a0fd3218896"}, {"is_disabled": 0, "is_reserved": 0, "fusion_lat": 0.0, "lat": 38.91562416666667, "fusion_lon": 0.0, "rental_uris": {"ios": "https://dc.lft.to/lastmile_qr_scan", "android": "https://dc.lft.to/lastmile_qr_scan"}, "lon": -77.03132, "bike_id": "74baf48eb9a2e9350fd4338a74182e66", "type": "electric_scooter", "name": "74baf48eb9a2e9350fd4338a74182e66"}, {"is_disabled": 0, "is_reserved": 0, "fusion_lat": 0.0, "lat": 38.9082415, "fusion_lon": 0.0, "rental_uris": {"ios": "https://dc.lft.to/lastmile_qr_scan", "android": "https://dc.lft.to/lastmile_qr_scan"}, "lon": -77.03854533333333, "bike_id": "3fd6333ca941be355eac6bf011e5dca2", "type": "electric_bike", "name": "3fd6333ca941be355eac6bf011e5dca2"}, {"is_disabled": 0, "is_reserved": 0, "fusion_lat": 0.0, "lat": 38.91655183333334, "fusion_lon": 0.0, "rental_uris": {"ios": "https://dc.lft.to/lastmile_qr_scan", "android": "https://dc.lft.to/lastmile_qr_scan"}, "lon": -77.032086, "bike_id": "7d9bc0335524de27d9f44721aeb94804", "type": "electric_scooter", "name": "7d9bc0335524de27d9f44721aeb94804"}, {"is_disabled": 0, "is_reserved": 0, "fusion_lat": 0.0, "lat": 38.92419916666667, "fusion_lon": 0.0, "rental_uris": {"ios": "https://dc.lft.to/lastmile_qr_scan", "android": "https://dc.lft.to/lastmile_qr_scan"}, "lon": -77.0354895, "bike_id": "6ecabf832342e81281add79e1ae2ef74", "type": "electric_scooter", "name": "6ecabf832342e81281add79e1ae2ef74"}, {"is_disabled": 0, "is_reserved": 0, "fusion_lat": 0.0, "lat": 38.9063815, "fusion_lon": 0.0, "rental_uris": {"ios": "https://dc.lft.to/lastmile_qr_scan", "android": "https://dc.lft.to/lastmile_qr_scan"}, "lon": -77.04541, "bike_id": "4f3543bc241c984d02c4cc951a0f9a7a", "type": "electric_scooter", "name": "4f3543bc241c984d02c4cc951a0f9a7a"}, {"is_disabled": 0, "is_reserved": 0, "fusion_lat": 0.0, "lat": 38.90073683333333, "fusion_lon": 0.0, "rental_uris": {"ios": "https://dc.lft.to/lastmile_qr_scan", "android": "https://dc.lft.to/lastmile_qr_scan"}, "lon": -77.04926583333334, "bike_id": "7ef8eae1bc749f72b9175711709ef576", "type": "electric_scooter", "name": "7ef8eae1bc749f72b9175711709ef576"}, {"is_disabled": 0, "is_reserved": 0, "fusion_lat": 0.0, "lat": 38.905633, "fusion_lon": 0.0, "rental_uris": {"ios": "https://dc.lft.to/lastmile_qr_scan", "android": "https://dc.lft.to/lastmile_qr_scan"}, "lon": -77.0171955, "bike_id": "c7d3f8516db5a2c7b1316e4ab4a800e1", "type": "electric_scooter", "name": "c7d3f8516db5a2c7b1316e4ab4a800e1"}, {"is_disabled": 0, "is_reserved": 0, "fusion_lat": 0.0, "lat": 38.912662166666664, "fusion_lon": 0.0, "rental_uris": {"ios": "https://dc.lft.to/lastmile_qr_scan", "android": "https://dc.lft.to/lastmile_qr_scan"}, "lon": -77.04597116666666, "bike_id": "c8990ddfd9ccb9b43aabac774c65bba0", "type": "electric_scooter", "name": "c8990ddfd9ccb9b43aabac774c65bba0"}, {"is_disabled": 0, "is_reserved": 0, "fusion_lat": 0.0, "lat": 38.94633916666667, "fusion_lon": 0.0, "rental_uris": {"ios": "https://dc.lft.to/lastmile_qr_scan", "android": "https://dc.lft.to/lastmile_qr_scan"}, "lon": -77.01844283333334, "bike_id": "ed16334563ebc3c37cd78c9cd9a0edb6", "type": "electric_scooter", "name": "ed16334563ebc3c37cd78c9cd9a0edb6"}, {"is_disabled": 0, "is_reserved": 0, "fusion_lat": 0.0, "lat": 38.924068, "fusion_lon": 0.0, "rental_uris": {"ios": "https://dc.lft.to/lastmile_qr_scan", "android": "https://dc.lft.to/lastmile_qr_scan"}, "lon": -77.05166766666666, "bike_id": "a150915f403ed6cb97067e780504e485", "type": "electric_scooter", "name": "a150915f403ed6cb97067e780504e485"}, {"is_disabled": 0, "is_reserved": 0, "fusion_lat": 0.0, "lat": 38.900395833333334, "fusion_lon": 0.0, "rental_uris": {"ios": "https://dc.lft.to/lastmile_qr_scan", "android": "https://dc.lft.to/lastmile_qr_scan"}, "lon": -76.99498783333334, "bike_id": "68aa8e8ee98ffde56a527b1a240a5529", "type": "electric_scooter", "name": "68aa8e8ee98ffde56a527b1a240a5529"}, {"is_disabled": 0, "is_reserved": 0, "fusion_lat": 0.0, "lat": 38.89823783333333, "fusion_lon": 0.0, "rental_uris": {"ios": "https://dc.lft.to/lastmile_qr_scan", "android": "https://dc.lft.to/lastmile_qr_scan"}, "lon": -77.02794066666667, "bike_id": "841b6cf738aae062986b7fc201c8bd17", "type": "electric_scooter", "name": "841b6cf738aae062986b7fc201c8bd17"}, {"is_disabled": 0, "is_reserved": 0, "fusion_lat": 0.0, "lat": 38.94590216666667, "fusion_lon": 0.0, "rental_uris": {"ios": "https://dc.lft.to/lastmile_qr_scan", "android": "https://dc.lft.to/lastmile_qr_scan"}, "lon": -77.020332, "bike_id": "5d477d0f73c2a996cc4b3195865c818e", "type": "electric_scooter", "name": "5d477d0f73c2a996cc4b3195865c818e"}, {"is_disabled": 0, "is_reserved": 0, "fusion_lat": 0.0, "lat": 38.92230683333333, "fusion_lon": 0.0, "rental_uris": {"ios": "https://dc.lft.to/lastmile_qr_scan", "android": "https://dc.lft.to/lastmile_qr_scan"}, "lon": -76.97529266666666, "bike_id": "fa0fbfbb53d5cc806d4d48405076cda3", "type": "electric_scooter", "name": "fa0fbfbb53d5cc806d4d48405076cda3"}, {"is_disabled": 0, "is_reserved": 0, "fusion_lat": 0.0, "lat": 38.934079833333335, "fusion_lon": 0.0, "rental_uris": {"ios": "https://dc.lft.to/lastmile_qr_scan", "android": "https://dc.lft.to/lastmile_qr_scan"}, "lon": -77.020455, "bike_id": "77196c64facf1a10408a44dcf0b1ab12", "type": "electric_scooter", "name": "77196c64facf1a10408a44dcf0b1ab12"}, {"is_disabled": 0, "is_reserved": 0, "fusion_lat": 0.0, "lat": 38.905716, "fusion_lon": 0.0, "rental_uris": {"ios": "https://dc.lft.to/lastmile_qr_scan", "android": "https://dc.lft.to/lastmile_qr_scan"}, "lon": -77.0028955, "bike_id": "8c125e4ca4a1e4325b970c88e5f4dda0", "type": "electric_bike", "name": "8c125e4ca4a1e4325b970c88e5f4dda0"}, {"is_disabled": 0, "is_reserved": 0, "fusion_lat": 0.0, "lat": 38.9036755, "fusion_lon": 0.0, "rental_uris": {"ios": "https://dc.lft.to/lastmile_qr_scan", "android": "https://dc.lft.to/lastmile_qr_scan"}, "lon": -77.03964533333334, "bike_id": "d514e4bc8812d9d6d3051c126596b3f5", "type": "electric_scooter", "name": "d514e4bc8812d9d6d3051c126596b3f5"}, {"is_disabled": 0, "is_reserved": 0, "fusion_lat": 0.0, "lat": 38.91030416666667, "fusion_lon": 0.0, "rental_uris": {"ios": "https://dc.lft.to/lastmile_qr_scan", "android": "https://dc.lft.to/lastmile_qr_scan"}, "lon": -77.03454166666667, "bike_id": "45c83a0bb6807a6341cae47846f1d34e", "type": "electric_scooter", "name": "45c83a0bb6807a6341cae47846f1d34e"}, {"is_disabled": 0, "is_reserved": 0, "fusion_lat": 0.0, "lat": 38.89753816666666, "fusion_lon": 0.0, "rental_uris": {"ios": "https://dc.lft.to/lastmile_qr_scan", "android": "https://dc.lft.to/lastmile_qr_scan"}, "lon": -77.03300983333334, "bike_id": "1237b5b0f13011f95cbfff0729573af6", "type": "electric_scooter", "name": "1237b5b0f13011f95cbfff0729573af6"}, {"is_disabled": 0, "is_reserved": 0, "fusion_lat": 0.0, "lat": 38.92817433333333, "fusion_lon": 0.0, "rental_uris": {"ios": "https://dc.lft.to/lastmile_qr_scan", "android": "https://dc.lft.to/lastmile_qr_scan"}, "lon": -77.0435185, "bike_id": "3e49ac26f98dd51682172672baff0c4d", "type": "electric_scooter", "name": "3e49ac26f98dd51682172672baff0c4d"}, {"is_disabled": 0, "is_reserved": 0, "fusion_lat": 0.0, "lat": 38.93870316666667, "fusion_lon": 0.0, "rental_uris": {"ios": "https://dc.lft.to/lastmile_qr_scan", "android": "https://dc.lft.to/lastmile_qr_scan"}, "lon": -77.078126, "bike_id": "2daf430c12ca06f4b3ff46a839f7fb3b", "type": "electric_scooter", "name": "2daf430c12ca06f4b3ff46a839f7fb3b"}, {"is_disabled": 0, "is_reserved": 0, "fusion_lat": 0.0, "lat": 38.9250465, "fusion_lon": 0.0, "rental_uris": {"ios": "https://dc.lft.to/lastmile_qr_scan", "android": "https://dc.lft.to/lastmile_qr_scan"}, "lon": -77.02275833333333, "bike_id": "b52208a831047408fab6897286ba28f1", "type": "electric_scooter", "name": "b52208a831047408fab6897286ba28f1"}, {"is_disabled": 0, "is_reserved": 0, "fusion_lat": 0.0, "lat": 38.943127833333335, "fusion_lon": 0.0, "rental_uris": {"ios": "https://dc.lft.to/lastmile_qr_scan", "android": "https://dc.lft.to/lastmile_qr_scan"}, "lon": -77.07723016666667, "bike_id": "b232c0de6f8ff422a9a3ff2e9715b70a", "type": "electric_scooter", "name": "b232c0de6f8ff422a9a3ff2e9715b70a"}, {"is_disabled": 0, "is_reserved": 0, "fusion_lat": 0.0, "lat": 38.90063116666666, "fusion_lon": 0.0, "rental_uris": {"ios": "https://dc.lft.to/lastmile_qr_scan", "android": "https://dc.lft.to/lastmile_qr_scan"}, "lon": -77.04339266666666, "bike_id": "7916b43e5bf2ba84fc36f7c8651ce6db", "type": "electric_scooter", "name": "7916b43e5bf2ba84fc36f7c8651ce6db"}, {"is_disabled": 0, "is_reserved": 0, "fusion_lat": 0.0, "lat": 38.914140833333335, "fusion_lon": 0.0, "rental_uris": {"ios": "https://dc.lft.to/lastmile_qr_scan", "android": "https://dc.lft.to/lastmile_qr_scan"}, "lon": -77.03165683333333, "bike_id": "8615ec9453287354e425fcc0df1a4dbf", "type": "electric_scooter", "name": "8615ec9453287354e425fcc0df1a4dbf"}, {"is_disabled": 0, "is_reserved": 0, "fusion_lat": 0.0, "lat": 38.92571316666667, "fusion_lon": 0.0, "rental_uris": {"ios": "https://dc.lft.to/lastmile_qr_scan", "android": "https://dc.lft.to/lastmile_qr_scan"}, "lon": -76.99487616666667, "bike_id": "b2fbd5efd5e740190d7c5c148f77bc50", "type": "electric_scooter", "name": "b2fbd5efd5e740190d7c5c148f77bc50"}, {"is_disabled": 0, "is_reserved": 0, "fusion_lat": 0.0, "lat": 38.9306365, "fusion_lon": 0.0, "rental_uris": {"ios": "https://dc.lft.to/lastmile_qr_scan", "android": "https://dc.lft.to/lastmile_qr_scan"}, "lon": -77.03815166666666, "bike_id": "1e1b529e531c1f7adb90e3b03261e1ea", "type": "electric_scooter", "name": "1e1b529e531c1f7adb90e3b03261e1ea"}, {"is_disabled": 0, "is_reserved": 0, "fusion_lat": 0.0, "lat": 38.917671166666665, "fusion_lon": 0.0, "rental_uris": {"ios": "https://dc.lft.to/lastmile_qr_scan", "android": "https://dc.lft.to/lastmile_qr_scan"}, "lon": -77.02704566666667, "bike_id": "a67121da7481cc1192696c01b8031822", "type": "electric_scooter", "name": "a67121da7481cc1192696c01b8031822"}, {"is_disabled": 0, "is_reserved": 0, "fusion_lat": 0.0, "lat": 38.9420305, "fusion_lon": 0.0, "rental_uris": {"ios": "https://dc.lft.to/lastmile_qr_scan", "android": "https://dc.lft.to/lastmile_qr_scan"}, "lon": -77.01338216666667, "bike_id": "b0f19be384bfe487958a74cfc9fc87bc", "type": "electric_scooter", "name": "b0f19be384bfe487958a74cfc9fc87bc"}, {"is_disabled": 0, "is_reserved": 0, "fusion_lat": 0.0, "lat": 38.92703316666667, "fusion_lon": 0.0, "rental_uris": {"ios": "https://dc.lft.to/lastmile_qr_scan", "android": "https://dc.lft.to/lastmile_qr_scan"}, "lon": -76.960773, "bike_id": "c690cb7f26ed56f210b63dd357dbe5bf", "type": "electric_scooter", "name": "c690cb7f26ed56f210b63dd357dbe5bf"}, {"is_disabled": 0, "is_reserved": 0, "fusion_lat": 0.0, "lat": 38.89776833333333, "fusion_lon": 0.0, "rental_uris": {"ios": "https://dc.lft.to/lastmile_qr_scan", "android": "https://dc.lft.to/lastmile_qr_scan"}, "lon": -77.050225, "bike_id": "0e89d891ce484527153e05af24dda0ba", "type": "electric_scooter", "name": "0e89d891ce484527153e05af24dda0ba"}, {"is_disabled": 0, "is_reserved": 0, "fusion_lat": 0.0, "lat": 38.87268016666667, "fusion_lon": 0.0, "rental_uris": {"ios": "https://dc.lft.to/lastmile_qr_scan", "android": "https://dc.lft.to/lastmile_qr_scan"}, "lon": -77.01690516666666, "bike_id": "0046926ec3a1d85dba82406d5fcd14b3", "type": "electric_scooter", "name": "0046926ec3a1d85dba82406d5fcd14b3"}, {"is_disabled": 0, "is_reserved": 0, "fusion_lat": 0.0, "lat": 38.893688833333336, "fusion_lon": 0.0, "rental_uris": {"ios": "https://dc.lft.to/lastmile_qr_scan", "android": "https://dc.lft.to/lastmile_qr_scan"}, "lon": -77.01150833333334, "bike_id": "a7fdc027a1e19d7a2669958cf14cac59", "type": "electric_scooter", "name": "a7fdc027a1e19d7a2669958cf14cac59"}, {"is_disabled": 0, "is_reserved": 0, "fusion_lat": 0.0, "lat": 38.88108966666667, "fusion_lon": 0.0, "rental_uris": {"ios": "https://dc.lft.to/lastmile_qr_scan", "android": "https://dc.lft.to/lastmile_qr_scan"}, "lon": -77.026411, "bike_id": "184806e0741d389befdaf33d04aa3d95", "type": "electric_scooter", "name": "184806e0741d389befdaf33d04aa3d95"}, {"is_disabled": 0, "is_reserved": 0, "fusion_lat": 0.0, "lat": 38.924992833333334, "fusion_lon": 0.0, "rental_uris": {"ios": "https://dc.lft.to/lastmile_qr_scan", "android": "https://dc.lft.to/lastmile_qr_scan"}, "lon": -77.04331183333333, "bike_id": "df64555ae10c353883d61e5f1c660baa", "type": "electric_scooter", "name": "df64555ae10c353883d61e5f1c660baa"}, {"is_disabled": 0, "is_reserved": 0, "fusion_lat": 0.0, "lat": 38.9014635, "fusion_lon": 0.0, "rental_uris": {"ios": "https://dc.lft.to/lastmile_qr_scan", "android": "https://dc.lft.to/lastmile_qr_scan"}, "lon": -77.03636316666666, "bike_id": "6389b87198d948be1ab7990ed9986050", "type": "electric_scooter", "name": "6389b87198d948be1ab7990ed9986050"}, {"is_disabled": 0, "is_reserved": 0, "fusion_lat": 0.0, "lat": 38.930050333333334, "fusion_lon": 0.0, "rental_uris": {"ios": "https://dc.lft.to/lastmile_qr_scan", "android": "https://dc.lft.to/lastmile_qr_scan"}, "lon": -77.0211175, "bike_id": "221c03fe33007eb9bde2ed8ff4b2c99f", "type": "electric_scooter", "name": "221c03fe33007eb9bde2ed8ff4b2c99f"}, {"is_disabled": 0, "is_reserved": 0, "fusion_lat": 0.0, "lat": 38.899376833333335, "fusion_lon": 0.0, "rental_uris": {"ios": "https://dc.lft.to/lastmile_qr_scan", "android": "https://dc.lft.to/lastmile_qr_scan"}, "lon": -76.937691, "bike_id": "7788eec451be96ea1a00bcf79175c3f1", "type": "electric_scooter", "name": "7788eec451be96ea1a00bcf79175c3f1"}, {"is_disabled": 0, "is_reserved": 0, "fusion_lat": 0.0, "lat": 38.880083666666664, "fusion_lon": 0.0, "rental_uris": {"ios": "https://dc.lft.to/lastmile_qr_scan", "android": "https://dc.lft.to/lastmile_qr_scan"}, "lon": -76.99833933333333, "bike_id": "bc1bee43103dc4c5daaaa91d36706743", "type": "electric_scooter", "name": "bc1bee43103dc4c5daaaa91d36706743"}, {"is_disabled": 0, "is_reserved": 0, "fusion_lat": 0.0, "lat": 38.901783333333334, "fusion_lon": 0.0, "rental_uris": {"ios": "https://dc.lft.to/lastmile_qr_scan", "android": "https://dc.lft.to/lastmile_qr_scan"}, "lon": -77.00204966666666, "bike_id": "d919861babb0800c68e08765a7bb4c4c", "type": "electric_scooter", "name": "d919861babb0800c68e08765a7bb4c4c"}, {"is_disabled": 0, "is_reserved": 0, "fusion_lat": 0.0, "lat": 39.03477216666667, "fusion_lon": 0.0, "rental_uris": {"ios": "https://dc.lft.to/lastmile_qr_scan", "android": "https://dc.lft.to/lastmile_qr_scan"}, "lon": -77.04104383333333, "bike_id": "181672a2634bc9803a321fdcae805f34", "type": "electric_bike", "name": "181672a2634bc9803a321fdcae805f34"}, {"is_disabled": 0, "is_reserved": 0, "fusion_lat": 0.0, "lat": 38.90182983333333, "fusion_lon": 0.0, "rental_uris": {"ios": "https://dc.lft.to/lastmile_qr_scan", "android": "https://dc.lft.to/lastmile_qr_scan"}, "lon": -76.97669933333333, "bike_id": "b7c24e11ce2e0c40bb1b843ce2db4f97", "type": "electric_scooter", "name": "b7c24e11ce2e0c40bb1b843ce2db4f97"}, {"is_disabled": 0, "is_reserved": 0, "fusion_lat": 0.0, "lat": 38.910398666666666, "fusion_lon": 0.0, "rental_uris": {"ios": "https://dc.lft.to/lastmile_qr_scan", "android": "https://dc.lft.to/lastmile_qr_scan"}, "lon": -76.93834866666667, "bike_id": "6c1d615c8b280418114010df43f48de8", "type": "electric_scooter", "name": "6c1d615c8b280418114010df43f48de8"}, {"is_disabled": 0, "is_reserved": 0, "fusion_lat": 0.0, "lat": 38.899066, "fusion_lon": 0.0, "rental_uris": {"ios": "https://dc.lft.to/lastmile_qr_scan", "android": "https://dc.lft.to/lastmile_qr_scan"}, "lon": -76.9803195, "bike_id": "d9f8720efbf7a5ab083a431116b0aa08", "type": "electric_scooter", "name": "d9f8720efbf7a5ab083a431116b0aa08"}, {"is_disabled": 0, "is_reserved": 0, "fusion_lat": 0.0, "lat": 38.91607366666667, "fusion_lon": 0.0, "rental_uris": {"ios": "https://dc.lft.to/lastmile_qr_scan", "android": "https://dc.lft.to/lastmile_qr_scan"}, "lon": -77.02099383333334, "bike_id": "7d2b7f48b372bd80495804c891af177a", "type": "electric_scooter", "name": "7d2b7f48b372bd80495804c891af177a"}, {"is_disabled": 0, "is_reserved": 0, "fusion_lat": 0.0, "lat": 38.876971166666664, "fusion_lon": 0.0, "rental_uris": {"ios": "https://dc.lft.to/lastmile_qr_scan", "android": "https://dc.lft.to/lastmile_qr_scan"}, "lon": -77.00732433333333, "bike_id": "0e4b9bbd8d59f1152d4d82bbbb3aca1c", "type": "electric_scooter", "name": "0e4b9bbd8d59f1152d4d82bbbb3aca1c"}, {"is_disabled": 0, "is_reserved": 0, "fusion_lat": 0.0, "lat": 38.92239716666667, "fusion_lon": 0.0, "rental_uris": {"ios": "https://dc.lft.to/lastmile_qr_scan", "android": "https://dc.lft.to/lastmile_qr_scan"}, "lon": -77.04631916666666, "bike_id": "eecbd8303a06586f9c0838a426fe7465", "type": "electric_scooter", "name": "eecbd8303a06586f9c0838a426fe7465"}, {"is_disabled": 0, "is_reserved": 0, "fusion_lat": 0.0, "lat": 38.880691166666665, "fusion_lon": 0.0, "rental_uris": {"ios": "https://dc.lft.to/lastmile_qr_scan", "android": "https://dc.lft.to/lastmile_qr_scan"}, "lon": -77.0259145, "bike_id": "380d0ddc56611b2db09e86ac66504080", "type": "electric_scooter", "name": "380d0ddc56611b2db09e86ac66504080"}, {"is_disabled": 0, "is_reserved": 0, "fusion_lat": 0.0, "lat": 38.91550616666667, "fusion_lon": 0.0, "rental_uris": {"ios": "https://dc.lft.to/lastmile_qr_scan", "android": "https://dc.lft.to/lastmile_qr_scan"}, "lon": -77.0213905, "bike_id": "ade9a999a8c6253ddedfb634f6f5987d", "type": "electric_scooter", "name": "ade9a999a8c6253ddedfb634f6f5987d"}, {"is_disabled": 0, "is_reserved": 0, "fusion_lat": 0.0, "lat": 38.87578766666667, "fusion_lon": 0.0, "rental_uris": {"ios": "https://dc.lft.to/lastmile_qr_scan", "android": "https://dc.lft.to/lastmile_qr_scan"}, "lon": -77.23406616666666, "bike_id": "d9975ff40a6557c5de4a7d2d7a6e09d2", "type": "electric_bike", "name": "d9975ff40a6557c5de4a7d2d7a6e09d2"}, {"is_disabled": 0, "is_reserved": 0, "fusion_lat": 0.0, "lat": 38.91681883333333, "fusion_lon": 0.0, "rental_uris": {"ios": "https://dc.lft.to/lastmile_qr_scan", "android": "https://dc.lft.to/lastmile_qr_scan"}, "lon": -77.025546, "bike_id": "77f38658e4026db4000d4fb80d180988", "type": "electric_scooter", "name": "77f38658e4026db4000d4fb80d180988"}, {"is_disabled": 0, "is_reserved": 0, "fusion_lat": 0.0, "lat": 38.880396166666664, "fusion_lon": 0.0, "rental_uris": {"ios": "https://dc.lft.to/lastmile_qr_scan", "android": "https://dc.lft.to/lastmile_qr_scan"}, "lon": -76.92723116666667, "bike_id": "3111c3a1575dfcbbfeb36b5e6c611322", "type": "electric_scooter", "name": "3111c3a1575dfcbbfeb36b5e6c611322"}, {"is_disabled": 0, "is_reserved": 0, "fusion_lat": 0.0, "lat": 38.93189133333333, "fusion_lon": 0.0, "rental_uris": {"ios": "https://dc.lft.to/lastmile_qr_scan", "android": "https://dc.lft.to/lastmile_qr_scan"}, "lon": -77.032654, "bike_id": "0d1c5d2fc0d8a7dcdb8751356fca7791", "type": "electric_scooter", "name": "0d1c5d2fc0d8a7dcdb8751356fca7791"}, {"is_disabled": 0, "is_reserved": 0, "fusion_lat": 0.0, "lat": 38.870707833333334, "fusion_lon": 0.0, "rental_uris": {"ios": "https://dc.lft.to/lastmile_qr_scan", "android": "https://dc.lft.to/lastmile_qr_scan"}, "lon": -76.9812945, "bike_id": "8864ec85a912fb42064677f6ac27fb22", "type": "electric_scooter", "name": "8864ec85a912fb42064677f6ac27fb22"}, {"is_disabled": 0, "is_reserved": 0, "fusion_lat": 0.0, "lat": 38.881669, "fusion_lon": 0.0, "rental_uris": {"ios": "https://dc.lft.to/lastmile_qr_scan", "android": "https://dc.lft.to/lastmile_qr_scan"}, "lon": -77.0276405, "bike_id": "ba352b004ea369d135a6c9121433df21", "type": "electric_scooter", "name": "ba352b004ea369d135a6c9121433df21"}, {"is_disabled": 0, "is_reserved": 0, "fusion_lat": 0.0, "lat": 38.905236333333335, "fusion_lon": 0.0, "rental_uris": {"ios": "https://dc.lft.to/lastmile_qr_scan", "android": "https://dc.lft.to/lastmile_qr_scan"}, "lon": -77.00123683333334, "bike_id": "3608dced28fff4b01dbb16bea7d24f68", "type": "electric_scooter", "name": "3608dced28fff4b01dbb16bea7d24f68"}, {"is_disabled": 0, "is_reserved": 0, "fusion_lat": 0.0, "lat": 38.87568266666667, "fusion_lon": 0.0, "rental_uris": {"ios": "https://dc.lft.to/lastmile_qr_scan", "android": "https://dc.lft.to/lastmile_qr_scan"}, "lon": -77.00592866666666, "bike_id": "debc7608d8551c87f965c539a80e2499", "type": "electric_scooter", "name": "debc7608d8551c87f965c539a80e2499"}, {"is_disabled": 0, "is_reserved": 0, "fusion_lat": 0.0, "lat": 38.8949925, "fusion_lon": 0.0, "rental_uris": {"ios": "https://dc.lft.to/lastmile_qr_scan", "android": "https://dc.lft.to/lastmile_qr_scan"}, "lon": -77.0229095, "bike_id": "e1db2c4513b73d6bcf8d2000a1378424", "type": "electric_scooter", "name": "e1db2c4513b73d6bcf8d2000a1378424"}, {"is_disabled": 0, "is_reserved": 0, "fusion_lat": 0.0, "lat": 38.92986533333333, "fusion_lon": 0.0, "rental_uris": {"ios": "https://dc.lft.to/lastmile_qr_scan", "android": "https://dc.lft.to/lastmile_qr_scan"}, "lon": -77.03471833333333, "bike_id": "90c54789fb53e3870ccd6801742db0e3", "type": "electric_scooter", "name": "90c54789fb53e3870ccd6801742db0e3"}, {"is_disabled": 0, "is_reserved": 0, "fusion_lat": 0.0, "lat": 38.8925055, "fusion_lon": 0.0, "rental_uris": {"ios": "https://dc.lft.to/lastmile_qr_scan", "android": "https://dc.lft.to/lastmile_qr_scan"}, "lon": -77.04659733333334, "bike_id": "5fb1d0ea2589bed43bd1d1f3f3dd9125", "type": "electric_scooter", "name": "5fb1d0ea2589bed43bd1d1f3f3dd9125"}, {"is_disabled": 0, "is_reserved": 0, "fusion_lat": 0.0, "lat": 38.846008, "fusion_lon": 0.0, "rental_uris": {"ios": "https://dc.lft.to/lastmile_qr_scan", "android": "https://dc.lft.to/lastmile_qr_scan"}, "lon": -76.97414783333333, "bike_id": "559192c15fcd197fab15f40a3527a3d8", "type": "electric_scooter", "name": "559192c15fcd197fab15f40a3527a3d8"}, {"is_disabled": 0, "is_reserved": 0, "fusion_lat": 0.0, "lat": 38.9222205, "fusion_lon": 0.0, "rental_uris": {"ios": "https://dc.lft.to/lastmile_qr_scan", "android": "https://dc.lft.to/lastmile_qr_scan"}, "lon": -77.04331266666667, "bike_id": "24feb06d364d4c90221ee89a3608f639", "type": "electric_scooter", "name": "24feb06d364d4c90221ee89a3608f639"}, {"is_disabled": 0, "is_reserved": 0, "fusion_lat": 0.0, "lat": 38.89959916666667, "fusion_lon": 0.0, "rental_uris": {"ios": "https://dc.lft.to/lastmile_qr_scan", "android": "https://dc.lft.to/lastmile_qr_scan"}, "lon": -77.04760283333333, "bike_id": "829a0b173278e997c59416a1682e7b80", "type": "electric_scooter", "name": "829a0b173278e997c59416a1682e7b80"}, {"is_disabled": 0, "is_reserved": 0, "fusion_lat": 0.0, "lat": 38.920151833333335, "fusion_lon": 0.0, "rental_uris": {"ios": "https://dc.lft.to/lastmile_qr_scan", "android": "https://dc.lft.to/lastmile_qr_scan"}, "lon": -77.0312185, "bike_id": "4c2d8a06fed7c4326f47443667eec9f9", "type": "electric_scooter", "name": "4c2d8a06fed7c4326f47443667eec9f9"}, {"is_disabled": 0, "is_reserved": 0, "fusion_lat": 0.0, "lat": 38.898374, "fusion_lon": 0.0, "rental_uris": {"ios": "https://dc.lft.to/lastmile_qr_scan", "android": "https://dc.lft.to/lastmile_qr_scan"}, "lon": -76.99028483333333, "bike_id": "2893b8a9e20267be23060d0a560d5511", "type": "electric_scooter", "name": "2893b8a9e20267be23060d0a560d5511"}, {"is_disabled": 0, "is_reserved": 0, "fusion_lat": 0.0, "lat": 38.928888, "fusion_lon": 0.0, "rental_uris": {"ios": "https://dc.lft.to/lastmile_qr_scan", "android": "https://dc.lft.to/lastmile_qr_scan"}, "lon": -77.01939716666666, "bike_id": "d3ffd80329e6203a2cb05b15c42a5365", "type": "electric_scooter", "name": "d3ffd80329e6203a2cb05b15c42a5365"}, {"is_disabled": 0, "is_reserved": 0, "fusion_lat": 0.0, "lat": 38.92088733333333, "fusion_lon": 0.0, "rental_uris": {"ios": "https://dc.lft.to/lastmile_qr_scan", "android": "https://dc.lft.to/lastmile_qr_scan"}, "lon": -77.02512816666666, "bike_id": "2f5dbe326c8c0521a64777189a3e5af3", "type": "electric_scooter", "name": "2f5dbe326c8c0521a64777189a3e5af3"}, {"is_disabled": 0, "is_reserved": 0, "fusion_lat": 0.0, "lat": 38.96434433333334, "fusion_lon": 0.0, "rental_uris": {"ios": "https://dc.lft.to/lastmile_qr_scan", "android": "https://dc.lft.to/lastmile_qr_scan"}, "lon": -77.03185, "bike_id": "f3c0702aaa63820ee3acb1585c99e46b", "type": "electric_bike", "name": "f3c0702aaa63820ee3acb1585c99e46b"}, {"is_disabled": 0, "is_reserved": 0, "fusion_lat": 0.0, "lat": 38.916922, "fusion_lon": 0.0, "rental_uris": {"ios": "https://dc.lft.to/lastmile_qr_scan", "android": "https://dc.lft.to/lastmile_qr_scan"}, "lon": -77.0285615, "bike_id": "ecaab167dd87a53ffca412c7e2370a4f", "type": "electric_scooter", "name": "ecaab167dd87a53ffca412c7e2370a4f"}, {"is_disabled": 0, "is_reserved": 0, "fusion_lat": 0.0, "lat": 38.89524083333333, "fusion_lon": 0.0, "rental_uris": {"ios": "https://dc.lft.to/lastmile_qr_scan", "android": "https://dc.lft.to/lastmile_qr_scan"}, "lon": -77.02428516666667, "bike_id": "fc961329951a2ce983aa0c7d1e82cc51", "type": "electric_scooter", "name": "fc961329951a2ce983aa0c7d1e82cc51"}, {"is_disabled": 0, "is_reserved": 0, "fusion_lat": 0.0, "lat": 38.8949515, "fusion_lon": 0.0, "rental_uris": {"ios": "https://dc.lft.to/lastmile_qr_scan", "android": "https://dc.lft.to/lastmile_qr_scan"}, "lon": -77.023058, "bike_id": "a4687cb7ca074b1349544358b2c1f077", "type": "electric_scooter", "name": "a4687cb7ca074b1349544358b2c1f077"}, {"is_disabled": 0, "is_reserved": 0, "fusion_lat": 0.0, "lat": 38.92828033333333, "fusion_lon": 0.0, "rental_uris": {"ios": "https://dc.lft.to/lastmile_qr_scan", "android": "https://dc.lft.to/lastmile_qr_scan"}, "lon": -77.03714666666667, "bike_id": "11be86776bb5c84a911fbb40fc893390", "type": "electric_scooter", "name": "11be86776bb5c84a911fbb40fc893390"}, {"is_disabled": 0, "is_reserved": 0, "fusion_lat": 0.0, "lat": 38.93664533333333, "fusion_lon": 0.0, "rental_uris": {"ios": "https://dc.lft.to/lastmile_qr_scan", "android": "https://dc.lft.to/lastmile_qr_scan"}, "lon": -77.06605283333333, "bike_id": "9b19b264c96926c553a8a06bac43e7b3", "type": "electric_scooter", "name": "9b19b264c96926c553a8a06bac43e7b3"}, {"is_disabled": 0, "is_reserved": 0, "fusion_lat": 0.0, "lat": 38.911169, "fusion_lon": 0.0, "rental_uris": {"ios": "https://dc.lft.to/lastmile_qr_scan", "android": "https://dc.lft.to/lastmile_qr_scan"}, "lon": -77.03128233333334, "bike_id": "66cfa76926d41a04bbf65fff90536c75", "type": "electric_scooter", "name": "66cfa76926d41a04bbf65fff90536c75"}, {"is_disabled": 0, "is_reserved": 0, "fusion_lat": 0.0, "lat": 38.922125, "fusion_lon": 0.0, "rental_uris": {"ios": "https://dc.lft.to/lastmile_qr_scan", "android": "https://dc.lft.to/lastmile_qr_scan"}, "lon": -77.04312883333333, "bike_id": "5069a53fec864c5b58971d8580fad719", "type": "electric_scooter", "name": "5069a53fec864c5b58971d8580fad719"}, {"is_disabled": 0, "is_reserved": 0, "fusion_lat": 0.0, "lat": 38.8983195, "fusion_lon": 0.0, "rental_uris": {"ios": "https://dc.lft.to/lastmile_qr_scan", "android": "https://dc.lft.to/lastmile_qr_scan"}, "lon": -76.990174, "bike_id": "f1a111c61725ec15671e65195549dfe2", "type": "electric_scooter", "name": "f1a111c61725ec15671e65195549dfe2"}, {"is_disabled": 0, "is_reserved": 0, "fusion_lat": 0.0, "lat": 38.91415716666667, "fusion_lon": 0.0, "rental_uris": {"ios": "https://dc.lft.to/lastmile_qr_scan", "android": "https://dc.lft.to/lastmile_qr_scan"}, "lon": -77.033269, "bike_id": "25ab1ec3fa107a91ac8d68a418d97a89", "type": "electric_scooter", "name": "25ab1ec3fa107a91ac8d68a418d97a89"}, {"is_disabled": 0, "is_reserved": 0, "fusion_lat": 0.0, "lat": 38.921223166666664, "fusion_lon": 0.0, "rental_uris": {"ios": "https://dc.lft.to/lastmile_qr_scan", "android": "https://dc.lft.to/lastmile_qr_scan"}, "lon": -77.01206716666667, "bike_id": "c8446cc74d61dba527a2acf61b0fbad8", "type": "electric_scooter", "name": "c8446cc74d61dba527a2acf61b0fbad8"}, {"is_disabled": 0, "is_reserved": 0, "fusion_lat": 0.0, "lat": 38.904546, "fusion_lon": 0.0, "rental_uris": {"ios": "https://dc.lft.to/lastmile_qr_scan", "android": "https://dc.lft.to/lastmile_qr_scan"}, "lon": -76.93274266666667, "bike_id": "c0a0dbbb5a14c4d685dc332bec78f0aa", "type": "electric_scooter", "name": "c0a0dbbb5a14c4d685dc332bec78f0aa"}, {"is_disabled": 0, "is_reserved": 0, "fusion_lat": 0.0, "lat": 38.905591, "fusion_lon": 0.0, "rental_uris": {"ios": "https://dc.lft.to/lastmile_qr_scan", "android": "https://dc.lft.to/lastmile_qr_scan"}, "lon": -77.0347025, "bike_id": "cedc8fc69ebfe4c5038ac9642d8a644f", "type": "electric_scooter", "name": "cedc8fc69ebfe4c5038ac9642d8a644f"}, {"is_disabled": 0, "is_reserved": 0, "fusion_lat": 0.0, "lat": 38.91550683333333, "fusion_lon": 0.0, "rental_uris": {"ios": "https://dc.lft.to/lastmile_qr_scan", "android": "https://dc.lft.to/lastmile_qr_scan"}, "lon": -77.01237066666667, "bike_id": "e41487962235f7f6d9ba4de10705a06d", "type": "electric_scooter", "name": "e41487962235f7f6d9ba4de10705a06d"}, {"is_disabled": 0, "is_reserved": 0, "fusion_lat": 0.0, "lat": 38.90715816666667, "fusion_lon": 0.0, "rental_uris": {"ios": "https://dc.lft.to/lastmile_qr_scan", "android": "https://dc.lft.to/lastmile_qr_scan"}, "lon": -77.0320855, "bike_id": "09d88bd77b70d12b107cf38263227888", "type": "electric_scooter", "name": "09d88bd77b70d12b107cf38263227888"}, {"is_disabled": 0, "is_reserved": 0, "fusion_lat": 0.0, "lat": 38.911098, "fusion_lon": 0.0, "rental_uris": {"ios": "https://dc.lft.to/lastmile_qr_scan", "android": "https://dc.lft.to/lastmile_qr_scan"}, "lon": -77.02796516666666, "bike_id": "224e6a0a8ec5b32698aa0a44b9427d57", "type": "electric_bike", "name": "224e6a0a8ec5b32698aa0a44b9427d57"}, {"is_disabled": 0, "is_reserved": 0, "fusion_lat": 0.0, "lat": 38.897313, "fusion_lon": 0.0, "rental_uris": {"ios": "https://dc.lft.to/lastmile_qr_scan", "android": "https://dc.lft.to/lastmile_qr_scan"}, "lon": -77.0198575, "bike_id": "48014dd0ab678ee420cac030e419ce36", "type": "electric_scooter", "name": "48014dd0ab678ee420cac030e419ce36"}, {"is_disabled": 0, "is_reserved": 0, "fusion_lat": 0.0, "lat": 38.908083500000004, "fusion_lon": 0.0, "rental_uris": {"ios": "https://dc.lft.to/lastmile_qr_scan", "android": "https://dc.lft.to/lastmile_qr_scan"}, "lon": -77.042672, "bike_id": "2e37876ec0964d570708c9aa1acaf15f", "type": "electric_scooter", "name": "2e37876ec0964d570708c9aa1acaf15f"}, {"is_disabled": 0, "is_reserved": 0, "fusion_lat": 0.0, "lat": 38.928131, "fusion_lon": 0.0, "rental_uris": {"ios": "https://dc.lft.to/lastmile_qr_scan", "android": "https://dc.lft.to/lastmile_qr_scan"}, "lon": -76.976147, "bike_id": "9d7d1428698ee84c1ff54de848c06916", "type": "electric_scooter", "name": "9d7d1428698ee84c1ff54de848c06916"}, {"is_disabled": 0, "is_reserved": 0, "fusion_lat": 0.0, "lat": 38.82213316666667, "fusion_lon": 0.0, "rental_uris": {"ios": "https://dc.lft.to/lastmile_qr_scan", "android": "https://dc.lft.to/lastmile_qr_scan"}, "lon": -76.97695433333334, "bike_id": "0c505daa201c87520dbc8e6308603443", "type": "electric_bike", "name": "0c505daa201c87520dbc8e6308603443"}, {"is_disabled": 0, "is_reserved": 0, "fusion_lat": 0.0, "lat": 38.9023615, "fusion_lon": 0.0, "rental_uris": {"ios": "https://dc.lft.to/lastmile_qr_scan", "android": "https://dc.lft.to/lastmile_qr_scan"}, "lon": -77.00063066666667, "bike_id": "2ee3dc0338ca12469940628f5cad362a", "type": "electric_scooter", "name": "2ee3dc0338ca12469940628f5cad362a"}, {"is_disabled": 0, "is_reserved": 0, "fusion_lat": 0.0, "lat": 38.876538, "fusion_lon": 0.0, "rental_uris": {"ios": "https://dc.lft.to/lastmile_qr_scan", "android": "https://dc.lft.to/lastmile_qr_scan"}, "lon": -77.00736583333334, "bike_id": "f9b1aeaea590d915bc442e95dbccd2e5", "type": "electric_bike", "name": "f9b1aeaea590d915bc442e95dbccd2e5"}, {"is_disabled": 0, "is_reserved": 0, "fusion_lat": 0.0, "lat": 38.917052166666664, "fusion_lon": 0.0, "rental_uris": {"ios": "https://dc.lft.to/lastmile_qr_scan", "android": "https://dc.lft.to/lastmile_qr_scan"}, "lon": -77.03850733333333, "bike_id": "365ea357928db4cba9ffee603577010c", "type": "electric_scooter", "name": "365ea357928db4cba9ffee603577010c"}, {"is_disabled": 0, "is_reserved": 0, "fusion_lat": 0.0, "lat": 38.93696816666667, "fusion_lon": 0.0, "rental_uris": {"ios": "https://dc.lft.to/lastmile_qr_scan", "android": "https://dc.lft.to/lastmile_qr_scan"}, "lon": -77.05595316666667, "bike_id": "744489b6b5c1fc87234e506409792de4", "type": "electric_scooter", "name": "744489b6b5c1fc87234e506409792de4"}, {"is_disabled": 0, "is_reserved": 0, "fusion_lat": 0.0, "lat": 38.95308166666667, "fusion_lon": 0.0, "rental_uris": {"ios": "https://dc.lft.to/lastmile_qr_scan", "android": "https://dc.lft.to/lastmile_qr_scan"}, "lon": -77.0202795, "bike_id": "3089b5e4c38beb6f1910bc69b9f7517b", "type": "electric_scooter", "name": "3089b5e4c38beb6f1910bc69b9f7517b"}, {"is_disabled": 0, "is_reserved": 0, "fusion_lat": 0.0, "lat": 38.9008, "fusion_lon": 0.0, "rental_uris": {"ios": "https://dc.lft.to/lastmile_qr_scan", "android": "https://dc.lft.to/lastmile_qr_scan"}, "lon": -77.04465333333333, "bike_id": "59403991331c80daf65f8b732ac90bc1", "type": "electric_scooter", "name": "59403991331c80daf65f8b732ac90bc1"}, {"is_disabled": 0, "is_reserved": 0, "fusion_lat": 0.0, "lat": 38.915643, "fusion_lon": 0.0, "rental_uris": {"ios": "https://dc.lft.to/lastmile_qr_scan", "android": "https://dc.lft.to/lastmile_qr_scan"}, "lon": -77.02086416666667, "bike_id": "a650a8ec48cc18fc7284dc448454c759", "type": "electric_scooter", "name": "a650a8ec48cc18fc7284dc448454c759"}, {"is_disabled": 0, "is_reserved": 0, "fusion_lat": 0.0, "lat": 38.88582533333334, "fusion_lon": 0.0, "rental_uris": {"ios": "https://dc.lft.to/lastmile_qr_scan", "android": "https://dc.lft.to/lastmile_qr_scan"}, "lon": -77.0122615, "bike_id": "51a1df2bf361bf253b6e5411dd0ad908", "type": "electric_scooter", "name": "51a1df2bf361bf253b6e5411dd0ad908"}, {"is_disabled": 0, "is_reserved": 0, "fusion_lat": 0.0, "lat": 38.90690583333333, "fusion_lon": 0.0, "rental_uris": {"ios": "https://dc.lft.to/lastmile_qr_scan", "android": "https://dc.lft.to/lastmile_qr_scan"}, "lon": -77.06285916666667, "bike_id": "24ed4bf334535d7afb449b2187afefe1", "type": "electric_scooter", "name": "24ed4bf334535d7afb449b2187afefe1"}, {"is_disabled": 0, "is_reserved": 0, "fusion_lat": 0.0, "lat": 38.95361183333333, "fusion_lon": 0.0, "rental_uris": {"ios": "https://dc.lft.to/lastmile_qr_scan", "android": "https://dc.lft.to/lastmile_qr_scan"}, "lon": -76.99850016666667, "bike_id": "7431bfc8d148563a6a4a4c8713f5015f", "type": "electric_scooter", "name": "7431bfc8d148563a6a4a4c8713f5015f"}, {"is_disabled": 0, "is_reserved": 0, "fusion_lat": 0.0, "lat": 38.91744766666667, "fusion_lon": 0.0, "rental_uris": {"ios": "https://dc.lft.to/lastmile_qr_scan", "android": "https://dc.lft.to/lastmile_qr_scan"}, "lon": -77.01080066666667, "bike_id": "129203b1a77072e1bb7c69b69f9a3d56", "type": "electric_scooter", "name": "129203b1a77072e1bb7c69b69f9a3d56"}, {"is_disabled": 0, "is_reserved": 0, "fusion_lat": 0.0, "lat": 38.894995333333334, "fusion_lon": 0.0, "rental_uris": {"ios": "https://dc.lft.to/lastmile_qr_scan", "android": "https://dc.lft.to/lastmile_qr_scan"}, "lon": -76.9740795, "bike_id": "a4366f483d9920a4837270100c549e76", "type": "electric_scooter", "name": "a4366f483d9920a4837270100c549e76"}, {"is_disabled": 0, "is_reserved": 0, "fusion_lat": 0.0, "lat": 38.8358565, "fusion_lon": 0.0, "rental_uris": {"ios": "https://dc.lft.to/lastmile_qr_scan", "android": "https://dc.lft.to/lastmile_qr_scan"}, "lon": -76.99009583333333, "bike_id": "ab8a85f21786872e15b3566b9f6c84be", "type": "electric_bike", "name": "ab8a85f21786872e15b3566b9f6c84be"}, {"is_disabled": 0, "is_reserved": 0, "fusion_lat": 0.0, "lat": 38.850842666666665, "fusion_lon": 0.0, "rental_uris": {"ios": "https://dc.lft.to/lastmile_qr_scan", "android": "https://dc.lft.to/lastmile_qr_scan"}, "lon": -76.98156616666667, "bike_id": "7ffabce1171e55d2255a3d1d41a9b56d", "type": "electric_bike", "name": "7ffabce1171e55d2255a3d1d41a9b56d"}, {"is_disabled": 0, "is_reserved": 0, "fusion_lat": 0.0, "lat": 38.895015666666666, "fusion_lon": 0.0, "rental_uris": {"ios": "https://dc.lft.to/lastmile_qr_scan", "android": "https://dc.lft.to/lastmile_qr_scan"}, "lon": -77.02311216666666, "bike_id": "8737d3031b20bfdee795e4ea8662d5c5", "type": "electric_scooter", "name": "8737d3031b20bfdee795e4ea8662d5c5"}, {"is_disabled": 0, "is_reserved": 0, "fusion_lat": 0.0, "lat": 38.92215733333333, "fusion_lon": 0.0, "rental_uris": {"ios": "https://dc.lft.to/lastmile_qr_scan", "android": "https://dc.lft.to/lastmile_qr_scan"}, "lon": -77.02026133333334, "bike_id": "86c8aaf3c7050bb80b80123164aba9a4", "type": "electric_scooter", "name": "86c8aaf3c7050bb80b80123164aba9a4"}, {"is_disabled": 0, "is_reserved": 0, "fusion_lat": 0.0, "lat": 38.896162, "fusion_lon": 0.0, "rental_uris": {"ios": "https://dc.lft.to/lastmile_qr_scan", "android": "https://dc.lft.to/lastmile_qr_scan"}, "lon": -77.0275505, "bike_id": "e559d3399c04f4969fe832028e2df577", "type": "electric_scooter", "name": "e559d3399c04f4969fe832028e2df577"}, {"is_disabled": 0, "is_reserved": 0, "fusion_lat": 0.0, "lat": 38.90058883333333, "fusion_lon": 0.0, "rental_uris": {"ios": "https://dc.lft.to/lastmile_qr_scan", "android": "https://dc.lft.to/lastmile_qr_scan"}, "lon": -77.031998, "bike_id": "58e11d433e5b929cae70a1715800163f", "type": "electric_scooter", "name": "58e11d433e5b929cae70a1715800163f"}, {"is_disabled": 0, "is_reserved": 0, "fusion_lat": 0.0, "lat": 38.929509333333336, "fusion_lon": 0.0, "rental_uris": {"ios": "https://dc.lft.to/lastmile_qr_scan", "android": "https://dc.lft.to/lastmile_qr_scan"}, "lon": -77.04401983333334, "bike_id": "41ef4aa9ca4f2523da4bb3d5c32dee71", "type": "electric_scooter", "name": "41ef4aa9ca4f2523da4bb3d5c32dee71"}, {"is_disabled": 0, "is_reserved": 0, "fusion_lat": 0.0, "lat": 38.883733166666666, "fusion_lon": 0.0, "rental_uris": {"ios": "https://dc.lft.to/lastmile_qr_scan", "android": "https://dc.lft.to/lastmile_qr_scan"}, "lon": -76.99519583333333, "bike_id": "f78278f3b6faa8619644d463bdbdec23", "type": "electric_scooter", "name": "f78278f3b6faa8619644d463bdbdec23"}, {"is_disabled": 0, "is_reserved": 0, "fusion_lat": 0.0, "lat": 38.930080333333336, "fusion_lon": 0.0, "rental_uris": {"ios": "https://dc.lft.to/lastmile_qr_scan", "android": "https://dc.lft.to/lastmile_qr_scan"}, "lon": -77.03794133333334, "bike_id": "ced831f839c65fbd8f57e44f9ef751d2", "type": "electric_scooter", "name": "ced831f839c65fbd8f57e44f9ef751d2"}, {"is_disabled": 0, "is_reserved": 0, "fusion_lat": 0.0, "lat": 38.9060495, "fusion_lon": 0.0, "rental_uris": {"ios": "https://dc.lft.to/lastmile_qr_scan", "android": "https://dc.lft.to/lastmile_qr_scan"}, "lon": -77.0161225, "bike_id": "89c4cb3b080867c658cbf3980c73822e", "type": "electric_scooter", "name": "89c4cb3b080867c658cbf3980c73822e"}, {"is_disabled": 0, "is_reserved": 0, "fusion_lat": 0.0, "lat": 38.925511166666666, "fusion_lon": 0.0, "rental_uris": {"ios": "https://dc.lft.to/lastmile_qr_scan", "android": "https://dc.lft.to/lastmile_qr_scan"}, "lon": -77.0032245, "bike_id": "530dc92d1805a38e2b0401e00c78a621", "type": "electric_scooter", "name": "530dc92d1805a38e2b0401e00c78a621"}, {"is_disabled": 0, "is_reserved": 0, "fusion_lat": 0.0, "lat": 38.936608, "fusion_lon": 0.0, "rental_uris": {"ios": "https://dc.lft.to/lastmile_qr_scan", "android": "https://dc.lft.to/lastmile_qr_scan"}, "lon": -77.06605316666666, "bike_id": "1062eca33fca854d276716098edbdf36", "type": "electric_scooter", "name": "1062eca33fca854d276716098edbdf36"}, {"is_disabled": 0, "is_reserved": 0, "fusion_lat": 0.0, "lat": 38.909215833333334, "fusion_lon": 0.0, "rental_uris": {"ios": "https://dc.lft.to/lastmile_qr_scan", "android": "https://dc.lft.to/lastmile_qr_scan"}, "lon": -77.04396583333333, "bike_id": "855d1e3a9d9cc27a1705cc5d46445301", "type": "electric_scooter", "name": "855d1e3a9d9cc27a1705cc5d46445301"}, {"is_disabled": 0, "is_reserved": 0, "fusion_lat": 0.0, "lat": 38.87782583333333, "fusion_lon": 0.0, "rental_uris": {"ios": "https://dc.lft.to/lastmile_qr_scan", "android": "https://dc.lft.to/lastmile_qr_scan"}, "lon": -77.00129416666667, "bike_id": "a974a46ca40608022886fac4dd9a3eb9", "type": "electric_scooter", "name": "a974a46ca40608022886fac4dd9a3eb9"}, {"is_disabled": 0, "is_reserved": 0, "fusion_lat": 0.0, "lat": 38.902593833333334, "fusion_lon": 0.0, "rental_uris": {"ios": "https://dc.lft.to/lastmile_qr_scan", "android": "https://dc.lft.to/lastmile_qr_scan"}, "lon": -77.03457783333333, "bike_id": "54cb6365aa58e8eb8208e726c32057d0", "type": "electric_scooter", "name": "54cb6365aa58e8eb8208e726c32057d0"}, {"is_disabled": 0, "is_reserved": 0, "fusion_lat": 0.0, "lat": 38.95433033333333, "fusion_lon": 0.0, "rental_uris": {"ios": "https://dc.lft.to/lastmile_qr_scan", "android": "https://dc.lft.to/lastmile_qr_scan"}, "lon": -77.018518, "bike_id": "1c8392b5053a89c794801fd950851c82", "type": "electric_scooter", "name": "1c8392b5053a89c794801fd950851c82"}, {"is_disabled": 0, "is_reserved": 0, "fusion_lat": 0.0, "lat": 38.88770366666667, "fusion_lon": 0.0, "rental_uris": {"ios": "https://dc.lft.to/lastmile_qr_scan", "android": "https://dc.lft.to/lastmile_qr_scan"}, "lon": -76.93260233333334, "bike_id": "e336559742cc3bcd9ed683c18d5d6644", "type": "electric_scooter", "name": "e336559742cc3bcd9ed683c18d5d6644"}, {"is_disabled": 0, "is_reserved": 0, "fusion_lat": 0.0, "lat": 38.983658, "fusion_lon": 0.0, "rental_uris": {"ios": "https://dc.lft.to/lastmile_qr_scan", "android": "https://dc.lft.to/lastmile_qr_scan"}, "lon": -76.98849616666666, "bike_id": "d216eeb75651e5ff08495119fa8ed98e", "type": "electric_bike", "name": "d216eeb75651e5ff08495119fa8ed98e"}, {"is_disabled": 0, "is_reserved": 0, "fusion_lat": 0.0, "lat": 38.896383666666665, "fusion_lon": 0.0, "rental_uris": {"ios": "https://dc.lft.to/lastmile_qr_scan", "android": "https://dc.lft.to/lastmile_qr_scan"}, "lon": -77.02672133333333, "bike_id": "2f4d15aaa7df25317707c99da2b45381", "type": "electric_scooter", "name": "2f4d15aaa7df25317707c99da2b45381"}, {"is_disabled": 0, "is_reserved": 0, "fusion_lat": 0.0, "lat": 38.910303166666665, "fusion_lon": 0.0, "rental_uris": {"ios": "https://dc.lft.to/lastmile_qr_scan", "android": "https://dc.lft.to/lastmile_qr_scan"}, "lon": -77.04270133333333, "bike_id": "3a39ac2f32d3666c914ad0220c251bff", "type": "electric_scooter", "name": "3a39ac2f32d3666c914ad0220c251bff"}, {"is_disabled": 0, "is_reserved": 0, "fusion_lat": 0.0, "lat": 38.91133266666667, "fusion_lon": 0.0, "rental_uris": {"ios": "https://dc.lft.to/lastmile_qr_scan", "android": "https://dc.lft.to/lastmile_qr_scan"}, "lon": -77.02812416666667, "bike_id": "615caff30f2e6b247b0123e05c719840", "type": "electric_scooter", "name": "615caff30f2e6b247b0123e05c719840"}, {"is_disabled": 0, "is_reserved": 0, "fusion_lat": 0.0, "lat": 38.8843345, "fusion_lon": 0.0, "rental_uris": {"ios": "https://dc.lft.to/lastmile_qr_scan", "android": "https://dc.lft.to/lastmile_qr_scan"}, "lon": -77.03036816666666, "bike_id": "e08a4537eb1efe16abfe98c6fe25d6e9", "type": "electric_scooter", "name": "e08a4537eb1efe16abfe98c6fe25d6e9"}, {"is_disabled": 0, "is_reserved": 0, "fusion_lat": 0.0, "lat": 38.900649666666666, "fusion_lon": 0.0, "rental_uris": {"ios": "https://dc.lft.to/lastmile_qr_scan", "android": "https://dc.lft.to/lastmile_qr_scan"}, "lon": -77.021729, "bike_id": "f26291c611cf364b1d4f0c4a5f11f4cd", "type": "electric_scooter", "name": "f26291c611cf364b1d4f0c4a5f11f4cd"}, {"is_disabled": 0, "is_reserved": 0, "fusion_lat": 0.0, "lat": 38.9183355, "fusion_lon": 0.0, "rental_uris": {"ios": "https://dc.lft.to/lastmile_qr_scan", "android": "https://dc.lft.to/lastmile_qr_scan"}, "lon": -77.04174083333334, "bike_id": "9e18587f1df1df4ddf3d724924e8e544", "type": "electric_scooter", "name": "9e18587f1df1df4ddf3d724924e8e544"}, {"is_disabled": 0, "is_reserved": 0, "fusion_lat": 0.0, "lat": 38.842236, "fusion_lon": 0.0, "rental_uris": {"ios": "https://dc.lft.to/lastmile_qr_scan", "android": "https://dc.lft.to/lastmile_qr_scan"}, "lon": -76.94894566666666, "bike_id": "d5f6545220dd2be5fd2d6cf92161851b", "type": "electric_bike", "name": "d5f6545220dd2be5fd2d6cf92161851b"}, {"is_disabled": 0, "is_reserved": 0, "fusion_lat": 0.0, "lat": 38.900350333333336, "fusion_lon": 0.0, "rental_uris": {"ios": "https://dc.lft.to/lastmile_qr_scan", "android": "https://dc.lft.to/lastmile_qr_scan"}, "lon": -77.05576516666666, "bike_id": "2413eaf6dec456e8c67e796345d33252", "type": "electric_bike", "name": "2413eaf6dec456e8c67e796345d33252"}, {"is_disabled": 0, "is_reserved": 0, "fusion_lat": 0.0, "lat": 38.85245166666667, "fusion_lon": 0.0, "rental_uris": {"ios": "https://dc.lft.to/lastmile_qr_scan", "android": "https://dc.lft.to/lastmile_qr_scan"}, "lon": -77.11408716666666, "bike_id": "ecea80a73f982d01ccd11ee32c339cda", "type": "electric_bike", "name": "ecea80a73f982d01ccd11ee32c339cda"}, {"is_disabled": 0, "is_reserved": 0, "fusion_lat": 0.0, "lat": 38.901451333333334, "fusion_lon": 0.0, "rental_uris": {"ios": "https://dc.lft.to/lastmile_qr_scan", "android": "https://dc.lft.to/lastmile_qr_scan"}, "lon": -76.92982583333334, "bike_id": "6cace7ef8c1c1206d66e57971663152c", "type": "electric_scooter", "name": "6cace7ef8c1c1206d66e57971663152c"}, {"is_disabled": 0, "is_reserved": 0, "fusion_lat": 0.0, "lat": 39.006474, "fusion_lon": 0.0, "rental_uris": {"ios": "https://dc.lft.to/lastmile_qr_scan", "android": "https://dc.lft.to/lastmile_qr_scan"}, "lon": -76.90022083333334, "bike_id": "4e5abaa93935b16e2ee89112a8b73fab", "type": "electric_bike", "name": "4e5abaa93935b16e2ee89112a8b73fab"}, {"is_disabled": 0, "is_reserved": 0, "fusion_lat": 0.0, "lat": 38.91811833333333, "fusion_lon": 0.0, "rental_uris": {"ios": "https://dc.lft.to/lastmile_qr_scan", "android": "https://dc.lft.to/lastmile_qr_scan"}, "lon": -77.03471133333333, "bike_id": "1adc06b5d27ecbf24cd9c3cb18dd4f75", "type": "electric_scooter", "name": "1adc06b5d27ecbf24cd9c3cb18dd4f75"}, {"is_disabled": 0, "is_reserved": 0, "fusion_lat": 0.0, "lat": 38.944173, "fusion_lon": 0.0, "rental_uris": {"ios": "https://dc.lft.to/lastmile_qr_scan", "android": "https://dc.lft.to/lastmile_qr_scan"}, "lon": -77.0774285, "bike_id": "664a4e1c6a825c367d42bffc5105b589", "type": "electric_scooter", "name": "664a4e1c6a825c367d42bffc5105b589"}, {"is_disabled": 0, "is_reserved": 0, "fusion_lat": 0.0, "lat": 38.943314, "fusion_lon": 0.0, "rental_uris": {"ios": "https://dc.lft.to/lastmile_qr_scan", "android": "https://dc.lft.to/lastmile_qr_scan"}, "lon": -77.0155085, "bike_id": "efb52442108501b3306dc6752e0f4dc1", "type": "electric_scooter", "name": "efb52442108501b3306dc6752e0f4dc1"}, {"is_disabled": 0, "is_reserved": 0, "fusion_lat": 0.0, "lat": 38.895156, "fusion_lon": 0.0, "rental_uris": {"ios": "https://dc.lft.to/lastmile_qr_scan", "android": "https://dc.lft.to/lastmile_qr_scan"}, "lon": -77.022868, "bike_id": "3c807c57089a605f0ad95de307f5a4c5", "type": "electric_scooter", "name": "3c807c57089a605f0ad95de307f5a4c5"}, {"is_disabled": 0, "is_reserved": 0, "fusion_lat": 0.0, "lat": 38.923267833333334, "fusion_lon": 0.0, "rental_uris": {"ios": "https://dc.lft.to/lastmile_qr_scan", "android": "https://dc.lft.to/lastmile_qr_scan"}, "lon": -77.0289935, "bike_id": "c8e15a6dcea34d7a436306cdc0637bb8", "type": "electric_scooter", "name": "c8e15a6dcea34d7a436306cdc0637bb8"}, {"is_disabled": 0, "is_reserved": 0, "fusion_lat": 0.0, "lat": 38.92470383333333, "fusion_lon": 0.0, "rental_uris": {"ios": "https://dc.lft.to/lastmile_qr_scan", "android": "https://dc.lft.to/lastmile_qr_scan"}, "lon": -77.02718466666667, "bike_id": "c3009ec5ab543f15407dc1c82842130f", "type": "electric_scooter", "name": "c3009ec5ab543f15407dc1c82842130f"}, {"is_disabled": 0, "is_reserved": 0, "fusion_lat": 0.0, "lat": 38.90535916666666, "fusion_lon": 0.0, "rental_uris": {"ios": "https://dc.lft.to/lastmile_qr_scan", "android": "https://dc.lft.to/lastmile_qr_scan"}, "lon": -76.9882815, "bike_id": "f2662160ad72eb93c5907ebe68111321", "type": "electric_scooter", "name": "f2662160ad72eb93c5907ebe68111321"}, {"is_disabled": 0, "is_reserved": 0, "fusion_lat": 0.0, "lat": 38.95219783333334, "fusion_lon": 0.0, "rental_uris": {"ios": "https://dc.lft.to/lastmile_qr_scan", "android": "https://dc.lft.to/lastmile_qr_scan"}, "lon": -77.08865283333333, "bike_id": "fa29dc3e5e90d6eba9f9cc47eee8e6f2", "type": "electric_scooter", "name": "fa29dc3e5e90d6eba9f9cc47eee8e6f2"}, {"is_disabled": 0, "is_reserved": 0, "fusion_lat": 0.0, "lat": 38.90634566666667, "fusion_lon": 0.0, "rental_uris": {"ios": "https://dc.lft.to/lastmile_qr_scan", "android": "https://dc.lft.to/lastmile_qr_scan"}, "lon": -77.04526083333333, "bike_id": "679d94eca739f839cdcb08a1d020c1a3", "type": "electric_scooter", "name": "679d94eca739f839cdcb08a1d020c1a3"}, {"is_disabled": 0, "is_reserved": 0, "fusion_lat": 0.0, "lat": 38.902489, "fusion_lon": 0.0, "rental_uris": {"ios": "https://dc.lft.to/lastmile_qr_scan", "android": "https://dc.lft.to/lastmile_qr_scan"}, "lon": -77.01821383333333, "bike_id": "ae1463745742b41b59787e05b0ed76c0", "type": "electric_scooter", "name": "ae1463745742b41b59787e05b0ed76c0"}, {"is_disabled": 0, "is_reserved": 0, "fusion_lat": 0.0, "lat": 38.9242285, "fusion_lon": 0.0, "rental_uris": {"ios": "https://dc.lft.to/lastmile_qr_scan", "android": "https://dc.lft.to/lastmile_qr_scan"}, "lon": -77.044793, "bike_id": "56fa6673454dfe40ed49af32aa62f888", "type": "electric_scooter", "name": "56fa6673454dfe40ed49af32aa62f888"}, {"is_disabled": 0, "is_reserved": 0, "fusion_lat": 0.0, "lat": 38.84279433333333, "fusion_lon": 0.0, "rental_uris": {"ios": "https://dc.lft.to/lastmile_qr_scan", "android": "https://dc.lft.to/lastmile_qr_scan"}, "lon": -76.98842583333334, "bike_id": "ff6f3b20077720669d8a1c42ac484832", "type": "electric_scooter", "name": "ff6f3b20077720669d8a1c42ac484832"}, {"is_disabled": 0, "is_reserved": 0, "fusion_lat": 0.0, "lat": 38.88300266666667, "fusion_lon": 0.0, "rental_uris": {"ios": "https://dc.lft.to/lastmile_qr_scan", "android": "https://dc.lft.to/lastmile_qr_scan"}, "lon": -76.93487283333333, "bike_id": "61bf993f344ae8654fd4150f149bba16", "type": "electric_scooter", "name": "61bf993f344ae8654fd4150f149bba16"}, {"is_disabled": 0, "is_reserved": 0, "fusion_lat": 0.0, "lat": 38.924231, "fusion_lon": 0.0, "rental_uris": {"ios": "https://dc.lft.to/lastmile_qr_scan", "android": "https://dc.lft.to/lastmile_qr_scan"}, "lon": -77.02011033333334, "bike_id": "d231044949a597aaa7fe77c4283972b3", "type": "electric_scooter", "name": "d231044949a597aaa7fe77c4283972b3"}, {"is_disabled": 0, "is_reserved": 0, "fusion_lat": 0.0, "lat": 38.9563005, "fusion_lon": 0.0, "rental_uris": {"ios": "https://dc.lft.to/lastmile_qr_scan", "android": "https://dc.lft.to/lastmile_qr_scan"}, "lon": -77.02206516666666, "bike_id": "b982456fff44ce7fa03f4553e5b30be3", "type": "electric_scooter", "name": "b982456fff44ce7fa03f4553e5b30be3"}, {"is_disabled": 0, "is_reserved": 0, "fusion_lat": 0.0, "lat": 38.9226305, "fusion_lon": 0.0, "rental_uris": {"ios": "https://dc.lft.to/lastmile_qr_scan", "android": "https://dc.lft.to/lastmile_qr_scan"}, "lon": -77.03664016666667, "bike_id": "a3ff5581d5cb5afc049a663d24821117", "type": "electric_scooter", "name": "a3ff5581d5cb5afc049a663d24821117"}, {"is_disabled": 0, "is_reserved": 0, "fusion_lat": 0.0, "lat": 38.899046166666665, "fusion_lon": 0.0, "rental_uris": {"ios": "https://dc.lft.to/lastmile_qr_scan", "android": "https://dc.lft.to/lastmile_qr_scan"}, "lon": -77.04997, "bike_id": "9f58becc5534a12d887279f233a913c1", "type": "electric_scooter", "name": "9f58becc5534a12d887279f233a913c1"}, {"is_disabled": 0, "is_reserved": 0, "fusion_lat": 0.0, "lat": 38.92048883333333, "fusion_lon": 0.0, "rental_uris": {"ios": "https://dc.lft.to/lastmile_qr_scan", "android": "https://dc.lft.to/lastmile_qr_scan"}, "lon": -77.01666616666667, "bike_id": "9c27598ac9a3d94dead546817d2fc7ae", "type": "electric_scooter", "name": "9c27598ac9a3d94dead546817d2fc7ae"}, {"is_disabled": 0, "is_reserved": 0, "fusion_lat": 0.0, "lat": 38.92017033333333, "fusion_lon": 0.0, "rental_uris": {"ios": "https://dc.lft.to/lastmile_qr_scan", "android": "https://dc.lft.to/lastmile_qr_scan"}, "lon": -77.01704166666667, "bike_id": "67f4e30ab7bd5bee62e1a4f146c59ada", "type": "electric_scooter", "name": "67f4e30ab7bd5bee62e1a4f146c59ada"}, {"is_disabled": 0, "is_reserved": 0, "fusion_lat": 0.0, "lat": 38.93929416666667, "fusion_lon": 0.0, "rental_uris": {"ios": "https://dc.lft.to/lastmile_qr_scan", "android": "https://dc.lft.to/lastmile_qr_scan"}, "lon": -77.0725155, "bike_id": "61e297193f552722f14c0bb054b5f517", "type": "electric_scooter", "name": "61e297193f552722f14c0bb054b5f517"}, {"is_disabled": 0, "is_reserved": 0, "fusion_lat": 0.0, "lat": 38.9010415, "fusion_lon": 0.0, "rental_uris": {"ios": "https://dc.lft.to/lastmile_qr_scan", "android": "https://dc.lft.to/lastmile_qr_scan"}, "lon": -77.04991583333333, "bike_id": "cac5274e34472dee2d59d52bf52ffd12", "type": "electric_scooter", "name": "cac5274e34472dee2d59d52bf52ffd12"}, {"is_disabled": 0, "is_reserved": 0, "fusion_lat": 0.0, "lat": 38.830734, "fusion_lon": 0.0, "rental_uris": {"ios": "https://dc.lft.to/lastmile_qr_scan", "android": "https://dc.lft.to/lastmile_qr_scan"}, "lon": -77.07504566666667, "bike_id": "f209459d223958dfbb58b9d1a132d1b5", "type": "electric_bike", "name": "f209459d223958dfbb58b9d1a132d1b5"}, {"is_disabled": 0, "is_reserved": 0, "fusion_lat": 0.0, "lat": 38.938652166666664, "fusion_lon": 0.0, "rental_uris": {"ios": "https://dc.lft.to/lastmile_qr_scan", "android": "https://dc.lft.to/lastmile_qr_scan"}, "lon": -77.072362, "bike_id": "b258e05b2447b2b9bdaa0d23f701ad54", "type": "electric_scooter", "name": "b258e05b2447b2b9bdaa0d23f701ad54"}, {"is_disabled": 0, "is_reserved": 0, "fusion_lat": 0.0, "lat": 38.922739166666666, "fusion_lon": 0.0, "rental_uris": {"ios": "https://dc.lft.to/lastmile_qr_scan", "android": "https://dc.lft.to/lastmile_qr_scan"}, "lon": -77.04236483333334, "bike_id": "786cf2584cb0e2c0bc95064e92296765", "type": "electric_scooter", "name": "786cf2584cb0e2c0bc95064e92296765"}, {"is_disabled": 0, "is_reserved": 0, "fusion_lat": 0.0, "lat": 38.9146125, "fusion_lon": 0.0, "rental_uris": {"ios": "https://dc.lft.to/lastmile_qr_scan", "android": "https://dc.lft.to/lastmile_qr_scan"}, "lon": -77.03193816666666, "bike_id": "5536830bd045ca5c87b6dc52813d9b53", "type": "electric_scooter", "name": "5536830bd045ca5c87b6dc52813d9b53"}, {"is_disabled": 0, "is_reserved": 0, "fusion_lat": 0.0, "lat": 39.003763166666666, "fusion_lon": 0.0, "rental_uris": {"ios": "https://dc.lft.to/lastmile_qr_scan", "android": "https://dc.lft.to/lastmile_qr_scan"}, "lon": -77.01284066666666, "bike_id": "2f765cfec1f52ae7cb1cde98ae905c0e", "type": "electric_bike", "name": "2f765cfec1f52ae7cb1cde98ae905c0e"}, {"is_disabled": 0, "is_reserved": 0, "fusion_lat": 0.0, "lat": 38.92072816666666, "fusion_lon": 0.0, "rental_uris": {"ios": "https://dc.lft.to/lastmile_qr_scan", "android": "https://dc.lft.to/lastmile_qr_scan"}, "lon": -77.02512266666666, "bike_id": "60c8a1dc7ac20b5e52c4fe848b4fb2df", "type": "electric_scooter", "name": "60c8a1dc7ac20b5e52c4fe848b4fb2df"}, {"is_disabled": 0, "is_reserved": 0, "fusion_lat": 0.0, "lat": 38.917011333333335, "fusion_lon": 0.0, "rental_uris": {"ios": "https://dc.lft.to/lastmile_qr_scan", "android": "https://dc.lft.to/lastmile_qr_scan"}, "lon": -77.0919775, "bike_id": "7c280e1d764ac80f1ea3fbb9d9ca28cc", "type": "electric_scooter", "name": "7c280e1d764ac80f1ea3fbb9d9ca28cc"}, {"is_disabled": 0, "is_reserved": 0, "fusion_lat": 0.0, "lat": 38.920927, "fusion_lon": 0.0, "rental_uris": {"ios": "https://dc.lft.to/lastmile_qr_scan", "android": "https://dc.lft.to/lastmile_qr_scan"}, "lon": -77.0251125, "bike_id": "df9e64179414282443752af3e1d377a6", "type": "electric_scooter", "name": "df9e64179414282443752af3e1d377a6"}, {"is_disabled": 0, "is_reserved": 0, "fusion_lat": 0.0, "lat": 38.897305833333334, "fusion_lon": 0.0, "rental_uris": {"ios": "https://dc.lft.to/lastmile_qr_scan", "android": "https://dc.lft.to/lastmile_qr_scan"}, "lon": -77.04365933333334, "bike_id": "4c7491cb612e0660cadd951526a190e6", "type": "electric_scooter", "name": "4c7491cb612e0660cadd951526a190e6"}, {"is_disabled": 0, "is_reserved": 0, "fusion_lat": 0.0, "lat": 38.9228555, "fusion_lon": 0.0, "rental_uris": {"ios": "https://dc.lft.to/lastmile_qr_scan", "android": "https://dc.lft.to/lastmile_qr_scan"}, "lon": -77.03658483333334, "bike_id": "63321fdf8b792eeb28660148b9369972", "type": "electric_scooter", "name": "63321fdf8b792eeb28660148b9369972"}, {"is_disabled": 0, "is_reserved": 0, "fusion_lat": 0.0, "lat": 38.93970016666667, "fusion_lon": 0.0, "rental_uris": {"ios": "https://dc.lft.to/lastmile_qr_scan", "android": "https://dc.lft.to/lastmile_qr_scan"}, "lon": -77.03431183333333, "bike_id": "d72f375dc2a491344d341a786d2eaf7b", "type": "electric_scooter", "name": "d72f375dc2a491344d341a786d2eaf7b"}, {"is_disabled": 0, "is_reserved": 0, "fusion_lat": 0.0, "lat": 38.93107633333333, "fusion_lon": 0.0, "rental_uris": {"ios": "https://dc.lft.to/lastmile_qr_scan", "android": "https://dc.lft.to/lastmile_qr_scan"}, "lon": -77.03024116666667, "bike_id": "443629131d4a7bc95ce6b9f009efdd2f", "type": "electric_scooter", "name": "443629131d4a7bc95ce6b9f009efdd2f"}, {"is_disabled": 0, "is_reserved": 0, "fusion_lat": 0.0, "lat": 38.91267583333333, "fusion_lon": 0.0, "rental_uris": {"ios": "https://dc.lft.to/lastmile_qr_scan", "android": "https://dc.lft.to/lastmile_qr_scan"}, "lon": -77.041681, "bike_id": "6c7f5fd607320fa62867caa4d6fa6562", "type": "electric_scooter", "name": "6c7f5fd607320fa62867caa4d6fa6562"}, {"is_disabled": 0, "is_reserved": 0, "fusion_lat": 0.0, "lat": 38.90121516666667, "fusion_lon": 0.0, "rental_uris": {"ios": "https://dc.lft.to/lastmile_qr_scan", "android": "https://dc.lft.to/lastmile_qr_scan"}, "lon": -77.0034865, "bike_id": "c3b2383a0d18fca5e01778373a0d7fdc", "type": "electric_scooter", "name": "c3b2383a0d18fca5e01778373a0d7fdc"}, {"is_disabled": 0, "is_reserved": 0, "fusion_lat": 0.0, "lat": 38.89615666666667, "fusion_lon": 0.0, "rental_uris": {"ios": "https://dc.lft.to/lastmile_qr_scan", "android": "https://dc.lft.to/lastmile_qr_scan"}, "lon": -77.0273075, "bike_id": "6578b1dcaa2e1d94fb0a5cca8f4ed08f", "type": "electric_scooter", "name": "6578b1dcaa2e1d94fb0a5cca8f4ed08f"}, {"is_disabled": 0, "is_reserved": 0, "fusion_lat": 0.0, "lat": 38.92419983333333, "fusion_lon": 0.0, "rental_uris": {"ios": "https://dc.lft.to/lastmile_qr_scan", "android": "https://dc.lft.to/lastmile_qr_scan"}, "lon": -77.05750933333333, "bike_id": "8d840df4db6b21e45e794c1113d552c4", "type": "electric_scooter", "name": "8d840df4db6b21e45e794c1113d552c4"}, {"is_disabled": 0, "is_reserved": 0, "fusion_lat": 0.0, "lat": 38.910464166666664, "fusion_lon": 0.0, "rental_uris": {"ios": "https://dc.lft.to/lastmile_qr_scan", "android": "https://dc.lft.to/lastmile_qr_scan"}, "lon": -76.99798216666667, "bike_id": "cd2885060f51fc47121c02d62ab374de", "type": "electric_scooter", "name": "cd2885060f51fc47121c02d62ab374de"}, {"is_disabled": 0, "is_reserved": 0, "fusion_lat": 0.0, "lat": 38.84094866666667, "fusion_lon": 0.0, "rental_uris": {"ios": "https://dc.lft.to/lastmile_qr_scan", "android": "https://dc.lft.to/lastmile_qr_scan"}, "lon": -76.98707133333333, "bike_id": "de47741d9048fdf12d8d8d8e9c5be759", "type": "electric_bike", "name": "de47741d9048fdf12d8d8d8e9c5be759"}, {"is_disabled": 0, "is_reserved": 0, "fusion_lat": 0.0, "lat": 38.900092, "fusion_lon": 0.0, "rental_uris": {"ios": "https://dc.lft.to/lastmile_qr_scan", "android": "https://dc.lft.to/lastmile_qr_scan"}, "lon": -77.003554, "bike_id": "cdb63f4be0fef4958a68fac4f0d57768", "type": "electric_scooter", "name": "cdb63f4be0fef4958a68fac4f0d57768"}, {"is_disabled": 0, "is_reserved": 0, "fusion_lat": 0.0, "lat": 38.920399333333336, "fusion_lon": 0.0, "rental_uris": {"ios": "https://dc.lft.to/lastmile_qr_scan", "android": "https://dc.lft.to/lastmile_qr_scan"}, "lon": -77.02590683333334, "bike_id": "61a4536c9c0353d34aa17d1535c7371a", "type": "electric_scooter", "name": "61a4536c9c0353d34aa17d1535c7371a"}, {"is_disabled": 0, "is_reserved": 0, "fusion_lat": 0.0, "lat": 38.923262666666666, "fusion_lon": 0.0, "rental_uris": {"ios": "https://dc.lft.to/lastmile_qr_scan", "android": "https://dc.lft.to/lastmile_qr_scan"}, "lon": -77.02966883333333, "bike_id": "8517bcbe871916a04f9198f09d7f903b", "type": "electric_scooter", "name": "8517bcbe871916a04f9198f09d7f903b"}, {"is_disabled": 0, "is_reserved": 0, "fusion_lat": 0.0, "lat": 38.90623733333334, "fusion_lon": 0.0, "rental_uris": {"ios": "https://dc.lft.to/lastmile_qr_scan", "android": "https://dc.lft.to/lastmile_qr_scan"}, "lon": -77.04682, "bike_id": "d6d48335ae7599a3aa8edab605bc35d2", "type": "electric_scooter", "name": "d6d48335ae7599a3aa8edab605bc35d2"}, {"is_disabled": 0, "is_reserved": 0, "fusion_lat": 0.0, "lat": 38.87506283333333, "fusion_lon": 0.0, "rental_uris": {"ios": "https://dc.lft.to/lastmile_qr_scan", "android": "https://dc.lft.to/lastmile_qr_scan"}, "lon": -76.99982683333333, "bike_id": "3d7f65f2764e154be034f642b84a7a6d", "type": "electric_scooter", "name": "3d7f65f2764e154be034f642b84a7a6d"}, {"is_disabled": 0, "is_reserved": 0, "fusion_lat": 0.0, "lat": 38.892771333333336, "fusion_lon": 0.0, "rental_uris": {"ios": "https://dc.lft.to/lastmile_qr_scan", "android": "https://dc.lft.to/lastmile_qr_scan"}, "lon": -77.04496916666666, "bike_id": "8d3abdec336066367760e725e154fb83", "type": "electric_scooter", "name": "8d3abdec336066367760e725e154fb83"}, {"is_disabled": 0, "is_reserved": 0, "fusion_lat": 0.0, "lat": 38.9183255, "fusion_lon": 0.0, "rental_uris": {"ios": "https://dc.lft.to/lastmile_qr_scan", "android": "https://dc.lft.to/lastmile_qr_scan"}, "lon": -77.04172883333334, "bike_id": "755f794b76c728ea8b0e1c59a49f039f", "type": "electric_scooter", "name": "755f794b76c728ea8b0e1c59a49f039f"}, {"is_disabled": 0, "is_reserved": 0, "fusion_lat": 0.0, "lat": 38.91386083333333, "fusion_lon": 0.0, "rental_uris": {"ios": "https://dc.lft.to/lastmile_qr_scan", "android": "https://dc.lft.to/lastmile_qr_scan"}, "lon": -77.032043, "bike_id": "d996001e5de93b90904ba7b8773d3b65", "type": "electric_scooter", "name": "d996001e5de93b90904ba7b8773d3b65"}, {"is_disabled": 0, "is_reserved": 0, "fusion_lat": 0.0, "lat": 38.91117783333333, "fusion_lon": 0.0, "rental_uris": {"ios": "https://dc.lft.to/lastmile_qr_scan", "android": "https://dc.lft.to/lastmile_qr_scan"}, "lon": -76.99758266666667, "bike_id": "75afd6afa8cd4adef36889a35768486d", "type": "electric_scooter", "name": "75afd6afa8cd4adef36889a35768486d"}, {"is_disabled": 0, "is_reserved": 0, "fusion_lat": 0.0, "lat": 38.902689333333335, "fusion_lon": 0.0, "rental_uris": {"ios": "https://dc.lft.to/lastmile_qr_scan", "android": "https://dc.lft.to/lastmile_qr_scan"}, "lon": -77.01963016666667, "bike_id": "c87379907c935786afb0687d3f7755a8", "type": "electric_scooter", "name": "c87379907c935786afb0687d3f7755a8"}, {"is_disabled": 0, "is_reserved": 0, "fusion_lat": 0.0, "lat": 38.96780033333334, "fusion_lon": 0.0, "rental_uris": {"ios": "https://dc.lft.to/lastmile_qr_scan", "android": "https://dc.lft.to/lastmile_qr_scan"}, "lon": -76.99644816666667, "bike_id": "aeef63b4956deedf79b3b5cdf102fda2", "type": "electric_bike", "name": "aeef63b4956deedf79b3b5cdf102fda2"}, {"is_disabled": 0, "is_reserved": 0, "fusion_lat": 0.0, "lat": 38.8793725, "fusion_lon": 0.0, "rental_uris": {"ios": "https://dc.lft.to/lastmile_qr_scan", "android": "https://dc.lft.to/lastmile_qr_scan"}, "lon": -77.01265816666667, "bike_id": "816211898fe3831667bf42cd14639ebf", "type": "electric_scooter", "name": "816211898fe3831667bf42cd14639ebf"}, {"is_disabled": 0, "is_reserved": 0, "fusion_lat": 0.0, "lat": 38.88703966666667, "fusion_lon": 0.0, "rental_uris": {"ios": "https://dc.lft.to/lastmile_qr_scan", "android": "https://dc.lft.to/lastmile_qr_scan"}, "lon": -77.00053183333333, "bike_id": "76d38ee8063adcb6e66cb13ab49dbbc1", "type": "electric_scooter", "name": "76d38ee8063adcb6e66cb13ab49dbbc1"}, {"is_disabled": 0, "is_reserved": 0, "fusion_lat": 0.0, "lat": 38.905042333333334, "fusion_lon": 0.0, "rental_uris": {"ios": "https://dc.lft.to/lastmile_qr_scan", "android": "https://dc.lft.to/lastmile_qr_scan"}, "lon": -77.0610715, "bike_id": "b1a6377c90760c268c23df3e57ebfb67", "type": "electric_scooter", "name": "b1a6377c90760c268c23df3e57ebfb67"}, {"is_disabled": 0, "is_reserved": 0, "fusion_lat": 0.0, "lat": 38.87779616666667, "fusion_lon": 0.0, "rental_uris": {"ios": "https://dc.lft.to/lastmile_qr_scan", "android": "https://dc.lft.to/lastmile_qr_scan"}, "lon": -76.99502166666667, "bike_id": "19b556b1fe67e40921073bcb44816d13", "type": "electric_bike", "name": "19b556b1fe67e40921073bcb44816d13"}, {"is_disabled": 0, "is_reserved": 0, "fusion_lat": 0.0, "lat": 38.94915666666667, "fusion_lon": 0.0, "rental_uris": {"ios": "https://dc.lft.to/lastmile_qr_scan", "android": "https://dc.lft.to/lastmile_qr_scan"}, "lon": -77.00792183333333, "bike_id": "c4a45f062c1df1f7eef31f10be0553df", "type": "electric_bike", "name": "c4a45f062c1df1f7eef31f10be0553df"}, {"is_disabled": 0, "is_reserved": 0, "fusion_lat": 0.0, "lat": 38.93856533333334, "fusion_lon": 0.0, "rental_uris": {"ios": "https://dc.lft.to/lastmile_qr_scan", "android": "https://dc.lft.to/lastmile_qr_scan"}, "lon": -77.0247, "bike_id": "c7df3d3b02d767db535c35cc6b4339f6", "type": "electric_scooter", "name": "c7df3d3b02d767db535c35cc6b4339f6"}, {"is_disabled": 0, "is_reserved": 0, "fusion_lat": 0.0, "lat": 38.9468235, "fusion_lon": 0.0, "rental_uris": {"ios": "https://dc.lft.to/lastmile_qr_scan", "android": "https://dc.lft.to/lastmile_qr_scan"}, "lon": -77.03278833333333, "bike_id": "0b7036d72bdf1bc97f862e889c547fe7", "type": "electric_scooter", "name": "0b7036d72bdf1bc97f862e889c547fe7"}, {"is_disabled": 0, "is_reserved": 0, "fusion_lat": 0.0, "lat": 38.91685416666667, "fusion_lon": 0.0, "rental_uris": {"ios": "https://dc.lft.to/lastmile_qr_scan", "android": "https://dc.lft.to/lastmile_qr_scan"}, "lon": -77.0296975, "bike_id": "31dc01664bd3e431f4ab9ef15466dc21", "type": "electric_scooter", "name": "31dc01664bd3e431f4ab9ef15466dc21"}, {"is_disabled": 0, "is_reserved": 0, "fusion_lat": 0.0, "lat": 38.898322, "fusion_lon": 0.0, "rental_uris": {"ios": "https://dc.lft.to/lastmile_qr_scan", "android": "https://dc.lft.to/lastmile_qr_scan"}, "lon": -77.028513, "bike_id": "f79cf99c1232bcadab8a7d9dd88473d5", "type": "electric_scooter", "name": "f79cf99c1232bcadab8a7d9dd88473d5"}, {"is_disabled": 0, "is_reserved": 0, "fusion_lat": 0.0, "lat": 38.892212, "fusion_lon": 0.0, "rental_uris": {"ios": "https://dc.lft.to/lastmile_qr_scan", "android": "https://dc.lft.to/lastmile_qr_scan"}, "lon": -77.04458683333333, "bike_id": "2c76b8ee67a0981b11f7c85ee685e087", "type": "electric_scooter", "name": "2c76b8ee67a0981b11f7c85ee685e087"}, {"is_disabled": 0, "is_reserved": 0, "fusion_lat": 0.0, "lat": 38.88450316666667, "fusion_lon": 0.0, "rental_uris": {"ios": "https://dc.lft.to/lastmile_qr_scan", "android": "https://dc.lft.to/lastmile_qr_scan"}, "lon": -76.95094416666667, "bike_id": "937879c97a8f40f4eb4bf7c3d0082612", "type": "electric_scooter", "name": "937879c97a8f40f4eb4bf7c3d0082612"}, {"is_disabled": 0, "is_reserved": 0, "fusion_lat": 0.0, "lat": 38.88144916666667, "fusion_lon": 0.0, "rental_uris": {"ios": "https://dc.lft.to/lastmile_qr_scan", "android": "https://dc.lft.to/lastmile_qr_scan"}, "lon": -77.02269433333333, "bike_id": "8a3704471d6e5ffc51081dc44c9936c2", "type": "electric_scooter", "name": "8a3704471d6e5ffc51081dc44c9936c2"}, {"is_disabled": 0, "is_reserved": 0, "fusion_lat": 0.0, "lat": 38.9215625, "fusion_lon": 0.0, "rental_uris": {"ios": "https://dc.lft.to/lastmile_qr_scan", "android": "https://dc.lft.to/lastmile_qr_scan"}, "lon": -77.03383316666667, "bike_id": "ffe3d9f83e514b6debaa00ae15052cc8", "type": "electric_scooter", "name": "ffe3d9f83e514b6debaa00ae15052cc8"}, {"is_disabled": 0, "is_reserved": 0, "fusion_lat": 0.0, "lat": 38.820283333333336, "fusion_lon": 0.0, "rental_uris": {"ios": "https://dc.lft.to/lastmile_qr_scan", "android": "https://dc.lft.to/lastmile_qr_scan"}, "lon": -77.05453633333333, "bike_id": "329619cbbfbd2eadfe66e1bc52c43a02", "type": "electric_bike", "name": "329619cbbfbd2eadfe66e1bc52c43a02"}, {"is_disabled": 0, "is_reserved": 0, "fusion_lat": 0.0, "lat": 38.91636416666667, "fusion_lon": 0.0, "rental_uris": {"ios": "https://dc.lft.to/lastmile_qr_scan", "android": "https://dc.lft.to/lastmile_qr_scan"}, "lon": -77.02691383333334, "bike_id": "2526161dc6bc9a73bbd7da98d3f537bc", "type": "electric_scooter", "name": "2526161dc6bc9a73bbd7da98d3f537bc"}, {"is_disabled": 0, "is_reserved": 0, "fusion_lat": 0.0, "lat": 38.870833833333336, "fusion_lon": 0.0, "rental_uris": {"ios": "https://dc.lft.to/lastmile_qr_scan", "android": "https://dc.lft.to/lastmile_qr_scan"}, "lon": -77.01202683333334, "bike_id": "ebdb35ea73a50d6293c565ece2d5c8b7", "type": "electric_scooter", "name": "ebdb35ea73a50d6293c565ece2d5c8b7"}, {"is_disabled": 0, "is_reserved": 0, "fusion_lat": 0.0, "lat": 38.899229, "fusion_lon": 0.0, "rental_uris": {"ios": "https://dc.lft.to/lastmile_qr_scan", "android": "https://dc.lft.to/lastmile_qr_scan"}, "lon": -77.04011933333334, "bike_id": "f5122c82ab96441da137f5b6b89a7499", "type": "electric_scooter", "name": "f5122c82ab96441da137f5b6b89a7499"}, {"is_disabled": 0, "is_reserved": 0, "fusion_lat": 0.0, "lat": 38.920729333333334, "fusion_lon": 0.0, "rental_uris": {"ios": "https://dc.lft.to/lastmile_qr_scan", "android": "https://dc.lft.to/lastmile_qr_scan"}, "lon": -77.02511416666667, "bike_id": "d2f58b95e58755d230ff8d7a1a78e20d", "type": "electric_scooter", "name": "d2f58b95e58755d230ff8d7a1a78e20d"}, {"is_disabled": 0, "is_reserved": 0, "fusion_lat": 0.0, "lat": 38.922373666666665, "fusion_lon": 0.0, "rental_uris": {"ios": "https://dc.lft.to/lastmile_qr_scan", "android": "https://dc.lft.to/lastmile_qr_scan"}, "lon": -77.04009816666667, "bike_id": "3abd357194a0aa6de838ea8bf2b9c757", "type": "electric_scooter", "name": "3abd357194a0aa6de838ea8bf2b9c757"}, {"is_disabled": 0, "is_reserved": 0, "fusion_lat": 0.0, "lat": 38.900157666666665, "fusion_lon": 0.0, "rental_uris": {"ios": "https://dc.lft.to/lastmile_qr_scan", "android": "https://dc.lft.to/lastmile_qr_scan"}, "lon": -76.97984116666666, "bike_id": "5af99371670f3c4009de178911ad69bd", "type": "electric_scooter", "name": "5af99371670f3c4009de178911ad69bd"}, {"is_disabled": 0, "is_reserved": 0, "fusion_lat": 0.0, "lat": 38.900085833333335, "fusion_lon": 0.0, "rental_uris": {"ios": "https://dc.lft.to/lastmile_qr_scan", "android": "https://dc.lft.to/lastmile_qr_scan"}, "lon": -76.98214, "bike_id": "01abaf925ce844f523e82f433444e146", "type": "electric_scooter", "name": "01abaf925ce844f523e82f433444e146"}, {"is_disabled": 0, "is_reserved": 0, "fusion_lat": 0.0, "lat": 38.93810233333333, "fusion_lon": 0.0, "rental_uris": {"ios": "https://dc.lft.to/lastmile_qr_scan", "android": "https://dc.lft.to/lastmile_qr_scan"}, "lon": -77.02454816666666, "bike_id": "36e3b17510f6163df4abbba6e18d5148", "type": "electric_scooter", "name": "36e3b17510f6163df4abbba6e18d5148"}, {"is_disabled": 0, "is_reserved": 0, "fusion_lat": 0.0, "lat": 38.92057466666667, "fusion_lon": 0.0, "rental_uris": {"ios": "https://dc.lft.to/lastmile_qr_scan", "android": "https://dc.lft.to/lastmile_qr_scan"}, "lon": -77.02295233333334, "bike_id": "65c3879dcc77fc4a67ce06d67544b860", "type": "electric_scooter", "name": "65c3879dcc77fc4a67ce06d67544b860"}, {"is_disabled": 0, "is_reserved": 0, "fusion_lat": 0.0, "lat": 38.90064533333333, "fusion_lon": 0.0, "rental_uris": {"ios": "https://dc.lft.to/lastmile_qr_scan", "android": "https://dc.lft.to/lastmile_qr_scan"}, "lon": -77.0066885, "bike_id": "e8d8a312b013d0fc671cd2006833064b", "type": "electric_scooter", "name": "e8d8a312b013d0fc671cd2006833064b"}, {"is_disabled": 0, "is_reserved": 0, "fusion_lat": 0.0, "lat": 38.883738, "fusion_lon": 0.0, "rental_uris": {"ios": "https://dc.lft.to/lastmile_qr_scan", "android": "https://dc.lft.to/lastmile_qr_scan"}, "lon": -76.924179, "bike_id": "fde0bb112ec7fbd507a5967675c932cb", "type": "electric_scooter", "name": "fde0bb112ec7fbd507a5967675c932cb"}, {"is_disabled": 0, "is_reserved": 0, "fusion_lat": 0.0, "lat": 38.918178166666664, "fusion_lon": 0.0, "rental_uris": {"ios": "https://dc.lft.to/lastmile_qr_scan", "android": "https://dc.lft.to/lastmile_qr_scan"}, "lon": -77.0399595, "bike_id": "1ffc49f07dcdbd2303704eb07fcce223", "type": "electric_scooter", "name": "1ffc49f07dcdbd2303704eb07fcce223"}, {"is_disabled": 0, "is_reserved": 0, "fusion_lat": 0.0, "lat": 38.912019, "fusion_lon": 0.0, "rental_uris": {"ios": "https://dc.lft.to/lastmile_qr_scan", "android": "https://dc.lft.to/lastmile_qr_scan"}, "lon": -77.00187483333333, "bike_id": "bcfbcea8bb785928dc153d44f1ebc3cb", "type": "electric_scooter", "name": "bcfbcea8bb785928dc153d44f1ebc3cb"}, {"is_disabled": 0, "is_reserved": 0, "fusion_lat": 0.0, "lat": 38.90430966666667, "fusion_lon": 0.0, "rental_uris": {"ios": "https://dc.lft.to/lastmile_qr_scan", "android": "https://dc.lft.to/lastmile_qr_scan"}, "lon": -77.02414483333334, "bike_id": "67b58b95f204e841793b5d508b98ac36", "type": "electric_scooter", "name": "67b58b95f204e841793b5d508b98ac36"}, {"is_disabled": 0, "is_reserved": 0, "fusion_lat": 0.0, "lat": 38.9291315, "fusion_lon": 0.0, "rental_uris": {"ios": "https://dc.lft.to/lastmile_qr_scan", "android": "https://dc.lft.to/lastmile_qr_scan"}, "lon": -77.02091716666666, "bike_id": "61db9e12012c479c36771d673fe55c4a", "type": "electric_scooter", "name": "61db9e12012c479c36771d673fe55c4a"}, {"is_disabled": 0, "is_reserved": 0, "fusion_lat": 0.0, "lat": 38.928989, "fusion_lon": 0.0, "rental_uris": {"ios": "https://dc.lft.to/lastmile_qr_scan", "android": "https://dc.lft.to/lastmile_qr_scan"}, "lon": -77.032481, "bike_id": "fb6d6745137bf5d9f7ea2325efcf6595", "type": "electric_scooter", "name": "fb6d6745137bf5d9f7ea2325efcf6595"}, {"is_disabled": 0, "is_reserved": 0, "fusion_lat": 0.0, "lat": 38.91416016666667, "fusion_lon": 0.0, "rental_uris": {"ios": "https://dc.lft.to/lastmile_qr_scan", "android": "https://dc.lft.to/lastmile_qr_scan"}, "lon": -77.03165266666667, "bike_id": "5c720b59fbcad7e05dd2b716a14ef71d", "type": "electric_scooter", "name": "5c720b59fbcad7e05dd2b716a14ef71d"}, {"is_disabled": 0, "is_reserved": 0, "fusion_lat": 0.0, "lat": 38.898933, "fusion_lon": 0.0, "rental_uris": {"ios": "https://dc.lft.to/lastmile_qr_scan", "android": "https://dc.lft.to/lastmile_qr_scan"}, "lon": -76.9883155, "bike_id": "fbcae789b157c561b5cdf19fdbcddd6f", "type": "electric_scooter", "name": "fbcae789b157c561b5cdf19fdbcddd6f"}, {"is_disabled": 0, "is_reserved": 0, "fusion_lat": 0.0, "lat": 38.9360635, "fusion_lon": 0.0, "rental_uris": {"ios": "https://dc.lft.to/lastmile_qr_scan", "android": "https://dc.lft.to/lastmile_qr_scan"}, "lon": -77.05584333333333, "bike_id": "062a783505b74cad87e4ca68da357e53", "type": "electric_scooter", "name": "062a783505b74cad87e4ca68da357e53"}, {"is_disabled": 0, "is_reserved": 0, "fusion_lat": 0.0, "lat": 38.982823, "fusion_lon": 0.0, "rental_uris": {"ios": "https://dc.lft.to/lastmile_qr_scan", "android": "https://dc.lft.to/lastmile_qr_scan"}, "lon": -76.97637316666666, "bike_id": "71cd631fe7c220209d349ee4aeb5f88c", "type": "electric_bike", "name": "71cd631fe7c220209d349ee4aeb5f88c"}, {"is_disabled": 0, "is_reserved": 0, "fusion_lat": 0.0, "lat": 38.936839666666664, "fusion_lon": 0.0, "rental_uris": {"ios": "https://dc.lft.to/lastmile_qr_scan", "android": "https://dc.lft.to/lastmile_qr_scan"}, "lon": -77.05631, "bike_id": "6a8ae4d93600a342b776fdff513b2afd", "type": "electric_scooter", "name": "6a8ae4d93600a342b776fdff513b2afd"}, {"is_disabled": 0, "is_reserved": 0, "fusion_lat": 0.0, "lat": 38.926582833333335, "fusion_lon": 0.0, "rental_uris": {"ios": "https://dc.lft.to/lastmile_qr_scan", "android": "https://dc.lft.to/lastmile_qr_scan"}, "lon": -77.02424416666666, "bike_id": "08b9f21403e9d35184011e59662a8331", "type": "electric_scooter", "name": "08b9f21403e9d35184011e59662a8331"}, {"is_disabled": 0, "is_reserved": 0, "fusion_lat": 0.0, "lat": 38.926532, "fusion_lon": 0.0, "rental_uris": {"ios": "https://dc.lft.to/lastmile_qr_scan", "android": "https://dc.lft.to/lastmile_qr_scan"}, "lon": -77.02438183333334, "bike_id": "df455daed5c5e51de6f2c7618b62c955", "type": "electric_scooter", "name": "df455daed5c5e51de6f2c7618b62c955"}, {"is_disabled": 0, "is_reserved": 0, "fusion_lat": 0.0, "lat": 38.9346565, "fusion_lon": 0.0, "rental_uris": {"ios": "https://dc.lft.to/lastmile_qr_scan", "android": "https://dc.lft.to/lastmile_qr_scan"}, "lon": -77.027527, "bike_id": "ba030a4476680ad558b62cf3a5172dec", "type": "electric_scooter", "name": "ba030a4476680ad558b62cf3a5172dec"}, {"is_disabled": 0, "is_reserved": 0, "fusion_lat": 0.0, "lat": 38.901521333333335, "fusion_lon": 0.0, "rental_uris": {"ios": "https://dc.lft.to/lastmile_qr_scan", "android": "https://dc.lft.to/lastmile_qr_scan"}, "lon": -77.04163883333334, "bike_id": "c8339aeefca6fe70f73e79b1331dab98", "type": "electric_scooter", "name": "c8339aeefca6fe70f73e79b1331dab98"}, {"is_disabled": 0, "is_reserved": 0, "fusion_lat": 0.0, "lat": 38.90107883333334, "fusion_lon": 0.0, "rental_uris": {"ios": "https://dc.lft.to/lastmile_qr_scan", "android": "https://dc.lft.to/lastmile_qr_scan"}, "lon": -77.05898166666667, "bike_id": "1dce2c86d9855d2b1d62a7ada507df85", "type": "electric_scooter", "name": "1dce2c86d9855d2b1d62a7ada507df85"}, {"is_disabled": 0, "is_reserved": 0, "fusion_lat": 0.0, "lat": 38.90765783333333, "fusion_lon": 0.0, "rental_uris": {"ios": "https://dc.lft.to/lastmile_qr_scan", "android": "https://dc.lft.to/lastmile_qr_scan"}, "lon": -76.99727266666666, "bike_id": "c3b1c69f44348bdcdbfadd6300fc9d0d", "type": "electric_scooter", "name": "c3b1c69f44348bdcdbfadd6300fc9d0d"}, {"is_disabled": 0, "is_reserved": 0, "fusion_lat": 0.0, "lat": 38.929490333333334, "fusion_lon": 0.0, "rental_uris": {"ios": "https://dc.lft.to/lastmile_qr_scan", "android": "https://dc.lft.to/lastmile_qr_scan"}, "lon": -77.03251433333334, "bike_id": "cb9d2b5714eebc8ff50affdcb5d52276", "type": "electric_scooter", "name": "cb9d2b5714eebc8ff50affdcb5d52276"}, {"is_disabled": 0, "is_reserved": 0, "fusion_lat": 0.0, "lat": 38.92403183333333, "fusion_lon": 0.0, "rental_uris": {"ios": "https://dc.lft.to/lastmile_qr_scan", "android": "https://dc.lft.to/lastmile_qr_scan"}, "lon": -77.02715316666666, "bike_id": "f54ed5c1dc6cca02b6dbef139649de39", "type": "electric_scooter", "name": "f54ed5c1dc6cca02b6dbef139649de39"}, {"is_disabled": 0, "is_reserved": 0, "fusion_lat": 0.0, "lat": 38.90776616666667, "fusion_lon": 0.0, "rental_uris": {"ios": "https://dc.lft.to/lastmile_qr_scan", "android": "https://dc.lft.to/lastmile_qr_scan"}, "lon": -77.05556983333334, "bike_id": "632a796fc7196ccf4e71db6854b900ca", "type": "electric_bike", "name": "632a796fc7196ccf4e71db6854b900ca"}, {"is_disabled": 0, "is_reserved": 0, "fusion_lat": 0.0, "lat": 38.908757333333334, "fusion_lon": 0.0, "rental_uris": {"ios": "https://dc.lft.to/lastmile_qr_scan", "android": "https://dc.lft.to/lastmile_qr_scan"}, "lon": -77.07431633333333, "bike_id": "4ff3fdbd607a6c81a0b28632eaa983a4", "type": "electric_scooter", "name": "4ff3fdbd607a6c81a0b28632eaa983a4"}, {"is_disabled": 0, "is_reserved": 0, "fusion_lat": 0.0, "lat": 38.880555333333334, "fusion_lon": 0.0, "rental_uris": {"ios": "https://dc.lft.to/lastmile_qr_scan", "android": "https://dc.lft.to/lastmile_qr_scan"}, "lon": -77.0256625, "bike_id": "1177ade1bc36096adeaaa386425ea1c0", "type": "electric_scooter", "name": "1177ade1bc36096adeaaa386425ea1c0"}, {"is_disabled": 0, "is_reserved": 0, "fusion_lat": 0.0, "lat": 39.026480166666666, "fusion_lon": 0.0, "rental_uris": {"ios": "https://dc.lft.to/lastmile_qr_scan", "android": "https://dc.lft.to/lastmile_qr_scan"}, "lon": -77.036849, "bike_id": "db2fd534c176475a5e8ddf33af8d0a0f", "type": "electric_bike", "name": "db2fd534c176475a5e8ddf33af8d0a0f"}, {"is_disabled": 0, "is_reserved": 0, "fusion_lat": 0.0, "lat": 38.91537916666667, "fusion_lon": 0.0, "rental_uris": {"ios": "https://dc.lft.to/lastmile_qr_scan", "android": "https://dc.lft.to/lastmile_qr_scan"}, "lon": -77.0263695, "bike_id": "e85c35bc856d0a3cd5252bc9ba0d2646", "type": "electric_scooter", "name": "e85c35bc856d0a3cd5252bc9ba0d2646"}, {"is_disabled": 0, "is_reserved": 0, "fusion_lat": 0.0, "lat": 38.955881166666664, "fusion_lon": 0.0, "rental_uris": {"ios": "https://dc.lft.to/lastmile_qr_scan", "android": "https://dc.lft.to/lastmile_qr_scan"}, "lon": -77.01780583333333, "bike_id": "c82382a56ce96c20a569a2a8e09558d2", "type": "electric_scooter", "name": "c82382a56ce96c20a569a2a8e09558d2"}, {"is_disabled": 0, "is_reserved": 0, "fusion_lat": 0.0, "lat": 38.88623316666666, "fusion_lon": 0.0, "rental_uris": {"ios": "https://dc.lft.to/lastmile_qr_scan", "android": "https://dc.lft.to/lastmile_qr_scan"}, "lon": -76.926338, "bike_id": "eb9743c24d6ff740d9b6b8992507ba84", "type": "electric_scooter", "name": "eb9743c24d6ff740d9b6b8992507ba84"}, {"is_disabled": 0, "is_reserved": 0, "fusion_lat": 0.0, "lat": 38.886338333333335, "fusion_lon": 0.0, "rental_uris": {"ios": "https://dc.lft.to/lastmile_qr_scan", "android": "https://dc.lft.to/lastmile_qr_scan"}, "lon": -77.0221385, "bike_id": "3a146088bcc9f10474abaea45b342598", "type": "electric_scooter", "name": "3a146088bcc9f10474abaea45b342598"}, {"is_disabled": 0, "is_reserved": 0, "fusion_lat": 0.0, "lat": 38.921980833333336, "fusion_lon": 0.0, "rental_uris": {"ios": "https://dc.lft.to/lastmile_qr_scan", "android": "https://dc.lft.to/lastmile_qr_scan"}, "lon": -77.02038683333333, "bike_id": "06cbdaa775f733aff912b2ab719fe320", "type": "electric_scooter", "name": "06cbdaa775f733aff912b2ab719fe320"}, {"is_disabled": 0, "is_reserved": 0, "fusion_lat": 0.0, "lat": 38.90707866666666, "fusion_lon": 0.0, "rental_uris": {"ios": "https://dc.lft.to/lastmile_qr_scan", "android": "https://dc.lft.to/lastmile_qr_scan"}, "lon": -77.01349866666666, "bike_id": "3c0746843ecf32c59e65c1e7cf1dd37e", "type": "electric_scooter", "name": "3c0746843ecf32c59e65c1e7cf1dd37e"}, {"is_disabled": 0, "is_reserved": 0, "fusion_lat": 0.0, "lat": 38.90857333333334, "fusion_lon": 0.0, "rental_uris": {"ios": "https://dc.lft.to/lastmile_qr_scan", "android": "https://dc.lft.to/lastmile_qr_scan"}, "lon": -77.02351266666666, "bike_id": "3ca2d1d7b703a8ae17e560d26b994043", "type": "electric_scooter", "name": "3ca2d1d7b703a8ae17e560d26b994043"}, {"is_disabled": 0, "is_reserved": 0, "fusion_lat": 0.0, "lat": 38.905115333333335, "fusion_lon": 0.0, "rental_uris": {"ios": "https://dc.lft.to/lastmile_qr_scan", "android": "https://dc.lft.to/lastmile_qr_scan"}, "lon": -76.95197483333334, "bike_id": "0aaec1f2c2c4bd19d6c7033660fa0b80", "type": "electric_scooter", "name": "0aaec1f2c2c4bd19d6c7033660fa0b80"}, {"is_disabled": 0, "is_reserved": 0, "fusion_lat": 0.0, "lat": 38.9275835, "fusion_lon": 0.0, "rental_uris": {"ios": "https://dc.lft.to/lastmile_qr_scan", "android": "https://dc.lft.to/lastmile_qr_scan"}, "lon": -77.05269016666666, "bike_id": "7997cb1c8fcc76111113434f098f86ff", "type": "electric_scooter", "name": "7997cb1c8fcc76111113434f098f86ff"}, {"is_disabled": 0, "is_reserved": 0, "fusion_lat": 0.0, "lat": 38.914149333333334, "fusion_lon": 0.0, "rental_uris": {"ios": "https://dc.lft.to/lastmile_qr_scan", "android": "https://dc.lft.to/lastmile_qr_scan"}, "lon": -77.052076, "bike_id": "14e4311cb51662e715445f862c664a24", "type": "electric_scooter", "name": "14e4311cb51662e715445f862c664a24"}, {"is_disabled": 0, "is_reserved": 0, "fusion_lat": 0.0, "lat": 38.89833983333333, "fusion_lon": 0.0, "rental_uris": {"ios": "https://dc.lft.to/lastmile_qr_scan", "android": "https://dc.lft.to/lastmile_qr_scan"}, "lon": -76.996191, "bike_id": "3e49b36ad1f292b177a127b471d6c71d", "type": "electric_scooter", "name": "3e49b36ad1f292b177a127b471d6c71d"}, {"is_disabled": 0, "is_reserved": 0, "fusion_lat": 0.0, "lat": 38.91642066666667, "fusion_lon": 0.0, "rental_uris": {"ios": "https://dc.lft.to/lastmile_qr_scan", "android": "https://dc.lft.to/lastmile_qr_scan"}, "lon": -77.02304083333334, "bike_id": "76be0566d9a16e4e27b1ad81e3ac2495", "type": "electric_scooter", "name": "76be0566d9a16e4e27b1ad81e3ac2495"}, {"is_disabled": 0, "is_reserved": 0, "fusion_lat": 0.0, "lat": 38.91775166666667, "fusion_lon": 0.0, "rental_uris": {"ios": "https://dc.lft.to/lastmile_qr_scan", "android": "https://dc.lft.to/lastmile_qr_scan"}, "lon": -77.021075, "bike_id": "92df8c76958a1631b93078051d12c8dc", "type": "electric_scooter", "name": "92df8c76958a1631b93078051d12c8dc"},