{"data": {"bikes": [{"bike_id": "6f10275ef25027c32d2c111665027bd2", "type": "electric_scooter", "is_disabled": 0, "lat": 38.86473466666666, "rental_uris": {"ios": "https://dc.lft.to/lastmile_qr_scan", "android": "https://dc.lft.to/lastmile_qr_scan"}, "is_reserved": 0, "fusion_lon": 0.0, "fusion_lat": 0.0, "lon": -77.00011533333333, "name": "6f10275ef25027c32d2c111665027bd2"}, {"bike_id": "c2c4ac14eb17242fc4632610516b9c42", "type": "electric_bike", "is_disabled": 0, "lat": 38.836085833333335, "rental_uris": {"ios": "https://dc.lft.to/lastmile_qr_scan", "android": "https://dc.lft.to/lastmile_qr_scan"}, "is_reserved": 0, "fusion_lon": 0.0, "fusion_lat": 0.0, "lon": -77.0038235, "name": "c2c4ac14eb17242fc4632610516b9c42"}, {"bike_id": "f4c22266a7c7ce31cbdb35d47b909b41", "type": "electric_scooter", "is_disabled": 0, "lat": 38.9395315, "rental_uris": {"ios": "https://dc.lft.to/lastmile_qr_scan", "android": "https://dc.lft.to/lastmile_qr_scan"}, "is_reserved": 0, "fusion_lon": 0.0, "fusion_lat": 0.0, "lon": -77.07242366666667, "name": "f4c22266a7c7ce31cbdb35d47b909b41"}, {"bike_id": "611b57dc6264407111be72a5049911da", "type": "electric_scooter", "is_disabled": 0, "lat": 38.9227695, "rental_uris": {"ios": "https://dc.lft.to/lastmile_qr_scan", "android": "https://dc.lft.to/lastmile_qr_scan"}, "is_reserved": 0, "fusion_lon": 0.0, "fusion_lat": 0.0, "lon": -77.03662933333334, "name": "611b57dc6264407111be72a5049911da"}, {"bike_id": "f7d3083aadc1a41e6a5055e2cf1377fa", "type": "electric_scooter", "is_disabled": 0, "lat": 38.91106816666667, "rental_uris": {"ios": "https://dc.lft.to/lastmile_qr_scan", "android": "https://dc.lft.to/lastmile_qr_scan"}, "is_reserved": 0, "fusion_lon": 0.0, "fusion_lat": 0.0, "lon": -77.04517566666667, "name": "f7d3083aadc1a41e6a5055e2cf1377fa"}, {"bike_id": "da1f70c9f78aae319b770615d2e534d0", "type": "electric_scooter", "is_disabled": 0, "lat": 38.9011205, "rental_uris": {"ios": "https://dc.lft.to/lastmile_qr_scan", "android": "https://dc.lft.to/lastmile_qr_scan"}, "is_reserved": 0, "fusion_lon": 0.0, "fusion_lat": 0.0, "lon": -77.038429, "name": "da1f70c9f78aae319b770615d2e534d0"}, {"bike_id": "24c099b0e824d5f7ea2d0d51da78e52d", "type": "electric_scooter", "is_disabled": 0, "lat": 38.913301, "rental_uris": {"ios": "https://dc.lft.to/lastmile_qr_scan", "android": "https://dc.lft.to/lastmile_qr_scan"}, "is_reserved": 0, "fusion_lon": 0.0, "fusion_lat": 0.0, "lon": -77.03988616666666, "name": "24c099b0e824d5f7ea2d0d51da78e52d"}, {"bike_id": "251eea90508058bbe35a0a0212d653ad", "type": "electric_scooter", "is_disabled": 0, "lat": 38.843155833333334, "rental_uris": {"ios": "https://dc.lft.to/lastmile_qr_scan", "android": "https://dc.lft.to/lastmile_qr_scan"}, "is_reserved": 0, "fusion_lon": 0.0, "fusion_lat": 0.0, "lon": -76.99929883333333, "name": "251eea90508058bbe35a0a0212d653ad"}, {"bike_id": "84421ba290d0c74fbce865d2da631b31", "type": "electric_scooter", "is_disabled": 0, "lat": 38.919878833333335, "rental_uris": {"ios": "https://dc.lft.to/lastmile_qr_scan", "android": "https://dc.lft.to/lastmile_qr_scan"}, "is_reserved": 0, "fusion_lon": 0.0, "fusion_lat": 0.0, "lon": -77.0179255, "name": "84421ba290d0c74fbce865d2da631b31"}, {"bike_id": "af1ebe3104818cad1acfddf766ad2345", "type": "electric_scooter", "is_disabled": 0, "lat": 38.914674833333336, "rental_uris": {"ios": "https://dc.lft.to/lastmile_qr_scan", "android": "https://dc.lft.to/lastmile_qr_scan"}, "is_reserved": 0, "fusion_lon": 0.0, "fusion_lat": 0.0, "lon": -77.00210783333333, "name": "af1ebe3104818cad1acfddf766ad2345"}, {"bike_id": "123c0f1095bb6069b5e4dbcebe96a334", "type": "electric_scooter", "is_disabled": 0, "lat": 38.92363783333333, "rental_uris": {"ios": "https://dc.lft.to/lastmile_qr_scan", "android": "https://dc.lft.to/lastmile_qr_scan"}, "is_reserved": 0, "fusion_lon": 0.0, "fusion_lat": 0.0, "lon": -77.0513005, "name": "123c0f1095bb6069b5e4dbcebe96a334"}, {"bike_id": "5e6bbf498041b2d630b7ff5030be1336", "type": "electric_bike", "is_disabled": 0, "lat": 38.895646666666664, "rental_uris": {"ios": "https://dc.lft.to/lastmile_qr_scan", "android": "https://dc.lft.to/lastmile_qr_scan"}, "is_reserved": 0, "fusion_lon": 0.0, "fusion_lat": 0.0, "lon": -77.127367, "name": "5e6bbf498041b2d630b7ff5030be1336"}, {"bike_id": "a63a2479fcc3c8f8866ba48be8908705", "type": "electric_scooter", "is_disabled": 0, "lat": 38.91510733333333, "rental_uris": {"ios": "https://dc.lft.to/lastmile_qr_scan", "android": "https://dc.lft.to/lastmile_qr_scan"}, "is_reserved": 0, "fusion_lon": 0.0, "fusion_lat": 0.0, "lon": -77.021844, "name": "a63a2479fcc3c8f8866ba48be8908705"}, {"bike_id": "eb981cd4462d61193157344c69c29ba6", "type": "electric_scooter", "is_disabled": 0, "lat": 38.880633333333336, "rental_uris": {"ios": "https://dc.lft.to/lastmile_qr_scan", "android": "https://dc.lft.to/lastmile_qr_scan"}, "is_reserved": 0, "fusion_lon": 0.0, "fusion_lat": 0.0, "lon": -76.932198, "name": "eb981cd4462d61193157344c69c29ba6"}, {"bike_id": "d48457f3592819408cf2db0c5fa2c856", "type": "electric_scooter", "is_disabled": 0, "lat": 38.9248295, "rental_uris": {"ios": "https://dc.lft.to/lastmile_qr_scan", "android": "https://dc.lft.to/lastmile_qr_scan"}, "is_reserved": 0, "fusion_lon": 0.0, "fusion_lat": 0.0, "lon": -77.0520815, "name": "d48457f3592819408cf2db0c5fa2c856"}, {"bike_id": "fac94b99a92bccd03b4c95e999917354", "type": "electric_scooter", "is_disabled": 0, "lat": 38.927997833333336, "rental_uris": {"ios": "https://dc.lft.to/lastmile_qr_scan", "android": "https://dc.lft.to/lastmile_qr_scan"}, "is_reserved": 0, "fusion_lon": 0.0, "fusion_lat": 0.0, "lon": -77.02360733333333, "name": "fac94b99a92bccd03b4c95e999917354"}, {"bike_id": "9f016702439b645dba3959c9505aab73", "type": "electric_scooter", "is_disabled": 0, "lat": 38.91666333333333, "rental_uris": {"ios": "https://dc.lft.to/lastmile_qr_scan", "android": "https://dc.lft.to/lastmile_qr_scan"}, "is_reserved": 0, "fusion_lon": 0.0, "fusion_lat": 0.0, "lon": -77.02884383333334, "name": "9f016702439b645dba3959c9505aab73"}, {"bike_id": "ef0e64c65a62570b1a4a63950253b096", "type": "electric_bike", "is_disabled": 0, "lat": 38.879819833333336, "rental_uris": {"ios": "https://dc.lft.to/lastmile_qr_scan", "android": "https://dc.lft.to/lastmile_qr_scan"}, "is_reserved": 0, "fusion_lon": 0.0, "fusion_lat": 0.0, "lon": -76.91598216666667, "name": "ef0e64c65a62570b1a4a63950253b096"}, {"bike_id": "8299a56d86cea388d8638b8afd13ad4a", "type": "electric_scooter", "is_disabled": 0, "lat": 38.887453, "rental_uris": {"ios": "https://dc.lft.to/lastmile_qr_scan", "android": "https://dc.lft.to/lastmile_qr_scan"}, "is_reserved": 0, "fusion_lon": 0.0, "fusion_lat": 0.0, "lon": -76.99624616666667, "name": "8299a56d86cea388d8638b8afd13ad4a"}, {"bike_id": "b5fa5807b80eedca0fed5e974d2205a7", "type": "electric_scooter", "is_disabled": 0, "lat": 38.888517, "rental_uris": {"ios": "https://dc.lft.to/lastmile_qr_scan", "android": "https://dc.lft.to/lastmile_qr_scan"}, "is_reserved": 0, "fusion_lon": 0.0, "fusion_lat": 0.0, "lon": -77.000499, "name": "b5fa5807b80eedca0fed5e974d2205a7"}, {"bike_id": "0852462aedda228f01e186d11ae68eca", "type": "electric_scooter", "is_disabled": 0, "lat": 38.91901816666667, "rental_uris": {"ios": "https://dc.lft.to/lastmile_qr_scan", "android": "https://dc.lft.to/lastmile_qr_scan"}, "is_reserved": 0, "fusion_lon": 0.0, "fusion_lat": 0.0, "lon": -77.07070783333333, "name": "0852462aedda228f01e186d11ae68eca"}, {"bike_id": "f00b5e99e9729e4abeae8df42c400a52", "type": "electric_scooter", "is_disabled": 0, "lat": 38.91866816666667, "rental_uris": {"ios": "https://dc.lft.to/lastmile_qr_scan", "android": "https://dc.lft.to/lastmile_qr_scan"}, "is_reserved": 0, "fusion_lon": 0.0, "fusion_lat": 0.0, "lon": -77.04753916666667, "name": "f00b5e99e9729e4abeae8df42c400a52"}, {"bike_id": "b74aeb1af20ebdd2185fbaa98290ab51", "type": "electric_scooter", "is_disabled": 0, "lat": 38.9117915, "rental_uris": {"ios": "https://dc.lft.to/lastmile_qr_scan", "android": "https://dc.lft.to/lastmile_qr_scan"}, "is_reserved": 0, "fusion_lon": 0.0, "fusion_lat": 0.0, "lon": -77.00207383333333, "name": "b74aeb1af20ebdd2185fbaa98290ab51"}, {"bike_id": "8ba1501ff7221f067300d8498c740466", "type": "electric_scooter", "is_disabled": 0, "lat": 38.905697, "rental_uris": {"ios": "https://dc.lft.to/lastmile_qr_scan", "android": "https://dc.lft.to/lastmile_qr_scan"}, "is_reserved": 0, "fusion_lon": 0.0, "fusion_lat": 0.0, "lon": -77.0057755, "name": "8ba1501ff7221f067300d8498c740466"}, {"bike_id": "26ce8df3fc5c2189bc7ea824ab412f9f", "type": "electric_bike", "is_disabled": 0, "lat": 38.963056333333334, "rental_uris": {"ios": "https://dc.lft.to/lastmile_qr_scan", "android": "https://dc.lft.to/lastmile_qr_scan"}, "is_reserved": 0, "fusion_lon": 0.0, "fusion_lat": 0.0, "lon": -77.01111733333333, "name": "26ce8df3fc5c2189bc7ea824ab412f9f"}, {"bike_id": "7664daf410ab1ffe91f69e6807934c5b", "type": "electric_scooter", "is_disabled": 0, "lat": 38.908106833333335, "rental_uris": {"ios": "https://dc.lft.to/lastmile_qr_scan", "android": "https://dc.lft.to/lastmile_qr_scan"}, "is_reserved": 0, "fusion_lon": 0.0, "fusion_lat": 0.0, "lon": -77.08414, "name": "7664daf410ab1ffe91f69e6807934c5b"}, {"bike_id": "15d63900c92e7331182e2fd6c45cad76", "type": "electric_scooter", "is_disabled": 0, "lat": 38.874176, "rental_uris": {"ios": "https://dc.lft.to/lastmile_qr_scan", "android": "https://dc.lft.to/lastmile_qr_scan"}, "is_reserved": 0, "fusion_lon": 0.0, "fusion_lat": 0.0, "lon": -76.96907783333333, "name": "15d63900c92e7331182e2fd6c45cad76"}, {"bike_id": "28b12e0f85c58772fcdd4486ecfb4e34", "type": "electric_bike", "is_disabled": 0, "lat": 38.95247466666667, "rental_uris": {"ios": "https://dc.lft.to/lastmile_qr_scan", "android": "https://dc.lft.to/lastmile_qr_scan"}, "is_reserved": 0, "fusion_lon": 0.0, "fusion_lat": 0.0, "lon": -76.97675633333333, "name": "28b12e0f85c58772fcdd4486ecfb4e34"}, {"bike_id": "c07dee13a76f4f560cd694aef574e68a", "type": "electric_scooter", "is_disabled": 0, "lat": 38.924707, "rental_uris": {"ios": "https://dc.lft.to/lastmile_qr_scan", "android": "https://dc.lft.to/lastmile_qr_scan"}, "is_reserved": 0, "fusion_lon": 0.0, "fusion_lat": 0.0, "lon": -77.022467, "name": "c07dee13a76f4f560cd694aef574e68a"}, {"bike_id": "eba31c3a895abd00b676ff655ec68048", "type": "electric_bike", "is_disabled": 0, "lat": 38.9632265, "rental_uris": {"ios": "https://dc.lft.to/lastmile_qr_scan", "android": "https://dc.lft.to/lastmile_qr_scan"}, "is_reserved": 0, "fusion_lon": 0.0, "fusion_lat": 0.0, "lon": -76.973643, "name": "eba31c3a895abd00b676ff655ec68048"}, {"bike_id": "7cbdf2090e93815dda87cd3373f3d10d", "type": "electric_scooter", "is_disabled": 0, "lat": 38.923849833333335, "rental_uris": {"ios": "https://dc.lft.to/lastmile_qr_scan", "android": "https://dc.lft.to/lastmile_qr_scan"}, "is_reserved": 0, "fusion_lon": 0.0, "fusion_lat": 0.0, "lon": -77.050594, "name": "7cbdf2090e93815dda87cd3373f3d10d"}, {"bike_id": "c6831720b874e80f5f424a2b3c880d47", "type": "electric_scooter", "is_disabled": 0, "lat": 38.908297833333336, "rental_uris": {"ios": "https://dc.lft.to/lastmile_qr_scan", "android": "https://dc.lft.to/lastmile_qr_scan"}, "is_reserved": 0, "fusion_lon": 0.0, "fusion_lat": 0.0, "lon": -77.04477066666666, "name": "c6831720b874e80f5f424a2b3c880d47"}, {"bike_id": "a578ca4aedbd9e04e4c9abdf098ab43b", "type": "electric_scooter", "is_disabled": 0, "lat": 38.930031666666665, "rental_uris": {"ios": "https://dc.lft.to/lastmile_qr_scan", "android": "https://dc.lft.to/lastmile_qr_scan"}, "is_reserved": 0, "fusion_lon": 0.0, "fusion_lat": 0.0, "lon": -77.03773683333333, "name": "a578ca4aedbd9e04e4c9abdf098ab43b"}, {"bike_id": "1af8f908975a1ea9c92a13d28dd88787", "type": "electric_scooter", "is_disabled": 0, "lat": 38.9328365, "rental_uris": {"ios": "https://dc.lft.to/lastmile_qr_scan", "android": "https://dc.lft.to/lastmile_qr_scan"}, "is_reserved": 0, "fusion_lon": 0.0, "fusion_lat": 0.0, "lon": -77.04045533333333, "name": "1af8f908975a1ea9c92a13d28dd88787"}, {"bike_id": "2751e0b7762ed764f44f50e16d635bc2", "type": "electric_scooter", "is_disabled": 0, "lat": 38.9068885, "rental_uris": {"ios": "https://dc.lft.to/lastmile_qr_scan", "android": "https://dc.lft.to/lastmile_qr_scan"}, "is_reserved": 0, "fusion_lon": 0.0, "fusion_lat": 0.0, "lon": -77.05316683333334, "name": "2751e0b7762ed764f44f50e16d635bc2"}, {"bike_id": "caf3c1159de113ec988998d2554e5410", "type": "electric_scooter", "is_disabled": 0, "lat": 38.862518333333334, "rental_uris": {"ios": "https://dc.lft.to/lastmile_qr_scan", "android": "https://dc.lft.to/lastmile_qr_scan"}, "is_reserved": 0, "fusion_lon": 0.0, "fusion_lat": 0.0, "lon": -76.992625, "name": "caf3c1159de113ec988998d2554e5410"}, {"bike_id": "2e4c0b749a8d958d6069f0d5a70c55d0", "type": "electric_scooter", "is_disabled": 0, "lat": 38.922698833333335, "rental_uris": {"ios": "https://dc.lft.to/lastmile_qr_scan", "android": "https://dc.lft.to/lastmile_qr_scan"}, "is_reserved": 0, "fusion_lon": 0.0, "fusion_lat": 0.0, "lon": -77.01972133333334, "name": "2e4c0b749a8d958d6069f0d5a70c55d0"}, {"bike_id": "169b81751cccf7277933ed9265f04107", "type": "electric_scooter", "is_disabled": 0, "lat": 38.86374266666667, "rental_uris": {"ios": "https://dc.lft.to/lastmile_qr_scan", "android": "https://dc.lft.to/lastmile_qr_scan"}, "is_reserved": 0, "fusion_lon": 0.0, "fusion_lat": 0.0, "lon": -76.9905625, "name": "169b81751cccf7277933ed9265f04107"}, {"bike_id": "0d4bfe36f6e9989e84314c2ed51a26a5", "type": "electric_scooter", "is_disabled": 0, "lat": 38.912576333333334, "rental_uris": {"ios": "https://dc.lft.to/lastmile_qr_scan", "android": "https://dc.lft.to/lastmile_qr_scan"}, "is_reserved": 0, "fusion_lon": 0.0, "fusion_lat": 0.0, "lon": -77.03865833333333, "name": "0d4bfe36f6e9989e84314c2ed51a26a5"}, {"bike_id": "6304fc29ce693d76a12b147c7021d989", "type": "electric_scooter", "is_disabled": 0, "lat": 38.90729283333334, "rental_uris": {"ios": "https://dc.lft.to/lastmile_qr_scan", "android": "https://dc.lft.to/lastmile_qr_scan"}, "is_reserved": 0, "fusion_lon": 0.0, "fusion_lat": 0.0, "lon": -77.00569516666667, "name": "6304fc29ce693d76a12b147c7021d989"}, {"bike_id": "fbf5a6dcd92a1747ace495789fb2eb48", "type": "electric_scooter", "is_disabled": 0, "lat": 38.89241883333333, "rental_uris": {"ios": "https://dc.lft.to/lastmile_qr_scan", "android": "https://dc.lft.to/lastmile_qr_scan"}, "is_reserved": 0, "fusion_lon": 0.0, "fusion_lat": 0.0, "lon": -77.03958066666667, "name": "fbf5a6dcd92a1747ace495789fb2eb48"}, {"bike_id": "012ca383f5c482ad5e3857dd3dff6d02", "type": "electric_scooter", "is_disabled": 0, "lat": 38.916366, "rental_uris": {"ios": "https://dc.lft.to/lastmile_qr_scan", "android": "https://dc.lft.to/lastmile_qr_scan"}, "is_reserved": 0, "fusion_lon": 0.0, "fusion_lat": 0.0, "lon": -77.04817366666667, "name": "012ca383f5c482ad5e3857dd3dff6d02"}, {"bike_id": "0c4d1039d603bc0d65a26a3e4d292f20", "type": "electric_scooter", "is_disabled": 0, "lat": 38.90546533333333, "rental_uris": {"ios": "https://dc.lft.to/lastmile_qr_scan", "android": "https://dc.lft.to/lastmile_qr_scan"}, "is_reserved": 0, "fusion_lon": 0.0, "fusion_lat": 0.0, "lon": -77.0055465, "name": "0c4d1039d603bc0d65a26a3e4d292f20"}, {"bike_id": "665839f2832a14640b89a80219294a6d", "type": "electric_bike", "is_disabled": 0, "lat": 38.90828883333333, "rental_uris": {"ios": "https://dc.lft.to/lastmile_qr_scan", "android": "https://dc.lft.to/lastmile_qr_scan"}, "is_reserved": 0, "fusion_lon": 0.0, "fusion_lat": 0.0, "lon": -76.94156966666667, "name": "665839f2832a14640b89a80219294a6d"}, {"bike_id": "07e8403ce7b9d0994273d6c1a93f79bf", "type": "electric_scooter", "is_disabled": 0, "lat": 38.923563333333334, "rental_uris": {"ios": "https://dc.lft.to/lastmile_qr_scan", "android": "https://dc.lft.to/lastmile_qr_scan"}, "is_reserved": 0, "fusion_lon": 0.0, "fusion_lat": 0.0, "lon": -77.035347, "name": "07e8403ce7b9d0994273d6c1a93f79bf"}, {"bike_id": "b536fd4ec48d373853492a0dc586f75d", "type": "electric_scooter", "is_disabled": 0, "lat": 38.937326, "rental_uris": {"ios": "https://dc.lft.to/lastmile_qr_scan", "android": "https://dc.lft.to/lastmile_qr_scan"}, "is_reserved": 0, "fusion_lon": 0.0, "fusion_lat": 0.0, "lon": -77.05968566666667, "name": "b536fd4ec48d373853492a0dc586f75d"}, {"bike_id": "58babded2de1b47a9e8231f351069128", "type": "electric_scooter", "is_disabled": 0, "lat": 38.90809316666667, "rental_uris": {"ios": "https://dc.lft.to/lastmile_qr_scan", "android": "https://dc.lft.to/lastmile_qr_scan"}, "is_reserved": 0, "fusion_lon": 0.0, "fusion_lat": 0.0, "lon": -77.02029783333333, "name": "58babded2de1b47a9e8231f351069128"}, {"bike_id": "9dd79c67b0035e3b8f325fac02aebc11", "type": "electric_scooter", "is_disabled": 0, "lat": 38.907225833333335, "rental_uris": {"ios": "https://dc.lft.to/lastmile_qr_scan", "android": "https://dc.lft.to/lastmile_qr_scan"}, "is_reserved": 0, "fusion_lon": 0.0, "fusion_lat": 0.0, "lon": -77.02537533333333, "name": "9dd79c67b0035e3b8f325fac02aebc11"}, {"bike_id": "1d0bae9df71c7ba3087703e9207fec55", "type": "electric_scooter", "is_disabled": 0, "lat": 38.887037, "rental_uris": {"ios": "https://dc.lft.to/lastmile_qr_scan", "android": "https://dc.lft.to/lastmile_qr_scan"}, "is_reserved": 0, "fusion_lon": 0.0, "fusion_lat": 0.0, "lon": -77.01374516666667, "name": "1d0bae9df71c7ba3087703e9207fec55"}, {"bike_id": "94399172edebeb34b67baa07cbb0603e", "type": "electric_scooter", "is_disabled": 0, "lat": 38.87405533333333, "rental_uris": {"ios": "https://dc.lft.to/lastmile_qr_scan", "android": "https://dc.lft.to/lastmile_qr_scan"}, "is_reserved": 0, "fusion_lon": 0.0, "fusion_lat": 0.0, "lon": -77.00186566666666, "name": "94399172edebeb34b67baa07cbb0603e"}, {"bike_id": "6e0ca25581640c37e484a515f3f0f743", "type": "electric_scooter", "is_disabled": 0, "lat": 38.92671133333333, "rental_uris": {"ios": "https://dc.lft.to/lastmile_qr_scan", "android": "https://dc.lft.to/lastmile_qr_scan"}, "is_reserved": 0, "fusion_lon": 0.0, "fusion_lat": 0.0, "lon": -77.03195366666667, "name": "6e0ca25581640c37e484a515f3f0f743"}, {"bike_id": "1fc90d7fc39dff7bc3331562f71d5945", "type": "electric_scooter", "is_disabled": 0, "lat": 38.8665685, "rental_uris": {"ios": "https://dc.lft.to/lastmile_qr_scan", "android": "https://dc.lft.to/lastmile_qr_scan"}, "is_reserved": 0, "fusion_lon": 0.0, "fusion_lat": 0.0, "lon": -76.98884366666667, "name": "1fc90d7fc39dff7bc3331562f71d5945"}, {"bike_id": "d79e0d853793a01a619ffc14bfbf26c9", "type": "electric_scooter", "is_disabled": 0, "lat": 38.92240783333333, "rental_uris": {"ios": "https://dc.lft.to/lastmile_qr_scan", "android": "https://dc.lft.to/lastmile_qr_scan"}, "is_reserved": 0, "fusion_lon": 0.0, "fusion_lat": 0.0, "lon": -77.0371065, "name": "d79e0d853793a01a619ffc14bfbf26c9"}, {"bike_id": "41f0d763059b8f744b4256cb11ed9035", "type": "electric_bike", "is_disabled": 0, "lat": 38.8496605, "rental_uris": {"ios": "https://dc.lft.to/lastmile_qr_scan", "android": "https://dc.lft.to/lastmile_qr_scan"}, "is_reserved": 0, "fusion_lon": 0.0, "fusion_lat": 0.0, "lon": -77.07754633333333, "name": "41f0d763059b8f744b4256cb11ed9035"}, {"bike_id": "e802179d8e639e27eb5e54a0fea78f94", "type": "electric_bike", "is_disabled": 0, "lat": 38.9447215, "rental_uris": {"ios": "https://dc.lft.to/lastmile_qr_scan", "android": "https://dc.lft.to/lastmile_qr_scan"}, "is_reserved": 0, "fusion_lon": 0.0, "fusion_lat": 0.0, "lon": -76.9868655, "name": "e802179d8e639e27eb5e54a0fea78f94"}, {"bike_id": "15b6505b349f062e85c9d231e0142f45", "type": "electric_scooter", "is_disabled": 0, "lat": 38.9171345, "rental_uris": {"ios": "https://dc.lft.to/lastmile_qr_scan", "android": "https://dc.lft.to/lastmile_qr_scan"}, "is_reserved": 0, "fusion_lon": 0.0, "fusion_lat": 0.0, "lon": -77.0120855, "name": "15b6505b349f062e85c9d231e0142f45"}, {"bike_id": "6c4dc766422a8755acea6051cd88c8f9", "type": "electric_scooter", "is_disabled": 0, "lat": 38.91682083333333, "rental_uris": {"ios": "https://dc.lft.to/lastmile_qr_scan", "android": "https://dc.lft.to/lastmile_qr_scan"}, "is_reserved": 0, "fusion_lon": 0.0, "fusion_lat": 0.0, "lon": -77.029738, "name": "6c4dc766422a8755acea6051cd88c8f9"}, {"bike_id": "5e95fc5f207626343e639c949d634816", "type": "electric_scooter", "is_disabled": 0, "lat": 38.897307166666664, "rental_uris": {"ios": "https://dc.lft.to/lastmile_qr_scan", "android": "https://dc.lft.to/lastmile_qr_scan"}, "is_reserved": 0, "fusion_lon": 0.0, "fusion_lat": 0.0, "lon": -77.05470683333333, "name": "5e95fc5f207626343e639c949d634816"}, {"bike_id": "7eb35e3f00e5878ebcc1828c0bd772f0", "type": "electric_scooter", "is_disabled": 0, "lat": 38.9059895, "rental_uris": {"ios": "https://dc.lft.to/lastmile_qr_scan", "android": "https://dc.lft.to/lastmile_qr_scan"}, "is_reserved": 0, "fusion_lon": 0.0, "fusion_lat": 0.0, "lon": -77.0271105, "name": "7eb35e3f00e5878ebcc1828c0bd772f0"}, {"bike_id": "e74d75d0d8527723d3279d3eb081a28e", "type": "electric_scooter", "is_disabled": 0, "lat": 38.912289666666666, "rental_uris": {"ios": "https://dc.lft.to/lastmile_qr_scan", "android": "https://dc.lft.to/lastmile_qr_scan"}, "is_reserved": 0, "fusion_lon": 0.0, "fusion_lat": 0.0, "lon": -76.98791066666666, "name": "e74d75d0d8527723d3279d3eb081a28e"}, {"bike_id": "6a28c0f86e41d4a48c1cfacdf7464d49", "type": "electric_scooter", "is_disabled": 0, "lat": 38.90409866666667, "rental_uris": {"ios": "https://dc.lft.to/lastmile_qr_scan", "android": "https://dc.lft.to/lastmile_qr_scan"}, "is_reserved": 0, "fusion_lon": 0.0, "fusion_lat": 0.0, "lon": -77.068639, "name": "6a28c0f86e41d4a48c1cfacdf7464d49"}, {"bike_id": "520456ca080a9733fed4a6f0c2687cf7", "type": "electric_scooter", "is_disabled": 0, "lat": 38.90412883333333, "rental_uris": {"ios": "https://dc.lft.to/lastmile_qr_scan", "android": "https://dc.lft.to/lastmile_qr_scan"}, "is_reserved": 0, "fusion_lon": 0.0, "fusion_lat": 0.0, "lon": -76.9733245, "name": "520456ca080a9733fed4a6f0c2687cf7"}, {"bike_id": "543d3b52888cea437210e141525967a0", "type": "electric_scooter", "is_disabled": 0, "lat": 38.94144266666667, "rental_uris": {"ios": "https://dc.lft.to/lastmile_qr_scan", "android": "https://dc.lft.to/lastmile_qr_scan"}, "is_reserved": 0, "fusion_lon": 0.0, "fusion_lat": 0.0, "lon": -77.09263666666666, "name": "543d3b52888cea437210e141525967a0"}, {"bike_id": "88b35fc63e6f1f71174edba2ac70efc5", "type": "electric_scooter", "is_disabled": 0, "lat": 38.91503133333333, "rental_uris": {"ios": "https://dc.lft.to/lastmile_qr_scan", "android": "https://dc.lft.to/lastmile_qr_scan"}, "is_reserved": 0, "fusion_lon": 0.0, "fusion_lat": 0.0, "lon": -77.01776783333334, "name": "88b35fc63e6f1f71174edba2ac70efc5"}, {"bike_id": "e367ff80706f7ef706e98e541b0ecf74", "type": "electric_bike", "is_disabled": 0, "lat": 38.93175683333333, "rental_uris": {"ios": "https://dc.lft.to/lastmile_qr_scan", "android": "https://dc.lft.to/lastmile_qr_scan"}, "is_reserved": 0, "fusion_lon": 0.0, "fusion_lat": 0.0, "lon": -77.03553833333334, "name": "e367ff80706f7ef706e98e541b0ecf74"}, {"bike_id": "f0acff50335118b03dd7c2f33f5aa578", "type": "electric_scooter", "is_disabled": 0, "lat": 38.902953, "rental_uris": {"ios": "https://dc.lft.to/lastmile_qr_scan", "android": "https://dc.lft.to/lastmile_qr_scan"}, "is_reserved": 0, "fusion_lon": 0.0, "fusion_lat": 0.0, "lon": -77.06524683333333, "name": "f0acff50335118b03dd7c2f33f5aa578"}, {"bike_id": "83ad944c34696beb28a0ec3a1cbf1ab1", "type": "electric_bike", "is_disabled": 0, "lat": 38.9740375, "rental_uris": {"ios": "https://dc.lft.to/lastmile_qr_scan", "android": "https://dc.lft.to/lastmile_qr_scan"}, "is_reserved": 0, "fusion_lon": 0.0, "fusion_lat": 0.0, "lon": -77.06453033333334, "name": "83ad944c34696beb28a0ec3a1cbf1ab1"}, {"bike_id": "5312db1d2ef5fec55833f294cf36d173", "type": "electric_scooter", "is_disabled": 0, "lat": 38.92478766666667, "rental_uris": {"ios": "https://dc.lft.to/lastmile_qr_scan", "android": "https://dc.lft.to/lastmile_qr_scan"}, "is_reserved": 0, "fusion_lon": 0.0, "fusion_lat": 0.0, "lon": -77.02649666666667, "name": "5312db1d2ef5fec55833f294cf36d173"}, {"bike_id": "1fb8dd81ad5165d7688852f92e665ed8", "type": "electric_scooter", "is_disabled": 0, "lat": 38.905825, "rental_uris": {"ios": "https://dc.lft.to/lastmile_qr_scan", "android": "https://dc.lft.to/lastmile_qr_scan"}, "is_reserved": 0, "fusion_lon": 0.0, "fusion_lat": 0.0, "lon": -77.02685233333334, "name": "1fb8dd81ad5165d7688852f92e665ed8"}, {"bike_id": "d24ba049bbaff7ec3a1b65179dd1267c", "type": "electric_scooter", "is_disabled": 0, "lat": 38.88528216666667, "rental_uris": {"ios": "https://dc.lft.to/lastmile_qr_scan", "android": "https://dc.lft.to/lastmile_qr_scan"}, "is_reserved": 0, "fusion_lon": 0.0, "fusion_lat": 0.0, "lon": -76.99818883333333, "name": "d24ba049bbaff7ec3a1b65179dd1267c"}, {"bike_id": "6ed566a275bf942fc9266fc42a280699", "type": "electric_scooter", "is_disabled": 0, "lat": 38.901190666666665, "rental_uris": {"ios": "https://dc.lft.to/lastmile_qr_scan", "android": "https://dc.lft.to/lastmile_qr_scan"}, "is_reserved": 0, "fusion_lon": 0.0, "fusion_lat": 0.0, "lon": -76.92952783333334, "name": "6ed566a275bf942fc9266fc42a280699"}, {"bike_id": "6f64dd3992ff0d3b459b419bdf28d5db", "type": "electric_scooter", "is_disabled": 0, "lat": 38.897675, "rental_uris": {"ios": "https://dc.lft.to/lastmile_qr_scan", "android": "https://dc.lft.to/lastmile_qr_scan"}, "is_reserved": 0, "fusion_lon": 0.0, "fusion_lat": 0.0, "lon": -77.05161, "name": "6f64dd3992ff0d3b459b419bdf28d5db"}, {"bike_id": "441cbae8c5b14e5021cc5131fe02dc00", "type": "electric_scooter", "is_disabled": 0, "lat": 38.956259333333335, "rental_uris": {"ios": "https://dc.lft.to/lastmile_qr_scan", "android": "https://dc.lft.to/lastmile_qr_scan"}, "is_reserved": 0, "fusion_lon": 0.0, "fusion_lat": 0.0, "lon": -77.03613383333334, "name": "441cbae8c5b14e5021cc5131fe02dc00"}, {"bike_id": "82364f6199601dda6005eb26b835caf8", "type": "electric_scooter", "is_disabled": 0, "lat": 38.923282, "rental_uris": {"ios": "https://dc.lft.to/lastmile_qr_scan", "android": "https://dc.lft.to/lastmile_qr_scan"}, "is_reserved": 0, "fusion_lon": 0.0, "fusion_lat": 0.0, "lon": -77.03781166666667, "name": "82364f6199601dda6005eb26b835caf8"}, {"bike_id": "9090bde06c3fba4d0684f0afed4e4405", "type": "electric_scooter", "is_disabled": 0, "lat": 38.899256, "rental_uris": {"ios": "https://dc.lft.to/lastmile_qr_scan", "android": "https://dc.lft.to/lastmile_qr_scan"}, "is_reserved": 0, "fusion_lon": 0.0, "fusion_lat": 0.0, "lon": -77.03928516666667, "name": "9090bde06c3fba4d0684f0afed4e4405"}, {"bike_id": "b1eac6211b63115adacbe37ea8afc26e", "type": "electric_bike", "is_disabled": 0, "lat": 39.037015, "rental_uris": {"ios": "https://dc.lft.to/lastmile_qr_scan", "android": "https://dc.lft.to/lastmile_qr_scan"}, "is_reserved": 0, "fusion_lon": 0.0, "fusion_lat": 0.0, "lon": -77.028639, "name": "b1eac6211b63115adacbe37ea8afc26e"}, {"bike_id": "bb3be9b77588072aaed1423190a4e1c7", "type": "electric_scooter", "is_disabled": 0, "lat": 38.904688, "rental_uris": {"ios": "https://dc.lft.to/lastmile_qr_scan", "android": "https://dc.lft.to/lastmile_qr_scan"}, "is_reserved": 0, "fusion_lon": 0.0, "fusion_lat": 0.0, "lon": -77.029427, "name": "bb3be9b77588072aaed1423190a4e1c7"}, {"bike_id": "16d492eeba0044c1af40d9b2350c8edc", "type": "electric_scooter", "is_disabled": 0, "lat": 38.90192733333333, "rental_uris": {"ios": "https://dc.lft.to/lastmile_qr_scan", "android": "https://dc.lft.to/lastmile_qr_scan"}, "is_reserved": 0, "fusion_lon": 0.0, "fusion_lat": 0.0, "lon": -77.01305283333333, "name": "16d492eeba0044c1af40d9b2350c8edc"}, {"bike_id": "54882a51ecf900fa68a99df5ac913255", "type": "electric_scooter", "is_disabled": 0, "lat": 38.87563183333333, "rental_uris": {"ios": "https://dc.lft.to/lastmile_qr_scan", "android": "https://dc.lft.to/lastmile_qr_scan"}, "is_reserved": 0, "fusion_lon": 0.0, "fusion_lat": 0.0, "lon": -76.95868033333333, "name": "54882a51ecf900fa68a99df5ac913255"}, {"bike_id": "c195f937546a86d0bb51e6d25b60add7", "type": "electric_scooter", "is_disabled": 0, "lat": 38.906291, "rental_uris": {"ios": "https://dc.lft.to/lastmile_qr_scan", "android": "https://dc.lft.to/lastmile_qr_scan"}, "is_reserved": 0, "fusion_lon": 0.0, "fusion_lat": 0.0, "lon": -77.05164, "name": "c195f937546a86d0bb51e6d25b60add7"}, {"bike_id": "8eaa9472128ed6b962f69d5121036392", "type": "electric_scooter", "is_disabled": 0, "lat": 38.915645, "rental_uris": {"ios": "https://dc.lft.to/lastmile_qr_scan", "android": "https://dc.lft.to/lastmile_qr_scan"}, "is_reserved": 0, "fusion_lon": 0.0, "fusion_lat": 0.0, "lon": -77.0372395, "name": "8eaa9472128ed6b962f69d5121036392"}, {"bike_id": "004ab6eb4f9263e43bb6d92dd23c013f", "type": "electric_scooter", "is_disabled": 0, "lat": 38.922475666666664, "rental_uris": {"ios": "https://dc.lft.to/lastmile_qr_scan", "android": "https://dc.lft.to/lastmile_qr_scan"}, "is_reserved": 0, "fusion_lon": 0.0, "fusion_lat": 0.0, "lon": -77.03022383333334, "name": "004ab6eb4f9263e43bb6d92dd23c013f"}, {"bike_id": "9c954015934d39f5e08d0c276e52f13d", "type": "electric_scooter", "is_disabled": 0, "lat": 38.93479766666667, "rental_uris": {"ios": "https://dc.lft.to/lastmile_qr_scan", "android": "https://dc.lft.to/lastmile_qr_scan"}, "is_reserved": 0, "fusion_lon": 0.0, "fusion_lat": 0.0, "lon": -77.03414383333333, "name": "9c954015934d39f5e08d0c276e52f13d"}, {"bike_id": "040dddaaf843f679680be5855aff1840", "type": "electric_scooter", "is_disabled": 0, "lat": 38.939174, "rental_uris": {"ios": "https://dc.lft.to/lastmile_qr_scan", "android": "https://dc.lft.to/lastmile_qr_scan"}, "is_reserved": 0, "fusion_lon": 0.0, "fusion_lat": 0.0, "lon": -77.06047533333333, "name": "040dddaaf843f679680be5855aff1840"}, {"bike_id": "0a254380f63d4463b2613523835fc754", "type": "electric_scooter", "is_disabled": 0, "lat": 38.93135216666667, "rental_uris": {"ios": "https://dc.lft.to/lastmile_qr_scan", "android": "https://dc.lft.to/lastmile_qr_scan"}, "is_reserved": 0, "fusion_lon": 0.0, "fusion_lat": 0.0, "lon": -77.0573, "name": "0a254380f63d4463b2613523835fc754"}, {"bike_id": "3f40141e3d25292d7f0476f921c1581b", "type": "electric_scooter", "is_disabled": 0, "lat": 38.9227425, "rental_uris": {"ios": "https://dc.lft.to/lastmile_qr_scan", "android": "https://dc.lft.to/lastmile_qr_scan"}, "is_reserved": 0, "fusion_lon": 0.0, "fusion_lat": 0.0, "lon": -77.01882516666667, "name": "3f40141e3d25292d7f0476f921c1581b"}, {"bike_id": "dd10f07f0a2a08161bef76974e6aef52", "type": "electric_bike", "is_disabled": 0, "lat": 38.863335666666664, "rental_uris": {"ios": "https://dc.lft.to/lastmile_qr_scan", "android": "https://dc.lft.to/lastmile_qr_scan"}, "is_reserved": 0, "fusion_lon": 0.0, "fusion_lat": 0.0, "lon": -76.98721966666666, "name": "dd10f07f0a2a08161bef76974e6aef52"}, {"bike_id": "16009e38d0fe09670b0a835c790a251b", "type": "electric_scooter", "is_disabled": 0, "lat": 38.93376, "rental_uris": {"ios": "https://dc.lft.to/lastmile_qr_scan", "android": "https://dc.lft.to/lastmile_qr_scan"}, "is_reserved": 0, "fusion_lon": 0.0, "fusion_lat": 0.0, "lon": -77.05731466666667, "name": "16009e38d0fe09670b0a835c790a251b"}, {"bike_id": "82cac3121f7c734f6723ecb219cb6a87", "type": "electric_scooter", "is_disabled": 0, "lat": 38.905237, "rental_uris": {"ios": "https://dc.lft.to/lastmile_qr_scan", "android": "https://dc.lft.to/lastmile_qr_scan"}, "is_reserved": 0, "fusion_lon": 0.0, "fusion_lat": 0.0, "lon": -76.98624916666667, "name": "82cac3121f7c734f6723ecb219cb6a87"}, {"bike_id": "a3df90428ea594546e3fb271bf09435c", "type": "electric_scooter", "is_disabled": 0, "lat": 38.86234116666667, "rental_uris": {"ios": "https://dc.lft.to/lastmile_qr_scan", "android": "https://dc.lft.to/lastmile_qr_scan"}, "is_reserved": 0, "fusion_lon": 0.0, "fusion_lat": 0.0, "lon": -76.99509883333333, "name": "a3df90428ea594546e3fb271bf09435c"}, {"bike_id": "19893885b1b751373f9f329b91bf40d0", "type": "electric_scooter", "is_disabled": 0, "lat": 38.9216315, "rental_uris": {"ios": "https://dc.lft.to/lastmile_qr_scan", "android": "https://dc.lft.to/lastmile_qr_scan"}, "is_reserved": 0, "fusion_lon": 0.0, "fusion_lat": 0.0, "lon": -77.03845033333333, "name": "19893885b1b751373f9f329b91bf40d0"}, {"bike_id": "817a25fc83564d69c2db427df393b44c", "type": "electric_bike", "is_disabled": 0, "lat": 38.90626133333333, "rental_uris": {"ios": "https://dc.lft.to/lastmile_qr_scan", "android": "https://dc.lft.to/lastmile_qr_scan"}, "is_reserved": 0, "fusion_lon": 0.0, "fusion_lat": 0.0, "lon": -76.985949, "name": "817a25fc83564d69c2db427df393b44c"}, {"bike_id": "dee95e3e170d6355972628f33e75f189", "type": "electric_scooter", "is_disabled": 0, "lat": 38.90965466666667, "rental_uris": {"ios": "https://dc.lft.to/lastmile_qr_scan", "android": "https://dc.lft.to/lastmile_qr_scan"}, "is_reserved": 0, "fusion_lon": 0.0, "fusion_lat": 0.0, "lon": -77.022895, "name": "dee95e3e170d6355972628f33e75f189"}, {"bike_id": "38569484344926efceaa36c536c5b8f9", "type": "electric_scooter", "is_disabled": 0, "lat": 38.91689683333333, "rental_uris": {"ios": "https://dc.lft.to/lastmile_qr_scan", "android": "https://dc.lft.to/lastmile_qr_scan"}, "is_reserved": 0, "fusion_lon": 0.0, "fusion_lat": 0.0, "lon": -77.02601866666667, "name": "38569484344926efceaa36c536c5b8f9"}, {"bike_id": "e367d2d922a6cfd5a71dac6597616050", "type": "electric_bike", "is_disabled": 0, "lat": 38.82952983333333, "rental_uris": {"ios": "https://dc.lft.to/lastmile_qr_scan", "android": "https://dc.lft.to/lastmile_qr_scan"}, "is_reserved": 0, "fusion_lon": 0.0, "fusion_lat": 0.0, "lon": -77.12355716666667, "name": "e367d2d922a6cfd5a71dac6597616050"}, {"bike_id": "9c90e2df5a8a474e5ae82e1c1fb927bb", "type": "electric_scooter", "is_disabled": 0, "lat": 38.867003, "rental_uris": {"ios": "https://dc.lft.to/lastmile_qr_scan", "android": "https://dc.lft.to/lastmile_qr_scan"}, "is_reserved": 0, "fusion_lon": 0.0, "fusion_lat": 0.0, "lon": -76.98715116666666, "name": "9c90e2df5a8a474e5ae82e1c1fb927bb"}, {"bike_id": "d89136334df3d1580f45ab3447696565", "type": "electric_scooter", "is_disabled": 0, "lat": 38.86204566666667, "rental_uris": {"ios": "https://dc.lft.to/lastmile_qr_scan", "android": "https://dc.lft.to/lastmile_qr_scan"}, "is_reserved": 0, "fusion_lon": 0.0, "fusion_lat": 0.0, "lon": -76.99466233333334, "name": "d89136334df3d1580f45ab3447696565"}, {"bike_id": "8996617f765d50ec44845e31a3dad0d6", "type": "electric_scooter", "is_disabled": 0, "lat": 38.9471585, "rental_uris": {"ios": "https://dc.lft.to/lastmile_qr_scan", "android": "https://dc.lft.to/lastmile_qr_scan"}, "is_reserved": 0, "fusion_lon": 0.0, "fusion_lat": 0.0, "lon": -77.02779216666667, "name": "8996617f765d50ec44845e31a3dad0d6"}, {"bike_id": "a0ab1da6a9f0d0264abd7ebaa1024da9", "type": "electric_scooter", "is_disabled": 0, "lat": 38.899250333333335, "rental_uris": {"ios": "https://dc.lft.to/lastmile_qr_scan", "android": "https://dc.lft.to/lastmile_qr_scan"}, "is_reserved": 0, "fusion_lon": 0.0, "fusion_lat": 0.0, "lon": -77.00365083333334, "name": "a0ab1da6a9f0d0264abd7ebaa1024da9"}, {"bike_id": "21962034b41e635917e6b5f7ddf01231", "type": "electric_scooter", "is_disabled": 0, "lat": 38.857491333333336, "rental_uris": {"ios": "https://dc.lft.to/lastmile_qr_scan", "android": "https://dc.lft.to/lastmile_qr_scan"}, "is_reserved": 0, "fusion_lon": 0.0, "fusion_lat": 0.0, "lon": -76.99308066666667, "name": "21962034b41e635917e6b5f7ddf01231"}, {"bike_id": "39b9ffb2511f3fc516984823cd4ac735", "type": "electric_scooter", "is_disabled": 0, "lat": 38.93818516666666, "rental_uris": {"ios": "https://dc.lft.to/lastmile_qr_scan", "android": "https://dc.lft.to/lastmile_qr_scan"}, "is_reserved": 0, "fusion_lon": 0.0, "fusion_lat": 0.0, "lon": -77.0271125, "name": "39b9ffb2511f3fc516984823cd4ac735"}, {"bike_id": "943b5e5073f6428a4bb5ba16929f96bd", "type": "electric_scooter", "is_disabled": 0, "lat": 38.89478616666667, "rental_uris": {"ios": "https://dc.lft.to/lastmile_qr_scan", "android": "https://dc.lft.to/lastmile_qr_scan"}, "is_reserved": 0, "fusion_lon": 0.0, "fusion_lat": 0.0, "lon": -76.99518783333333, "name": "943b5e5073f6428a4bb5ba16929f96bd"}, {"bike_id": "ca38152dac59b1cafcf93fa37bf6925f", "type": "electric_scooter", "is_disabled": 0, "lat": 38.923550666666664, "rental_uris": {"ios": "https://dc.lft.to/lastmile_qr_scan", "android": "https://dc.lft.to/lastmile_qr_scan"}, "is_reserved": 0, "fusion_lon": 0.0, "fusion_lat": 0.0, "lon": -77.03543966666666, "name": "ca38152dac59b1cafcf93fa37bf6925f"}, {"bike_id": "4e23d0564f5af23301f9398a94b4fc63", "type": "electric_scooter", "is_disabled": 0, "lat": 38.933550333333336, "rental_uris": {"ios": "https://dc.lft.to/lastmile_qr_scan", "android": "https://dc.lft.to/lastmile_qr_scan"}, "is_reserved": 0, "fusion_lon": 0.0, "fusion_lat": 0.0, "lon": -77.07308083333334, "name": "4e23d0564f5af23301f9398a94b4fc63"}, {"bike_id": "fc35700a0baaccf50396d5526dade67f", "type": "electric_scooter", "is_disabled": 0, "lat": 38.914036333333335, "rental_uris": {"ios": "https://dc.lft.to/lastmile_qr_scan", "android": "https://dc.lft.to/lastmile_qr_scan"}, "is_reserved": 0, "fusion_lon": 0.0, "fusion_lat": 0.0, "lon": -77.0359415, "name": "fc35700a0baaccf50396d5526dade67f"}, {"bike_id": "6d56c0834f3cd3d4acf27663655dbee5", "type": "electric_scooter", "is_disabled": 0, "lat": 38.90841, "rental_uris": {"ios": "https://dc.lft.to/lastmile_qr_scan", "android": "https://dc.lft.to/lastmile_qr_scan"}, "is_reserved": 0, "fusion_lon": 0.0, "fusion_lat": 0.0, "lon": -77.02697433333333, "name": "6d56c0834f3cd3d4acf27663655dbee5"}, {"bike_id": "d05362021e3f4613f5c168451a4bf471", "type": "electric_scooter", "is_disabled": 0, "lat": 38.935141333333334, "rental_uris": {"ios": "https://dc.lft.to/lastmile_qr_scan", "android": "https://dc.lft.to/lastmile_qr_scan"}, "is_reserved": 0, "fusion_lon": 0.0, "fusion_lat": 0.0, "lon": -77.034472, "name": "d05362021e3f4613f5c168451a4bf471"}, {"bike_id": "7b19b2d4b65258594481a2a0041cdc6e", "type": "electric_scooter", "is_disabled": 0, "lat": 38.84313183333333, "rental_uris": {"ios": "https://dc.lft.to/lastmile_qr_scan", "android": "https://dc.lft.to/lastmile_qr_scan"}, "is_reserved": 0, "fusion_lon": 0.0, "fusion_lat": 0.0, "lon": -76.99916666666667, "name": "7b19b2d4b65258594481a2a0041cdc6e"}, {"bike_id": "f5d452e81764e3737bbd75f4f8abca24", "type": "electric_scooter", "is_disabled": 0, "lat": 38.908077166666665, "rental_uris": {"ios": "https://dc.lft.to/lastmile_qr_scan", "android": "https://dc.lft.to/lastmile_qr_scan"}, "is_reserved": 0, "fusion_lon": 0.0, "fusion_lat": 0.0, "lon": -77.03056916666667, "name": "f5d452e81764e3737bbd75f4f8abca24"}, {"bike_id": "3b23661b146c79c758510cd33206e2a5", "type": "electric_scooter", "is_disabled": 0, "lat": 38.912723166666666, "rental_uris": {"ios": "https://dc.lft.to/lastmile_qr_scan", "android": "https://dc.lft.to/lastmile_qr_scan"}, "is_reserved": 0, "fusion_lon": 0.0, "fusion_lat": 0.0, "lon": -77.01222116666666, "name": "3b23661b146c79c758510cd33206e2a5"}, {"bike_id": "8068e11f8c725a9f24bbd5f472cade4a", "type": "electric_scooter", "is_disabled": 0, "lat": 38.92823766666667, "rental_uris": {"ios": "https://dc.lft.to/lastmile_qr_scan", "android": "https://dc.lft.to/lastmile_qr_scan"}, "is_reserved": 0, "fusion_lon": 0.0, "fusion_lat": 0.0, "lon": -77.02250066666667, "name": "8068e11f8c725a9f24bbd5f472cade4a"}, {"bike_id": "1800781dc06703b7770d9838ac481eac", "type": "electric_bike", "is_disabled": 0, "lat": 38.879191, "rental_uris": {"ios": "https://dc.lft.to/lastmile_qr_scan", "android": "https://dc.lft.to/lastmile_qr_scan"}, "is_reserved": 0, "fusion_lon": 0.0, "fusion_lat": 0.0, "lon": -77.00669083333334, "name": "1800781dc06703b7770d9838ac481eac"}, {"bike_id": "8219906a973234384d6a83dd1e3501b0", "type": "electric_scooter", "is_disabled": 0, "lat": 38.9161335, "rental_uris": {"ios": "https://dc.lft.to/lastmile_qr_scan", "android": "https://dc.lft.to/lastmile_qr_scan"}, "is_reserved": 0, "fusion_lon": 0.0, "fusion_lat": 0.0, "lon": -77.02386983333334, "name": "8219906a973234384d6a83dd1e3501b0"}, {"bike_id": "69f6bcb61c68f4e89b1239bf62571a33", "type": "electric_scooter", "is_disabled": 0, "lat": 38.9131535, "rental_uris": {"ios": "https://dc.lft.to/lastmile_qr_scan", "android": "https://dc.lft.to/lastmile_qr_scan"}, "is_reserved": 0, "fusion_lon": 0.0, "fusion_lat": 0.0, "lon": -77.04477916666667, "name": "69f6bcb61c68f4e89b1239bf62571a33"}, {"bike_id": "f37298c567a704a5bcfb98d007a389be", "type": "electric_scooter", "is_disabled": 0, "lat": 38.9056255, "rental_uris": {"ios": "https://dc.lft.to/lastmile_qr_scan", "android": "https://dc.lft.to/lastmile_qr_scan"}, "is_reserved": 0, "fusion_lon": 0.0, "fusion_lat": 0.0, "lon": -77.06527183333333, "name": "f37298c567a704a5bcfb98d007a389be"}, {"bike_id": "55db8a6a58dbde25ec0555385d594bec", "type": "electric_scooter", "is_disabled": 0, "lat": 38.923647333333335, "rental_uris": {"ios": "https://dc.lft.to/lastmile_qr_scan", "android": "https://dc.lft.to/lastmile_qr_scan"}, "is_reserved": 0, "fusion_lon": 0.0, "fusion_lat": 0.0, "lon": -77.05133683333334, "name": "55db8a6a58dbde25ec0555385d594bec"}, {"bike_id": "41aa3a70e078a3fa1029861b52ae25c5", "type": "electric_scooter", "is_disabled": 0, "lat": 38.9128475, "rental_uris": {"ios": "https://dc.lft.to/lastmile_qr_scan", "android": "https://dc.lft.to/lastmile_qr_scan"}, "is_reserved": 0, "fusion_lon": 0.0, "fusion_lat": 0.0, "lon": -77.06112983333334, "name": "41aa3a70e078a3fa1029861b52ae25c5"}, {"bike_id": "3d0b7783a35e59205f9bbd9c98e66859", "type": "electric_scooter", "is_disabled": 0, "lat": 38.900716, "rental_uris": {"ios": "https://dc.lft.to/lastmile_qr_scan", "android": "https://dc.lft.to/lastmile_qr_scan"}, "is_reserved": 0, "fusion_lon": 0.0, "fusion_lat": 0.0, "lon": -77.0364575, "name": "3d0b7783a35e59205f9bbd9c98e66859"}, {"bike_id": "538626e1c567002adefa0bd4105b242d", "type": "electric_scooter", "is_disabled": 0, "lat": 38.91405783333333, "rental_uris": {"ios": "https://dc.lft.to/lastmile_qr_scan", "android": "https://dc.lft.to/lastmile_qr_scan"}, "is_reserved": 0, "fusion_lon": 0.0, "fusion_lat": 0.0, "lon": -77.0211345, "name": "538626e1c567002adefa0bd4105b242d"}, {"bike_id": "554cced5e96c490ea8a6a19f688b64e8", "type": "electric_scooter", "is_disabled": 0, "lat": 38.903718, "rental_uris": {"ios": "https://dc.lft.to/lastmile_qr_scan", "android": "https://dc.lft.to/lastmile_qr_scan"}, "is_reserved": 0, "fusion_lon": 0.0, "fusion_lat": 0.0, "lon": -77.03838216666666, "name": "554cced5e96c490ea8a6a19f688b64e8"}, {"bike_id": "6c2cbe9b192944b7a12ece4a0c30df3e", "type": "electric_bike", "is_disabled": 0, "lat": 38.84274216666667, "rental_uris": {"ios": "https://dc.lft.to/lastmile_qr_scan", "android": "https://dc.lft.to/lastmile_qr_scan"}, "is_reserved": 0, "fusion_lon": 0.0, "fusion_lat": 0.0, "lon": -76.98839716666667, "name": "6c2cbe9b192944b7a12ece4a0c30df3e"}, {"bike_id": "4b741da709d8bccfc97f5524ea54f6ae", "type": "electric_scooter", "is_disabled": 0, "lat": 38.926019, "rental_uris": {"ios": "https://dc.lft.to/lastmile_qr_scan", "android": "https://dc.lft.to/lastmile_qr_scan"}, "is_reserved": 0, "fusion_lon": 0.0, "fusion_lat": 0.0, "lon": -77.0732665, "name": "4b741da709d8bccfc97f5524ea54f6ae"}, {"bike_id": "219c9f79c825f9c7b0e64f74ecd858e7", "type": "electric_scooter", "is_disabled": 0, "lat": 38.935378666666665, "rental_uris": {"ios": "https://dc.lft.to/lastmile_qr_scan", "android": "https://dc.lft.to/lastmile_qr_scan"}, "is_reserved": 0, "fusion_lon": 0.0, "fusion_lat": 0.0, "lon": -77.03397966666667, "name": "219c9f79c825f9c7b0e64f74ecd858e7"}, {"bike_id": "6899a01f186cd1760e5ef2ed8bdc6608", "type": "electric_scooter", "is_disabled": 0, "lat": 38.888876833333335, "rental_uris": {"ios": "https://dc.lft.to/lastmile_qr_scan", "android": "https://dc.lft.to/lastmile_qr_scan"}, "is_reserved": 0, "fusion_lon": 0.0, "fusion_lat": 0.0, "lon": -77.03328333333333, "name": "6899a01f186cd1760e5ef2ed8bdc6608"}, {"bike_id": "312fe9aa4a51fa5a8802441f05ed4f20", "type": "electric_scooter", "is_disabled": 0, "lat": 38.861779166666665, "rental_uris": {"ios": "https://dc.lft.to/lastmile_qr_scan", "android": "https://dc.lft.to/lastmile_qr_scan"}, "is_reserved": 0, "fusion_lon": 0.0, "fusion_lat": 0.0, "lon": -77.0880535, "name": "312fe9aa4a51fa5a8802441f05ed4f20"}, {"bike_id": "547030da540d7c4a8a86528b507d31a2", "type": "electric_scooter", "is_disabled": 0, "lat": 38.921402, "rental_uris": {"ios": "https://dc.lft.to/lastmile_qr_scan", "android": "https://dc.lft.to/lastmile_qr_scan"}, "is_reserved": 0, "fusion_lon": 0.0, "fusion_lat": 0.0, "lon": -77.018077, "name": "547030da540d7c4a8a86528b507d31a2"}, {"bike_id": "36b9067fc5049cb2ff1c6db68aab538b", "type": "electric_scooter", "is_disabled": 0, "lat": 38.9169955, "rental_uris": {"ios": "https://dc.lft.to/lastmile_qr_scan", "android": "https://dc.lft.to/lastmile_qr_scan"}, "is_reserved": 0, "fusion_lon": 0.0, "fusion_lat": 0.0, "lon": -77.01051733333334, "name": "36b9067fc5049cb2ff1c6db68aab538b"}, {"bike_id": "f691fa541660272df45baa97d2ed285a", "type": "electric_scooter", "is_disabled": 0, "lat": 38.88096866666667, "rental_uris": {"ios": "https://dc.lft.to/lastmile_qr_scan", "android": "https://dc.lft.to/lastmile_qr_scan"}, "is_reserved": 0, "fusion_lon": 0.0, "fusion_lat": 0.0, "lon": -77.0176835, "name": "f691fa541660272df45baa97d2ed285a"}, {"bike_id": "7431709309c5b53778df40289d4141a8", "type": "electric_scooter", "is_disabled": 0, "lat": 38.9234015, "rental_uris": {"ios": "https://dc.lft.to/lastmile_qr_scan", "android": "https://dc.lft.to/lastmile_qr_scan"}, "is_reserved": 0, "fusion_lon": 0.0, "fusion_lat": 0.0, "lon": -77.03612116666666, "name": "7431709309c5b53778df40289d4141a8"}, {"bike_id": "10d484bc0209cf3645a5939b2c5a0a31", "type": "electric_scooter", "is_disabled": 0, "lat": 38.907279833333334, "rental_uris": {"ios": "https://dc.lft.to/lastmile_qr_scan", "android": "https://dc.lft.to/lastmile_qr_scan"}, "is_reserved": 0, "fusion_lon": 0.0, "fusion_lat": 0.0, "lon": -77.0320835, "name": "10d484bc0209cf3645a5939b2c5a0a31"}, {"bike_id": "46730be23b11a91d69082856d2c40b29", "type": "electric_scooter", "is_disabled": 0, "lat": 38.905511833333335, "rental_uris": {"ios": "https://dc.lft.to/lastmile_qr_scan", "android": "https://dc.lft.to/lastmile_qr_scan"}, "is_reserved": 0, "fusion_lon": 0.0, "fusion_lat": 0.0, "lon": -77.05147333333333, "name": "46730be23b11a91d69082856d2c40b29"}, {"bike_id": "ff80e9a500cebdfff856a9489cc3a7ec", "type": "electric_scooter", "is_disabled": 0, "lat": 38.9219045, "rental_uris": {"ios": "https://dc.lft.to/lastmile_qr_scan", "android": "https://dc.lft.to/lastmile_qr_scan"}, "is_reserved": 0, "fusion_lon": 0.0, "fusion_lat": 0.0, "lon": -77.02090966666667, "name": "ff80e9a500cebdfff856a9489cc3a7ec"}, {"bike_id": "6d607e3ef3d4efa8ab5a7781f8a676f6", "type": "electric_scooter", "is_disabled": 0, "lat": 38.91421883333334, "rental_uris": {"ios": "https://dc.lft.to/lastmile_qr_scan", "android": "https://dc.lft.to/lastmile_qr_scan"}, "is_reserved": 0, "fusion_lon": 0.0, "fusion_lat": 0.0, "lon": -77.03264666666666, "name": "6d607e3ef3d4efa8ab5a7781f8a676f6"}, {"bike_id": "ff2e067744bcbc0438906f0d6c28a212", "type": "electric_scooter", "is_disabled": 0, "lat": 38.909345333333334, "rental_uris": {"ios": "https://dc.lft.to/lastmile_qr_scan", "android": "https://dc.lft.to/lastmile_qr_scan"}, "is_reserved": 0, "fusion_lon": 0.0, "fusion_lat": 0.0, "lon": -77.04939516666667, "name": "ff2e067744bcbc0438906f0d6c28a212"}, {"bike_id": "9a7b4f0abeb75dbc2a338680325d6bcd", "type": "electric_scooter", "is_disabled": 0, "lat": 38.922202666666664, "rental_uris": {"ios": "https://dc.lft.to/lastmile_qr_scan", "android": "https://dc.lft.to/lastmile_qr_scan"}, "is_reserved": 0, "fusion_lon": 0.0, "fusion_lat": 0.0, "lon": -77.02664733333333, "name": "9a7b4f0abeb75dbc2a338680325d6bcd"}, {"bike_id": "5de9a4327775241b44960d84af19fb54", "type": "electric_scooter", "is_disabled": 0, "lat": 38.921661666666665, "rental_uris": {"ios": "https://dc.lft.to/lastmile_qr_scan", "android": "https://dc.lft.to/lastmile_qr_scan"}, "is_reserved": 0, "fusion_lon": 0.0, "fusion_lat": 0.0, "lon": -77.0402685, "name": "5de9a4327775241b44960d84af19fb54"}, {"bike_id": "df211499197fa8064f106af4bb8cea0e", "type": "electric_scooter", "is_disabled": 0, "lat": 38.93697516666667, "rental_uris": {"ios": "https://dc.lft.to/lastmile_qr_scan", "android": "https://dc.lft.to/lastmile_qr_scan"}, "is_reserved": 0, "fusion_lon": 0.0, "fusion_lat": 0.0, "lon": -77.0326205, "name": "df211499197fa8064f106af4bb8cea0e"}, {"bike_id": "5a6600e1be2b0edb76508596bd08150a", "type": "electric_scooter", "is_disabled": 0, "lat": 38.915433666666665, "rental_uris": {"ios": "https://dc.lft.to/lastmile_qr_scan", "android": "https://dc.lft.to/lastmile_qr_scan"}, "is_reserved": 0, "fusion_lon": 0.0, "fusion_lat": 0.0, "lon": -77.0122395, "name": "5a6600e1be2b0edb76508596bd08150a"}, {"bike_id": "a204a4afa18118620eb9d050ae3fd530", "type": "electric_bike", "is_disabled": 0, "lat": 38.97157283333333, "rental_uris": {"ios": "https://dc.lft.to/lastmile_qr_scan", "android": "https://dc.lft.to/lastmile_qr_scan"}, "is_reserved": 0, "fusion_lon": 0.0, "fusion_lat": 0.0, "lon": -77.02720566666666, "name": "a204a4afa18118620eb9d050ae3fd530"}, {"bike_id": "565a0556d6e1ddaa66b5f3a3ea50c419", "type": "electric_scooter", "is_disabled": 0, "lat": 38.927902, "rental_uris": {"ios": "https://dc.lft.to/lastmile_qr_scan", "android": "https://dc.lft.to/lastmile_qr_scan"}, "is_reserved": 0, "fusion_lon": 0.0, "fusion_lat": 0.0, "lon": -77.02131666666666, "name": "565a0556d6e1ddaa66b5f3a3ea50c419"}, {"bike_id": "12c45185f7ccfb4c7df048dddbe474d4", "type": "electric_scooter", "is_disabled": 0, "lat": 38.93633, "rental_uris": {"ios": "https://dc.lft.to/lastmile_qr_scan", "android": "https://dc.lft.to/lastmile_qr_scan"}, "is_reserved": 0, "fusion_lon": 0.0, "fusion_lat": 0.0, "lon": -77.0588315, "name": "12c45185f7ccfb4c7df048dddbe474d4"}, {"bike_id": "3436446c78296df2fee052f4784cc264", "type": "electric_scooter", "is_disabled": 0, "lat": 38.9028025, "rental_uris": {"ios": "https://dc.lft.to/lastmile_qr_scan", "android": "https://dc.lft.to/lastmile_qr_scan"}, "is_reserved": 0, "fusion_lon": 0.0, "fusion_lat": 0.0, "lon": -77.057961, "name": "3436446c78296df2fee052f4784cc264"}, {"bike_id": "a88968c1d33084aa88dd18e506951398", "type": "electric_scooter", "is_disabled": 0, "lat": 38.91106816666667, "rental_uris": {"ios": "https://dc.lft.to/lastmile_qr_scan", "android": "https://dc.lft.to/lastmile_qr_scan"}, "is_reserved": 0, "fusion_lon": 0.0, "fusion_lat": 0.0, "lon": -77.01157383333333, "name": "a88968c1d33084aa88dd18e506951398"}, {"bike_id": "63daaee76d455b4d5bf4c76e564029b3", "type": "electric_scooter", "is_disabled": 0, "lat": 38.8984325, "rental_uris": {"ios": "https://dc.lft.to/lastmile_qr_scan", "android": "https://dc.lft.to/lastmile_qr_scan"}, "is_reserved": 0, "fusion_lon": 0.0, "fusion_lat": 0.0, "lon": -76.946293, "name": "63daaee76d455b4d5bf4c76e564029b3"}, {"bike_id": "d6e60c8574e08bb3cd7004a52298ceaf", "type": "electric_scooter", "is_disabled": 0, "lat": 38.932489, "rental_uris": {"ios": "https://dc.lft.to/lastmile_qr_scan", "android": "https://dc.lft.to/lastmile_qr_scan"}, "is_reserved": 0, "fusion_lon": 0.0, "fusion_lat": 0.0, "lon": -77.02002133333333, "name": "d6e60c8574e08bb3cd7004a52298ceaf"}, {"bike_id": "ea6c0c3e4ee73bc9a12c50df8316625c", "type": "electric_scooter", "is_disabled": 0, "lat": 38.87070116666666, "rental_uris": {"ios": "https://dc.lft.to/lastmile_qr_scan", "android": "https://dc.lft.to/lastmile_qr_scan"}, "is_reserved": 0, "fusion_lon": 0.0, "fusion_lat": 0.0, "lon": -76.98130333333333, "name": "ea6c0c3e4ee73bc9a12c50df8316625c"}, {"bike_id": "d83e9aa7d29dedd7aba2fad65584f6d3", "type": "electric_scooter", "is_disabled": 0, "lat": 38.91638016666667, "rental_uris": {"ios": "https://dc.lft.to/lastmile_qr_scan", "android": "https://dc.lft.to/lastmile_qr_scan"}, "is_reserved": 0, "fusion_lon": 0.0, "fusion_lat": 0.0, "lon": -77.01426583333334, "name": "d83e9aa7d29dedd7aba2fad65584f6d3"}, {"bike_id": "96131bbcf6701cd19b39b54bbaf017d8", "type": "electric_bike", "is_disabled": 0, "lat": 38.861487833333335, "rental_uris": {"ios": "https://dc.lft.to/lastmile_qr_scan", "android": "https://dc.lft.to/lastmile_qr_scan"}, "is_reserved": 0, "fusion_lon": 0.0, "fusion_lat": 0.0, "lon": -77.091424, "name": "96131bbcf6701cd19b39b54bbaf017d8"}, {"bike_id": "f08bcf2aa334b9b27523c2ca75845e45", "type": "electric_bike", "is_disabled": 0, "lat": 38.929689833333335, "rental_uris": {"ios": "https://dc.lft.to/lastmile_qr_scan", "android": "https://dc.lft.to/lastmile_qr_scan"}, "is_reserved": 0, "fusion_lon": 0.0, "fusion_lat": 0.0, "lon": -77.18565466666666, "name": "f08bcf2aa334b9b27523c2ca75845e45"}, {"bike_id": "a35398e56b117df776b0d24c19f2388a", "type": "electric_scooter", "is_disabled": 0, "lat": 38.93511133333333, "rental_uris": {"ios": "https://dc.lft.to/lastmile_qr_scan", "android": "https://dc.lft.to/lastmile_qr_scan"}, "is_reserved": 0, "fusion_lon": 0.0, "fusion_lat": 0.0, "lon": -77.03358366666667, "name": "a35398e56b117df776b0d24c19f2388a"}, {"bike_id": "35a6c8e456441bf358bbf45554dfa8b5", "type": "electric_scooter", "is_disabled": 0, "lat": 38.893384833333336, "rental_uris": {"ios": "https://dc.lft.to/lastmile_qr_scan", "android": "https://dc.lft.to/lastmile_qr_scan"}, "is_reserved": 0, "fusion_lon": 0.0, "fusion_lat": 0.0, "lon": -76.95054283333333, "name": "35a6c8e456441bf358bbf45554dfa8b5"}, {"bike_id": "4ce38693cfc99e1053430384e7100383", "type": "electric_scooter", "is_disabled": 0, "lat": 38.90085216666667, "rental_uris": {"ios": "https://dc.lft.to/lastmile_qr_scan", "android": "https://dc.lft.to/lastmile_qr_scan"}, "is_reserved": 0, "fusion_lon": 0.0, "fusion_lat": 0.0, "lon": -76.9833895, "name": "4ce38693cfc99e1053430384e7100383"}, {"bike_id": "95a46ff357200b6f8699ce7f31399583", "type": "electric_scooter", "is_disabled": 0, "lat": 38.914037, "rental_uris": {"ios": "https://dc.lft.to/lastmile_qr_scan", "android": "https://dc.lft.to/lastmile_qr_scan"}, "is_reserved": 0, "fusion_lon": 0.0, "fusion_lat": 0.0, "lon": -77.032211, "name": "95a46ff357200b6f8699ce7f31399583"}, {"bike_id": "4e4e50a95d0c53de27ca0fb0507bd78d", "type": "electric_scooter", "is_disabled": 0, "lat": 38.9027165, "rental_uris": {"ios": "https://dc.lft.to/lastmile_qr_scan", "android": "https://dc.lft.to/lastmile_qr_scan"}, "is_reserved": 0, "fusion_lon": 0.0, "fusion_lat": 0.0, "lon": -77.03374683333334, "name": "4e4e50a95d0c53de27ca0fb0507bd78d"}, {"bike_id": "8608f8582cb05a2c1910eed20a073939", "type": "electric_scooter", "is_disabled": 0, "lat": 38.9247135, "rental_uris": {"ios": "https://dc.lft.to/lastmile_qr_scan", "android": "https://dc.lft.to/lastmile_qr_scan"}, "is_reserved": 0, "fusion_lon": 0.0, "fusion_lat": 0.0, "lon": -77.05212816666666, "name": "8608f8582cb05a2c1910eed20a073939"}, {"bike_id": "3bc706331677272356504427e5db0bbd", "type": "electric_scooter", "is_disabled": 0, "lat": 38.9003735, "rental_uris": {"ios": "https://dc.lft.to/lastmile_qr_scan", "android": "https://dc.lft.to/lastmile_qr_scan"}, "is_reserved": 0, "fusion_lon": 0.0, "fusion_lat": 0.0, "lon": -77.03663, "name": "3bc706331677272356504427e5db0bbd"}, {"bike_id": "2cd887c372ff66ad718b647e3a3b5f05", "type": "electric_scooter", "is_disabled": 0, "lat": 38.91074416666667, "rental_uris": {"ios": "https://dc.lft.to/lastmile_qr_scan", "android": "https://dc.lft.to/lastmile_qr_scan"}, "is_reserved": 0, "fusion_lon": 0.0, "fusion_lat": 0.0, "lon": -77.03851133333333, "name": "2cd887c372ff66ad718b647e3a3b5f05"}, {"bike_id": "9145cdd6d5e86c04be86d922a29c63b0", "type": "electric_scooter", "is_disabled": 0, "lat": 38.87381083333333, "rental_uris": {"ios": "https://dc.lft.to/lastmile_qr_scan", "android": "https://dc.lft.to/lastmile_qr_scan"}, "is_reserved": 0, "fusion_lon": 0.0, "fusion_lat": 0.0, "lon": -77.04327816666667, "name": "9145cdd6d5e86c04be86d922a29c63b0"}, {"bike_id": "77a769862bf38a2fefe77e8fcda4cd39", "type": "electric_scooter", "is_disabled": 0, "lat": 38.93668366666667, "rental_uris": {"ios": "https://dc.lft.to/lastmile_qr_scan", "android": "https://dc.lft.to/lastmile_qr_scan"}, "is_reserved": 0, "fusion_lon": 0.0, "fusion_lat": 0.0, "lon": -77.0244055, "name": "77a769862bf38a2fefe77e8fcda4cd39"}, {"bike_id": "396852d826cf637d4f474fb788a46334", "type": "electric_scooter", "is_disabled": 0, "lat": 38.91671733333333, "rental_uris": {"ios": "https://dc.lft.to/lastmile_qr_scan", "android": "https://dc.lft.to/lastmile_qr_scan"}, "is_reserved": 0, "fusion_lon": 0.0, "fusion_lat": 0.0, "lon": -77.04682116666666, "name": "396852d826cf637d4f474fb788a46334"}, {"bike_id": "802af76310cffa582e343149df6e99dc", "type": "electric_bike", "is_disabled": 0, "lat": 38.873046333333335, "rental_uris": {"ios": "https://dc.lft.to/lastmile_qr_scan", "android": "https://dc.lft.to/lastmile_qr_scan"}, "is_reserved": 0, "fusion_lon": 0.0, "fusion_lat": 0.0, "lon": -77.1392865, "name": "802af76310cffa582e343149df6e99dc"}, {"bike_id": "4c836005be48e55ac91fee9c81ea767e", "type": "electric_scooter", "is_disabled": 0, "lat": 38.931739, "rental_uris": {"ios": "https://dc.lft.to/lastmile_qr_scan", "android": "https://dc.lft.to/lastmile_qr_scan"}, "is_reserved": 0, "fusion_lon": 0.0, "fusion_lat": 0.0, "lon": -77.03166933333334, "name": "4c836005be48e55ac91fee9c81ea767e"}, {"bike_id": "3da2834bb89ec05bded86a52874601cb", "type": "electric_scooter", "is_disabled": 0, "lat": 38.90125116666667, "rental_uris": {"ios": "https://dc.lft.to/lastmile_qr_scan", "android": "https://dc.lft.to/lastmile_qr_scan"}, "is_reserved": 0, "fusion_lon": 0.0, "fusion_lat": 0.0, "lon": -77.05028066666667, "name": "3da2834bb89ec05bded86a52874601cb"}, {"bike_id": "4c785ee7f7f9dd448cf52109e1926c3a", "type": "electric_scooter", "is_disabled": 0, "lat": 38.923646833333336, "rental_uris": {"ios": "https://dc.lft.to/lastmile_qr_scan", "android": "https://dc.lft.to/lastmile_qr_scan"}, "is_reserved": 0, "fusion_lon": 0.0, "fusion_lat": 0.0, "lon": -77.0504265, "name": "4c785ee7f7f9dd448cf52109e1926c3a"}, {"bike_id": "b6ef00bcecd973fe724850db3682e7b9", "type": "electric_scooter", "is_disabled": 0, "lat": 38.93919666666667, "rental_uris": {"ios": "https://dc.lft.to/lastmile_qr_scan", "android": "https://dc.lft.to/lastmile_qr_scan"}, "is_reserved": 0, "fusion_lon": 0.0, "fusion_lat": 0.0, "lon": -77.06051333333333, "name": "b6ef00bcecd973fe724850db3682e7b9"}, {"bike_id": "b467720d52e61710426b671018fcd7c6", "type": "electric_scooter", "is_disabled": 0, "lat": 38.942036, "rental_uris": {"ios": "https://dc.lft.to/lastmile_qr_scan", "android": "https://dc.lft.to/lastmile_qr_scan"}, "is_reserved": 0, "fusion_lon": 0.0, "fusion_lat": 0.0, "lon": -77.01734366666666, "name": "b467720d52e61710426b671018fcd7c6"}, {"bike_id": "18eb8a4278d61221769d4e62a565c5f1", "type": "electric_scooter", "is_disabled": 0, "lat": 38.916888166666666, "rental_uris": {"ios": "https://dc.lft.to/lastmile_qr_scan", "android": "https://dc.lft.to/lastmile_qr_scan"}, "is_reserved": 0, "fusion_lon": 0.0, "fusion_lat": 0.0, "lon": -77.02872583333334, "name": "18eb8a4278d61221769d4e62a565c5f1"}, {"bike_id": "f14b3a02af496011fd85d890a31d66b8", "type": "electric_scooter", "is_disabled": 0, "lat": 38.9057775, "rental_uris": {"ios": "https://dc.lft.to/lastmile_qr_scan", "android": "https://dc.lft.to/lastmile_qr_scan"}, "is_reserved": 0, "fusion_lon": 0.0, "fusion_lat": 0.0, "lon": -76.98430766666667, "name": "f14b3a02af496011fd85d890a31d66b8"}, {"bike_id": "d360f051d5d1a2545208dd9c9b94146c", "type": "electric_scooter", "is_disabled": 0, "lat": 38.88112483333333, "rental_uris": {"ios": "https://dc.lft.to/lastmile_qr_scan", "android": "https://dc.lft.to/lastmile_qr_scan"}, "is_reserved": 0, "fusion_lon": 0.0, "fusion_lat": 0.0, "lon": -77.01670466666667, "name": "d360f051d5d1a2545208dd9c9b94146c"}, {"bike_id": "89cd81be615edd2a00de0791f77cef0f", "type": "electric_scooter", "is_disabled": 0, "lat": 38.88477183333333, "rental_uris": {"ios": "https://dc.lft.to/lastmile_qr_scan", "android": "https://dc.lft.to/lastmile_qr_scan"}, "is_reserved": 0, "fusion_lon": 0.0, "fusion_lat": 0.0, "lon": -76.982145, "name": "89cd81be615edd2a00de0791f77cef0f"}, {"bike_id": "c87ecf183e53c34ed308a2d66ad0d243", "type": "electric_scooter", "is_disabled": 0, "lat": 38.93255833333333, "rental_uris": {"ios": "https://dc.lft.to/lastmile_qr_scan", "android": "https://dc.lft.to/lastmile_qr_scan"}, "is_reserved": 0, "fusion_lon": 0.0, "fusion_lat": 0.0, "lon": -77.032758, "name": "c87ecf183e53c34ed308a2d66ad0d243"}, {"bike_id": "37959af01ca105de35af407573280c9f", "type": "electric_scooter", "is_disabled": 0, "lat": 38.92079666666667, "rental_uris": {"ios": "https://dc.lft.to/lastmile_qr_scan", "android": "https://dc.lft.to/lastmile_qr_scan"}, "is_reserved": 0, "fusion_lon": 0.0, "fusion_lat": 0.0, "lon": -77.02838533333333, "name": "37959af01ca105de35af407573280c9f"}, {"bike_id": "9197623bfa35109e171e4f4c4ffb52c7", "type": "electric_scooter", "is_disabled": 0, "lat": 38.91635566666667, "rental_uris": {"ios": "https://dc.lft.to/lastmile_qr_scan", "android": "https://dc.lft.to/lastmile_qr_scan"}, "is_reserved": 0, "fusion_lon": 0.0, "fusion_lat": 0.0, "lon": -77.02548783333333, "name": "9197623bfa35109e171e4f4c4ffb52c7"}, {"bike_id": "caf830ede87e44a454f8a4df5c10bbab", "type": "electric_scooter", "is_disabled": 0, "lat": 38.920344666666665, "rental_uris": {"ios": "https://dc.lft.to/lastmile_qr_scan", "android": "https://dc.lft.to/lastmile_qr_scan"}, "is_reserved": 0, "fusion_lon": 0.0, "fusion_lat": 0.0, "lon": -77.0130985, "name": "caf830ede87e44a454f8a4df5c10bbab"}, {"bike_id": "5ee26d1c4c5f3959bb86d2d36f44db0c", "type": "electric_scooter", "is_disabled": 0, "lat": 38.91634416666667, "rental_uris": {"ios": "https://dc.lft.to/lastmile_qr_scan", "android": "https://dc.lft.to/lastmile_qr_scan"}, "is_reserved": 0, "fusion_lon": 0.0, "fusion_lat": 0.0, "lon": -77.04002433333333, "name": "5ee26d1c4c5f3959bb86d2d36f44db0c"}, {"bike_id": "e0d79375117e6de325728384203b9ea0", "type": "electric_scooter", "is_disabled": 0, "lat": 38.91571416666667, "rental_uris": {"ios": "https://dc.lft.to/lastmile_qr_scan", "android": "https://dc.lft.to/lastmile_qr_scan"}, "is_reserved": 0, "fusion_lon": 0.0, "fusion_lat": 0.0, "lon": -77.02418533333334, "name": "e0d79375117e6de325728384203b9ea0"}, {"bike_id": "2d096120e967c2714d28cd8e390f3d41", "type": "electric_scooter", "is_disabled": 0, "lat": 38.9110795, "rental_uris": {"ios": "https://dc.lft.to/lastmile_qr_scan", "android": "https://dc.lft.to/lastmile_qr_scan"}, "is_reserved": 0, "fusion_lon": 0.0, "fusion_lat": 0.0, "lon": -77.01003716666666, "name": "2d096120e967c2714d28cd8e390f3d41"}, {"bike_id": "40ec332965a62bf242dd30bee4e47e1c", "type": "electric_bike", "is_disabled": 0, "lat": 38.838543666666666, "rental_uris": {"ios": "https://dc.lft.to/lastmile_qr_scan", "android": "https://dc.lft.to/lastmile_qr_scan"}, "is_reserved": 0, "fusion_lon": 0.0, "fusion_lat": 0.0, "lon": -77.05029366666666, "name": "40ec332965a62bf242dd30bee4e47e1c"}, {"bike_id": "b3faa0f582220c8c107f3094dca82243", "type": "electric_scooter", "is_disabled": 0, "lat": 38.90381583333333, "rental_uris": {"ios": "https://dc.lft.to/lastmile_qr_scan", "android": "https://dc.lft.to/lastmile_qr_scan"}, "is_reserved": 0, "fusion_lon": 0.0, "fusion_lat": 0.0, "lon": -76.982079, "name": "b3faa0f582220c8c107f3094dca82243"}, {"bike_id": "d521071b0c5d33d26dd8dc4b50f4d950", "type": "electric_scooter", "is_disabled": 0, "lat": 38.937665, "rental_uris": {"ios": "https://dc.lft.to/lastmile_qr_scan", "android": "https://dc.lft.to/lastmile_qr_scan"}, "is_reserved": 0, "fusion_lon": 0.0, "fusion_lat": 0.0, "lon": -77.0248075, "name": "d521071b0c5d33d26dd8dc4b50f4d950"}, {"bike_id": "cfc6ddd7be1578384b571e81e136575c", "type": "electric_scooter", "is_disabled": 0, "lat": 38.93654633333333, "rental_uris": {"ios": "https://dc.lft.to/lastmile_qr_scan", "android": "https://dc.lft.to/lastmile_qr_scan"}, "is_reserved": 0, "fusion_lon": 0.0, "fusion_lat": 0.0, "lon": -77.026415, "name": "cfc6ddd7be1578384b571e81e136575c"}, {"bike_id": "5ef9b2bef941b1c97b5adf79a8baa444", "type": "electric_scooter", "is_disabled": 0, "lat": 38.927640333333336, "rental_uris": {"ios": "https://dc.lft.to/lastmile_qr_scan", "android": "https://dc.lft.to/lastmile_qr_scan"}, "is_reserved": 0, "fusion_lon": 0.0, "fusion_lat": 0.0, "lon": -77.05642433333334, "name": "5ef9b2bef941b1c97b5adf79a8baa444"}, {"bike_id": "24e702a369ba214c562ef2607ed144fd", "type": "electric_scooter", "is_disabled": 0, "lat": 38.91104133333333, "rental_uris": {"ios": "https://dc.lft.to/lastmile_qr_scan", "android": "https://dc.lft.to/lastmile_qr_scan"}, "is_reserved": 0, "fusion_lon": 0.0, "fusion_lat": 0.0, "lon": -77.00212916666666, "name": "24e702a369ba214c562ef2607ed144fd"}, {"bike_id": "aa99261ff7bdc5e689a4e39c66c60a9c", "type": "electric_scooter", "is_disabled": 0, "lat": 38.90279816666666, "rental_uris": {"ios": "https://dc.lft.to/lastmile_qr_scan", "android": "https://dc.lft.to/lastmile_qr_scan"}, "is_reserved": 0, "fusion_lon": 0.0, "fusion_lat": 0.0, "lon": -77.03657083333333, "name": "aa99261ff7bdc5e689a4e39c66c60a9c"}, {"bike_id": "398358c1ba05ea3568d554897df5eff0", "type": "electric_scooter", "is_disabled": 0, "lat": 38.909777, "rental_uris": {"ios": "https://dc.lft.to/lastmile_qr_scan", "android": "https://dc.lft.to/lastmile_qr_scan"}, "is_reserved": 0, "fusion_lon": 0.0, "fusion_lat": 0.0, "lon": -77.02802566666666, "name": "398358c1ba05ea3568d554897df5eff0"}, {"bike_id": "f39a3561ae0a933f5f6fcccd9ab0a7f3", "type": "electric_scooter", "is_disabled": 0, "lat": 38.884321166666666, "rental_uris": {"ios": "https://dc.lft.to/lastmile_qr_scan", "android": "https://dc.lft.to/lastmile_qr_scan"}, "is_reserved": 0, "fusion_lon": 0.0, "fusion_lat": 0.0, "lon": -76.95748816666666, "name": "f39a3561ae0a933f5f6fcccd9ab0a7f3"}, {"bike_id": "f0b4f160db2ba1b04e8f868ba989b03c", "type": "electric_scooter", "is_disabled": 0, "lat": 38.928614833333334, "rental_uris": {"ios": "https://dc.lft.to/lastmile_qr_scan", "android": "https://dc.lft.to/lastmile_qr_scan"}, "is_reserved": 0, "fusion_lon": 0.0, "fusion_lat": 0.0, "lon": -77.02304833333334, "name": "f0b4f160db2ba1b04e8f868ba989b03c"}, {"bike_id": "e00cf74616a493572c1e046f12770809", "type": "electric_scooter", "is_disabled": 0, "lat": 38.87473133333334, "rental_uris": {"ios": "https://dc.lft.to/lastmile_qr_scan", "android": "https://dc.lft.to/lastmile_qr_scan"}, "is_reserved": 0, "fusion_lon": 0.0, "fusion_lat": 0.0, "lon": -77.01067783333333, "name": "e00cf74616a493572c1e046f12770809"}, {"bike_id": "a633467df0a5eeb41f05d858bd7f8d86", "type": "electric_scooter", "is_disabled": 0, "lat": 38.917791666666666, "rental_uris": {"ios": "https://dc.lft.to/lastmile_qr_scan", "android": "https://dc.lft.to/lastmile_qr_scan"}, "is_reserved": 0, "fusion_lon": 0.0, "fusion_lat": 0.0, "lon": -77.03192583333333, "name": "a633467df0a5eeb41f05d858bd7f8d86"}, {"bike_id": "b7ad631889fea6da9c250f0b3f02fb76", "type": "electric_scooter", "is_disabled": 0, "lat": 38.957346333333334, "rental_uris": {"ios": "https://dc.lft.to/lastmile_qr_scan", "android": "https://dc.lft.to/lastmile_qr_scan"}, "is_reserved": 0, "fusion_lon": 0.0, "fusion_lat": 0.0, "lon": -77.02419616666667, "name": "b7ad631889fea6da9c250f0b3f02fb76"}, {"bike_id": "e11a70bb390ec8e01cc0765631cd9375", "type": "electric_scooter", "is_disabled": 0, "lat": 38.90530616666667, "rental_uris": {"ios": "https://dc.lft.to/lastmile_qr_scan", "android": "https://dc.lft.to/lastmile_qr_scan"}, "is_reserved": 0, "fusion_lon": 0.0, "fusion_lat": 0.0, "lon": -77.06241866666667, "name": "e11a70bb390ec8e01cc0765631cd9375"}, {"bike_id": "2b59037f9c68ae109a6f4db32aa18682", "type": "electric_scooter", "is_disabled": 0, "lat": 38.887389, "rental_uris": {"ios": "https://dc.lft.to/lastmile_qr_scan", "android": "https://dc.lft.to/lastmile_qr_scan"}, "is_reserved": 0, "fusion_lon": 0.0, "fusion_lat": 0.0, "lon": -77.01531683333333, "name": "2b59037f9c68ae109a6f4db32aa18682"}, {"bike_id": "1d3c41e0a29fdd5dc1f575865f0b0de7", "type": "electric_scooter", "is_disabled": 0, "lat": 38.91587666666667, "rental_uris": {"ios": "https://dc.lft.to/lastmile_qr_scan", "android": "https://dc.lft.to/lastmile_qr_scan"}, "is_reserved": 0, "fusion_lon": 0.0, "fusion_lat": 0.0, "lon": -77.01144933333333, "name": "1d3c41e0a29fdd5dc1f575865f0b0de7"}, {"bike_id": "12079415518a0137a434062e29921f29", "type": "electric_scooter", "is_disabled": 0, "lat": 38.9326355, "rental_uris": {"ios": "https://dc.lft.to/lastmile_qr_scan", "android": "https://dc.lft.to/lastmile_qr_scan"}, "is_reserved": 0, "fusion_lon": 0.0, "fusion_lat": 0.0, "lon": -77.038915, "name": "12079415518a0137a434062e29921f29"}, {"bike_id": "b71016b8a29dd331b74d883a0b280115", "type": "electric_scooter", "is_disabled": 0, "lat": 38.922968833333336, "rental_uris": {"ios": "https://dc.lft.to/lastmile_qr_scan", "android": "https://dc.lft.to/lastmile_qr_scan"}, "is_reserved": 0, "fusion_lon": 0.0, "fusion_lat": 0.0, "lon": -77.07303616666667, "name": "b71016b8a29dd331b74d883a0b280115"}, {"bike_id": "721b111a52ecdd6af58e1321122362c1", "type": "electric_scooter", "is_disabled": 0, "lat": 38.89759383333333, "rental_uris": {"ios": "https://dc.lft.to/lastmile_qr_scan", "android": "https://dc.lft.to/lastmile_qr_scan"}, "is_reserved": 0, "fusion_lon": 0.0, "fusion_lat": 0.0, "lon": -77.05158583333333, "name": "721b111a52ecdd6af58e1321122362c1"}, {"bike_id": "a32e360b858a9a27073311f680dc9f6b", "type": "electric_scooter", "is_disabled": 0, "lat": 38.936802166666666, "rental_uris": {"ios": "https://dc.lft.to/lastmile_qr_scan", "android": "https://dc.lft.to/lastmile_qr_scan"}, "is_reserved": 0, "fusion_lon": 0.0, "fusion_lat": 0.0, "lon": -77.06621016666666, "name": "a32e360b858a9a27073311f680dc9f6b"}, {"bike_id": "4806da4ed64bedb0bfd37cd9edc5c57a", "type": "electric_bike", "is_disabled": 0, "lat": 38.89692866666667, "rental_uris": {"ios": "https://dc.lft.to/lastmile_qr_scan", "android": "https://dc.lft.to/lastmile_qr_scan"}, "is_reserved": 0, "fusion_lon": 0.0, "fusion_lat": 0.0, "lon": -77.08643383333333, "name": "4806da4ed64bedb0bfd37cd9edc5c57a"}, {"bike_id": "d1366477d125fe0d30c2907f5237a082", "type": "electric_scooter", "is_disabled": 0, "lat": 38.892944166666666, "rental_uris": {"ios": "https://dc.lft.to/lastmile_qr_scan", "android": "https://dc.lft.to/lastmile_qr_scan"}, "is_reserved": 0, "fusion_lon": 0.0, "fusion_lat": 0.0, "lon": -77.04874366666667, "name": "d1366477d125fe0d30c2907f5237a082"}, {"bike_id": "01d628d91fc2e9e67fdba2e38a4978da", "type": "electric_scooter", "is_disabled": 0, "lat": 38.904011, "rental_uris": {"ios": "https://dc.lft.to/lastmile_qr_scan", "android": "https://dc.lft.to/lastmile_qr_scan"}, "is_reserved": 0, "fusion_lon": 0.0, "fusion_lat": 0.0, "lon": -77.024918, "name": "01d628d91fc2e9e67fdba2e38a4978da"}, {"bike_id": "fede828ab7883bd992cdcda815fb179a", "type": "electric_scooter", "is_disabled": 0, "lat": 38.911765833333334, "rental_uris": {"ios": "https://dc.lft.to/lastmile_qr_scan", "android": "https://dc.lft.to/lastmile_qr_scan"}, "is_reserved": 0, "fusion_lon": 0.0, "fusion_lat": 0.0, "lon": -77.0021305, "name": "fede828ab7883bd992cdcda815fb179a"}, {"bike_id": "045b30968e0c3379872675f8f93d2b0f", "type": "electric_scooter", "is_disabled": 0, "lat": 38.9057385, "rental_uris": {"ios": "https://dc.lft.to/lastmile_qr_scan", "android": "https://dc.lft.to/lastmile_qr_scan"}, "is_reserved": 0, "fusion_lon": 0.0, "fusion_lat": 0.0, "lon": -77.04368166666667, "name": "045b30968e0c3379872675f8f93d2b0f"}, {"bike_id": "db284bc10716cb44fde8aefcb0e03bf7", "type": "electric_scooter", "is_disabled": 0, "lat": 38.930875666666665, "rental_uris": {"ios": "https://dc.lft.to/lastmile_qr_scan", "android": "https://dc.lft.to/lastmile_qr_scan"}, "is_reserved": 0, "fusion_lon": 0.0, "fusion_lat": 0.0, "lon": -77.03467516666667, "name": "db284bc10716cb44fde8aefcb0e03bf7"}, {"bike_id": "644e89ed7d20baaaa18763795a0262a5", "type": "electric_scooter", "is_disabled": 0, "lat": 38.90884716666667, "rental_uris": {"ios": "https://dc.lft.to/lastmile_qr_scan", "android": "https://dc.lft.to/lastmile_qr_scan"}, "is_reserved": 0, "fusion_lon": 0.0, "fusion_lat": 0.0, "lon": -77.04507366666667, "name": "644e89ed7d20baaaa18763795a0262a5"}, {"bike_id": "5f4fa68624a2c8002bc4f7894a49b939", "type": "electric_scooter", "is_disabled": 0, "lat": 38.89774466666667, "rental_uris": {"ios": "https://dc.lft.to/lastmile_qr_scan", "android": "https://dc.lft.to/lastmile_qr_scan"}, "is_reserved": 0, "fusion_lon": 0.0, "fusion_lat": 0.0, "lon": -77.02682316666667, "name": "5f4fa68624a2c8002bc4f7894a49b939"}, {"bike_id": "5f4cc2ffaaba8d97a43b72b00c941de2", "type": "electric_scooter", "is_disabled": 0, "lat": 38.886412666666665, "rental_uris": {"ios": "https://dc.lft.to/lastmile_qr_scan", "android": "https://dc.lft.to/lastmile_qr_scan"}, "is_reserved": 0, "fusion_lon": 0.0, "fusion_lat": 0.0, "lon": -77.02137983333333, "name": "5f4cc2ffaaba8d97a43b72b00c941de2"}, {"bike_id": "6d6e91684dfde93c0fecaf25c0bd3d3e", "type": "electric_scooter", "is_disabled": 0, "lat": 38.905593833333334, "rental_uris": {"ios": "https://dc.lft.to/lastmile_qr_scan", "android": "https://dc.lft.to/lastmile_qr_scan"}, "is_reserved": 0, "fusion_lon": 0.0, "fusion_lat": 0.0, "lon": -77.016344, "name": "6d6e91684dfde93c0fecaf25c0bd3d3e"}, {"bike_id": "21d3ec4a9d09aed545dce879a1e1d6ce", "type": "electric_scooter", "is_disabled": 0, "lat": 38.933611666666664, "rental_uris": {"ios": "https://dc.lft.to/lastmile_qr_scan", "android": "https://dc.lft.to/lastmile_qr_scan"}, "is_reserved": 0, "fusion_lon": 0.0, "fusion_lat": 0.0, "lon": -77.08854683333334, "name": "21d3ec4a9d09aed545dce879a1e1d6ce"}, {"bike_id": "aee55b82058173851cc42b4036744440", "type": "electric_scooter", "is_disabled": 0, "lat": 38.905477166666664, "rental_uris": {"ios": "https://dc.lft.to/lastmile_qr_scan", "android": "https://dc.lft.to/lastmile_qr_scan"}, "is_reserved": 0, "fusion_lon": 0.0, "fusion_lat": 0.0, "lon": -77.0442465, "name": "aee55b82058173851cc42b4036744440"}, {"bike_id": "95152f15c02b2d5816cfc16fea819ff1", "type": "electric_scooter", "is_disabled": 0, "lat": 38.90911366666667, "rental_uris": {"ios": "https://dc.lft.to/lastmile_qr_scan", "android": "https://dc.lft.to/lastmile_qr_scan"}, "is_reserved": 0, "fusion_lon": 0.0, "fusion_lat": 0.0, "lon": -77.018902, "name": "95152f15c02b2d5816cfc16fea819ff1"}, {"bike_id": "a02c27bdf1ab33e23eae2cdc6ad026b8", "type": "electric_scooter", "is_disabled": 0, "lat": 38.900063833333334, "rental_uris": {"ios": "https://dc.lft.to/lastmile_qr_scan", "android": "https://dc.lft.to/lastmile_qr_scan"}, "is_reserved": 0, "fusion_lon": 0.0, "fusion_lat": 0.0, "lon": -77.00686183333333, "name": "a02c27bdf1ab33e23eae2cdc6ad026b8"}, {"bike_id": "c25a43ef405e4db0f3273f28e0ba0c29", "type": "electric_scooter", "is_disabled": 0, "lat": 38.971944666666666, "rental_uris": {"ios": "https://dc.lft.to/lastmile_qr_scan", "android": "https://dc.lft.to/lastmile_qr_scan"}, "is_reserved": 0, "fusion_lon": 0.0, "fusion_lat": 0.0, "lon": -77.0265165, "name": "c25a43ef405e4db0f3273f28e0ba0c29"}, {"bike_id": "f4fc55a554acd3104880d311efc066ae", "type": "electric_scooter", "is_disabled": 0, "lat": 38.917513666666665, "rental_uris": {"ios": "https://dc.lft.to/lastmile_qr_scan", "android": "https://dc.lft.to/lastmile_qr_scan"}, "is_reserved": 0, "fusion_lon": 0.0, "fusion_lat": 0.0, "lon": -77.02806533333333, "name": "f4fc55a554acd3104880d311efc066ae"}, {"bike_id": "b38274e2d6ac5338dee651c4848a2114", "type": "electric_scooter", "is_disabled": 0, "lat": 38.86630233333333, "rental_uris": {"ios": "https://dc.lft.to/lastmile_qr_scan", "android": "https://dc.lft.to/lastmile_qr_scan"}, "is_reserved": 0, "fusion_lon": 0.0, "fusion_lat": 0.0, "lon": -76.98717616666667, "name": "b38274e2d6ac5338dee651c4848a2114"}, {"bike_id": "d6d4e37186221f223b34cb9a73bf5473", "type": "electric_scooter", "is_disabled": 0, "lat": 38.913976, "rental_uris": {"ios": "https://dc.lft.to/lastmile_qr_scan", "android": "https://dc.lft.to/lastmile_qr_scan"}, "is_reserved": 0, "fusion_lon": 0.0, "fusion_lat": 0.0, "lon": -77.01793266666667, "name": "d6d4e37186221f223b34cb9a73bf5473"}, {"bike_id": "84a4aa7a7256f8974895f64de6ec3b9d", "type": "electric_scooter", "is_disabled": 0, "lat": 38.895412, "rental_uris": {"ios": "https://dc.lft.to/lastmile_qr_scan", "android": "https://dc.lft.to/lastmile_qr_scan"}, "is_reserved": 0, "fusion_lon": 0.0, "fusion_lat": 0.0, "lon": -76.9886585, "name": "84a4aa7a7256f8974895f64de6ec3b9d"}, {"bike_id": "072ac4eb3aa44b9e35b5ad78cc63af4e", "type": "electric_scooter", "is_disabled": 0, "lat": 38.911122, "rental_uris": {"ios": "https://dc.lft.to/lastmile_qr_scan", "android": "https://dc.lft.to/lastmile_qr_scan"}, "is_reserved": 0, "fusion_lon": 0.0, "fusion_lat": 0.0, "lon": -77.04905766666667, "name": "072ac4eb3aa44b9e35b5ad78cc63af4e"}, {"bike_id": "bb484cb3c5ca42b5ff6ea75ca2ccc5ba", "type": "electric_scooter", "is_disabled": 0, "lat": 38.9026285, "rental_uris": {"ios": "https://dc.lft.to/lastmile_qr_scan", "android": "https://dc.lft.to/lastmile_qr_scan"}, "is_reserved": 0, "fusion_lon": 0.0, "fusion_lat": 0.0, "lon": -77.00252816666666, "name": "bb484cb3c5ca42b5ff6ea75ca2ccc5ba"}, {"bike_id": "90445b286c72ae0edfd3e212a479c866", "type": "electric_scooter", "is_disabled": 0, "lat": 38.9022955, "rental_uris": {"ios": "https://dc.lft.to/lastmile_qr_scan", "android": "https://dc.lft.to/lastmile_qr_scan"}, "is_reserved": 0, "fusion_lon": 0.0, "fusion_lat": 0.0, "lon": -77.0467855, "name": "90445b286c72ae0edfd3e212a479c866"}, {"bike_id": "e3dcf181e7d2197ae8788d715aa7c4f6", "type": "electric_scooter", "is_disabled": 0, "lat": 38.845389833333336, "rental_uris": {"ios": "https://dc.lft.to/lastmile_qr_scan", "android": "https://dc.lft.to/lastmile_qr_scan"}, "is_reserved": 0, "fusion_lon": 0.0, "fusion_lat": 0.0, "lon": -76.98545566666667, "name": "e3dcf181e7d2197ae8788d715aa7c4f6"}, {"bike_id": "714e4063031aff8b0d3d3939a839e3f0", "type": "electric_bike", "is_disabled": 0, "lat": 38.865122, "rental_uris": {"ios": "https://dc.lft.to/lastmile_qr_scan", "android": "https://dc.lft.to/lastmile_qr_scan"}, "is_reserved": 0, "fusion_lon": 0.0, "fusion_lat": 0.0, "lon": -76.97343933333333, "name": "714e4063031aff8b0d3d3939a839e3f0"}, {"bike_id": "ce9f2e75349df284800a424b4fcd6f95", "type": "electric_scooter", "is_disabled": 0, "lat": 38.938626, "rental_uris": {"ios": "https://dc.lft.to/lastmile_qr_scan", "android": "https://dc.lft.to/lastmile_qr_scan"}, "is_reserved": 0, "fusion_lon": 0.0, "fusion_lat": 0.0, "lon": -77.07787416666666, "name": "ce9f2e75349df284800a424b4fcd6f95"}, {"bike_id": "f7124381042ad1821fa136c7a166f869", "type": "electric_scooter", "is_disabled": 0, "lat": 38.922213666666664, "rental_uris": {"ios": "https://dc.lft.to/lastmile_qr_scan", "android": "https://dc.lft.to/lastmile_qr_scan"}, "is_reserved": 0, "fusion_lon": 0.0, "fusion_lat": 0.0, "lon": -77.0237495, "name": "f7124381042ad1821fa136c7a166f869"}, {"bike_id": "f62d99d4adf1e34bd944d3c234420ea3", "type": "electric_scooter", "is_disabled": 0, "lat": 38.907189833333334, "rental_uris": {"ios": "https://dc.lft.to/lastmile_qr_scan", "android": "https://dc.lft.to/lastmile_qr_scan"}, "is_reserved": 0, "fusion_lon": 0.0, "fusion_lat": 0.0, "lon": -77.02246816666667, "name": "f62d99d4adf1e34bd944d3c234420ea3"}, {"bike_id": "3d8aa4abf9f604847aea82fa76333cff", "type": "electric_scooter", "is_disabled": 0, "lat": 38.908438333333336, "rental_uris": {"ios": "https://dc.lft.to/lastmile_qr_scan", "android": "https://dc.lft.to/lastmile_qr_scan"}, "is_reserved": 0, "fusion_lon": 0.0, "fusion_lat": 0.0, "lon": -77.0271195, "name": "3d8aa4abf9f604847aea82fa76333cff"}, {"bike_id": "1272dd250e7c61e4a0d828b0b7ccaa0b", "type": "electric_scooter", "is_disabled": 0, "lat": 38.843156666666665, "rental_uris": {"ios": "https://dc.lft.to/lastmile_qr_scan", "android": "https://dc.lft.to/lastmile_qr_scan"}, "is_reserved": 0, "fusion_lon": 0.0, "fusion_lat": 0.0, "lon": -76.99923116666666, "name": "1272dd250e7c61e4a0d828b0b7ccaa0b"}, {"bike_id": "a348cbf034fdd24256a305cb8c81238a", "type": "electric_scooter", "is_disabled": 0, "lat": 38.92318916666667, "rental_uris": {"ios": "https://dc.lft.to/lastmile_qr_scan", "android": "https://dc.lft.to/lastmile_qr_scan"}, "is_reserved": 0, "fusion_lon": 0.0, "fusion_lat": 0.0, "lon": -77.04640933333333, "name": "a348cbf034fdd24256a305cb8c81238a"}, {"bike_id": "16a1a22d345dc50a074462105bf30462", "type": "electric_scooter", "is_disabled": 0, "lat": 38.914833, "rental_uris": {"ios": "https://dc.lft.to/lastmile_qr_scan", "android": "https://dc.lft.to/lastmile_qr_scan"}, "is_reserved": 0, "fusion_lon": 0.0, "fusion_lat": 0.0, "lon": -77.00284233333333, "name": "16a1a22d345dc50a074462105bf30462"}, {"bike_id": "5d0a56e68e0c1e45c10c09e46ff41345", "type": "electric_scooter", "is_disabled": 0, "lat": 38.898673, "rental_uris": {"ios": "https://dc.lft.to/lastmile_qr_scan", "android": "https://dc.lft.to/lastmile_qr_scan"}, "is_reserved": 0, "fusion_lon": 0.0, "fusion_lat": 0.0, "lon": -76.9466095, "name": "5d0a56e68e0c1e45c10c09e46ff41345"}, {"bike_id": "e479a1ff7ee08fe2f114523d9064cf35", "type": "electric_scooter", "is_disabled": 0, "lat": 38.86504266666667, "rental_uris": {"ios": "https://dc.lft.to/lastmile_qr_scan", "android": "https://dc.lft.to/lastmile_qr_scan"}, "is_reserved": 0, "fusion_lon": 0.0, "fusion_lat": 0.0, "lon": -76.98999933333333, "name": "e479a1ff7ee08fe2f114523d9064cf35"}, {"bike_id": "60635b3d0aebb4600227a2bc511b214f", "type": "electric_scooter", "is_disabled": 0, "lat": 38.91715216666667, "rental_uris": {"ios": "https://dc.lft.to/lastmile_qr_scan", "android": "https://dc.lft.to/lastmile_qr_scan"}, "is_reserved": 0, "fusion_lon": 0.0, "fusion_lat": 0.0, "lon": -77.0260915, "name": "60635b3d0aebb4600227a2bc511b214f"}, {"bike_id": "83691c59e40e73d8e4ba7508931961d0", "type": "electric_scooter", "is_disabled": 0, "lat": 38.92017666666667, "rental_uris": {"ios": "https://dc.lft.to/lastmile_qr_scan", "android": "https://dc.lft.to/lastmile_qr_scan"}, "is_reserved": 0, "fusion_lon": 0.0, "fusion_lat": 0.0, "lon": -77.01288016666666, "name": "83691c59e40e73d8e4ba7508931961d0"}, {"bike_id": "ad3cfddca7d056ab9c10a10fdc8077e7", "type": "electric_scooter", "is_disabled": 0, "lat": 38.91549366666667, "rental_uris": {"ios": "https://dc.lft.to/lastmile_qr_scan", "android": "https://dc.lft.to/lastmile_qr_scan"}, "is_reserved": 0, "fusion_lon": 0.0, "fusion_lat": 0.0, "lon": -77.02565083333333, "name": "ad3cfddca7d056ab9c10a10fdc8077e7"}, {"bike_id": "5f77c33b678ec08b5b65b0f2a57fd21a", "type": "electric_scooter", "is_disabled": 0, "lat": 38.88079416666667, "rental_uris": {"ios": "https://dc.lft.to/lastmile_qr_scan", "android": "https://dc.lft.to/lastmile_qr_scan"}, "is_reserved": 0, "fusion_lon": 0.0, "fusion_lat": 0.0, "lon": -76.99507183333333, "name": "5f77c33b678ec08b5b65b0f2a57fd21a"}, {"bike_id": "a75d80709e34525859c0688b1d4efca2", "type": "electric_scooter", "is_disabled": 0, "lat": 38.9399845, "rental_uris": {"ios": "https://dc.lft.to/lastmile_qr_scan", "android": "https://dc.lft.to/lastmile_qr_scan"}, "is_reserved": 0, "fusion_lon": 0.0, "fusion_lat": 0.0, "lon": -77.01691266666667, "name": "a75d80709e34525859c0688b1d4efca2"}, {"bike_id": "1f20e5bc2e59e4cb64a4aeec39da55e6", "type": "electric_bike", "is_disabled": 0, "lat": 38.8535555, "rental_uris": {"ios": "https://dc.lft.to/lastmile_qr_scan", "android": "https://dc.lft.to/lastmile_qr_scan"}, "is_reserved": 0, "fusion_lon": 0.0, "fusion_lat": 0.0, "lon": -77.0868535, "name": "1f20e5bc2e59e4cb64a4aeec39da55e6"}, {"bike_id": "2412bfac8c47b0ca81d677cb748329b1", "type": "electric_bike", "is_disabled": 0, "lat": 38.87309166666667, "rental_uris": {"ios": "https://dc.lft.to/lastmile_qr_scan", "android": "https://dc.lft.to/lastmile_qr_scan"}, "is_reserved": 0, "fusion_lon": 0.0, "fusion_lat": 0.0, "lon": -77.01095216666667, "name": "2412bfac8c47b0ca81d677cb748329b1"}, {"bike_id": "a9558c1b5375528333cf7c7621e5312b", "type": "electric_bike", "is_disabled": 0, "lat": 38.8589215, "rental_uris": {"ios": "https://dc.lft.to/lastmile_qr_scan", "android": "https://dc.lft.to/lastmile_qr_scan"}, "is_reserved": 0, "fusion_lon": 0.0, "fusion_lat": 0.0, "lon": -77.11859383333334, "name": "a9558c1b5375528333cf7c7621e5312b"}, {"bike_id": "e3a169b9977b47699108a649aa4906c9", "type": "electric_scooter", "is_disabled": 0, "lat": 38.91589583333333, "rental_uris": {"ios": "https://dc.lft.to/lastmile_qr_scan", "android": "https://dc.lft.to/lastmile_qr_scan"}, "is_reserved": 0, "fusion_lon": 0.0, "fusion_lat": 0.0, "lon": -77.00195783333334, "name": "e3a169b9977b47699108a649aa4906c9"}, {"bike_id": "f4e091db155524bc07c2037ca5a7b0d1", "type": "electric_scooter", "is_disabled": 0, "lat": 38.9057465, "rental_uris": {"ios": "https://dc.lft.to/lastmile_qr_scan", "android": "https://dc.lft.to/lastmile_qr_scan"}, "is_reserved": 0, "fusion_lon": 0.0, "fusion_lat": 0.0, "lon": -77.00621783333334, "name": "f4e091db155524bc07c2037ca5a7b0d1"}, {"bike_id": "c68782e982809fbfca1294e851db689c", "type": "electric_scooter", "is_disabled": 0, "lat": 38.9041165, "rental_uris": {"ios": "https://dc.lft.to/lastmile_qr_scan", "android": "https://dc.lft.to/lastmile_qr_scan"}, "is_reserved": 0, "fusion_lon": 0.0, "fusion_lat": 0.0, "lon": -76.973283, "name": "c68782e982809fbfca1294e851db689c"}, {"bike_id": "fbfb15b1396a7fdc8c55feb0715891c9", "type": "electric_scooter", "is_disabled": 0, "lat": 38.8997205, "rental_uris": {"ios": "https://dc.lft.to/lastmile_qr_scan", "android": "https://dc.lft.to/lastmile_qr_scan"}, "is_reserved": 0, "fusion_lon": 0.0, "fusion_lat": 0.0, "lon": -76.98307916666667, "name": "fbfb15b1396a7fdc8c55feb0715891c9"}, {"bike_id": "1e5260ec5d44f89208c1bbfa934bd9c1", "type": "electric_bike", "is_disabled": 0, "lat": 38.95789116666667, "rental_uris": {"ios": "https://dc.lft.to/lastmile_qr_scan", "android": "https://dc.lft.to/lastmile_qr_scan"}, "is_reserved": 0, "fusion_lon": 0.0, "fusion_lat": 0.0, "lon": -77.020003, "name": "1e5260ec5d44f89208c1bbfa934bd9c1"}, {"bike_id": "4acdec3826d3485f8d396706e3c27169", "type": "electric_scooter", "is_disabled": 0, "lat": 38.90470883333333, "rental_uris": {"ios": "https://dc.lft.to/lastmile_qr_scan", "android": "https://dc.lft.to/lastmile_qr_scan"}, "is_reserved": 0, "fusion_lon": 0.0, "fusion_lat": 0.0, "lon": -77.0091885, "name": "4acdec3826d3485f8d396706e3c27169"}, {"bike_id": "d7d63bc761d4e59c941fc39228610bfb", "type": "electric_scooter", "is_disabled": 0, "lat": 38.91680866666667, "rental_uris": {"ios": "https://dc.lft.to/lastmile_qr_scan", "android": "https://dc.lft.to/lastmile_qr_scan"}, "is_reserved": 0, "fusion_lon": 0.0, "fusion_lat": 0.0, "lon": -77.02896116666666, "name": "d7d63bc761d4e59c941fc39228610bfb"}, {"bike_id": "f8b50006236109f56a88734fdfa9036a", "type": "electric_scooter", "is_disabled": 0, "lat": 38.91924916666667, "rental_uris": {"ios": "https://dc.lft.to/lastmile_qr_scan", "android": "https://dc.lft.to/lastmile_qr_scan"}, "is_reserved": 0, "fusion_lon": 0.0, "fusion_lat": 0.0, "lon": -77.04168683333333, "name": "f8b50006236109f56a88734fdfa9036a"}, {"bike_id": "559ee35ee29daa323ffe16705c89db94", "type": "electric_scooter", "is_disabled": 0, "lat": 38.91562483333333, "rental_uris": {"ios": "https://dc.lft.to/lastmile_qr_scan", "android": "https://dc.lft.to/lastmile_qr_scan"}, "is_reserved": 0, "fusion_lon": 0.0, "fusion_lat": 0.0, "lon": -77.02106766666667, "name": "559ee35ee29daa323ffe16705c89db94"}, {"bike_id": "bb37d3bf8d2b6f43ec24d0b085d64470", "type": "electric_scooter", "is_disabled": 0, "lat": 38.945600666666664, "rental_uris": {"ios": "https://dc.lft.to/lastmile_qr_scan", "android": "https://dc.lft.to/lastmile_qr_scan"}, "is_reserved": 0, "fusion_lon": 0.0, "fusion_lat": 0.0, "lon": -77.07122766666667, "name": "bb37d3bf8d2b6f43ec24d0b085d64470"}, {"bike_id": "d53e0637e3ca0ef78e36830bc203d3e8", "type": "electric_scooter", "is_disabled": 0, "lat": 38.884518666666665, "rental_uris": {"ios": "https://dc.lft.to/lastmile_qr_scan", "android": "https://dc.lft.to/lastmile_qr_scan"}, "is_reserved": 0, "fusion_lon": 0.0, "fusion_lat": 0.0, "lon": -76.95096333333333, "name": "d53e0637e3ca0ef78e36830bc203d3e8"}, {"bike_id": "e970ebd9ce6e9e7b24b343caa12a580c", "type": "electric_scooter", "is_disabled": 0, "lat": 38.903067666666665, "rental_uris": {"ios": "https://dc.lft.to/lastmile_qr_scan", "android": "https://dc.lft.to/lastmile_qr_scan"}, "is_reserved": 0, "fusion_lon": 0.0, "fusion_lat": 0.0, "lon": -77.0495535, "name": "e970ebd9ce6e9e7b24b343caa12a580c"}, {"bike_id": "4a4e4f739c38dfbd0a8bcecf4f3f0974", "type": "electric_scooter", "is_disabled": 0, "lat": 38.93601566666667, "rental_uris": {"ios": "https://dc.lft.to/lastmile_qr_scan", "android": "https://dc.lft.to/lastmile_qr_scan"}, "is_reserved": 0, "fusion_lon": 0.0, "fusion_lat": 0.0, "lon": -77.036593, "name": "4a4e4f739c38dfbd0a8bcecf4f3f0974"}, {"bike_id": "137b29830770514e8c4be538af95d948", "type": "electric_scooter", "is_disabled": 0, "lat": 38.90220566666667, "rental_uris": {"ios": "https://dc.lft.to/lastmile_qr_scan", "android": "https://dc.lft.to/lastmile_qr_scan"}, "is_reserved": 0, "fusion_lon": 0.0, "fusion_lat": 0.0, "lon": -77.04022633333334, "name": "137b29830770514e8c4be538af95d948"}, {"bike_id": "d3875753e77215c51f694e10932ba6e0", "type": "electric_scooter", "is_disabled": 0, "lat": 38.93534283333334, "rental_uris": {"ios": "https://dc.lft.to/lastmile_qr_scan", "android": "https://dc.lft.to/lastmile_qr_scan"}, "is_reserved": 0, "fusion_lon": 0.0, "fusion_lat": 0.0, "lon": -77.058164, "name": "d3875753e77215c51f694e10932ba6e0"}, {"bike_id": "37f75fdf672dd04cdd3ffa2c7cde5ab9", "type": "electric_scooter", "is_disabled": 0, "lat": 38.916032333333334, "rental_uris": {"ios": "https://dc.lft.to/lastmile_qr_scan", "android": "https://dc.lft.to/lastmile_qr_scan"}, "is_reserved": 0, "fusion_lon": 0.0, "fusion_lat": 0.0, "lon": -77.03210683333333, "name": "37f75fdf672dd04cdd3ffa2c7cde5ab9"}, {"bike_id": "3ad8ce9be0360de40a13da9d382ce2d0", "type": "electric_scooter", "is_disabled": 0, "lat": 38.92212083333333, "rental_uris": {"ios": "https://dc.lft.to/lastmile_qr_scan", "android": "https://dc.lft.to/lastmile_qr_scan"}, "is_reserved": 0, "fusion_lon": 0.0, "fusion_lat": 0.0, "lon": -77.03658466666667, "name": "3ad8ce9be0360de40a13da9d382ce2d0"}, {"bike_id": "49f87374403d2d80734c34aac993d574", "type": "electric_scooter", "is_disabled": 0, "lat": 38.914014, "rental_uris": {"ios": "https://dc.lft.to/lastmile_qr_scan", "android": "https://dc.lft.to/lastmile_qr_scan"}, "is_reserved": 0, "fusion_lon": 0.0, "fusion_lat": 0.0, "lon": -76.981907, "name": "49f87374403d2d80734c34aac993d574"}, {"bike_id": "f3028b6d273c2df9eefb8625c357057e", "type": "electric_scooter", "is_disabled": 0, "lat": 38.9193465, "rental_uris": {"ios": "https://dc.lft.to/lastmile_qr_scan", "android": "https://dc.lft.to/lastmile_qr_scan"}, "is_reserved": 0, "fusion_lon": 0.0, "fusion_lat": 0.0, "lon": -77.03175216666666, "name": "f3028b6d273c2df9eefb8625c357057e"}, {"bike_id": "1cfba6eed2670565361e6700cd091ede", "type": "electric_bike", "is_disabled": 0, "lat": 38.993283, "rental_uris": {"ios": "https://dc.lft.to/lastmile_qr_scan", "android": "https://dc.lft.to/lastmile_qr_scan"}, "is_reserved": 0, "fusion_lon": 0.0, "fusion_lat": 0.0, "lon": -76.94614716666666, "name": "1cfba6eed2670565361e6700cd091ede"}, {"bike_id": "3110eeb0fd80c45d72323b1e025a0aed", "type": "electric_scooter", "is_disabled": 0, "lat": 38.93352566666667, "rental_uris": {"ios": "https://dc.lft.to/lastmile_qr_scan", "android": "https://dc.lft.to/lastmile_qr_scan"}, "is_reserved": 0, "fusion_lon": 0.0, "fusion_lat": 0.0, "lon": -77.07356316666667, "name": "3110eeb0fd80c45d72323b1e025a0aed"}, {"bike_id": "d543c658148a91f679108908dd42b8f7", "type": "electric_bike", "is_disabled": 0, "lat": 38.855399166666665, "rental_uris": {"ios": "https://dc.lft.to/lastmile_qr_scan", "android": "https://dc.lft.to/lastmile_qr_scan"}, "is_reserved": 0, "fusion_lon": 0.0, "fusion_lat": 0.0, "lon": -77.12017683333333, "name": "d543c658148a91f679108908dd42b8f7"}, {"bike_id": "c5f4166002068f1a71fb0cd686aee9e4", "type": "electric_scooter", "is_disabled": 0, "lat": 38.907919, "rental_uris": {"ios": "https://dc.lft.to/lastmile_qr_scan", "android": "https://dc.lft.to/lastmile_qr_scan"}, "is_reserved": 0, "fusion_lon": 0.0, "fusion_lat": 0.0, "lon": -77.001932, "name": "c5f4166002068f1a71fb0cd686aee9e4"}, {"bike_id": "5fbd2ceccd3808d4e9af534298e055bb", "type": "electric_scooter", "is_disabled": 0, "lat": 38.923929333333334, "rental_uris": {"ios": "https://dc.lft.to/lastmile_qr_scan", "android": "https://dc.lft.to/lastmile_qr_scan"}, "is_reserved": 0, "fusion_lon": 0.0, "fusion_lat": 0.0, "lon": -77.04469816666666, "name": "5fbd2ceccd3808d4e9af534298e055bb"}, {"bike_id": "39b7e0b4876d654f1a1ca9a83f92a8de", "type": "electric_scooter", "is_disabled": 0, "lat": 38.865036, "rental_uris": {"ios": "https://dc.lft.to/lastmile_qr_scan", "android": "https://dc.lft.to/lastmile_qr_scan"}, "is_reserved": 0, "fusion_lon": 0.0, "fusion_lat": 0.0, "lon": -76.98999766666667, "name": "39b7e0b4876d654f1a1ca9a83f92a8de"}, {"bike_id": "9a6d713a51ccd3dec939647e0094e69d", "type": "electric_bike", "is_disabled": 0, "lat": 38.807587, "rental_uris": {"ios": "https://dc.lft.to/lastmile_qr_scan", "android": "https://dc.lft.to/lastmile_qr_scan"}, "is_reserved": 0, "fusion_lon": 0.0, "fusion_lat": 0.0, "lon": -77.09465966666667, "name": "9a6d713a51ccd3dec939647e0094e69d"}, {"bike_id": "d0616b21965a28c459aac523f70a306d", "type": "electric_scooter", "is_disabled": 0, "lat": 38.919918, "rental_uris": {"ios": "https://dc.lft.to/lastmile_qr_scan", "android": "https://dc.lft.to/lastmile_qr_scan"}, "is_reserved": 0, "fusion_lon": 0.0, "fusion_lat": 0.0, "lon": -77.017806, "name": "d0616b21965a28c459aac523f70a306d"}, {"bike_id": "559f0c8e14f7953b199744a248b52c3e", "type": "electric_scooter", "is_disabled": 0, "lat": 38.916138333333336, "rental_uris": {"ios": "https://dc.lft.to/lastmile_qr_scan", "android": "https://dc.lft.to/lastmile_qr_scan"}, "is_reserved": 0, "fusion_lon": 0.0, "fusion_lat": 0.0, "lon": -77.033963, "name": "559f0c8e14f7953b199744a248b52c3e"}, {"bike_id": "1aa7851f2450c1a12c4fcd46b78e4d46", "type": "electric_scooter", "is_disabled": 0, "lat": 38.9133125, "rental_uris": {"ios": "https://dc.lft.to/lastmile_qr_scan", "android": "https://dc.lft.to/lastmile_qr_scan"}, "is_reserved": 0, "fusion_lon": 0.0, "fusion_lat": 0.0, "lon": -77.03987316666667, "name": "1aa7851f2450c1a12c4fcd46b78e4d46"}, {"bike_id": "e6d2b45541044ef04363dcdc049c1441", "type": "electric_scooter", "is_disabled": 0, "lat": 38.92259983333334, "rental_uris": {"ios": "https://dc.lft.to/lastmile_qr_scan", "android": "https://dc.lft.to/lastmile_qr_scan"}, "is_reserved": 0, "fusion_lon": 0.0, "fusion_lat": 0.0, "lon": -77.0352145, "name": "e6d2b45541044ef04363dcdc049c1441"}, {"bike_id": "dc8afd04d08d2ed9b4ce2193dcc5eacc", "type": "electric_scooter", "is_disabled": 0, "lat": 38.93399383333333, "rental_uris": {"ios": "https://dc.lft.to/lastmile_qr_scan", "android": "https://dc.lft.to/lastmile_qr_scan"}, "is_reserved": 0, "fusion_lon": 0.0, "fusion_lat": 0.0, "lon": -77.0352075, "name": "dc8afd04d08d2ed9b4ce2193dcc5eacc"}, {"bike_id": "e94816f55e4bf1f321cbfd032578f0bf", "type": "electric_scooter", "is_disabled": 0, "lat": 38.91723866666667, "rental_uris": {"ios": "https://dc.lft.to/lastmile_qr_scan", "android": "https://dc.lft.to/lastmile_qr_scan"}, "is_reserved": 0, "fusion_lon": 0.0, "fusion_lat": 0.0, "lon": -77.03664016666667, "name": "e94816f55e4bf1f321cbfd032578f0bf"}, {"bike_id": "ad41e1ae6eecfc9f8e3b3a8eff0759dc", "type": "electric_scooter", "is_disabled": 0, "lat": 38.908334333333336, "rental_uris": {"ios": "https://dc.lft.to/lastmile_qr_scan", "android": "https://dc.lft.to/lastmile_qr_scan"}, "is_reserved": 0, "fusion_lon": 0.0, "fusion_lat": 0.0, "lon": -77.01978733333333, "name": "ad41e1ae6eecfc9f8e3b3a8eff0759dc"}, {"bike_id": "3fe411d1827d23cd8cc2b034d1b21dd8", "type": "electric_scooter", "is_disabled": 0, "lat": 38.907086666666665, "rental_uris": {"ios": "https://dc.lft.to/lastmile_qr_scan", "android": "https://dc.lft.to/lastmile_qr_scan"}, "is_reserved": 0, "fusion_lon": 0.0, "fusion_lat": 0.0, "lon": -77.04180683333334, "name": "3fe411d1827d23cd8cc2b034d1b21dd8"}, {"bike_id": "a54d6c617e1c328945fc1f3e3ce58668", "type": "electric_scooter", "is_disabled": 0, "lat": 38.93851216666667, "rental_uris": {"ios": "https://dc.lft.to/lastmile_qr_scan", "android": "https://dc.lft.to/lastmile_qr_scan"}, "is_reserved": 0, "fusion_lon": 0.0, "fusion_lat": 0.0, "lon": -77.07230583333333, "name": "a54d6c617e1c328945fc1f3e3ce58668"}, {"bike_id": "73eed1d6450a6a4e10cb07e992de7822", "type": "electric_scooter", "is_disabled": 0, "lat": 38.9098025, "rental_uris": {"ios": "https://dc.lft.to/lastmile_qr_scan", "android": "https://dc.lft.to/lastmile_qr_scan"}, "is_reserved": 0, "fusion_lon": 0.0, "fusion_lat": 0.0, "lon": -77.01505216666666, "name": "73eed1d6450a6a4e10cb07e992de7822"}, {"bike_id": "fd441ac086e42991a69f8fe59e55543e", "type": "electric_scooter", "is_disabled": 0, "lat": 38.92487216666667, "rental_uris": {"ios": "https://dc.lft.to/lastmile_qr_scan", "android": "https://dc.lft.to/lastmile_qr_scan"}, "is_reserved": 0, "fusion_lon": 0.0, "fusion_lat": 0.0, "lon": -77.05208716666667, "name": "fd441ac086e42991a69f8fe59e55543e"}, {"bike_id": "c2b78678dc0a61bd3d2fa94f0e0ef944", "type": "electric_scooter", "is_disabled": 0, "lat": 38.944167666666665, "rental_uris": {"ios": "https://dc.lft.to/lastmile_qr_scan", "android": "https://dc.lft.to/lastmile_qr_scan"}, "is_reserved": 0, "fusion_lon": 0.0, "fusion_lat": 0.0, "lon": -77.00731716666667, "name": "c2b78678dc0a61bd3d2fa94f0e0ef944"}, {"bike_id": "2f5a5ad40058675b98a5503881144169", "type": "electric_scooter", "is_disabled": 0, "lat": 38.9094375, "rental_uris": {"ios": "https://dc.lft.to/lastmile_qr_scan", "android": "https://dc.lft.to/lastmile_qr_scan"}, "is_reserved": 0, "fusion_lon": 0.0, "fusion_lat": 0.0, "lon": -77.05556166666666, "name": "2f5a5ad40058675b98a5503881144169"}, {"bike_id": "7bcc5885c94203f742afdb3646e6af1f", "type": "electric_scooter", "is_disabled": 0, "lat": 38.91108666666667, "rental_uris": {"ios": "https://dc.lft.to/lastmile_qr_scan", "android": "https://dc.lft.to/lastmile_qr_scan"}, "is_reserved": 0, "fusion_lon": 0.0, "fusion_lat": 0.0, "lon": -77.01151166666666, "name": "7bcc5885c94203f742afdb3646e6af1f"}, {"bike_id": "789686fa47eabbfa186250c0e9f3a328", "type": "electric_scooter", "is_disabled": 0, "lat": 38.84435833333333, "rental_uris": {"ios": "https://dc.lft.to/lastmile_qr_scan", "android": "https://dc.lft.to/lastmile_qr_scan"}, "is_reserved": 0, "fusion_lon": 0.0, "fusion_lat": 0.0, "lon": -76.998708, "name": "789686fa47eabbfa186250c0e9f3a328"}, {"bike_id": "ecbaeab40aeccd46ebdd311cd5c9b4ed", "type": "electric_scooter", "is_disabled": 0, "lat": 38.905714333333336, "rental_uris": {"ios": "https://dc.lft.to/lastmile_qr_scan", "android": "https://dc.lft.to/lastmile_qr_scan"}, "is_reserved": 0, "fusion_lon": 0.0, "fusion_lat": 0.0, "lon": -77.04548433333333, "name": "ecbaeab40aeccd46ebdd311cd5c9b4ed"}, {"bike_id": "836d6ed059f602113a7d73b7837524ad", "type": "electric_scooter", "is_disabled": 0, "lat": 38.90504983333334, "rental_uris": {"ios": "https://dc.lft.to/lastmile_qr_scan", "android": "https://dc.lft.to/lastmile_qr_scan"}, "is_reserved": 0, "fusion_lon": 0.0, "fusion_lat": 0.0, "lon": -77.06909333333333, "name": "836d6ed059f602113a7d73b7837524ad"}, {"bike_id": "f2caa8b96b41359132e517a641b9df43", "type": "electric_scooter", "is_disabled": 0, "lat": 38.882712, "rental_uris": {"ios": "https://dc.lft.to/lastmile_qr_scan", "android": "https://dc.lft.to/lastmile_qr_scan"}, "is_reserved": 0, "fusion_lon": 0.0, "fusion_lat": 0.0, "lon": -76.99358983333333, "name": "f2caa8b96b41359132e517a641b9df43"},