{"data": {"bikes": [{"is_disabled": 0, "rental_uris": {"android": "https://dc.lft.to/lastmile_qr_scan", "ios": "https://dc.lft.to/lastmile_qr_scan"}, "is_reserved": 0, "name": "89d9dec193f286bcae4a50e7b63ea264", "lon": -77.04390233333334, "type": "electric_scooter", "bike_id": "89d9dec193f286bcae4a50e7b63ea264", "fusion_lon": 0.0, "lat": 38.905872, "fusion_lat": 0.0}, {"is_disabled": 0, "rental_uris": {"android": "https://dc.lft.to/lastmile_qr_scan", "ios": "https://dc.lft.to/lastmile_qr_scan"}, "is_reserved": 0, "name": "b9d1ae409611c29945922202fbeaa487", "lon": -77.00705716666667, "type": "electric_scooter", "bike_id": "b9d1ae409611c29945922202fbeaa487", "fusion_lon": 0.0, "lat": 38.9002075, "fusion_lat": 0.0}, {"is_disabled": 0, "rental_uris": {"android": "https://dc.lft.to/lastmile_qr_scan", "ios": "https://dc.lft.to/lastmile_qr_scan"}, "is_reserved": 0, "name": "67460cbf1729bc565c64292cb02351cf", "lon": -76.94895733333334, "type": "electric_scooter", "bike_id": "67460cbf1729bc565c64292cb02351cf", "fusion_lon": 0.0, "lat": 38.895270833333335, "fusion_lat": 0.0}, {"is_disabled": 0, "rental_uris": {"android": "https://dc.lft.to/lastmile_qr_scan", "ios": "https://dc.lft.to/lastmile_qr_scan"}, "is_reserved": 0, "name": "b5a648c22c48c7c4e490811f19224c51", "lon": -76.97381916666667, "type": "electric_scooter", "bike_id": "b5a648c22c48c7c4e490811f19224c51", "fusion_lon": 0.0, "lat": 38.883708, "fusion_lat": 0.0}, {"is_disabled": 0, "rental_uris": {"android": "https://dc.lft.to/lastmile_qr_scan", "ios": "https://dc.lft.to/lastmile_qr_scan"}, "is_reserved": 0, "name": "06a2552be3646b18ccd5432ac30dc38c", "lon": -77.03234933333333, "type": "electric_scooter", "bike_id": "06a2552be3646b18ccd5432ac30dc38c", "fusion_lon": 0.0, "lat": 38.900176333333334, "fusion_lat": 0.0}, {"is_disabled": 0, "rental_uris": {"android": "https://dc.lft.to/lastmile_qr_scan", "ios": "https://dc.lft.to/lastmile_qr_scan"}, "is_reserved": 0, "name": "475c329d0b67780fa5589f5a7a62a943", "lon": -76.99958416666666, "type": "electric_scooter", "bike_id": "475c329d0b67780fa5589f5a7a62a943", "fusion_lon": 0.0, "lat": 38.842921833333335, "fusion_lat": 0.0}, {"is_disabled": 0, "rental_uris": {"android": "https://dc.lft.to/lastmile_qr_scan", "ios": "https://dc.lft.to/lastmile_qr_scan"}, "is_reserved": 0, "name": "df65ebdfdb62f7bad9ddff0108ca3562", "lon": -77.05937233333333, "type": "electric_scooter", "bike_id": "df65ebdfdb62f7bad9ddff0108ca3562", "fusion_lon": 0.0, "lat": 38.93674683333333, "fusion_lat": 0.0}, {"is_disabled": 0, "rental_uris": {"android": "https://dc.lft.to/lastmile_qr_scan", "ios": "https://dc.lft.to/lastmile_qr_scan"}, "is_reserved": 0, "name": "1fef4e8ad4fb4d153fa750593c1e979a", "lon": -76.94783433333333, "type": "electric_scooter", "bike_id": "1fef4e8ad4fb4d153fa750593c1e979a", "fusion_lon": 0.0, "lat": 38.884626833333336, "fusion_lat": 0.0}, {"is_disabled": 0, "rental_uris": {"android": "https://dc.lft.to/lastmile_qr_scan", "ios": "https://dc.lft.to/lastmile_qr_scan"}, "is_reserved": 0, "name": "0da6e6c9b2b3707ded1524205eda6d79", "lon": -77.01768983333334, "type": "electric_scooter", "bike_id": "0da6e6c9b2b3707ded1524205eda6d79", "fusion_lon": 0.0, "lat": 38.92104916666667, "fusion_lat": 0.0}, {"is_disabled": 0, "rental_uris": {"android": "https://dc.lft.to/lastmile_qr_scan", "ios": "https://dc.lft.to/lastmile_qr_scan"}, "is_reserved": 0, "name": "9ad72242b5c9bdf4694016dfef5392cb", "lon": -77.22937016666667, "type": "electric_bike", "bike_id": "9ad72242b5c9bdf4694016dfef5392cb", "fusion_lon": 0.0, "lat": 38.93188933333333, "fusion_lat": 0.0}, {"is_disabled": 0, "rental_uris": {"android": "https://dc.lft.to/lastmile_qr_scan", "ios": "https://dc.lft.to/lastmile_qr_scan"}, "is_reserved": 0, "name": "84f5ee7c7116ac6846eccf6c5b393b6c", "lon": -76.93184366666667, "type": "electric_scooter", "bike_id": "84f5ee7c7116ac6846eccf6c5b393b6c", "fusion_lon": 0.0, "lat": 38.898763833333334, "fusion_lat": 0.0}, {"is_disabled": 0, "rental_uris": {"android": "https://dc.lft.to/lastmile_qr_scan", "ios": "https://dc.lft.to/lastmile_qr_scan"}, "is_reserved": 0, "name": "d069a4839990fc724b5c7ed63a2088c7", "lon": -77.00204966666666, "type": "electric_scooter", "bike_id": "d069a4839990fc724b5c7ed63a2088c7", "fusion_lon": 0.0, "lat": 38.90039766666666, "fusion_lat": 0.0}, {"is_disabled": 0, "rental_uris": {"android": "https://dc.lft.to/lastmile_qr_scan", "ios": "https://dc.lft.to/lastmile_qr_scan"}, "is_reserved": 0, "name": "9fe575ca7fa78f9471d46c1a5372aa86", "lon": -77.036039, "type": "electric_scooter", "bike_id": "9fe575ca7fa78f9471d46c1a5372aa86", "fusion_lon": 0.0, "lat": 38.93487316666667, "fusion_lat": 0.0}, {"is_disabled": 0, "rental_uris": {"android": "https://dc.lft.to/lastmile_qr_scan", "ios": "https://dc.lft.to/lastmile_qr_scan"}, "is_reserved": 0, "name": "b00157fe23245f47cb58d822943c8315", "lon": -77.0432625, "type": "electric_scooter", "bike_id": "b00157fe23245f47cb58d822943c8315", "fusion_lon": 0.0, "lat": 38.906187333333335, "fusion_lat": 0.0}, {"is_disabled": 0, "rental_uris": {"android": "https://dc.lft.to/lastmile_qr_scan", "ios": "https://dc.lft.to/lastmile_qr_scan"}, "is_reserved": 0, "name": "782904eb080aa9cad2ab0129f5049d12", "lon": -77.022265, "type": "electric_scooter", "bike_id": "782904eb080aa9cad2ab0129f5049d12", "fusion_lon": 0.0, "lat": 38.89220066666667, "fusion_lat": 0.0}, {"is_disabled": 0, "rental_uris": {"android": "https://dc.lft.to/lastmile_qr_scan", "ios": "https://dc.lft.to/lastmile_qr_scan"}, "is_reserved": 0, "name": "0b6522016b1d7a7b44dc5d04326e554e", "lon": -76.91657116666667, "type": "electric_bike", "bike_id": "0b6522016b1d7a7b44dc5d04326e554e", "fusion_lon": 0.0, "lat": 38.8686095, "fusion_lat": 0.0}, {"is_disabled": 0, "rental_uris": {"android": "https://dc.lft.to/lastmile_qr_scan", "ios": "https://dc.lft.to/lastmile_qr_scan"}, "is_reserved": 0, "name": "6e90169851fdd853f2632b05e09a9bc9", "lon": -77.02572666666667, "type": "electric_scooter", "bike_id": "6e90169851fdd853f2632b05e09a9bc9", "fusion_lon": 0.0, "lat": 38.8953025, "fusion_lat": 0.0}, {"is_disabled": 0, "rental_uris": {"android": "https://dc.lft.to/lastmile_qr_scan", "ios": "https://dc.lft.to/lastmile_qr_scan"}, "is_reserved": 0, "name": "a0843426c7856835422269521d8eefc7", "lon": -77.12267383333334, "type": "electric_bike", "bike_id": "a0843426c7856835422269521d8eefc7", "fusion_lon": 0.0, "lat": 38.8973345, "fusion_lat": 0.0}, {"is_disabled": 0, "rental_uris": {"android": "https://dc.lft.to/lastmile_qr_scan", "ios": "https://dc.lft.to/lastmile_qr_scan"}, "is_reserved": 0, "name": "d241178752a9250c8fc6a4c6aca9a305", "lon": -77.03953233333333, "type": "electric_scooter", "bike_id": "d241178752a9250c8fc6a4c6aca9a305", "fusion_lon": 0.0, "lat": 38.913999833333335, "fusion_lat": 0.0}, {"is_disabled": 0, "rental_uris": {"android": "https://dc.lft.to/lastmile_qr_scan", "ios": "https://dc.lft.to/lastmile_qr_scan"}, "is_reserved": 0, "name": "4d85860dcdbb47b182f47074c29817f5", "lon": -77.02360733333333, "type": "electric_scooter", "bike_id": "4d85860dcdbb47b182f47074c29817f5", "fusion_lon": 0.0, "lat": 38.9251525, "fusion_lat": 0.0}, {"is_disabled": 0, "rental_uris": {"android": "https://dc.lft.to/lastmile_qr_scan", "ios": "https://dc.lft.to/lastmile_qr_scan"}, "is_reserved": 0, "name": "91a2a5f6cf0622e03c99778f8b37e5df", "lon": -77.00656416666666, "type": "electric_scooter", "bike_id": "91a2a5f6cf0622e03c99778f8b37e5df", "fusion_lon": 0.0, "lat": 38.944644833333335, "fusion_lat": 0.0}, {"is_disabled": 0, "rental_uris": {"android": "https://dc.lft.to/lastmile_qr_scan", "ios": "https://dc.lft.to/lastmile_qr_scan"}, "is_reserved": 0, "name": "2d1f0af578dca4e818b699632a213dab", "lon": -77.00566433333333, "type": "electric_scooter", "bike_id": "2d1f0af578dca4e818b699632a213dab", "fusion_lon": 0.0, "lat": 38.885039166666665, "fusion_lat": 0.0}, {"is_disabled": 0, "rental_uris": {"android": "https://dc.lft.to/lastmile_qr_scan", "ios": "https://dc.lft.to/lastmile_qr_scan"}, "is_reserved": 0, "name": "96d246b3fed728964f4a18330e93bd30", "lon": -77.03665833333334, "type": "electric_scooter", "bike_id": "96d246b3fed728964f4a18330e93bd30", "fusion_lon": 0.0, "lat": 38.923264833333334, "fusion_lat": 0.0}, {"is_disabled": 0, "rental_uris": {"android": "https://dc.lft.to/lastmile_qr_scan", "ios": "https://dc.lft.to/lastmile_qr_scan"}, "is_reserved": 0, "name": "58a1cdd84d1bc51b5f4af87414d85afb", "lon": -77.02898283333333, "type": "electric_bike", "bike_id": "58a1cdd84d1bc51b5f4af87414d85afb", "fusion_lon": 0.0, "lat": 38.99840416666667, "fusion_lat": 0.0}, {"is_disabled": 0, "rental_uris": {"android": "https://dc.lft.to/lastmile_qr_scan", "ios": "https://dc.lft.to/lastmile_qr_scan"}, "is_reserved": 0, "name": "366ceb2422933960a107e48200a41d41", "lon": -77.00340233333333, "type": "electric_scooter", "bike_id": "366ceb2422933960a107e48200a41d41", "fusion_lon": 0.0, "lat": 38.89601, "fusion_lat": 0.0}, {"is_disabled": 0, "rental_uris": {"android": "https://dc.lft.to/lastmile_qr_scan", "ios": "https://dc.lft.to/lastmile_qr_scan"}, "is_reserved": 0, "name": "b2213ffbc41166bd6b1daf39cf9fe10a", "lon": -77.00804666666667, "type": "electric_bike", "bike_id": "b2213ffbc41166bd6b1daf39cf9fe10a", "fusion_lon": 0.0, "lat": 38.95344733333334, "fusion_lat": 0.0}, {"is_disabled": 0, "rental_uris": {"android": "https://dc.lft.to/lastmile_qr_scan", "ios": "https://dc.lft.to/lastmile_qr_scan"}, "is_reserved": 0, "name": "e1e56bf07a020b5d441a235d51a6f160", "lon": -77.05172383333333, "type": "electric_scooter", "bike_id": "e1e56bf07a020b5d441a235d51a6f160", "fusion_lon": 0.0, "lat": 38.9032525, "fusion_lat": 0.0}, {"is_disabled": 0, "rental_uris": {"android": "https://dc.lft.to/lastmile_qr_scan", "ios": "https://dc.lft.to/lastmile_qr_scan"}, "is_reserved": 0, "name": "771a0c69b0bf2dab5d8bcab0520e80e1", "lon": -77.0101325, "type": "electric_scooter", "bike_id": "771a0c69b0bf2dab5d8bcab0520e80e1", "fusion_lon": 0.0, "lat": 38.86720033333334, "fusion_lat": 0.0}, {"is_disabled": 0, "rental_uris": {"android": "https://dc.lft.to/lastmile_qr_scan", "ios": "https://dc.lft.to/lastmile_qr_scan"}, "is_reserved": 0, "name": "6f7821b23a22d1da3c4668ee30098f39", "lon": -76.94156316666667, "type": "electric_scooter", "bike_id": "6f7821b23a22d1da3c4668ee30098f39", "fusion_lon": 0.0, "lat": 38.883646166666665, "fusion_lat": 0.0}, {"is_disabled": 0, "rental_uris": {"android": "https://dc.lft.to/lastmile_qr_scan", "ios": "https://dc.lft.to/lastmile_qr_scan"}, "is_reserved": 0, "name": "666718e302847582ac1b90a91050f6d9", "lon": -77.0141575, "type": "electric_scooter", "bike_id": "666718e302847582ac1b90a91050f6d9", "fusion_lon": 0.0, "lat": 38.92828133333333, "fusion_lat": 0.0}, {"is_disabled": 0, "rental_uris": {"android": "https://dc.lft.to/lastmile_qr_scan", "ios": "https://dc.lft.to/lastmile_qr_scan"}, "is_reserved": 0, "name": "4b0ec53b7b7bc77daa9939564800638c", "lon": -77.03220983333334, "type": "electric_scooter", "bike_id": "4b0ec53b7b7bc77daa9939564800638c", "fusion_lon": 0.0, "lat": 38.9247385, "fusion_lat": 0.0}, {"is_disabled": 0, "rental_uris": {"android": "https://dc.lft.to/lastmile_qr_scan", "ios": "https://dc.lft.to/lastmile_qr_scan"}, "is_reserved": 0, "name": "c5216736e23ff0f643708383eb35e9ac", "lon": -76.9373615, "type": "electric_scooter", "bike_id": "c5216736e23ff0f643708383eb35e9ac", "fusion_lon": 0.0, "lat": 38.89007266666667, "fusion_lat": 0.0}, {"is_disabled": 0, "rental_uris": {"android": "https://dc.lft.to/lastmile_qr_scan", "ios": "https://dc.lft.to/lastmile_qr_scan"}, "is_reserved": 0, "name": "deb35f16ad53be9b069debe0f3f0016e", "lon": -77.03780883333333, "type": "electric_scooter", "bike_id": "deb35f16ad53be9b069debe0f3f0016e", "fusion_lon": 0.0, "lat": 38.936064333333334, "fusion_lat": 0.0}, {"is_disabled": 0, "rental_uris": {"android": "https://dc.lft.to/lastmile_qr_scan", "ios": "https://dc.lft.to/lastmile_qr_scan"}, "is_reserved": 0, "name": "aa6d12e477bb72e543b162dcb397888e", "lon": -76.90968266666667, "type": "electric_bike", "bike_id": "aa6d12e477bb72e543b162dcb397888e", "fusion_lon": 0.0, "lat": 38.8542795, "fusion_lat": 0.0}, {"is_disabled": 0, "rental_uris": {"android": "https://dc.lft.to/lastmile_qr_scan", "ios": "https://dc.lft.to/lastmile_qr_scan"}, "is_reserved": 0, "name": "eafcd453116934426bf6a275f9cc15c5", "lon": -77.039383, "type": "electric_scooter", "bike_id": "eafcd453116934426bf6a275f9cc15c5", "fusion_lon": 0.0, "lat": 38.89867816666667, "fusion_lat": 0.0}, {"is_disabled": 0, "rental_uris": {"android": "https://dc.lft.to/lastmile_qr_scan", "ios": "https://dc.lft.to/lastmile_qr_scan"}, "is_reserved": 0, "name": "279ed8058ffab7ea0cfd858c53be6c33", "lon": -77.061027, "type": "electric_scooter", "bike_id": "279ed8058ffab7ea0cfd858c53be6c33", "fusion_lon": 0.0, "lat": 38.943768166666665, "fusion_lat": 0.0}, {"is_disabled": 0, "rental_uris": {"android": "https://dc.lft.to/lastmile_qr_scan", "ios": "https://dc.lft.to/lastmile_qr_scan"}, "is_reserved": 0, "name": "c22f2f32364745568147b94712fcca8f", "lon": -77.05293533333334, "type": "electric_scooter", "bike_id": "c22f2f32364745568147b94712fcca8f", "fusion_lon": 0.0, "lat": 38.9033695, "fusion_lat": 0.0}, {"is_disabled": 0, "rental_uris": {"android": "https://dc.lft.to/lastmile_qr_scan", "ios": "https://dc.lft.to/lastmile_qr_scan"}, "is_reserved": 0, "name": "b1db15c931ea0d516921e48508e35a78", "lon": -77.030594, "type": "electric_scooter", "bike_id": "b1db15c931ea0d516921e48508e35a78", "fusion_lon": 0.0, "lat": 38.901211, "fusion_lat": 0.0}, {"is_disabled": 0, "rental_uris": {"android": "https://dc.lft.to/lastmile_qr_scan", "ios": "https://dc.lft.to/lastmile_qr_scan"}, "is_reserved": 0, "name": "79deffb2d2aa066c13315637123062ed", "lon": -77.051359, "type": "electric_scooter", "bike_id": "79deffb2d2aa066c13315637123062ed", "fusion_lon": 0.0, "lat": 38.90705633333334, "fusion_lat": 0.0}, {"is_disabled": 0, "rental_uris": {"android": "https://dc.lft.to/lastmile_qr_scan", "ios": "https://dc.lft.to/lastmile_qr_scan"}, "is_reserved": 0, "name": "956c246052da6cc5e4ca0f18021a38d5", "lon": -77.03633516666666, "type": "electric_scooter", "bike_id": "956c246052da6cc5e4ca0f18021a38d5", "fusion_lon": 0.0, "lat": 38.918179, "fusion_lat": 0.0}, {"is_disabled": 0, "rental_uris": {"android": "https://dc.lft.to/lastmile_qr_scan", "ios": "https://dc.lft.to/lastmile_qr_scan"}, "is_reserved": 0, "name": "652a01f27e50b722b33437bdfc5a34f8", "lon": -77.03659866666666, "type": "electric_scooter", "bike_id": "652a01f27e50b722b33437bdfc5a34f8", "fusion_lon": 0.0, "lat": 38.917343, "fusion_lat": 0.0}, {"is_disabled": 0, "rental_uris": {"android": "https://dc.lft.to/lastmile_qr_scan", "ios": "https://dc.lft.to/lastmile_qr_scan"}, "is_reserved": 0, "name": "952abfd4902cdb9ee2ee905ad7bb317d", "lon": -77.02541816666667, "type": "electric_scooter", "bike_id": "952abfd4902cdb9ee2ee905ad7bb317d", "fusion_lon": 0.0, "lat": 38.984141, "fusion_lat": 0.0}, {"is_disabled": 0, "rental_uris": {"android": "https://dc.lft.to/lastmile_qr_scan", "ios": "https://dc.lft.to/lastmile_qr_scan"}, "is_reserved": 0, "name": "a25b5a62b53817c69500f5f3a029f1bb", "lon": -77.05138016666666, "type": "electric_scooter", "bike_id": "a25b5a62b53817c69500f5f3a029f1bb", "fusion_lon": 0.0, "lat": 38.906343666666665, "fusion_lat": 0.0}, {"is_disabled": 0, "rental_uris": {"android": "https://dc.lft.to/lastmile_qr_scan", "ios": "https://dc.lft.to/lastmile_qr_scan"}, "is_reserved": 0, "name": "aec5356dd518e53d12dd76ec8871ac05", "lon": -77.12508316666667, "type": "electric_bike", "bike_id": "aec5356dd518e53d12dd76ec8871ac05", "fusion_lon": 0.0, "lat": 39.024269, "fusion_lat": 0.0}, {"is_disabled": 0, "rental_uris": {"android": "https://dc.lft.to/lastmile_qr_scan", "ios": "https://dc.lft.to/lastmile_qr_scan"}, "is_reserved": 0, "name": "619d5d0eb88a42c7246452f6954b54c8", "lon": -77.03192216666666, "type": "electric_scooter", "bike_id": "619d5d0eb88a42c7246452f6954b54c8", "fusion_lon": 0.0, "lat": 38.9074305, "fusion_lat": 0.0}, {"is_disabled": 0, "rental_uris": {"android": "https://dc.lft.to/lastmile_qr_scan", "ios": "https://dc.lft.to/lastmile_qr_scan"}, "is_reserved": 0, "name": "cf4b02daac9c8adf2a4cc8de3b62409a", "lon": -77.03182766666667, "type": "electric_scooter", "bike_id": "cf4b02daac9c8adf2a4cc8de3b62409a", "fusion_lon": 0.0, "lat": 38.892258166666664, "fusion_lat": 0.0}, {"is_disabled": 0, "rental_uris": {"android": "https://dc.lft.to/lastmile_qr_scan", "ios": "https://dc.lft.to/lastmile_qr_scan"}, "is_reserved": 0, "name": "3557388c9222b6e37630a441de545f0e", "lon": -77.0322245, "type": "electric_scooter", "bike_id": "3557388c9222b6e37630a441de545f0e", "fusion_lon": 0.0, "lat": 38.925487333333336, "fusion_lat": 0.0}, {"is_disabled": 0, "rental_uris": {"android": "https://dc.lft.to/lastmile_qr_scan", "ios": "https://dc.lft.to/lastmile_qr_scan"}, "is_reserved": 0, "name": "034c06237073d38a1ba9d7b8afea8ed4", "lon": -77.0319375, "type": "electric_scooter", "bike_id": "034c06237073d38a1ba9d7b8afea8ed4", "fusion_lon": 0.0, "lat": 38.91602916666667, "fusion_lat": 0.0}, {"is_disabled": 0, "rental_uris": {"android": "https://dc.lft.to/lastmile_qr_scan", "ios": "https://dc.lft.to/lastmile_qr_scan"}, "is_reserved": 0, "name": "a8ac4947430b725b051d9827bb543c12", "lon": -76.9383945, "type": "electric_scooter", "bike_id": "a8ac4947430b725b051d9827bb543c12", "fusion_lon": 0.0, "lat": 38.89010833333333, "fusion_lat": 0.0}, {"is_disabled": 0, "rental_uris": {"android": "https://dc.lft.to/lastmile_qr_scan", "ios": "https://dc.lft.to/lastmile_qr_scan"}, "is_reserved": 0, "name": "f2a55c7466350df3a7267a580dae793e", "lon": -77.023156, "type": "electric_scooter", "bike_id": "f2a55c7466350df3a7267a580dae793e", "fusion_lon": 0.0, "lat": 38.926673, "fusion_lat": 0.0}, {"is_disabled": 0, "rental_uris": {"android": "https://dc.lft.to/lastmile_qr_scan", "ios": "https://dc.lft.to/lastmile_qr_scan"}, "is_reserved": 0, "name": "cfbd67330760b2ebbadd9832b57148d9", "lon": -77.038712, "type": "electric_scooter", "bike_id": "cfbd67330760b2ebbadd9832b57148d9", "fusion_lon": 0.0, "lat": 38.91265416666667, "fusion_lat": 0.0}, {"is_disabled": 0, "rental_uris": {"android": "https://dc.lft.to/lastmile_qr_scan", "ios": "https://dc.lft.to/lastmile_qr_scan"}, "is_reserved": 0, "name": "f37341987d251c426542df9d823ab280", "lon": -77.044838, "type": "electric_scooter", "bike_id": "f37341987d251c426542df9d823ab280", "fusion_lon": 0.0, "lat": 38.90861866666667, "fusion_lat": 0.0}, {"is_disabled": 0, "rental_uris": {"android": "https://dc.lft.to/lastmile_qr_scan", "ios": "https://dc.lft.to/lastmile_qr_scan"}, "is_reserved": 0, "name": "f4145f626e3a6c8a5faa0f8d72c62fd8", "lon": -77.0438275, "type": "electric_bike", "bike_id": "f4145f626e3a6c8a5faa0f8d72c62fd8", "fusion_lon": 0.0, "lat": 39.05272933333333, "fusion_lat": 0.0}, {"is_disabled": 0, "rental_uris": {"android": "https://dc.lft.to/lastmile_qr_scan", "ios": "https://dc.lft.to/lastmile_qr_scan"}, "is_reserved": 0, "name": "005c07fdeacd339df1b096e7dc194d6b", "lon": -76.98664016666666, "type": "electric_scooter", "bike_id": "005c07fdeacd339df1b096e7dc194d6b", "fusion_lon": 0.0, "lat": 38.90141966666667, "fusion_lat": 0.0}, {"is_disabled": 0, "rental_uris": {"android": "https://dc.lft.to/lastmile_qr_scan", "ios": "https://dc.lft.to/lastmile_qr_scan"}, "is_reserved": 0, "name": "f53bcf5cd928fd7b4868a41b215fca33", "lon": -77.0106315, "type": "electric_bike", "bike_id": "f53bcf5cd928fd7b4868a41b215fca33", "fusion_lon": 0.0, "lat": 38.8976805, "fusion_lat": 0.0}, {"is_disabled": 0, "rental_uris": {"android": "https://dc.lft.to/lastmile_qr_scan", "ios": "https://dc.lft.to/lastmile_qr_scan"}, "is_reserved": 0, "name": "2da6a1308c0ed76bfc07a9432c7e262f", "lon": -76.93186166666666, "type": "electric_scooter", "bike_id": "2da6a1308c0ed76bfc07a9432c7e262f", "fusion_lon": 0.0, "lat": 38.89878516666667, "fusion_lat": 0.0}, {"is_disabled": 0, "rental_uris": {"android": "https://dc.lft.to/lastmile_qr_scan", "ios": "https://dc.lft.to/lastmile_qr_scan"}, "is_reserved": 0, "name": "4be82a443424d519a054fff8ecb2036e", "lon": -77.02258983333333, "type": "electric_scooter", "bike_id": "4be82a443424d519a054fff8ecb2036e", "fusion_lon": 0.0, "lat": 38.92825583333333, "fusion_lat": 0.0}, {"is_disabled": 0, "rental_uris": {"android": "https://dc.lft.to/lastmile_qr_scan", "ios": "https://dc.lft.to/lastmile_qr_scan"}, "is_reserved": 0, "name": "28be72aa96dde3e90ef3fef3751f47a5", "lon": -77.04736316666667, "type": "electric_scooter", "bike_id": "28be72aa96dde3e90ef3fef3751f47a5", "fusion_lon": 0.0, "lat": 38.905494, "fusion_lat": 0.0}, {"is_disabled": 0, "rental_uris": {"android": "https://dc.lft.to/lastmile_qr_scan", "ios": "https://dc.lft.to/lastmile_qr_scan"}, "is_reserved": 0, "name": "5214cc92741bccb2c55a2964d093ecb6", "lon": -77.02960716666666, "type": "electric_scooter", "bike_id": "5214cc92741bccb2c55a2964d093ecb6", "fusion_lon": 0.0, "lat": 38.905057666666664, "fusion_lat": 0.0}, {"is_disabled": 0, "rental_uris": {"android": "https://dc.lft.to/lastmile_qr_scan", "ios": "https://dc.lft.to/lastmile_qr_scan"}, "is_reserved": 0, "name": "11a3de43b8b632c299f05235e39c2c5d", "lon": -77.01780883333333, "type": "electric_scooter", "bike_id": "11a3de43b8b632c299f05235e39c2c5d", "fusion_lon": 0.0, "lat": 38.913563333333336, "fusion_lat": 0.0}, {"is_disabled": 0, "rental_uris": {"android": "https://dc.lft.to/lastmile_qr_scan", "ios": "https://dc.lft.to/lastmile_qr_scan"}, "is_reserved": 0, "name": "48108b91b0f0c8317088b341757d9f46", "lon": -77.0344115, "type": "electric_scooter", "bike_id": "48108b91b0f0c8317088b341757d9f46", "fusion_lon": 0.0, "lat": 38.907267, "fusion_lat": 0.0}, {"is_disabled": 0, "rental_uris": {"android": "https://dc.lft.to/lastmile_qr_scan", "ios": "https://dc.lft.to/lastmile_qr_scan"}, "is_reserved": 0, "name": "59097358cde2f108ea1544204ea6da61", "lon": -77.01821466666667, "type": "electric_scooter", "bike_id": "59097358cde2f108ea1544204ea6da61", "fusion_lon": 0.0, "lat": 38.92202416666667, "fusion_lat": 0.0}, {"is_disabled": 0, "rental_uris": {"android": "https://dc.lft.to/lastmile_qr_scan", "ios": "https://dc.lft.to/lastmile_qr_scan"}, "is_reserved": 0, "name": "d77aa896e076321824336eee24dad775", "lon": -77.07251483333333, "type": "electric_scooter", "bike_id": "d77aa896e076321824336eee24dad775", "fusion_lon": 0.0, "lat": 38.907810833333336, "fusion_lat": 0.0}, {"is_disabled": 0, "rental_uris": {"android": "https://dc.lft.to/lastmile_qr_scan", "ios": "https://dc.lft.to/lastmile_qr_scan"}, "is_reserved": 0, "name": "12e8de688e9e5bafe0b0115cf699e651", "lon": -77.02882633333333, "type": "electric_scooter", "bike_id": "12e8de688e9e5bafe0b0115cf699e651", "fusion_lon": 0.0, "lat": 38.901343, "fusion_lat": 0.0}, {"is_disabled": 0, "rental_uris": {"android": "https://dc.lft.to/lastmile_qr_scan", "ios": "https://dc.lft.to/lastmile_qr_scan"}, "is_reserved": 0, "name": "65d100c99fef24d569c631c660ea4bb9", "lon": -77.03177816666667, "type": "electric_scooter", "bike_id": "65d100c99fef24d569c631c660ea4bb9", "fusion_lon": 0.0, "lat": 38.91416733333333, "fusion_lat": 0.0}, {"is_disabled": 0, "rental_uris": {"android": "https://dc.lft.to/lastmile_qr_scan", "ios": "https://dc.lft.to/lastmile_qr_scan"}, "is_reserved": 0, "name": "8be35286e82812febf203f529fcccadb", "lon": -77.0270215, "type": "electric_scooter", "bike_id": "8be35286e82812febf203f529fcccadb", "fusion_lon": 0.0, "lat": 38.94985466666667, "fusion_lat": 0.0}, {"is_disabled": 0, "rental_uris": {"android": "https://dc.lft.to/lastmile_qr_scan", "ios": "https://dc.lft.to/lastmile_qr_scan"}, "is_reserved": 0, "name": "665b5e3456bd92a96e5be03d67d03d96", "lon": -77.03632416666666, "type": "electric_scooter", "bike_id": "665b5e3456bd92a96e5be03d67d03d96", "fusion_lon": 0.0, "lat": 38.9304965, "fusion_lat": 0.0}, {"is_disabled": 0, "rental_uris": {"android": "https://dc.lft.to/lastmile_qr_scan", "ios": "https://dc.lft.to/lastmile_qr_scan"}, "is_reserved": 0, "name": "1d07ec26710f91ea70e689763f4617e3", "lon": -77.022012, "type": "electric_scooter", "bike_id": "1d07ec26710f91ea70e689763f4617e3", "fusion_lon": 0.0, "lat": 38.910206333333335, "fusion_lat": 0.0}, {"is_disabled": 0, "rental_uris": {"android": "https://dc.lft.to/lastmile_qr_scan", "ios": "https://dc.lft.to/lastmile_qr_scan"}, "is_reserved": 0, "name": "52cc8540d30731ba50b7744925066e0b", "lon": -77.0493685, "type": "electric_scooter", "bike_id": "52cc8540d30731ba50b7744925066e0b", "fusion_lon": 0.0, "lat": 38.907070166666664, "fusion_lat": 0.0}, {"is_disabled": 0, "rental_uris": {"android": "https://dc.lft.to/lastmile_qr_scan", "ios": "https://dc.lft.to/lastmile_qr_scan"}, "is_reserved": 0, "name": "eaf7509dd8ce03b1f91dacc2c1e61ec9", "lon": -76.96530566666667, "type": "electric_scooter", "bike_id": "eaf7509dd8ce03b1f91dacc2c1e61ec9", "fusion_lon": 0.0, "lat": 38.8762755, "fusion_lat": 0.0}, {"is_disabled": 0, "rental_uris": {"android": "https://dc.lft.to/lastmile_qr_scan", "ios": "https://dc.lft.to/lastmile_qr_scan"}, "is_reserved": 0, "name": "52416df638b7fa7ad789cebd195b0e97", "lon": -77.024732, "type": "electric_scooter", "bike_id": "52416df638b7fa7ad789cebd195b0e97", "fusion_lon": 0.0, "lat": 38.93857033333333, "fusion_lat": 0.0}, {"is_disabled": 0, "rental_uris": {"android": "https://dc.lft.to/lastmile_qr_scan", "ios": "https://dc.lft.to/lastmile_qr_scan"}, "is_reserved": 0, "name": "052e65777873caac11314fda755e8085", "lon": -77.033806, "type": "electric_scooter", "bike_id": "052e65777873caac11314fda755e8085", "fusion_lon": 0.0, "lat": 38.9215615, "fusion_lat": 0.0}, {"is_disabled": 0, "rental_uris": {"android": "https://dc.lft.to/lastmile_qr_scan", "ios": "https://dc.lft.to/lastmile_qr_scan"}, "is_reserved": 0, "name": "6096ebdca77293b6373d319d27a440a9", "lon": -77.00668316666666, "type": "electric_bike", "bike_id": "6096ebdca77293b6373d319d27a440a9", "fusion_lon": 0.0, "lat": 38.94506033333333, "fusion_lat": 0.0}, {"is_disabled": 0, "rental_uris": {"android": "https://dc.lft.to/lastmile_qr_scan", "ios": "https://dc.lft.to/lastmile_qr_scan"}, "is_reserved": 0, "name": "dd98b107550c76ec9d083376ca9f9802", "lon": -77.02699433333333, "type": "electric_scooter", "bike_id": "dd98b107550c76ec9d083376ca9f9802", "fusion_lon": 0.0, "lat": 38.896659, "fusion_lat": 0.0}, {"is_disabled": 0, "rental_uris": {"android": "https://dc.lft.to/lastmile_qr_scan", "ios": "https://dc.lft.to/lastmile_qr_scan"}, "is_reserved": 0, "name": "48dc8d31ab183ce1a65af5ffc6eac14c", "lon": -77.02804866666666, "type": "electric_scooter", "bike_id": "48dc8d31ab183ce1a65af5ffc6eac14c", "fusion_lon": 0.0, "lat": 38.9621655, "fusion_lat": 0.0}, {"is_disabled": 0, "rental_uris": {"android": "https://dc.lft.to/lastmile_qr_scan", "ios": "https://dc.lft.to/lastmile_qr_scan"}, "is_reserved": 0, "name": "7d8132e30257e297972468ff70e0d375", "lon": -77.02156933333333, "type": "electric_scooter", "bike_id": "7d8132e30257e297972468ff70e0d375", "fusion_lon": 0.0, "lat": 38.926013833333336, "fusion_lat": 0.0}, {"is_disabled": 0, "rental_uris": {"android": "https://dc.lft.to/lastmile_qr_scan", "ios": "https://dc.lft.to/lastmile_qr_scan"}, "is_reserved": 0, "name": "480cbcccc99e19e5f3cfa0e14b847898", "lon": -76.995699, "type": "electric_bike", "bike_id": "480cbcccc99e19e5f3cfa0e14b847898", "fusion_lon": 0.0, "lat": 39.00788033333333, "fusion_lat": 0.0}, {"is_disabled": 0, "rental_uris": {"android": "https://dc.lft.to/lastmile_qr_scan", "ios": "https://dc.lft.to/lastmile_qr_scan"}, "is_reserved": 0, "name": "dbc9ef624e114c42b850668ab50f6a11", "lon": -77.0321155, "type": "electric_scooter", "bike_id": "dbc9ef624e114c42b850668ab50f6a11", "fusion_lon": 0.0, "lat": 38.92580483333333, "fusion_lat": 0.0}, {"is_disabled": 0, "rental_uris": {"android": "https://dc.lft.to/lastmile_qr_scan", "ios": "https://dc.lft.to/lastmile_qr_scan"}, "is_reserved": 0, "name": "b82d362b6267abd15fc112d77f33c46b", "lon": -76.987047, "type": "electric_scooter", "bike_id": "b82d362b6267abd15fc112d77f33c46b", "fusion_lon": 0.0, "lat": 38.86693833333333, "fusion_lat": 0.0}, {"is_disabled": 0, "rental_uris": {"android": "https://dc.lft.to/lastmile_qr_scan", "ios": "https://dc.lft.to/lastmile_qr_scan"}, "is_reserved": 0, "name": "a8413b5d83f3e1426d7cbe9892220e2a", "lon": -76.988692, "type": "electric_scooter", "bike_id": "a8413b5d83f3e1426d7cbe9892220e2a", "fusion_lon": 0.0, "lat": 38.89208, "fusion_lat": 0.0}, {"is_disabled": 0, "rental_uris": {"android": "https://dc.lft.to/lastmile_qr_scan", "ios": "https://dc.lft.to/lastmile_qr_scan"}, "is_reserved": 0, "name": "dd0cc57f99612f04bf36c9fa0663b99d", "lon": -77.095598, "type": "electric_bike", "bike_id": "dd0cc57f99612f04bf36c9fa0663b99d", "fusion_lon": 0.0, "lat": 38.91704583333333, "fusion_lat": 0.0}, {"is_disabled": 0, "rental_uris": {"android": "https://dc.lft.to/lastmile_qr_scan", "ios": "https://dc.lft.to/lastmile_qr_scan"}, "is_reserved": 0, "name": "069cbc19cd1b6bdec3f6d5a6e7217286", "lon": -77.04665933333334, "type": "electric_scooter", "bike_id": "069cbc19cd1b6bdec3f6d5a6e7217286", "fusion_lon": 0.0, "lat": 38.91014, "fusion_lat": 0.0}, {"is_disabled": 0, "rental_uris": {"android": "https://dc.lft.to/lastmile_qr_scan", "ios": "https://dc.lft.to/lastmile_qr_scan"}, "is_reserved": 0, "name": "50fbedb0d1d834d856a399ca192a118d", "lon": -77.02961166666667, "type": "electric_scooter", "bike_id": "50fbedb0d1d834d856a399ca192a118d", "fusion_lon": 0.0, "lat": 38.91772233333333, "fusion_lat": 0.0}, {"is_disabled": 0, "rental_uris": {"android": "https://dc.lft.to/lastmile_qr_scan", "ios": "https://dc.lft.to/lastmile_qr_scan"}, "is_reserved": 0, "name": "2f66b04b1c258eadb8bf8ad4292e2db0", "lon": -77.04342183333333, "type": "electric_scooter", "bike_id": "2f66b04b1c258eadb8bf8ad4292e2db0", "fusion_lon": 0.0, "lat": 38.9014265, "fusion_lat": 0.0}, {"is_disabled": 0, "rental_uris": {"android": "https://dc.lft.to/lastmile_qr_scan", "ios": "https://dc.lft.to/lastmile_qr_scan"}, "is_reserved": 0, "name": "9e9b9fa3f4eac7da4a370af4aa39e157", "lon": -77.03191583333333, "type": "electric_scooter", "bike_id": "9e9b9fa3f4eac7da4a370af4aa39e157", "fusion_lon": 0.0, "lat": 38.919241666666665, "fusion_lat": 0.0}, {"is_disabled": 0, "rental_uris": {"android": "https://dc.lft.to/lastmile_qr_scan", "ios": "https://dc.lft.to/lastmile_qr_scan"}, "is_reserved": 0, "name": "534689193d630014ccc19f5fbbc43c9e", "lon": -77.0365925, "type": "electric_scooter", "bike_id": "534689193d630014ccc19f5fbbc43c9e", "fusion_lon": 0.0, "lat": 38.9172715, "fusion_lat": 0.0}, {"is_disabled": 0, "rental_uris": {"android": "https://dc.lft.to/lastmile_qr_scan", "ios": "https://dc.lft.to/lastmile_qr_scan"}, "is_reserved": 0, "name": "1ed5d8c73aaaa6653a52a29792bae99e", "lon": -77.02659916666667, "type": "electric_scooter", "bike_id": "1ed5d8c73aaaa6653a52a29792bae99e", "fusion_lon": 0.0, "lat": 38.895891, "fusion_lat": 0.0}, {"is_disabled": 0, "rental_uris": {"android": "https://dc.lft.to/lastmile_qr_scan", "ios": "https://dc.lft.to/lastmile_qr_scan"}, "is_reserved": 0, "name": "eb0392aef9ca4be82b41a584689e1077", "lon": -77.03441133333334, "type": "electric_scooter", "bike_id": "eb0392aef9ca4be82b41a584689e1077", "fusion_lon": 0.0, "lat": 38.907301333333336, "fusion_lat": 0.0}, {"is_disabled": 0, "rental_uris": {"android": "https://dc.lft.to/lastmile_qr_scan", "ios": "https://dc.lft.to/lastmile_qr_scan"}, "is_reserved": 0, "name": "2affff85c02bb71033cbfca0d4ad64b0", "lon": -77.007508, "type": "electric_scooter", "bike_id": "2affff85c02bb71033cbfca0d4ad64b0", "fusion_lon": 0.0, "lat": 38.90065933333333, "fusion_lat": 0.0}, {"is_disabled": 0, "rental_uris": {"android": "https://dc.lft.to/lastmile_qr_scan", "ios": "https://dc.lft.to/lastmile_qr_scan"}, "is_reserved": 0, "name": "c80b6fc7a81a05426bf7cade1f77b000", "lon": -77.0279945, "type": "electric_scooter", "bike_id": "c80b6fc7a81a05426bf7cade1f77b000", "fusion_lon": 0.0, "lat": 38.904040333333334, "fusion_lat": 0.0}, {"is_disabled": 0, "rental_uris": {"android": "https://dc.lft.to/lastmile_qr_scan", "ios": "https://dc.lft.to/lastmile_qr_scan"}, "is_reserved": 0, "name": "f528dcc22cb8da581bb7f0224499c5f1", "lon": -77.0246735, "type": "electric_scooter", "bike_id": "f528dcc22cb8da581bb7f0224499c5f1", "fusion_lon": 0.0, "lat": 38.93763966666667, "fusion_lat": 0.0}, {"is_disabled": 0, "rental_uris": {"android": "https://dc.lft.to/lastmile_qr_scan", "ios": "https://dc.lft.to/lastmile_qr_scan"}, "is_reserved": 0, "name": "f8f6cf857f7cc7ca2b20ac9f079fa87f", "lon": -77.027204, "type": "electric_scooter", "bike_id": "f8f6cf857f7cc7ca2b20ac9f079fa87f", "fusion_lon": 0.0, "lat": 38.897168666666666, "fusion_lat": 0.0}, {"is_disabled": 0, "rental_uris": {"android": "https://dc.lft.to/lastmile_qr_scan", "ios": "https://dc.lft.to/lastmile_qr_scan"}, "is_reserved": 0, "name": "3c83ce5b0cc05088bc7b309673022f6a", "lon": -77.04614833333333, "type": "electric_scooter", "bike_id": "3c83ce5b0cc05088bc7b309673022f6a", "fusion_lon": 0.0, "lat": 38.899757666666666, "fusion_lat": 0.0}, {"is_disabled": 0, "rental_uris": {"android": "https://dc.lft.to/lastmile_qr_scan", "ios": "https://dc.lft.to/lastmile_qr_scan"}, "is_reserved": 0, "name": "4a53444702994772a13d217d6f2e824e", "lon": -76.99535966666667, "type": "electric_scooter", "bike_id": "4a53444702994772a13d217d6f2e824e", "fusion_lon": 0.0, "lat": 38.862518333333334, "fusion_lat": 0.0}, {"is_disabled": 0, "rental_uris": {"android": "https://dc.lft.to/lastmile_qr_scan", "ios": "https://dc.lft.to/lastmile_qr_scan"}, "is_reserved": 0, "name": "4e90dea4cb125b80f8c6a9e31b1deba8", "lon": -77.04178866666666, "type": "electric_scooter", "bike_id": "4e90dea4cb125b80f8c6a9e31b1deba8", "fusion_lon": 0.0, "lat": 38.9079665, "fusion_lat": 0.0}, {"is_disabled": 0, "rental_uris": {"android": "https://dc.lft.to/lastmile_qr_scan", "ios": "https://dc.lft.to/lastmile_qr_scan"}, "is_reserved": 0, "name": "dc31f6f4005de502c699ce5fa60ea8d2", "lon": -76.94119283333333, "type": "electric_scooter", "bike_id": "dc31f6f4005de502c699ce5fa60ea8d2", "fusion_lon": 0.0, "lat": 38.907912, "fusion_lat": 0.0}, {"is_disabled": 0, "rental_uris": {"android": "https://dc.lft.to/lastmile_qr_scan", "ios": "https://dc.lft.to/lastmile_qr_scan"}, "is_reserved": 0, "name": "b753c5d0ca045dc1719af279f4f32b45", "lon": -77.027045, "type": "electric_scooter", "bike_id": "b753c5d0ca045dc1719af279f4f32b45", "fusion_lon": 0.0, "lat": 38.919575, "fusion_lat": 0.0}, {"is_disabled": 0, "rental_uris": {"android": "https://dc.lft.to/lastmile_qr_scan", "ios": "https://dc.lft.to/lastmile_qr_scan"}, "is_reserved": 0, "name": "fc432a93ca979bf9b65f60e18691b0dc", "lon": -77.0510605, "type": "electric_scooter", "bike_id": "fc432a93ca979bf9b65f60e18691b0dc", "fusion_lon": 0.0, "lat": 38.9236565, "fusion_lat": 0.0}, {"is_disabled": 0, "rental_uris": {"android": "https://dc.lft.to/lastmile_qr_scan", "ios": "https://dc.lft.to/lastmile_qr_scan"}, "is_reserved": 0, "name": "e402672bb07ee792fcfe6dbff23e0ddb", "lon": -77.02409883333333, "type": "electric_scooter", "bike_id": "e402672bb07ee792fcfe6dbff23e0ddb", "fusion_lon": 0.0, "lat": 38.937033, "fusion_lat": 0.0}, {"is_disabled": 0, "rental_uris": {"android": "https://dc.lft.to/lastmile_qr_scan", "ios": "https://dc.lft.to/lastmile_qr_scan"}, "is_reserved": 0, "name": "0e2e0cdc39d9c29fd8d3c38d0e17a1b7", "lon": -77.01235016666666, "type": "electric_scooter", "bike_id": "0e2e0cdc39d9c29fd8d3c38d0e17a1b7", "fusion_lon": 0.0, "lat": 38.8747465, "fusion_lat": 0.0}, {"is_disabled": 0, "rental_uris": {"android": "https://dc.lft.to/lastmile_qr_scan", "ios": "https://dc.lft.to/lastmile_qr_scan"}, "is_reserved": 0, "name": "9245c01ef4db513d2091239319b39426", "lon": -77.014156, "type": "electric_scooter", "bike_id": "9245c01ef4db513d2091239319b39426", "fusion_lon": 0.0, "lat": 38.9283875, "fusion_lat": 0.0}, {"is_disabled": 0, "rental_uris": {"android": "https://dc.lft.to/lastmile_qr_scan", "ios": "https://dc.lft.to/lastmile_qr_scan"}, "is_reserved": 0, "name": "7bd9846560ea934c663b406976db7a3b", "lon": -77.04181066666666, "type": "electric_scooter", "bike_id": "7bd9846560ea934c663b406976db7a3b", "fusion_lon": 0.0, "lat": 38.91404883333333, "fusion_lat": 0.0}, {"is_disabled": 0, "rental_uris": {"android": "https://dc.lft.to/lastmile_qr_scan", "ios": "https://dc.lft.to/lastmile_qr_scan"}, "is_reserved": 0, "name": "e187c964340858c3880ac3be5f144302", "lon": -77.01762, "type": "electric_scooter", "bike_id": "e187c964340858c3880ac3be5f144302", "fusion_lon": 0.0, "lat": 38.87227816666667, "fusion_lat": 0.0}, {"is_disabled": 0, "rental_uris": {"android": "https://dc.lft.to/lastmile_qr_scan", "ios": "https://dc.lft.to/lastmile_qr_scan"}, "is_reserved": 0, "name": "391cfe7460cd564a0514b2acf1626959", "lon": -76.99493816666667, "type": "electric_bike", "bike_id": "391cfe7460cd564a0514b2acf1626959", "fusion_lon": 0.0, "lat": 38.883539166666665, "fusion_lat": 0.0}, {"is_disabled": 0, "rental_uris": {"android": "https://dc.lft.to/lastmile_qr_scan", "ios": "https://dc.lft.to/lastmile_qr_scan"}, "is_reserved": 0, "name": "906cc27964863a647b400242e71bf5e2", "lon": -77.04162133333334, "type": "electric_scooter", "bike_id": "906cc27964863a647b400242e71bf5e2", "fusion_lon": 0.0, "lat": 38.915739, "fusion_lat": 0.0}, {"is_disabled": 0, "rental_uris": {"android": "https://dc.lft.to/lastmile_qr_scan", "ios": "https://dc.lft.to/lastmile_qr_scan"}, "is_reserved": 0, "name": "ce6fdd88c0995ab2d4f8f2b0fce03888", "lon": -77.0306175, "type": "electric_scooter", "bike_id": "ce6fdd88c0995ab2d4f8f2b0fce03888", "fusion_lon": 0.0, "lat": 38.92583, "fusion_lat": 0.0}, {"is_disabled": 0, "rental_uris": {"android": "https://dc.lft.to/lastmile_qr_scan", "ios": "https://dc.lft.to/lastmile_qr_scan"}, "is_reserved": 0, "name": "945d7d0d8320c575fb76df709a826be8", "lon": -77.04672416666666, "type": "electric_scooter", "bike_id": "945d7d0d8320c575fb76df709a826be8", "fusion_lon": 0.0, "lat": 38.895535833333334, "fusion_lat": 0.0}, {"is_disabled": 0, "rental_uris": {"android": "https://dc.lft.to/lastmile_qr_scan", "ios": "https://dc.lft.to/lastmile_qr_scan"}, "is_reserved": 0, "name": "07de6cc1f1f6ba8baaf0d30e12f2a562", "lon": -76.987125, "type": "electric_scooter", "bike_id": "07de6cc1f1f6ba8baaf0d30e12f2a562", "fusion_lon": 0.0, "lat": 38.86536916666667, "fusion_lat": 0.0}, {"is_disabled": 0, "rental_uris": {"android": "https://dc.lft.to/lastmile_qr_scan", "ios": "https://dc.lft.to/lastmile_qr_scan"}, "is_reserved": 0, "name": "5f68e3d74576915da61d0146216ba7e8", "lon": -77.0237905, "type": "electric_scooter", "bike_id": "5f68e3d74576915da61d0146216ba7e8", "fusion_lon": 0.0, "lat": 38.89946366666667, "fusion_lat": 0.0}, {"is_disabled": 0, "rental_uris": {"android": "https://dc.lft.to/lastmile_qr_scan", "ios": "https://dc.lft.to/lastmile_qr_scan"}, "is_reserved": 0, "name": "16634ee368c3b0040f4f27c1d4e2a4b4", "lon": -77.01747533333334, "type": "electric_scooter", "bike_id": "16634ee368c3b0040f4f27c1d4e2a4b4", "fusion_lon": 0.0, "lat": 38.8832045, "fusion_lat": 0.0}, {"is_disabled": 0, "rental_uris": {"android": "https://dc.lft.to/lastmile_qr_scan", "ios": "https://dc.lft.to/lastmile_qr_scan"}, "is_reserved": 0, "name": "8030877b459e25bc31b7c9143405de5f", "lon": -77.04511966666666, "type": "electric_scooter", "bike_id": "8030877b459e25bc31b7c9143405de5f", "fusion_lon": 0.0, "lat": 38.8860145, "fusion_lat": 0.0}, {"is_disabled": 0, "rental_uris": {"android": "https://dc.lft.to/lastmile_qr_scan", "ios": "https://dc.lft.to/lastmile_qr_scan"}, "is_reserved": 0, "name": "64ca1abed084d83b30c41998d4dd9586", "lon": -77.0060225, "type": "electric_scooter", "bike_id": "64ca1abed084d83b30c41998d4dd9586", "fusion_lon": 0.0, "lat": 38.90557483333333, "fusion_lat": 0.0}, {"is_disabled": 0, "rental_uris": {"android": "https://dc.lft.to/lastmile_qr_scan", "ios": "https://dc.lft.to/lastmile_qr_scan"}, "is_reserved": 0, "name": "da208cefd6594ccdcbb65e3a93eda2b4", "lon": -77.0448725, "type": "electric_scooter", "bike_id": "da208cefd6594ccdcbb65e3a93eda2b4", "fusion_lon": 0.0, "lat": 38.904165166666665, "fusion_lat": 0.0}, {"is_disabled": 0, "rental_uris": {"android": "https://dc.lft.to/lastmile_qr_scan", "ios": "https://dc.lft.to/lastmile_qr_scan"}, "is_reserved": 0, "name": "26d91d0a41fa64d20e77e63fd6ca855a", "lon": -77.03154283333333, "type": "electric_bike", "bike_id": "26d91d0a41fa64d20e77e63fd6ca855a", "fusion_lon": 0.0, "lat": 38.894496833333335, "fusion_lat": 0.0}, {"is_disabled": 0, "rental_uris": {"android": "https://dc.lft.to/lastmile_qr_scan", "ios": "https://dc.lft.to/lastmile_qr_scan"}, "is_reserved": 0, "name": "cabe12a0a2f2a900148f6ed8f3ef2853", "lon": -77.07049116666667, "type": "electric_bike", "bike_id": "cabe12a0a2f2a900148f6ed8f3ef2853", "fusion_lon": 0.0, "lat": 38.82444866666667, "fusion_lat": 0.0}, {"is_disabled": 0, "rental_uris": {"android": "https://dc.lft.to/lastmile_qr_scan", "ios": "https://dc.lft.to/lastmile_qr_scan"}, "is_reserved": 0, "name": "8af7b42c1e44213932af1a27d2fca17d", "lon": -77.12817216666667, "type": "electric_bike", "bike_id": "8af7b42c1e44213932af1a27d2fca17d", "fusion_lon": 0.0, "lat": 38.86534316666667, "fusion_lat": 0.0}, {"is_disabled": 0, "rental_uris": {"android": "https://dc.lft.to/lastmile_qr_scan", "ios": "https://dc.lft.to/lastmile_qr_scan"}, "is_reserved": 0, "name": "d58716298f25c00ecf9ae82815b3096a", "lon": -77.0481275, "type": "electric_scooter", "bike_id": "d58716298f25c00ecf9ae82815b3096a", "fusion_lon": 0.0, "lat": 38.920378666666664, "fusion_lat": 0.0}, {"is_disabled": 0, "rental_uris": {"android": "https://dc.lft.to/lastmile_qr_scan", "ios": "https://dc.lft.to/lastmile_qr_scan"}, "is_reserved": 0, "name": "2378444dd2f45f09b0d9142a6fa69c78", "lon": -76.988876, "type": "electric_scooter", "bike_id": "2378444dd2f45f09b0d9142a6fa69c78", "fusion_lon": 0.0, "lat": 38.86655416666667, "fusion_lat": 0.0}, {"is_disabled": 0, "rental_uris": {"android": "https://dc.lft.to/lastmile_qr_scan", "ios": "https://dc.lft.to/lastmile_qr_scan"}, "is_reserved": 0, "name": "e7910539120c2f5fac59c1be12562e38", "lon": -77.0297695, "type": "electric_scooter", "bike_id": "e7910539120c2f5fac59c1be12562e38", "fusion_lon": 0.0, "lat": 38.922497, "fusion_lat": 0.0}, {"is_disabled": 0, "rental_uris": {"android": "https://dc.lft.to/lastmile_qr_scan", "ios": "https://dc.lft.to/lastmile_qr_scan"}, "is_reserved": 0, "name": "8fb18536c89e64bd960de79887dc6312", "lon": -77.0295855, "type": "electric_scooter", "bike_id": "8fb18536c89e64bd960de79887dc6312", "fusion_lon": 0.0, "lat": 38.89988733333333, "fusion_lat": 0.0}, {"is_disabled": 0, "rental_uris": {"android": "https://dc.lft.to/lastmile_qr_scan", "ios": "https://dc.lft.to/lastmile_qr_scan"}, "is_reserved": 0, "name": "91cb0d48be405bb4770614bc019ff0ea", "lon": -77.0487525, "type": "electric_scooter", "bike_id": "91cb0d48be405bb4770614bc019ff0ea", "fusion_lon": 0.0, "lat": 38.90743783333333, "fusion_lat": 0.0}, {"is_disabled": 0, "rental_uris": {"android": "https://dc.lft.to/lastmile_qr_scan", "ios": "https://dc.lft.to/lastmile_qr_scan"}, "is_reserved": 0, "name": "f6321ef3d6cffa9b5fcf02b0bd3ca963", "lon": -77.0440545, "type": "electric_scooter", "bike_id": "f6321ef3d6cffa9b5fcf02b0bd3ca963", "fusion_lon": 0.0, "lat": 38.893994, "fusion_lat": 0.0}, {"is_disabled": 0, "rental_uris": {"android": "https://dc.lft.to/lastmile_qr_scan", "ios": "https://dc.lft.to/lastmile_qr_scan"}, "is_reserved": 0, "name": "aac823feb91879814a733015ea84c8ba", "lon": -77.02381466666667, "type": "electric_bike", "bike_id": "aac823feb91879814a733015ea84c8ba", "fusion_lon": 0.0, "lat": 38.99071283333333, "fusion_lat": 0.0}, {"is_disabled": 0, "rental_uris": {"android": "https://dc.lft.to/lastmile_qr_scan", "ios": "https://dc.lft.to/lastmile_qr_scan"}, "is_reserved": 0, "name": "1252837dcadc0653495d3f2358ecabe3", "lon": -77.04279883333334, "type": "electric_scooter", "bike_id": "1252837dcadc0653495d3f2358ecabe3", "fusion_lon": 0.0, "lat": 38.93410183333334, "fusion_lat": 0.0}, {"is_disabled": 0, "rental_uris": {"android": "https://dc.lft.to/lastmile_qr_scan", "ios": "https://dc.lft.to/lastmile_qr_scan"}, "is_reserved": 0, "name": "505f282e0f4bf14eab8a97acc7c5d55b", "lon": -77.04340333333333, "type": "electric_scooter", "bike_id": "505f282e0f4bf14eab8a97acc7c5d55b", "fusion_lon": 0.0, "lat": 38.905078333333336, "fusion_lat": 0.0}, {"is_disabled": 0, "rental_uris": {"android": "https://dc.lft.to/lastmile_qr_scan", "ios": "https://dc.lft.to/lastmile_qr_scan"}, "is_reserved": 0, "name": "0a19971b9684807b50985b2d6d17c3bd", "lon": -77.041573, "type": "electric_scooter", "bike_id": "0a19971b9684807b50985b2d6d17c3bd", "fusion_lon": 0.0, "lat": 38.91797716666667, "fusion_lat": 0.0}, {"is_disabled": 0, "rental_uris": {"android": "https://dc.lft.to/lastmile_qr_scan", "ios": "https://dc.lft.to/lastmile_qr_scan"}, "is_reserved": 0, "name": "4b2529ef2607cdbb8da478728077c055", "lon": -77.005651, "type": "electric_scooter", "bike_id": "4b2529ef2607cdbb8da478728077c055", "fusion_lon": 0.0, "lat": 38.885052, "fusion_lat": 0.0}, {"is_disabled": 0, "rental_uris": {"android": "https://dc.lft.to/lastmile_qr_scan", "ios": "https://dc.lft.to/lastmile_qr_scan"}, "is_reserved": 0, "name": "b007c0aec4f5eee12cbdb8ff66721e98", "lon": -77.0269925, "type": "electric_scooter", "bike_id": "b007c0aec4f5eee12cbdb8ff66721e98", "fusion_lon": 0.0, "lat": 38.896588666666666, "fusion_lat": 0.0}, {"is_disabled": 0, "rental_uris": {"android": "https://dc.lft.to/lastmile_qr_scan", "ios": "https://dc.lft.to/lastmile_qr_scan"}, "is_reserved": 0, "name": "49a9bdb7246a793c968cc2729bea08d3", "lon": -77.03484516666667, "type": "electric_scooter", "bike_id": "49a9bdb7246a793c968cc2729bea08d3", "fusion_lon": 0.0, "lat": 38.92476383333333, "fusion_lat": 0.0}, {"is_disabled": 0, "rental_uris": {"android": "https://dc.lft.to/lastmile_qr_scan", "ios": "https://dc.lft.to/lastmile_qr_scan"}, "is_reserved": 0, "name": "62ee655209e8c1f6c00cf494cb95c53a", "lon": -76.97795183333334, "type": "electric_bike", "bike_id": "62ee655209e8c1f6c00cf494cb95c53a", "fusion_lon": 0.0, "lat": 38.89608366666667, "fusion_lat": 0.0}, {"is_disabled": 0, "rental_uris": {"android": "https://dc.lft.to/lastmile_qr_scan", "ios": "https://dc.lft.to/lastmile_qr_scan"}, "is_reserved": 0, "name": "d4ac9c60baa34244f1307939fdf2a1a4", "lon": -77.02071416666666, "type": "electric_scooter", "bike_id": "d4ac9c60baa34244f1307939fdf2a1a4", "fusion_lon": 0.0, "lat": 38.88110983333333, "fusion_lat": 0.0}, {"is_disabled": 0, "rental_uris": {"android": "https://dc.lft.to/lastmile_qr_scan", "ios": "https://dc.lft.to/lastmile_qr_scan"}, "is_reserved": 0, "name": "2204fe1af3ed0886347f7b335394fde3", "lon": -76.99647133333333, "type": "electric_scooter", "bike_id": "2204fe1af3ed0886347f7b335394fde3", "fusion_lon": 0.0, "lat": 38.8871855, "fusion_lat": 0.0}, {"is_disabled": 0, "rental_uris": {"android": "https://dc.lft.to/lastmile_qr_scan", "ios": "https://dc.lft.to/lastmile_qr_scan"}, "is_reserved": 0, "name": "b2c86ff79747d6a2d9c940cea84f29f3", "lon": -77.02592883333334, "type": "electric_scooter", "bike_id": "b2c86ff79747d6a2d9c940cea84f29f3", "fusion_lon": 0.0, "lat": 38.94206483333333, "fusion_lat": 0.0}, {"is_disabled": 0, "rental_uris": {"android": "https://dc.lft.to/lastmile_qr_scan", "ios": "https://dc.lft.to/lastmile_qr_scan"}, "is_reserved": 0, "name": "4cb19db76ebf162ec8f98de5abcdfdd0", "lon": -77.038548, "type": "electric_scooter", "bike_id": "4cb19db76ebf162ec8f98de5abcdfdd0", "fusion_lon": 0.0, "lat": 38.9171445, "fusion_lat": 0.0}, {"is_disabled": 0, "rental_uris": {"android": "https://dc.lft.to/lastmile_qr_scan", "ios": "https://dc.lft.to/lastmile_qr_scan"}, "is_reserved": 0, "name": "1f7c0d2eec54041d71297a8c128dcb65", "lon": -76.98025433333333, "type": "electric_bike", "bike_id": "1f7c0d2eec54041d71297a8c128dcb65", "fusion_lon": 0.0, "lat": 38.887578, "fusion_lat": 0.0}, {"is_disabled": 0, "rental_uris": {"android": "https://dc.lft.to/lastmile_qr_scan", "ios": "https://dc.lft.to/lastmile_qr_scan"}, "is_reserved": 0, "name": "e72c02ccc2109b0fcd065538d4e1ed33", "lon": -77.0433645, "type": "electric_scooter", "bike_id": "e72c02ccc2109b0fcd065538d4e1ed33", "fusion_lon": 0.0, "lat": 38.90333116666667, "fusion_lat": 0.0}, {"is_disabled": 0, "rental_uris": {"android": "https://dc.lft.to/lastmile_qr_scan", "ios": "https://dc.lft.to/lastmile_qr_scan"}, "is_reserved": 0, "name": "ca408000007caf03f13731dc4cf170d0", "lon": -77.043061, "type": "electric_scooter", "bike_id": "ca408000007caf03f13731dc4cf170d0", "fusion_lon": 0.0, "lat": 38.911046166666665, "fusion_lat": 0.0}, {"is_disabled": 0, "rental_uris": {"android": "https://dc.lft.to/lastmile_qr_scan", "ios": "https://dc.lft.to/lastmile_qr_scan"}, "is_reserved": 0, "name": "a9d0dfa3a41283f68eb23b99b82f157e", "lon": -77.0401165, "type": "electric_scooter", "bike_id": "a9d0dfa3a41283f68eb23b99b82f157e", "fusion_lon": 0.0, "lat": 38.910395, "fusion_lat": 0.0}, {"is_disabled": 0, "rental_uris": {"android": "https://dc.lft.to/lastmile_qr_scan", "ios": "https://dc.lft.to/lastmile_qr_scan"}, "is_reserved": 0, "name": "07772fb1a81c4786bfc24752d8bd0ed9", "lon": -77.03428133333334, "type": "electric_scooter", "bike_id": "07772fb1a81c4786bfc24752d8bd0ed9", "fusion_lon": 0.0, "lat": 38.90259433333333, "fusion_lat": 0.0}, {"is_disabled": 0, "rental_uris": {"android": "https://dc.lft.to/lastmile_qr_scan", "ios": "https://dc.lft.to/lastmile_qr_scan"}, "is_reserved": 0, "name": "48b20a443866357aad6764a3ab89d24a", "lon": -77.00585666666667, "type": "electric_scooter", "bike_id": "48b20a443866357aad6764a3ab89d24a", "fusion_lon": 0.0, "lat": 38.8754055, "fusion_lat": 0.0}, {"is_disabled": 0, "rental_uris": {"android": "https://dc.lft.to/lastmile_qr_scan", "ios": "https://dc.lft.to/lastmile_qr_scan"}, "is_reserved": 0, "name": "ede92658fc4b970f22780abf137736e1", "lon": -77.02389283333333, "type": "electric_scooter", "bike_id": "ede92658fc4b970f22780abf137736e1", "fusion_lon": 0.0, "lat": 38.905836666666666, "fusion_lat": 0.0}, {"is_disabled": 0, "rental_uris": {"android": "https://dc.lft.to/lastmile_qr_scan", "ios": "https://dc.lft.to/lastmile_qr_scan"}, "is_reserved": 0, "name": "61e4ac7ad6a6ab746f15cedda27378c8", "lon": -76.999003, "type": "electric_scooter", "bike_id": "61e4ac7ad6a6ab746f15cedda27378c8", "fusion_lon": 0.0, "lat": 38.9565255, "fusion_lat": 0.0}, {"is_disabled": 0, "rental_uris": {"android": "https://dc.lft.to/lastmile_qr_scan", "ios": "https://dc.lft.to/lastmile_qr_scan"}, "is_reserved": 0, "name": "8a0a17f55559200ee282636b7ce40598", "lon": -77.03439383333334, "type": "electric_scooter", "bike_id": "8a0a17f55559200ee282636b7ce40598", "fusion_lon": 0.0, "lat": 38.90971316666667, "fusion_lat": 0.0}, {"is_disabled": 0, "rental_uris": {"android": "https://dc.lft.to/lastmile_qr_scan", "ios": "https://dc.lft.to/lastmile_qr_scan"}, "is_reserved": 0, "name": "22395b79b87ea130303dda3331a1e34d", "lon": -77.03189516666667, "type": "electric_scooter", "bike_id": "22395b79b87ea130303dda3331a1e34d", "fusion_lon": 0.0, "lat": 38.92112766666666, "fusion_lat": 0.0}, {"is_disabled": 0, "rental_uris": {"android": "https://dc.lft.to/lastmile_qr_scan", "ios": "https://dc.lft.to/lastmile_qr_scan"}, "is_reserved": 0, "name": "3d029ce61b524daa646065029e2d1857", "lon": -77.02388116666667, "type": "electric_scooter", "bike_id": "3d029ce61b524daa646065029e2d1857", "fusion_lon": 0.0, "lat": 38.90706866666667, "fusion_lat": 0.0}, {"is_disabled": 0, "rental_uris": {"android": "https://dc.lft.to/lastmile_qr_scan", "ios": "https://dc.lft.to/lastmile_qr_scan"}, "is_reserved": 0, "name": "ac02220ac3d7def8d1184f6152de9aff", "lon": -77.03474133333333, "type": "electric_scooter", "bike_id": "ac02220ac3d7def8d1184f6152de9aff", "fusion_lon": 0.0, "lat": 38.91700866666667, "fusion_lat": 0.0}, {"is_disabled": 0, "rental_uris": {"android": "https://dc.lft.to/lastmile_qr_scan", "ios": "https://dc.lft.to/lastmile_qr_scan"}, "is_reserved": 0, "name": "82a76fc04990626ef637605ac79cbe0e", "lon": -76.99347083333333, "type": "electric_scooter", "bike_id": "82a76fc04990626ef637605ac79cbe0e", "fusion_lon": 0.0, "lat": 38.8990075, "fusion_lat": 0.0}, {"is_disabled": 0, "rental_uris": {"android": "https://dc.lft.to/lastmile_qr_scan", "ios": "https://dc.lft.to/lastmile_qr_scan"}, "is_reserved": 0, "name": "c3d90539dc9120e39080d0e29fa81ad0", "lon": -77.00915116666667, "type": "electric_scooter", "bike_id": "c3d90539dc9120e39080d0e29fa81ad0", "fusion_lon": 0.0, "lat": 38.8955185, "fusion_lat": 0.0}, {"is_disabled": 0, "rental_uris": {"android": "https://dc.lft.to/lastmile_qr_scan", "ios": "https://dc.lft.to/lastmile_qr_scan"}, "is_reserved": 0, "name": "13147f7a13fb273788106c021f2c19b3", "lon": -76.98657766666666, "type": "electric_scooter", "bike_id": "13147f7a13fb273788106c021f2c19b3", "fusion_lon": 0.0, "lat": 38.913130833333334, "fusion_lat": 0.0}, {"is_disabled": 0, "rental_uris": {"android": "https://dc.lft.to/lastmile_qr_scan", "ios": "https://dc.lft.to/lastmile_qr_scan"}, "is_reserved": 0, "name": "05a295c897bca0988ba9b5a6f773abb6", "lon": -77.03392783333334, "type": "electric_scooter", "bike_id": "05a295c897bca0988ba9b5a6f773abb6", "fusion_lon": 0.0, "lat": 38.9323695, "fusion_lat": 0.0}, {"is_disabled": 0, "rental_uris": {"android": "https://dc.lft.to/lastmile_qr_scan", "ios": "https://dc.lft.to/lastmile_qr_scan"}, "is_reserved": 0, "name": "b64c60c3d6aca38d60396fe7e353173c", "lon": -77.0343945, "type": "electric_scooter", "bike_id": "b64c60c3d6aca38d60396fe7e353173c", "fusion_lon": 0.0, "lat": 38.917617666666665, "fusion_lat": 0.0}, {"is_disabled": 0, "rental_uris": {"android": "https://dc.lft.to/lastmile_qr_scan", "ios": "https://dc.lft.to/lastmile_qr_scan"}, "is_reserved": 0, "name": "f1df89d74dd65268d09665f98a7ffb61", "lon": -76.948938, "type": "electric_scooter", "bike_id": "f1df89d74dd65268d09665f98a7ffb61", "fusion_lon": 0.0, "lat": 38.895282, "fusion_lat": 0.0}, {"is_disabled": 0, "rental_uris": {"android": "https://dc.lft.to/lastmile_qr_scan", "ios": "https://dc.lft.to/lastmile_qr_scan"}, "is_reserved": 0, "name": "e5f3764f0211c187c7e22768d64500fc", "lon": -77.03172633333334, "type": "electric_scooter", "bike_id": "e5f3764f0211c187c7e22768d64500fc", "fusion_lon": 0.0, "lat": 38.88348033333333, "fusion_lat": 0.0}, {"is_disabled": 0, "rental_uris": {"android": "https://dc.lft.to/lastmile_qr_scan", "ios": "https://dc.lft.to/lastmile_qr_scan"}, "is_reserved": 0, "name": "1e09a723e7ced819175fd0ff34493a50", "lon": -76.98654516666667, "type": "electric_scooter", "bike_id": "1e09a723e7ced819175fd0ff34493a50", "fusion_lon": 0.0, "lat": 38.858054, "fusion_lat": 0.0}, {"is_disabled": 0, "rental_uris": {"android": "https://dc.lft.to/lastmile_qr_scan", "ios": "https://dc.lft.to/lastmile_qr_scan"}, "is_reserved": 0, "name": "e67083d219ef4230817ea0056b386aa7", "lon": -77.030903, "type": "electric_scooter", "bike_id": "e67083d219ef4230817ea0056b386aa7", "fusion_lon": 0.0, "lat": 38.90959816666667, "fusion_lat": 0.0}, {"is_disabled": 0, "rental_uris": {"android": "https://dc.lft.to/lastmile_qr_scan", "ios": "https://dc.lft.to/lastmile_qr_scan"}, "is_reserved": 0, "name": "0181955f04addde7307d00af45b84f7d", "lon": -77.050042, "type": "electric_scooter", "bike_id": "0181955f04addde7307d00af45b84f7d", "fusion_lon": 0.0, "lat": 38.89230583333333, "fusion_lat": 0.0}, {"is_disabled": 0, "rental_uris": {"android": "https://dc.lft.to/lastmile_qr_scan", "ios": "https://dc.lft.to/lastmile_qr_scan"}, "is_reserved": 0, "name": "9dc52b0baff0976c9ef7d705b17c6a7f", "lon": -77.01100466666666, "type": "electric_scooter", "bike_id": "9dc52b0baff0976c9ef7d705b17c6a7f", "fusion_lon": 0.0, "lat": 38.90358116666667, "fusion_lat": 0.0}, {"is_disabled": 0, "rental_uris": {"android": "https://dc.lft.to/lastmile_qr_scan", "ios": "https://dc.lft.to/lastmile_qr_scan"}, "is_reserved": 0, "name": "de7b3bcdfd7fff6ecb8ed1286de00834", "lon": -77.03181233333333, "type": "electric_scooter", "bike_id": "de7b3bcdfd7fff6ecb8ed1286de00834", "fusion_lon": 0.0, "lat": 38.919238166666666, "fusion_lat": 0.0}, {"is_disabled": 0, "rental_uris": {"android": "https://dc.lft.to/lastmile_qr_scan", "ios": "https://dc.lft.to/lastmile_qr_scan"}, "is_reserved": 0, "name": "1069f47f53bdff190213ab43a2dbce7b", "lon": -76.99960866666666, "type": "electric_scooter", "bike_id": "1069f47f53bdff190213ab43a2dbce7b", "fusion_lon": 0.0, "lat": 38.84283933333333, "fusion_lat": 0.0}, {"is_disabled": 0, "rental_uris": {"android": "https://dc.lft.to/lastmile_qr_scan", "ios": "https://dc.lft.to/lastmile_qr_scan"}, "is_reserved": 0, "name": "992e9728b9fd9a8263a8b7b2d9388446", "lon": -77.016127, "type": "electric_scooter", "bike_id": "992e9728b9fd9a8263a8b7b2d9388446", "fusion_lon": 0.0, "lat": 38.8723835, "fusion_lat": 0.0}, {"is_disabled": 0, "rental_uris": {"android": "https://dc.lft.to/lastmile_qr_scan", "ios": "https://dc.lft.to/lastmile_qr_scan"}, "is_reserved": 0, "name": "18ee52c4c9885fd772887eabcf9a2c1f", "lon": -77.03150116666667, "type": "electric_scooter", "bike_id": "18ee52c4c9885fd772887eabcf9a2c1f", "fusion_lon": 0.0, "lat": 38.916117666666665, "fusion_lat": 0.0}, {"is_disabled": 0, "rental_uris": {"android": "https://dc.lft.to/lastmile_qr_scan", "ios": "https://dc.lft.to/lastmile_qr_scan"}, "is_reserved": 0, "name": "8a6765aeca5b1ed3719c87a74ba326d2", "lon": -76.9897065, "type": "electric_scooter", "bike_id": "8a6765aeca5b1ed3719c87a74ba326d2", "fusion_lon": 0.0, "lat": 38.902461833333334, "fusion_lat": 0.0}, {"is_disabled": 0, "rental_uris": {"android": "https://dc.lft.to/lastmile_qr_scan", "ios": "https://dc.lft.to/lastmile_qr_scan"}, "is_reserved": 0, "name": "8cdcaffccc03f8d5ca589512eb53b152", "lon": -77.03638716666667, "type": "electric_scooter", "bike_id": "8cdcaffccc03f8d5ca589512eb53b152", "fusion_lon": 0.0, "lat": 38.902609, "fusion_lat": 0.0}, {"is_disabled": 0, "rental_uris": {"android": "https://dc.lft.to/lastmile_qr_scan", "ios": "https://dc.lft.to/lastmile_qr_scan"}, "is_reserved": 0, "name": "8ecd8c705a26abca0f296ac504b88663", "lon": -76.94946183333333, "type": "electric_bike", "bike_id": "8ecd8c705a26abca0f296ac504b88663", "fusion_lon": 0.0, "lat": 38.935053, "fusion_lat": 0.0}, {"is_disabled": 0, "rental_uris": {"android": "https://dc.lft.to/lastmile_qr_scan", "ios": "https://dc.lft.to/lastmile_qr_scan"}, "is_reserved": 0, "name": "bbff3e66a6fa91b6e368b3b0e8ebfd9f", "lon": -77.03398483333334, "type": "electric_scooter", "bike_id": "bbff3e66a6fa91b6e368b3b0e8ebfd9f", "fusion_lon": 0.0, "lat": 38.9196385, "fusion_lat": 0.0}, {"is_disabled": 0, "rental_uris": {"android": "https://dc.lft.to/lastmile_qr_scan", "ios": "https://dc.lft.to/lastmile_qr_scan"}, "is_reserved": 0, "name": "d1086b841069488fa0855ceb4fc90e76", "lon": -77.04672433333333, "type": "electric_scooter", "bike_id": "d1086b841069488fa0855ceb4fc90e76", "fusion_lon": 0.0, "lat": 38.90736316666667, "fusion_lat": 0.0}, {"is_disabled": 0, "rental_uris": {"android": "https://dc.lft.to/lastmile_qr_scan", "ios": "https://dc.lft.to/lastmile_qr_scan"}, "is_reserved": 0, "name": "0b16518ab022cc42f6cc92e81c6b7bee", "lon": -77.01380366666666, "type": "electric_scooter", "bike_id": "0b16518ab022cc42f6cc92e81c6b7bee", "fusion_lon": 0.0, "lat": 38.900295666666665, "fusion_lat": 0.0}, {"is_disabled": 0, "rental_uris": {"android": "https://dc.lft.to/lastmile_qr_scan", "ios": "https://dc.lft.to/lastmile_qr_scan"}, "is_reserved": 0, "name": "1cd58ea3f4c1939eba2568ff7912dfeb", "lon": -77.07905983333333, "type": "electric_bike", "bike_id": "1cd58ea3f4c1939eba2568ff7912dfeb", "fusion_lon": 0.0, "lat": 38.83933233333333, "fusion_lat": 0.0}, {"is_disabled": 0, "rental_uris": {"android": "https://dc.lft.to/lastmile_qr_scan", "ios": "https://dc.lft.to/lastmile_qr_scan"}, "is_reserved": 0, "name": "d4adcbf8457c7df5449ab5fcd8958baf", "lon": -77.0614035, "type": "electric_scooter", "bike_id": "d4adcbf8457c7df5449ab5fcd8958baf", "fusion_lon": 0.0, "lat": 38.94370333333333, "fusion_lat": 0.0}, {"is_disabled": 0, "rental_uris": {"android": "https://dc.lft.to/lastmile_qr_scan", "ios": "https://dc.lft.to/lastmile_qr_scan"}, "is_reserved": 0, "name": "b90a8c3678afccb1fe5f71b4a2fc7f0d", "lon": -77.0294395, "type": "electric_scooter", "bike_id": "b90a8c3678afccb1fe5f71b4a2fc7f0d", "fusion_lon": 0.0, "lat": 38.89820233333333, "fusion_lat": 0.0}, {"is_disabled": 0, "rental_uris": {"android": "https://dc.lft.to/lastmile_qr_scan", "ios": "https://dc.lft.to/lastmile_qr_scan"}, "is_reserved": 0, "name": "70d83dfd24926f0087878dfc86b7d6c6", "lon": -77.02393183333334, "type": "electric_scooter", "bike_id": "70d83dfd24926f0087878dfc86b7d6c6", "fusion_lon": 0.0, "lat": 38.91694433333333, "fusion_lat": 0.0}, {"is_disabled": 0, "rental_uris": {"android": "https://dc.lft.to/lastmile_qr_scan", "ios": "https://dc.lft.to/lastmile_qr_scan"}, "is_reserved": 0, "name": "929995805aec149fdd68803bc54a3654", "lon": -76.99164716666667, "type": "electric_bike", "bike_id": "929995805aec149fdd68803bc54a3654", "fusion_lon": 0.0, "lat": 38.972597666666665, "fusion_lat": 0.0}, {"is_disabled": 0, "rental_uris": {"android": "https://dc.lft.to/lastmile_qr_scan", "ios": "https://dc.lft.to/lastmile_qr_scan"}, "is_reserved": 0, "name": "21be26810954c6f892f8d321dd092f56", "lon": -77.06173983333333, "type": "electric_bike", "bike_id": "21be26810954c6f892f8d321dd092f56", "fusion_lon": 0.0, "lat": 38.81273, "fusion_lat": 0.0}, {"is_disabled": 0, "rental_uris": {"android": "https://dc.lft.to/lastmile_qr_scan", "ios": "https://dc.lft.to/lastmile_qr_scan"}, "is_reserved": 0, "name": "8d8bb6a35689a35bf8109a5d2c5ce586", "lon": -77.01008366666667, "type": "electric_scooter", "bike_id": "8d8bb6a35689a35bf8109a5d2c5ce586", "fusion_lon": 0.0, "lat": 38.8796535, "fusion_lat": 0.0}, {"is_disabled": 0, "rental_uris": {"android": "https://dc.lft.to/lastmile_qr_scan", "ios": "https://dc.lft.to/lastmile_qr_scan"}, "is_reserved": 0, "name": "f88d579232b33e9f8363ba5c88e50efb", "lon": -77.01616133333333, "type": "electric_scooter", "bike_id": "f88d579232b33e9f8363ba5c88e50efb", "fusion_lon": 0.0, "lat": 38.898351, "fusion_lat": 0.0}, {"is_disabled": 0, "rental_uris": {"android": "https://dc.lft.to/lastmile_qr_scan", "ios": "https://dc.lft.to/lastmile_qr_scan"}, "is_reserved": 0, "name": "624199d076fff33b011001ec1ca3a532", "lon": -76.994856, "type": "electric_scooter", "bike_id": "624199d076fff33b011001ec1ca3a532", "fusion_lon": 0.0, "lat": 38.93227566666667, "fusion_lat": 0.0}, {"is_disabled": 0, "rental_uris": {"android": "https://dc.lft.to/lastmile_qr_scan", "ios": "https://dc.lft.to/lastmile_qr_scan"}, "is_reserved": 0, "name": "78a9bffabcf4904975c9e8ab740c25ee", "lon": -77.03635666666666, "type": "electric_scooter", "bike_id": "78a9bffabcf4904975c9e8ab740c25ee", "fusion_lon": 0.0, "lat": 38.918188, "fusion_lat": 0.0}, {"is_disabled": 0, "rental_uris": {"android": "https://dc.lft.to/lastmile_qr_scan", "ios": "https://dc.lft.to/lastmile_qr_scan"}, "is_reserved": 0, "name": "327953d6279a54da353563e3973e0344", "lon": -77.04526433333334, "type": "electric_scooter", "bike_id": "327953d6279a54da353563e3973e0344", "fusion_lon": 0.0, "lat": 38.9037125, "fusion_lat": 0.0}, {"is_disabled": 0, "rental_uris": {"android": "https://dc.lft.to/lastmile_qr_scan", "ios": "https://dc.lft.to/lastmile_qr_scan"}, "is_reserved": 0, "name": "48443af194030319db93d9e8ef0feddc", "lon": -77.03448616666667, "type": "electric_scooter", "bike_id": "48443af194030319db93d9e8ef0feddc", "fusion_lon": 0.0, "lat": 38.902568, "fusion_lat": 0.0}, {"is_disabled": 0, "rental_uris": {"android": "https://dc.lft.to/lastmile_qr_scan", "ios": "https://dc.lft.to/lastmile_qr_scan"}, "is_reserved": 0, "name": "ba0451112a8a445178b2085a13194dbd", "lon": -77.034708, "type": "electric_scooter", "bike_id": "ba0451112a8a445178b2085a13194dbd", "fusion_lon": 0.0, "lat": 38.9074485, "fusion_lat": 0.0}, {"is_disabled": 0, "rental_uris": {"android": "https://dc.lft.to/lastmile_qr_scan", "ios": "https://dc.lft.to/lastmile_qr_scan"}, "is_reserved": 0, "name": "029d86080dbc7c42ee6a5b338a7c5557", "lon": -76.97947283333333, "type": "electric_scooter", "bike_id": "029d86080dbc7c42ee6a5b338a7c5557", "fusion_lon": 0.0, "lat": 38.90502083333333, "fusion_lat": 0.0}, {"is_disabled": 0, "rental_uris": {"android": "https://dc.lft.to/lastmile_qr_scan", "ios": "https://dc.lft.to/lastmile_qr_scan"}, "is_reserved": 0, "name": "364de5245bf0fcfaa74f39bbcb116062", "lon": -77.02011383333334, "type": "electric_scooter", "bike_id": "364de5245bf0fcfaa74f39bbcb116062", "fusion_lon": 0.0, "lat": 38.924139833333335, "fusion_lat": 0.0}, {"is_disabled": 0, "rental_uris": {"android": "https://dc.lft.to/lastmile_qr_scan", "ios": "https://dc.lft.to/lastmile_qr_scan"}, "is_reserved": 0, "name": "f81fdd11c1ddcbf56c8213c5466d4b1d", "lon": -77.04424166666666, "type": "electric_scooter", "bike_id": "f81fdd11c1ddcbf56c8213c5466d4b1d", "fusion_lon": 0.0, "lat": 38.9035575, "fusion_lat": 0.0}, {"is_disabled": 0, "rental_uris": {"android": "https://dc.lft.to/lastmile_qr_scan", "ios": "https://dc.lft.to/lastmile_qr_scan"}, "is_reserved": 0, "name": "84efa86af013a272e21572ac59580786", "lon": -77.005695, "type": "electric_scooter", "bike_id": "84efa86af013a272e21572ac59580786", "fusion_lon": 0.0, "lat": 38.88504733333333, "fusion_lat": 0.0}, {"is_disabled": 0, "rental_uris": {"android": "https://dc.lft.to/lastmile_qr_scan", "ios": "https://dc.lft.to/lastmile_qr_scan"}, "is_reserved": 0, "name": "f494907243f93690905d3b74857c1804", "lon": -77.00378916666666, "type": "electric_scooter", "bike_id": "f494907243f93690905d3b74857c1804", "fusion_lon": 0.0, "lat": 38.908581, "fusion_lat": 0.0}, {"is_disabled": 0, "rental_uris": {"android": "https://dc.lft.to/lastmile_qr_scan", "ios": "https://dc.lft.to/lastmile_qr_scan"}, "is_reserved": 0, "name": "36b2d30cb4316d85a542e99ef578d7d3", "lon": -77.0488805, "type": "electric_scooter", "bike_id": "36b2d30cb4316d85a542e99ef578d7d3", "fusion_lon": 0.0, "lat": 38.8981445, "fusion_lat": 0.0}, {"is_disabled": 0, "rental_uris": {"android": "https://dc.lft.to/lastmile_qr_scan", "ios": "https://dc.lft.to/lastmile_qr_scan"}, "is_reserved": 0, "name": "6e2628ab58a0e1d226db31bc50e72b2d", "lon": -77.03950716666667, "type": "electric_scooter", "bike_id": "6e2628ab58a0e1d226db31bc50e72b2d", "fusion_lon": 0.0, "lat": 38.898841833333336, "fusion_lat": 0.0}, {"is_disabled": 0, "rental_uris": {"android": "https://dc.lft.to/lastmile_qr_scan", "ios": "https://dc.lft.to/lastmile_qr_scan"}, "is_reserved": 0, "name": "edb6fa14c78c045cefc9d15aefa970e5", "lon": -77.00597833333333, "type": "electric_scooter", "bike_id": "edb6fa14c78c045cefc9d15aefa970e5", "fusion_lon": 0.0, "lat": 38.905515666666666, "fusion_lat": 0.0}, {"is_disabled": 0, "rental_uris": {"android": "https://dc.lft.to/lastmile_qr_scan", "ios": "https://dc.lft.to/lastmile_qr_scan"}, "is_reserved": 0, "name": "f2684c7303726f31c11426723b1675a2", "lon": -76.9938635, "type": "electric_scooter", "bike_id": "f2684c7303726f31c11426723b1675a2", "fusion_lon": 0.0, "lat": 38.910122, "fusion_lat": 0.0}, {"is_disabled": 0, "rental_uris": {"android": "https://dc.lft.to/lastmile_qr_scan", "ios": "https://dc.lft.to/lastmile_qr_scan"}, "is_reserved": 0, "name": "71695eba68ad8c7d5a9a84a1eac50e2c", "lon": -77.059956, "type": "electric_scooter", "bike_id": "71695eba68ad8c7d5a9a84a1eac50e2c", "fusion_lon": 0.0, "lat": 38.9119095, "fusion_lat": 0.0}, {"is_disabled": 0, "rental_uris": {"android": "https://dc.lft.to/lastmile_qr_scan", "ios": "https://dc.lft.to/lastmile_qr_scan"}, "is_reserved": 0, "name": "14e19597b92c26ed3bac811c2b705dbf", "lon": -77.05233133333333, "type": "electric_scooter", "bike_id": "14e19597b92c26ed3bac811c2b705dbf", "fusion_lon": 0.0, "lat": 38.9246035, "fusion_lat": 0.0}, {"is_disabled": 0, "rental_uris": {"android": "https://dc.lft.to/lastmile_qr_scan", "ios": "https://dc.lft.to/lastmile_qr_scan"}, "is_reserved": 0, "name": "f18091d53b2b3fd5394ab6a4ce732d71", "lon": -77.00495816666667, "type": "electric_scooter", "bike_id": "f18091d53b2b3fd5394ab6a4ce732d71", "fusion_lon": 0.0, "lat": 38.89678516666667, "fusion_lat": 0.0}, {"is_disabled": 0, "rental_uris": {"android": "https://dc.lft.to/lastmile_qr_scan", "ios": "https://dc.lft.to/lastmile_qr_scan"}, "is_reserved": 0, "name": "cebf2dc55abe0837918fb33850ec6792", "lon": -76.93022933333333, "type": "electric_bike", "bike_id": "cebf2dc55abe0837918fb33850ec6792", "fusion_lon": 0.0, "lat": 38.966481333333334, "fusion_lat": 0.0}, {"is_disabled": 0, "rental_uris": {"android": "https://dc.lft.to/lastmile_qr_scan", "ios": "https://dc.lft.to/lastmile_qr_scan"}, "is_reserved": 0, "name": "1a9ca8a7e1aec938103d64e1a1700bae", "lon": -77.0488195, "type": "electric_scooter", "bike_id": "1a9ca8a7e1aec938103d64e1a1700bae", "fusion_lon": 0.0, "lat": 38.90829683333333, "fusion_lat": 0.0}, {"is_disabled": 0, "rental_uris": {"android": "https://dc.lft.to/lastmile_qr_scan", "ios": "https://dc.lft.to/lastmile_qr_scan"}, "is_reserved": 0, "name": "7ea848758ff4f5fdc1eeeaacfd007882", "lon": -77.03282883333334, "type": "electric_scooter", "bike_id": "7ea848758ff4f5fdc1eeeaacfd007882", "fusion_lon": 0.0, "lat": 38.9354245, "fusion_lat": 0.0}, {"is_disabled": 0, "rental_uris": {"android": "https://dc.lft.to/lastmile_qr_scan", "ios": "https://dc.lft.to/lastmile_qr_scan"}, "is_reserved": 0, "name": "86421bf6d8e9106926c550bab57ead07", "lon": -77.03253033333333, "type": "electric_scooter", "bike_id": "86421bf6d8e9106926c550bab57ead07", "fusion_lon": 0.0, "lat": 38.90959, "fusion_lat": 0.0}, {"is_disabled": 0, "rental_uris": {"android": "https://dc.lft.to/lastmile_qr_scan", "ios": "https://dc.lft.to/lastmile_qr_scan"}, "is_reserved": 0, "name": "44797c48a4870fbfd42f23d2d84d22e8", "lon": -77.03213933333333, "type": "electric_scooter", "bike_id": "44797c48a4870fbfd42f23d2d84d22e8", "fusion_lon": 0.0, "lat": 38.91851466666667, "fusion_lat": 0.0}, {"is_disabled": 0, "rental_uris": {"android": "https://dc.lft.to/lastmile_qr_scan", "ios": "https://dc.lft.to/lastmile_qr_scan"}, "is_reserved": 0, "name": "0c306744ebae12d16ef63148c45ae175", "lon": -77.07274833333334, "type": "electric_scooter", "bike_id": "0c306744ebae12d16ef63148c45ae175", "fusion_lon": 0.0, "lat": 38.934711666666665, "fusion_lat": 0.0}, {"is_disabled": 0, "rental_uris": {"android": "https://dc.lft.to/lastmile_qr_scan", "ios": "https://dc.lft.to/lastmile_qr_scan"}, "is_reserved": 0, "name": "94d378f95ddaa8935e980472d59ef4fa", "lon": -77.034015, "type": "electric_scooter", "bike_id": "94d378f95ddaa8935e980472d59ef4fa", "fusion_lon": 0.0, "lat": 38.9214595, "fusion_lat": 0.0}, {"is_disabled": 0, "rental_uris": {"android": "https://dc.lft.to/lastmile_qr_scan", "ios": "https://dc.lft.to/lastmile_qr_scan"}, "is_reserved": 0, "name": "a9f4acbf3f611660bb60a966fcdc4ae0", "lon": -77.0254695, "type": "electric_scooter", "bike_id": "a9f4acbf3f611660bb60a966fcdc4ae0", "fusion_lon": 0.0, "lat": 38.948353, "fusion_lat": 0.0}, {"is_disabled": 0, "rental_uris": {"android": "https://dc.lft.to/lastmile_qr_scan", "ios": "https://dc.lft.to/lastmile_qr_scan"}, "is_reserved": 0, "name": "f9605d64f3b880cd7a300d68400aa6f3", "lon": -77.02586066666667, "type": "electric_scooter", "bike_id": "f9605d64f3b880cd7a300d68400aa6f3", "fusion_lon": 0.0, "lat": 38.920360333333335, "fusion_lat": 0.0}, {"is_disabled": 0, "rental_uris": {"android": "https://dc.lft.to/lastmile_qr_scan", "ios": "https://dc.lft.to/lastmile_qr_scan"}, "is_reserved": 0, "name": "96aeb7fce57e3096f820da5c1f19d8b1", "lon": -77.00311616666667, "type": "electric_scooter", "bike_id": "96aeb7fce57e3096f820da5c1f19d8b1", "fusion_lon": 0.0, "lat": 38.892229666666665, "fusion_lat": 0.0}, {"is_disabled": 0, "rental_uris": {"android": "https://dc.lft.to/lastmile_qr_scan", "ios": "https://dc.lft.to/lastmile_qr_scan"}, "is_reserved": 0, "name": "5c0d1b3cb76459f1596266c754750cb5", "lon": -76.9142255, "type": "electric_bike", "bike_id": "5c0d1b3cb76459f1596266c754750cb5", "fusion_lon": 0.0, "lat": 38.898313, "fusion_lat": 0.0}, {"is_disabled": 0, "rental_uris": {"android": "https://dc.lft.to/lastmile_qr_scan", "ios": "https://dc.lft.to/lastmile_qr_scan"}, "is_reserved": 0, "name": "f67708b91965f144f7b6a28ad12f1269", "lon": -77.0405255, "type": "electric_scooter", "bike_id": "f67708b91965f144f7b6a28ad12f1269", "fusion_lon": 0.0, "lat": 38.90125316666666, "fusion_lat": 0.0}, {"is_disabled": 0, "rental_uris": {"android": "https://dc.lft.to/lastmile_qr_scan", "ios": "https://dc.lft.to/lastmile_qr_scan"}, "is_reserved": 0, "name": "66b07cc9108f17cbfd4e630b03ca86b1", "lon": -76.91880066666667, "type": "electric_scooter", "bike_id": "66b07cc9108f17cbfd4e630b03ca86b1", "fusion_lon": 0.0, "lat": 38.890825166666666, "fusion_lat": 0.0}, {"is_disabled": 0, "rental_uris": {"android": "https://dc.lft.to/lastmile_qr_scan", "ios": "https://dc.lft.to/lastmile_qr_scan"}, "is_reserved": 0, "name": "d0fff1fc2566f0b49e1db1c25a606c29", "lon": -77.03944433333334, "type": "electric_scooter", "bike_id": "d0fff1fc2566f0b49e1db1c25a606c29", "fusion_lon": 0.0, "lat": 38.9081065, "fusion_lat": 0.0}, {"is_disabled": 0, "rental_uris": {"android": "https://dc.lft.to/lastmile_qr_scan", "ios": "https://dc.lft.to/lastmile_qr_scan"}, "is_reserved": 0, "name": "5c566cf105b72e67eaf618a39286338a", "lon": -76.99959166666666, "type": "electric_scooter", "bike_id": "5c566cf105b72e67eaf618a39286338a", "fusion_lon": 0.0, "lat": 38.901079, "fusion_lat": 0.0}, {"is_disabled": 0, "rental_uris": {"android": "https://dc.lft.to/lastmile_qr_scan", "ios": "https://dc.lft.to/lastmile_qr_scan"}, "is_reserved": 0, "name": "8f10b1634d5e1d2c27cae0b647d91139", "lon": -77.0216925, "type": "electric_scooter", "bike_id": "8f10b1634d5e1d2c27cae0b647d91139", "fusion_lon": 0.0, "lat": 38.886334833333336, "fusion_lat": 0.0}, {"is_disabled": 0, "rental_uris": {"android": "https://dc.lft.to/lastmile_qr_scan", "ios": "https://dc.lft.to/lastmile_qr_scan"}, "is_reserved": 0, "name": "1072213803bd7053bf6e152890f04422", "lon": -77.026659, "type": "electric_bike", "bike_id": "1072213803bd7053bf6e152890f04422", "fusion_lon": 0.0, "lat": 38.988238333333335, "fusion_lat": 0.0}, {"is_disabled": 0, "rental_uris": {"android": "https://dc.lft.to/lastmile_qr_scan", "ios": "https://dc.lft.to/lastmile_qr_scan"}, "is_reserved": 0, "name": "38a29023091f8b749a6cc48603a3175c", "lon": -77.04158783333334, "type": "electric_scooter", "bike_id": "38a29023091f8b749a6cc48603a3175c", "fusion_lon": 0.0, "lat": 38.915760666666664, "fusion_lat": 0.0}, {"is_disabled": 0, "rental_uris": {"android": "https://dc.lft.to/lastmile_qr_scan", "ios": "https://dc.lft.to/lastmile_qr_scan"}, "is_reserved": 0, "name": "50f12f6abde06936f7f7572d4e0b358e", "lon": -77.175248, "type": "electric_bike", "bike_id": "50f12f6abde06936f7f7572d4e0b358e", "fusion_lon": 0.0, "lat": 39.096027, "fusion_lat": 0.0}, {"is_disabled": 0, "rental_uris": {"android": "https://dc.lft.to/lastmile_qr_scan", "ios": "https://dc.lft.to/lastmile_qr_scan"}, "is_reserved": 0, "name": "eb851af67aa3c391dda7f51d3e63c568", "lon": -77.048703, "type": "electric_scooter", "bike_id": "eb851af67aa3c391dda7f51d3e63c568", "fusion_lon": 0.0, "lat": 38.909513833333335, "fusion_lat": 0.0}, {"is_disabled": 0, "rental_uris": {"android": "https://dc.lft.to/lastmile_qr_scan", "ios": "https://dc.lft.to/lastmile_qr_scan"}, "is_reserved": 0, "name": "f7e9396018ff8b4a7cfba83247a08cd0", "lon": -77.12624883333334, "type": "electric_bike", "bike_id": "f7e9396018ff8b4a7cfba83247a08cd0", "fusion_lon": 0.0, "lat": 39.058134, "fusion_lat": 0.0}, {"is_disabled": 0, "rental_uris": {"android": "https://dc.lft.to/lastmile_qr_scan", "ios": "https://dc.lft.to/lastmile_qr_scan"}, "is_reserved": 0, "name": "eede2dea1838c057b574f96f53e9fa29", "lon": -77.00743216666666, "type": "electric_scooter", "bike_id": "eede2dea1838c057b574f96f53e9fa29", "fusion_lon": 0.0, "lat": 38.915517333333334, "fusion_lat": 0.0}, {"is_disabled": 0, "rental_uris": {"android": "https://dc.lft.to/lastmile_qr_scan", "ios": "https://dc.lft.to/lastmile_qr_scan"}, "is_reserved": 0, "name": "47a37905cc93b6d5df1396453d0b808e", "lon": -77.01769816666666, "type": "electric_scooter", "bike_id": "47a37905cc93b6d5df1396453d0b808e", "fusion_lon": 0.0, "lat": 38.90639633333333, "fusion_lat": 0.0}, {"is_disabled": 0, "rental_uris": {"android": "https://dc.lft.to/lastmile_qr_scan", "ios": "https://dc.lft.to/lastmile_qr_scan"}, "is_reserved": 0, "name": "5308b5207f9c16059792592f0feb444e", "lon": -77.00336266666666, "type": "electric_scooter", "bike_id": "5308b5207f9c16059792592f0feb444e", "fusion_lon": 0.0, "lat": 38.89354683333333, "fusion_lat": 0.0}, {"is_disabled": 0, "rental_uris": {"android": "https://dc.lft.to/lastmile_qr_scan", "ios": "https://dc.lft.to/lastmile_qr_scan"}, "is_reserved": 0, "name": "0fb4732f1ebb9eaf007536deea3442fa", "lon": -77.029588, "type": "electric_scooter", "bike_id": "0fb4732f1ebb9eaf007536deea3442fa", "fusion_lon": 0.0, "lat": 38.89228033333333, "fusion_lat": 0.0}, {"is_disabled": 0, "rental_uris": {"android": "https://dc.lft.to/lastmile_qr_scan", "ios": "https://dc.lft.to/lastmile_qr_scan"}, "is_reserved": 0, "name": "147c9f7134154fc15df1527bcf8e9dd9", "lon": -77.0212475, "type": "electric_scooter", "bike_id": "147c9f7134154fc15df1527bcf8e9dd9", "fusion_lon": 0.0, "lat": 38.88744366666667, "fusion_lat": 0.0}, {"is_disabled": 0, "rental_uris": {"android": "https://dc.lft.to/lastmile_qr_scan", "ios": "https://dc.lft.to/lastmile_qr_scan"}, "is_reserved": 0, "name": "5da9ed49072de9786865352133734699", "lon": -77.0222575, "type": "electric_scooter", "bike_id": "5da9ed49072de9786865352133734699", "fusion_lon": 0.0, "lat": 38.88745016666667, "fusion_lat": 0.0}, {"is_disabled": 0, "rental_uris": {"android": "https://dc.lft.to/lastmile_qr_scan", "ios": "https://dc.lft.to/lastmile_qr_scan"}, "is_reserved": 0, "name": "534032eb430829d3a3d9cd5a1124d0a9", "lon": -77.04166533333333, "type": "electric_scooter", "bike_id": "534032eb430829d3a3d9cd5a1124d0a9", "fusion_lon": 0.0, "lat": 38.91030083333333, "fusion_lat": 0.0}, {"is_disabled": 0, "rental_uris": {"android": "https://dc.lft.to/lastmile_qr_scan", "ios": "https://dc.lft.to/lastmile_qr_scan"}, "is_reserved": 0, "name": "c626e5066aee4ec29b518265971d17e5", "lon": -76.99818333333333, "type": "electric_scooter", "bike_id": "c626e5066aee4ec29b518265971d17e5", "fusion_lon": 0.0, "lat": 38.84436016666667, "fusion_lat": 0.0}, {"is_disabled": 0, "rental_uris": {"android": "https://dc.lft.to/lastmile_qr_scan", "ios": "https://dc.lft.to/lastmile_qr_scan"}, "is_reserved": 0, "name": "84af21afc2d33c4105bec1d96df792ca", "lon": -77.03213966666667, "type": "electric_scooter", "bike_id": "84af21afc2d33c4105bec1d96df792ca", "fusion_lon": 0.0, "lat": 38.920087, "fusion_lat": 0.0}, {"is_disabled": 0, "rental_uris": {"android": "https://dc.lft.to/lastmile_qr_scan", "ios": "https://dc.lft.to/lastmile_qr_scan"}, "is_reserved": 0, "name": "396c58a98199361d6eb8b70d6919a647", "lon": -77.005343, "type": "electric_scooter", "bike_id": "396c58a98199361d6eb8b70d6919a647", "fusion_lon": 0.0, "lat": 38.92970783333333, "fusion_lat": 0.0}, {"is_disabled": 0, "rental_uris": {"android": "https://dc.lft.to/lastmile_qr_scan", "ios": "https://dc.lft.to/lastmile_qr_scan"}, "is_reserved": 0, "name": "dbad3f5aba173d249454d89523f475fd", "lon": -77.02604166666667, "type": "electric_scooter", "bike_id": "dbad3f5aba173d249454d89523f475fd", "fusion_lon": 0.0, "lat": 38.92890533333333, "fusion_lat": 0.0}, {"is_disabled": 0, "rental_uris": {"android": "https://dc.lft.to/lastmile_qr_scan", "ios": "https://dc.lft.to/lastmile_qr_scan"}, "is_reserved": 0, "name": "e0973f255337e8a919c30ceafb59a2d0", "lon": -77.0331115, "type": "electric_scooter", "bike_id": "e0973f255337e8a919c30ceafb59a2d0", "fusion_lon": 0.0, "lat": 38.918087, "fusion_lat": 0.0}, {"is_disabled": 0, "rental_uris": {"android": "https://dc.lft.to/lastmile_qr_scan", "ios": "https://dc.lft.to/lastmile_qr_scan"}, "is_reserved": 0, "name": "b839a36797aa21c3d17a4039d7b60ea4", "lon": -77.05051933333333, "type": "electric_scooter", "bike_id": "b839a36797aa21c3d17a4039d7b60ea4", "fusion_lon": 0.0, "lat": 38.9167055, "fusion_lat": 0.0}, {"is_disabled": 0, "rental_uris": {"android": "https://dc.lft.to/lastmile_qr_scan", "ios": "https://dc.lft.to/lastmile_qr_scan"}, "is_reserved": 0, "name": "3f73432e61183622a52dfe4d0bc980be", "lon": -77.026945, "type": "electric_scooter", "bike_id": "3f73432e61183622a52dfe4d0bc980be", "fusion_lon": 0.0, "lat": 38.936346666666665, "fusion_lat": 0.0}, {"is_disabled": 0, "rental_uris": {"android": "https://dc.lft.to/lastmile_qr_scan", "ios": "https://dc.lft.to/lastmile_qr_scan"}, "is_reserved": 0, "name": "7c156520b8bd29d934d8a1c021d702f8", "lon": -76.98991116666667, "type": "electric_scooter", "bike_id": "7c156520b8bd29d934d8a1c021d702f8", "fusion_lon": 0.0, "lat": 38.864330833333334, "fusion_lat": 0.0}, {"is_disabled": 0, "rental_uris": {"android": "https://dc.lft.to/lastmile_qr_scan", "ios": "https://dc.lft.to/lastmile_qr_scan"}, "is_reserved": 0, "name": "c5101495cb8a51153c3a359707b465fa", "lon": -77.03866416666666, "type": "electric_scooter", "bike_id": "c5101495cb8a51153c3a359707b465fa", "fusion_lon": 0.0, "lat": 38.90972416666666, "fusion_lat": 0.0}, {"is_disabled": 0, "rental_uris": {"android": "https://dc.lft.to/lastmile_qr_scan", "ios": "https://dc.lft.to/lastmile_qr_scan"}, "is_reserved": 0, "name": "0adbf96a6615e2bbb25a152996cb890b", "lon": -77.0435245, "type": "electric_scooter", "bike_id": "0adbf96a6615e2bbb25a152996cb890b", "fusion_lon": 0.0, "lat": 38.90474283333333, "fusion_lat": 0.0}, {"is_disabled": 0, "rental_uris": {"android": "https://dc.lft.to/lastmile_qr_scan", "ios": "https://dc.lft.to/lastmile_qr_scan"}, "is_reserved": 0, "name": "719006378cb22b1c4e881869f177b95b", "lon": -77.028187, "type": "electric_bike", "bike_id": "719006378cb22b1c4e881869f177b95b", "fusion_lon": 0.0, "lat": 38.993795666666664, "fusion_lat": 0.0}, {"is_disabled": 0, "rental_uris": {"android": "https://dc.lft.to/lastmile_qr_scan", "ios": "https://dc.lft.to/lastmile_qr_scan"}, "is_reserved": 0, "name": "330f1f7a9361183bac994a856568f9c9", "lon": -76.99616333333333, "type": "electric_scooter", "bike_id": "330f1f7a9361183bac994a856568f9c9", "fusion_lon": 0.0, "lat": 38.900364333333336, "fusion_lat": 0.0}, {"is_disabled": 0, "rental_uris": {"android": "https://dc.lft.to/lastmile_qr_scan", "ios": "https://dc.lft.to/lastmile_qr_scan"}, "is_reserved": 0, "name": "9fd9ee2a7a8274983f5c94b8362992d6", "lon": -77.044178, "type": "electric_scooter", "bike_id": "9fd9ee2a7a8274983f5c94b8362992d6", "fusion_lon": 0.0, "lat": 38.893968666666666, "fusion_lat": 0.0}, {"is_disabled": 0, "rental_uris": {"android": "https://dc.lft.to/lastmile_qr_scan", "ios": "https://dc.lft.to/lastmile_qr_scan"}, "is_reserved": 0, "name": "37f815e1ccf2202cc0bb833828313916", "lon": -77.032028, "type": "electric_scooter", "bike_id": "37f815e1ccf2202cc0bb833828313916", "fusion_lon": 0.0, "lat": 38.893681, "fusion_lat": 0.0}, {"is_disabled": 0, "rental_uris": {"android": "https://dc.lft.to/lastmile_qr_scan", "ios": "https://dc.lft.to/lastmile_qr_scan"}, "is_reserved": 0, "name": "6fea789023e6b06f4cb33bea39b27951", "lon": -77.04979533333334, "type": "electric_bike", "bike_id": "6fea789023e6b06f4cb33bea39b27951", "fusion_lon": 0.0, "lat": 38.90132783333333, "fusion_lat": 0.0}, {"is_disabled": 0, "rental_uris": {"android": "https://dc.lft.to/lastmile_qr_scan", "ios": "https://dc.lft.to/lastmile_qr_scan"}, "is_reserved": 0, "name": "ac3057e1182307988804b4cb162d2ce0", "lon": -77.04689183333333, "type": "electric_scooter", "bike_id": "ac3057e1182307988804b4cb162d2ce0", "fusion_lon": 0.0, "lat": 38.90579133333333, "fusion_lat": 0.0}, {"is_disabled": 0, "rental_uris": {"android": "https://dc.lft.to/lastmile_qr_scan", "ios": "https://dc.lft.to/lastmile_qr_scan"}, "is_reserved": 0, "name": "04072119beebc59f3f1deb926ff10870", "lon": -77.03830466666666, "type": "electric_scooter", "bike_id": "04072119beebc59f3f1deb926ff10870", "fusion_lon": 0.0, "lat": 38.91111216666667, "fusion_lat": 0.0}, {"is_disabled": 0, "rental_uris": {"android": "https://dc.lft.to/lastmile_qr_scan", "ios": "https://dc.lft.to/lastmile_qr_scan"}, "is_reserved": 0, "name": "7b18c1ca0bd02d9b13b40556d0ec13d3", "lon": -77.0418105, "type": "electric_scooter", "bike_id": "7b18c1ca0bd02d9b13b40556d0ec13d3", "fusion_lon": 0.0, "lat": 38.914008833333334, "fusion_lat": 0.0}, {"is_disabled": 0, "rental_uris": {"android": "https://dc.lft.to/lastmile_qr_scan", "ios": "https://dc.lft.to/lastmile_qr_scan"}, "is_reserved": 0, "name": "0d87f9221a7d4bd735a3f7e580c5f00e", "lon": -77.0385175, "type": "electric_scooter", "bike_id": "0d87f9221a7d4bd735a3f7e580c5f00e", "fusion_lon": 0.0, "lat": 38.921726666666665, "fusion_lat": 0.0}, {"is_disabled": 0, "rental_uris": {"android": "https://dc.lft.to/lastmile_qr_scan", "ios": "https://dc.lft.to/lastmile_qr_scan"}, "is_reserved": 0, "name": "fbbf510144e814c2bd57f2dd9af6efd2", "lon": -77.04997216666666, "type": "electric_scooter", "bike_id": "fbbf510144e814c2bd57f2dd9af6efd2", "fusion_lon": 0.0, "lat": 38.89729033333333, "fusion_lat": 0.0}, {"is_disabled": 0, "rental_uris": {"android": "https://dc.lft.to/lastmile_qr_scan", "ios": "https://dc.lft.to/lastmile_qr_scan"}, "is_reserved": 0, "name": "cf30b5d3faeae41091d9419455a0b5ba", "lon": -77.02410083333334, "type": "electric_scooter", "bike_id": "cf30b5d3faeae41091d9419455a0b5ba", "fusion_lon": 0.0, "lat": 38.912575833333335, "fusion_lat": 0.0}, {"is_disabled": 0, "rental_uris": {"android": "https://dc.lft.to/lastmile_qr_scan", "ios": "https://dc.lft.to/lastmile_qr_scan"}, "is_reserved": 0, "name": "11c91d4d3b00a7656d08814b03d72c93", "lon": -77.044819, "type": "electric_bike", "bike_id": "11c91d4d3b00a7656d08814b03d72c93", "fusion_lon": 0.0, "lat": 38.90406683333333, "fusion_lat": 0.0}, {"is_disabled": 0, "rental_uris": {"android": "https://dc.lft.to/lastmile_qr_scan", "ios": "https://dc.lft.to/lastmile_qr_scan"}, "is_reserved": 0, "name": "a5a555d5ed34fd63b3ab05664aa1ecca", "lon": -77.0433245, "type": "electric_scooter", "bike_id": "a5a555d5ed34fd63b3ab05664aa1ecca", "fusion_lon": 0.0, "lat": 38.90825933333333, "fusion_lat": 0.0}, {"is_disabled": 0, "rental_uris": {"android": "https://dc.lft.to/lastmile_qr_scan", "ios": "https://dc.lft.to/lastmile_qr_scan"}, "is_reserved": 0, "name": "9a15ba31dbc50f981ebef8acef6102a6", "lon": -77.0419485, "type": "electric_scooter", "bike_id": "9a15ba31dbc50f981ebef8acef6102a6", "fusion_lon": 0.0, "lat": 38.92625566666667, "fusion_lat": 0.0}, {"is_disabled": 0, "rental_uris": {"android": "https://dc.lft.to/lastmile_qr_scan", "ios": "https://dc.lft.to/lastmile_qr_scan"}, "is_reserved": 0, "name": "1fb8fd912d78e2b51fe00d3889624f15", "lon": -76.946344, "type": "electric_scooter", "bike_id": "1fb8fd912d78e2b51fe00d3889624f15", "fusion_lon": 0.0, "lat": 38.898429, "fusion_lat": 0.0}, {"is_disabled": 0, "rental_uris": {"android": "https://dc.lft.to/lastmile_qr_scan", "ios": "https://dc.lft.to/lastmile_qr_scan"}, "is_reserved": 0, "name": "75d7eba9dc50273517cb78c23e9544fa", "lon": -77.020863, "type": "electric_scooter", "bike_id": "75d7eba9dc50273517cb78c23e9544fa", "fusion_lon": 0.0, "lat": 38.93010683333333, "fusion_lat": 0.0}, {"is_disabled": 0, "rental_uris": {"android": "https://dc.lft.to/lastmile_qr_scan", "ios": "https://dc.lft.to/lastmile_qr_scan"}, "is_reserved": 0, "name": "4eaf2d54696bc040a3941c71a6b2ca23", "lon": -77.03261, "type": "electric_scooter", "bike_id": "4eaf2d54696bc040a3941c71a6b2ca23", "fusion_lon": 0.0, "lat": 38.937009833333335, "fusion_lat": 0.0}, {"is_disabled": 0, "rental_uris": {"android": "https://dc.lft.to/lastmile_qr_scan", "ios": "https://dc.lft.to/lastmile_qr_scan"}, "is_reserved": 0, "name": "fe2f96fe2ebee2ceb77e01895c2c165e", "lon": -77.05167466666667, "type": "electric_scooter", "bike_id": "fe2f96fe2ebee2ceb77e01895c2c165e", "fusion_lon": 0.0, "lat": 38.90586316666667, "fusion_lat": 0.0}, {"is_disabled": 0, "rental_uris": {"android": "https://dc.lft.to/lastmile_qr_scan", "ios": "https://dc.lft.to/lastmile_qr_scan"}, "is_reserved": 0, "name": "7ab569f267fab5942a7e168e6c6bd609", "lon": -77.00829983333334, "type": "electric_scooter", "bike_id": "7ab569f267fab5942a7e168e6c6bd609", "fusion_lon": 0.0, "lat": 38.912579666666666, "fusion_lat": 0.0}, {"is_disabled": 0, "rental_uris": {"android": "https://dc.lft.to/lastmile_qr_scan", "ios": "https://dc.lft.to/lastmile_qr_scan"}, "is_reserved": 0, "name": "6cdaf7dba51884c2c6cc9ac5a40dac1e", "lon": -77.01406, "type": "electric_scooter", "bike_id": "6cdaf7dba51884c2c6cc9ac5a40dac1e", "fusion_lon": 0.0, "lat": 38.928642333333336, "fusion_lat": 0.0}, {"is_disabled": 0, "rental_uris": {"android": "https://dc.lft.to/lastmile_qr_scan", "ios": "https://dc.lft.to/lastmile_qr_scan"}, "is_reserved": 0, "name": "058e798c7556d4691dc0e03826d3acaa", "lon": -77.00332183333333, "type": "electric_scooter", "bike_id": "058e798c7556d4691dc0e03826d3acaa", "fusion_lon": 0.0, "lat": 38.89356883333333, "fusion_lat": 0.0}, {"is_disabled": 0, "rental_uris": {"android": "https://dc.lft.to/lastmile_qr_scan", "ios": "https://dc.lft.to/lastmile_qr_scan"}, "is_reserved": 0, "name": "69e7aa209710b11acb471f169f1af4fe", "lon": -77.00591216666666, "type": "electric_scooter", "bike_id": "69e7aa209710b11acb471f169f1af4fe", "fusion_lon": 0.0, "lat": 38.90561066666667, "fusion_lat": 0.0}, {"is_disabled": 0, "rental_uris": {"android": "https://dc.lft.to/lastmile_qr_scan", "ios": "https://dc.lft.to/lastmile_qr_scan"}, "is_reserved": 0, "name": "2457f7650f3ebf679d644a6dfb3c4e28", "lon": -76.88905533333333, "type": "electric_bike", "bike_id": "2457f7650f3ebf679d644a6dfb3c4e28", "fusion_lon": 0.0, "lat": 38.92592966666667, "fusion_lat": 0.0}, {"is_disabled": 0, "rental_uris": {"android": "https://dc.lft.to/lastmile_qr_scan", "ios": "https://dc.lft.to/lastmile_qr_scan"}, "is_reserved": 0, "name": "fdcbf122f9246b783f61e9a060231638", "lon": -77.00925783333334, "type": "electric_scooter", "bike_id": "fdcbf122f9246b783f61e9a060231638", "fusion_lon": 0.0, "lat": 38.896041, "fusion_lat": 0.0}, {"is_disabled": 0, "rental_uris": {"android": "https://dc.lft.to/lastmile_qr_scan", "ios": "https://dc.lft.to/lastmile_qr_scan"}, "is_reserved": 0, "name": "b895e7ec68a750b2c1f47da89c33b6b9", "lon": -76.95222966666667, "type": "electric_bike", "bike_id": "b895e7ec68a750b2c1f47da89c33b6b9", "fusion_lon": 0.0, "lat": 38.89235816666667, "fusion_lat": 0.0}, {"is_disabled": 0, "rental_uris": {"android": "https://dc.lft.to/lastmile_qr_scan", "ios": "https://dc.lft.to/lastmile_qr_scan"}, "is_reserved": 0, "name": "cac933ee6a50b036c95707e5636dbbd5", "lon": -77.0541845, "type": "electric_scooter", "bike_id": "cac933ee6a50b036c95707e5636dbbd5", "fusion_lon": 0.0, "lat": 38.8991775, "fusion_lat": 0.0}, {"is_disabled": 0, "rental_uris": {"android": "https://dc.lft.to/lastmile_qr_scan", "ios": "https://dc.lft.to/lastmile_qr_scan"}, "is_reserved": 0, "name": "6b59e8076e4603983d6a735e580c35ac", "lon": -77.06703166666667, "type": "electric_scooter", "bike_id": "6b59e8076e4603983d6a735e580c35ac", "fusion_lon": 0.0, "lat": 38.95585, "fusion_lat": 0.0}, {"is_disabled": 0, "rental_uris": {"android": "https://dc.lft.to/lastmile_qr_scan", "ios": "https://dc.lft.to/lastmile_qr_scan"}, "is_reserved": 0, "name": "dd4cc8078f1ffe48efb58ead2d5fb23c", "lon": -76.98885283333334, "type": "electric_scooter", "bike_id": "dd4cc8078f1ffe48efb58ead2d5fb23c", "fusion_lon": 0.0, "lat": 38.86672016666667, "fusion_lat": 0.0}, {"is_disabled": 0, "rental_uris": {"android": "https://dc.lft.to/lastmile_qr_scan", "ios": "https://dc.lft.to/lastmile_qr_scan"}, "is_reserved": 0, "name": "030fa3cc78179e8e48ede66066827369", "lon": -76.92760333333334, "type": "electric_bike", "bike_id": "030fa3cc78179e8e48ede66066827369", "fusion_lon": 0.0, "lat": 38.960313166666666, "fusion_lat": 0.0}, {"is_disabled": 0, "rental_uris": {"android": "https://dc.lft.to/lastmile_qr_scan", "ios": "https://dc.lft.to/lastmile_qr_scan"}, "is_reserved": 0, "name": "f7a4a69a4d5c30dfcb2d542d5f030015", "lon": -77.0332615, "type": "electric_scooter", "bike_id": "f7a4a69a4d5c30dfcb2d542d5f030015", "fusion_lon": 0.0, "lat": 38.8982505, "fusion_lat": 0.0}, {"is_disabled": 0, "rental_uris": {"android": "https://dc.lft.to/lastmile_qr_scan", "ios": "https://dc.lft.to/lastmile_qr_scan"}, "is_reserved": 0, "name": "4c30cfb3cbcd99bd0390d4e758cfb93c", "lon": -77.02115533333334, "type": "electric_scooter", "bike_id": "4c30cfb3cbcd99bd0390d4e758cfb93c", "fusion_lon": 0.0, "lat": 38.917376833333336, "fusion_lat": 0.0}, {"is_disabled": 0, "rental_uris": {"android": "https://dc.lft.to/lastmile_qr_scan", "ios": "https://dc.lft.to/lastmile_qr_scan"}, "is_reserved": 0, "name": "55ab2deef58de4e2cc8763d0f3ad7f16", "lon": -77.02681666666666, "type": "electric_scooter", "bike_id": "55ab2deef58de4e2cc8763d0f3ad7f16", "fusion_lon": 0.0, "lat": 38.89515766666667, "fusion_lat": 0.0}, {"is_disabled": 0, "rental_uris": {"android": "https://dc.lft.to/lastmile_qr_scan", "ios": "https://dc.lft.to/lastmile_qr_scan"}, "is_reserved": 0, "name": "23f8f18807e8e9d3f75c8cabbd441096", "lon": -77.00206516666667, "type": "electric_bike", "bike_id": "23f8f18807e8e9d3f75c8cabbd441096", "fusion_lon": 0.0, "lat": 38.819478333333336, "fusion_lat": 0.0}, {"is_disabled": 0, "rental_uris": {"android": "https://dc.lft.to/lastmile_qr_scan", "ios": "https://dc.lft.to/lastmile_qr_scan"}, "is_reserved": 0, "name": "15db7a52c95c94558ed31e51eb4aeddc", "lon": -77.063859, "type": "electric_bike", "bike_id": "15db7a52c95c94558ed31e51eb4aeddc", "fusion_lon": 0.0, "lat": 39.01734783333333, "fusion_lat": 0.0}, {"is_disabled": 0, "rental_uris": {"android": "https://dc.lft.to/lastmile_qr_scan", "ios": "https://dc.lft.to/lastmile_qr_scan"}, "is_reserved": 0, "name": "11dacf3f5905352442205d4cebb987ed", "lon": -76.96088116666667, "type": "electric_bike", "bike_id": "11dacf3f5905352442205d4cebb987ed", "fusion_lon": 0.0, "lat": 38.91851883333333, "fusion_lat": 0.0}, {"is_disabled": 0, "rental_uris": {"android": "https://dc.lft.to/lastmile_qr_scan", "ios": "https://dc.lft.to/lastmile_qr_scan"}, "is_reserved": 0, "name": "36dcb2172bfa82b0d0014e70ebb4d6e1", "lon": -77.008466, "type": "electric_scooter", "bike_id": "36dcb2172bfa82b0d0014e70ebb4d6e1", "fusion_lon": 0.0, "lat": 38.88498533333333, "fusion_lat": 0.0}, {"is_disabled": 0, "rental_uris": {"android": "https://dc.lft.to/lastmile_qr_scan", "ios": "https://dc.lft.to/lastmile_qr_scan"}, "is_reserved": 0, "name": "8721c77199008b062f68e97fd1187ef3", "lon": -77.01047216666667, "type": "electric_scooter", "bike_id": "8721c77199008b062f68e97fd1187ef3", "fusion_lon": 0.0, "lat": 38.86672383333333, "fusion_lat": 0.0}, {"is_disabled": 0, "rental_uris": {"android": "https://dc.lft.to/lastmile_qr_scan", "ios": "https://dc.lft.to/lastmile_qr_scan"}, "is_reserved": 0, "name": "7e1333a58bf3375905918ed8113d1677", "lon": -77.02669116666667, "type": "electric_scooter", "bike_id": "7e1333a58bf3375905918ed8113d1677", "fusion_lon": 0.0, "lat": 38.912671833333334, "fusion_lat": 0.0}, {"is_disabled": 0, "rental_uris": {"android": "https://dc.lft.to/lastmile_qr_scan", "ios": "https://dc.lft.to/lastmile_qr_scan"}, "is_reserved": 0, "name": "18e66cced28c00cb2f5f916628dd06d7", "lon": -77.00583833333333, "type": "electric_scooter", "bike_id": "18e66cced28c00cb2f5f916628dd06d7", "fusion_lon": 0.0, "lat": 38.87547683333333, "fusion_lat": 0.0}, {"is_disabled": 0, "rental_uris": {"android": "https://dc.lft.to/lastmile_qr_scan", "ios": "https://dc.lft.to/lastmile_qr_scan"}, "is_reserved": 0, "name": "3867d39635bb4d498ef2805dd015b85e", "lon": -77.01096366666667, "type": "electric_scooter", "bike_id": "3867d39635bb4d498ef2805dd015b85e", "fusion_lon": 0.0, "lat": 38.90560333333333, "fusion_lat": 0.0}, {"is_disabled": 0, "rental_uris": {"android": "https://dc.lft.to/lastmile_qr_scan", "ios": "https://dc.lft.to/lastmile_qr_scan"}, "is_reserved": 0, "name": "1a7678f23f5dcec9d05286dfaa9af05a", "lon": -77.019642, "type": "electric_scooter", "bike_id": "1a7678f23f5dcec9d05286dfaa9af05a", "fusion_lon": 0.0, "lat": 38.89605616666667, "fusion_lat": 0.0}, {"is_disabled": 0, "rental_uris": {"android": "https://dc.lft.to/lastmile_qr_scan", "ios": "https://dc.lft.to/lastmile_qr_scan"}, "is_reserved": 0, "name": "d26269f4c832c2708dc0df768e60ce75", "lon": -77.03170883333334, "type": "electric_scooter", "bike_id": "d26269f4c832c2708dc0df768e60ce75", "fusion_lon": 0.0, "lat": 38.89786616666667, "fusion_lat": 0.0}, {"is_disabled": 0, "rental_uris": {"android": "https://dc.lft.to/lastmile_qr_scan", "ios": "https://dc.lft.to/lastmile_qr_scan"}, "is_reserved": 0, "name": "f978e31cd2da9d7ee8a2cef324320a64", "lon": -77.031407, "type": "electric_scooter", "bike_id": "f978e31cd2da9d7ee8a2cef324320a64", "fusion_lon": 0.0, "lat": 38.9181125, "fusion_lat": 0.0}, {"is_disabled": 0, "rental_uris": {"android": "https://dc.lft.to/lastmile_qr_scan", "ios": "https://dc.lft.to/lastmile_qr_scan"}, "is_reserved": 0, "name": "7686632dfa9b69ce7c2354b0a0140c4f", "lon": -77.04864283333333, "type": "electric_scooter", "bike_id": "7686632dfa9b69ce7c2354b0a0140c4f", "fusion_lon": 0.0, "lat": 38.9133795, "fusion_lat": 0.0}, {"is_disabled": 0, "rental_uris": {"android": "https://dc.lft.to/lastmile_qr_scan", "ios": "https://dc.lft.to/lastmile_qr_scan"}, "is_reserved": 0, "name": "894f66f9b069319feec4636b594766e2", "lon": -77.12257716666667, "type": "electric_bike", "bike_id": "894f66f9b069319feec4636b594766e2", "fusion_lon": 0.0, "lat": 38.887673166666666, "fusion_lat": 0.0}, {"is_disabled": 0, "rental_uris": {"android": "https://dc.lft.to/lastmile_qr_scan", "ios": "https://dc.lft.to/lastmile_qr_scan"}, "is_reserved": 0, "name": "d5aadbd7d0f6733c7eb82c6a7a9e3c69", "lon": -77.11234133333333, "type": "electric_bike", "bike_id": "d5aadbd7d0f6733c7eb82c6a7a9e3c69", "fusion_lon": 0.0, "lat": 38.828594, "fusion_lat": 0.0}, {"is_disabled": 0, "rental_uris": {"android": "https://dc.lft.to/lastmile_qr_scan", "ios": "https://dc.lft.to/lastmile_qr_scan"}, "is_reserved": 0, "name": "6d588d4a3a8aef354cc43e49b0c0704b", "lon": -77.07683316666666, "type": "electric_bike", "bike_id": "6d588d4a3a8aef354cc43e49b0c0704b", "fusion_lon": 0.0, "lat": 38.831945, "fusion_lat": 0.0}, {"is_disabled": 0, "rental_uris": {"android": "https://dc.lft.to/lastmile_qr_scan", "ios": "https://dc.lft.to/lastmile_qr_scan"}, "is_reserved": 0, "name": "168b75a5152f74cea0c1de2d6cd415ba", "lon": -76.9353815, "type": "electric_bike", "bike_id": "168b75a5152f74cea0c1de2d6cd415ba", "fusion_lon": 0.0, "lat": 38.9554705, "fusion_lat": 0.0}, {"is_disabled": 0, "rental_uris": {"android": "https://dc.lft.to/lastmile_qr_scan", "ios": "https://dc.lft.to/lastmile_qr_scan"}, "is_reserved": 0, "name": "0976693f643036955e5588d58d90c5ed", "lon": -77.032019, "type": "electric_scooter", "bike_id": "0976693f643036955e5588d58d90c5ed", "fusion_lon": 0.0, "lat": 38.914656, "fusion_lat": 0.0}, {"is_disabled": 0, "rental_uris": {"android": "https://dc.lft.to/lastmile_qr_scan", "ios": "https://dc.lft.to/lastmile_qr_scan"}, "is_reserved": 0, "name": "5c9f6f537c9981d69ceeccd96d0da417", "lon": -77.04206433333333, "type": "electric_scooter", "bike_id": "5c9f6f537c9981d69ceeccd96d0da417", "fusion_lon": 0.0, "lat": 38.911286833333335, "fusion_lat": 0.0}, {"is_disabled": 0, "rental_uris": {"android": "https://dc.lft.to/lastmile_qr_scan", "ios": "https://dc.lft.to/lastmile_qr_scan"}, "is_reserved": 0, "name": "5b486257ce16f2d2339a2ff74575e551", "lon": -76.99534516666667, "type": "electric_scooter", "bike_id": "5b486257ce16f2d2339a2ff74575e551", "fusion_lon": 0.0, "lat": 38.920662, "fusion_lat": 0.0}, {"is_disabled": 0, "rental_uris": {"android": "https://dc.lft.to/lastmile_qr_scan", "ios": "https://dc.lft.to/lastmile_qr_scan"}, "is_reserved": 0, "name": "6fcb826053e2545dcc561f52a869dd2a", "lon": -76.9964505, "type": "electric_scooter", "bike_id": "6fcb826053e2545dcc561f52a869dd2a", "fusion_lon": 0.0, "lat": 38.887179833333334, "fusion_lat": 0.0}, {"is_disabled": 0, "rental_uris": {"android": "https://dc.lft.to/lastmile_qr_scan", "ios": "https://dc.lft.to/lastmile_qr_scan"}, "is_reserved": 0, "name": "b18311fa3f28d39831cd55a46b7d1e50", "lon": -77.03354366666667, "type": "electric_scooter", "bike_id": "b18311fa3f28d39831cd55a46b7d1e50", "fusion_lon": 0.0, "lat": 38.89244583333333, "fusion_lat": 0.0},