{"data": {"bikes": [{"fusion_lon": 0.0, "fusion_lat": 0.0, "rental_uris": {"android": "https://dc.lft.to/lastmile_qr_scan", "ios": "https://dc.lft.to/lastmile_qr_scan"}, "is_disabled": 0, "type": "electric_scooter", "is_reserved": 0, "name": "6030c08c6c755bb3c64f117c08456da0", "lon": -77.02183266666667, "bike_id": "6030c08c6c755bb3c64f117c08456da0", "lat": 38.944084833333335}, {"fusion_lon": 0.0, "fusion_lat": 0.0, "rental_uris": {"android": "https://dc.lft.to/lastmile_qr_scan", "ios": "https://dc.lft.to/lastmile_qr_scan"}, "is_disabled": 0, "type": "electric_scooter", "is_reserved": 0, "name": "7c271d4d02c744ec8fc1299530257a1e", "lon": -77.00925916666667, "bike_id": "7c271d4d02c744ec8fc1299530257a1e", "lat": 38.918778833333334}, {"fusion_lon": 0.0, "fusion_lat": 0.0, "rental_uris": {"android": "https://dc.lft.to/lastmile_qr_scan", "ios": "https://dc.lft.to/lastmile_qr_scan"}, "is_disabled": 0, "type": "electric_bike", "is_reserved": 0, "name": "9f96a04fc60650bba81ca0e9efe683b8", "lon": -77.09614166666667, "bike_id": "9f96a04fc60650bba81ca0e9efe683b8", "lat": 38.974404666666665}, {"fusion_lon": 0.0, "fusion_lat": 0.0, "rental_uris": {"android": "https://dc.lft.to/lastmile_qr_scan", "ios": "https://dc.lft.to/lastmile_qr_scan"}, "is_disabled": 0, "type": "electric_scooter", "is_reserved": 0, "name": "bc8036fd7e6c722be88c673a3fb9fa02", "lon": -77.04003366666667, "bike_id": "bc8036fd7e6c722be88c673a3fb9fa02", "lat": 38.9342345}, {"fusion_lon": 0.0, "fusion_lat": 0.0, "rental_uris": {"android": "https://dc.lft.to/lastmile_qr_scan", "ios": "https://dc.lft.to/lastmile_qr_scan"}, "is_disabled": 0, "type": "electric_scooter", "is_reserved": 0, "name": "16c922aee8ea78c94b1decd99cfaee36", "lon": -76.9738325, "bike_id": "16c922aee8ea78c94b1decd99cfaee36", "lat": 38.8718525}, {"fusion_lon": 0.0, "fusion_lat": 0.0, "rental_uris": {"android": "https://dc.lft.to/lastmile_qr_scan", "ios": "https://dc.lft.to/lastmile_qr_scan"}, "is_disabled": 0, "type": "electric_scooter", "is_reserved": 0, "name": "8b8d8f45f12d1d4c42c299d52863ac73", "lon": -77.00070566666666, "bike_id": "8b8d8f45f12d1d4c42c299d52863ac73", "lat": 38.90147983333333}, {"fusion_lon": 0.0, "fusion_lat": 0.0, "rental_uris": {"android": "https://dc.lft.to/lastmile_qr_scan", "ios": "https://dc.lft.to/lastmile_qr_scan"}, "is_disabled": 0, "type": "electric_scooter", "is_reserved": 0, "name": "4157b54ac647d6b5cb4f4c08abb7eda6", "lon": -77.02984116666667, "bike_id": "4157b54ac647d6b5cb4f4c08abb7eda6", "lat": 38.92476516666667}, {"fusion_lon": 0.0, "fusion_lat": 0.0, "rental_uris": {"android": "https://dc.lft.to/lastmile_qr_scan", "ios": "https://dc.lft.to/lastmile_qr_scan"}, "is_disabled": 0, "type": "electric_scooter", "is_reserved": 0, "name": "0784cd66d0543333bb7389e4707354b9", "lon": -77.05140116666666, "bike_id": "0784cd66d0543333bb7389e4707354b9", "lat": 38.900515}, {"fusion_lon": 0.0, "fusion_lat": 0.0, "rental_uris": {"android": "https://dc.lft.to/lastmile_qr_scan", "ios": "https://dc.lft.to/lastmile_qr_scan"}, "is_disabled": 0, "type": "electric_scooter", "is_reserved": 0, "name": "70de81b72cde37f24a80d725120cdd7a", "lon": -77.03199616666667, "bike_id": "70de81b72cde37f24a80d725120cdd7a", "lat": 38.893495333333334}, {"fusion_lon": 0.0, "fusion_lat": 0.0, "rental_uris": {"android": "https://dc.lft.to/lastmile_qr_scan", "ios": "https://dc.lft.to/lastmile_qr_scan"}, "is_disabled": 0, "type": "electric_scooter", "is_reserved": 0, "name": "05b0fe69600cd379c49a612e719b026a", "lon": -77.0080175, "bike_id": "05b0fe69600cd379c49a612e719b026a", "lat": 38.897141833333336}, {"fusion_lon": 0.0, "fusion_lat": 0.0, "rental_uris": {"android": "https://dc.lft.to/lastmile_qr_scan", "ios": "https://dc.lft.to/lastmile_qr_scan"}, "is_disabled": 0, "type": "electric_scooter", "is_reserved": 0, "name": "15e1bc52adb4ca8f7f3eeac21074a9f1", "lon": -77.03584333333333, "bike_id": "15e1bc52adb4ca8f7f3eeac21074a9f1", "lat": 38.923311166666664}, {"fusion_lon": 0.0, "fusion_lat": 0.0, "rental_uris": {"android": "https://dc.lft.to/lastmile_qr_scan", "ios": "https://dc.lft.to/lastmile_qr_scan"}, "is_disabled": 0, "type": "electric_scooter", "is_reserved": 0, "name": "1133470a2b8355aa70ae0b684cef2c6e", "lon": -77.03781166666667, "bike_id": "1133470a2b8355aa70ae0b684cef2c6e", "lat": 38.9168885}, {"fusion_lon": 0.0, "fusion_lat": 0.0, "rental_uris": {"android": "https://dc.lft.to/lastmile_qr_scan", "ios": "https://dc.lft.to/lastmile_qr_scan"}, "is_disabled": 0, "type": "electric_scooter", "is_reserved": 0, "name": "08084c282fdb127ee1e3d86b77619f1c", "lon": -77.02824133333333, "bike_id": "08084c282fdb127ee1e3d86b77619f1c", "lat": 38.893535}, {"fusion_lon": 0.0, "fusion_lat": 0.0, "rental_uris": {"android": "https://dc.lft.to/lastmile_qr_scan", "ios": "https://dc.lft.to/lastmile_qr_scan"}, "is_disabled": 0, "type": "electric_scooter", "is_reserved": 0, "name": "09a97de4b7caeacd8acc3919d0c18230", "lon": -77.02135883333334, "bike_id": "09a97de4b7caeacd8acc3919d0c18230", "lat": 38.92411666666667}, {"fusion_lon": 0.0, "fusion_lat": 0.0, "rental_uris": {"android": "https://dc.lft.to/lastmile_qr_scan", "ios": "https://dc.lft.to/lastmile_qr_scan"}, "is_disabled": 0, "type": "electric_scooter", "is_reserved": 0, "name": "2eaf133848129984438a204a2f4277ea", "lon": -77.022297, "bike_id": "2eaf133848129984438a204a2f4277ea", "lat": 38.92475366666667}, {"fusion_lon": 0.0, "fusion_lat": 0.0, "rental_uris": {"android": "https://dc.lft.to/lastmile_qr_scan", "ios": "https://dc.lft.to/lastmile_qr_scan"}, "is_disabled": 0, "type": "electric_scooter", "is_reserved": 0, "name": "0fd6cc0b9ef5192edd5898cb2d7aa29b", "lon": -77.04503066666666, "bike_id": "0fd6cc0b9ef5192edd5898cb2d7aa29b", "lat": 38.89955766666667}, {"fusion_lon": 0.0, "fusion_lat": 0.0, "rental_uris": {"android": "https://dc.lft.to/lastmile_qr_scan", "ios": "https://dc.lft.to/lastmile_qr_scan"}, "is_disabled": 0, "type": "electric_bike", "is_reserved": 0, "name": "a3524f7c23530d738a47238c92b356f5", "lon": -76.9842045, "bike_id": "a3524f7c23530d738a47238c92b356f5", "lat": 38.91000583333334}, {"fusion_lon": 0.0, "fusion_lat": 0.0, "rental_uris": {"android": "https://dc.lft.to/lastmile_qr_scan", "ios": "https://dc.lft.to/lastmile_qr_scan"}, "is_disabled": 0, "type": "electric_scooter", "is_reserved": 0, "name": "55e1aa607fcb22f71a7076caa9e553f9", "lon": -77.04418416666667, "bike_id": "55e1aa607fcb22f71a7076caa9e553f9", "lat": 38.908922833333335}, {"fusion_lon": 0.0, "fusion_lat": 0.0, "rental_uris": {"android": "https://dc.lft.to/lastmile_qr_scan", "ios": "https://dc.lft.to/lastmile_qr_scan"}, "is_disabled": 0, "type": "electric_scooter", "is_reserved": 0, "name": "87acbc2ea309c3a0f1c72c8c0d3533b4", "lon": -77.01953866666666, "bike_id": "87acbc2ea309c3a0f1c72c8c0d3533b4", "lat": 38.92322933333333}, {"fusion_lon": 0.0, "fusion_lat": 0.0, "rental_uris": {"android": "https://dc.lft.to/lastmile_qr_scan", "ios": "https://dc.lft.to/lastmile_qr_scan"}, "is_disabled": 0, "type": "electric_scooter", "is_reserved": 0, "name": "7290e2af7e5e26606a5d46fd7cb29149", "lon": -77.04895383333333, "bike_id": "7290e2af7e5e26606a5d46fd7cb29149", "lat": 38.8900175}, {"fusion_lon": 0.0, "fusion_lat": 0.0, "rental_uris": {"android": "https://dc.lft.to/lastmile_qr_scan", "ios": "https://dc.lft.to/lastmile_qr_scan"}, "is_disabled": 0, "type": "electric_bike", "is_reserved": 0, "name": "a2322ec6f790aad00c7848b141bbe4e7", "lon": -77.233941, "bike_id": "a2322ec6f790aad00c7848b141bbe4e7", "lat": 38.871678833333334}, {"fusion_lon": 0.0, "fusion_lat": 0.0, "rental_uris": {"android": "https://dc.lft.to/lastmile_qr_scan", "ios": "https://dc.lft.to/lastmile_qr_scan"}, "is_disabled": 0, "type": "electric_scooter", "is_reserved": 0, "name": "2a8cc9f51e4ad035aa9af36ac538e927", "lon": -77.0152155, "bike_id": "2a8cc9f51e4ad035aa9af36ac538e927", "lat": 38.872825166666665}, {"fusion_lon": 0.0, "fusion_lat": 0.0, "rental_uris": {"android": "https://dc.lft.to/lastmile_qr_scan", "ios": "https://dc.lft.to/lastmile_qr_scan"}, "is_disabled": 0, "type": "electric_bike", "is_reserved": 0, "name": "80c09a3f2891ad82a71a89f3755c4c71", "lon": -77.09405283333334, "bike_id": "80c09a3f2891ad82a71a89f3755c4c71", "lat": 38.9781525}, {"fusion_lon": 0.0, "fusion_lat": 0.0, "rental_uris": {"android": "https://dc.lft.to/lastmile_qr_scan", "ios": "https://dc.lft.to/lastmile_qr_scan"}, "is_disabled": 0, "type": "electric_scooter", "is_reserved": 0, "name": "9997d4f4112e87b7ba7353dfdb1ad95d", "lon": -77.03282866666666, "bike_id": "9997d4f4112e87b7ba7353dfdb1ad95d", "lat": 38.9373225}, {"fusion_lon": 0.0, "fusion_lat": 0.0, "rental_uris": {"android": "https://dc.lft.to/lastmile_qr_scan", "ios": "https://dc.lft.to/lastmile_qr_scan"}, "is_disabled": 0, "type": "electric_scooter", "is_reserved": 0, "name": "0d74b9181afd72f0081d72c9da109665", "lon": -77.03855383333334, "bike_id": "0d74b9181afd72f0081d72c9da109665", "lat": 38.90365666666667}, {"fusion_lon": 0.0, "fusion_lat": 0.0, "rental_uris": {"android": "https://dc.lft.to/lastmile_qr_scan", "ios": "https://dc.lft.to/lastmile_qr_scan"}, "is_disabled": 0, "type": "electric_scooter", "is_reserved": 0, "name": "f19e8c8648ef62162eaf1595b0642c65", "lon": -77.02342833333333, "bike_id": "f19e8c8648ef62162eaf1595b0642c65", "lat": 38.9449185}, {"fusion_lon": 0.0, "fusion_lat": 0.0, "rental_uris": {"android": "https://dc.lft.to/lastmile_qr_scan", "ios": "https://dc.lft.to/lastmile_qr_scan"}, "is_disabled": 0, "type": "electric_bike", "is_reserved": 0, "name": "d50965a1d198849c71ebeeab7ec1d1eb", "lon": -77.09689416666667, "bike_id": "d50965a1d198849c71ebeeab7ec1d1eb", "lat": 38.8074115}, {"fusion_lon": 0.0, "fusion_lat": 0.0, "rental_uris": {"android": "https://dc.lft.to/lastmile_qr_scan", "ios": "https://dc.lft.to/lastmile_qr_scan"}, "is_disabled": 0, "type": "electric_scooter", "is_reserved": 0, "name": "678326a169a63b17916371b157cbd558", "lon": -77.03188983333334, "bike_id": "678326a169a63b17916371b157cbd558", "lat": 38.9360285}, {"fusion_lon": 0.0, "fusion_lat": 0.0, "rental_uris": {"android": "https://dc.lft.to/lastmile_qr_scan", "ios": "https://dc.lft.to/lastmile_qr_scan"}, "is_disabled": 0, "type": "electric_scooter", "is_reserved": 0, "name": "3b78e257949cc6bbc0fcc5a891e65c81", "lon": -77.02591483333333, "bike_id": "3b78e257949cc6bbc0fcc5a891e65c81", "lat": 38.919472999999996}, {"fusion_lon": 0.0, "fusion_lat": 0.0, "rental_uris": {"android": "https://dc.lft.to/lastmile_qr_scan", "ios": "https://dc.lft.to/lastmile_qr_scan"}, "is_disabled": 0, "type": "electric_scooter", "is_reserved": 0, "name": "5f63dfe3361d29b499c575d4594be336", "lon": -77.02179966666667, "bike_id": "5f63dfe3361d29b499c575d4594be336", "lat": 38.905818333333336}, {"fusion_lon": 0.0, "fusion_lat": 0.0, "rental_uris": {"android": "https://dc.lft.to/lastmile_qr_scan", "ios": "https://dc.lft.to/lastmile_qr_scan"}, "is_disabled": 0, "type": "electric_scooter", "is_reserved": 0, "name": "c377b8fbb95b3c30f179ea4703f5c388", "lon": -77.01209466666667, "bike_id": "c377b8fbb95b3c30f179ea4703f5c388", "lat": 38.897597}, {"fusion_lon": 0.0, "fusion_lat": 0.0, "rental_uris": {"android": "https://dc.lft.to/lastmile_qr_scan", "ios": "https://dc.lft.to/lastmile_qr_scan"}, "is_disabled": 0, "type": "electric_scooter", "is_reserved": 0, "name": "38bfb844e0598acae7ff9a35e26f025f", "lon": -77.022678, "bike_id": "38bfb844e0598acae7ff9a35e26f025f", "lat": 38.89469316666667}, {"fusion_lon": 0.0, "fusion_lat": 0.0, "rental_uris": {"android": "https://dc.lft.to/lastmile_qr_scan", "ios": "https://dc.lft.to/lastmile_qr_scan"}, "is_disabled": 0, "type": "electric_scooter", "is_reserved": 0, "name": "369f27378622e6c2bb925d3f537253f6", "lon": -76.99792116666667, "bike_id": "369f27378622e6c2bb925d3f537253f6", "lat": 38.9056435}, {"fusion_lon": 0.0, "fusion_lat": 0.0, "rental_uris": {"android": "https://dc.lft.to/lastmile_qr_scan", "ios": "https://dc.lft.to/lastmile_qr_scan"}, "is_disabled": 0, "type": "electric_scooter", "is_reserved": 0, "name": "90ea374c7c550c1b1aee00703b7667be", "lon": -77.03770866666666, "bike_id": "90ea374c7c550c1b1aee00703b7667be", "lat": 38.916869166666665}, {"fusion_lon": 0.0, "fusion_lat": 0.0, "rental_uris": {"android": "https://dc.lft.to/lastmile_qr_scan", "ios": "https://dc.lft.to/lastmile_qr_scan"}, "is_disabled": 0, "type": "electric_scooter", "is_reserved": 0, "name": "5751d2b43e537c82d5f6be753d93cf61", "lon": -77.02847283333334, "bike_id": "5751d2b43e537c82d5f6be753d93cf61", "lat": 38.9325005}, {"fusion_lon": 0.0, "fusion_lat": 0.0, "rental_uris": {"android": "https://dc.lft.to/lastmile_qr_scan", "ios": "https://dc.lft.to/lastmile_qr_scan"}, "is_disabled": 0, "type": "electric_scooter", "is_reserved": 0, "name": "57b788d23a577ab69779e65cc95bc346", "lon": -77.02365733333333, "bike_id": "57b788d23a577ab69779e65cc95bc346", "lat": 38.89945516666667}, {"fusion_lon": 0.0, "fusion_lat": 0.0, "rental_uris": {"android": "https://dc.lft.to/lastmile_qr_scan", "ios": "https://dc.lft.to/lastmile_qr_scan"}, "is_disabled": 0, "type": "electric_scooter", "is_reserved": 0, "name": "eb90aac35c4055e8309823dde9eaae86", "lon": -77.05715783333333, "bike_id": "eb90aac35c4055e8309823dde9eaae86", "lat": 38.92605483333333}, {"fusion_lon": 0.0, "fusion_lat": 0.0, "rental_uris": {"android": "https://dc.lft.to/lastmile_qr_scan", "ios": "https://dc.lft.to/lastmile_qr_scan"}, "is_disabled": 0, "type": "electric_scooter", "is_reserved": 0, "name": "4c493c7f82052bd99339fb05df9bb69d", "lon": -77.02404566666667, "bike_id": "4c493c7f82052bd99339fb05df9bb69d", "lat": 38.906727833333335}, {"fusion_lon": 0.0, "fusion_lat": 0.0, "rental_uris": {"android": "https://dc.lft.to/lastmile_qr_scan", "ios": "https://dc.lft.to/lastmile_qr_scan"}, "is_disabled": 0, "type": "electric_scooter", "is_reserved": 0, "name": "cd9b1ad66028ab9ac02c33d7a5dd5fde", "lon": -77.04604416666666, "bike_id": "cd9b1ad66028ab9ac02c33d7a5dd5fde", "lat": 38.916912833333335}, {"fusion_lon": 0.0, "fusion_lat": 0.0, "rental_uris": {"android": "https://dc.lft.to/lastmile_qr_scan", "ios": "https://dc.lft.to/lastmile_qr_scan"}, "is_disabled": 0, "type": "electric_scooter", "is_reserved": 0, "name": "1fa1233a95e5d8cdfa7c01988ab1bba8", "lon": -77.0187025, "bike_id": "1fa1233a95e5d8cdfa7c01988ab1bba8", "lat": 38.951455}, {"fusion_lon": 0.0, "fusion_lat": 0.0, "rental_uris": {"android": "https://dc.lft.to/lastmile_qr_scan", "ios": "https://dc.lft.to/lastmile_qr_scan"}, "is_disabled": 0, "type": "electric_scooter", "is_reserved": 0, "name": "2f5921a4f811496730825c35a0cb165d", "lon": -77.03266583333334, "bike_id": "2f5921a4f811496730825c35a0cb165d", "lat": 38.9156405}, {"fusion_lon": 0.0, "fusion_lat": 0.0, "rental_uris": {"android": "https://dc.lft.to/lastmile_qr_scan", "ios": "https://dc.lft.to/lastmile_qr_scan"}, "is_disabled": 0, "type": "electric_scooter", "is_reserved": 0, "name": "f20564291bc317be7ed4651905678a52", "lon": -76.9974885, "bike_id": "f20564291bc317be7ed4651905678a52", "lat": 38.923961166666665}, {"fusion_lon": 0.0, "fusion_lat": 0.0, "rental_uris": {"android": "https://dc.lft.to/lastmile_qr_scan", "ios": "https://dc.lft.to/lastmile_qr_scan"}, "is_disabled": 0, "type": "electric_scooter", "is_reserved": 0, "name": "854b608150dfa01a1a86e14687cd6207", "lon": -77.05755966666666, "bike_id": "854b608150dfa01a1a86e14687cd6207", "lat": 38.92477916666667}, {"fusion_lon": 0.0, "fusion_lat": 0.0, "rental_uris": {"android": "https://dc.lft.to/lastmile_qr_scan", "ios": "https://dc.lft.to/lastmile_qr_scan"}, "is_disabled": 0, "type": "electric_scooter", "is_reserved": 0, "name": "6157d2ed69eaef7dd2894673b3cfdaef", "lon": -77.041844, "bike_id": "6157d2ed69eaef7dd2894673b3cfdaef", "lat": 38.920553}, {"fusion_lon": 0.0, "fusion_lat": 0.0, "rental_uris": {"android": "https://dc.lft.to/lastmile_qr_scan", "ios": "https://dc.lft.to/lastmile_qr_scan"}, "is_disabled": 0, "type": "electric_bike", "is_reserved": 0, "name": "ea8d863f84701e4aec0810fcf1ae7992", "lon": -76.951384, "bike_id": "ea8d863f84701e4aec0810fcf1ae7992", "lat": 39.08430966666667}, {"fusion_lon": 0.0, "fusion_lat": 0.0, "rental_uris": {"android": "https://dc.lft.to/lastmile_qr_scan", "ios": "https://dc.lft.to/lastmile_qr_scan"}, "is_disabled": 0, "type": "electric_scooter", "is_reserved": 0, "name": "2b0d27340adbacf2ab3156d95c127419", "lon": -77.04299933333333, "bike_id": "2b0d27340adbacf2ab3156d95c127419", "lat": 38.92262}, {"fusion_lon": 0.0, "fusion_lat": 0.0, "rental_uris": {"android": "https://dc.lft.to/lastmile_qr_scan", "ios": "https://dc.lft.to/lastmile_qr_scan"}, "is_disabled": 0, "type": "electric_scooter", "is_reserved": 0, "name": "78a5e745d0fd13c80ef24be56ac2bbdd", "lon": -77.06369283333333, "bike_id": "78a5e745d0fd13c80ef24be56ac2bbdd", "lat": 38.908058}, {"fusion_lon": 0.0, "fusion_lat": 0.0, "rental_uris": {"android": "https://dc.lft.to/lastmile_qr_scan", "ios": "https://dc.lft.to/lastmile_qr_scan"}, "is_disabled": 0, "type": "electric_scooter", "is_reserved": 0, "name": "1ef88e8c3a122f4030c721a532c20e57", "lon": -76.93598283333333, "bike_id": "1ef88e8c3a122f4030c721a532c20e57", "lat": 38.909451}, {"fusion_lon": 0.0, "fusion_lat": 0.0, "rental_uris": {"android": "https://dc.lft.to/lastmile_qr_scan", "ios": "https://dc.lft.to/lastmile_qr_scan"}, "is_disabled": 0, "type": "electric_scooter", "is_reserved": 0, "name": "875a29619501266d101d34d548d75197", "lon": -77.06973033333334, "bike_id": "875a29619501266d101d34d548d75197", "lat": 38.918327}, {"fusion_lon": 0.0, "fusion_lat": 0.0, "rental_uris": {"android": "https://dc.lft.to/lastmile_qr_scan", "ios": "https://dc.lft.to/lastmile_qr_scan"}, "is_disabled": 0, "type": "electric_scooter", "is_reserved": 0, "name": "1168a72de297e1101b71bf3ba7b982cb", "lon": -77.071493, "bike_id": "1168a72de297e1101b71bf3ba7b982cb", "lat": 38.907732333333335}, {"fusion_lon": 0.0, "fusion_lat": 0.0, "rental_uris": {"android": "https://dc.lft.to/lastmile_qr_scan", "ios": "https://dc.lft.to/lastmile_qr_scan"}, "is_disabled": 0, "type": "electric_scooter", "is_reserved": 0, "name": "4addacf5b7006a8f445dcaab724cc080", "lon": -77.0407975, "bike_id": "4addacf5b7006a8f445dcaab724cc080", "lat": 38.9050455}, {"fusion_lon": 0.0, "fusion_lat": 0.0, "rental_uris": {"android": "https://dc.lft.to/lastmile_qr_scan", "ios": "https://dc.lft.to/lastmile_qr_scan"}, "is_disabled": 0, "type": "electric_scooter", "is_reserved": 0, "name": "83d7154cb7833edc185bf683f32b5743", "lon": -77.02159733333333, "bike_id": "83d7154cb7833edc185bf683f32b5743", "lat": 38.91993516666667}, {"fusion_lon": 0.0, "fusion_lat": 0.0, "rental_uris": {"android": "https://dc.lft.to/lastmile_qr_scan", "ios": "https://dc.lft.to/lastmile_qr_scan"}, "is_disabled": 0, "type": "electric_scooter", "is_reserved": 0, "name": "61571f83fb0dc7cbb8894c797cddfee2", "lon": -77.02495316666666, "bike_id": "61571f83fb0dc7cbb8894c797cddfee2", "lat": 38.91787166666667}, {"fusion_lon": 0.0, "fusion_lat": 0.0, "rental_uris": {"android": "https://dc.lft.to/lastmile_qr_scan", "ios": "https://dc.lft.to/lastmile_qr_scan"}, "is_disabled": 0, "type": "electric_scooter", "is_reserved": 0, "name": "7731715c6de95fa2412fc578c6d75812", "lon": -77.04608916666666, "bike_id": "7731715c6de95fa2412fc578c6d75812", "lat": 38.9152795}, {"fusion_lon": 0.0, "fusion_lat": 0.0, "rental_uris": {"android": "https://dc.lft.to/lastmile_qr_scan", "ios": "https://dc.lft.to/lastmile_qr_scan"}, "is_disabled": 0, "type": "electric_scooter", "is_reserved": 0, "name": "901a96d2cdae12bc5c51b0d4abb8ae73", "lon": -77.02669666666667, "bike_id": "901a96d2cdae12bc5c51b0d4abb8ae73", "lat": 38.899869}, {"fusion_lon": 0.0, "fusion_lat": 0.0, "rental_uris": {"android": "https://dc.lft.to/lastmile_qr_scan", "ios": "https://dc.lft.to/lastmile_qr_scan"}, "is_disabled": 0, "type": "electric_scooter", "is_reserved": 0, "name": "92542dd2f6d171bd2af991ca598473a8", "lon": -77.03986133333333, "bike_id": "92542dd2f6d171bd2af991ca598473a8", "lat": 38.906175166666664}, {"fusion_lon": 0.0, "fusion_lat": 0.0, "rental_uris": {"android": "https://dc.lft.to/lastmile_qr_scan", "ios": "https://dc.lft.to/lastmile_qr_scan"}, "is_disabled": 0, "type": "electric_scooter", "is_reserved": 0, "name": "c0a55a888c1f223dafad048357a66962", "lon": -77.004337, "bike_id": "c0a55a888c1f223dafad048357a66962", "lat": 38.90400833333333}, {"fusion_lon": 0.0, "fusion_lat": 0.0, "rental_uris": {"android": "https://dc.lft.to/lastmile_qr_scan", "ios": "https://dc.lft.to/lastmile_qr_scan"}, "is_disabled": 0, "type": "electric_scooter", "is_reserved": 0, "name": "3630cafa5ac14700bfc9bdeefb410911", "lon": -77.04158116666666, "bike_id": "3630cafa5ac14700bfc9bdeefb410911", "lat": 38.917487666666666}, {"fusion_lon": 0.0, "fusion_lat": 0.0, "rental_uris": {"android": "https://dc.lft.to/lastmile_qr_scan", "ios": "https://dc.lft.to/lastmile_qr_scan"}, "is_disabled": 0, "type": "electric_scooter", "is_reserved": 0, "name": "ff761bc5e8ee0e48c2469dd909bc736c", "lon": -76.98488333333333, "bike_id": "ff761bc5e8ee0e48c2469dd909bc736c", "lat": 38.880305166666666}, {"fusion_lon": 0.0, "fusion_lat": 0.0, "rental_uris": {"android": "https://dc.lft.to/lastmile_qr_scan", "ios": "https://dc.lft.to/lastmile_qr_scan"}, "is_disabled": 0, "type": "electric_scooter", "is_reserved": 0, "name": "fae384754c8e0c91849de91c19967a12", "lon": -77.022368, "bike_id": "fae384754c8e0c91849de91c19967a12", "lat": 38.92458466666667}, {"fusion_lon": 0.0, "fusion_lat": 0.0, "rental_uris": {"android": "https://dc.lft.to/lastmile_qr_scan", "ios": "https://dc.lft.to/lastmile_qr_scan"}, "is_disabled": 0, "type": "electric_scooter", "is_reserved": 0, "name": "279c6ef5baa00c22a97603cc42de9a53", "lon": -77.02358683333334, "bike_id": "279c6ef5baa00c22a97603cc42de9a53", "lat": 38.935248666666666}, {"fusion_lon": 0.0, "fusion_lat": 0.0, "rental_uris": {"android": "https://dc.lft.to/lastmile_qr_scan", "ios": "https://dc.lft.to/lastmile_qr_scan"}, "is_disabled": 0, "type": "electric_scooter", "is_reserved": 0, "name": "3818fd189cf10c80ca37e0738756aa50", "lon": -77.00692866666667, "bike_id": "3818fd189cf10c80ca37e0738756aa50", "lat": 38.8764595}, {"fusion_lon": 0.0, "fusion_lat": 0.0, "rental_uris": {"android": "https://dc.lft.to/lastmile_qr_scan", "ios": "https://dc.lft.to/lastmile_qr_scan"}, "is_disabled": 0, "type": "electric_scooter", "is_reserved": 0, "name": "66a0d612f3227334536e0f2917bc90d9", "lon": -77.0060795, "bike_id": "66a0d612f3227334536e0f2917bc90d9", "lat": 38.90378616666667}, {"fusion_lon": 0.0, "fusion_lat": 0.0, "rental_uris": {"android": "https://dc.lft.to/lastmile_qr_scan", "ios": "https://dc.lft.to/lastmile_qr_scan"}, "is_disabled": 0, "type": "electric_scooter", "is_reserved": 0, "name": "d913ebed8eab215e0b6b0ac32425eac3", "lon": -77.02510033333333, "bike_id": "d913ebed8eab215e0b6b0ac32425eac3", "lat": 38.92089466666667}, {"fusion_lon": 0.0, "fusion_lat": 0.0, "rental_uris": {"android": "https://dc.lft.to/lastmile_qr_scan", "ios": "https://dc.lft.to/lastmile_qr_scan"}, "is_disabled": 0, "type": "electric_bike", "is_reserved": 0, "name": "c6331f64559239988ef87bb78d404cb8", "lon": -77.11408316666666, "bike_id": "c6331f64559239988ef87bb78d404cb8", "lat": 38.8523895}, {"fusion_lon": 0.0, "fusion_lat": 0.0, "rental_uris": {"android": "https://dc.lft.to/lastmile_qr_scan", "ios": "https://dc.lft.to/lastmile_qr_scan"}, "is_disabled": 0, "type": "electric_scooter", "is_reserved": 0, "name": "79fd9f5ac885216874131532ce4b2e16", "lon": -76.934723, "bike_id": "79fd9f5ac885216874131532ce4b2e16", "lat": 38.908395666666664}, {"fusion_lon": 0.0, "fusion_lat": 0.0, "rental_uris": {"android": "https://dc.lft.to/lastmile_qr_scan", "ios": "https://dc.lft.to/lastmile_qr_scan"}, "is_disabled": 0, "type": "electric_scooter", "is_reserved": 0, "name": "dc2ce46aae84e71a90c91bcfef84095b", "lon": -77.018233, "bike_id": "dc2ce46aae84e71a90c91bcfef84095b", "lat": 38.922108}, {"fusion_lon": 0.0, "fusion_lat": 0.0, "rental_uris": {"android": "https://dc.lft.to/lastmile_qr_scan", "ios": "https://dc.lft.to/lastmile_qr_scan"}, "is_disabled": 0, "type": "electric_scooter", "is_reserved": 0, "name": "9ffd3a967a8954271ef401f1c0f56fec", "lon": -77.03827166666666, "bike_id": "9ffd3a967a8954271ef401f1c0f56fec", "lat": 38.9110705}, {"fusion_lon": 0.0, "fusion_lat": 0.0, "rental_uris": {"android": "https://dc.lft.to/lastmile_qr_scan", "ios": "https://dc.lft.to/lastmile_qr_scan"}, "is_disabled": 0, "type": "electric_bike", "is_reserved": 0, "name": "b24e96cc601262cee16829c6423ac217", "lon": -76.90024, "bike_id": "b24e96cc601262cee16829c6423ac217", "lat": 39.006449333333336}, {"fusion_lon": 0.0, "fusion_lat": 0.0, "rental_uris": {"android": "https://dc.lft.to/lastmile_qr_scan", "ios": "https://dc.lft.to/lastmile_qr_scan"}, "is_disabled": 0, "type": "electric_scooter", "is_reserved": 0, "name": "bac9b687acf9892e5f57eb502de2e6c1", "lon": -77.04658983333333, "bike_id": "bac9b687acf9892e5f57eb502de2e6c1", "lat": 38.89875166666667}, {"fusion_lon": 0.0, "fusion_lat": 0.0, "rental_uris": {"android": "https://dc.lft.to/lastmile_qr_scan", "ios": "https://dc.lft.to/lastmile_qr_scan"}, "is_disabled": 0, "type": "electric_scooter", "is_reserved": 0, "name": "8231a892e310688be0fe3bf58d6db46b", "lon": -77.04479183333333, "bike_id": "8231a892e310688be0fe3bf58d6db46b", "lat": 38.894198}, {"fusion_lon": 0.0, "fusion_lat": 0.0, "rental_uris": {"android": "https://dc.lft.to/lastmile_qr_scan", "ios": "https://dc.lft.to/lastmile_qr_scan"}, "is_disabled": 0, "type": "electric_scooter", "is_reserved": 0, "name": "ffccc108363898c5bc09eae5dca6fc3b", "lon": -77.02847983333334, "bike_id": "ffccc108363898c5bc09eae5dca6fc3b", "lat": 38.941918}, {"fusion_lon": 0.0, "fusion_lat": 0.0, "rental_uris": {"android": "https://dc.lft.to/lastmile_qr_scan", "ios": "https://dc.lft.to/lastmile_qr_scan"}, "is_disabled": 0, "type": "electric_scooter", "is_reserved": 0, "name": "22ad0418238123895378e4e5e66e60ca", "lon": -76.99387883333333, "bike_id": "22ad0418238123895378e4e5e66e60ca", "lat": 38.9001235}, {"fusion_lon": 0.0, "fusion_lat": 0.0, "rental_uris": {"android": "https://dc.lft.to/lastmile_qr_scan", "ios": "https://dc.lft.to/lastmile_qr_scan"}, "is_disabled": 0, "type": "electric_scooter", "is_reserved": 0, "name": "ea346065d0f22d253834ef5adbd2fb76", "lon": -77.00291716666666, "bike_id": "ea346065d0f22d253834ef5adbd2fb76", "lat": 38.89200866666667}, {"fusion_lon": 0.0, "fusion_lat": 0.0, "rental_uris": {"android": "https://dc.lft.to/lastmile_qr_scan", "ios": "https://dc.lft.to/lastmile_qr_scan"}, "is_disabled": 0, "type": "electric_scooter", "is_reserved": 0, "name": "e516e0b2a0b327feb50f5757c9393c2a", "lon": -77.03947516666666, "bike_id": "e516e0b2a0b327feb50f5757c9393c2a", "lat": 38.89914533333334}, {"fusion_lon": 0.0, "fusion_lat": 0.0, "rental_uris": {"android": "https://dc.lft.to/lastmile_qr_scan", "ios": "https://dc.lft.to/lastmile_qr_scan"}, "is_disabled": 0, "type": "electric_scooter", "is_reserved": 0, "name": "7a2b73c376f45c7a45d35555eb3cbb70", "lon": -77.03298716666667, "bike_id": "7a2b73c376f45c7a45d35555eb3cbb70", "lat": 38.927424333333335}, {"fusion_lon": 0.0, "fusion_lat": 0.0, "rental_uris": {"android": "https://dc.lft.to/lastmile_qr_scan", "ios": "https://dc.lft.to/lastmile_qr_scan"}, "is_disabled": 0, "type": "electric_scooter", "is_reserved": 0, "name": "a08607b02252a3c77c314dad309d5ae5", "lon": -77.0547665, "bike_id": "a08607b02252a3c77c314dad309d5ae5", "lat": 38.897308}, {"fusion_lon": 0.0, "fusion_lat": 0.0, "rental_uris": {"android": "https://dc.lft.to/lastmile_qr_scan", "ios": "https://dc.lft.to/lastmile_qr_scan"}, "is_disabled": 0, "type": "electric_scooter", "is_reserved": 0, "name": "9935d3183886da410686ed77296a3035", "lon": -77.03157033333333, "bike_id": "9935d3183886da410686ed77296a3035", "lat": 38.92791883333334}, {"fusion_lon": 0.0, "fusion_lat": 0.0, "rental_uris": {"android": "https://dc.lft.to/lastmile_qr_scan", "ios": "https://dc.lft.to/lastmile_qr_scan"}, "is_disabled": 0, "type": "electric_scooter", "is_reserved": 0, "name": "fc09f0e6969e2e2d0ca52397e1bad2bc", "lon": -77.0248755, "bike_id": "fc09f0e6969e2e2d0ca52397e1bad2bc", "lat": 38.880211833333334}, {"fusion_lon": 0.0, "fusion_lat": 0.0, "rental_uris": {"android": "https://dc.lft.to/lastmile_qr_scan", "ios": "https://dc.lft.to/lastmile_qr_scan"}, "is_disabled": 0, "type": "electric_scooter", "is_reserved": 0, "name": "1db408aeb2a1baec3d07dd73251b97dc", "lon": -77.038505, "bike_id": "1db408aeb2a1baec3d07dd73251b97dc", "lat": 38.903635666666666}, {"fusion_lon": 0.0, "fusion_lat": 0.0, "rental_uris": {"android": "https://dc.lft.to/lastmile_qr_scan", "ios": "https://dc.lft.to/lastmile_qr_scan"}, "is_disabled": 0, "type": "electric_scooter", "is_reserved": 0, "name": "0206062bc63b9c97ea3e8bfe116439c2", "lon": -77.03196433333333, "bike_id": "0206062bc63b9c97ea3e8bfe116439c2", "lat": 38.907804166666665}, {"fusion_lon": 0.0, "fusion_lat": 0.0, "rental_uris": {"android": "https://dc.lft.to/lastmile_qr_scan", "ios": "https://dc.lft.to/lastmile_qr_scan"}, "is_disabled": 0, "type": "electric_scooter", "is_reserved": 0, "name": "6e6567a409e77334836387e336e7c987", "lon": -77.01722283333334, "bike_id": "6e6567a409e77334836387e336e7c987", "lat": 38.907314}, {"fusion_lon": 0.0, "fusion_lat": 0.0, "rental_uris": {"android": "https://dc.lft.to/lastmile_qr_scan", "ios": "https://dc.lft.to/lastmile_qr_scan"}, "is_disabled": 0, "type": "electric_scooter", "is_reserved": 0, "name": "b43ac379a667eebc1cecf3a9fd9833c5", "lon": -76.999633, "bike_id": "b43ac379a667eebc1cecf3a9fd9833c5", "lat": 38.90670883333333}, {"fusion_lon": 0.0, "fusion_lat": 0.0, "rental_uris": {"android": "https://dc.lft.to/lastmile_qr_scan", "ios": "https://dc.lft.to/lastmile_qr_scan"}, "is_disabled": 0, "type": "electric_scooter", "is_reserved": 0, "name": "29b0f519cf9a261c75abf5c0eb05d88e", "lon": -77.01796766666666, "bike_id": "29b0f519cf9a261c75abf5c0eb05d88e", "lat": 38.88587233333333}, {"fusion_lon": 0.0, "fusion_lat": 0.0, "rental_uris": {"android": "https://dc.lft.to/lastmile_qr_scan", "ios": "https://dc.lft.to/lastmile_qr_scan"}, "is_disabled": 0, "type": "electric_scooter", "is_reserved": 0, "name": "841667f97e2edf85fbcff46e351d3c0b", "lon": -76.99595366666667, "bike_id": "841667f97e2edf85fbcff46e351d3c0b", "lat": 38.884269833333335}, {"fusion_lon": 0.0, "fusion_lat": 0.0, "rental_uris": {"android": "https://dc.lft.to/lastmile_qr_scan", "ios": "https://dc.lft.to/lastmile_qr_scan"}, "is_disabled": 0, "type": "electric_scooter", "is_reserved": 0, "name": "6f59061a96b6fe8e35dccc2abd013e4d", "lon": -77.04184, "bike_id": "6f59061a96b6fe8e35dccc2abd013e4d", "lat": 38.89969516666667}, {"fusion_lon": 0.0, "fusion_lat": 0.0, "rental_uris": {"android": "https://dc.lft.to/lastmile_qr_scan", "ios": "https://dc.lft.to/lastmile_qr_scan"}, "is_disabled": 0, "type": "electric_scooter", "is_reserved": 0, "name": "15b0adec4ff9b02ef543d1e9a0399333", "lon": -76.97729116666666, "bike_id": "15b0adec4ff9b02ef543d1e9a0399333", "lat": 38.89445533333333}, {"fusion_lon": 0.0, "fusion_lat": 0.0, "rental_uris": {"android": "https://dc.lft.to/lastmile_qr_scan", "ios": "https://dc.lft.to/lastmile_qr_scan"}, "is_disabled": 0, "type": "electric_scooter", "is_reserved": 0, "name": "86fc465b4fb3d4b538d6bdceb6aecc28", "lon": -77.04624583333333, "bike_id": "86fc465b4fb3d4b538d6bdceb6aecc28", "lat": 38.916334}, {"fusion_lon": 0.0, "fusion_lat": 0.0, "rental_uris": {"android": "https://dc.lft.to/lastmile_qr_scan", "ios": "https://dc.lft.to/lastmile_qr_scan"}, "is_disabled": 0, "type": "electric_scooter", "is_reserved": 0, "name": "e2e998f4524421e0a9eb6e0d0136a676", "lon": -77.04124233333333, "bike_id": "e2e998f4524421e0a9eb6e0d0136a676", "lat": 38.921162333333335}, {"fusion_lon": 0.0, "fusion_lat": 0.0, "rental_uris": {"android": "https://dc.lft.to/lastmile_qr_scan", "ios": "https://dc.lft.to/lastmile_qr_scan"}, "is_disabled": 0, "type": "electric_scooter", "is_reserved": 0, "name": "04f28e6ef44d9626806f174c162812a8", "lon": -77.01421316666666, "bike_id": "04f28e6ef44d9626806f174c162812a8", "lat": 38.918185}, {"fusion_lon": 0.0, "fusion_lat": 0.0, "rental_uris": {"android": "https://dc.lft.to/lastmile_qr_scan", "ios": "https://dc.lft.to/lastmile_qr_scan"}, "is_disabled": 0, "type": "electric_scooter", "is_reserved": 0, "name": "189380e81faa565343521f170e9d5355", "lon": -77.0227785, "bike_id": "189380e81faa565343521f170e9d5355", "lat": 38.92658766666667}, {"fusion_lon": 0.0, "fusion_lat": 0.0, "rental_uris": {"android": "https://dc.lft.to/lastmile_qr_scan", "ios": "https://dc.lft.to/lastmile_qr_scan"}, "is_disabled": 0, "type": "electric_scooter", "is_reserved": 0, "name": "9221cbb368f083472d3546de170af478", "lon": -77.02815133333333, "bike_id": "9221cbb368f083472d3546de170af478", "lat": 38.91617166666666}, {"fusion_lon": 0.0, "fusion_lat": 0.0, "rental_uris": {"android": "https://dc.lft.to/lastmile_qr_scan", "ios": "https://dc.lft.to/lastmile_qr_scan"}, "is_disabled": 0, "type": "electric_scooter", "is_reserved": 0, "name": "a554c7807078b9db5da0318786e3cbd2", "lon": -77.02644033333333, "bike_id": "a554c7807078b9db5da0318786e3cbd2", "lat": 38.90412533333333}, {"fusion_lon": 0.0, "fusion_lat": 0.0, "rental_uris": {"android": "https://dc.lft.to/lastmile_qr_scan", "ios": "https://dc.lft.to/lastmile_qr_scan"}, "is_disabled": 0, "type": "electric_scooter", "is_reserved": 0, "name": "3a0ebe94f1ebf127811f1e2245af5749", "lon": -77.03846033333333, "bike_id": "3a0ebe94f1ebf127811f1e2245af5749", "lat": 38.926403666666666}, {"fusion_lon": 0.0, "fusion_lat": 0.0, "rental_uris": {"android": "https://dc.lft.to/lastmile_qr_scan", "ios": "https://dc.lft.to/lastmile_qr_scan"}, "is_disabled": 0, "type": "electric_bike", "is_reserved": 0, "name": "a79f98db6e7004544596db73cf0d51fc", "lon": -76.991321, "bike_id": "a79f98db6e7004544596db73cf0d51fc", "lat": 38.93959483333333}, {"fusion_lon": 0.0, "fusion_lat": 0.0, "rental_uris": {"android": "https://dc.lft.to/lastmile_qr_scan", "ios": "https://dc.lft.to/lastmile_qr_scan"}, "is_disabled": 0, "type": "electric_scooter", "is_reserved": 0, "name": "cb548f8c4e8ddcbb549c04e956c14db0", "lon": -77.02204666666667, "bike_id": "cb548f8c4e8ddcbb549c04e956c14db0", "lat": 38.9118115}, {"fusion_lon": 0.0, "fusion_lat": 0.0, "rental_uris": {"android": "https://dc.lft.to/lastmile_qr_scan", "ios": "https://dc.lft.to/lastmile_qr_scan"}, "is_disabled": 0, "type": "electric_scooter", "is_reserved": 0, "name": "11dba877d6cd5ec47d2ced35169240c4", "lon": -77.021368, "bike_id": "11dba877d6cd5ec47d2ced35169240c4", "lat": 38.924058}, {"fusion_lon": 0.0, "fusion_lat": 0.0, "rental_uris": {"android": "https://dc.lft.to/lastmile_qr_scan", "ios": "https://dc.lft.to/lastmile_qr_scan"}, "is_disabled": 0, "type": "electric_scooter", "is_reserved": 0, "name": "b3b0fc256b1d08210fc87fd8d87ded1f", "lon": -77.005183, "bike_id": "b3b0fc256b1d08210fc87fd8d87ded1f", "lat": 38.905766666666665}, {"fusion_lon": 0.0, "fusion_lat": 0.0, "rental_uris": {"android": "https://dc.lft.to/lastmile_qr_scan", "ios": "https://dc.lft.to/lastmile_qr_scan"}, "is_disabled": 0, "type": "electric_bike", "is_reserved": 0, "name": "320f946cd1602225e66bb48cd4eb9068", "lon": -77.076695, "bike_id": "320f946cd1602225e66bb48cd4eb9068", "lat": 38.809733666666666}, {"fusion_lon": 0.0, "fusion_lat": 0.0, "rental_uris": {"android": "https://dc.lft.to/lastmile_qr_scan", "ios": "https://dc.lft.to/lastmile_qr_scan"}, "is_disabled": 0, "type": "electric_scooter", "is_reserved": 0, "name": "f1e7679a546a2ad38dcbeb18df0551a6", "lon": -77.0268325, "bike_id": "f1e7679a546a2ad38dcbeb18df0551a6", "lat": 38.89969216666667}, {"fusion_lon": 0.0, "fusion_lat": 0.0, "rental_uris": {"android": "https://dc.lft.to/lastmile_qr_scan", "ios": "https://dc.lft.to/lastmile_qr_scan"}, "is_disabled": 0, "type": "electric_scooter", "is_reserved": 0, "name": "e95de558f45fc4bed5fede08d0ad3ea7", "lon": -77.04784416666666, "bike_id": "e95de558f45fc4bed5fede08d0ad3ea7", "lat": 38.899047833333334}, {"fusion_lon": 0.0, "fusion_lat": 0.0, "rental_uris": {"android": "https://dc.lft.to/lastmile_qr_scan", "ios": "https://dc.lft.to/lastmile_qr_scan"}, "is_disabled": 0, "type": "electric_scooter", "is_reserved": 0, "name": "ec3576cea0fde1fc2006b80dad6da023", "lon": -77.02846033333333, "bike_id": "ec3576cea0fde1fc2006b80dad6da023", "lat": 38.8962255}, {"fusion_lon": 0.0, "fusion_lat": 0.0, "rental_uris": {"android": "https://dc.lft.to/lastmile_qr_scan", "ios": "https://dc.lft.to/lastmile_qr_scan"}, "is_disabled": 0, "type": "electric_scooter", "is_reserved": 0, "name": "c7e8d2b02b259f64024fa23a81ce3809", "lon": -77.00203583333334, "bike_id": "c7e8d2b02b259f64024fa23a81ce3809", "lat": 38.902386}, {"fusion_lon": 0.0, "fusion_lat": 0.0, "rental_uris": {"android": "https://dc.lft.to/lastmile_qr_scan", "ios": "https://dc.lft.to/lastmile_qr_scan"}, "is_disabled": 0, "type": "electric_scooter", "is_reserved": 0, "name": "ab855ce4465bf80bef21ab41143a372c", "lon": -77.01269366666666, "bike_id": "ab855ce4465bf80bef21ab41143a372c", "lat": 38.89823916666667}, {"fusion_lon": 0.0, "fusion_lat": 0.0, "rental_uris": {"android": "https://dc.lft.to/lastmile_qr_scan", "ios": "https://dc.lft.to/lastmile_qr_scan"}, "is_disabled": 0, "type": "electric_scooter", "is_reserved": 0, "name": "76a0a73a831a1ce400731d579249093c", "lon": -77.06023483333334, "bike_id": "76a0a73a831a1ce400731d579249093c", "lat": 38.90355133333333}, {"fusion_lon": 0.0, "fusion_lat": 0.0, "rental_uris": {"android": "https://dc.lft.to/lastmile_qr_scan", "ios": "https://dc.lft.to/lastmile_qr_scan"}, "is_disabled": 0, "type": "electric_scooter", "is_reserved": 0, "name": "893a81d1e689cbf210f824ff58c4dd8e", "lon": -77.04047866666667, "bike_id": "893a81d1e689cbf210f824ff58c4dd8e", "lat": 38.90878516666667}, {"fusion_lon": 0.0, "fusion_lat": 0.0, "rental_uris": {"android": "https://dc.lft.to/lastmile_qr_scan", "ios": "https://dc.lft.to/lastmile_qr_scan"}, "is_disabled": 0, "type": "electric_scooter", "is_reserved": 0, "name": "3103286c4d48419a49c95b9c59152ac8", "lon": -77.01615583333333, "bike_id": "3103286c4d48419a49c95b9c59152ac8", "lat": 38.900874}, {"fusion_lon": 0.0, "fusion_lat": 0.0, "rental_uris": {"android": "https://dc.lft.to/lastmile_qr_scan", "ios": "https://dc.lft.to/lastmile_qr_scan"}, "is_disabled": 0, "type": "electric_scooter", "is_reserved": 0, "name": "bae28a2c5f449c948715a929a4e4e8e0", "lon": -77.02938383333333, "bike_id": "bae28a2c5f449c948715a929a4e4e8e0", "lat": 38.94274383333333}, {"fusion_lon": 0.0, "fusion_lat": 0.0, "rental_uris": {"android": "https://dc.lft.to/lastmile_qr_scan", "ios": "https://dc.lft.to/lastmile_qr_scan"}, "is_disabled": 0, "type": "electric_scooter", "is_reserved": 0, "name": "fd0b108e772836c912b2051e529dd1cc", "lon": -77.02593316666666, "bike_id": "fd0b108e772836c912b2051e529dd1cc", "lat": 38.943475666666664}, {"fusion_lon": 0.0, "fusion_lat": 0.0, "rental_uris": {"android": "https://dc.lft.to/lastmile_qr_scan", "ios": "https://dc.lft.to/lastmile_qr_scan"}, "is_disabled": 0, "type": "electric_scooter", "is_reserved": 0, "name": "f0343e39bb1b3d52458bec747cf6f55d", "lon": -77.03476566666667, "bike_id": "f0343e39bb1b3d52458bec747cf6f55d", "lat": 38.90118566666666}, {"fusion_lon": 0.0, "fusion_lat": 0.0, "rental_uris": {"android": "https://dc.lft.to/lastmile_qr_scan", "ios": "https://dc.lft.to/lastmile_qr_scan"}, "is_disabled": 0, "type": "electric_scooter", "is_reserved": 0, "name": "e202f5ab8670507e4c4eeb9d7b7e519f", "lon": -76.99396016666667, "bike_id": "e202f5ab8670507e4c4eeb9d7b7e519f", "lat": 38.8763775}, {"fusion_lon": 0.0, "fusion_lat": 0.0, "rental_uris": {"android": "https://dc.lft.to/lastmile_qr_scan", "ios": "https://dc.lft.to/lastmile_qr_scan"}, "is_disabled": 0, "type": "electric_scooter", "is_reserved": 0, "name": "62e5e9f4344f339abb485a96a40732f0", "lon": -77.03353533333333, "bike_id": "62e5e9f4344f339abb485a96a40732f0", "lat": 38.909703666666665}, {"fusion_lon": 0.0, "fusion_lat": 0.0, "rental_uris": {"android": "https://dc.lft.to/lastmile_qr_scan", "ios": "https://dc.lft.to/lastmile_qr_scan"}, "is_disabled": 0, "type": "electric_scooter", "is_reserved": 0, "name": "66e9ffef9d8022868eb340de8b378a28", "lon": -77.02829733333333, "bike_id": "66e9ffef9d8022868eb340de8b378a28", "lat": 38.92228866666667}, {"fusion_lon": 0.0, "fusion_lat": 0.0, "rental_uris": {"android": "https://dc.lft.to/lastmile_qr_scan", "ios": "https://dc.lft.to/lastmile_qr_scan"}, "is_disabled": 0, "type": "electric_scooter", "is_reserved": 0, "name": "4da72030e29db3fb5c6d6b6ccf987426", "lon": -77.01229766666667, "bike_id": "4da72030e29db3fb5c6d6b6ccf987426", "lat": 38.900053166666666}, {"fusion_lon": 0.0, "fusion_lat": 0.0, "rental_uris": {"android": "https://dc.lft.to/lastmile_qr_scan", "ios": "https://dc.lft.to/lastmile_qr_scan"}, "is_disabled": 0, "type": "electric_scooter", "is_reserved": 0, "name": "09378f8c3b4d0f6a0fd30bfc7e3d13e6", "lon": -77.01915966666667, "bike_id": "09378f8c3b4d0f6a0fd30bfc7e3d13e6", "lat": 38.9217445}, {"fusion_lon": 0.0, "fusion_lat": 0.0, "rental_uris": {"android": "https://dc.lft.to/lastmile_qr_scan", "ios": "https://dc.lft.to/lastmile_qr_scan"}, "is_disabled": 0, "type": "electric_scooter", "is_reserved": 0, "name": "573d7426408d60cfd72b943bcface2b8", "lon": -77.00801016666666, "bike_id": "573d7426408d60cfd72b943bcface2b8", "lat": 38.90741633333333}, {"fusion_lon": 0.0, "fusion_lat": 0.0, "rental_uris": {"android": "https://dc.lft.to/lastmile_qr_scan", "ios": "https://dc.lft.to/lastmile_qr_scan"}, "is_disabled": 0, "type": "electric_scooter", "is_reserved": 0, "name": "2d886c8bc41b7be3f54ebea508f58afc", "lon": -77.0045795, "bike_id": "2d886c8bc41b7be3f54ebea508f58afc", "lat": 38.9208215}, {"fusion_lon": 0.0, "fusion_lat": 0.0, "rental_uris": {"android": "https://dc.lft.to/lastmile_qr_scan", "ios": "https://dc.lft.to/lastmile_qr_scan"}, "is_disabled": 0, "type": "electric_scooter", "is_reserved": 0, "name": "df76b54df68129dd7da57e4d63769626", "lon": -77.04326333333333, "bike_id": "df76b54df68129dd7da57e4d63769626", "lat": 38.90880083333333}, {"fusion_lon": 0.0, "fusion_lat": 0.0, "rental_uris": {"android": "https://dc.lft.to/lastmile_qr_scan", "ios": "https://dc.lft.to/lastmile_qr_scan"}, "is_disabled": 0, "type": "electric_bike", "is_reserved": 0, "name": "608db63f578b068f2dfa3d7b69aec8d6", "lon": -76.9811605, "bike_id": "608db63f578b068f2dfa3d7b69aec8d6", "lat": 38.945716833333336}, {"fusion_lon": 0.0, "fusion_lat": 0.0, "rental_uris": {"android": "https://dc.lft.to/lastmile_qr_scan", "ios": "https://dc.lft.to/lastmile_qr_scan"}, "is_disabled": 0, "type": "electric_scooter", "is_reserved": 0, "name": "ebab75c29a243267d9f3c3b8e52e6c5a", "lon": -76.93721383333333, "bike_id": "ebab75c29a243267d9f3c3b8e52e6c5a", "lat": 38.886624833333336}, {"fusion_lon": 0.0, "fusion_lat": 0.0, "rental_uris": {"android": "https://dc.lft.to/lastmile_qr_scan", "ios": "https://dc.lft.to/lastmile_qr_scan"}, "is_disabled": 0, "type": "electric_scooter", "is_reserved": 0, "name": "c0e2abe9b5bd7b94504dc2c27d4ad489", "lon": -77.00913566666667, "bike_id": "c0e2abe9b5bd7b94504dc2c27d4ad489", "lat": 38.89543466666667}, {"fusion_lon": 0.0, "fusion_lat": 0.0, "rental_uris": {"android": "https://dc.lft.to/lastmile_qr_scan", "ios": "https://dc.lft.to/lastmile_qr_scan"}, "is_disabled": 0, "type": "electric_scooter", "is_reserved": 0, "name": "e0cfe91912029c94800e3f3a9a573eff", "lon": -77.0118265, "bike_id": "e0cfe91912029c94800e3f3a9a573eff", "lat": 38.897720666666665}, {"fusion_lon": 0.0, "fusion_lat": 0.0, "rental_uris": {"android": "https://dc.lft.to/lastmile_qr_scan", "ios": "https://dc.lft.to/lastmile_qr_scan"}, "is_disabled": 0, "type": "electric_scooter", "is_reserved": 0, "name": "81ef8e6dec4980415d896da5e148a6e8", "lon": -77.0195285, "bike_id": "81ef8e6dec4980415d896da5e148a6e8", "lat": 38.92247783333333}, {"fusion_lon": 0.0, "fusion_lat": 0.0, "rental_uris": {"android": "https://dc.lft.to/lastmile_qr_scan", "ios": "https://dc.lft.to/lastmile_qr_scan"}, "is_disabled": 0, "type": "electric_scooter", "is_reserved": 0, "name": "d3ead6e79d7892ed269150a4e9f15fa2", "lon": -77.04153333333333, "bike_id": "d3ead6e79d7892ed269150a4e9f15fa2", "lat": 38.91930816666667}, {"fusion_lon": 0.0, "fusion_lat": 0.0, "rental_uris": {"android": "https://dc.lft.to/lastmile_qr_scan", "ios": "https://dc.lft.to/lastmile_qr_scan"}, "is_disabled": 0, "type": "electric_scooter", "is_reserved": 0, "name": "97960c09ac880794dd6bb59454aad967", "lon": -77.02849966666666, "bike_id": "97960c09ac880794dd6bb59454aad967", "lat": 38.94492066666667}, {"fusion_lon": 0.0, "fusion_lat": 0.0, "rental_uris": {"android": "https://dc.lft.to/lastmile_qr_scan", "ios": "https://dc.lft.to/lastmile_qr_scan"}, "is_disabled": 0, "type": "electric_scooter", "is_reserved": 0, "name": "3ecd5b2336afb2c84a80008fd5a4e0ee", "lon": -77.02305616666666, "bike_id": "3ecd5b2336afb2c84a80008fd5a4e0ee", "lat": 38.91980233333334}, {"fusion_lon": 0.0, "fusion_lat": 0.0, "rental_uris": {"android": "https://dc.lft.to/lastmile_qr_scan", "ios": "https://dc.lft.to/lastmile_qr_scan"}, "is_disabled": 0, "type": "electric_scooter", "is_reserved": 0, "name": "5db91b0c3f5e12e84b10f3377e29b897", "lon": -77.03819766666666, "bike_id": "5db91b0c3f5e12e84b10f3377e29b897", "lat": 38.91041083333333}, {"fusion_lon": 0.0, "fusion_lat": 0.0, "rental_uris": {"android": "https://dc.lft.to/lastmile_qr_scan", "ios": "https://dc.lft.to/lastmile_qr_scan"}, "is_disabled": 0, "type": "electric_scooter", "is_reserved": 0, "name": "63607d6358d7079ae1bae0cbe7c65d76", "lon": -77.040843, "bike_id": "63607d6358d7079ae1bae0cbe7c65d76", "lat": 38.917128166666664}, {"fusion_lon": 0.0, "fusion_lat": 0.0, "rental_uris": {"android": "https://dc.lft.to/lastmile_qr_scan", "ios": "https://dc.lft.to/lastmile_qr_scan"}, "is_disabled": 0, "type": "electric_scooter", "is_reserved": 0, "name": "37613a526abd0401c3edf9a51ceecdbc", "lon": -77.02432116666667, "bike_id": "37613a526abd0401c3edf9a51ceecdbc", "lat": 38.9679825}, {"fusion_lon": 0.0, "fusion_lat": 0.0, "rental_uris": {"android": "https://dc.lft.to/lastmile_qr_scan", "ios": "https://dc.lft.to/lastmile_qr_scan"}, "is_disabled": 0, "type": "electric_scooter", "is_reserved": 0, "name": "3fecbe2da895519833d53fbdd4398b14", "lon": -77.02209233333333, "bike_id": "3fecbe2da895519833d53fbdd4398b14", "lat": 38.8960185}, {"fusion_lon": 0.0, "fusion_lat": 0.0, "rental_uris": {"android": "https://dc.lft.to/lastmile_qr_scan", "ios": "https://dc.lft.to/lastmile_qr_scan"}, "is_disabled": 0, "type": "electric_scooter", "is_reserved": 0, "name": "3272ebc8b836bbad517b7f1a81e7ff1b", "lon": -77.03518183333334, "bike_id": "3272ebc8b836bbad517b7f1a81e7ff1b", "lat": 38.922394}, {"fusion_lon": 0.0, "fusion_lat": 0.0, "rental_uris": {"android": "https://dc.lft.to/lastmile_qr_scan", "ios": "https://dc.lft.to/lastmile_qr_scan"}, "is_disabled": 0, "type": "electric_scooter", "is_reserved": 0, "name": "ffad5eeb380dffc3265645e1da25e66b", "lon": -77.02165283333333, "bike_id": "ffad5eeb380dffc3265645e1da25e66b", "lat": 38.93072166666666}, {"fusion_lon": 0.0, "fusion_lat": 0.0, "rental_uris": {"android": "https://dc.lft.to/lastmile_qr_scan", "ios": "https://dc.lft.to/lastmile_qr_scan"}, "is_disabled": 0, "type": "electric_scooter", "is_reserved": 0, "name": "813da0f2ccdcb06a3f2d281d1b6efaf9", "lon": -77.02408366666667, "bike_id": "813da0f2ccdcb06a3f2d281d1b6efaf9", "lat": 38.905616}, {"fusion_lon": 0.0, "fusion_lat": 0.0, "rental_uris": {"android": "https://dc.lft.to/lastmile_qr_scan", "ios": "https://dc.lft.to/lastmile_qr_scan"}, "is_disabled": 0, "type": "electric_scooter", "is_reserved": 0, "name": "f5bb62efa6bfc6342b01c1f0fca246bc", "lon": -77.0241075, "bike_id": "f5bb62efa6bfc6342b01c1f0fca246bc", "lat": 38.917381}, {"fusion_lon": 0.0, "fusion_lat": 0.0, "rental_uris": {"android": "https://dc.lft.to/lastmile_qr_scan", "ios": "https://dc.lft.to/lastmile_qr_scan"}, "is_disabled": 0, "type": "electric_scooter", "is_reserved": 0, "name": "1d2508bb3261bc3a5a5ca2339bdf7329", "lon": -77.02801716666667, "bike_id": "1d2508bb3261bc3a5a5ca2339bdf7329", "lat": 38.9224155}, {"fusion_lon": 0.0, "fusion_lat": 0.0, "rental_uris": {"android": "https://dc.lft.to/lastmile_qr_scan", "ios": "https://dc.lft.to/lastmile_qr_scan"}, "is_disabled": 0, "type": "electric_scooter", "is_reserved": 0, "name": "0e69da949b6bf93478772d29f242f8be", "lon": -77.05280583333334, "bike_id": "0e69da949b6bf93478772d29f242f8be", "lat": 38.91011016666667}, {"fusion_lon": 0.0, "fusion_lat": 0.0, "rental_uris": {"android": "https://dc.lft.to/lastmile_qr_scan", "ios": "https://dc.lft.to/lastmile_qr_scan"}, "is_disabled": 0, "type": "electric_scooter", "is_reserved": 0, "name": "28b3eb11941e89d54234d60ca78a21b8", "lon": -77.02844733333333, "bike_id": "28b3eb11941e89d54234d60ca78a21b8", "lat": 38.901362166666665}, {"fusion_lon": 0.0, "fusion_lat": 0.0, "rental_uris": {"android": "https://dc.lft.to/lastmile_qr_scan", "ios": "https://dc.lft.to/lastmile_qr_scan"}, "is_disabled": 0, "type": "electric_scooter", "is_reserved": 0, "name": "bb9030745e0af90b94b215b64387e149", "lon": -77.029824, "bike_id": "bb9030745e0af90b94b215b64387e149", "lat": 38.89718}, {"fusion_lon": 0.0, "fusion_lat": 0.0, "rental_uris": {"android": "https://dc.lft.to/lastmile_qr_scan", "ios": "https://dc.lft.to/lastmile_qr_scan"}, "is_disabled": 0, "type": "electric_scooter", "is_reserved": 0, "name": "671899eb51f3e6c2dc6237552b1088c3", "lon": -77.02320416666667, "bike_id": "671899eb51f3e6c2dc6237552b1088c3", "lat": 38.907236833333336}, {"fusion_lon": 0.0, "fusion_lat": 0.0, "rental_uris": {"android": "https://dc.lft.to/lastmile_qr_scan", "ios": "https://dc.lft.to/lastmile_qr_scan"}, "is_disabled": 0, "type": "electric_scooter", "is_reserved": 0, "name": "ac91587d8ce4845641aa0c8abba79905", "lon": -77.02203283333333, "bike_id": "ac91587d8ce4845641aa0c8abba79905", "lat": 38.920455}, {"fusion_lon": 0.0, "fusion_lat": 0.0, "rental_uris": {"android": "https://dc.lft.to/lastmile_qr_scan", "ios": "https://dc.lft.to/lastmile_qr_scan"}, "is_disabled": 0, "type": "electric_scooter", "is_reserved": 0, "name": "d41efd12ffa01e6a5abf8e16e3afd593", "lon": -76.97713733333333, "bike_id": "d41efd12ffa01e6a5abf8e16e3afd593", "lat": 38.885203833333335}, {"fusion_lon": 0.0, "fusion_lat": 0.0, "rental_uris": {"android": "https://dc.lft.to/lastmile_qr_scan", "ios": "https://dc.lft.to/lastmile_qr_scan"}, "is_disabled": 0, "type": "electric_scooter", "is_reserved": 0, "name": "847ff04d69698beeed9ea36f8fc5e0ac", "lon": -77.031814, "bike_id": "847ff04d69698beeed9ea36f8fc5e0ac", "lat": 38.918555166666664}, {"fusion_lon": 0.0, "fusion_lat": 0.0, "rental_uris": {"android": "https://dc.lft.to/lastmile_qr_scan", "ios": "https://dc.lft.to/lastmile_qr_scan"}, "is_disabled": 0, "type": "electric_scooter", "is_reserved": 0, "name": "b23793f984203dc4968964768182f55c", "lon": -77.03877866666667, "bike_id": "b23793f984203dc4968964768182f55c", "lat": 38.9025235}, {"fusion_lon": 0.0, "fusion_lat": 0.0, "rental_uris": {"android": "https://dc.lft.to/lastmile_qr_scan", "ios": "https://dc.lft.to/lastmile_qr_scan"}, "is_disabled": 0, "type": "electric_scooter", "is_reserved": 0, "name": "04d8ecf1268d27e84a1c2415cee37198", "lon": -77.01194766666667, "bike_id": "04d8ecf1268d27e84a1c2415cee37198", "lat": 38.909649333333334}, {"fusion_lon": 0.0, "fusion_lat": 0.0, "rental_uris": {"android": "https://dc.lft.to/lastmile_qr_scan", "ios": "https://dc.lft.to/lastmile_qr_scan"}, "is_disabled": 0, "type": "electric_scooter", "is_reserved": 0, "name": "b833772c5285a6fdf483da47e5b0ed6f", "lon": -77.05501916666667, "bike_id": "b833772c5285a6fdf483da47e5b0ed6f", "lat": 38.92982583333333}, {"fusion_lon": 0.0, "fusion_lat": 0.0, "rental_uris": {"android": "https://dc.lft.to/lastmile_qr_scan", "ios": "https://dc.lft.to/lastmile_qr_scan"}, "is_disabled": 0, "type": "electric_bike", "is_reserved": 0, "name": "95fd159229e59c4b83d96de507ccc882", "lon": -76.95704333333333, "bike_id": "95fd159229e59c4b83d96de507ccc882", "lat": 38.88873483333333}, {"fusion_lon": 0.0, "fusion_lat": 0.0, "rental_uris": {"android": "https://dc.lft.to/lastmile_qr_scan", "ios": "https://dc.lft.to/lastmile_qr_scan"}, "is_disabled": 0, "type": "electric_scooter", "is_reserved": 0, "name": "5c5fe785bdc711d509a60e333ea2fe18", "lon": -77.02128266666666, "bike_id": "5c5fe785bdc711d509a60e333ea2fe18", "lat": 38.940627}, {"fusion_lon": 0.0, "fusion_lat": 0.0, "rental_uris": {"android": "https://dc.lft.to/lastmile_qr_scan", "ios": "https://dc.lft.to/lastmile_qr_scan"}, "is_disabled": 0, "type": "electric_scooter", "is_reserved": 0, "name": "2bd3f1e5cc1bd879dd7caa242aea17f6", "lon": -77.0249875, "bike_id": "2bd3f1e5cc1bd879dd7caa242aea17f6", "lat": 38.9178305}, {"fusion_lon": 0.0, "fusion_lat": 0.0, "rental_uris": {"android": "https://dc.lft.to/lastmile_qr_scan", "ios": "https://dc.lft.to/lastmile_qr_scan"}, "is_disabled": 0, "type": "electric_scooter", "is_reserved": 0, "name": "1538be3e83b5f73a8fca14b39d45b7a2", "lon": -77.04170666666667, "bike_id": "1538be3e83b5f73a8fca14b39d45b7a2", "lat": 38.908070333333335}, {"fusion_lon": 0.0, "fusion_lat": 0.0, "rental_uris": {"android": "https://dc.lft.to/lastmile_qr_scan", "ios": "https://dc.lft.to/lastmile_qr_scan"}, "is_disabled": 0, "type": "electric_scooter", "is_reserved": 0, "name": "33cfb138aaf23e02aa1c75d2ed22467a", "lon": -77.0516605, "bike_id": "33cfb138aaf23e02aa1c75d2ed22467a", "lat": 38.90235833333333}, {"fusion_lon": 0.0, "fusion_lat": 0.0, "rental_uris": {"android": "https://dc.lft.to/lastmile_qr_scan", "ios": "https://dc.lft.to/lastmile_qr_scan"}, "is_disabled": 0, "type": "electric_scooter", "is_reserved": 0, "name": "fc9c7d1f2270df0fef35d47485e5dd52", "lon": -77.03912333333334, "bike_id": "fc9c7d1f2270df0fef35d47485e5dd52", "lat": 38.90109416666667}, {"fusion_lon": 0.0, "fusion_lat": 0.0, "rental_uris": {"android": "https://dc.lft.to/lastmile_qr_scan", "ios": "https://dc.lft.to/lastmile_qr_scan"}, "is_disabled": 0, "type": "electric_scooter", "is_reserved": 0, "name": "162c359914735d3bf8b7dd608ff28315", "lon": -77.03248533333333, "bike_id": "162c359914735d3bf8b7dd608ff28315", "lat": 38.937560500000004}, {"fusion_lon": 0.0, "fusion_lat": 0.0, "rental_uris": {"android": "https://dc.lft.to/lastmile_qr_scan", "ios": "https://dc.lft.to/lastmile_qr_scan"}, "is_disabled": 0, "type": "electric_scooter", "is_reserved": 0, "name": "a5c872d671371ce5d093c362b66ab540", "lon": -77.02420816666667, "bike_id": "a5c872d671371ce5d093c362b66ab540", "lat": 38.8951835}, {"fusion_lon": 0.0, "fusion_lat": 0.0, "rental_uris": {"android": "https://dc.lft.to/lastmile_qr_scan", "ios": "https://dc.lft.to/lastmile_qr_scan"}, "is_disabled": 0, "type": "electric_scooter", "is_reserved": 0, "name": "0ff4c01267d33d3841bac02f88496875", "lon": -77.04186166666666, "bike_id": "0ff4c01267d33d3841bac02f88496875", "lat": 38.91914666666667}, {"fusion_lon": 0.0, "fusion_lat": 0.0, "rental_uris": {"android": "https://dc.lft.to/lastmile_qr_scan", "ios": "https://dc.lft.to/lastmile_qr_scan"}, "is_disabled": 0, "type": "electric_scooter", "is_reserved": 0, "name": "51e5b1cba9804aa6350022c060b4d340", "lon": -77.022159, "bike_id": "51e5b1cba9804aa6350022c060b4d340", "lat": 38.899796}, {"fusion_lon": 0.0, "fusion_lat": 0.0, "rental_uris": {"android": "https://dc.lft.to/lastmile_qr_scan", "ios": "https://dc.lft.to/lastmile_qr_scan"}, "is_disabled": 0, "type": "electric_bike", "is_reserved": 0, "name": "90ca4315b6d56ddb03ff0f968987c7d9", "lon": -76.93192633333334, "bike_id": "90ca4315b6d56ddb03ff0f968987c7d9", "lat": 38.87953533333334}, {"fusion_lon": 0.0, "fusion_lat": 0.0, "rental_uris": {"android": "https://dc.lft.to/lastmile_qr_scan", "ios": "https://dc.lft.to/lastmile_qr_scan"}, "is_disabled": 0, "type": "electric_scooter", "is_reserved": 0, "name": "7179946dff5834838ee29fbc6d98bcfe", "lon": -77.05263633333334, "bike_id": "7179946dff5834838ee29fbc6d98bcfe", "lat": 38.9034245}, {"fusion_lon": 0.0, "fusion_lat": 0.0, "rental_uris": {"android": "https://dc.lft.to/lastmile_qr_scan", "ios": "https://dc.lft.to/lastmile_qr_scan"}, "is_disabled": 0, "type": "electric_scooter", "is_reserved": 0, "name": "8984482b105f0b15258abb49fd322161", "lon": -77.063694, "bike_id": "8984482b105f0b15258abb49fd322161", "lat": 38.9083925}, {"fusion_lon": 0.0, "fusion_lat": 0.0, "rental_uris": {"android": "https://dc.lft.to/lastmile_qr_scan", "ios": "https://dc.lft.to/lastmile_qr_scan"}, "is_disabled": 0, "type": "electric_scooter", "is_reserved": 0, "name": "f636d9773876781afa45311875e77381", "lon": -77.00500483333333, "bike_id": "f636d9773876781afa45311875e77381", "lat": 38.91619983333333}, {"fusion_lon": 0.0, "fusion_lat": 0.0, "rental_uris": {"android": "https://dc.lft.to/lastmile_qr_scan", "ios": "https://dc.lft.to/lastmile_qr_scan"}, "is_disabled": 0, "type": "electric_scooter", "is_reserved": 0, "name": "663b61af071fa15ba1215be423fedab8", "lon": -77.03975466666667, "bike_id": "663b61af071fa15ba1215be423fedab8", "lat": 38.90607833333333}, {"fusion_lon": 0.0, "fusion_lat": 0.0, "rental_uris": {"android": "https://dc.lft.to/lastmile_qr_scan", "ios": "https://dc.lft.to/lastmile_qr_scan"}, "is_disabled": 0, "type": "electric_scooter", "is_reserved": 0, "name": "78e2e8f9a0709cbb9e5f421fb0fedb81", "lon": -77.0250755, "bike_id": "78e2e8f9a0709cbb9e5f421fb0fedb81", "lat": 38.91926133333333}, {"fusion_lon": 0.0, "fusion_lat": 0.0, "rental_uris": {"android": "https://dc.lft.to/lastmile_qr_scan", "ios": "https://dc.lft.to/lastmile_qr_scan"}, "is_disabled": 0, "type": "electric_scooter", "is_reserved": 0, "name": "8d6e3fd233204ca675aae3b026ccde66", "lon": -77.02129216666667, "bike_id": "8d6e3fd233204ca675aae3b026ccde66", "lat": 38.922768}, {"fusion_lon": 0.0, "fusion_lat": 0.0, "rental_uris": {"android": "https://dc.lft.to/lastmile_qr_scan", "ios": "https://dc.lft.to/lastmile_qr_scan"}, "is_disabled": 0, "type": "electric_scooter", "is_reserved": 0, "name": "521565358e1098f432dbb7130dddfae3", "lon": -77.01879366666667, "bike_id": "521565358e1098f432dbb7130dddfae3", "lat": 38.921327166666664}, {"fusion_lon": 0.0, "fusion_lat": 0.0, "rental_uris": {"android": "https://dc.lft.to/lastmile_qr_scan", "ios": "https://dc.lft.to/lastmile_qr_scan"}, "is_disabled": 0, "type": "electric_scooter", "is_reserved": 0, "name": "353ae8f78290c31665c75c0316dcee5c", "lon": -77.04673083333333, "bike_id": "353ae8f78290c31665c75c0316dcee5c", "lat": 38.89849566666667}, {"fusion_lon": 0.0, "fusion_lat": 0.0, "rental_uris": {"android": "https://dc.lft.to/lastmile_qr_scan", "ios": "https://dc.lft.to/lastmile_qr_scan"}, "is_disabled": 0, "type": "electric_bike", "is_reserved": 0, "name": "5901e41c516c4708b11837c367db48ee", "lon": -77.090222, "bike_id": "5901e41c516c4708b11837c367db48ee", "lat": 38.926506}, {"fusion_lon": 0.0, "fusion_lat": 0.0, "rental_uris": {"android": "https://dc.lft.to/lastmile_qr_scan", "ios": "https://dc.lft.to/lastmile_qr_scan"}, "is_disabled": 0, "type": "electric_scooter", "is_reserved": 0, "name": "0a316cc7c7c2fbc63e5169bbe0bfcaa1", "lon": -77.0167045, "bike_id": "0a316cc7c7c2fbc63e5169bbe0bfcaa1", "lat": 38.9204}, {"fusion_lon": 0.0, "fusion_lat": 0.0, "rental_uris": {"android": "https://dc.lft.to/lastmile_qr_scan", "ios": "https://dc.lft.to/lastmile_qr_scan"}, "is_disabled": 0, "type": "electric_scooter", "is_reserved": 0, "name": "6016c6750f6dd52aa830934b943142da", "lon": -77.02948466666666, "bike_id": "6016c6750f6dd52aa830934b943142da", "lat": 38.943054833333335}, {"fusion_lon": 0.0, "fusion_lat": 0.0, "rental_uris": {"android": "https://dc.lft.to/lastmile_qr_scan", "ios": "https://dc.lft.to/lastmile_qr_scan"}, "is_disabled": 0, "type": "electric_scooter", "is_reserved": 0, "name": "e6d47ba0a1eea9eedb39c1f182693d56", "lon": -77.02209133333334, "bike_id": "e6d47ba0a1eea9eedb39c1f182693d56", "lat": 38.92468683333333}, {"fusion_lon": 0.0, "fusion_lat": 0.0, "rental_uris": {"android": "https://dc.lft.to/lastmile_qr_scan", "ios": "https://dc.lft.to/lastmile_qr_scan"}, "is_disabled": 0, "type": "electric_scooter", "is_reserved": 0, "name": "e98d1e44b53571422db393b9eb921b6b", "lon": -76.99818133333333, "bike_id": "e98d1e44b53571422db393b9eb921b6b", "lat": 38.90718866666667}, {"fusion_lon": 0.0, "fusion_lat": 0.0, "rental_uris": {"android": "https://dc.lft.to/lastmile_qr_scan", "ios": "https://dc.lft.to/lastmile_qr_scan"}, "is_disabled": 0, "type": "electric_bike", "is_reserved": 0, "name": "5f54354255045cfef3e74820de855314", "lon": -76.98416, "bike_id": "5f54354255045cfef3e74820de855314", "lat": 38.97412116666667}, {"fusion_lon": 0.0, "fusion_lat": 0.0, "rental_uris": {"android": "https://dc.lft.to/lastmile_qr_scan", "ios": "https://dc.lft.to/lastmile_qr_scan"}, "is_disabled": 0, "type": "electric_scooter", "is_reserved": 0, "name": "ef34af1b0b7b64ec548f5f56314e2868", "lon": -77.02170533333333, "bike_id": "ef34af1b0b7b64ec548f5f56314e2868", "lat": 38.89708816666667}, {"fusion_lon": 0.0, "fusion_lat": 0.0, "rental_uris": {"android": "https://dc.lft.to/lastmile_qr_scan", "ios": "https://dc.lft.to/lastmile_qr_scan"}, "is_disabled": 0, "type": "electric_scooter", "is_reserved": 0, "name": "129ff9bb663cc96666b06856a4737963", "lon": -77.04551883333333, "bike_id": "129ff9bb663cc96666b06856a4737963", "lat": 38.9006145}, {"fusion_lon": 0.0, "fusion_lat": 0.0, "rental_uris": {"android": "https://dc.lft.to/lastmile_qr_scan", "ios": "https://dc.lft.to/lastmile_qr_scan"}, "is_disabled": 0, "type": "electric_scooter", "is_reserved": 0, "name": "b276f1128534aab5c98e727bfe787169", "lon": -77.05167233333333, "bike_id": "b276f1128534aab5c98e727bfe787169", "lat": 38.902357333333335}, {"fusion_lon": 0.0, "fusion_lat": 0.0, "rental_uris": {"android": "https://dc.lft.to/lastmile_qr_scan", "ios": "https://dc.lft.to/lastmile_qr_scan"}, "is_disabled": 0, "type": "electric_scooter", "is_reserved": 0, "name": "32085d711908f6c7dbd61d15e236a0eb", "lon": -77.08397833333333, "bike_id": "32085d711908f6c7dbd61d15e236a0eb", "lat": 38.9403255}, {"fusion_lon": 0.0, "fusion_lat": 0.0, "rental_uris": {"android": "https://dc.lft.to/lastmile_qr_scan", "ios": "https://dc.lft.to/lastmile_qr_scan"}, "is_disabled": 0, "type": "electric_bike", "is_reserved": 0, "name": "ef661545cfbb2a1884cd7b8b8ed8c781", "lon": -76.99995066666666, "bike_id": "ef661545cfbb2a1884cd7b8b8ed8c781", "lat": 38.918064}, {"fusion_lon": 0.0, "fusion_lat": 0.0, "rental_uris": {"android": "https://dc.lft.to/lastmile_qr_scan", "ios": "https://dc.lft.to/lastmile_qr_scan"}, "is_disabled": 0, "type": "electric_scooter", "is_reserved": 0, "name": "088c39eb9bc2a2f4ca916618c01edab5", "lon": -77.009178, "bike_id": "088c39eb9bc2a2f4ca916618c01edab5", "lat": 38.92339966666667}, {"fusion_lon": 0.0, "fusion_lat": 0.0, "rental_uris": {"android": "https://dc.lft.to/lastmile_qr_scan", "ios": "https://dc.lft.to/lastmile_qr_scan"}, "is_disabled": 0, "type": "electric_scooter", "is_reserved": 0, "name": "ffb169527af4cd18513b2baedfd7facd", "lon": -77.01903333333334, "bike_id": "ffb169527af4cd18513b2baedfd7facd", "lat": 38.9231005}, {"fusion_lon": 0.0, "fusion_lat": 0.0, "rental_uris": {"android": "https://dc.lft.to/lastmile_qr_scan", "ios": "https://dc.lft.to/lastmile_qr_scan"}, "is_disabled": 0, "type": "electric_scooter", "is_reserved": 0, "name": "7c916e9f08b5312fb1e2b5cdb4955365", "lon": -77.04261083333333, "bike_id": "7c916e9f08b5312fb1e2b5cdb4955365", "lat": 38.89827116666667}, {"fusion_lon": 0.0, "fusion_lat": 0.0, "rental_uris": {"android": "https://dc.lft.to/lastmile_qr_scan", "ios": "https://dc.lft.to/lastmile_qr_scan"}, "is_disabled": 0, "type": "electric_scooter", "is_reserved": 0, "name": "1903fd72bf4290ac2730b261c8dcf396", "lon": -77.030382, "bike_id": "1903fd72bf4290ac2730b261c8dcf396", "lat": 38.88437483333333}, {"fusion_lon": 0.0, "fusion_lat": 0.0, "rental_uris": {"android": "https://dc.lft.to/lastmile_qr_scan", "ios": "https://dc.lft.to/lastmile_qr_scan"}, "is_disabled": 0, "type": "electric_bike", "is_reserved": 0, "name": "bd5ffd0a88468ebc0e346d14641c6862", "lon": -76.998442, "bike_id": "bd5ffd0a88468ebc0e346d14641c6862", "lat": 38.83917566666667}, {"fusion_lon": 0.0, "fusion_lat": 0.0, "rental_uris": {"android": "https://dc.lft.to/lastmile_qr_scan", "ios": "https://dc.lft.to/lastmile_qr_scan"}, "is_disabled": 0, "type": "electric_scooter", "is_reserved": 0, "name": "56c574a86617e467b1438f20866fad18", "lon": -77.0220105, "bike_id": "56c574a86617e467b1438f20866fad18", "lat": 38.924840333333336}, {"fusion_lon": 0.0, "fusion_lat": 0.0, "rental_uris": {"android": "https://dc.lft.to/lastmile_qr_scan", "ios": "https://dc.lft.to/lastmile_qr_scan"}, "is_disabled": 0, "type": "electric_scooter", "is_reserved": 0, "name": "5d72c78d2d8b398ceaf3ac5bf4c774c3", "lon": -77.02803083333333, "bike_id": "5d72c78d2d8b398ceaf3ac5bf4c774c3", "lat": 38.912184}, {"fusion_lon": 0.0, "fusion_lat": 0.0, "rental_uris": {"android": "https://dc.lft.to/lastmile_qr_scan", "ios": "https://dc.lft.to/lastmile_qr_scan"}, "is_disabled": 0, "type": "electric_scooter", "is_reserved": 0, "name": "a0e1fcf0e1e962b1880016be28885256", "lon": -77.03344233333333, "bike_id": "a0e1fcf0e1e962b1880016be28885256", "lat": 38.88476466666667}, {"fusion_lon": 0.0, "fusion_lat": 0.0, "rental_uris": {"android": "https://dc.lft.to/lastmile_qr_scan", "ios": "https://dc.lft.to/lastmile_qr_scan"}, "is_disabled": 0, "type": "electric_scooter", "is_reserved": 0, "name": "c4ed32834f280a02f3f389ddd37bdf8a", "lon": -76.99361999999999, "bike_id": "c4ed32834f280a02f3f389ddd37bdf8a", "lat": 38.90000466666667}, {"fusion_lon": 0.0, "fusion_lat": 0.0, "rental_uris": {"android": "https://dc.lft.to/lastmile_qr_scan", "ios": "https://dc.lft.to/lastmile_qr_scan"}, "is_disabled": 0, "type": "electric_scooter", "is_reserved": 0, "name": "8879820ba0f059030ccb22ef9ac452e3", "lon": -77.06794933333333, "bike_id": "8879820ba0f059030ccb22ef9ac452e3", "lat": 38.912746166666665}, {"fusion_lon": 0.0, "fusion_lat": 0.0, "rental_uris": {"android": "https://dc.lft.to/lastmile_qr_scan", "ios": "https://dc.lft.to/lastmile_qr_scan"}, "is_disabled": 0, "type": "electric_scooter", "is_reserved": 0, "name": "5c66383802cba1cf4dcc7f1e366ee70b", "lon": -77.04749716666667, "bike_id": "5c66383802cba1cf4dcc7f1e366ee70b", "lat": 38.900328333333334}, {"fusion_lon": 0.0, "fusion_lat": 0.0, "rental_uris": {"android": "https://dc.lft.to/lastmile_qr_scan", "ios": "https://dc.lft.to/lastmile_qr_scan"}, "is_disabled": 0, "type": "electric_scooter", "is_reserved": 0, "name": "1fc050236ea887f525caac57298df085", "lon": -77.0193925, "bike_id": "1fc050236ea887f525caac57298df085", "lat": 38.9470325}, {"fusion_lon": 0.0, "fusion_lat": 0.0, "rental_uris": {"android": "https://dc.lft.to/lastmile_qr_scan", "ios": "https://dc.lft.to/lastmile_qr_scan"}, "is_disabled": 0, "type": "electric_scooter", "is_reserved": 0, "name": "c563eec3785b86a9e3990c9e46ec2ab4", "lon": -77.065242, "bike_id": "c563eec3785b86a9e3990c9e46ec2ab4", "lat": 38.90405}, {"fusion_lon": 0.0, "fusion_lat": 0.0, "rental_uris": {"android": "https://dc.lft.to/lastmile_qr_scan", "ios": "https://dc.lft.to/lastmile_qr_scan"}, "is_disabled": 0, "type": "electric_scooter", "is_reserved": 0, "name": "e3ceb786034bb2a696bb08aa9b77af92", "lon": -77.02976083333333, "bike_id": "e3ceb786034bb2a696bb08aa9b77af92", "lat": 38.916765166666664}, {"fusion_lon": 0.0, "fusion_lat": 0.0, "rental_uris": {"android": "https://dc.lft.to/lastmile_qr_scan", "ios": "https://dc.lft.to/lastmile_qr_scan"}, "is_disabled": 0, "type": "electric_scooter", "is_reserved": 0, "name": "bcefadf2956c11e378f89d1149c0d341", "lon": -77.02120666666667, "bike_id": "bcefadf2956c11e378f89d1149c0d341", "lat": 38.9236825}, {"fusion_lon": 0.0, "fusion_lat": 0.0, "rental_uris": {"android": "https://dc.lft.to/lastmile_qr_scan", "ios": "https://dc.lft.to/lastmile_qr_scan"}, "is_disabled": 0, "type": "electric_scooter", "is_reserved": 0, "name": "ee43fd9afd2c86723e7f4d0208e3f5d0", "lon": -77.0215945, "bike_id": "ee43fd9afd2c86723e7f4d0208e3f5d0", "lat": 38.92600133333333}, {"fusion_lon": 0.0, "fusion_lat": 0.0, "rental_uris": {"android": "https://dc.lft.to/lastmile_qr_scan", "ios": "https://dc.lft.to/lastmile_qr_scan"}, "is_disabled": 0, "type": "electric_scooter", "is_reserved": 0, "name": "4f87d3df6d8e757d9bba84734821c4aa", "lon": -77.07254116666667, "bike_id": "4f87d3df6d8e757d9bba84734821c4aa", "lat": 38.907793166666664}, {"fusion_lon": 0.0, "fusion_lat": 0.0, "rental_uris": {"android": "https://dc.lft.to/lastmile_qr_scan", "ios": "https://dc.lft.to/lastmile_qr_scan"}, "is_disabled": 0, "type": "electric_scooter", "is_reserved": 0, "name": "9582ed8e622814f6f5cc57df850d0948", "lon": -76.97331316666667, "bike_id": "9582ed8e622814f6f5cc57df850d0948", "lat": 38.90412083333333}, {"fusion_lon": 0.0, "fusion_lat": 0.0, "rental_uris": {"android": "https://dc.lft.to/lastmile_qr_scan", "ios": "https://dc.lft.to/lastmile_qr_scan"}, "is_disabled": 0, "type": "electric_scooter", "is_reserved": 0, "name": "282113997c30f1fa4ca9e08063c9c072", "lon": -76.98314983333333, "bike_id": "282113997c30f1fa4ca9e08063c9c072", "lat": 38.90321183333333}, {"fusion_lon": 0.0, "fusion_lat": 0.0, "rental_uris": {"android": "https://dc.lft.to/lastmile_qr_scan", "ios": "https://dc.lft.to/lastmile_qr_scan"}, "is_disabled": 0, "type": "electric_scooter", "is_reserved": 0, "name": "1d33137b042806cf8b8abd96784af61e", "lon": -76.986172, "bike_id": "1d33137b042806cf8b8abd96784af61e", "lat": 38.9034725}, {"fusion_lon": 0.0, "fusion_lat": 0.0, "rental_uris": {"android": "https://dc.lft.to/lastmile_qr_scan", "ios": "https://dc.lft.to/lastmile_qr_scan"}, "is_disabled": 0, "type": "electric_scooter", "is_reserved": 0, "name": "9d2f9586bbe8619c664d79c5ec74affb", "lon": -77.02182283333333, "bike_id": "9d2f9586bbe8619c664d79c5ec74affb", "lat": 38.92486983333333}, {"fusion_lon": 0.0, "fusion_lat": 0.0, "rental_uris": {"android": "https://dc.lft.to/lastmile_qr_scan", "ios": "https://dc.lft.to/lastmile_qr_scan"}, "is_disabled": 0, "type": "electric_scooter", "is_reserved": 0, "name": "58fccc0976b1536301872e5a51f91d26", "lon": -77.06405883333333, "bike_id": "58fccc0976b1536301872e5a51f91d26", "lat": 38.944396833333336}, {"fusion_lon": 0.0, "fusion_lat": 0.0, "rental_uris": {"android": "https://dc.lft.to/lastmile_qr_scan", "ios": "https://dc.lft.to/lastmile_qr_scan"}, "is_disabled": 0, "type": "electric_scooter", "is_reserved": 0, "name": "d5e870085400b56a9e93c7da28ea8658", "lon": -77.00536533333333, "bike_id": "d5e870085400b56a9e93c7da28ea8658", "lat": 38.875445166666665}, {"fusion_lon": 0.0, "fusion_lat": 0.0, "rental_uris": {"android": "https://dc.lft.to/lastmile_qr_scan", "ios": "https://dc.lft.to/lastmile_qr_scan"}, "is_disabled": 0, "type": "electric_scooter", "is_reserved": 0, "name": "fd0bae69da0442bf6ffec4475d9619d2", "lon": -77.0400905, "bike_id": "fd0bae69da0442bf6ffec4475d9619d2", "lat": 38.921775}, {"fusion_lon": 0.0, "fusion_lat": 0.0, "rental_uris": {"android": "https://dc.lft.to/lastmile_qr_scan", "ios": "https://dc.lft.to/lastmile_qr_scan"}, "is_disabled": 0, "type": "electric_scooter", "is_reserved": 0, "name": "579e5bc44429c547b2e36ed239a5cca7", "lon": -77.07470716666667, "bike_id": "579e5bc44429c547b2e36ed239a5cca7", "lat": 38.938473}, {"fusion_lon": 0.0, "fusion_lat": 0.0, "rental_uris": {"android": "https://dc.lft.to/lastmile_qr_scan", "ios": "https://dc.lft.to/lastmile_qr_scan"}, "is_disabled": 0, "type": "electric_scooter", "is_reserved": 0, "name": "2337413ccf52b70e2f99f69aeb9d096d", "lon": -77.01667283333333, "bike_id": "2337413ccf52b70e2f99f69aeb9d096d", "lat": 38.92042266666667}, {"fusion_lon": 0.0, "fusion_lat": 0.0, "rental_uris": {"android": "https://dc.lft.to/lastmile_qr_scan", "ios": "https://dc.lft.to/lastmile_qr_scan"}, "is_disabled": 0, "type": "electric_scooter", "is_reserved": 0, "name": "b1a1e4a4e7297fa2d7264df866e8b584", "lon": -77.02409083333333, "bike_id": "b1a1e4a4e7297fa2d7264df866e8b584", "lat": 38.91598483333333}, {"fusion_lon": 0.0, "fusion_lat": 0.0, "rental_uris": {"android": "https://dc.lft.to/lastmile_qr_scan", "ios": "https://dc.lft.to/lastmile_qr_scan"}, "is_disabled": 0, "type": "electric_scooter", "is_reserved": 0, "name": "efd4dfaf209e0e31ebd4f5eb91ebf826", "lon": -77.02024883333333, "bike_id": "efd4dfaf209e0e31ebd4f5eb91ebf826", "lat": 38.924335666666664}, {"fusion_lon": 0.0, "fusion_lat": 0.0, "rental_uris": {"android": "https://dc.lft.to/lastmile_qr_scan", "ios": "https://dc.lft.to/lastmile_qr_scan"}, "is_disabled": 0, "type": "electric_scooter", "is_reserved": 0, "name": "a6187943538a3d8a23815d6f5b4f4d74", "lon": -77.05354766666666, "bike_id": "a6187943538a3d8a23815d6f5b4f4d74", "lat": 38.92662216666667}, {"fusion_lon": 0.0, "fusion_lat": 0.0, "rental_uris": {"android": "https://dc.lft.to/lastmile_qr_scan", "ios": "https://dc.lft.to/lastmile_qr_scan"}, "is_disabled": 0, "type": "electric_scooter", "is_reserved": 0, "name": "1d2ee37bfc5f8725b8ecf19bd40851e0", "lon": -77.02711616666667, "bike_id": "1d2ee37bfc5f8725b8ecf19bd40851e0", "lat": 38.9179255}, {"fusion_lon": 0.0, "fusion_lat": 0.0, "rental_uris": {"android": "https://dc.lft.to/lastmile_qr_scan", "ios": "https://dc.lft.to/lastmile_qr_scan"}, "is_disabled": 0, "type": "electric_scooter", "is_reserved": 0, "name": "580f89176ac4b68390b263c3f973a9a7", "lon": -76.9991075, "bike_id": "580f89176ac4b68390b263c3f973a9a7", "lat": 38.89611383333333}, {"fusion_lon": 0.0, "fusion_lat": 0.0, "rental_uris": {"android": "https://dc.lft.to/lastmile_qr_scan", "ios": "https://dc.lft.to/lastmile_qr_scan"}, "is_disabled": 0, "type": "electric_scooter", "is_reserved": 0, "name": "3ff0645d08111feb20fe1328bee202a0", "lon": -77.031766, "bike_id": "3ff0645d08111feb20fe1328bee202a0", "lat": 38.89988833333334}, {"fusion_lon": 0.0, "fusion_lat": 0.0, "rental_uris": {"android": "https://dc.lft.to/lastmile_qr_scan", "ios": "https://dc.lft.to/lastmile_qr_scan"}, "is_disabled": 0, "type": "electric_scooter", "is_reserved": 0, "name": "1ebe6613dd34501daf18a5c671c6f386", "lon": -76.99727083333333, "bike_id": "1ebe6613dd34501daf18a5c671c6f386", "lat": 38.90444183333334}, {"fusion_lon": 0.0, "fusion_lat": 0.0, "rental_uris": {"android": "https://dc.lft.to/lastmile_qr_scan", "ios": "https://dc.lft.to/lastmile_qr_scan"}, "is_disabled": 0, "type": "electric_scooter", "is_reserved": 0, "name": "f6f2f9f6721d0e4dcd8904d01bdd78e6", "lon": -77.02200616666667, "bike_id": "f6f2f9f6721d0e4dcd8904d01bdd78e6", "lat": 38.9246115}, {"fusion_lon": 0.0, "fusion_lat": 0.0, "rental_uris": {"android": "https://dc.lft.to/lastmile_qr_scan", "ios": "https://dc.lft.to/lastmile_qr_scan"}, "is_disabled": 0, "type": "electric_scooter", "is_reserved": 0, "name": "9cd3d7f486c41a0e2a9a075a74bd3dd4", "lon": -77.0270065, "bike_id": "9cd3d7f486c41a0e2a9a075a74bd3dd4", "lat": 38.901631333333334}, {"fusion_lon": 0.0, "fusion_lat": 0.0, "rental_uris": {"android": "https://dc.lft.to/lastmile_qr_scan", "ios": "https://dc.lft.to/lastmile_qr_scan"}, "is_disabled": 0, "type": "electric_scooter", "is_reserved": 0, "name": "326e540d660ce62633f1ef2e061e9208", "lon": -77.03251266666666, "bike_id": "326e540d660ce62633f1ef2e061e9208", "lat": 38.920998166666664}, {"fusion_lon": 0.0, "fusion_lat": 0.0, "rental_uris": {"android": "https://dc.lft.to/lastmile_qr_scan", "ios": "https://dc.lft.to/lastmile_qr_scan"}, "is_disabled": 0, "type": "electric_scooter", "is_reserved": 0, "name": "25540f4c6c9d9c14bd0b6c097da891b2", "lon": -77.016808, "bike_id": "25540f4c6c9d9c14bd0b6c097da891b2", "lat": 38.90553966666667}, {"fusion_lon": 0.0, "fusion_lat": 0.0, "rental_uris": {"android": "https://dc.lft.to/lastmile_qr_scan", "ios": "https://dc.lft.to/lastmile_qr_scan"}, "is_disabled": 0, "type": "electric_scooter", "is_reserved": 0, "name": "7b823e404bf43973dc385bac0f305c96", "lon": -77.0020645, "bike_id": "7b823e404bf43973dc385bac0f305c96", "lat": 38.90234516666666}, {"fusion_lon": 0.0, "fusion_lat": 0.0, "rental_uris": {"android": "https://dc.lft.to/lastmile_qr_scan", "ios": "https://dc.lft.to/lastmile_qr_scan"}, "is_disabled": 0, "type": "electric_scooter", "is_reserved": 0, "name": "e3f15b116fd0c06affec360a6a893083", "lon": -77.02985966666667, "bike_id": "e3f15b116fd0c06affec360a6a893083", "lat": 38.94260666666667}, {"fusion_lon": 0.0, "fusion_lat": 0.0, "rental_uris": {"android": "https://dc.lft.to/lastmile_qr_scan", "ios": "https://dc.lft.to/lastmile_qr_scan"}, "is_disabled": 0, "type": "electric_scooter", "is_reserved": 0, "name": "48d32e64a91cb87bb65791a2bce25215", "lon": -77.03234516666667, "bike_id": "48d32e64a91cb87bb65791a2bce25215", "lat": 38.925021}, {"fusion_lon": 0.0, "fusion_lat": 0.0, "rental_uris": {"android": "https://dc.lft.to/lastmile_qr_scan", "ios": "https://dc.lft.to/lastmile_qr_scan"}, "is_disabled": 0, "type": "electric_scooter", "is_reserved": 0, "name": "74456471fd1e8ed3274a63d4dfcebafa", "lon": -77.03207166666667, "bike_id": "74456471fd1e8ed3274a63d4dfcebafa", "lat": 38.90823433333333}, {"fusion_lon": 0.0, "fusion_lat": 0.0, "rental_uris": {"android": "https://dc.lft.to/lastmile_qr_scan", "ios": "https://dc.lft.to/lastmile_qr_scan"}, "is_disabled": 0, "type": "electric_bike", "is_reserved": 0, "name": "38b0a45d3acef7fb77b818910a77e49c", "lon": -76.95247866666666, "bike_id": "38b0a45d3acef7fb77b818910a77e49c", "lat": 38.906865333333336}, {"fusion_lon": 0.0, "fusion_lat": 0.0, "rental_uris": {"android": "https://dc.lft.to/lastmile_qr_scan", "ios": "https://dc.lft.to/lastmile_qr_scan"}, "is_disabled": 0, "type": "electric_scooter", "is_reserved": 0, "name": "3ae145c756ee352e4b20e59110b8ed93", "lon": -77.01593816666667, "bike_id": "3ae145c756ee352e4b20e59110b8ed93", "lat": 38.874525166666665}, {"fusion_lon": 0.0, "fusion_lat": 0.0, "rental_uris": {"android": "https://dc.lft.to/lastmile_qr_scan", "ios": "https://dc.lft.to/lastmile_qr_scan"}, "is_disabled": 0, "type": "electric_scooter", "is_reserved": 0, "name": "a61e037a77266142cce67e01dec43199", "lon": -77.02876433333333, "bike_id": "a61e037a77266142cce67e01dec43199", "lat": 38.90430533333333}, {"fusion_lon": 0.0, "fusion_lat": 0.0, "rental_uris": {"android": "https://dc.lft.to/lastmile_qr_scan", "ios": "https://dc.lft.to/lastmile_qr_scan"}, "is_disabled": 0, "type": "electric_scooter", "is_reserved": 0, "name": "31229f7b58de10e2bd1b183cfbd5cf16", "lon": -77.04834883333334, "bike_id": "31229f7b58de10e2bd1b183cfbd5cf16", "lat": 38.89740583333333}, {"fusion_lon": 0.0, "fusion_lat": 0.0, "rental_uris": {"android": "https://dc.lft.to/lastmile_qr_scan", "ios": "https://dc.lft.to/lastmile_qr_scan"}, "is_disabled": 0, "type": "electric_scooter", "is_reserved": 0, "name": "d37bbc3ff6b668c88ffecc684bad3e17", "lon": -77.02020966666667, "bike_id": "d37bbc3ff6b668c88ffecc684bad3e17", "lat": 38.899346333333334}, {"fusion_lon": 0.0, "fusion_lat": 0.0, "rental_uris": {"android": "https://dc.lft.to/lastmile_qr_scan", "ios": "https://dc.lft.to/lastmile_qr_scan"}, "is_disabled": 0, "type": "electric_scooter", "is_reserved": 0, "name": "1ef3b964d79f34834597c3b72828d5bd", "lon": -77.04214933333333, "bike_id": "1ef3b964d79f34834597c3b72828d5bd", "lat": 38.907389333333334}, {"fusion_lon": 0.0, "fusion_lat": 0.0, "rental_uris": {"android": "https://dc.lft.to/lastmile_qr_scan", "ios": "https://dc.lft.to/lastmile_qr_scan"}, "is_disabled": 0, "type": "electric_scooter", "is_reserved": 0, "name": "e7ceba6c59154e1aa423f1f2c4a0deea", "lon": -77.00728066666667, "bike_id": "e7ceba6c59154e1aa423f1f2c4a0deea", "lat": 38.87660616666667}, {"fusion_lon": 0.0, "fusion_lat": 0.0, "rental_uris": {"android": "https://dc.lft.to/lastmile_qr_scan", "ios": "https://dc.lft.to/lastmile_qr_scan"}, "is_disabled": 0, "type": "electric_scooter", "is_reserved": 0, "name": "9f180fe7057c90a1aaa0a924445e20d1", "lon": -77.00893116666667, "bike_id": "9f180fe7057c90a1aaa0a924445e20d1", "lat": 38.92330116666667}, {"fusion_lon": 0.0, "fusion_lat": 0.0, "rental_uris": {"android": "https://dc.lft.to/lastmile_qr_scan", "ios": "https://dc.lft.to/lastmile_qr_scan"}, "is_disabled": 0, "type": "electric_scooter", "is_reserved": 0, "name": "9a2117989c2c629888599b686f518d6e", "lon": -76.9293465, "bike_id": "9a2117989c2c629888599b686f518d6e", "lat": 38.900965166666666}, {"fusion_lon": 0.0, "fusion_lat": 0.0, "rental_uris": {"android": "https://dc.lft.to/lastmile_qr_scan", "ios": "https://dc.lft.to/lastmile_qr_scan"}, "is_disabled": 0, "type": "electric_scooter", "is_reserved": 0, "name": "df2f7f9ab9c66c90788a0635545bdc67", "lon": -77.03379983333333, "bike_id": "df2f7f9ab9c66c90788a0635545bdc67", "lat": 38.9224355}, {"fusion_lon": 0.0, "fusion_lat": 0.0, "rental_uris": {"android": "https://dc.lft.to/lastmile_qr_scan", "ios": "https://dc.lft.to/lastmile_qr_scan"}, "is_disabled": 0, "type": "electric_scooter", "is_reserved": 0, "name": "e6d394c0b5a0ed91ea95701f72685644", "lon": -77.02149666666666, "bike_id": "e6d394c0b5a0ed91ea95701f72685644", "lat": 38.90217766666667}, {"fusion_lon": 0.0, "fusion_lat": 0.0, "rental_uris": {"android": "https://dc.lft.to/lastmile_qr_scan", "ios": "https://dc.lft.to/lastmile_qr_scan"}, "is_disabled": 0, "type": "electric_scooter", "is_reserved": 0, "name": "b00d42263bd07724e8d212ced0075b49", "lon": -77.04496533333334, "bike_id": "b00d42263bd07724e8d212ced0075b49", "lat": 38.899422333333334}, {"fusion_lon": 0.0, "fusion_lat": 0.0, "rental_uris": {"android": "https://dc.lft.to/lastmile_qr_scan", "ios": "https://dc.lft.to/lastmile_qr_scan"}, "is_disabled": 0, "type": "electric_scooter", "is_reserved": 0, "name": "eabb7d09a5c66d6d1b43d6021e6e4809", "lon": -76.992187, "bike_id": "eabb7d09a5c66d6d1b43d6021e6e4809", "lat": 38.897377166666665}, {"fusion_lon": 0.0, "fusion_lat": 0.0, "rental_uris": {"android": "https://dc.lft.to/lastmile_qr_scan", "ios": "https://dc.lft.to/lastmile_qr_scan"}, "is_disabled": 0, "type": "electric_scooter", "is_reserved": 0, "name": "c06ab358c3eddb2fad9398220aced406", "lon": -77.039283, "bike_id": "c06ab358c3eddb2fad9398220aced406", "lat": 38.9248155}, {"fusion_lon": 0.0, "fusion_lat": 0.0, "rental_uris": {"android": "https://dc.lft.to/lastmile_qr_scan", "ios": "https://dc.lft.to/lastmile_qr_scan"}, "is_disabled": 0, "type": "electric_scooter", "is_reserved": 0, "name": "9d07c2fb99a9dbd96eb47328864d844e", "lon": -77.02330716666667, "bike_id": "9d07c2fb99a9dbd96eb47328864d844e", "lat": 38.879242833333336}, {"fusion_lon": 0.0, "fusion_lat": 0.0, "rental_uris": {"android": "https://dc.lft.to/lastmile_qr_scan", "ios": "https://dc.lft.to/lastmile_qr_scan"}, "is_disabled": 0, "type": "electric_scooter", "is_reserved": 0, "name": "ac5c2ee325b3e38f635a6a350094d81f", "lon": -77.03916483333333, "bike_id": "ac5c2ee325b3e38f635a6a350094d81f", "lat": 38.90821483333333}, {"fusion_lon": 0.0, "fusion_lat": 0.0, "rental_uris": {"android": "https://dc.lft.to/lastmile_qr_scan", "ios": "https://dc.lft.to/lastmile_qr_scan"}, "is_disabled": 0, "type": "electric_scooter", "is_reserved": 0, "name": "6de7dfa2903dfa7885820b35415e0627", "lon": -77.00142666666666, "bike_id": "6de7dfa2903dfa7885820b35415e0627", "lat": 38.8947545}, {"fusion_lon": 0.0, "fusion_lat": 0.0, "rental_uris": {"android": "https://dc.lft.to/lastmile_qr_scan", "ios": "https://dc.lft.to/lastmile_qr_scan"}, "is_disabled": 0, "type": "electric_scooter", "is_reserved": 0, "name": "21e188bd158754087f45584f5aceeaaa", "lon": -77.008951, "bike_id": "21e188bd158754087f45584f5aceeaaa", "lat": 38.9147375}, {"fusion_lon": 0.0, "fusion_lat": 0.0, "rental_uris": {"android": "https://dc.lft.to/lastmile_qr_scan", "ios": "https://dc.lft.to/lastmile_qr_scan"}, "is_disabled": 0, "type": "electric_scooter", "is_reserved": 0, "name": "a1763658ffec36b92aca882e358114e4", "lon": -77.02645033333333, "bike_id": "a1763658ffec36b92aca882e358114e4", "lat": 38.89224033333333}, {"fusion_lon": 0.0, "fusion_lat": 0.0, "rental_uris": {"android": "https://dc.lft.to/lastmile_qr_scan", "ios": "https://dc.lft.to/lastmile_qr_scan"}, "is_disabled": 0, "type": "electric_scooter", "is_reserved": 0, "name": "d54a6bab8f2caa88d38f6be90f3f3cea", "lon": -77.02650983333334, "bike_id": "d54a6bab8f2caa88d38f6be90f3f3cea", "lat": 38.899648666666664}, {"fusion_lon": 0.0, "fusion_lat": 0.0, "rental_uris": {"android": "https://dc.lft.to/lastmile_qr_scan", "ios": "https://dc.lft.to/lastmile_qr_scan"}, "is_disabled": 0, "type": "electric_scooter", "is_reserved": 0, "name": "39afdf0a2b7e66e4eb62ba5c9d3a837b", "lon": -77.02812533333334, "bike_id": "39afdf0a2b7e66e4eb62ba5c9d3a837b", "lat": 38.8995145}, {"fusion_lon": 0.0, "fusion_lat": 0.0, "rental_uris": {"android": "https://dc.lft.to/lastmile_qr_scan", "ios": "https://dc.lft.to/lastmile_qr_scan"}, "is_disabled": 0, "type": "electric_scooter", "is_reserved": 0, "name": "ce74ab9150a28c9b9046fe5af1a8d9f2", "lon": -77.02645433333333, "bike_id": "ce74ab9150a28c9b9046fe5af1a8d9f2", "lat": 38.8973165}, {"fusion_lon": 0.0, "fusion_lat": 0.0, "rental_uris": {"android": "https://dc.lft.to/lastmile_qr_scan", "ios": "https://dc.lft.to/lastmile_qr_scan"}, "is_disabled": 0, "type": "electric_scooter", "is_reserved": 0, "name": "1f5f4a724f8cea5d2c174f292de5c868", "lon": -77.02505433333333, "bike_id": "1f5f4a724f8cea5d2c174f292de5c868", "lat": 38.8803505}, {"fusion_lon": 0.0, "fusion_lat": 0.0, "rental_uris": {"android": "https://dc.lft.to/lastmile_qr_scan", "ios": "https://dc.lft.to/lastmile_qr_scan"}, "is_disabled": 0, "type": "electric_scooter", "is_reserved": 0, "name": "98bc8132ba42564be02cc8678f96fafa", "lon": -76.93059533333333, "bike_id": "98bc8132ba42564be02cc8678f96fafa", "lat": 38.89563116666667}, {"fusion_lon": 0.0, "fusion_lat": 0.0, "rental_uris": {"android": "https://dc.lft.to/lastmile_qr_scan", "ios": "https://dc.lft.to/lastmile_qr_scan"}, "is_disabled": 0, "type": "electric_scooter", "is_reserved": 0, "name": "b940d40241e525a70bb45d7f924b809c", "lon": -77.02225616666666, "bike_id": "b940d40241e525a70bb45d7f924b809c", "lat": 38.91270733333333}, {"fusion_lon": 0.0, "fusion_lat": 0.0, "rental_uris": {"android": "https://dc.lft.to/lastmile_qr_scan", "ios": "https://dc.lft.to/lastmile_qr_scan"}, "is_disabled": 0, "type": "electric_scooter", "is_reserved": 0, "name": "a8bacf182b033850d53f2222c799f9be", "lon": -77.01605316666667, "bike_id": "a8bacf182b033850d53f2222c799f9be", "lat": 38.89958683333333}, {"fusion_lon": 0.0, "fusion_lat": 0.0, "rental_uris": {"android": "https://dc.lft.to/lastmile_qr_scan", "ios": "https://dc.lft.to/lastmile_qr_scan"}, "is_disabled": 0, "type": "electric_scooter", "is_reserved": 0, "name": "b78b394739c66d0930ef29d39f9a74e3", "lon": -77.05030833333333, "bike_id": "b78b394739c66d0930ef29d39f9a74e3", "lat": 38.9020965}, {"fusion_lon": 0.0, "fusion_lat": 0.0, "rental_uris": {"android": "https://dc.lft.to/lastmile_qr_scan", "ios": "https://dc.lft.to/lastmile_qr_scan"}, "is_disabled": 0, "type": "electric_scooter", "is_reserved": 0, "name": "1f921da98b8e1828a8c51812dfad7bec", "lon": -77.0022465, "bike_id": "1f921da98b8e1828a8c51812dfad7bec", "lat": 38.88511183333333}, {"fusion_lon": 0.0, "fusion_lat": 0.0, "rental_uris": {"android": "https://dc.lft.to/lastmile_qr_scan", "ios": "https://dc.lft.to/lastmile_qr_scan"}, "is_disabled": 0, "type": "electric_scooter", "is_reserved": 0, "name": "b7f30d2e981513844a30c08fd6b091e9", "lon": -77.02208416666667, "bike_id": "b7f30d2e981513844a30c08fd6b091e9", "lat": 38.903706666666665}, {"fusion_lon": 0.0, "fusion_lat": 0.0, "rental_uris": {"android": "https://dc.lft.to/lastmile_qr_scan", "ios": "https://dc.lft.to/lastmile_qr_scan"}, "is_disabled": 0, "type": "electric_scooter", "is_reserved": 0, "name": "2590513b923623e14413fc4ce09f93b7", "lon": -76.9974555, "bike_id": "2590513b923623e14413fc4ce09f93b7", "lat": 38.899445166666666}, {"fusion_lon": 0.0, "fusion_lat": 0.0, "rental_uris": {"android": "https://dc.lft.to/lastmile_qr_scan", "ios": "https://dc.lft.to/lastmile_qr_scan"}, "is_disabled": 0, "type": "electric_bike", "is_reserved": 0, "name": "16e0d42ee0d254baae8d6b9a8b954dac", "lon": -77.06083283333334, "bike_id": "16e0d42ee0d254baae8d6b9a8b954dac", "lat": 38.80440633333333}, {"fusion_lon": 0.0, "fusion_lat": 0.0, "rental_uris": {"android": "https://dc.lft.to/lastmile_qr_scan", "ios": "https://dc.lft.to/lastmile_qr_scan"}, "is_disabled": 0, "type": "electric_scooter", "is_reserved": 0, "name": "b5b661dad60757660e5c0e4a6a0cc8a6", "lon": -77.01950683333334, "bike_id": "b5b661dad60757660e5c0e4a6a0cc8a6", "lat": 38.92364216666667}, {"fusion_lon": 0.0, "fusion_lat": 0.0, "rental_uris": {"android": "https://dc.lft.to/lastmile_qr_scan", "ios": "https://dc.lft.to/lastmile_qr_scan"}, "is_disabled": 0, "type": "electric_scooter", "is_reserved": 0, "name": "f8766b0bb19d056e9d89295518014563", "lon": -77.02121583333333, "bike_id": "f8766b0bb19d056e9d89295518014563", "lat": 38.93106483333333}, {"fusion_lon": 0.0, "fusion_lat": 0.0, "rental_uris": {"android": "https://dc.lft.to/lastmile_qr_scan", "ios": "https://dc.lft.to/lastmile_qr_scan"}, "is_disabled": 0, "type": "electric_scooter", "is_reserved": 0, "name": "d9c495d95836003b931158c1c76f6fe5", "lon": -77.021034, "bike_id": "d9c495d95836003b931158c1c76f6fe5", "lat": 38.92142483333333}, {"fusion_lon": 0.0, "fusion_lat": 0.0, "rental_uris": {"android": "https://dc.lft.to/lastmile_qr_scan", "ios": "https://dc.lft.to/lastmile_qr_scan"}, "is_disabled": 0, "type": "electric_scooter", "is_reserved": 0, "name": "df6b6e88d900e77200c2a46e05c3614c", "lon": -77.04503833333334, "bike_id": "df6b6e88d900e77200c2a46e05c3614c", "lat": 38.89249683333333}, {"fusion_lon": 0.0, "fusion_lat": 0.0, "rental_uris": {"android": "https://dc.lft.to/lastmile_qr_scan", "ios": "https://dc.lft.to/lastmile_qr_scan"}, "is_disabled": 0, "type": "electric_scooter", "is_reserved": 0, "name": "369817d2790d30807932cdea6b3d3ca6", "lon": -77.04939616666667, "bike_id": "369817d2790d30807932cdea6b3d3ca6", "lat": 38.9033365}, {"fusion_lon": 0.0, "fusion_lat": 0.0, "rental_uris": {"android": "https://dc.lft.to/lastmile_qr_scan", "ios": "https://dc.lft.to/lastmile_qr_scan"}, "is_disabled": 0, "type": "electric_bike", "is_reserved": 0, "name": "c5013ee2aaf3671fdd4584e5c67117a3", "lon": -76.99309783333334, "bike_id": "c5013ee2aaf3671fdd4584e5c67117a3", "lat": 38.94630883333333}, {"fusion_lon": 0.0, "fusion_lat": 0.0, "rental_uris": {"android": "https://dc.lft.to/lastmile_qr_scan", "ios": "https://dc.lft.to/lastmile_qr_scan"}, "is_disabled": 0, "type": "electric_scooter", "is_reserved": 0, "name": "a81da54d1e17ddc56def98b007cec6d0", "lon": -77.04501, "bike_id": "a81da54d1e17ddc56def98b007cec6d0", "lat": 38.89948166666667}, {"fusion_lon": 0.0, "fusion_lat": 0.0, "rental_uris": {"android": "https://dc.lft.to/lastmile_qr_scan", "ios": "https://dc.lft.to/lastmile_qr_scan"}, "is_disabled": 0, "type": "electric_scooter", "is_reserved": 0, "name": "95c0fb9a2271e3459590a644ef7e9ff0", "lon": -77.0102465, "bike_id": "95c0fb9a2271e3459590a644ef7e9ff0", "lat": 38.9165235}, {"fusion_lon": 0.0, "fusion_lat": 0.0, "rental_uris": {"android": "https://dc.lft.to/lastmile_qr_scan", "ios": "https://dc.lft.to/lastmile_qr_scan"}, "is_disabled": 0, "type": "electric_scooter", "is_reserved": 0, "name": "971bb298036a240dd69db881496732df", "lon": -77.02132816666666, "bike_id": "971bb298036a240dd69db881496732df", "lat": 38.92333083333333}, {"fusion_lon": 0.0, "fusion_lat": 0.0, "rental_uris": {"android": "https://dc.lft.to/lastmile_qr_scan", "ios": "https://dc.lft.to/lastmile_qr_scan"}, "is_disabled": 0, "type": "electric_scooter", "is_reserved": 0, "name": "8d8f4745e0527b230a823184a24115a6", "lon": -77.00985666666666, "bike_id": "8d8f4745e0527b230a823184a24115a6", "lat": 38.87288566666667}, {"fusion_lon": 0.0, "fusion_lat": 0.0, "rental_uris": {"android": "https://dc.lft.to/lastmile_qr_scan", "ios": "https://dc.lft.to/lastmile_qr_scan"}, "is_disabled": 0, "type": "electric_scooter", "is_reserved": 0, "name": "8419404e6b571e4c6ed68d9fee08ba25", "lon": -77.04188233333333, "bike_id": "8419404e6b571e4c6ed68d9fee08ba25", "lat": 38.920504}, {"fusion_lon": 0.0, "fusion_lat": 0.0, "rental_uris": {"android": "https://dc.lft.to/lastmile_qr_scan", "ios": "https://dc.lft.to/lastmile_qr_scan"}, "is_disabled": 0, "type": "electric_bike", "is_reserved": 0, "name": "3ac5c9ea0ec1b564434543d1b73118b7", "lon": -76.93867416666667, "bike_id": "3ac5c9ea0ec1b564434543d1b73118b7", "lat": 38.956118333333336}, {"fusion_lon": 0.0, "fusion_lat": 0.0, "rental_uris": {"android": "https://dc.lft.to/lastmile_qr_scan", "ios": "https://dc.lft.to/lastmile_qr_scan"}, "is_disabled": 0, "type": "electric_scooter", "is_reserved": 0, "name": "2b16eb8c58ddfba859215c75dbe68d3d", "lon": -76.945776, "bike_id": "2b16eb8c58ddfba859215c75dbe68d3d", "lat": 38.899198}, {"fusion_lon": 0.0, "fusion_lat": 0.0, "rental_uris": {"android": "https://dc.lft.to/lastmile_qr_scan", "ios": "https://dc.lft.to/lastmile_qr_scan"}, "is_disabled": 0, "type": "electric_bike", "is_reserved": 0, "name": "b0c4665fcc2c03db9734d9e4737046da", "lon": -77.03881116666666, "bike_id": "b0c4665fcc2c03db9734d9e4737046da", "lat": 39.026225833333335}, {"fusion_lon": 0.0, "fusion_lat": 0.0, "rental_uris": {"android": "https://dc.lft.to/lastmile_qr_scan", "ios": "https://dc.lft.to/lastmile_qr_scan"}, "is_disabled": 0, "type": "electric_scooter", "is_reserved": 0, "name": "0206bab602f5d405da16b832fa8c2482", "lon": -77.0460035, "bike_id": "0206bab602f5d405da16b832fa8c2482", "lat": 38.921702}, {"fusion_lon": 0.0, "fusion_lat": 0.0, "rental_uris": {"android": "https://dc.lft.to/lastmile_qr_scan", "ios": "https://dc.lft.to/lastmile_qr_scan"}, "is_disabled": 0, "type": "electric_scooter", "is_reserved": 0, "name": "8ca0fd8d94de7412ad97b19828c9f9b8", "lon": -77.0051865, "bike_id": "8ca0fd8d94de7412ad97b19828c9f9b8", "lat": 38.90737266666667}, {"fusion_lon": 0.0, "fusion_lat": 0.0, "rental_uris": {"android": "https://dc.lft.to/lastmile_qr_scan", "ios": "https://dc.lft.to/lastmile_qr_scan"}, "is_disabled": 0, "type": "electric_bike", "is_reserved": 0, "name": "d1556067573abb68c2bdef90396bf834", "lon": -77.127394, "bike_id": "d1556067573abb68c2bdef90396bf834", "lat": 38.895589}, {"fusion_lon": 0.0, "fusion_lat": 0.0, "rental_uris": {"android": "https://dc.lft.to/lastmile_qr_scan", "ios": "https://dc.lft.to/lastmile_qr_scan"}, "is_disabled": 0, "type": "electric_scooter", "is_reserved": 0, "name": "5b46fd850f7680dc7aea4ca9689354ca", "lon": -77.00378683333334, "bike_id": "5b46fd850f7680dc7aea4ca9689354ca", "lat": 38.8991785}, {"fusion_lon": 0.0, "fusion_lat": 0.0, "rental_uris": {"android": "https://dc.lft.to/lastmile_qr_scan", "ios": "https://dc.lft.to/lastmile_qr_scan"}, "is_disabled": 0, "type": "electric_scooter", "is_reserved": 0, "name": "19b17e10e0d3232ba8cda3ca853e533a", "lon": -77.02863983333333, "bike_id": "19b17e10e0d3232ba8cda3ca853e533a", "lat": 38.913085833333334}, {"fusion_lon": 0.0, "fusion_lat": 0.0, "rental_uris": {"android": "https://dc.lft.to/lastmile_qr_scan", "ios": "https://dc.lft.to/lastmile_qr_scan"}, "is_disabled": 0, "type": "electric_scooter", "is_reserved": 0, "name": "d2d1ec97fb75d0533fdc0fb55c5f6850", "lon": -77.00216, "bike_id": "d2d1ec97fb75d0533fdc0fb55c5f6850", "lat": 38.911617666666665}, {"fusion_lon": 0.0, "fusion_lat": 0.0, "rental_uris": {"android": "https://dc.lft.to/lastmile_qr_scan", "ios": "https://dc.lft.to/lastmile_qr_scan"}, "is_disabled": 0, "type": "electric_scooter", "is_reserved": 0, "name": "f899b82a946e8678c5427b7cce2cadc2", "lon": -77.02091333333334, "bike_id": "f899b82a946e8678c5427b7cce2cadc2", "lat": 38.917758666666664}, {"fusion_lon": 0.0, "fusion_lat": 0.0, "rental_uris": {"android": "https://dc.lft.to/lastmile_qr_scan", "ios": "https://dc.lft.to/lastmile_qr_scan"}, "is_disabled": 0, "type": "electric_scooter", "is_reserved": 0, "name": "651b83680d5779e95f10642522964feb", "lon": -77.07247983333333, "bike_id": "651b83680d5779e95f10642522964feb", "lat": 38.93956333333333}, {"fusion_lon": 0.0, "fusion_lat": 0.0, "rental_uris": {"android": "https://dc.lft.to/lastmile_qr_scan", "ios": "https://dc.lft.to/lastmile_qr_scan"}, "is_disabled": 0, "type": "electric_scooter", "is_reserved": 0, "name": "7627ad5578c1d8907ec3cdd45551534e", "lon": -76.99161416666666, "bike_id": "7627ad5578c1d8907ec3cdd45551534e", "lat": 38.90127866666667}, {"fusion_lon": 0.0, "fusion_lat": 0.0, "rental_uris": {"android": "https://dc.lft.to/lastmile_qr_scan", "ios": "https://dc.lft.to/lastmile_qr_scan"}, "is_disabled": 0, "type": "electric_scooter", "is_reserved": 0, "name": "dee9ee8cd36a4f4f2b3dc5c4b0af297e", "lon": -77.00289666666667, "bike_id": "dee9ee8cd36a4f4f2b3dc5c4b0af297e", "lat": 38.8935895}, {"fusion_lon": 0.0, "fusion_lat": 0.0, "rental_uris": {"android": "https://dc.lft.to/lastmile_qr_scan", "ios": "https://dc.lft.to/lastmile_qr_scan"}, "is_disabled": 0, "type": "electric_scooter", "is_reserved": 0, "name": "3e80c658df18176e3dea7b5f30b47f27", "lon": -77.01668666666667, "bike_id": "3e80c658df18176e3dea7b5f30b47f27", "lat": 38.9204185}, {"fusion_lon": 0.0, "fusion_lat": 0.0, "rental_uris": {"android": "https://dc.lft.to/lastmile_qr_scan", "ios": "https://dc.lft.to/lastmile_qr_scan"}, "is_disabled": 0, "type": "electric_scooter", "is_reserved": 0, "name": "53291ed9aeb4b2c92b15e3d0dc08ab6f", "lon": -77.023504, "bike_id": "53291ed9aeb4b2c92b15e3d0dc08ab6f", "lat": 38.929164}, {"fusion_lon": 0.0, "fusion_lat": 0.0, "rental_uris": {"android": "https://dc.lft.to/lastmile_qr_scan", "ios": "https://dc.lft.to/lastmile_qr_scan"}, "is_disabled": 0, "type": "electric_scooter", "is_reserved": 0, "name": "3eeb7cf2db64d37a230f6ede7a0258c0", "lon": -77.023243, "bike_id": "3eeb7cf2db64d37a230f6ede7a0258c0", "lat": 38.901570666666665}, {"fusion_lon": 0.0, "fusion_lat": 0.0, "rental_uris": {"android": "https://dc.lft.to/lastmile_qr_scan", "ios": "https://dc.lft.to/lastmile_qr_scan"}, "is_disabled": 0, "type": "electric_scooter", "is_reserved": 0, "name": "32ddb83260b63cdc6fabc56294f53a06", "lon": -77.03562683333334, "bike_id": "32ddb83260b63cdc6fabc56294f53a06", "lat": 38.90474733333333}, {"fusion_lon": 0.0, "fusion_lat": 0.0, "rental_uris": {"android": "https://dc.lft.to/lastmile_qr_scan", "ios": "https://dc.lft.to/lastmile_qr_scan"}, "is_disabled": 0, "type": "electric_scooter", "is_reserved": 0, "name": "63bb12db7f012a1c108709fdc4a3252c", "lon": -77.06272766666666, "bike_id": "63bb12db7f012a1c108709fdc4a3252c", "lat": 38.92096266666667}, {"fusion_lon": 0.0, "fusion_lat": 0.0, "rental_uris": {"android": "https://dc.lft.to/lastmile_qr_scan", "ios": "https://dc.lft.to/lastmile_qr_scan"}, "is_disabled": 0, "type": "electric_scooter", "is_reserved": 0, "name": "114ba76c52769151ccb837cb039bc8e8", "lon": -77.024671, "bike_id": "114ba76c52769151ccb837cb039bc8e8", "lat": 38.906359}, {"fusion_lon": 0.0, "fusion_lat": 0.0, "rental_uris": {"android": "https://dc.lft.to/lastmile_qr_scan", "ios": "https://dc.lft.to/lastmile_qr_scan"}, "is_disabled": 0, "type": "electric_scooter", "is_reserved": 0, "name": "fc8c894a6827b90db7510f5a2c4b415c", "lon": -77.02563933333333, "bike_id": "fc8c894a6827b90db7510f5a2c4b415c", "lat": 38.89960216666667}, {"fusion_lon": 0.0, "fusion_lat": 0.0, "rental_uris": {"android": "https://dc.lft.to/lastmile_qr_scan", "ios": "https://dc.lft.to/lastmile_qr_scan"}, "is_disabled": 0, "type": "electric_scooter", "is_reserved": 0, "name": "7c5eb32daec7dcf05aa2b1ced65b3ba0", "lon": -77.026986, "bike_id": "7c5eb32daec7dcf05aa2b1ced65b3ba0", "lat": 38.92500833333333}, {"fusion_lon": 0.0, "fusion_lat": 0.0, "rental_uris": {"android": "https://dc.lft.to/lastmile_qr_scan", "ios": "https://dc.lft.to/lastmile_qr_scan"}, "is_disabled": 0, "type": "electric_scooter", "is_reserved": 0, "name": "fd74a5243582a7bd3ad0b0d23a397b41", "lon": -77.0438005, "bike_id": "fd74a5243582a7bd3ad0b0d23a397b41", "lat": 38.934925}, {"fusion_lon": 0.0, "fusion_lat": 0.0, "rental_uris": {"android": "https://dc.lft.to/lastmile_qr_scan", "ios": "https://dc.lft.to/lastmile_qr_scan"}, "is_disabled": 0, "type": "electric_scooter", "is_reserved": 0, "name": "01239c87ee3c5850589ca4a77549f111", "lon": -77.03578733333333, "bike_id": "01239c87ee3c5850589ca4a77549f111", "lat": 38.9080895}, {"fusion_lon": 0.0, "fusion_lat": 0.0, "rental_uris": {"android": "https://dc.lft.to/lastmile_qr_scan", "ios": "https://dc.lft.to/lastmile_qr_scan"}, "is_disabled": 0, "type": "electric_scooter", "is_reserved": 0, "name": "578dcbb98f242070d2588e0b81796f71", "lon": -76.93526183333333, "bike_id": "578dcbb98f242070d2588e0b81796f71", "lat": 38.8789665},