{"data": {"bikes": [{"fusion_lat": 0.0, "bike_id": "2768b169c029b542240eedeed8ccaecf", "fusion_lon": 0.0, "lon": -77.04381216666667, "lat": 38.92092483333333, "is_reserved": 0, "is_disabled": 0, "rental_uris": {"android": "https://dc.lft.to/lastmile_qr_scan", "ios": "https://dc.lft.to/lastmile_qr_scan"}, "name": "2768b169c029b542240eedeed8ccaecf", "type": "electric_scooter"}, {"fusion_lat": 0.0, "bike_id": "a354cf9587a61551e93e63608c43be30", "fusion_lon": 0.0, "lon": -77.00417016666667, "lat": 38.92901766666667, "is_reserved": 0, "is_disabled": 0, "rental_uris": {"android": "https://dc.lft.to/lastmile_qr_scan", "ios": "https://dc.lft.to/lastmile_qr_scan"}, "name": "a354cf9587a61551e93e63608c43be30", "type": "electric_scooter"}, {"fusion_lat": 0.0, "bike_id": "6bc0ad168b428e84bc668a8a9bc9ce78", "fusion_lon": 0.0, "lon": -76.97768283333333, "lat": 38.95150666666667, "is_reserved": 0, "is_disabled": 0, "rental_uris": {"android": "https://dc.lft.to/lastmile_qr_scan", "ios": "https://dc.lft.to/lastmile_qr_scan"}, "name": "6bc0ad168b428e84bc668a8a9bc9ce78", "type": "electric_bike"}, {"fusion_lat": 0.0, "bike_id": "08aad83da9642aa2ae3b23bd11f032d0", "fusion_lon": 0.0, "lon": -77.03408333333333, "lat": 38.9170535, "is_reserved": 0, "is_disabled": 0, "rental_uris": {"android": "https://dc.lft.to/lastmile_qr_scan", "ios": "https://dc.lft.to/lastmile_qr_scan"}, "name": "08aad83da9642aa2ae3b23bd11f032d0", "type": "electric_scooter"}, {"fusion_lat": 0.0, "bike_id": "4302a7eec1d9d3be850e84eeb54ed6ca", "fusion_lon": 0.0, "lon": -77.025914, "lat": 38.941967, "is_reserved": 0, "is_disabled": 0, "rental_uris": {"android": "https://dc.lft.to/lastmile_qr_scan", "ios": "https://dc.lft.to/lastmile_qr_scan"}, "name": "4302a7eec1d9d3be850e84eeb54ed6ca", "type": "electric_scooter"}, {"fusion_lat": 0.0, "bike_id": "885aa578082ab2544957f31fb836c6bf", "fusion_lon": 0.0, "lon": -77.05651716666667, "lat": 38.929637, "is_reserved": 0, "is_disabled": 0, "rental_uris": {"android": "https://dc.lft.to/lastmile_qr_scan", "ios": "https://dc.lft.to/lastmile_qr_scan"}, "name": "885aa578082ab2544957f31fb836c6bf", "type": "electric_bike"}, {"fusion_lat": 0.0, "bike_id": "3c34b97de0c3a257640d7ddc223d405a", "fusion_lon": 0.0, "lon": -77.007308, "lat": 38.88490433333333, "is_reserved": 0, "is_disabled": 0, "rental_uris": {"android": "https://dc.lft.to/lastmile_qr_scan", "ios": "https://dc.lft.to/lastmile_qr_scan"}, "name": "3c34b97de0c3a257640d7ddc223d405a", "type": "electric_scooter"}, {"fusion_lat": 0.0, "bike_id": "9fe03149427dd6c61585805fa0d069a9", "fusion_lon": 0.0, "lon": -77.033268, "lat": 38.909778333333335, "is_reserved": 0, "is_disabled": 0, "rental_uris": {"android": "https://dc.lft.to/lastmile_qr_scan", "ios": "https://dc.lft.to/lastmile_qr_scan"}, "name": "9fe03149427dd6c61585805fa0d069a9", "type": "electric_scooter"}, {"fusion_lat": 0.0, "bike_id": "15f86db436fc918a403c118a6c93131a", "fusion_lon": 0.0, "lon": -77.0363565, "lat": 38.927397666666664, "is_reserved": 0, "is_disabled": 0, "rental_uris": {"android": "https://dc.lft.to/lastmile_qr_scan", "ios": "https://dc.lft.to/lastmile_qr_scan"}, "name": "15f86db436fc918a403c118a6c93131a", "type": "electric_scooter"}, {"fusion_lat": 0.0, "bike_id": "1eb29a1ff54ecee68845ab94e3090967", "fusion_lon": 0.0, "lon": -77.029728, "lat": 38.916798666666665, "is_reserved": 0, "is_disabled": 0, "rental_uris": {"android": "https://dc.lft.to/lastmile_qr_scan", "ios": "https://dc.lft.to/lastmile_qr_scan"}, "name": "1eb29a1ff54ecee68845ab94e3090967", "type": "electric_scooter"}, {"fusion_lat": 0.0, "bike_id": "06f4c4f836cc9dc4916d9c3c0814aa63", "fusion_lon": 0.0, "lon": -77.06331583333333, "lat": 38.94399883333333, "is_reserved": 0, "is_disabled": 0, "rental_uris": {"android": "https://dc.lft.to/lastmile_qr_scan", "ios": "https://dc.lft.to/lastmile_qr_scan"}, "name": "06f4c4f836cc9dc4916d9c3c0814aa63", "type": "electric_scooter"}, {"fusion_lat": 0.0, "bike_id": "020eb869cc9caf3311ff3a36b700db83", "fusion_lon": 0.0, "lon": -77.03883266666666, "lat": 38.92970183333333, "is_reserved": 0, "is_disabled": 0, "rental_uris": {"android": "https://dc.lft.to/lastmile_qr_scan", "ios": "https://dc.lft.to/lastmile_qr_scan"}, "name": "020eb869cc9caf3311ff3a36b700db83", "type": "electric_scooter"}, {"fusion_lat": 0.0, "bike_id": "ca0768d058c87afab20b929c79bf630e", "fusion_lon": 0.0, "lon": -77.03212366666666, "lat": 38.917299, "is_reserved": 0, "is_disabled": 0, "rental_uris": {"android": "https://dc.lft.to/lastmile_qr_scan", "ios": "https://dc.lft.to/lastmile_qr_scan"}, "name": "ca0768d058c87afab20b929c79bf630e", "type": "electric_scooter"}, {"fusion_lat": 0.0, "bike_id": "4dec979943322e2308d863cff2ea32e7", "fusion_lon": 0.0, "lon": -77.0371505, "lat": 38.91104983333334, "is_reserved": 0, "is_disabled": 0, "rental_uris": {"android": "https://dc.lft.to/lastmile_qr_scan", "ios": "https://dc.lft.to/lastmile_qr_scan"}, "name": "4dec979943322e2308d863cff2ea32e7", "type": "electric_scooter"}, {"fusion_lat": 0.0, "bike_id": "0d66133876dc1beae613aeb1fdb7fbfa", "fusion_lon": 0.0, "lon": -77.02811066666666, "lat": 38.911330666666665, "is_reserved": 0, "is_disabled": 0, "rental_uris": {"android": "https://dc.lft.to/lastmile_qr_scan", "ios": "https://dc.lft.to/lastmile_qr_scan"}, "name": "0d66133876dc1beae613aeb1fdb7fbfa", "type": "electric_scooter"}, {"fusion_lat": 0.0, "bike_id": "cacf93c44b862374e78adeb495a1b08d", "fusion_lon": 0.0, "lon": -77.03662066666666, "lat": 38.9228785, "is_reserved": 0, "is_disabled": 0, "rental_uris": {"android": "https://dc.lft.to/lastmile_qr_scan", "ios": "https://dc.lft.to/lastmile_qr_scan"}, "name": "cacf93c44b862374e78adeb495a1b08d", "type": "electric_scooter"}, {"fusion_lat": 0.0, "bike_id": "79853a795506bf995c5444d504638d44", "fusion_lon": 0.0, "lon": -77.009556, "lat": 38.90786633333333, "is_reserved": 0, "is_disabled": 0, "rental_uris": {"android": "https://dc.lft.to/lastmile_qr_scan", "ios": "https://dc.lft.to/lastmile_qr_scan"}, "name": "79853a795506bf995c5444d504638d44", "type": "electric_scooter"}, {"fusion_lat": 0.0, "bike_id": "b228badfafed334e90e67a542d88b50a", "fusion_lon": 0.0, "lon": -77.0020005, "lat": 38.902389666666664, "is_reserved": 0, "is_disabled": 0, "rental_uris": {"android": "https://dc.lft.to/lastmile_qr_scan", "ios": "https://dc.lft.to/lastmile_qr_scan"}, "name": "b228badfafed334e90e67a542d88b50a", "type": "electric_scooter"}, {"fusion_lat": 0.0, "bike_id": "527533999935aca392c1180532ffc198", "fusion_lon": 0.0, "lon": -77.02386, "lat": 38.892316666666666, "is_reserved": 0, "is_disabled": 0, "rental_uris": {"android": "https://dc.lft.to/lastmile_qr_scan", "ios": "https://dc.lft.to/lastmile_qr_scan"}, "name": "527533999935aca392c1180532ffc198", "type": "electric_scooter"}, {"fusion_lat": 0.0, "bike_id": "30899552f8586aff9f0d0a861ac6a65e", "fusion_lon": 0.0, "lon": -77.05687833333333, "lat": 38.864845, "is_reserved": 0, "is_disabled": 0, "rental_uris": {"android": "https://dc.lft.to/lastmile_qr_scan", "ios": "https://dc.lft.to/lastmile_qr_scan"}, "name": "30899552f8586aff9f0d0a861ac6a65e", "type": "electric_bike"}, {"fusion_lat": 0.0, "bike_id": "d2ef6d758d38da369745e4bc1e4f3985", "fusion_lon": 0.0, "lon": -77.00032366666667, "lat": 38.96791866666667, "is_reserved": 0, "is_disabled": 0, "rental_uris": {"android": "https://dc.lft.to/lastmile_qr_scan", "ios": "https://dc.lft.to/lastmile_qr_scan"}, "name": "d2ef6d758d38da369745e4bc1e4f3985", "type": "electric_bike"}, {"fusion_lat": 0.0, "bike_id": "d45efe700726a967f1843cb9dfa6b6a2", "fusion_lon": 0.0, "lon": -77.0299565, "lat": 38.901339166666666, "is_reserved": 0, "is_disabled": 0, "rental_uris": {"android": "https://dc.lft.to/lastmile_qr_scan", "ios": "https://dc.lft.to/lastmile_qr_scan"}, "name": "d45efe700726a967f1843cb9dfa6b6a2", "type": "electric_scooter"}, {"fusion_lat": 0.0, "bike_id": "ac1de3c7c608acc73ff98d7d4635504b", "fusion_lon": 0.0, "lon": -77.0490815, "lat": 38.897281166666666, "is_reserved": 0, "is_disabled": 0, "rental_uris": {"android": "https://dc.lft.to/lastmile_qr_scan", "ios": "https://dc.lft.to/lastmile_qr_scan"}, "name": "ac1de3c7c608acc73ff98d7d4635504b", "type": "electric_scooter"}, {"fusion_lat": 0.0, "bike_id": "40c2080e451d61ed5afc3a7ec2e40458", "fusion_lon": 0.0, "lon": -76.98088783333333, "lat": 38.90704516666667, "is_reserved": 0, "is_disabled": 0, "rental_uris": {"android": "https://dc.lft.to/lastmile_qr_scan", "ios": "https://dc.lft.to/lastmile_qr_scan"}, "name": "40c2080e451d61ed5afc3a7ec2e40458", "type": "electric_scooter"}, {"fusion_lat": 0.0, "bike_id": "3ab22d972e1b00cce78c82ebbe223f8b", "fusion_lon": 0.0, "lon": -77.02672433333333, "lat": 38.916932333333335, "is_reserved": 0, "is_disabled": 0, "rental_uris": {"android": "https://dc.lft.to/lastmile_qr_scan", "ios": "https://dc.lft.to/lastmile_qr_scan"}, "name": "3ab22d972e1b00cce78c82ebbe223f8b", "type": "electric_scooter"}, {"fusion_lat": 0.0, "bike_id": "54f9c7d472fdd7bb89eac2f5d8417405", "fusion_lon": 0.0, "lon": -76.9291875, "lat": 38.89291866666667, "is_reserved": 0, "is_disabled": 0, "rental_uris": {"android": "https://dc.lft.to/lastmile_qr_scan", "ios": "https://dc.lft.to/lastmile_qr_scan"}, "name": "54f9c7d472fdd7bb89eac2f5d8417405", "type": "electric_scooter"}, {"fusion_lat": 0.0, "bike_id": "82f935d351db95e02fc27014243b8478", "fusion_lon": 0.0, "lon": -77.02665833333333, "lat": 38.895469, "is_reserved": 0, "is_disabled": 0, "rental_uris": {"android": "https://dc.lft.to/lastmile_qr_scan", "ios": "https://dc.lft.to/lastmile_qr_scan"}, "name": "82f935d351db95e02fc27014243b8478", "type": "electric_scooter"}, {"fusion_lat": 0.0, "bike_id": "495c4bf6bd5eb72c7a8cd94cbacdc4da", "fusion_lon": 0.0, "lon": -77.04647433333334, "lat": 38.898238, "is_reserved": 0, "is_disabled": 0, "rental_uris": {"android": "https://dc.lft.to/lastmile_qr_scan", "ios": "https://dc.lft.to/lastmile_qr_scan"}, "name": "495c4bf6bd5eb72c7a8cd94cbacdc4da", "type": "electric_scooter"}, {"fusion_lat": 0.0, "bike_id": "c9d6400231f0d8d172d194d8967f8fd4", "fusion_lon": 0.0, "lon": -77.0464845, "lat": 38.90656, "is_reserved": 0, "is_disabled": 0, "rental_uris": {"android": "https://dc.lft.to/lastmile_qr_scan", "ios": "https://dc.lft.to/lastmile_qr_scan"}, "name": "c9d6400231f0d8d172d194d8967f8fd4", "type": "electric_scooter"}, {"fusion_lat": 0.0, "bike_id": "98075fc03f82b3691b9d968e7dd24818", "fusion_lon": 0.0, "lon": -77.0329925, "lat": 38.8981405, "is_reserved": 0, "is_disabled": 0, "rental_uris": {"android": "https://dc.lft.to/lastmile_qr_scan", "ios": "https://dc.lft.to/lastmile_qr_scan"}, "name": "98075fc03f82b3691b9d968e7dd24818", "type": "electric_scooter"}, {"fusion_lat": 0.0, "bike_id": "a3f421aff0fb53ebb6af1498c7e973df", "fusion_lon": 0.0, "lon": -77.108393, "lat": 38.811979666666666, "is_reserved": 0, "is_disabled": 0, "rental_uris": {"android": "https://dc.lft.to/lastmile_qr_scan", "ios": "https://dc.lft.to/lastmile_qr_scan"}, "name": "a3f421aff0fb53ebb6af1498c7e973df", "type": "electric_bike"}, {"fusion_lat": 0.0, "bike_id": "79c9bdda96a8a6db13a326efec0e3713", "fusion_lon": 0.0, "lon": -77.02549933333333, "lat": 38.930836166666666, "is_reserved": 0, "is_disabled": 0, "rental_uris": {"android": "https://dc.lft.to/lastmile_qr_scan", "ios": "https://dc.lft.to/lastmile_qr_scan"}, "name": "79c9bdda96a8a6db13a326efec0e3713", "type": "electric_scooter"}, {"fusion_lat": 0.0, "bike_id": "847836b11bc83ac242fce79f082c2aa9", "fusion_lon": 0.0, "lon": -77.026975, "lat": 38.91801933333333, "is_reserved": 0, "is_disabled": 0, "rental_uris": {"android": "https://dc.lft.to/lastmile_qr_scan", "ios": "https://dc.lft.to/lastmile_qr_scan"}, "name": "847836b11bc83ac242fce79f082c2aa9", "type": "electric_scooter"}, {"fusion_lat": 0.0, "bike_id": "3cfb55ec0073a0ebccb763c90ead1510", "fusion_lon": 0.0, "lon": -76.99007016666667, "lat": 38.865058166666664, "is_reserved": 0, "is_disabled": 0, "rental_uris": {"android": "https://dc.lft.to/lastmile_qr_scan", "ios": "https://dc.lft.to/lastmile_qr_scan"}, "name": "3cfb55ec0073a0ebccb763c90ead1510", "type": "electric_scooter"}, {"fusion_lat": 0.0, "bike_id": "6c842a4d77eba949a215b4ef3e03c546", "fusion_lon": 0.0, "lon": -76.9890895, "lat": 38.86664233333333, "is_reserved": 0, "is_disabled": 0, "rental_uris": {"android": "https://dc.lft.to/lastmile_qr_scan", "ios": "https://dc.lft.to/lastmile_qr_scan"}, "name": "6c842a4d77eba949a215b4ef3e03c546", "type": "electric_scooter"}, {"fusion_lat": 0.0, "bike_id": "4d0b1dea9bb559322e9de64080953b87", "fusion_lon": 0.0, "lon": -77.02383016666667, "lat": 38.8923555, "is_reserved": 0, "is_disabled": 0, "rental_uris": {"android": "https://dc.lft.to/lastmile_qr_scan", "ios": "https://dc.lft.to/lastmile_qr_scan"}, "name": "4d0b1dea9bb559322e9de64080953b87", "type": "electric_scooter"}, {"fusion_lat": 0.0, "bike_id": "20bbb959e6a652e1d5f5b4344fd339a8", "fusion_lon": 0.0, "lon": -77.0073015, "lat": 38.903636666666664, "is_reserved": 0, "is_disabled": 0, "rental_uris": {"android": "https://dc.lft.to/lastmile_qr_scan", "ios": "https://dc.lft.to/lastmile_qr_scan"}, "name": "20bbb959e6a652e1d5f5b4344fd339a8", "type": "electric_scooter"}, {"fusion_lat": 0.0, "bike_id": "17d6c17891719d8465233be004fdfc94", "fusion_lon": 0.0, "lon": -77.03383783333334, "lat": 38.9215935, "is_reserved": 0, "is_disabled": 0, "rental_uris": {"android": "https://dc.lft.to/lastmile_qr_scan", "ios": "https://dc.lft.to/lastmile_qr_scan"}, "name": "17d6c17891719d8465233be004fdfc94", "type": "electric_scooter"}, {"fusion_lat": 0.0, "bike_id": "536f6e5a8cab8b1107a994073d56809b", "fusion_lon": 0.0, "lon": -77.017611, "lat": 38.88726466666667, "is_reserved": 0, "is_disabled": 0, "rental_uris": {"android": "https://dc.lft.to/lastmile_qr_scan", "ios": "https://dc.lft.to/lastmile_qr_scan"}, "name": "536f6e5a8cab8b1107a994073d56809b", "type": "electric_scooter"}, {"fusion_lat": 0.0, "bike_id": "f6c0959c81268652cdbefb2cf44313e7", "fusion_lon": 0.0, "lon": -77.07226533333333, "lat": 38.96808866666667, "is_reserved": 0, "is_disabled": 0, "rental_uris": {"android": "https://dc.lft.to/lastmile_qr_scan", "ios": "https://dc.lft.to/lastmile_qr_scan"}, "name": "f6c0959c81268652cdbefb2cf44313e7", "type": "electric_bike"}, {"fusion_lat": 0.0, "bike_id": "b1becf1f187364d9bf1776bca4a4cc81", "fusion_lon": 0.0, "lon": -77.01953583333334, "lat": 38.92412383333333, "is_reserved": 0, "is_disabled": 0, "rental_uris": {"android": "https://dc.lft.to/lastmile_qr_scan", "ios": "https://dc.lft.to/lastmile_qr_scan"}, "name": "b1becf1f187364d9bf1776bca4a4cc81", "type": "electric_scooter"}, {"fusion_lat": 0.0, "bike_id": "1369f7a7d8acdc89406b9e05a10e55da", "fusion_lon": 0.0, "lon": -77.03913283333333, "lat": 38.92313866666667, "is_reserved": 0, "is_disabled": 0, "rental_uris": {"android": "https://dc.lft.to/lastmile_qr_scan", "ios": "https://dc.lft.to/lastmile_qr_scan"}, "name": "1369f7a7d8acdc89406b9e05a10e55da", "type": "electric_scooter"}, {"fusion_lat": 0.0, "bike_id": "71ebe8e610c5004c2ef3e669119c19a5", "fusion_lon": 0.0, "lon": -76.960894, "lat": 38.91854283333333, "is_reserved": 0, "is_disabled": 0, "rental_uris": {"android": "https://dc.lft.to/lastmile_qr_scan", "ios": "https://dc.lft.to/lastmile_qr_scan"}, "name": "71ebe8e610c5004c2ef3e669119c19a5", "type": "electric_bike"}, {"fusion_lat": 0.0, "bike_id": "6923cd9b25a7af37bbda2319d8b7954e", "fusion_lon": 0.0, "lon": -77.004824, "lat": 38.92816116666667, "is_reserved": 0, "is_disabled": 0, "rental_uris": {"android": "https://dc.lft.to/lastmile_qr_scan", "ios": "https://dc.lft.to/lastmile_qr_scan"}, "name": "6923cd9b25a7af37bbda2319d8b7954e", "type": "electric_bike"}, {"fusion_lat": 0.0, "bike_id": "2cc08bc5c58ab4bb339be688d3c2791b", "fusion_lon": 0.0, "lon": -77.03605316666666, "lat": 38.93684483333333, "is_reserved": 0, "is_disabled": 0, "rental_uris": {"android": "https://dc.lft.to/lastmile_qr_scan", "ios": "https://dc.lft.to/lastmile_qr_scan"}, "name": "2cc08bc5c58ab4bb339be688d3c2791b", "type": "electric_scooter"}, {"fusion_lat": 0.0, "bike_id": "f7c52b3a56107f5be3c1dd1e94961ce2", "fusion_lon": 0.0, "lon": -77.03450983333333, "lat": 38.90944666666667, "is_reserved": 0, "is_disabled": 0, "rental_uris": {"android": "https://dc.lft.to/lastmile_qr_scan", "ios": "https://dc.lft.to/lastmile_qr_scan"}, "name": "f7c52b3a56107f5be3c1dd1e94961ce2", "type": "electric_scooter"}, {"fusion_lat": 0.0, "bike_id": "82352b89f2068aaa0fcde54f0e2e230b", "fusion_lon": 0.0, "lon": -77.03958966666667, "lat": 38.900236, "is_reserved": 0, "is_disabled": 0, "rental_uris": {"android": "https://dc.lft.to/lastmile_qr_scan", "ios": "https://dc.lft.to/lastmile_qr_scan"}, "name": "82352b89f2068aaa0fcde54f0e2e230b", "type": "electric_scooter"}, {"fusion_lat": 0.0, "bike_id": "bb215acdd121dae9fa090d75346b41ff", "fusion_lon": 0.0, "lon": -77.02717116666666, "lat": 38.920309333333336, "is_reserved": 0, "is_disabled": 0, "rental_uris": {"android": "https://dc.lft.to/lastmile_qr_scan", "ios": "https://dc.lft.to/lastmile_qr_scan"}, "name": "bb215acdd121dae9fa090d75346b41ff", "type": "electric_scooter"}, {"fusion_lat": 0.0, "bike_id": "cd41e01d037a7e2e3f657b6e6bce72ad", "fusion_lon": 0.0, "lon": -77.0311915, "lat": 38.912601333333335, "is_reserved": 0, "is_disabled": 0, "rental_uris": {"android": "https://dc.lft.to/lastmile_qr_scan", "ios": "https://dc.lft.to/lastmile_qr_scan"}, "name": "cd41e01d037a7e2e3f657b6e6bce72ad", "type": "electric_scooter"}, {"fusion_lat": 0.0, "bike_id": "8ac92366ac26a6e50cfbd4bb70aee528", "fusion_lon": 0.0, "lon": -76.9913865, "lat": 38.864164, "is_reserved": 0, "is_disabled": 0, "rental_uris": {"android": "https://dc.lft.to/lastmile_qr_scan", "ios": "https://dc.lft.to/lastmile_qr_scan"}, "name": "8ac92366ac26a6e50cfbd4bb70aee528", "type": "electric_scooter"}, {"fusion_lat": 0.0, "bike_id": "401c19a323d92a24f2b28cbbeae4634b", "fusion_lon": 0.0, "lon": -76.96909083333334, "lat": 38.846077666666666, "is_reserved": 0, "is_disabled": 0, "rental_uris": {"android": "https://dc.lft.to/lastmile_qr_scan", "ios": "https://dc.lft.to/lastmile_qr_scan"}, "name": "401c19a323d92a24f2b28cbbeae4634b", "type": "electric_bike"}, {"fusion_lat": 0.0, "bike_id": "13fe7206ee88a0e4241732c174a7224e", "fusion_lon": 0.0, "lon": -77.032162, "lat": 38.892252166666665, "is_reserved": 0, "is_disabled": 0, "rental_uris": {"android": "https://dc.lft.to/lastmile_qr_scan", "ios": "https://dc.lft.to/lastmile_qr_scan"}, "name": "13fe7206ee88a0e4241732c174a7224e", "type": "electric_scooter"}, {"fusion_lat": 0.0, "bike_id": "0650b7024ba36e07ebd1a98d1f704e92", "fusion_lon": 0.0, "lon": -77.115926, "lat": 39.07492466666667, "is_reserved": 0, "is_disabled": 0, "rental_uris": {"android": "https://dc.lft.to/lastmile_qr_scan", "ios": "https://dc.lft.to/lastmile_qr_scan"}, "name": "0650b7024ba36e07ebd1a98d1f704e92", "type": "electric_bike"}, {"fusion_lat": 0.0, "bike_id": "0d63ebc196af8f40fcb0c1668f959d7c", "fusion_lon": 0.0, "lon": -77.01742116666667, "lat": 38.887447, "is_reserved": 0, "is_disabled": 0, "rental_uris": {"android": "https://dc.lft.to/lastmile_qr_scan", "ios": "https://dc.lft.to/lastmile_qr_scan"}, "name": "0d63ebc196af8f40fcb0c1668f959d7c", "type": "electric_scooter"}, {"fusion_lat": 0.0, "bike_id": "9a8b88f5230311ec0d398b963e4a40a1", "fusion_lon": 0.0, "lon": -77.05396283333333, "lat": 38.92785416666667, "is_reserved": 0, "is_disabled": 0, "rental_uris": {"android": "https://dc.lft.to/lastmile_qr_scan", "ios": "https://dc.lft.to/lastmile_qr_scan"}, "name": "9a8b88f5230311ec0d398b963e4a40a1", "type": "electric_scooter"}, {"fusion_lat": 0.0, "bike_id": "e4abb9df70a052af18cb054ff156a06f", "fusion_lon": 0.0, "lon": -77.0224195, "lat": 38.92601533333333, "is_reserved": 0, "is_disabled": 0, "rental_uris": {"android": "https://dc.lft.to/lastmile_qr_scan", "ios": "https://dc.lft.to/lastmile_qr_scan"}, "name": "e4abb9df70a052af18cb054ff156a06f", "type": "electric_scooter"}, {"fusion_lat": 0.0, "bike_id": "392c73dc019b9b553aaed91c6acfd70a", "fusion_lon": 0.0, "lon": -77.04329616666666, "lat": 38.9094205, "is_reserved": 0, "is_disabled": 0, "rental_uris": {"android": "https://dc.lft.to/lastmile_qr_scan", "ios": "https://dc.lft.to/lastmile_qr_scan"}, "name": "392c73dc019b9b553aaed91c6acfd70a", "type": "electric_scooter"}, {"fusion_lat": 0.0, "bike_id": "3e314749a6935266b543f38d91d65198", "fusion_lon": 0.0, "lon": -76.98553866666667, "lat": 38.920107333333334, "is_reserved": 0, "is_disabled": 0, "rental_uris": {"android": "https://dc.lft.to/lastmile_qr_scan", "ios": "https://dc.lft.to/lastmile_qr_scan"}, "name": "3e314749a6935266b543f38d91d65198", "type": "electric_scooter"}, {"fusion_lat": 0.0, "bike_id": "99ffc85c2e7cf019267d612a341d6518", "fusion_lon": 0.0, "lon": -77.02289066666667, "lat": 38.92565616666667, "is_reserved": 0, "is_disabled": 0, "rental_uris": {"android": "https://dc.lft.to/lastmile_qr_scan", "ios": "https://dc.lft.to/lastmile_qr_scan"}, "name": "99ffc85c2e7cf019267d612a341d6518", "type": "electric_scooter"}, {"fusion_lat": 0.0, "bike_id": "18dcdfaf44e4133343ad84e23c67c44c", "fusion_lon": 0.0, "lon": -77.073525, "lat": 38.90994516666667, "is_reserved": 0, "is_disabled": 0, "rental_uris": {"android": "https://dc.lft.to/lastmile_qr_scan", "ios": "https://dc.lft.to/lastmile_qr_scan"}, "name": "18dcdfaf44e4133343ad84e23c67c44c", "type": "electric_scooter"}, {"fusion_lat": 0.0, "bike_id": "a97dd52d4a50aa42793e53b9a2feb334", "fusion_lon": 0.0, "lon": -77.03970283333334, "lat": 38.902613333333335, "is_reserved": 0, "is_disabled": 0, "rental_uris": {"android": "https://dc.lft.to/lastmile_qr_scan", "ios": "https://dc.lft.to/lastmile_qr_scan"}, "name": "a97dd52d4a50aa42793e53b9a2feb334", "type": "electric_scooter"}, {"fusion_lat": 0.0, "bike_id": "56964a01882c2e783f3d323551c3b62b", "fusion_lon": 0.0, "lon": -77.03439233333333, "lat": 38.921485833333335, "is_reserved": 0, "is_disabled": 0, "rental_uris": {"android": "https://dc.lft.to/lastmile_qr_scan", "ios": "https://dc.lft.to/lastmile_qr_scan"}, "name": "56964a01882c2e783f3d323551c3b62b", "type": "electric_scooter"}, {"fusion_lat": 0.0, "bike_id": "3f00d05a66802561bea566655436e2da", "fusion_lon": 0.0, "lon": -77.02837866666667, "lat": 38.9257315, "is_reserved": 0, "is_disabled": 0, "rental_uris": {"android": "https://dc.lft.to/lastmile_qr_scan", "ios": "https://dc.lft.to/lastmile_qr_scan"}, "name": "3f00d05a66802561bea566655436e2da", "type": "electric_scooter"}, {"fusion_lat": 0.0, "bike_id": "714b03c0e63c58a40d0d5669c16c0f41", "fusion_lon": 0.0, "lon": -77.0327705, "lat": 38.904644833333336, "is_reserved": 0, "is_disabled": 0, "rental_uris": {"android": "https://dc.lft.to/lastmile_qr_scan", "ios": "https://dc.lft.to/lastmile_qr_scan"}, "name": "714b03c0e63c58a40d0d5669c16c0f41", "type": "electric_scooter"}, {"fusion_lat": 0.0, "bike_id": "af0b200c0b77235e5a38b0d733e7e9cf", "fusion_lon": 0.0, "lon": -77.043865, "lat": 39.047135, "is_reserved": 0, "is_disabled": 0, "rental_uris": {"android": "https://dc.lft.to/lastmile_qr_scan", "ios": "https://dc.lft.to/lastmile_qr_scan"}, "name": "af0b200c0b77235e5a38b0d733e7e9cf", "type": "electric_bike"}, {"fusion_lat": 0.0, "bike_id": "b9c0202f4fec40e379e2fe92e0ed50f3", "fusion_lon": 0.0, "lon": -77.025077, "lat": 38.93416966666667, "is_reserved": 0, "is_disabled": 0, "rental_uris": {"android": "https://dc.lft.to/lastmile_qr_scan", "ios": "https://dc.lft.to/lastmile_qr_scan"}, "name": "b9c0202f4fec40e379e2fe92e0ed50f3", "type": "electric_bike"}, {"fusion_lat": 0.0, "bike_id": "c50272afb687dac0e903d8e9f6f9396f", "fusion_lon": 0.0, "lon": -77.03760416666667, "lat": 38.9077065, "is_reserved": 0, "is_disabled": 0, "rental_uris": {"android": "https://dc.lft.to/lastmile_qr_scan", "ios": "https://dc.lft.to/lastmile_qr_scan"}, "name": "c50272afb687dac0e903d8e9f6f9396f", "type": "electric_scooter"}, {"fusion_lat": 0.0, "bike_id": "ea5fee2e50a3dad17916c8480ef08eb4", "fusion_lon": 0.0, "lon": -77.0426025, "lat": 38.909823, "is_reserved": 0, "is_disabled": 0, "rental_uris": {"android": "https://dc.lft.to/lastmile_qr_scan", "ios": "https://dc.lft.to/lastmile_qr_scan"}, "name": "ea5fee2e50a3dad17916c8480ef08eb4", "type": "electric_scooter"}, {"fusion_lat": 0.0, "bike_id": "e2752984dc3628c7975192431f348367", "fusion_lon": 0.0, "lon": -77.05038683333333, "lat": 38.90533416666667, "is_reserved": 0, "is_disabled": 0, "rental_uris": {"android": "https://dc.lft.to/lastmile_qr_scan", "ios": "https://dc.lft.to/lastmile_qr_scan"}, "name": "e2752984dc3628c7975192431f348367", "type": "electric_scooter"}, {"fusion_lat": 0.0, "bike_id": "5aa478ccb7c6e87a4a7c5ca43f3c479e", "fusion_lon": 0.0, "lon": -76.99567583333334, "lat": 38.8518095, "is_reserved": 0, "is_disabled": 0, "rental_uris": {"android": "https://dc.lft.to/lastmile_qr_scan", "ios": "https://dc.lft.to/lastmile_qr_scan"}, "name": "5aa478ccb7c6e87a4a7c5ca43f3c479e", "type": "electric_bike"}, {"fusion_lat": 0.0, "bike_id": "3df456f90d7fe34617e4034441cce27e", "fusion_lon": 0.0, "lon": -76.93363366666667, "lat": 38.899175166666666, "is_reserved": 0, "is_disabled": 0, "rental_uris": {"android": "https://dc.lft.to/lastmile_qr_scan", "ios": "https://dc.lft.to/lastmile_qr_scan"}, "name": "3df456f90d7fe34617e4034441cce27e", "type": "electric_scooter"}, {"fusion_lat": 0.0, "bike_id": "fa3058c9020afc10b2d5added7e928d1", "fusion_lon": 0.0, "lon": -76.9748295, "lat": 38.9034795, "is_reserved": 0, "is_disabled": 0, "rental_uris": {"android": "https://dc.lft.to/lastmile_qr_scan", "ios": "https://dc.lft.to/lastmile_qr_scan"}, "name": "fa3058c9020afc10b2d5added7e928d1", "type": "electric_scooter"}, {"fusion_lat": 0.0, "bike_id": "cae1f785c20754eb3779247c95d97e8b", "fusion_lon": 0.0, "lon": -77.05312383333333, "lat": 38.91548616666667, "is_reserved": 0, "is_disabled": 0, "rental_uris": {"android": "https://dc.lft.to/lastmile_qr_scan", "ios": "https://dc.lft.to/lastmile_qr_scan"}, "name": "cae1f785c20754eb3779247c95d97e8b", "type": "electric_scooter"}, {"fusion_lat": 0.0, "bike_id": "8cf660e0a3a3af6513586a4c800c441b", "fusion_lon": 0.0, "lon": -77.01982233333334, "lat": 38.91560283333333, "is_reserved": 0, "is_disabled": 0, "rental_uris": {"android": "https://dc.lft.to/lastmile_qr_scan", "ios": "https://dc.lft.to/lastmile_qr_scan"}, "name": "8cf660e0a3a3af6513586a4c800c441b", "type": "electric_scooter"}, {"fusion_lat": 0.0, "bike_id": "34a6856d20f7f5d601a9388aaacc47ac", "fusion_lon": 0.0, "lon": -76.94881016666666, "lat": 38.8942665, "is_reserved": 0, "is_disabled": 0, "rental_uris": {"android": "https://dc.lft.to/lastmile_qr_scan", "ios": "https://dc.lft.to/lastmile_qr_scan"}, "name": "34a6856d20f7f5d601a9388aaacc47ac", "type": "electric_scooter"}, {"fusion_lat": 0.0, "bike_id": "e4bd1cdfd607fbd4e073b386d7afb55d", "fusion_lon": 0.0, "lon": -77.028909, "lat": 38.93277883333333, "is_reserved": 0, "is_disabled": 0, "rental_uris": {"android": "https://dc.lft.to/lastmile_qr_scan", "ios": "https://dc.lft.to/lastmile_qr_scan"}, "name": "e4bd1cdfd607fbd4e073b386d7afb55d", "type": "electric_scooter"}, {"fusion_lat": 0.0, "bike_id": "018358bfcc9dcd549ec791249d77200b", "fusion_lon": 0.0, "lon": -77.00543083333334, "lat": 38.87456733333333, "is_reserved": 0, "is_disabled": 0, "rental_uris": {"android": "https://dc.lft.to/lastmile_qr_scan", "ios": "https://dc.lft.to/lastmile_qr_scan"}, "name": "018358bfcc9dcd549ec791249d77200b", "type": "electric_scooter"}, {"fusion_lat": 0.0, "bike_id": "52a7d0dede0cc441482ed28f2daa62ca", "fusion_lon": 0.0, "lon": -77.05318833333334, "lat": 38.9064955, "is_reserved": 0, "is_disabled": 0, "rental_uris": {"android": "https://dc.lft.to/lastmile_qr_scan", "ios": "https://dc.lft.to/lastmile_qr_scan"}, "name": "52a7d0dede0cc441482ed28f2daa62ca", "type": "electric_scooter"}, {"fusion_lat": 0.0, "bike_id": "854c0e287a9ae5463b0073b8ea8538cd", "fusion_lon": 0.0, "lon": -77.040082, "lat": 38.907716666666666, "is_reserved": 0, "is_disabled": 0, "rental_uris": {"android": "https://dc.lft.to/lastmile_qr_scan", "ios": "https://dc.lft.to/lastmile_qr_scan"}, "name": "854c0e287a9ae5463b0073b8ea8538cd", "type": "electric_scooter"}, {"fusion_lat": 0.0, "bike_id": "e902bee51fd4159b028a8d454cf32a0b", "fusion_lon": 0.0, "lon": -77.02704566666667, "lat": 38.94988083333333, "is_reserved": 0, "is_disabled": 0, "rental_uris": {"android": "https://dc.lft.to/lastmile_qr_scan", "ios": "https://dc.lft.to/lastmile_qr_scan"}, "name": "e902bee51fd4159b028a8d454cf32a0b", "type": "electric_scooter"}, {"fusion_lat": 0.0, "bike_id": "f9f10c6a27051786a5bc871f4785116f", "fusion_lon": 0.0, "lon": -76.998718, "lat": 38.886403666666666, "is_reserved": 0, "is_disabled": 0, "rental_uris": {"android": "https://dc.lft.to/lastmile_qr_scan", "ios": "https://dc.lft.to/lastmile_qr_scan"}, "name": "f9f10c6a27051786a5bc871f4785116f", "type": "electric_scooter"}, {"fusion_lat": 0.0, "bike_id": "1af98deedefe5094a52e32b2bfe9b677", "fusion_lon": 0.0, "lon": -77.02091583333333, "lat": 38.92912616666667, "is_reserved": 0, "is_disabled": 0, "rental_uris": {"android": "https://dc.lft.to/lastmile_qr_scan", "ios": "https://dc.lft.to/lastmile_qr_scan"}, "name": "1af98deedefe5094a52e32b2bfe9b677", "type": "electric_scooter"}, {"fusion_lat": 0.0, "bike_id": "0f60b0ad74a4aef0d2b452c545767462", "fusion_lon": 0.0, "lon": -77.02741816666666, "lat": 38.93062366666667, "is_reserved": 0, "is_disabled": 0, "rental_uris": {"android": "https://dc.lft.to/lastmile_qr_scan", "ios": "https://dc.lft.to/lastmile_qr_scan"}, "name": "0f60b0ad74a4aef0d2b452c545767462", "type": "electric_scooter"}, {"fusion_lat": 0.0, "bike_id": "2b0cec22833ef7e5bae85ea0d8726f2f", "fusion_lon": 0.0, "lon": -77.04999866666667, "lat": 38.89227733333333, "is_reserved": 0, "is_disabled": 0, "rental_uris": {"android": "https://dc.lft.to/lastmile_qr_scan", "ios": "https://dc.lft.to/lastmile_qr_scan"}, "name": "2b0cec22833ef7e5bae85ea0d8726f2f", "type": "electric_scooter"}, {"fusion_lat": 0.0, "bike_id": "3cfe00b87f32aa11d7b5f69c27165250", "fusion_lon": 0.0, "lon": -76.97857816666667, "lat": 38.907242, "is_reserved": 0, "is_disabled": 0, "rental_uris": {"android": "https://dc.lft.to/lastmile_qr_scan", "ios": "https://dc.lft.to/lastmile_qr_scan"}, "name": "3cfe00b87f32aa11d7b5f69c27165250", "type": "electric_scooter"}, {"fusion_lat": 0.0, "bike_id": "ed5edaa684b9db47e1aa9cf92ca41df9", "fusion_lon": 0.0, "lon": -77.0539875, "lat": 38.927529666666665, "is_reserved": 0, "is_disabled": 0, "rental_uris": {"android": "https://dc.lft.to/lastmile_qr_scan", "ios": "https://dc.lft.to/lastmile_qr_scan"}, "name": "ed5edaa684b9db47e1aa9cf92ca41df9", "type": "electric_scooter"}, {"fusion_lat": 0.0, "bike_id": "29750b86153916b9bb22825a81720f1a", "fusion_lon": 0.0, "lon": -77.035591, "lat": 38.93375733333333, "is_reserved": 0, "is_disabled": 0, "rental_uris": {"android": "https://dc.lft.to/lastmile_qr_scan", "ios": "https://dc.lft.to/lastmile_qr_scan"}, "name": "29750b86153916b9bb22825a81720f1a", "type": "electric_scooter"}, {"fusion_lat": 0.0, "bike_id": "f39f2e3948fe49582044fda984249f3e", "fusion_lon": 0.0, "lon": -77.03359616666667, "lat": 38.9001745, "is_reserved": 0, "is_disabled": 0, "rental_uris": {"android": "https://dc.lft.to/lastmile_qr_scan", "ios": "https://dc.lft.to/lastmile_qr_scan"}, "name": "f39f2e3948fe49582044fda984249f3e", "type": "electric_scooter"}, {"fusion_lat": 0.0, "bike_id": "7f4cbe8d2d276303b17ce39cb1b21cd8", "fusion_lon": 0.0, "lon": -77.0393775, "lat": 38.8988185, "is_reserved": 0, "is_disabled": 0, "rental_uris": {"android": "https://dc.lft.to/lastmile_qr_scan", "ios": "https://dc.lft.to/lastmile_qr_scan"}, "name": "7f4cbe8d2d276303b17ce39cb1b21cd8", "type": "electric_scooter"}, {"fusion_lat": 0.0, "bike_id": "09e7409331d98f69c390439817f1ee96", "fusion_lon": 0.0, "lon": -77.023728, "lat": 38.91780966666666, "is_reserved": 0, "is_disabled": 0, "rental_uris": {"android": "https://dc.lft.to/lastmile_qr_scan", "ios": "https://dc.lft.to/lastmile_qr_scan"}, "name": "09e7409331d98f69c390439817f1ee96", "type": "electric_scooter"}, {"fusion_lat": 0.0, "bike_id": "3724ed6d86b5d1d743135a20ca598992", "fusion_lon": 0.0, "lon": -77.03297866666666, "lat": 38.91053266666667, "is_reserved": 0, "is_disabled": 0, "rental_uris": {"android": "https://dc.lft.to/lastmile_qr_scan", "ios": "https://dc.lft.to/lastmile_qr_scan"}, "name": "3724ed6d86b5d1d743135a20ca598992", "type": "electric_scooter"}, {"fusion_lat": 0.0, "bike_id": "631bd17f895577a8c89b86b56317039c", "fusion_lon": 0.0, "lon": -77.03054483333334, "lat": 38.923739166666664, "is_reserved": 0, "is_disabled": 0, "rental_uris": {"android": "https://dc.lft.to/lastmile_qr_scan", "ios": "https://dc.lft.to/lastmile_qr_scan"}, "name": "631bd17f895577a8c89b86b56317039c", "type": "electric_scooter"}, {"fusion_lat": 0.0, "bike_id": "051852a4207f15665ba8cb5686c9aa1b", "fusion_lon": 0.0, "lon": -77.03445883333333, "lat": 38.90979133333333, "is_reserved": 0, "is_disabled": 0, "rental_uris": {"android": "https://dc.lft.to/lastmile_qr_scan", "ios": "https://dc.lft.to/lastmile_qr_scan"}, "name": "051852a4207f15665ba8cb5686c9aa1b", "type": "electric_scooter"}, {"fusion_lat": 0.0, "bike_id": "3dc1aaa1f8ab3341f8f5333f7f3bc845", "fusion_lon": 0.0, "lon": -76.99596633333333, "lat": 38.95069083333333, "is_reserved": 0, "is_disabled": 0, "rental_uris": {"android": "https://dc.lft.to/lastmile_qr_scan", "ios": "https://dc.lft.to/lastmile_qr_scan"}, "name": "3dc1aaa1f8ab3341f8f5333f7f3bc845", "type": "electric_bike"}, {"fusion_lat": 0.0, "bike_id": "6f679f4d92da442c7e7d262d39883e3c", "fusion_lon": 0.0, "lon": -77.04487716666667, "lat": 38.90523783333333, "is_reserved": 0, "is_disabled": 0, "rental_uris": {"android": "https://dc.lft.to/lastmile_qr_scan", "ios": "https://dc.lft.to/lastmile_qr_scan"}, "name": "6f679f4d92da442c7e7d262d39883e3c", "type": "electric_scooter"}, {"fusion_lat": 0.0, "bike_id": "a90bb52d9ecd9be2c9e6a05d345f7b37", "fusion_lon": 0.0, "lon": -77.02055433333334, "lat": 38.923644333333336, "is_reserved": 0, "is_disabled": 0, "rental_uris": {"android": "https://dc.lft.to/lastmile_qr_scan", "ios": "https://dc.lft.to/lastmile_qr_scan"}, "name": "a90bb52d9ecd9be2c9e6a05d345f7b37", "type": "electric_scooter"}, {"fusion_lat": 0.0, "bike_id": "546231b9e2a1991635711844e6e64ee4", "fusion_lon": 0.0, "lon": -77.03233616666667, "lat": 38.90447183333333, "is_reserved": 0, "is_disabled": 0, "rental_uris": {"android": "https://dc.lft.to/lastmile_qr_scan", "ios": "https://dc.lft.to/lastmile_qr_scan"}, "name": "546231b9e2a1991635711844e6e64ee4", "type": "electric_scooter"}, {"fusion_lat": 0.0, "bike_id": "e3f66099f59746b887192d8f03d390ab", "fusion_lon": 0.0, "lon": -77.02487833333333, "lat": 38.91699716666667, "is_reserved": 0, "is_disabled": 0, "rental_uris": {"android": "https://dc.lft.to/lastmile_qr_scan", "ios": "https://dc.lft.to/lastmile_qr_scan"}, "name": "e3f66099f59746b887192d8f03d390ab", "type": "electric_scooter"}, {"fusion_lat": 0.0, "bike_id": "7069e083b0f5fe9d9a96b7bf6d4e9d1a", "fusion_lon": 0.0, "lon": -77.03176766666667, "lat": 38.90076283333333, "is_reserved": 0, "is_disabled": 0, "rental_uris": {"android": "https://dc.lft.to/lastmile_qr_scan", "ios": "https://dc.lft.to/lastmile_qr_scan"}, "name": "7069e083b0f5fe9d9a96b7bf6d4e9d1a", "type": "electric_scooter"}, {"fusion_lat": 0.0, "bike_id": "90e6dbb17b5d5b198a826cb421a8d122", "fusion_lon": 0.0, "lon": -77.01409416666667, "lat": 38.91479133333333, "is_reserved": 0, "is_disabled": 0, "rental_uris": {"android": "https://dc.lft.to/lastmile_qr_scan", "ios": "https://dc.lft.to/lastmile_qr_scan"}, "name": "90e6dbb17b5d5b198a826cb421a8d122", "type": "electric_scooter"}, {"fusion_lat": 0.0, "bike_id": "fc2332849e50d28aacaf953f8f13d2fa", "fusion_lon": 0.0, "lon": -77.11282533333333, "lat": 39.0475745, "is_reserved": 0, "is_disabled": 0, "rental_uris": {"android": "https://dc.lft.to/lastmile_qr_scan", "ios": "https://dc.lft.to/lastmile_qr_scan"}, "name": "fc2332849e50d28aacaf953f8f13d2fa", "type": "electric_bike"}, {"fusion_lat": 0.0, "bike_id": "4676de6d328703f12a5de26fada9f31e", "fusion_lon": 0.0, "lon": -77.03036566666667, "lat": 38.91699233333333, "is_reserved": 0, "is_disabled": 0, "rental_uris": {"android": "https://dc.lft.to/lastmile_qr_scan", "ios": "https://dc.lft.to/lastmile_qr_scan"}, "name": "4676de6d328703f12a5de26fada9f31e", "type": "electric_scooter"}, {"fusion_lat": 0.0, "bike_id": "8499156145365fef1f29d1a9a5a3698d", "fusion_lon": 0.0, "lon": -77.04467366666667, "lat": 38.91263283333333, "is_reserved": 0, "is_disabled": 0, "rental_uris": {"android": "https://dc.lft.to/lastmile_qr_scan", "ios": "https://dc.lft.to/lastmile_qr_scan"}, "name": "8499156145365fef1f29d1a9a5a3698d", "type": "electric_scooter"}, {"fusion_lat": 0.0, "bike_id": "c0d28818b475304b72742692d16c6f41", "fusion_lon": 0.0, "lon": -77.04398883333333, "lat": 38.90018583333333, "is_reserved": 0, "is_disabled": 0, "rental_uris": {"android": "https://dc.lft.to/lastmile_qr_scan", "ios": "https://dc.lft.to/lastmile_qr_scan"}, "name": "c0d28818b475304b72742692d16c6f41", "type": "electric_scooter"}, {"fusion_lat": 0.0, "bike_id": "abe350426a5559b72b983762fbfe0803", "fusion_lon": 0.0, "lon": -77.02822483333334, "lat": 38.922503666666664, "is_reserved": 0, "is_disabled": 0, "rental_uris": {"android": "https://dc.lft.to/lastmile_qr_scan", "ios": "https://dc.lft.to/lastmile_qr_scan"}, "name": "abe350426a5559b72b983762fbfe0803", "type": "electric_scooter"}, {"fusion_lat": 0.0, "bike_id": "25c639f87745441d9a8efe40ff9378db", "fusion_lon": 0.0, "lon": -77.067045, "lat": 38.91440883333333, "is_reserved": 0, "is_disabled": 0, "rental_uris": {"android": "https://dc.lft.to/lastmile_qr_scan", "ios": "https://dc.lft.to/lastmile_qr_scan"}, "name": "25c639f87745441d9a8efe40ff9378db", "type": "electric_scooter"}, {"fusion_lat": 0.0, "bike_id": "63e10412046d4d515bbc75a7719539cc", "fusion_lon": 0.0, "lon": -77.03275066666667, "lat": 38.91986033333333, "is_reserved": 0, "is_disabled": 0, "rental_uris": {"android": "https://dc.lft.to/lastmile_qr_scan", "ios": "https://dc.lft.to/lastmile_qr_scan"}, "name": "63e10412046d4d515bbc75a7719539cc", "type": "electric_scooter"}, {"fusion_lat": 0.0, "bike_id": "f9bee1ffde021e2cc525dd0abd27eaa9", "fusion_lon": 0.0, "lon": -77.00604366666667, "lat": 38.871826, "is_reserved": 0, "is_disabled": 0, "rental_uris": {"android": "https://dc.lft.to/lastmile_qr_scan", "ios": "https://dc.lft.to/lastmile_qr_scan"}, "name": "f9bee1ffde021e2cc525dd0abd27eaa9", "type": "electric_scooter"}, {"fusion_lat": 0.0, "bike_id": "c8dcf3ec56b2f4db4c987e6623ad23ff", "fusion_lon": 0.0, "lon": -77.02842416666667, "lat": 38.92581166666667, "is_reserved": 0, "is_disabled": 0, "rental_uris": {"android": "https://dc.lft.to/lastmile_qr_scan", "ios": "https://dc.lft.to/lastmile_qr_scan"}, "name": "c8dcf3ec56b2f4db4c987e6623ad23ff", "type": "electric_scooter"}, {"fusion_lat": 0.0, "bike_id": "faf99d0557726fb334aa96768e1a369e", "fusion_lon": 0.0, "lon": -77.03230683333334, "lat": 38.896555166666666, "is_reserved": 0, "is_disabled": 0, "rental_uris": {"android": "https://dc.lft.to/lastmile_qr_scan", "ios": "https://dc.lft.to/lastmile_qr_scan"}, "name": "faf99d0557726fb334aa96768e1a369e", "type": "electric_scooter"}, {"fusion_lat": 0.0, "bike_id": "07118026e5590bc3adfc35f29ccf3b4e", "fusion_lon": 0.0, "lon": -77.0325455, "lat": 38.919858166666664, "is_reserved": 0, "is_disabled": 0, "rental_uris": {"android": "https://dc.lft.to/lastmile_qr_scan", "ios": "https://dc.lft.to/lastmile_qr_scan"}, "name": "07118026e5590bc3adfc35f29ccf3b4e", "type": "electric_scooter"}, {"fusion_lat": 0.0, "bike_id": "55adacef1df1c757cba3ef999dbe540b", "fusion_lon": 0.0, "lon": -77.02288833333333, "lat": 38.9015385, "is_reserved": 0, "is_disabled": 0, "rental_uris": {"android": "https://dc.lft.to/lastmile_qr_scan", "ios": "https://dc.lft.to/lastmile_qr_scan"}, "name": "55adacef1df1c757cba3ef999dbe540b", "type": "electric_scooter"}, {"fusion_lat": 0.0, "bike_id": "3af0859a543daf6a530b23eef8b6ad4f", "fusion_lon": 0.0, "lon": -77.035169, "lat": 38.91590733333334, "is_reserved": 0, "is_disabled": 0, "rental_uris": {"android": "https://dc.lft.to/lastmile_qr_scan", "ios": "https://dc.lft.to/lastmile_qr_scan"}, "name": "3af0859a543daf6a530b23eef8b6ad4f", "type": "electric_scooter"}, {"fusion_lat": 0.0, "bike_id": "6a0327e48de5a48e3954a42783a685d2", "fusion_lon": 0.0, "lon": -77.03261316666666, "lat": 38.938914, "is_reserved": 0, "is_disabled": 0, "rental_uris": {"android": "https://dc.lft.to/lastmile_qr_scan", "ios": "https://dc.lft.to/lastmile_qr_scan"}, "name": "6a0327e48de5a48e3954a42783a685d2", "type": "electric_scooter"}, {"fusion_lat": 0.0, "bike_id": "7785d6a78cb57bce4daa6c8093ffac32", "fusion_lon": 0.0, "lon": -77.0060375, "lat": 38.871814, "is_reserved": 0, "is_disabled": 0, "rental_uris": {"android": "https://dc.lft.to/lastmile_qr_scan", "ios": "https://dc.lft.to/lastmile_qr_scan"}, "name": "7785d6a78cb57bce4daa6c8093ffac32", "type": "electric_scooter"}, {"fusion_lat": 0.0, "bike_id": "bc3f2e405b1ea8bb96effa7ce31b1ac9", "fusion_lon": 0.0, "lon": -77.01484683333334, "lat": 38.91413216666667, "is_reserved": 0, "is_disabled": 0, "rental_uris": {"android": "https://dc.lft.to/lastmile_qr_scan", "ios": "https://dc.lft.to/lastmile_qr_scan"}, "name": "bc3f2e405b1ea8bb96effa7ce31b1ac9", "type": "electric_scooter"}, {"fusion_lat": 0.0, "bike_id": "96cccace151594464d07afcf935330b8", "fusion_lon": 0.0, "lon": -77.04129533333334, "lat": 38.92139433333333, "is_reserved": 0, "is_disabled": 0, "rental_uris": {"android": "https://dc.lft.to/lastmile_qr_scan", "ios": "https://dc.lft.to/lastmile_qr_scan"}, "name": "96cccace151594464d07afcf935330b8", "type": "electric_scooter"}, {"fusion_lat": 0.0, "bike_id": "93354ddec6507fb5d45ce74c08cfaf4d", "fusion_lon": 0.0, "lon": -77.00221183333333, "lat": 38.89738, "is_reserved": 0, "is_disabled": 0, "rental_uris": {"android": "https://dc.lft.to/lastmile_qr_scan", "ios": "https://dc.lft.to/lastmile_qr_scan"}, "name": "93354ddec6507fb5d45ce74c08cfaf4d", "type": "electric_scooter"}, {"fusion_lat": 0.0, "bike_id": "49e690c72aef869db51ca4671d879996", "fusion_lon": 0.0, "lon": -77.03265416666666, "lat": 38.925337166666665, "is_reserved": 0, "is_disabled": 0, "rental_uris": {"android": "https://dc.lft.to/lastmile_qr_scan", "ios": "https://dc.lft.to/lastmile_qr_scan"}, "name": "49e690c72aef869db51ca4671d879996", "type": "electric_scooter"}, {"fusion_lat": 0.0, "bike_id": "16f0bdf768f2d9ce47b7a6bfe403bb1b", "fusion_lon": 0.0, "lon": -76.9993025, "lat": 38.84312533333333, "is_reserved": 0, "is_disabled": 0, "rental_uris": {"android": "https://dc.lft.to/lastmile_qr_scan", "ios": "https://dc.lft.to/lastmile_qr_scan"}, "name": "16f0bdf768f2d9ce47b7a6bfe403bb1b", "type": "electric_scooter"}, {"fusion_lat": 0.0, "bike_id": "fa16a62688972f2c6bf8ccae08d4e92e", "fusion_lon": 0.0, "lon": -77.034168, "lat": 38.919194166666664, "is_reserved": 0, "is_disabled": 0, "rental_uris": {"android": "https://dc.lft.to/lastmile_qr_scan", "ios": "https://dc.lft.to/lastmile_qr_scan"}, "name": "fa16a62688972f2c6bf8ccae08d4e92e", "type": "electric_scooter"}, {"fusion_lat": 0.0, "bike_id": "9ab3897da457300fed23027cc84bf2de", "fusion_lon": 0.0, "lon": -77.06099283333333, "lat": 38.90523866666667, "is_reserved": 0, "is_disabled": 0, "rental_uris": {"android": "https://dc.lft.to/lastmile_qr_scan", "ios": "https://dc.lft.to/lastmile_qr_scan"}, "name": "9ab3897da457300fed23027cc84bf2de", "type": "electric_scooter"}, {"fusion_lat": 0.0, "bike_id": "bcccff545900266ebedf172d7077dca9", "fusion_lon": 0.0, "lon": -77.04647683333333, "lat": 38.91416233333333, "is_reserved": 0, "is_disabled": 0, "rental_uris": {"android": "https://dc.lft.to/lastmile_qr_scan", "ios": "https://dc.lft.to/lastmile_qr_scan"}, "name": "bcccff545900266ebedf172d7077dca9", "type": "electric_scooter"}, {"fusion_lat": 0.0, "bike_id": "2e81f18c98ec59431e6c20e72f16d7e0", "fusion_lon": 0.0, "lon": -77.0325365, "lat": 38.92152883333333, "is_reserved": 0, "is_disabled": 0, "rental_uris": {"android": "https://dc.lft.to/lastmile_qr_scan", "ios": "https://dc.lft.to/lastmile_qr_scan"}, "name": "2e81f18c98ec59431e6c20e72f16d7e0", "type": "electric_scooter"}, {"fusion_lat": 0.0, "bike_id": "0f1e04b7282fe08d9b202d3fb67d9d57", "fusion_lon": 0.0, "lon": -76.9487725, "lat": 38.894261666666665, "is_reserved": 0, "is_disabled": 0, "rental_uris": {"android": "https://dc.lft.to/lastmile_qr_scan", "ios": "https://dc.lft.to/lastmile_qr_scan"}, "name": "0f1e04b7282fe08d9b202d3fb67d9d57", "type": "electric_scooter"}, {"fusion_lat": 0.0, "bike_id": "b681e93ca57b7aeebc123918facc8c52", "fusion_lon": 0.0, "lon": -77.00072083333333, "lat": 38.90080616666667, "is_reserved": 0, "is_disabled": 0, "rental_uris": {"android": "https://dc.lft.to/lastmile_qr_scan", "ios": "https://dc.lft.to/lastmile_qr_scan"}, "name": "b681e93ca57b7aeebc123918facc8c52", "type": "electric_scooter"}, {"fusion_lat": 0.0, "bike_id": "b27763b4298b146f4332934763eb2487", "fusion_lon": 0.0, "lon": -77.02301333333334, "lat": 38.926841833333334, "is_reserved": 0, "is_disabled": 0, "rental_uris": {"android": "https://dc.lft.to/lastmile_qr_scan", "ios": "https://dc.lft.to/lastmile_qr_scan"}, "name": "b27763b4298b146f4332934763eb2487", "type": "electric_scooter"}, {"fusion_lat": 0.0, "bike_id": "5b263c6520cdf68f75b935b7c64122c0", "fusion_lon": 0.0, "lon": -77.02302416666667, "lat": 38.926809666666664, "is_reserved": 0, "is_disabled": 0, "rental_uris": {"android": "https://dc.lft.to/lastmile_qr_scan", "ios": "https://dc.lft.to/lastmile_qr_scan"}, "name": "5b263c6520cdf68f75b935b7c64122c0", "type": "electric_scooter"}, {"fusion_lat": 0.0, "bike_id": "1d2df68986ffda5957bc21694d3c9028", "fusion_lon": 0.0, "lon": -77.0056265, "lat": 38.883139, "is_reserved": 0, "is_disabled": 0, "rental_uris": {"android": "https://dc.lft.to/lastmile_qr_scan", "ios": "https://dc.lft.to/lastmile_qr_scan"}, "name": "1d2df68986ffda5957bc21694d3c9028", "type": "electric_scooter"}, {"fusion_lat": 0.0, "bike_id": "171fd407cb62c2338b6d0570185d8ebe", "fusion_lon": 0.0, "lon": -77.03157533333334, "lat": 38.923739833333336, "is_reserved": 0, "is_disabled": 0, "rental_uris": {"android": "https://dc.lft.to/lastmile_qr_scan", "ios": "https://dc.lft.to/lastmile_qr_scan"}, "name": "171fd407cb62c2338b6d0570185d8ebe", "type": "electric_scooter"}, {"fusion_lat": 0.0, "bike_id": "426c3be82ef31e90a8aee966b79a275c", "fusion_lon": 0.0, "lon": -77.03790583333334, "lat": 38.91537533333333, "is_reserved": 0, "is_disabled": 0, "rental_uris": {"android": "https://dc.lft.to/lastmile_qr_scan", "ios": "https://dc.lft.to/lastmile_qr_scan"}, "name": "426c3be82ef31e90a8aee966b79a275c", "type": "electric_scooter"}, {"fusion_lat": 0.0, "bike_id": "049fed68f3d1ff25edb0835d3b55cf80", "fusion_lon": 0.0, "lon": -77.02769316666667, "lat": 38.892187666666665, "is_reserved": 0, "is_disabled": 0, "rental_uris": {"android": "https://dc.lft.to/lastmile_qr_scan", "ios": "https://dc.lft.to/lastmile_qr_scan"}, "name": "049fed68f3d1ff25edb0835d3b55cf80", "type": "electric_scooter"}, {"fusion_lat": 0.0, "bike_id": "4dd993def160dd2863f37cd08624e972", "fusion_lon": 0.0, "lon": -77.04624583333333, "lat": 38.9155765, "is_reserved": 0, "is_disabled": 0, "rental_uris": {"android": "https://dc.lft.to/lastmile_qr_scan", "ios": "https://dc.lft.to/lastmile_qr_scan"}, "name": "4dd993def160dd2863f37cd08624e972", "type": "electric_scooter"}, {"fusion_lat": 0.0, "bike_id": "e39399a2951041dd8ee7ef55918ba16b", "fusion_lon": 0.0, "lon": -76.99055283333334, "lat": 38.86378116666667, "is_reserved": 0, "is_disabled": 0, "rental_uris": {"android": "https://dc.lft.to/lastmile_qr_scan", "ios": "https://dc.lft.to/lastmile_qr_scan"}, "name": "e39399a2951041dd8ee7ef55918ba16b", "type": "electric_scooter"}, {"fusion_lat": 0.0, "bike_id": "993a55a8479730f9de3952fdedc4188b", "fusion_lon": 0.0, "lon": -77.03247366666666, "lat": 38.92882783333334, "is_reserved": 0, "is_disabled": 0, "rental_uris": {"android": "https://dc.lft.to/lastmile_qr_scan", "ios": "https://dc.lft.to/lastmile_qr_scan"}, "name": "993a55a8479730f9de3952fdedc4188b", "type": "electric_scooter"}, {"fusion_lat": 0.0, "bike_id": "bf716cc3ede366cc0415a061be19ba49", "fusion_lon": 0.0, "lon": -77.04561083333333, "lat": 38.9131185, "is_reserved": 0, "is_disabled": 0, "rental_uris": {"android": "https://dc.lft.to/lastmile_qr_scan", "ios": "https://dc.lft.to/lastmile_qr_scan"}, "name": "bf716cc3ede366cc0415a061be19ba49", "type": "electric_scooter"}, {"fusion_lat": 0.0, "bike_id": "1e5b4ec46238427c678e58821a3858ca", "fusion_lon": 0.0, "lon": -77.01985083333334, "lat": 38.925455666666664, "is_reserved": 0, "is_disabled": 0, "rental_uris": {"android": "https://dc.lft.to/lastmile_qr_scan", "ios": "https://dc.lft.to/lastmile_qr_scan"}, "name": "1e5b4ec46238427c678e58821a3858ca", "type": "electric_bike"}, {"fusion_lat": 0.0, "bike_id": "0c20fabf4b5b9aaf3a7503b3b3020b57", "fusion_lon": 0.0, "lon": -77.02305716666666, "lat": 38.909159833333334, "is_reserved": 0, "is_disabled": 0, "rental_uris": {"android": "https://dc.lft.to/lastmile_qr_scan", "ios": "https://dc.lft.to/lastmile_qr_scan"}, "name": "0c20fabf4b5b9aaf3a7503b3b3020b57", "type": "electric_scooter"}, {"fusion_lat": 0.0, "bike_id": "cb2e5536b1e63d1ff2ca197fee2da12b", "fusion_lon": 0.0, "lon": -77.03067816666666, "lat": 38.90081, "is_reserved": 0, "is_disabled": 0, "rental_uris": {"android": "https://dc.lft.to/lastmile_qr_scan", "ios": "https://dc.lft.to/lastmile_qr_scan"}, "name": "cb2e5536b1e63d1ff2ca197fee2da12b", "type": "electric_scooter"}, {"fusion_lat": 0.0, "bike_id": "52dafd2707375cc2ecf6f50b4b721f5b", "fusion_lon": 0.0, "lon": -77.03804583333333, "lat": 38.930212833333336, "is_reserved": 0, "is_disabled": 0, "rental_uris": {"android": "https://dc.lft.to/lastmile_qr_scan", "ios": "https://dc.lft.to/lastmile_qr_scan"}, "name": "52dafd2707375cc2ecf6f50b4b721f5b", "type": "electric_scooter"}, {"fusion_lat": 0.0, "bike_id": "eeea33af3b8d9f309ac2985a872edd4a", "fusion_lon": 0.0, "lon": -77.04463883333334, "lat": 38.89610583333334, "is_reserved": 0, "is_disabled": 0, "rental_uris": {"android": "https://dc.lft.to/lastmile_qr_scan", "ios": "https://dc.lft.to/lastmile_qr_scan"}, "name": "eeea33af3b8d9f309ac2985a872edd4a", "type": "electric_scooter"}, {"fusion_lat": 0.0, "bike_id": "795c5a0f9f329cf1be25d56008d6ad06", "fusion_lon": 0.0, "lon": -77.03400916666666, "lat": 38.92034916666667, "is_reserved": 0, "is_disabled": 0, "rental_uris": {"android": "https://dc.lft.to/lastmile_qr_scan", "ios": "https://dc.lft.to/lastmile_qr_scan"}, "name": "795c5a0f9f329cf1be25d56008d6ad06", "type": "electric_scooter"}, {"fusion_lat": 0.0, "bike_id": "56f3124c1535cd925c716f9b1f7cc6d4", "fusion_lon": 0.0, "lon": -77.002118, "lat": 38.902279666666665, "is_reserved": 0, "is_disabled": 0, "rental_uris": {"android": "https://dc.lft.to/lastmile_qr_scan", "ios": "https://dc.lft.to/lastmile_qr_scan"}, "name": "56f3124c1535cd925c716f9b1f7cc6d4", "type": "electric_scooter"}, {"fusion_lat": 0.0, "bike_id": "1fd500398a36354c9d3d6863cfe3948a", "fusion_lon": 0.0, "lon": -77.0291005, "lat": 38.9396975, "is_reserved": 0, "is_disabled": 0, "rental_uris": {"android": "https://dc.lft.to/lastmile_qr_scan", "ios": "https://dc.lft.to/lastmile_qr_scan"}, "name": "1fd500398a36354c9d3d6863cfe3948a", "type": "electric_scooter"}, {"fusion_lat": 0.0, "bike_id": "523cb0cca2dfcfa03ec775a3d4e99631", "fusion_lon": 0.0, "lon": -77.0201955, "lat": 38.91398433333333, "is_reserved": 0, "is_disabled": 0, "rental_uris": {"android": "https://dc.lft.to/lastmile_qr_scan", "ios": "https://dc.lft.to/lastmile_qr_scan"}, "name": "523cb0cca2dfcfa03ec775a3d4e99631", "type": "electric_scooter"}, {"fusion_lat": 0.0, "bike_id": "21f2dc7454db14942fa24407db9166f1", "fusion_lon": 0.0, "lon": -77.03951766666667, "lat": 38.90252733333333, "is_reserved": 0, "is_disabled": 0, "rental_uris": {"android": "https://dc.lft.to/lastmile_qr_scan", "ios": "https://dc.lft.to/lastmile_qr_scan"}, "name": "21f2dc7454db14942fa24407db9166f1", "type": "electric_scooter"}, {"fusion_lat": 0.0, "bike_id": "274c09ec5d472670dc67a6127e276bd4", "fusion_lon": 0.0, "lon": -77.07848916666667, "lat": 38.91952533333333, "is_reserved": 0, "is_disabled": 0, "rental_uris": {"android": "https://dc.lft.to/lastmile_qr_scan", "ios": "https://dc.lft.to/lastmile_qr_scan"}, "name": "274c09ec5d472670dc67a6127e276bd4", "type": "electric_bike"}, {"fusion_lat": 0.0, "bike_id": "452ce2a3c5887bc914dc1339a3966546", "fusion_lon": 0.0, "lon": -77.039216, "lat": 38.91830733333333, "is_reserved": 0, "is_disabled": 0, "rental_uris": {"android": "https://dc.lft.to/lastmile_qr_scan", "ios": "https://dc.lft.to/lastmile_qr_scan"}, "name": "452ce2a3c5887bc914dc1339a3966546", "type": "electric_scooter"}, {"fusion_lat": 0.0, "bike_id": "b9acda17f7c3952eb1fea52fe1a17e6c", "fusion_lon": 0.0, "lon": -77.10332183333334, "lat": 38.885527833333335, "is_reserved": 0, "is_disabled": 0, "rental_uris": {"android": "https://dc.lft.to/lastmile_qr_scan", "ios": "https://dc.lft.to/lastmile_qr_scan"}, "name": "b9acda17f7c3952eb1fea52fe1a17e6c", "type": "electric_bike"}, {"fusion_lat": 0.0, "bike_id": "196937ab7bde89d59a2e85a9df0dfbd7", "fusion_lon": 0.0, "lon": -77.076066, "lat": 38.920587166666664, "is_reserved": 0, "is_disabled": 0, "rental_uris": {"android": "https://dc.lft.to/lastmile_qr_scan", "ios": "https://dc.lft.to/lastmile_qr_scan"}, "name": "196937ab7bde89d59a2e85a9df0dfbd7", "type": "electric_scooter"}, {"fusion_lat": 0.0, "bike_id": "7a8c197b3abe1700e8a5d8aecd2f59ad", "fusion_lon": 0.0, "lon": -77.13312983333333, "lat": 38.887206, "is_reserved": 0, "is_disabled": 0, "rental_uris": {"android": "https://dc.lft.to/lastmile_qr_scan", "ios": "https://dc.lft.to/lastmile_qr_scan"}, "name": "7a8c197b3abe1700e8a5d8aecd2f59ad", "type": "electric_bike"}, {"fusion_lat": 0.0, "bike_id": "76779b603cc19bcddbf0fbef5f9c76e3", "fusion_lon": 0.0, "lon": -77.0220665, "lat": 38.92235866666667, "is_reserved": 0, "is_disabled": 0, "rental_uris": {"android": "https://dc.lft.to/lastmile_qr_scan", "ios": "https://dc.lft.to/lastmile_qr_scan"}, "name": "76779b603cc19bcddbf0fbef5f9c76e3", "type": "electric_scooter"}, {"fusion_lat": 0.0, "bike_id": "28043aff3c684b68838e065628377373", "fusion_lon": 0.0, "lon": -76.98091233333334, "lat": 38.90405416666667, "is_reserved": 0, "is_disabled": 0, "rental_uris": {"android": "https://dc.lft.to/lastmile_qr_scan", "ios": "https://dc.lft.to/lastmile_qr_scan"}, "name": "28043aff3c684b68838e065628377373", "type": "electric_scooter"}, {"fusion_lat": 0.0, "bike_id": "451721694b54e98d356866560cc7db47", "fusion_lon": 0.0, "lon": -76.98614483333333, "lat": 38.88285966666667, "is_reserved": 0, "is_disabled": 0, "rental_uris": {"android": "https://dc.lft.to/lastmile_qr_scan", "ios": "https://dc.lft.to/lastmile_qr_scan"}, "name": "451721694b54e98d356866560cc7db47", "type": "electric_scooter"}, {"fusion_lat": 0.0, "bike_id": "3c0e1fbd94a73860ba680b719a754cd1", "fusion_lon": 0.0, "lon": -77.0418225, "lat": 38.892528166666665, "is_reserved": 0, "is_disabled": 0, "rental_uris": {"android": "https://dc.lft.to/lastmile_qr_scan", "ios": "https://dc.lft.to/lastmile_qr_scan"}, "name": "3c0e1fbd94a73860ba680b719a754cd1", "type": "electric_scooter"}, {"fusion_lat": 0.0, "bike_id": "3e25a45892c36334e153be0fdb88036c", "fusion_lon": 0.0, "lon": -77.03552966666666, "lat": 38.924124666666664, "is_reserved": 0, "is_disabled": 0, "rental_uris": {"android": "https://dc.lft.to/lastmile_qr_scan", "ios": "https://dc.lft.to/lastmile_qr_scan"}, "name": "3e25a45892c36334e153be0fdb88036c", "type": "electric_scooter"}, {"fusion_lat": 0.0, "bike_id": "81675991bfca5c26bb60e0b7e6e4a7df", "fusion_lon": 0.0, "lon": -77.116079, "lat": 38.85483133333334, "is_reserved": 0, "is_disabled": 0, "rental_uris": {"android": "https://dc.lft.to/lastmile_qr_scan", "ios": "https://dc.lft.to/lastmile_qr_scan"}, "name": "81675991bfca5c26bb60e0b7e6e4a7df", "type": "electric_bike"}, {"fusion_lat": 0.0, "bike_id": "0625d0dfa8067e9042e03013ae2344ff", "fusion_lon": 0.0, "lon": -77.025242, "lat": 38.9181015, "is_reserved": 0, "is_disabled": 0, "rental_uris": {"android": "https://dc.lft.to/lastmile_qr_scan", "ios": "https://dc.lft.to/lastmile_qr_scan"}, "name": "0625d0dfa8067e9042e03013ae2344ff", "type": "electric_scooter"}, {"fusion_lat": 0.0, "bike_id": "48cf876e4f51c82d36fdf794bbea5e26", "fusion_lon": 0.0, "lon": -77.05176716666666, "lat": 38.9032285, "is_reserved": 0, "is_disabled": 0, "rental_uris": {"android": "https://dc.lft.to/lastmile_qr_scan", "ios": "https://dc.lft.to/lastmile_qr_scan"}, "name": "48cf876e4f51c82d36fdf794bbea5e26", "type": "electric_scooter"}, {"fusion_lat": 0.0, "bike_id": "613476ace8453fe725e69ac236e16bca", "fusion_lon": 0.0, "lon": -77.01782616666667, "lat": 38.8859325, "is_reserved": 0, "is_disabled": 0, "rental_uris": {"android": "https://dc.lft.to/lastmile_qr_scan", "ios": "https://dc.lft.to/lastmile_qr_scan"}, "name": "613476ace8453fe725e69ac236e16bca", "type": "electric_scooter"}, {"fusion_lat": 0.0, "bike_id": "fb111d80cbe8b7cb6ce6c58d7a0ad5a8", "fusion_lon": 0.0, "lon": -77.028406, "lat": 38.887464666666666, "is_reserved": 0, "is_disabled": 0, "rental_uris": {"android": "https://dc.lft.to/lastmile_qr_scan", "ios": "https://dc.lft.to/lastmile_qr_scan"}, "name": "fb111d80cbe8b7cb6ce6c58d7a0ad5a8", "type": "electric_scooter"}, {"fusion_lat": 0.0, "bike_id": "682106aaa81b43aa4f67e7af20be8528", "fusion_lon": 0.0, "lon": -77.038365, "lat": 38.921526, "is_reserved": 0, "is_disabled": 0, "rental_uris": {"android": "https://dc.lft.to/lastmile_qr_scan", "ios": "https://dc.lft.to/lastmile_qr_scan"}, "name": "682106aaa81b43aa4f67e7af20be8528", "type": "electric_scooter"}, {"fusion_lat": 0.0, "bike_id": "65e10fe9926851aee1623695c443ffc2", "fusion_lon": 0.0, "lon": -77.04142316666666, "lat": 38.92646933333333, "is_reserved": 0, "is_disabled": 0, "rental_uris": {"android": "https://dc.lft.to/lastmile_qr_scan", "ios": "https://dc.lft.to/lastmile_qr_scan"}, "name": "65e10fe9926851aee1623695c443ffc2", "type": "electric_scooter"}, {"fusion_lat": 0.0, "bike_id": "948d7494854087f6dea7667483de9d41", "fusion_lon": 0.0, "lon": -77.03642466666666, "lat": 38.92303416666667, "is_reserved": 0, "is_disabled": 0, "rental_uris": {"android": "https://dc.lft.to/lastmile_qr_scan", "ios": "https://dc.lft.to/lastmile_qr_scan"}, "name": "948d7494854087f6dea7667483de9d41", "type": "electric_scooter"}, {"fusion_lat": 0.0, "bike_id": "e924ff4a97d969fc0b724ecb0500b77d", "fusion_lon": 0.0, "lon": -76.99778816666667, "lat": 38.84427783333334, "is_reserved": 0, "is_disabled": 0, "rental_uris": {"android": "https://dc.lft.to/lastmile_qr_scan", "ios": "https://dc.lft.to/lastmile_qr_scan"}, "name": "e924ff4a97d969fc0b724ecb0500b77d", "type": "electric_scooter"}, {"fusion_lat": 0.0, "bike_id": "a25401a60882a0455c1bb677d522ad8e", "fusion_lon": 0.0, "lon": -77.03799433333333, "lat": 38.9305035, "is_reserved": 0, "is_disabled": 0, "rental_uris": {"android": "https://dc.lft.to/lastmile_qr_scan", "ios": "https://dc.lft.to/lastmile_qr_scan"}, "name": "a25401a60882a0455c1bb677d522ad8e", "type": "electric_scooter"}, {"fusion_lat": 0.0, "bike_id": "9c5a88ec87a6aae30fced1ec11eb8d66", "fusion_lon": 0.0, "lon": -77.06748016666667, "lat": 38.90336083333333, "is_reserved": 0, "is_disabled": 0, "rental_uris": {"android": "https://dc.lft.to/lastmile_qr_scan", "ios": "https://dc.lft.to/lastmile_qr_scan"}, "name": "9c5a88ec87a6aae30fced1ec11eb8d66", "type": "electric_scooter"}, {"fusion_lat": 0.0, "bike_id": "06c21947b041ba0f09d4ca2d22b7f772", "fusion_lon": 0.0, "lon": -77.0007705, "lat": 38.9075985, "is_reserved": 0, "is_disabled": 0, "rental_uris": {"android": "https://dc.lft.to/lastmile_qr_scan", "ios": "https://dc.lft.to/lastmile_qr_scan"}, "name": "06c21947b041ba0f09d4ca2d22b7f772", "type": "electric_scooter"}, {"fusion_lat": 0.0, "bike_id": "bd50d78805a8c79f3a31406b6b3481b8", "fusion_lon": 0.0, "lon": -77.030188, "lat": 38.91802083333333, "is_reserved": 0, "is_disabled": 0, "rental_uris": {"android": "https://dc.lft.to/lastmile_qr_scan", "ios": "https://dc.lft.to/lastmile_qr_scan"}, "name": "bd50d78805a8c79f3a31406b6b3481b8", "type": "electric_scooter"}, {"fusion_lat": 0.0, "bike_id": "8761687c09f414ca15d99a1aef689ec9", "fusion_lon": 0.0, "lon": -77.02413166666666, "lat": 38.908627, "is_reserved": 0, "is_disabled": 0, "rental_uris": {"android": "https://dc.lft.to/lastmile_qr_scan", "ios": "https://dc.lft.to/lastmile_qr_scan"}, "name": "8761687c09f414ca15d99a1aef689ec9", "type": "electric_scooter"}, {"fusion_lat": 0.0, "bike_id": "df18e30cae58ef336e88addcb7256a6d", "fusion_lon": 0.0, "lon": -77.03441816666667, "lat": 38.93091833333333, "is_reserved": 0, "is_disabled": 0, "rental_uris": {"android": "https://dc.lft.to/lastmile_qr_scan", "ios": "https://dc.lft.to/lastmile_qr_scan"}, "name": "df18e30cae58ef336e88addcb7256a6d", "type": "electric_scooter"}, {"fusion_lat": 0.0, "bike_id": "6245bf7db185d7ff02d913b598b903e8", "fusion_lon": 0.0, "lon": -76.9759125, "lat": 38.90331966666667, "is_reserved": 0, "is_disabled": 0, "rental_uris": {"android": "https://dc.lft.to/lastmile_qr_scan", "ios": "https://dc.lft.to/lastmile_qr_scan"}, "name": "6245bf7db185d7ff02d913b598b903e8", "type": "electric_scooter"}, {"fusion_lat": 0.0, "bike_id": "2bae58ac711505c65a18374f03478781", "fusion_lon": 0.0, "lon": -77.029642, "lat": 38.9306065, "is_reserved": 0, "is_disabled": 0, "rental_uris": {"android": "https://dc.lft.to/lastmile_qr_scan", "ios": "https://dc.lft.to/lastmile_qr_scan"}, "name": "2bae58ac711505c65a18374f03478781", "type": "electric_scooter"}, {"fusion_lat": 0.0, "bike_id": "df836a2065333fca47382465522920da", "fusion_lon": 0.0, "lon": -77.03873483333334, "lat": 38.90277716666667, "is_reserved": 0, "is_disabled": 0, "rental_uris": {"android": "https://dc.lft.to/lastmile_qr_scan", "ios": "https://dc.lft.to/lastmile_qr_scan"}, "name": "df836a2065333fca47382465522920da", "type": "electric_scooter"}, {"fusion_lat": 0.0, "bike_id": "ded4515c5a00b92acab272af53160bfd", "fusion_lon": 0.0, "lon": -77.06274966666666, "lat": 38.905002333333336, "is_reserved": 0, "is_disabled": 0, "rental_uris": {"android": "https://dc.lft.to/lastmile_qr_scan", "ios": "https://dc.lft.to/lastmile_qr_scan"}, "name": "ded4515c5a00b92acab272af53160bfd", "type": "electric_scooter"}, {"fusion_lat": 0.0, "bike_id": "f83ebeca29ec71108b3bcea4ff69425f", "fusion_lon": 0.0, "lon": -77.03093883333334, "lat": 38.9310185, "is_reserved": 0, "is_disabled": 0, "rental_uris": {"android": "https://dc.lft.to/lastmile_qr_scan", "ios": "https://dc.lft.to/lastmile_qr_scan"}, "name": "f83ebeca29ec71108b3bcea4ff69425f", "type": "electric_scooter"}, {"fusion_lat": 0.0, "bike_id": "6f8f3dd9b79119a7f8bf50e6a0ba2d6c", "fusion_lon": 0.0, "lon": -77.013541, "lat": 38.928867333333336, "is_reserved": 0, "is_disabled": 0, "rental_uris": {"android": "https://dc.lft.to/lastmile_qr_scan", "ios": "https://dc.lft.to/lastmile_qr_scan"}, "name": "6f8f3dd9b79119a7f8bf50e6a0ba2d6c", "type": "electric_bike"}, {"fusion_lat": 0.0, "bike_id": "1510ac35fe6ae1a3c079908f49e17719", "fusion_lon": 0.0, "lon": -76.9954415, "lat": 38.88368716666667, "is_reserved": 0, "is_disabled": 0, "rental_uris": {"android": "https://dc.lft.to/lastmile_qr_scan", "ios": "https://dc.lft.to/lastmile_qr_scan"}, "name": "1510ac35fe6ae1a3c079908f49e17719", "type": "electric_scooter"}, {"fusion_lat": 0.0, "bike_id": "b340a06eeeaf173fea60d8e7900e180c", "fusion_lon": 0.0, "lon": -77.04123316666667, "lat": 38.917034, "is_reserved": 0, "is_disabled": 0, "rental_uris": {"android": "https://dc.lft.to/lastmile_qr_scan", "ios": "https://dc.lft.to/lastmile_qr_scan"}, "name": "b340a06eeeaf173fea60d8e7900e180c", "type": "electric_scooter"}, {"fusion_lat": 0.0, "bike_id": "f4518ddf7c0067b0d892301783cb042f", "fusion_lon": 0.0, "lon": -77.03420283333334, "lat": 38.91921633333333, "is_reserved": 0, "is_disabled": 0, "rental_uris": {"android": "https://dc.lft.to/lastmile_qr_scan", "ios": "https://dc.lft.to/lastmile_qr_scan"}, "name": "f4518ddf7c0067b0d892301783cb042f", "type": "electric_scooter"}, {"fusion_lat": 0.0, "bike_id": "e33e458c2afb9f9d715a2536a077f199", "fusion_lon": 0.0, "lon": -76.93752466666666, "lat": 38.8903305, "is_reserved": 0, "is_disabled": 0, "rental_uris": {"android": "https://dc.lft.to/lastmile_qr_scan", "ios": "https://dc.lft.to/lastmile_qr_scan"}, "name": "e33e458c2afb9f9d715a2536a077f199", "type": "electric_scooter"}, {"fusion_lat": 0.0, "bike_id": "3c7b334785f3b3622caca27c99845d28", "fusion_lon": 0.0, "lon": -77.04649283333333, "lat": 38.91574816666667, "is_reserved": 0, "is_disabled": 0, "rental_uris": {"android": "https://dc.lft.to/lastmile_qr_scan", "ios": "https://dc.lft.to/lastmile_qr_scan"}, "name": "3c7b334785f3b3622caca27c99845d28", "type": "electric_scooter"}, {"fusion_lat": 0.0, "bike_id": "9c6f69b85619407933d2b15b44a52f0e", "fusion_lon": 0.0, "lon": -77.06380316666667, "lat": 38.90507216666666, "is_reserved": 0, "is_disabled": 0, "rental_uris": {"android": "https://dc.lft.to/lastmile_qr_scan", "ios": "https://dc.lft.to/lastmile_qr_scan"}, "name": "9c6f69b85619407933d2b15b44a52f0e", "type": "electric_scooter"}, {"fusion_lat": 0.0, "bike_id": "c4cfecca3e8adc16c5162414c2326e9c", "fusion_lon": 0.0, "lon": -77.05697383333333, "lat": 38.93714466666667, "is_reserved": 0, "is_disabled": 0, "rental_uris": {"android": "https://dc.lft.to/lastmile_qr_scan", "ios": "https://dc.lft.to/lastmile_qr_scan"}, "name": "c4cfecca3e8adc16c5162414c2326e9c", "type": "electric_scooter"}, {"fusion_lat": 0.0, "bike_id": "86e2ec161a1bac6ce5c035cf0276b4c1", "fusion_lon": 0.0, "lon": -77.05157533333333, "lat": 39.043040833333336, "is_reserved": 0, "is_disabled": 0, "rental_uris": {"android": "https://dc.lft.to/lastmile_qr_scan", "ios": "https://dc.lft.to/lastmile_qr_scan"}, "name": "86e2ec161a1bac6ce5c035cf0276b4c1", "type": "electric_bike"}, {"fusion_lat": 0.0, "bike_id": "1ba5cf71f2c48772acc8502fddac93ad", "fusion_lon": 0.0, "lon": -77.01908083333333, "lat": 38.923665166666666, "is_reserved": 0, "is_disabled": 0, "rental_uris": {"android": "https://dc.lft.to/lastmile_qr_scan", "ios": "https://dc.lft.to/lastmile_qr_scan"}, "name": "1ba5cf71f2c48772acc8502fddac93ad", "type": "electric_scooter"}, {"fusion_lat": 0.0, "bike_id": "bd3e3ba91ea0c29b7a76b56de02e8e32", "fusion_lon": 0.0, "lon": -77.0319995, "lat": 38.911789166666665, "is_reserved": 0, "is_disabled": 0, "rental_uris": {"android": "https://dc.lft.to/lastmile_qr_scan", "ios": "https://dc.lft.to/lastmile_qr_scan"}, "name": "bd3e3ba91ea0c29b7a76b56de02e8e32", "type": "electric_scooter"}, {"fusion_lat": 0.0, "bike_id": "1ac0292d342efd1b46badebbcaaaf5c5", "fusion_lon": 0.0, "lon": -77.02183766666667, "lat": 38.90950983333333, "is_reserved": 0, "is_disabled": 0, "rental_uris": {"android": "https://dc.lft.to/lastmile_qr_scan", "ios": "https://dc.lft.to/lastmile_qr_scan"}, "name": "1ac0292d342efd1b46badebbcaaaf5c5", "type": "electric_scooter"}, {"fusion_lat": 0.0, "bike_id": "84abe16d3495efe930e1f28c4ead6240", "fusion_lon": 0.0, "lon": -77.02979966666666, "lat": 38.907679, "is_reserved": 0, "is_disabled": 0, "rental_uris": {"android": "https://dc.lft.to/lastmile_qr_scan", "ios": "https://dc.lft.to/lastmile_qr_scan"}, "name": "84abe16d3495efe930e1f28c4ead6240", "type": "electric_scooter"}, {"fusion_lat": 0.0, "bike_id": "ef11e2a149afa574b09ab2098e66a67a", "fusion_lon": 0.0, "lon": -77.06172583333333, "lat": 38.90507316666667, "is_reserved": 0, "is_disabled": 0, "rental_uris": {"android": "https://dc.lft.to/lastmile_qr_scan", "ios": "https://dc.lft.to/lastmile_qr_scan"}, "name": "ef11e2a149afa574b09ab2098e66a67a", "type": "electric_scooter"}, {"fusion_lat": 0.0, "bike_id": "db0d3023b315016e52dd3bfee7e1ef30", "fusion_lon": 0.0, "lon": -77.04041366666667, "lat": 38.91855666666667, "is_reserved": 0, "is_disabled": 0, "rental_uris": {"android": "https://dc.lft.to/lastmile_qr_scan", "ios": "https://dc.lft.to/lastmile_qr_scan"}, "name": "db0d3023b315016e52dd3bfee7e1ef30", "type": "electric_scooter"}, {"fusion_lat": 0.0, "bike_id": "03a6f313ae9ba32b537bc5ad3bf14672", "fusion_lon": 0.0, "lon": -76.99501716666667, "lat": 38.899199333333335, "is_reserved": 0, "is_disabled": 0, "rental_uris": {"android": "https://dc.lft.to/lastmile_qr_scan", "ios": "https://dc.lft.to/lastmile_qr_scan"}, "name": "03a6f313ae9ba32b537bc5ad3bf14672", "type": "electric_scooter"}, {"fusion_lat": 0.0, "bike_id": "542072795f8f6cebe1e63b98991f6ad9", "fusion_lon": 0.0, "lon": -76.93304966666666, "lat": 38.89196316666666, "is_reserved": 0, "is_disabled": 0, "rental_uris": {"android": "https://dc.lft.to/lastmile_qr_scan", "ios": "https://dc.lft.to/lastmile_qr_scan"}, "name": "542072795f8f6cebe1e63b98991f6ad9", "type": "electric_scooter"}, {"fusion_lat": 0.0, "bike_id": "50f786374516330b9f43a93ad921eb85", "fusion_lon": 0.0, "lon": -77.01547583333333, "lat": 38.891685, "is_reserved": 0, "is_disabled": 0, "rental_uris": {"android": "https://dc.lft.to/lastmile_qr_scan", "ios": "https://dc.lft.to/lastmile_qr_scan"}, "name": "50f786374516330b9f43a93ad921eb85", "type": "electric_scooter"}, {"fusion_lat": 0.0, "bike_id": "fc285c6f7be227e60ef1198ee64630a2", "fusion_lon": 0.0, "lon": -77.03225016666667, "lat": 38.9086695, "is_reserved": 0, "is_disabled": 0, "rental_uris": {"android": "https://dc.lft.to/lastmile_qr_scan", "ios": "https://dc.lft.to/lastmile_qr_scan"}, "name": "fc285c6f7be227e60ef1198ee64630a2", "type": "electric_scooter"}, {"fusion_lat": 0.0, "bike_id": "04ac49d38ddd719f591b3d0ee9dd05fa", "fusion_lon": 0.0, "lon": -77.01485316666667, "lat": 38.89213816666667, "is_reserved": 0, "is_disabled": 0, "rental_uris": {"android": "https://dc.lft.to/lastmile_qr_scan", "ios": "https://dc.lft.to/lastmile_qr_scan"}, "name": "04ac49d38ddd719f591b3d0ee9dd05fa", "type": "electric_scooter"}, {"fusion_lat": 0.0, "bike_id": "55832cef213867ad0429428712078d5d", "fusion_lon": 0.0, "lon": -76.9810345, "lat": 38.86326366666667, "is_reserved": 0, "is_disabled": 0, "rental_uris": {"android": "https://dc.lft.to/lastmile_qr_scan", "ios": "https://dc.lft.to/lastmile_qr_scan"}, "name": "55832cef213867ad0429428712078d5d", "type": "electric_scooter"}, {"fusion_lat": 0.0, "bike_id": "4c9366af195895e7dd50b826a441a3e4", "fusion_lon": 0.0, "lon": -77.02741266666666, "lat": 38.9306385, "is_reserved": 0, "is_disabled": 0, "rental_uris": {"android": "https://dc.lft.to/lastmile_qr_scan", "ios": "https://dc.lft.to/lastmile_qr_scan"}, "name": "4c9366af195895e7dd50b826a441a3e4", "type": "electric_scooter"}, {"fusion_lat": 0.0, "bike_id": "9af26e455f6b8b2799ec93802dd12a1c", "fusion_lon": 0.0, "lon": -76.996985, "lat": 38.84543016666667, "is_reserved": 0, "is_disabled": 0, "rental_uris": {"android": "https://dc.lft.to/lastmile_qr_scan", "ios": "https://dc.lft.to/lastmile_qr_scan"}, "name": "9af26e455f6b8b2799ec93802dd12a1c", "type": "electric_scooter"}, {"fusion_lat": 0.0, "bike_id": "5fb9d857feadbf0e74637dda102403d3", "fusion_lon": 0.0, "lon": -76.93973233333334, "lat": 38.8996515, "is_reserved": 0, "is_disabled": 0, "rental_uris": {"android": "https://dc.lft.to/lastmile_qr_scan", "ios": "https://dc.lft.to/lastmile_qr_scan"}, "name": "5fb9d857feadbf0e74637dda102403d3", "type": "electric_scooter"}, {"fusion_lat": 0.0, "bike_id": "d5d328004d5fc7f2ee388feb7cfcce9d", "fusion_lon": 0.0, "lon": -76.98936916666666, "lat": 38.86692266666667, "is_reserved": 0, "is_disabled": 0, "rental_uris": {"android": "https://dc.lft.to/lastmile_qr_scan", "ios": "https://dc.lft.to/lastmile_qr_scan"}, "name": "d5d328004d5fc7f2ee388feb7cfcce9d", "type": "electric_bike"}, {"fusion_lat": 0.0, "bike_id": "50e5a126d3943e40df13e819478010fd", "fusion_lon": 0.0, "lon": -76.98594033333333, "lat": 38.866798833333334, "is_reserved": 0, "is_disabled": 0, "rental_uris": {"android": "https://dc.lft.to/lastmile_qr_scan", "ios": "https://dc.lft.to/lastmile_qr_scan"}, "name": "50e5a126d3943e40df13e819478010fd", "type": "electric_scooter"}, {"fusion_lat": 0.0, "bike_id": "0f5c37377d3ee554e8e336cc24cfcf00", "fusion_lon": 0.0, "lon": -77.02425783333334, "lat": 38.91814733333333, "is_reserved": 0, "is_disabled": 0, "rental_uris": {"android": "https://dc.lft.to/lastmile_qr_scan", "ios": "https://dc.lft.to/lastmile_qr_scan"}, "name": "0f5c37377d3ee554e8e336cc24cfcf00", "type": "electric_scooter"}, {"fusion_lat": 0.0, "bike_id": "9d1eb9d2968af997b3149e8147292081", "fusion_lon": 0.0, "lon": -76.989572, "lat": 38.903735833333336, "is_reserved": 0, "is_disabled": 0, "rental_uris": {"android": "https://dc.lft.to/lastmile_qr_scan", "ios": "https://dc.lft.to/lastmile_qr_scan"}, "name": "9d1eb9d2968af997b3149e8147292081", "type": "electric_scooter"}, {"fusion_lat": 0.0, "bike_id": "98680058818b84f7e5015e0d57c73cfc", "fusion_lon": 0.0, "lon": -77.05040983333333, "lat": 38.90535366666667, "is_reserved": 0, "is_disabled": 0, "rental_uris": {"android": "https://dc.lft.to/lastmile_qr_scan", "ios": "https://dc.lft.to/lastmile_qr_scan"}, "name": "98680058818b84f7e5015e0d57c73cfc", "type": "electric_scooter"}, {"fusion_lat": 0.0, "bike_id": "9fead244c8c5d096559fe54669f5c1d7", "fusion_lon": 0.0, "lon": -77.04896516666666, "lat": 38.892211, "is_reserved": 0, "is_disabled": 0, "rental_uris": {"android": "https://dc.lft.to/lastmile_qr_scan", "ios": "https://dc.lft.to/lastmile_qr_scan"}, "name": "9fead244c8c5d096559fe54669f5c1d7", "type": "electric_scooter"}, {"fusion_lat": 0.0, "bike_id": "512aae09630db79bf8cda83e312256fb", "fusion_lon": 0.0, "lon": -77.0317895, "lat": 38.89624283333333, "is_reserved": 0, "is_disabled": 0, "rental_uris": {"android": "https://dc.lft.to/lastmile_qr_scan", "ios": "https://dc.lft.to/lastmile_qr_scan"}, "name": "512aae09630db79bf8cda83e312256fb", "type": "electric_scooter"}, {"fusion_lat": 0.0, "bike_id": "9302d830b6219e8aaa4284ad0c671356", "fusion_lon": 0.0, "lon": -77.03224433333334, "lat": 38.91947033333334, "is_reserved": 0, "is_disabled": 0, "rental_uris": {"android": "https://dc.lft.to/lastmile_qr_scan", "ios": "https://dc.lft.to/lastmile_qr_scan"}, "name": "9302d830b6219e8aaa4284ad0c671356", "type": "electric_scooter"}, {"fusion_lat": 0.0, "bike_id": "cdfd9c014e4bd21535b2203343296479", "fusion_lon": 0.0, "lon": -77.045614, "lat": 38.919423, "is_reserved": 0, "is_disabled": 0, "rental_uris": {"android": "https://dc.lft.to/lastmile_qr_scan", "ios": "https://dc.lft.to/lastmile_qr_scan"}, "name": "cdfd9c014e4bd21535b2203343296479", "type": "electric_scooter"}, {"fusion_lat": 0.0, "bike_id": "ad502e47f2f966ed7a227b7ef05dd2d7", "fusion_lon": 0.0, "lon": -77.02585916666666, "lat": 38.89600183333334, "is_reserved": 0, "is_disabled": 0, "rental_uris": {"android": "https://dc.lft.to/lastmile_qr_scan", "ios": "https://dc.lft.to/lastmile_qr_scan"}, "name": "ad502e47f2f966ed7a227b7ef05dd2d7", "type": "electric_scooter"}, {"fusion_lat": 0.0, "bike_id": "559499bc910608790727efe994bd0eed", "fusion_lon": 0.0, "lon": -77.0426035, "lat": 38.90006566666667, "is_reserved": 0, "is_disabled": 0, "rental_uris": {"android": "https://dc.lft.to/lastmile_qr_scan", "ios": "https://dc.lft.to/lastmile_qr_scan"}, "name": "559499bc910608790727efe994bd0eed", "type": "electric_scooter"}, {"fusion_lat": 0.0, "bike_id": "05bb53263a870c4c731e854117e1788a", "fusion_lon": 0.0, "lon": -77.0338565, "lat": 38.902662166666666, "is_reserved": 0, "is_disabled": 0, "rental_uris": {"android": "https://dc.lft.to/lastmile_qr_scan", "ios": "https://dc.lft.to/lastmile_qr_scan"}, "name": "05bb53263a870c4c731e854117e1788a", "type": "electric_scooter"}, {"fusion_lat": 0.0, "bike_id": "85df1d4e63ae5658f03b851af58a5431", "fusion_lon": 0.0, "lon": -77.02834383333334, "lat": 38.8872515, "is_reserved": 0, "is_disabled": 0, "rental_uris": {"android": "https://dc.lft.to/lastmile_qr_scan", "ios": "https://dc.lft.to/lastmile_qr_scan"}, "name": "85df1d4e63ae5658f03b851af58a5431", "type": "electric_scooter"}, {"fusion_lat": 0.0, "bike_id": "1a2ae71f8789787515ce2847caad45c1", "fusion_lon": 0.0, "lon": -77.0227435, "lat": 38.924779666666666, "is_reserved": 0, "is_disabled": 0, "rental_uris": {"android": "https://dc.lft.to/lastmile_qr_scan", "ios": "https://dc.lft.to/lastmile_qr_scan"}, "name": "1a2ae71f8789787515ce2847caad45c1", "type": "electric_scooter"}, {"fusion_lat": 0.0, "bike_id": "5aa1f58e0e3883d9f3273b89902c4c09", "fusion_lon": 0.0, "lon": -76.98365033333333, "lat": 38.888329, "is_reserved": 0, "is_disabled": 0, "rental_uris": {"android": "https://dc.lft.to/lastmile_qr_scan", "ios": "https://dc.lft.to/lastmile_qr_scan"}, "name": "5aa1f58e0e3883d9f3273b89902c4c09", "type": "electric_scooter"}, {"fusion_lat": 0.0, "bike_id": "2023065e6322721bfc5069e29cd90c8f", "fusion_lon": 0.0, "lon": -77.0451105, "lat": 38.905091666666664, "is_reserved": 0, "is_disabled": 0, "rental_uris": {"android": "https://dc.lft.to/lastmile_qr_scan", "ios": "https://dc.lft.to/lastmile_qr_scan"}, "name": "2023065e6322721bfc5069e29cd90c8f", "type": "electric_scooter"}, {"fusion_lat": 0.0, "bike_id": "4607d639d71753dacef5b4bba4802b3d", "fusion_lon": 0.0, "lon": -77.04716383333333, "lat": 38.899596, "is_reserved": 0, "is_disabled": 0, "rental_uris": {"android": "https://dc.lft.to/lastmile_qr_scan", "ios": "https://dc.lft.to/lastmile_qr_scan"}, "name": "4607d639d71753dacef5b4bba4802b3d", "type": "electric_scooter"}, {"fusion_lat": 0.0, "bike_id": "3e630470412be333bfb8385ade33414e", "fusion_lon": 0.0, "lon": -77.04162883333333, "lat": 38.91248133333333, "is_reserved": 0, "is_disabled": 0, "rental_uris": {"android": "https://dc.lft.to/lastmile_qr_scan", "ios": "https://dc.lft.to/lastmile_qr_scan"}, "name": "3e630470412be333bfb8385ade33414e", "type": "electric_scooter"}, {"fusion_lat": 0.0, "bike_id": "6746abc0695e27451c708d15f0b3d4ed", "fusion_lon": 0.0, "lon": -76.98241533333334, "lat": 38.888637333333335, "is_reserved": 0, "is_disabled": 0, "rental_uris": {"android": "https://dc.lft.to/lastmile_qr_scan", "ios": "https://dc.lft.to/lastmile_qr_scan"}, "name": "6746abc0695e27451c708d15f0b3d4ed", "type": "electric_scooter"}, {"fusion_lat": 0.0, "bike_id": "9f5b3a0cc91e073f4ed2e43dabb349cb", "fusion_lon": 0.0, "lon": -77.0221705, "lat": 38.92468133333333, "is_reserved": 0, "is_disabled": 0, "rental_uris": {"android": "https://dc.lft.to/lastmile_qr_scan", "ios": "https://dc.lft.to/lastmile_qr_scan"}, "name": "9f5b3a0cc91e073f4ed2e43dabb349cb", "type": "electric_scooter"}, {"fusion_lat": 0.0, "bike_id": "132acc1a4def4389b6bbd0d27ef97821", "fusion_lon": 0.0, "lon": -77.02911516666667, "lat": 38.92237016666667, "is_reserved": 0, "is_disabled": 0, "rental_uris": {"android": "https://dc.lft.to/lastmile_qr_scan", "ios": "https://dc.lft.to/lastmile_qr_scan"}, "name": "132acc1a4def4389b6bbd0d27ef97821", "type": "electric_scooter"}, {"fusion_lat": 0.0, "bike_id": "3a62d17f57949d03e8f968b341ac971c", "fusion_lon": 0.0, "lon": -77.050479, "lat": 38.923750166666665, "is_reserved": 0, "is_disabled": 0, "rental_uris": {"android": "https://dc.lft.to/lastmile_qr_scan", "ios": "https://dc.lft.to/lastmile_qr_scan"}, "name": "3a62d17f57949d03e8f968b341ac971c", "type": "electric_scooter"}, {"fusion_lat": 0.0, "bike_id": "850e1106abd304ad74382f3d08913d91", "fusion_lon": 0.0, "lon": -77.05535516666667, "lat": 38.92657366666667, "is_reserved": 0, "is_disabled": 0, "rental_uris": {"android": "https://dc.lft.to/lastmile_qr_scan", "ios": "https://dc.lft.to/lastmile_qr_scan"}, "name": "850e1106abd304ad74382f3d08913d91", "type": "electric_scooter"}, {"fusion_lat": 0.0, "bike_id": "8831a175ca55c6a38179cde138e37773", "fusion_lon": 0.0, "lon": -77.03825033333334, "lat": 38.912678166666666, "is_reserved": 0, "is_disabled": 0, "rental_uris": {"android": "https://dc.lft.to/lastmile_qr_scan", "ios": "https://dc.lft.to/lastmile_qr_scan"}, "name": "8831a175ca55c6a38179cde138e37773", "type": "electric_scooter"}, {"fusion_lat": 0.0, "bike_id": "1036ecf86f646bfc2a09fc920f9f8ee2", "fusion_lon": 0.0, "lon": -77.01783533333334, "lat": 38.885861, "is_reserved": 0, "is_disabled": 0, "rental_uris": {"android": "https://dc.lft.to/lastmile_qr_scan", "ios": "https://dc.lft.to/lastmile_qr_scan"}, "name": "1036ecf86f646bfc2a09fc920f9f8ee2", "type": "electric_scooter"}, {"fusion_lat": 0.0, "bike_id": "876f536480a646abdee74f0aa5a56c5f", "fusion_lon": 0.0, "lon": -77.04804116666666, "lat": 38.9140545, "is_reserved": 0, "is_disabled": 0, "rental_uris": {"android": "https://dc.lft.to/lastmile_qr_scan", "ios": "https://dc.lft.to/lastmile_qr_scan"}, "name": "876f536480a646abdee74f0aa5a56c5f", "type": "electric_scooter"}, {"fusion_lat": 0.0, "bike_id": "5eda9cbeed290ebbc6b7f3bc405575b7", "fusion_lon": 0.0, "lon": -77.02610433333334, "lat": 38.91909583333333, "is_reserved": 0, "is_disabled": 0, "rental_uris": {"android": "https://dc.lft.to/lastmile_qr_scan", "ios": "https://dc.lft.to/lastmile_qr_scan"}, "name": "5eda9cbeed290ebbc6b7f3bc405575b7", "type": "electric_scooter"}, {"fusion_lat": 0.0, "bike_id": "6b3ae146b96faefd94d087c5a13371b8", "fusion_lon": 0.0, "lon": -77.03963116666667, "lat": 38.916245833333335, "is_reserved": 0, "is_disabled": 0, "rental_uris": {"android": "https://dc.lft.to/lastmile_qr_scan", "ios": "https://dc.lft.to/lastmile_qr_scan"}, "name": "6b3ae146b96faefd94d087c5a13371b8", "type": "electric_scooter"}, {"fusion_lat": 0.0, "bike_id": "61088d29939a62e200d077bd5ab26a19", "fusion_lon": 0.0, "lon": -76.998818, "lat": 38.952683666666665, "is_reserved": 0, "is_disabled": 0, "rental_uris": {"android": "https://dc.lft.to/lastmile_qr_scan", "ios": "https://dc.lft.to/lastmile_qr_scan"}, "name": "61088d29939a62e200d077bd5ab26a19", "type": "electric_scooter"}, {"fusion_lat": 0.0, "bike_id": "baac2192d081f47d35796828b041d7cf", "fusion_lon": 0.0, "lon": -77.032326, "lat": 38.928975666666666, "is_reserved": 0, "is_disabled": 0, "rental_uris": {"android": "https://dc.lft.to/lastmile_qr_scan", "ios": "https://dc.lft.to/lastmile_qr_scan"}, "name": "baac2192d081f47d35796828b041d7cf", "type": "electric_scooter"}, {"fusion_lat": 0.0, "bike_id": "04b00e5a532fef4722d72df2cc5296e6", "fusion_lon": 0.0, "lon": -76.99036916666667, "lat": 38.897992333333335, "is_reserved": 0, "is_disabled": 0, "rental_uris": {"android": "https://dc.lft.to/lastmile_qr_scan", "ios": "https://dc.lft.to/lastmile_qr_scan"}, "name": "04b00e5a532fef4722d72df2cc5296e6", "type": "electric_scooter"}, {"fusion_lat": 0.0, "bike_id": "4a5bd8491e180cbccf05a78ad5db5ffb", "fusion_lon": 0.0, "lon": -77.02797716666667, "lat": 38.94284783333333, "is_reserved": 0, "is_disabled": 0, "rental_uris": {"android": "https://dc.lft.to/lastmile_qr_scan", "ios": "https://dc.lft.to/lastmile_qr_scan"}, "name": "4a5bd8491e180cbccf05a78ad5db5ffb", "type": "electric_scooter"}, {"fusion_lat": 0.0, "bike_id": "46f7b73650c9bb20545d38700b250744", "fusion_lon": 0.0, "lon": -77.042591, "lat": 38.921998333333335, "is_reserved": 0, "is_disabled": 0, "rental_uris": {"android": "https://dc.lft.to/lastmile_qr_scan", "ios": "https://dc.lft.to/lastmile_qr_scan"}, "name": "46f7b73650c9bb20545d38700b250744", "type": "electric_scooter"}, {"fusion_lat": 0.0, "bike_id": "c461c82278d9ea8ff3622e1ab5ecac10", "fusion_lon": 0.0, "lon": -77.0161935, "lat": 38.90684016666667, "is_reserved": 0, "is_disabled": 0, "rental_uris": {"android": "https://dc.lft.to/lastmile_qr_scan", "ios": "https://dc.lft.to/lastmile_qr_scan"}, "name": "c461c82278d9ea8ff3622e1ab5ecac10", "type": "electric_scooter"}, {"fusion_lat": 0.0, "bike_id": "8dbcd1a69f817e6ffc8a5f8e854082d1", "fusion_lon": 0.0, "lon": -77.05044816666667, "lat": 38.925178333333335, "is_reserved": 0, "is_disabled": 0, "rental_uris": {"android": "https://dc.lft.to/lastmile_qr_scan", "ios": "https://dc.lft.to/lastmile_qr_scan"}, "name": "8dbcd1a69f817e6ffc8a5f8e854082d1", "type": "electric_scooter"}, {"fusion_lat": 0.0, "bike_id": "c0dc9d259f339a8f35736dddd3a93bc3", "fusion_lon": 0.0, "lon": -76.97617133333333, "lat": 38.90382533333333, "is_reserved": 0, "is_disabled": 0, "rental_uris": {"android": "https://dc.lft.to/lastmile_qr_scan", "ios": "https://dc.lft.to/lastmile_qr_scan"}, "name": "c0dc9d259f339a8f35736dddd3a93bc3", "type": "electric_scooter"}, {"fusion_lat": 0.0, "bike_id": "940a4c1a59be436e7052028dcda6ea0a", "fusion_lon": 0.0, "lon": -76.9993335, "lat": 38.91931116666667, "is_reserved": 0, "is_disabled": 0, "rental_uris": {"android": "https://dc.lft.to/lastmile_qr_scan", "ios": "https://dc.lft.to/lastmile_qr_scan"}, "name": "940a4c1a59be436e7052028dcda6ea0a", "type": "electric_scooter"}, {"fusion_lat": 0.0, "bike_id": "26e10807c2317ae4d6140cd7f1549928", "fusion_lon": 0.0, "lon": -76.9544575, "lat": 38.936368333333334, "is_reserved": 0, "is_disabled": 0, "rental_uris": {"android": "https://dc.lft.to/lastmile_qr_scan", "ios": "https://dc.lft.to/lastmile_qr_scan"}, "name": "26e10807c2317ae4d6140cd7f1549928", "type": "electric_bike"}, {"fusion_lat": 0.0, "bike_id": "38b2c1d4dfdfbf81763d54c495a16eb3", "fusion_lon": 0.0, "lon": -77.03405966666666, "lat": 38.92268683333333, "is_reserved": 0, "is_disabled": 0, "rental_uris": {"android": "https://dc.lft.to/lastmile_qr_scan", "ios": "https://dc.lft.to/lastmile_qr_scan"}, "name": "38b2c1d4dfdfbf81763d54c495a16eb3", "type": "electric_scooter"}, {"fusion_lat": 0.0, "bike_id": "c89e84148ba7f85c9ea2859913859f54", "fusion_lon": 0.0, "lon": -76.990549, "lat": 38.8637595, "is_reserved": 0, "is_disabled": 0, "rental_uris": {"android": "https://dc.lft.to/lastmile_qr_scan", "ios": "https://dc.lft.to/lastmile_qr_scan"}, "name": "c89e84148ba7f85c9ea2859913859f54", "type": "electric_scooter"}, {"fusion_lat": 0.0, "bike_id": "a962b83496f5a07cd1753008dae2d24e", "fusion_lon": 0.0, "lon": -77.02074133333333, "lat": 38.90409666666667, "is_reserved": 0, "is_disabled": 0, "rental_uris": {"android": "https://dc.lft.to/lastmile_qr_scan", "ios": "https://dc.lft.to/lastmile_qr_scan"}, "name": "a962b83496f5a07cd1753008dae2d24e", "type": "electric_scooter"}, {"fusion_lat": 0.0, "bike_id": "e021fa201b7b1d31c930684ee07cae34", "fusion_lon": 0.0, "lon": -77.01272133333333, "lat": 38.8923135, "is_reserved": 0, "is_disabled": 0, "rental_uris": {"android": "https://dc.lft.to/lastmile_qr_scan", "ios": "https://dc.lft.to/lastmile_qr_scan"}, "name": "e021fa201b7b1d31c930684ee07cae34", "type": "electric_scooter"}, {"fusion_lat": 0.0, "bike_id": "deeba0f2ad270536055408fa152a7aa6", "fusion_lon": 0.0, "lon": -77.022191, "lat": 38.935478333333336, "is_reserved": 0, "is_disabled": 0, "rental_uris": {"android": "https://dc.lft.to/lastmile_qr_scan", "ios": "https://dc.lft.to/lastmile_qr_scan"}, "name": "deeba0f2ad270536055408fa152a7aa6", "type": "electric_scooter"}, {"fusion_lat": 0.0, "bike_id": "be0099fa8c5328bdaa7ac2bae1c40267", "fusion_lon": 0.0, "lon": -77.02068616666666, "lat": 38.892776166666664, "is_reserved": 0, "is_disabled": 0, "rental_uris": {"android": "https://dc.lft.to/lastmile_qr_scan", "ios": "https://dc.lft.to/lastmile_qr_scan"}, "name": "be0099fa8c5328bdaa7ac2bae1c40267", "type": "electric_scooter"}, {"fusion_lat": 0.0, "bike_id": "d30ac6b780cb5f14d177c1feecbe5fc1", "fusion_lon": 0.0, "lon": -77.00727083333334, "lat": 38.903506666666665, "is_reserved": 0, "is_disabled": 0, "rental_uris": {"android": "https://dc.lft.to/lastmile_qr_scan", "ios": "https://dc.lft.to/lastmile_qr_scan"}, "name": "d30ac6b780cb5f14d177c1feecbe5fc1", "type": "electric_scooter"}, {"fusion_lat": 0.0, "bike_id": "91f66c1ea954b88df5959fef2fdfe644", "fusion_lon": 0.0, "lon": -77.02844916666666, "lat": 38.93219033333333, "is_reserved": 0, "is_disabled": 0, "rental_uris": {"android": "https://dc.lft.to/lastmile_qr_scan", "ios": "https://dc.lft.to/lastmile_qr_scan"}, "name": "91f66c1ea954b88df5959fef2fdfe644", "type": "electric_scooter"}, {"fusion_lat": 0.0, "bike_id": "a4162538d3c7768ff278f277d679d846", "fusion_lon": 0.0, "lon": -77.03176616666667, "lat": 38.89629766666667, "is_reserved": 0, "is_disabled": 0, "rental_uris": {"android": "https://dc.lft.to/lastmile_qr_scan", "ios": "https://dc.lft.to/lastmile_qr_scan"}, "name": "a4162538d3c7768ff278f277d679d846", "type": "electric_scooter"}, {"fusion_lat": 0.0, "bike_id": "b19bedb849ab5349966d7657be733e30", "fusion_lon": 0.0, "lon": -77.0450185, "lat": 38.904941, "is_reserved": 0, "is_disabled": 0, "rental_uris": {"android": "https://dc.lft.to/lastmile_qr_scan", "ios": "https://dc.lft.to/lastmile_qr_scan"}, "name": "b19bedb849ab5349966d7657be733e30", "type": "electric_scooter"}, {"fusion_lat": 0.0, "bike_id": "9a9e9b1912d4ff7e3ca6c36ee1664d95", "fusion_lon": 0.0, "lon": -77.03208716666667, "lat": 38.91792183333333, "is_reserved": 0, "is_disabled": 0, "rental_uris": {"android": "https://dc.lft.to/lastmile_qr_scan", "ios": "https://dc.lft.to/lastmile_qr_scan"}, "name": "9a9e9b1912d4ff7e3ca6c36ee1664d95", "type": "electric_bike"}, {"fusion_lat": 0.0, "bike_id": "5768d005e921b3b144f7a2755b779685", "fusion_lon": 0.0, "lon": -77.03190133333334, "lat": 38.918179, "is_reserved": 0, "is_disabled": 0, "rental_uris": {"android": "https://dc.lft.to/lastmile_qr_scan", "ios": "https://dc.lft.to/lastmile_qr_scan"}, "name": "5768d005e921b3b144f7a2755b779685", "type": "electric_scooter"}, {"fusion_lat": 0.0, "bike_id": "9518de9d3b182f00e7bd74db8036f779", "fusion_lon": 0.0, "lon": -77.03284883333333, "lat": 38.928395, "is_reserved": 0, "is_disabled": 0, "rental_uris": {"android": "https://dc.lft.to/lastmile_qr_scan", "ios": "https://dc.lft.to/lastmile_qr_scan"}, "name": "9518de9d3b182f00e7bd74db8036f779", "type": "electric_scooter"}, {"fusion_lat": 0.0, "bike_id": "84a515409134f32be3a281ed0a7bc454", "fusion_lon": 0.0, "lon": -77.00921266666667, "lat": 38.92247866666666, "is_reserved": 0, "is_disabled": 0, "rental_uris": {"android": "https://dc.lft.to/lastmile_qr_scan", "ios": "https://dc.lft.to/lastmile_qr_scan"}, "name": "84a515409134f32be3a281ed0a7bc454", "type": "electric_scooter"}, {"fusion_lat": 0.0, "bike_id": "c2d289400565d91e2f543706fcd4f8eb", "fusion_lon": 0.0, "lon": -77.00605966666667, "lat": 38.872912166666666, "is_reserved": 0, "is_disabled": 0, "rental_uris": {"android": "https://dc.lft.to/lastmile_qr_scan", "ios": "https://dc.lft.to/lastmile_qr_scan"}, "name": "c2d289400565d91e2f543706fcd4f8eb", "type": "electric_scooter"}, {"fusion_lat": 0.0, "bike_id": "0fb15abb335f1c0331f1cb9d59098d55", "fusion_lon": 0.0, "lon": -77.02100016666667, "lat": 38.92707133333333, "is_reserved": 0, "is_disabled": 0, "rental_uris": {"android": "https://dc.lft.to/lastmile_qr_scan", "ios": "https://dc.lft.to/lastmile_qr_scan"}, "name": "0fb15abb335f1c0331f1cb9d59098d55", "type": "electric_scooter"}, {"fusion_lat": 0.0, "bike_id": "ee1c2cf3c72dccd23af5ab5c7bd2dbdb", "fusion_lon": 0.0, "lon": -77.0677075, "lat": 38.90681333333333, "is_reserved": 0, "is_disabled": 0, "rental_uris": {"android": "https://dc.lft.to/lastmile_qr_scan", "ios": "https://dc.lft.to/lastmile_qr_scan"}, "name": "ee1c2cf3c72dccd23af5ab5c7bd2dbdb", "type": "electric_scooter"}, {"fusion_lat": 0.0, "bike_id": "0d0ba85d385f545615430470eae3ed6f", "fusion_lon": 0.0, "lon": -77.04159516666667, "lat": 38.91417633333333, "is_reserved": 0, "is_disabled": 0, "rental_uris": {"android": "https://dc.lft.to/lastmile_qr_scan", "ios": "https://dc.lft.to/lastmile_qr_scan"}, "name": "0d0ba85d385f545615430470eae3ed6f", "type": "electric_scooter"}, {"fusion_lat": 0.0, "bike_id": "2f1462c1f603e6e7a322eb36f8459f86", "fusion_lon": 0.0, "lon": -77.05155233333333, "lat": 38.905723, "is_reserved": 0, "is_disabled": 0, "rental_uris": {"android": "https://dc.lft.to/lastmile_qr_scan", "ios": "https://dc.lft.to/lastmile_qr_scan"}, "name": "2f1462c1f603e6e7a322eb36f8459f86", "type": "electric_scooter"}, {"fusion_lat": 0.0, "bike_id": "fbd934d93653d57e0cbaea9a0a871a64", "fusion_lon": 0.0, "lon": -77.09498216666667, "lat": 38.80761666666667, "is_reserved": 0, "is_disabled": 0, "rental_uris": {"android": "https://dc.lft.to/lastmile_qr_scan", "ios": "https://dc.lft.to/lastmile_qr_scan"}, "name": "fbd934d93653d57e0cbaea9a0a871a64", "type": "electric_bike"}, {"fusion_lat": 0.0, "bike_id": "3211be2a6742eefcb373da64946defc3", "fusion_lon": 0.0, "lon": -77.0322945, "lat": 38.908246, "is_reserved": 0, "is_disabled": 0, "rental_uris": {"android": "https://dc.lft.to/lastmile_qr_scan", "ios": "https://dc.lft.to/lastmile_qr_scan"}, "name": "3211be2a6742eefcb373da64946defc3", "type": "electric_scooter"}, {"fusion_lat": 0.0, "bike_id": "e312a94de020229a7255eff6cef6932f", "fusion_lon": 0.0, "lon": -77.03436366666666, "lat": 38.91809083333333, "is_reserved": 0, "is_disabled": 0, "rental_uris": {"android": "https://dc.lft.to/lastmile_qr_scan", "ios": "https://dc.lft.to/lastmile_qr_scan"}, "name": "e312a94de020229a7255eff6cef6932f", "type": "electric_scooter"}, {"fusion_lat": 0.0, "bike_id": "87b87e16e578468e5e2147a075c20d5f", "fusion_lon": 0.0, "lon": -77.0467285, "lat": 38.895548, "is_reserved": 0, "is_disabled": 0, "rental_uris": {"android": "https://dc.lft.to/lastmile_qr_scan", "ios": "https://dc.lft.to/lastmile_qr_scan"}, "name": "87b87e16e578468e5e2147a075c20d5f", "type": "electric_scooter"}, {"fusion_lat": 0.0, "bike_id": "975c2eb3524adb0ad230d428aed4e0eb", "fusion_lon": 0.0, "lon": -76.94922516666666, "lat": 38.89355583333333, "is_reserved": 0, "is_disabled": 0, "rental_uris": {"android": "https://dc.lft.to/lastmile_qr_scan", "ios": "https://dc.lft.to/lastmile_qr_scan"}, "name": "975c2eb3524adb0ad230d428aed4e0eb", "type": "electric_scooter"}, {"fusion_lat": 0.0, "bike_id": "b76445bf9db4ae761d8d24a7fc53c5f4", "fusion_lon": 0.0, "lon": -77.05810766666667, "lat": 38.823889333333334, "is_reserved": 0, "is_disabled": 0, "rental_uris": {"android": "https://dc.lft.to/lastmile_qr_scan", "ios": "https://dc.lft.to/lastmile_qr_scan"}, "name": "b76445bf9db4ae761d8d24a7fc53c5f4", "type": "electric_bike"}, {"fusion_lat": 0.0, "bike_id": "345eb5b7f2b55ec7fe8a12c7a9b6bf70", "fusion_lon": 0.0, "lon": -76.98715316666667, "lat": 38.86621483333333, "is_reserved": 0, "is_disabled": 0, "rental_uris": {"android": "https://dc.lft.to/lastmile_qr_scan", "ios": "https://dc.lft.to/lastmile_qr_scan"}, "name": "345eb5b7f2b55ec7fe8a12c7a9b6bf70", "type": "electric_scooter"}, {"fusion_lat": 0.0, "bike_id": "308a5e8f8db7f33955ad0027a3f4cf00", "fusion_lon": 0.0, "lon": -77.0547405, "lat": 38.897878166666665, "is_reserved": 0, "is_disabled": 0, "rental_uris": {"android": "https://dc.lft.to/lastmile_qr_scan", "ios": "https://dc.lft.to/lastmile_qr_scan"}, "name": "308a5e8f8db7f33955ad0027a3f4cf00", "type": "electric_scooter"}, {"fusion_lat": 0.0, "bike_id": "0725be399c13693621c440557215c1c3", "fusion_lon": 0.0, "lon": -77.01984266666666, "lat": 38.91566783333333, "is_reserved": 0, "is_disabled": 0, "rental_uris": {"android": "https://dc.lft.to/lastmile_qr_scan", "ios": "https://dc.lft.to/lastmile_qr_scan"}, "name": "0725be399c13693621c440557215c1c3", "type": "electric_scooter"}, {"fusion_lat": 0.0, "bike_id": "7e472cefffb578f27f01d6cc64256e4b", "fusion_lon": 0.0, "lon": -77.02387216666666, "lat": 38.93195216666667, "is_reserved": 0, "is_disabled": 0, "rental_uris": {"android": "https://dc.lft.to/lastmile_qr_scan", "ios": "https://dc.lft.to/lastmile_qr_scan"}, "name": "7e472cefffb578f27f01d6cc64256e4b", "type": "electric_scooter"}, {"fusion_lat": 0.0, "bike_id": "6808dcbfe5ee070020ee68031d16baef", "fusion_lon": 0.0, "lon": -77.02345316666667, "lat": 38.935352, "is_reserved": 0, "is_disabled": 0, "rental_uris": {"android": "https://dc.lft.to/lastmile_qr_scan", "ios": "https://dc.lft.to/lastmile_qr_scan"}, "name": "6808dcbfe5ee070020ee68031d16baef", "type": "electric_scooter"}, {"fusion_lat": 0.0, "bike_id": "e22a6e018d38330edbbc091f5089f226", "fusion_lon": 0.0, "lon": -77.0402025, "lat": 38.924512666666665, "is_reserved": 0, "is_disabled": 0, "rental_uris": {"android": "https://dc.lft.to/lastmile_qr_scan", "ios": "https://dc.lft.to/lastmile_qr_scan"}, "name": "e22a6e018d38330edbbc091f5089f226", "type": "electric_scooter"}, {"fusion_lat": 0.0, "bike_id": "cac38d0975135f97f247cf1d93c1dcfb", "fusion_lon": 0.0, "lon": -77.0314825, "lat": 38.915625666666664, "is_reserved": 0, "is_disabled": 0, "rental_uris": {"android": "https://dc.lft.to/lastmile_qr_scan", "ios": "https://dc.lft.to/lastmile_qr_scan"}, "name": "cac38d0975135f97f247cf1d93c1dcfb", "type": "electric_scooter"}, {"fusion_lat": 0.0, "bike_id": "52007b4717092db054ec1a8d217977d7", "fusion_lon": 0.0, "lon": -77.054664, "lat": 38.929194833333334, "is_reserved": 0, "is_disabled": 0, "rental_uris": {"android": "https://dc.lft.to/lastmile_qr_scan", "ios": "https://dc.lft.to/lastmile_qr_scan"}, "name": "52007b4717092db054ec1a8d217977d7", "type": "electric_scooter"}, {"fusion_lat": 0.0, "bike_id": "b7116e8016630d16d4ba79dfac79d21e", "fusion_lon": 0.0, "lon": -77.03191716666667, "lat": 38.91737283333333, "is_reserved": 0, "is_disabled": 0, "rental_uris": {"android": "https://dc.lft.to/lastmile_qr_scan", "ios": "https://dc.lft.to/lastmile_qr_scan"}, "name": "b7116e8016630d16d4ba79dfac79d21e", "type": "electric_scooter"}, {"fusion_lat": 0.0, "bike_id": "784ba26baf6aa42b2af21c1ff163d272", "fusion_lon": 0.0, "lon": -77.074311, "lat": 38.999424, "is_reserved": 0, "is_disabled": 0, "rental_uris": {"android": "https://dc.lft.to/lastmile_qr_scan", "ios": "https://dc.lft.to/lastmile_qr_scan"}, "name": "784ba26baf6aa42b2af21c1ff163d272", "type": "electric_bike"}, {"fusion_lat": 0.0, "bike_id": "5010d0c5bbb29a8d27951a4662deefe9", "fusion_lon": 0.0, "lon": -77.04491983333334, "lat": 38.908002333333336, "is_reserved": 0, "is_disabled": 0, "rental_uris": {"android": "https://dc.lft.to/lastmile_qr_scan", "ios": "https://dc.lft.to/lastmile_qr_scan"}, "name": "5010d0c5bbb29a8d27951a4662deefe9", "type": "electric_scooter"}, {"fusion_lat": 0.0, "bike_id": "bcff380f1ddcc1a8d875744cbcd42dfe", "fusion_lon": 0.0, "lon": -77.02207483333333, "lat": 38.91133933333333, "is_reserved": 0, "is_disabled": 0, "rental_uris": {"android": "https://dc.lft.to/lastmile_qr_scan", "ios": "https://dc.lft.to/lastmile_qr_scan"}, "name": "bcff380f1ddcc1a8d875744cbcd42dfe", "type": "electric_scooter"}, {"fusion_lat": 0.0, "bike_id": "84293feda804f72406bc94994bf4527d", "fusion_lon": 0.0, "lon": -77.0310495, "lat": 38.93239116666667, "is_reserved": 0, "is_disabled": 0, "rental_uris": {"android": "https://dc.lft.to/lastmile_qr_scan", "ios": "https://dc.lft.to/lastmile_qr_scan"}, "name": "84293feda804f72406bc94994bf4527d", "type": "electric_scooter"}, {"fusion_lat": 0.0, "bike_id": "0f212ee0a83acad682c918144a4e8c76", "fusion_lon": 0.0, "lon": -77.05001433333334, "lat": 38.89228516666667, "is_reserved": 0, "is_disabled": 0, "rental_uris": {"android": "https://dc.lft.to/lastmile_qr_scan", "ios": "https://dc.lft.to/lastmile_qr_scan"}, "name": "0f212ee0a83acad682c918144a4e8c76", "type": "electric_scooter"}, {"fusion_lat": 0.0, "bike_id": "68de711b20672c36b1a87de42501c396", "fusion_lon": 0.0, "lon": -77.03187633333333, "lat": 38.894240833333335, "is_reserved": 0, "is_disabled": 0, "rental_uris": {"android": "https://dc.lft.to/lastmile_qr_scan", "ios": "https://dc.lft.to/lastmile_qr_scan"}, "name": "68de711b20672c36b1a87de42501c396", "type": "electric_scooter"}, {"fusion_lat": 0.0, "bike_id": "c91d4fde28bd289d0091dbfb4671b5be", "fusion_lon": 0.0, "lon": -77.03369766666667, "lat": 38.928059, "is_reserved": 0, "is_disabled": 0, "rental_uris": {"android": "https://dc.lft.to/lastmile_qr_scan", "ios": "https://dc.lft.to/lastmile_qr_scan"}, "name": "c91d4fde28bd289d0091dbfb4671b5be", "type": "electric_scooter"}, {"fusion_lat": 0.0, "bike_id": "37a1dc02027828811f23c6a9b40058f4", "fusion_lon": 0.0, "lon": -77.04592233333334, "lat": 38.90945583333333, "is_reserved": 0, "is_disabled": 0, "rental_uris": {"android": "https://dc.lft.to/lastmile_qr_scan", "ios": "https://dc.lft.to/lastmile_qr_scan"}, "name": "37a1dc02027828811f23c6a9b40058f4", "type": "electric_scooter"}, {"fusion_lat": 0.0, "bike_id": "922de68ec4c0bd71d685ffefffa62f76", "fusion_lon": 0.0, "lon": -77.044245, "lat": 38.92118833333333, "is_reserved": 0, "is_disabled": 0, "rental_uris": {"android": "https://dc.lft.to/lastmile_qr_scan", "ios": "https://dc.lft.to/lastmile_qr_scan"}, "name": "922de68ec4c0bd71d685ffefffa62f76", "type": "electric_scooter"}, {"fusion_lat": 0.0, "bike_id": "5cf828747e4db130b2b9f94010fff070", "fusion_lon": 0.0, "lon": -77.02270783333333, "lat": 38.92410233333333, "is_reserved": 0, "is_disabled": 0, "rental_uris": {"android": "https://dc.lft.to/lastmile_qr_scan", "ios": "https://dc.lft.to/lastmile_qr_scan"}, "name": "5cf828747e4db130b2b9f94010fff070", "type": "electric_scooter"},