{"data": {"bikes": [{"lat": 38.913132833333336, "is_disabled": 0, "type": "electric_scooter", "lon": -77.03657583333333, "bike_id": "3599a8864062be2c40ca938da8a6ec3f", "fusion_lat": 0.0, "name": "3599a8864062be2c40ca938da8a6ec3f", "is_reserved": 0, "rental_uris": {"android": "https://dc.lft.to/lastmile_qr_scan", "ios": "https://dc.lft.to/lastmile_qr_scan"}, "fusion_lon": 0.0}, {"lat": 38.898501833333334, "is_disabled": 0, "type": "electric_scooter", "lon": -76.99034966666666, "bike_id": "770749ca7549c07f72d82a2be50d3b13", "fusion_lat": 0.0, "name": "770749ca7549c07f72d82a2be50d3b13", "is_reserved": 0, "rental_uris": {"android": "https://dc.lft.to/lastmile_qr_scan", "ios": "https://dc.lft.to/lastmile_qr_scan"}, "fusion_lon": 0.0}, {"lat": 38.91563283333333, "is_disabled": 0, "type": "electric_scooter", "lon": -77.04669566666666, "bike_id": "2adca05a8eb1b6e24c5a3e1df88dee79", "fusion_lat": 0.0, "name": "2adca05a8eb1b6e24c5a3e1df88dee79", "is_reserved": 0, "rental_uris": {"android": "https://dc.lft.to/lastmile_qr_scan", "ios": "https://dc.lft.to/lastmile_qr_scan"}, "fusion_lon": 0.0}, {"lat": 38.95534416666667, "is_disabled": 0, "type": "electric_bike", "lon": -77.01784683333334, "bike_id": "1b2d4dc44893251aceae251e91859e84", "fusion_lat": 0.0, "name": "1b2d4dc44893251aceae251e91859e84", "is_reserved": 0, "rental_uris": {"android": "https://dc.lft.to/lastmile_qr_scan", "ios": "https://dc.lft.to/lastmile_qr_scan"}, "fusion_lon": 0.0}, {"lat": 38.902131833333335, "is_disabled": 0, "type": "electric_scooter", "lon": -76.94591433333333, "bike_id": "843d15794e249d90dca0a153a43489df", "fusion_lat": 0.0, "name": "843d15794e249d90dca0a153a43489df", "is_reserved": 0, "rental_uris": {"android": "https://dc.lft.to/lastmile_qr_scan", "ios": "https://dc.lft.to/lastmile_qr_scan"}, "fusion_lon": 0.0}, {"lat": 38.930130166666665, "is_disabled": 0, "type": "electric_bike", "lon": -77.2164945, "bike_id": "25ed9c02e3efcd20cdcbf537550c6d9a", "fusion_lat": 0.0, "name": "25ed9c02e3efcd20cdcbf537550c6d9a", "is_reserved": 0, "rental_uris": {"android": "https://dc.lft.to/lastmile_qr_scan", "ios": "https://dc.lft.to/lastmile_qr_scan"}, "fusion_lon": 0.0}, {"lat": 38.89764, "is_disabled": 0, "type": "electric_scooter", "lon": -77.0436055, "bike_id": "645d506f1633ed34f96db23edb03a529", "fusion_lat": 0.0, "name": "645d506f1633ed34f96db23edb03a529", "is_reserved": 0, "rental_uris": {"android": "https://dc.lft.to/lastmile_qr_scan", "ios": "https://dc.lft.to/lastmile_qr_scan"}, "fusion_lon": 0.0}, {"lat": 38.95608766666667, "is_disabled": 0, "type": "electric_scooter", "lon": -77.02778366666666, "bike_id": "44ad2f83d5d877e3709742aaec28f2fe", "fusion_lat": 0.0, "name": "44ad2f83d5d877e3709742aaec28f2fe", "is_reserved": 0, "rental_uris": {"android": "https://dc.lft.to/lastmile_qr_scan", "ios": "https://dc.lft.to/lastmile_qr_scan"}, "fusion_lon": 0.0}, {"lat": 38.917713666666664, "is_disabled": 0, "type": "electric_scooter", "lon": -77.02315116666666, "bike_id": "40d1aea2179b95c331d86bc218390dd8", "fusion_lat": 0.0, "name": "40d1aea2179b95c331d86bc218390dd8", "is_reserved": 0, "rental_uris": {"android": "https://dc.lft.to/lastmile_qr_scan", "ios": "https://dc.lft.to/lastmile_qr_scan"}, "fusion_lon": 0.0}, {"lat": 38.962819833333334, "is_disabled": 0, "type": "electric_bike", "lon": -77.03251966666667, "bike_id": "157f35caa8fe6e1347409494338f8f43", "fusion_lat": 0.0, "name": "157f35caa8fe6e1347409494338f8f43", "is_reserved": 0, "rental_uris": {"android": "https://dc.lft.to/lastmile_qr_scan", "ios": "https://dc.lft.to/lastmile_qr_scan"}, "fusion_lon": 0.0}, {"lat": 38.92329383333333, "is_disabled": 0, "type": "electric_bike", "lon": -77.0567695, "bike_id": "d0e053174513f7b21d7672c9ed441cc9", "fusion_lat": 0.0, "name": "d0e053174513f7b21d7672c9ed441cc9", "is_reserved": 0, "rental_uris": {"android": "https://dc.lft.to/lastmile_qr_scan", "ios": "https://dc.lft.to/lastmile_qr_scan"}, "fusion_lon": 0.0}, {"lat": 38.95073383333333, "is_disabled": 0, "type": "electric_scooter", "lon": -77.00877633333333, "bike_id": "3a98b32d4fa4c8de9e34969c6579b8c7", "fusion_lat": 0.0, "name": "3a98b32d4fa4c8de9e34969c6579b8c7", "is_reserved": 0, "rental_uris": {"android": "https://dc.lft.to/lastmile_qr_scan", "ios": "https://dc.lft.to/lastmile_qr_scan"}, "fusion_lon": 0.0}, {"lat": 38.9601225, "is_disabled": 0, "type": "electric_bike", "lon": -77.017264, "bike_id": "725ae7220089548fda5a155e42532420", "fusion_lat": 0.0, "name": "725ae7220089548fda5a155e42532420", "is_reserved": 0, "rental_uris": {"android": "https://dc.lft.to/lastmile_qr_scan", "ios": "https://dc.lft.to/lastmile_qr_scan"}, "fusion_lon": 0.0}, {"lat": 38.912658666666665, "is_disabled": 0, "type": "electric_scooter", "lon": -77.03193366666666, "bike_id": "36e98395d80f384a1b29adb4fa698ebf", "fusion_lat": 0.0, "name": "36e98395d80f384a1b29adb4fa698ebf", "is_reserved": 0, "rental_uris": {"android": "https://dc.lft.to/lastmile_qr_scan", "ios": "https://dc.lft.to/lastmile_qr_scan"}, "fusion_lon": 0.0}, {"lat": 38.89978466666667, "is_disabled": 0, "type": "electric_scooter", "lon": -77.022758, "bike_id": "1265c928edf9a0b287573a244fc7bf37", "fusion_lat": 0.0, "name": "1265c928edf9a0b287573a244fc7bf37", "is_reserved": 0, "rental_uris": {"android": "https://dc.lft.to/lastmile_qr_scan", "ios": "https://dc.lft.to/lastmile_qr_scan"}, "fusion_lon": 0.0}, {"lat": 38.95404533333333, "is_disabled": 0, "type": "electric_scooter", "lon": -77.02750133333333, "bike_id": "773b9b66cf3048d2c3c0204cb408eb08", "fusion_lat": 0.0, "name": "773b9b66cf3048d2c3c0204cb408eb08", "is_reserved": 0, "rental_uris": {"android": "https://dc.lft.to/lastmile_qr_scan", "ios": "https://dc.lft.to/lastmile_qr_scan"}, "fusion_lon": 0.0}, {"lat": 39.029327, "is_disabled": 0, "type": "electric_bike", "lon": -77.04927733333334, "bike_id": "2b510e5af0ee4efd31afc0992de363fd", "fusion_lat": 0.0, "name": "2b510e5af0ee4efd31afc0992de363fd", "is_reserved": 0, "rental_uris": {"android": "https://dc.lft.to/lastmile_qr_scan", "ios": "https://dc.lft.to/lastmile_qr_scan"}, "fusion_lon": 0.0}, {"lat": 38.87646683333333, "is_disabled": 0, "type": "electric_scooter", "lon": -77.004264, "bike_id": "8973f0dbed62406c773c645c1c0a5237", "fusion_lat": 0.0, "name": "8973f0dbed62406c773c645c1c0a5237", "is_reserved": 0, "rental_uris": {"android": "https://dc.lft.to/lastmile_qr_scan", "ios": "https://dc.lft.to/lastmile_qr_scan"}, "fusion_lon": 0.0}, {"lat": 38.95918666666667, "is_disabled": 0, "type": "electric_bike", "lon": -77.03123233333334, "bike_id": "210ea1d36d136584ca2aa8ba4b824e72", "fusion_lat": 0.0, "name": "210ea1d36d136584ca2aa8ba4b824e72", "is_reserved": 0, "rental_uris": {"android": "https://dc.lft.to/lastmile_qr_scan", "ios": "https://dc.lft.to/lastmile_qr_scan"}, "fusion_lon": 0.0}, {"lat": 38.917224833333336, "is_disabled": 0, "type": "electric_scooter", "lon": -77.04104983333333, "bike_id": "81747e569b5f4fa631b49815dd90b6b9", "fusion_lat": 0.0, "name": "81747e569b5f4fa631b49815dd90b6b9", "is_reserved": 0, "rental_uris": {"android": "https://dc.lft.to/lastmile_qr_scan", "ios": "https://dc.lft.to/lastmile_qr_scan"}, "fusion_lon": 0.0}, {"lat": 38.91979883333333, "is_disabled": 0, "type": "electric_scooter", "lon": -76.97309483333333, "bike_id": "22aab8ca59bc48676557d2ec9b7266ee", "fusion_lat": 0.0, "name": "22aab8ca59bc48676557d2ec9b7266ee", "is_reserved": 0, "rental_uris": {"android": "https://dc.lft.to/lastmile_qr_scan", "ios": "https://dc.lft.to/lastmile_qr_scan"}, "fusion_lon": 0.0}, {"lat": 38.8847245, "is_disabled": 0, "type": "electric_scooter", "lon": -76.99267116666667, "bike_id": "8d94d8a75f04ecb88f676930b300fcf0", "fusion_lat": 0.0, "name": "8d94d8a75f04ecb88f676930b300fcf0", "is_reserved": 0, "rental_uris": {"android": "https://dc.lft.to/lastmile_qr_scan", "ios": "https://dc.lft.to/lastmile_qr_scan"}, "fusion_lon": 0.0}, {"lat": 38.90858716666666, "is_disabled": 0, "type": "electric_bike", "lon": -77.0807715, "bike_id": "e84a58ede7b5c3e696b60453044a2b87", "fusion_lat": 0.0, "name": "e84a58ede7b5c3e696b60453044a2b87", "is_reserved": 0, "rental_uris": {"android": "https://dc.lft.to/lastmile_qr_scan", "ios": "https://dc.lft.to/lastmile_qr_scan"}, "fusion_lon": 0.0}, {"lat": 38.88077916666667, "is_disabled": 0, "type": "electric_scooter", "lon": -76.98534483333333, "bike_id": "384d28627d21518948786bd0e4e0b925", "fusion_lat": 0.0, "name": "384d28627d21518948786bd0e4e0b925", "is_reserved": 0, "rental_uris": {"android": "https://dc.lft.to/lastmile_qr_scan", "ios": "https://dc.lft.to/lastmile_qr_scan"}, "fusion_lon": 0.0}, {"lat": 38.94124516666667, "is_disabled": 0, "type": "electric_bike", "lon": -76.99628316666667, "bike_id": "432f884aa9489ebb0a45b53c99fbbf75", "fusion_lat": 0.0, "name": "432f884aa9489ebb0a45b53c99fbbf75", "is_reserved": 0, "rental_uris": {"android": "https://dc.lft.to/lastmile_qr_scan", "ios": "https://dc.lft.to/lastmile_qr_scan"}, "fusion_lon": 0.0}, {"lat": 38.923305666666664, "is_disabled": 0, "type": "electric_scooter", "lon": -77.04451033333333, "bike_id": "6420ce63b90d3f0e11ff1add11ab87cf", "fusion_lat": 0.0, "name": "6420ce63b90d3f0e11ff1add11ab87cf", "is_reserved": 0, "rental_uris": {"android": "https://dc.lft.to/lastmile_qr_scan", "ios": "https://dc.lft.to/lastmile_qr_scan"}, "fusion_lon": 0.0}, {"lat": 39.09437416666667, "is_disabled": 0, "type": "electric_bike", "lon": -77.134563, "bike_id": "f1124a5e0d7da5c68230c74731551d0a", "fusion_lat": 0.0, "name": "f1124a5e0d7da5c68230c74731551d0a", "is_reserved": 0, "rental_uris": {"android": "https://dc.lft.to/lastmile_qr_scan", "ios": "https://dc.lft.to/lastmile_qr_scan"}, "fusion_lon": 0.0}, {"lat": 38.92442966666667, "is_disabled": 0, "type": "electric_scooter", "lon": -77.03375383333334, "bike_id": "c970a6020773ae778974d740e1be4625", "fusion_lat": 0.0, "name": "c970a6020773ae778974d740e1be4625", "is_reserved": 0, "rental_uris": {"android": "https://dc.lft.to/lastmile_qr_scan", "ios": "https://dc.lft.to/lastmile_qr_scan"}, "fusion_lon": 0.0}, {"lat": 38.895140833333336, "is_disabled": 0, "type": "electric_scooter", "lon": -77.0436285, "bike_id": "3c30cdc7183c4aae03432af732c7cb65", "fusion_lat": 0.0, "name": "3c30cdc7183c4aae03432af732c7cb65", "is_reserved": 0, "rental_uris": {"android": "https://dc.lft.to/lastmile_qr_scan", "ios": "https://dc.lft.to/lastmile_qr_scan"}, "fusion_lon": 0.0}, {"lat": 38.90951783333333, "is_disabled": 0, "type": "electric_scooter", "lon": -77.04678983333334, "bike_id": "dcc8f1aaae6bc121b48bebe2dc8da2b2", "fusion_lat": 0.0, "name": "dcc8f1aaae6bc121b48bebe2dc8da2b2", "is_reserved": 0, "rental_uris": {"android": "https://dc.lft.to/lastmile_qr_scan", "ios": "https://dc.lft.to/lastmile_qr_scan"}, "fusion_lon": 0.0}, {"lat": 38.9043845, "is_disabled": 0, "type": "electric_scooter", "lon": -77.03450033333333, "bike_id": "352a2aa72ba8a93cc7d26a25b2a4ad88", "fusion_lat": 0.0, "name": "352a2aa72ba8a93cc7d26a25b2a4ad88", "is_reserved": 0, "rental_uris": {"android": "https://dc.lft.to/lastmile_qr_scan", "ios": "https://dc.lft.to/lastmile_qr_scan"}, "fusion_lon": 0.0}, {"lat": 38.916871666666665, "is_disabled": 0, "type": "electric_scooter", "lon": -77.02916916666666, "bike_id": "d5984a1763daa5233dc388e3662501cc", "fusion_lat": 0.0, "name": "d5984a1763daa5233dc388e3662501cc", "is_reserved": 0, "rental_uris": {"android": "https://dc.lft.to/lastmile_qr_scan", "ios": "https://dc.lft.to/lastmile_qr_scan"}, "fusion_lon": 0.0}, {"lat": 38.9395165, "is_disabled": 0, "type": "electric_scooter", "lon": -77.0218695, "bike_id": "a62a49c4d72eafb6a024dc2ecdf58414", "fusion_lat": 0.0, "name": "a62a49c4d72eafb6a024dc2ecdf58414", "is_reserved": 0, "rental_uris": {"android": "https://dc.lft.to/lastmile_qr_scan", "ios": "https://dc.lft.to/lastmile_qr_scan"}, "fusion_lon": 0.0}, {"lat": 38.8984715, "is_disabled": 0, "type": "electric_scooter", "lon": -76.94472216666666, "bike_id": "3e072115460a43a66c689cd1c65e2672", "fusion_lat": 0.0, "name": "3e072115460a43a66c689cd1c65e2672", "is_reserved": 0, "rental_uris": {"android": "https://dc.lft.to/lastmile_qr_scan", "ios": "https://dc.lft.to/lastmile_qr_scan"}, "fusion_lon": 0.0}, {"lat": 38.862877166666664, "is_disabled": 0, "type": "electric_scooter", "lon": -76.99238216666667, "bike_id": "3a897836b44437e745636112e940d259", "fusion_lat": 0.0, "name": "3a897836b44437e745636112e940d259", "is_reserved": 0, "rental_uris": {"android": "https://dc.lft.to/lastmile_qr_scan", "ios": "https://dc.lft.to/lastmile_qr_scan"}, "fusion_lon": 0.0}, {"lat": 38.9085685, "is_disabled": 0, "type": "electric_scooter", "lon": -77.04590516666667, "bike_id": "0ac635688e94817b401bd6ba76b29b70", "fusion_lat": 0.0, "name": "0ac635688e94817b401bd6ba76b29b70", "is_reserved": 0, "rental_uris": {"android": "https://dc.lft.to/lastmile_qr_scan", "ios": "https://dc.lft.to/lastmile_qr_scan"}, "fusion_lon": 0.0}, {"lat": 38.90592633333333, "is_disabled": 0, "type": "electric_scooter", "lon": -77.063006, "bike_id": "1809fa6366e26fb5c50853846ed176d5", "fusion_lat": 0.0, "name": "1809fa6366e26fb5c50853846ed176d5", "is_reserved": 0, "rental_uris": {"android": "https://dc.lft.to/lastmile_qr_scan", "ios": "https://dc.lft.to/lastmile_qr_scan"}, "fusion_lon": 0.0}, {"lat": 38.91915483333333, "is_disabled": 0, "type": "electric_scooter", "lon": -77.01343866666667, "bike_id": "9c53f74f1b1acba6e2f01d9daba3b933", "fusion_lat": 0.0, "name": "9c53f74f1b1acba6e2f01d9daba3b933", "is_reserved": 0, "rental_uris": {"android": "https://dc.lft.to/lastmile_qr_scan", "ios": "https://dc.lft.to/lastmile_qr_scan"}, "fusion_lon": 0.0}, {"lat": 38.93496783333333, "is_disabled": 0, "type": "electric_scooter", "lon": -77.05803166666666, "bike_id": "5f8f0b56a539a942832624641ffc877c", "fusion_lat": 0.0, "name": "5f8f0b56a539a942832624641ffc877c", "is_reserved": 0, "rental_uris": {"android": "https://dc.lft.to/lastmile_qr_scan", "ios": "https://dc.lft.to/lastmile_qr_scan"}, "fusion_lon": 0.0}, {"lat": 38.90043033333333, "is_disabled": 0, "type": "electric_scooter", "lon": -76.99017016666667, "bike_id": "4b9355537e8292768e25dc1e56c13e1e", "fusion_lat": 0.0, "name": "4b9355537e8292768e25dc1e56c13e1e", "is_reserved": 0, "rental_uris": {"android": "https://dc.lft.to/lastmile_qr_scan", "ios": "https://dc.lft.to/lastmile_qr_scan"}, "fusion_lon": 0.0}, {"lat": 38.88560566666666, "is_disabled": 0, "type": "electric_scooter", "lon": -77.020021, "bike_id": "3747a84ea74fa976ab64910acebc358b", "fusion_lat": 0.0, "name": "3747a84ea74fa976ab64910acebc358b", "is_reserved": 0, "rental_uris": {"android": "https://dc.lft.to/lastmile_qr_scan", "ios": "https://dc.lft.to/lastmile_qr_scan"}, "fusion_lon": 0.0}, {"lat": 38.9217315, "is_disabled": 0, "type": "electric_scooter", "lon": -77.04000766666667, "bike_id": "20f8062dc157436132a3e23b47a32fac", "fusion_lat": 0.0, "name": "20f8062dc157436132a3e23b47a32fac", "is_reserved": 0, "rental_uris": {"android": "https://dc.lft.to/lastmile_qr_scan", "ios": "https://dc.lft.to/lastmile_qr_scan"}, "fusion_lon": 0.0}, {"lat": 38.92379566666666, "is_disabled": 0, "type": "electric_scooter", "lon": -77.0366485, "bike_id": "591a937d228d0f034b90c77b17aa5110", "fusion_lat": 0.0, "name": "591a937d228d0f034b90c77b17aa5110", "is_reserved": 0, "rental_uris": {"android": "https://dc.lft.to/lastmile_qr_scan", "ios": "https://dc.lft.to/lastmile_qr_scan"}, "fusion_lon": 0.0}, {"lat": 38.933554666666666, "is_disabled": 0, "type": "electric_scooter", "lon": -77.05701466666666, "bike_id": "b8db2172132296d2148706b78e096bf4", "fusion_lat": 0.0, "name": "b8db2172132296d2148706b78e096bf4", "is_reserved": 0, "rental_uris": {"android": "https://dc.lft.to/lastmile_qr_scan", "ios": "https://dc.lft.to/lastmile_qr_scan"}, "fusion_lon": 0.0}, {"lat": 38.90105833333333, "is_disabled": 0, "type": "electric_scooter", "lon": -77.03979933333333, "bike_id": "c8790329b4ac6bd37991429110763ca5", "fusion_lat": 0.0, "name": "c8790329b4ac6bd37991429110763ca5", "is_reserved": 0, "rental_uris": {"android": "https://dc.lft.to/lastmile_qr_scan", "ios": "https://dc.lft.to/lastmile_qr_scan"}, "fusion_lon": 0.0}, {"lat": 38.87007366666667, "is_disabled": 0, "type": "electric_bike", "lon": -76.96022183333334, "bike_id": "76f691883118d3de4d0b67b2eaa986b8", "fusion_lat": 0.0, "name": "76f691883118d3de4d0b67b2eaa986b8", "is_reserved": 0, "rental_uris": {"android": "https://dc.lft.to/lastmile_qr_scan", "ios": "https://dc.lft.to/lastmile_qr_scan"}, "fusion_lon": 0.0}, {"lat": 38.904622333333336, "is_disabled": 0, "type": "electric_scooter", "lon": -77.03187166666666, "bike_id": "8e9158bcc02b6abc61b8740b6d1047cf", "fusion_lat": 0.0, "name": "8e9158bcc02b6abc61b8740b6d1047cf", "is_reserved": 0, "rental_uris": {"android": "https://dc.lft.to/lastmile_qr_scan", "ios": "https://dc.lft.to/lastmile_qr_scan"}, "fusion_lon": 0.0}, {"lat": 38.8367885, "is_disabled": 0, "type": "electric_scooter", "lon": -77.005708, "bike_id": "6bb1cccbdd4918bef016afe98c4af8e6", "fusion_lat": 0.0, "name": "6bb1cccbdd4918bef016afe98c4af8e6", "is_reserved": 0, "rental_uris": {"android": "https://dc.lft.to/lastmile_qr_scan", "ios": "https://dc.lft.to/lastmile_qr_scan"}, "fusion_lon": 0.0}, {"lat": 38.933355666666664, "is_disabled": 0, "type": "electric_scooter", "lon": -77.05868116666667, "bike_id": "b0b7d312807c70d58fefaeaa9aaac1fb", "fusion_lat": 0.0, "name": "b0b7d312807c70d58fefaeaa9aaac1fb", "is_reserved": 0, "rental_uris": {"android": "https://dc.lft.to/lastmile_qr_scan", "ios": "https://dc.lft.to/lastmile_qr_scan"}, "fusion_lon": 0.0}, {"lat": 38.89779683333333, "is_disabled": 0, "type": "electric_scooter", "lon": -77.0514195, "bike_id": "9e9a1eeae1222ab0ff481ffe990f519e", "fusion_lat": 0.0, "name": "9e9a1eeae1222ab0ff481ffe990f519e", "is_reserved": 0, "rental_uris": {"android": "https://dc.lft.to/lastmile_qr_scan", "ios": "https://dc.lft.to/lastmile_qr_scan"}, "fusion_lon": 0.0}, {"lat": 38.89707766666667, "is_disabled": 0, "type": "electric_scooter", "lon": -77.00727133333334, "bike_id": "d4a1f4eac5a1f5fa13507baa59bfdd7a", "fusion_lat": 0.0, "name": "d4a1f4eac5a1f5fa13507baa59bfdd7a", "is_reserved": 0, "rental_uris": {"android": "https://dc.lft.to/lastmile_qr_scan", "ios": "https://dc.lft.to/lastmile_qr_scan"}, "fusion_lon": 0.0}, {"lat": 38.917099, "is_disabled": 0, "type": "electric_scooter", "lon": -77.03858233333334, "bike_id": "1b1e46de9bc8f1cffa0c27dd6691a490", "fusion_lat": 0.0, "name": "1b1e46de9bc8f1cffa0c27dd6691a490", "is_reserved": 0, "rental_uris": {"android": "https://dc.lft.to/lastmile_qr_scan", "ios": "https://dc.lft.to/lastmile_qr_scan"}, "fusion_lon": 0.0}, {"lat": 38.922977333333336, "is_disabled": 0, "type": "electric_scooter", "lon": -77.04147233333333, "bike_id": "1a008421c2ff1f1385ccf68face0c8c8", "fusion_lat": 0.0, "name": "1a008421c2ff1f1385ccf68face0c8c8", "is_reserved": 0, "rental_uris": {"android": "https://dc.lft.to/lastmile_qr_scan", "ios": "https://dc.lft.to/lastmile_qr_scan"}, "fusion_lon": 0.0}, {"lat": 38.92319, "is_disabled": 0, "type": "electric_scooter", "lon": -77.03965166666667, "bike_id": "261a8d0813bebee3fd60c879b6276101", "fusion_lat": 0.0, "name": "261a8d0813bebee3fd60c879b6276101", "is_reserved": 0, "rental_uris": {"android": "https://dc.lft.to/lastmile_qr_scan", "ios": "https://dc.lft.to/lastmile_qr_scan"}, "fusion_lon": 0.0}, {"lat": 38.8664785, "is_disabled": 0, "type": "electric_scooter", "lon": -76.98887316666666, "bike_id": "5661f19109cf8c4752ccd7a4151ee119", "fusion_lat": 0.0, "name": "5661f19109cf8c4752ccd7a4151ee119", "is_reserved": 0, "rental_uris": {"android": "https://dc.lft.to/lastmile_qr_scan", "ios": "https://dc.lft.to/lastmile_qr_scan"}, "fusion_lon": 0.0}, {"lat": 38.91703283333333, "is_disabled": 0, "type": "electric_scooter", "lon": -77.03217983333333, "bike_id": "9acd643ad3df755aaeb3638216138905", "fusion_lat": 0.0, "name": "9acd643ad3df755aaeb3638216138905", "is_reserved": 0, "rental_uris": {"android": "https://dc.lft.to/lastmile_qr_scan", "ios": "https://dc.lft.to/lastmile_qr_scan"}, "fusion_lon": 0.0}, {"lat": 38.9248655, "is_disabled": 0, "type": "electric_scooter", "lon": -77.052166, "bike_id": "c1ad6981f7d4cc9b54c23cdec5a42ed0", "fusion_lat": 0.0, "name": "c1ad6981f7d4cc9b54c23cdec5a42ed0", "is_reserved": 0, "rental_uris": {"android": "https://dc.lft.to/lastmile_qr_scan", "ios": "https://dc.lft.to/lastmile_qr_scan"}, "fusion_lon": 0.0}, {"lat": 38.905675, "is_disabled": 0, "type": "electric_scooter", "lon": -76.9887345, "bike_id": "700f09ab46e8923d6b37532cef4cdee2", "fusion_lat": 0.0, "name": "700f09ab46e8923d6b37532cef4cdee2", "is_reserved": 0, "rental_uris": {"android": "https://dc.lft.to/lastmile_qr_scan", "ios": "https://dc.lft.to/lastmile_qr_scan"}, "fusion_lon": 0.0}, {"lat": 38.911748333333335, "is_disabled": 0, "type": "electric_scooter", "lon": -77.03865266666666, "bike_id": "2f8fb21fb8d07065712abd2b2f110f14", "fusion_lat": 0.0, "name": "2f8fb21fb8d07065712abd2b2f110f14", "is_reserved": 0, "rental_uris": {"android": "https://dc.lft.to/lastmile_qr_scan", "ios": "https://dc.lft.to/lastmile_qr_scan"}, "fusion_lon": 0.0}, {"lat": 38.899227, "is_disabled": 0, "type": "electric_scooter", "lon": -77.02172333333333, "bike_id": "e8d7c002c0672a1210e57bc10f587e5c", "fusion_lat": 0.0, "name": "e8d7c002c0672a1210e57bc10f587e5c", "is_reserved": 0, "rental_uris": {"android": "https://dc.lft.to/lastmile_qr_scan", "ios": "https://dc.lft.to/lastmile_qr_scan"}, "fusion_lon": 0.0}, {"lat": 38.91217016666667, "is_disabled": 0, "type": "electric_scooter", "lon": -77.004527, "bike_id": "a4e3a2c44ae2c08a92052f799f522eb3", "fusion_lat": 0.0, "name": "a4e3a2c44ae2c08a92052f799f522eb3", "is_reserved": 0, "rental_uris": {"android": "https://dc.lft.to/lastmile_qr_scan", "ios": "https://dc.lft.to/lastmile_qr_scan"}, "fusion_lon": 0.0}, {"lat": 38.802281666666666, "is_disabled": 0, "type": "electric_bike", "lon": -77.07916566666667, "bike_id": "19c4a126d30c543a7106eac3df3c4a77", "fusion_lat": 0.0, "name": "19c4a126d30c543a7106eac3df3c4a77", "is_reserved": 0, "rental_uris": {"android": "https://dc.lft.to/lastmile_qr_scan", "ios": "https://dc.lft.to/lastmile_qr_scan"}, "fusion_lon": 0.0}, {"lat": 38.934939166666666, "is_disabled": 0, "type": "electric_bike", "lon": -77.03011333333333, "bike_id": "6a2e677eb2024f18c41f518ea23f148c", "fusion_lat": 0.0, "name": "6a2e677eb2024f18c41f518ea23f148c", "is_reserved": 0, "rental_uris": {"android": "https://dc.lft.to/lastmile_qr_scan", "ios": "https://dc.lft.to/lastmile_qr_scan"}, "fusion_lon": 0.0}, {"lat": 38.857897666666666, "is_disabled": 0, "type": "electric_bike", "lon": -76.98744833333333, "bike_id": "40bc607f08ad0a3ec617c0ca719fb087", "fusion_lat": 0.0, "name": "40bc607f08ad0a3ec617c0ca719fb087", "is_reserved": 0, "rental_uris": {"android": "https://dc.lft.to/lastmile_qr_scan", "ios": "https://dc.lft.to/lastmile_qr_scan"}, "fusion_lon": 0.0}, {"lat": 38.90967233333333, "is_disabled": 0, "type": "electric_scooter", "lon": -77.0238485, "bike_id": "dfaa317be58a325f86571e9aff6335c2", "fusion_lat": 0.0, "name": "dfaa317be58a325f86571e9aff6335c2", "is_reserved": 0, "rental_uris": {"android": "https://dc.lft.to/lastmile_qr_scan", "ios": "https://dc.lft.to/lastmile_qr_scan"}, "fusion_lon": 0.0}, {"lat": 38.93115383333333, "is_disabled": 0, "type": "electric_scooter", "lon": -77.03820833333333, "bike_id": "62a434afff782737780c2134f3067ad0", "fusion_lat": 0.0, "name": "62a434afff782737780c2134f3067ad0", "is_reserved": 0, "rental_uris": {"android": "https://dc.lft.to/lastmile_qr_scan", "ios": "https://dc.lft.to/lastmile_qr_scan"}, "fusion_lon": 0.0}, {"lat": 38.91759066666667, "is_disabled": 0, "type": "electric_scooter", "lon": -77.03994783333333, "bike_id": "12f8007ec7326477be506dbcdc7c6184", "fusion_lat": 0.0, "name": "12f8007ec7326477be506dbcdc7c6184", "is_reserved": 0, "rental_uris": {"android": "https://dc.lft.to/lastmile_qr_scan", "ios": "https://dc.lft.to/lastmile_qr_scan"}, "fusion_lon": 0.0}, {"lat": 38.8929155, "is_disabled": 0, "type": "electric_scooter", "lon": -77.00208533333333, "bike_id": "8807261e5410fcda9815c691aec32027", "fusion_lat": 0.0, "name": "8807261e5410fcda9815c691aec32027", "is_reserved": 0, "rental_uris": {"android": "https://dc.lft.to/lastmile_qr_scan", "ios": "https://dc.lft.to/lastmile_qr_scan"}, "fusion_lon": 0.0}, {"lat": 38.9331205, "is_disabled": 0, "type": "electric_scooter", "lon": -77.04398233333333, "bike_id": "6462e78f9c9fd377d7ffa691c96ccd53", "fusion_lat": 0.0, "name": "6462e78f9c9fd377d7ffa691c96ccd53", "is_reserved": 0, "rental_uris": {"android": "https://dc.lft.to/lastmile_qr_scan", "ios": "https://dc.lft.to/lastmile_qr_scan"}, "fusion_lon": 0.0}, {"lat": 38.89800833333334, "is_disabled": 0, "type": "electric_scooter", "lon": -77.0329825, "bike_id": "8d16c1d278683c70badd3e2b69b000c0", "fusion_lat": 0.0, "name": "8d16c1d278683c70badd3e2b69b000c0", "is_reserved": 0, "rental_uris": {"android": "https://dc.lft.to/lastmile_qr_scan", "ios": "https://dc.lft.to/lastmile_qr_scan"}, "fusion_lon": 0.0}, {"lat": 38.88489283333333, "is_disabled": 0, "type": "electric_scooter", "lon": -77.020875, "bike_id": "9802904aeb32aa884a8a60ef4698520a", "fusion_lat": 0.0, "name": "9802904aeb32aa884a8a60ef4698520a", "is_reserved": 0, "rental_uris": {"android": "https://dc.lft.to/lastmile_qr_scan", "ios": "https://dc.lft.to/lastmile_qr_scan"}, "fusion_lon": 0.0}, {"lat": 38.899466, "is_disabled": 0, "type": "electric_scooter", "lon": -77.05201433333333, "bike_id": "c1f887fe90de4a5209501e00a8080f88", "fusion_lat": 0.0, "name": "c1f887fe90de4a5209501e00a8080f88", "is_reserved": 0, "rental_uris": {"android": "https://dc.lft.to/lastmile_qr_scan", "ios": "https://dc.lft.to/lastmile_qr_scan"}, "fusion_lon": 0.0}, {"lat": 38.85848, "is_disabled": 0, "type": "electric_bike", "lon": -77.09754433333333, "bike_id": "40075258f281ffb6a6fe4694ca213392", "fusion_lat": 0.0, "name": "40075258f281ffb6a6fe4694ca213392", "is_reserved": 0, "rental_uris": {"android": "https://dc.lft.to/lastmile_qr_scan", "ios": "https://dc.lft.to/lastmile_qr_scan"}, "fusion_lon": 0.0}, {"lat": 38.91412583333333, "is_disabled": 0, "type": "electric_scooter", "lon": -77.02233716666667, "bike_id": "614be78ecf916b73687bf3ab46e99200", "fusion_lat": 0.0, "name": "614be78ecf916b73687bf3ab46e99200", "is_reserved": 0, "rental_uris": {"android": "https://dc.lft.to/lastmile_qr_scan", "ios": "https://dc.lft.to/lastmile_qr_scan"}, "fusion_lon": 0.0}, {"lat": 38.897426333333335, "is_disabled": 0, "type": "electric_scooter", "lon": -77.031694, "bike_id": "c81eda2ba2ad4ce932978ed3d88fb125", "fusion_lat": 0.0, "name": "c81eda2ba2ad4ce932978ed3d88fb125", "is_reserved": 0, "rental_uris": {"android": "https://dc.lft.to/lastmile_qr_scan", "ios": "https://dc.lft.to/lastmile_qr_scan"}, "fusion_lon": 0.0}, {"lat": 38.95892416666667, "is_disabled": 0, "type": "electric_bike", "lon": -76.92491833333334, "bike_id": "5df9a4566f0f5fe8c17a0448b94d61d5", "fusion_lat": 0.0, "name": "5df9a4566f0f5fe8c17a0448b94d61d5", "is_reserved": 0, "rental_uris": {"android": "https://dc.lft.to/lastmile_qr_scan", "ios": "https://dc.lft.to/lastmile_qr_scan"}, "fusion_lon": 0.0}, {"lat": 38.89273033333333, "is_disabled": 0, "type": "electric_scooter", "lon": -77.05029616666667, "bike_id": "19b59c8ad98a73ce9845b565add86c14", "fusion_lat": 0.0, "name": "19b59c8ad98a73ce9845b565add86c14", "is_reserved": 0, "rental_uris": {"android": "https://dc.lft.to/lastmile_qr_scan", "ios": "https://dc.lft.to/lastmile_qr_scan"}, "fusion_lon": 0.0}, {"lat": 38.89045733333333, "is_disabled": 0, "type": "electric_scooter", "lon": -76.94073516666667, "bike_id": "68186e0ffad929437448696f37b8ddcb", "fusion_lat": 0.0, "name": "68186e0ffad929437448696f37b8ddcb", "is_reserved": 0, "rental_uris": {"android": "https://dc.lft.to/lastmile_qr_scan", "ios": "https://dc.lft.to/lastmile_qr_scan"}, "fusion_lon": 0.0}, {"lat": 38.91419966666667, "is_disabled": 0, "type": "electric_scooter", "lon": -77.03173466666667, "bike_id": "648f437941717c34a966deaa48c1252f", "fusion_lat": 0.0, "name": "648f437941717c34a966deaa48c1252f", "is_reserved": 0, "rental_uris": {"android": "https://dc.lft.to/lastmile_qr_scan", "ios": "https://dc.lft.to/lastmile_qr_scan"}, "fusion_lon": 0.0}, {"lat": 38.930934666666666, "is_disabled": 0, "type": "electric_scooter", "lon": -77.03763283333333, "bike_id": "37854eecb7a97d224b21758d09896aa7", "fusion_lat": 0.0, "name": "37854eecb7a97d224b21758d09896aa7", "is_reserved": 0, "rental_uris": {"android": "https://dc.lft.to/lastmile_qr_scan", "ios": "https://dc.lft.to/lastmile_qr_scan"}, "fusion_lon": 0.0}, {"lat": 38.89997816666666, "is_disabled": 0, "type": "electric_scooter", "lon": -77.0522915, "bike_id": "8cc1d58c105b5db054279bfdde752f2b", "fusion_lat": 0.0, "name": "8cc1d58c105b5db054279bfdde752f2b", "is_reserved": 0, "rental_uris": {"android": "https://dc.lft.to/lastmile_qr_scan", "ios": "https://dc.lft.to/lastmile_qr_scan"}, "fusion_lon": 0.0}, {"lat": 38.929069, "is_disabled": 0, "type": "electric_scooter", "lon": -77.03172, "bike_id": "e5c361755357a826bea15e36dbf7a166", "fusion_lat": 0.0, "name": "e5c361755357a826bea15e36dbf7a166", "is_reserved": 0, "rental_uris": {"android": "https://dc.lft.to/lastmile_qr_scan", "ios": "https://dc.lft.to/lastmile_qr_scan"}, "fusion_lon": 0.0}, {"lat": 38.90002366666667, "is_disabled": 0, "type": "electric_scooter", "lon": -77.0403595, "bike_id": "369edcf8fb35f97b0a2167f1cce53d27", "fusion_lat": 0.0, "name": "369edcf8fb35f97b0a2167f1cce53d27", "is_reserved": 0, "rental_uris": {"android": "https://dc.lft.to/lastmile_qr_scan", "ios": "https://dc.lft.to/lastmile_qr_scan"}, "fusion_lon": 0.0}, {"lat": 38.89189, "is_disabled": 0, "type": "electric_scooter", "lon": -76.9963265, "bike_id": "ffc749cceb7b47b603b1b9093968bb10", "fusion_lat": 0.0, "name": "ffc749cceb7b47b603b1b9093968bb10", "is_reserved": 0, "rental_uris": {"android": "https://dc.lft.to/lastmile_qr_scan", "ios": "https://dc.lft.to/lastmile_qr_scan"}, "fusion_lon": 0.0}, {"lat": 38.89613383333333, "is_disabled": 0, "type": "electric_scooter", "lon": -76.99300266666667, "bike_id": "a0fd3897d4b02d20b4db756ce9fd129f", "fusion_lat": 0.0, "name": "a0fd3897d4b02d20b4db756ce9fd129f", "is_reserved": 0, "rental_uris": {"android": "https://dc.lft.to/lastmile_qr_scan", "ios": "https://dc.lft.to/lastmile_qr_scan"}, "fusion_lon": 0.0}, {"lat": 38.930854833333335, "is_disabled": 0, "type": "electric_scooter", "lon": -77.077502, "bike_id": "4ea132d2310e44769b72ecbcc2cedf48", "fusion_lat": 0.0, "name": "4ea132d2310e44769b72ecbcc2cedf48", "is_reserved": 0, "rental_uris": {"android": "https://dc.lft.to/lastmile_qr_scan", "ios": "https://dc.lft.to/lastmile_qr_scan"}, "fusion_lon": 0.0}, {"lat": 38.902544166666665, "is_disabled": 0, "type": "electric_scooter", "lon": -77.029031, "bike_id": "8ed55dd3fca8c419090099024e93d1f7", "fusion_lat": 0.0, "name": "8ed55dd3fca8c419090099024e93d1f7", "is_reserved": 0, "rental_uris": {"android": "https://dc.lft.to/lastmile_qr_scan", "ios": "https://dc.lft.to/lastmile_qr_scan"}, "fusion_lon": 0.0}, {"lat": 38.90717033333333, "is_disabled": 0, "type": "electric_scooter", "lon": -76.9892875, "bike_id": "6da7a793d3f1968f468dd22a56c4c08c", "fusion_lat": 0.0, "name": "6da7a793d3f1968f468dd22a56c4c08c", "is_reserved": 0, "rental_uris": {"android": "https://dc.lft.to/lastmile_qr_scan", "ios": "https://dc.lft.to/lastmile_qr_scan"}, "fusion_lon": 0.0}, {"lat": 38.84022933333333, "is_disabled": 0, "type": "electric_bike", "lon": -76.97585183333334, "bike_id": "2c23484fb729a0a2016298019bbf27ac", "fusion_lat": 0.0, "name": "2c23484fb729a0a2016298019bbf27ac", "is_reserved": 0, "rental_uris": {"android": "https://dc.lft.to/lastmile_qr_scan", "ios": "https://dc.lft.to/lastmile_qr_scan"}, "fusion_lon": 0.0}, {"lat": 38.89795316666667, "is_disabled": 0, "type": "electric_scooter", "lon": -77.03003716666667, "bike_id": "6bb91e3a659898079fb93824cb2becf7", "fusion_lat": 0.0, "name": "6bb91e3a659898079fb93824cb2becf7", "is_reserved": 0, "rental_uris": {"android": "https://dc.lft.to/lastmile_qr_scan", "ios": "https://dc.lft.to/lastmile_qr_scan"}, "fusion_lon": 0.0}, {"lat": 39.058137, "is_disabled": 0, "type": "electric_bike", "lon": -77.12626716666666, "bike_id": "ad188fe145cebf3e3ea66fdf1781b98a", "fusion_lat": 0.0, "name": "ad188fe145cebf3e3ea66fdf1781b98a", "is_reserved": 0, "rental_uris": {"android": "https://dc.lft.to/lastmile_qr_scan", "ios": "https://dc.lft.to/lastmile_qr_scan"}, "fusion_lon": 0.0}, {"lat": 38.90036766666667, "is_disabled": 0, "type": "electric_scooter", "lon": -77.01222533333333, "bike_id": "c31cb78ec935485de9aa58a953d3e49c", "fusion_lat": 0.0, "name": "c31cb78ec935485de9aa58a953d3e49c", "is_reserved": 0, "rental_uris": {"android": "https://dc.lft.to/lastmile_qr_scan", "ios": "https://dc.lft.to/lastmile_qr_scan"}, "fusion_lon": 0.0}, {"lat": 38.861101166666664, "is_disabled": 0, "type": "electric_scooter", "lon": -76.98382566666666, "bike_id": "c8fca71254fc2513a6c634e598376027", "fusion_lat": 0.0, "name": "c8fca71254fc2513a6c634e598376027", "is_reserved": 0, "rental_uris": {"android": "https://dc.lft.to/lastmile_qr_scan", "ios": "https://dc.lft.to/lastmile_qr_scan"}, "fusion_lon": 0.0}, {"lat": 38.935439833333334, "is_disabled": 0, "type": "electric_scooter", "lon": -77.03399283333333, "bike_id": "4af52501ea0a433f39e5111d6fae73bd", "fusion_lat": 0.0, "name": "4af52501ea0a433f39e5111d6fae73bd", "is_reserved": 0, "rental_uris": {"android": "https://dc.lft.to/lastmile_qr_scan", "ios": "https://dc.lft.to/lastmile_qr_scan"}, "fusion_lon": 0.0}, {"lat": 38.876372833333335, "is_disabled": 0, "type": "electric_bike", "lon": -77.11781983333333, "bike_id": "fa60968be04fff9b7f43815893a957b5", "fusion_lat": 0.0, "name": "fa60968be04fff9b7f43815893a957b5", "is_reserved": 0, "rental_uris": {"android": "https://dc.lft.to/lastmile_qr_scan", "ios": "https://dc.lft.to/lastmile_qr_scan"}, "fusion_lon": 0.0}, {"lat": 38.925431, "is_disabled": 0, "type": "electric_scooter", "lon": -77.03448466666667, "bike_id": "e7f44accfbe505788c02979bb0bd0b71", "fusion_lat": 0.0, "name": "e7f44accfbe505788c02979bb0bd0b71", "is_reserved": 0, "rental_uris": {"android": "https://dc.lft.to/lastmile_qr_scan", "ios": "https://dc.lft.to/lastmile_qr_scan"}, "fusion_lon": 0.0}, {"lat": 38.89540616666667, "is_disabled": 0, "type": "electric_scooter", "lon": -77.04058883333333, "bike_id": "78ee8e00028329ec543e1e193c926dec", "fusion_lat": 0.0, "name": "78ee8e00028329ec543e1e193c926dec", "is_reserved": 0, "rental_uris": {"android": "https://dc.lft.to/lastmile_qr_scan", "ios": "https://dc.lft.to/lastmile_qr_scan"}, "fusion_lon": 0.0}, {"lat": 38.908866333333336, "is_disabled": 0, "type": "electric_scooter", "lon": -77.04343083333333, "bike_id": "dcee3145bbd81808f26c8b55723ce0cc", "fusion_lat": 0.0, "name": "dcee3145bbd81808f26c8b55723ce0cc", "is_reserved": 0, "rental_uris": {"android": "https://dc.lft.to/lastmile_qr_scan", "ios": "https://dc.lft.to/lastmile_qr_scan"}, "fusion_lon": 0.0}, {"lat": 38.924857, "is_disabled": 0, "type": "electric_scooter", "lon": -77.05216183333333, "bike_id": "8efa1d92771338f27b41a8c1735d1a09", "fusion_lat": 0.0, "name": "8efa1d92771338f27b41a8c1735d1a09", "is_reserved": 0, "rental_uris": {"android": "https://dc.lft.to/lastmile_qr_scan", "ios": "https://dc.lft.to/lastmile_qr_scan"}, "fusion_lon": 0.0}, {"lat": 38.913486166666665, "is_disabled": 0, "type": "electric_scooter", "lon": -77.0318525, "bike_id": "e9d4b5a2169e825c7e65882705d32f1f", "fusion_lat": 0.0, "name": "e9d4b5a2169e825c7e65882705d32f1f", "is_reserved": 0, "rental_uris": {"android": "https://dc.lft.to/lastmile_qr_scan", "ios": "https://dc.lft.to/lastmile_qr_scan"}, "fusion_lon": 0.0}, {"lat": 38.914026666666665, "is_disabled": 0, "type": "electric_scooter", "lon": -77.03225316666666, "bike_id": "a315e673f85da34a2d565e47d6389f87", "fusion_lat": 0.0, "name": "a315e673f85da34a2d565e47d6389f87", "is_reserved": 0, "rental_uris": {"android": "https://dc.lft.to/lastmile_qr_scan", "ios": "https://dc.lft.to/lastmile_qr_scan"}, "fusion_lon": 0.0}, {"lat": 38.92066766666667, "is_disabled": 0, "type": "electric_scooter", "lon": -77.02428733333333, "bike_id": "f7abe61dadb125480d5370c0dc17b81c", "fusion_lat": 0.0, "name": "f7abe61dadb125480d5370c0dc17b81c", "is_reserved": 0, "rental_uris": {"android": "https://dc.lft.to/lastmile_qr_scan", "ios": "https://dc.lft.to/lastmile_qr_scan"}, "fusion_lon": 0.0}, {"lat": 38.91251966666667, "is_disabled": 0, "type": "electric_scooter", "lon": -77.038664, "bike_id": "2559847a5e03b06a701007ef18c23f8b", "fusion_lat": 0.0, "name": "2559847a5e03b06a701007ef18c23f8b", "is_reserved": 0, "rental_uris": {"android": "https://dc.lft.to/lastmile_qr_scan", "ios": "https://dc.lft.to/lastmile_qr_scan"}, "fusion_lon": 0.0}, {"lat": 38.9036525, "is_disabled": 0, "type": "electric_bike", "lon": -77.0396685, "bike_id": "984f2e2fef49fadae7fcea73871d3ecc", "fusion_lat": 0.0, "name": "984f2e2fef49fadae7fcea73871d3ecc", "is_reserved": 0, "rental_uris": {"android": "https://dc.lft.to/lastmile_qr_scan", "ios": "https://dc.lft.to/lastmile_qr_scan"}, "fusion_lon": 0.0}, {"lat": 38.90080533333333, "is_disabled": 0, "type": "electric_scooter", "lon": -77.049988, "bike_id": "fafd85ba67b9bc54eca2c85a9e2fb443", "fusion_lat": 0.0, "name": "fafd85ba67b9bc54eca2c85a9e2fb443", "is_reserved": 0, "rental_uris": {"android": "https://dc.lft.to/lastmile_qr_scan", "ios": "https://dc.lft.to/lastmile_qr_scan"}, "fusion_lon": 0.0}, {"lat": 38.898687333333335, "is_disabled": 0, "type": "electric_scooter", "lon": -77.01875616666666, "bike_id": "1b9092445254be1acb8c3c71674bdc3c", "fusion_lat": 0.0, "name": "1b9092445254be1acb8c3c71674bdc3c", "is_reserved": 0, "rental_uris": {"android": "https://dc.lft.to/lastmile_qr_scan", "ios": "https://dc.lft.to/lastmile_qr_scan"}, "fusion_lon": 0.0}, {"lat": 38.89743516666667, "is_disabled": 0, "type": "electric_scooter", "lon": -77.00864066666666, "bike_id": "4c722007cde2b7cb756eb58cc344fe63", "fusion_lat": 0.0, "name": "4c722007cde2b7cb756eb58cc344fe63", "is_reserved": 0, "rental_uris": {"android": "https://dc.lft.to/lastmile_qr_scan", "ios": "https://dc.lft.to/lastmile_qr_scan"}, "fusion_lon": 0.0}, {"lat": 38.923225, "is_disabled": 0, "type": "electric_scooter", "lon": -77.03902833333333, "bike_id": "64cf36d2f4f0eb9e627160d36c825973", "fusion_lat": 0.0, "name": "64cf36d2f4f0eb9e627160d36c825973", "is_reserved": 0, "rental_uris": {"android": "https://dc.lft.to/lastmile_qr_scan", "ios": "https://dc.lft.to/lastmile_qr_scan"}, "fusion_lon": 0.0}, {"lat": 38.9218275, "is_disabled": 0, "type": "electric_scooter", "lon": -77.02977483333333, "bike_id": "937c069f0a7bc742da0eaf298d45cd1c", "fusion_lat": 0.0, "name": "937c069f0a7bc742da0eaf298d45cd1c", "is_reserved": 0, "rental_uris": {"android": "https://dc.lft.to/lastmile_qr_scan", "ios": "https://dc.lft.to/lastmile_qr_scan"}, "fusion_lon": 0.0}, {"lat": 38.944969, "is_disabled": 0, "type": "electric_scooter", "lon": -77.0155035, "bike_id": "73a25f8b8895686a061695e685db08e3", "fusion_lat": 0.0, "name": "73a25f8b8895686a061695e685db08e3", "is_reserved": 0, "rental_uris": {"android": "https://dc.lft.to/lastmile_qr_scan", "ios": "https://dc.lft.to/lastmile_qr_scan"}, "fusion_lon": 0.0}, {"lat": 38.84623333333333, "is_disabled": 0, "type": "electric_bike", "lon": -77.06938466666666, "bike_id": "7082e882eaedf9d1dec077bf888d9ab6", "fusion_lat": 0.0, "name": "7082e882eaedf9d1dec077bf888d9ab6", "is_reserved": 0, "rental_uris": {"android": "https://dc.lft.to/lastmile_qr_scan", "ios": "https://dc.lft.to/lastmile_qr_scan"}, "fusion_lon": 0.0}, {"lat": 38.89005916666667, "is_disabled": 0, "type": "electric_scooter", "lon": -76.937513, "bike_id": "8e400588b705b8600e77fd39dbc2e29f", "fusion_lat": 0.0, "name": "8e400588b705b8600e77fd39dbc2e29f", "is_reserved": 0, "rental_uris": {"android": "https://dc.lft.to/lastmile_qr_scan", "ios": "https://dc.lft.to/lastmile_qr_scan"}, "fusion_lon": 0.0}, {"lat": 38.8950695, "is_disabled": 0, "type": "electric_scooter", "lon": -77.02743033333333, "bike_id": "b64eac2845547374745af58d7938a14f", "fusion_lat": 0.0, "name": "b64eac2845547374745af58d7938a14f", "is_reserved": 0, "rental_uris": {"android": "https://dc.lft.to/lastmile_qr_scan", "ios": "https://dc.lft.to/lastmile_qr_scan"}, "fusion_lon": 0.0}, {"lat": 38.918046833333335, "is_disabled": 0, "type": "electric_scooter", "lon": -77.0317795, "bike_id": "c2ea68db7782f2ae3c773bb887eae416", "fusion_lat": 0.0, "name": "c2ea68db7782f2ae3c773bb887eae416", "is_reserved": 0, "rental_uris": {"android": "https://dc.lft.to/lastmile_qr_scan", "ios": "https://dc.lft.to/lastmile_qr_scan"}, "fusion_lon": 0.0}, {"lat": 38.917041833333336, "is_disabled": 0, "type": "electric_scooter", "lon": -77.03450433333333, "bike_id": "46482e98e01c131c67f29120e2b71278", "fusion_lat": 0.0, "name": "46482e98e01c131c67f29120e2b71278", "is_reserved": 0, "rental_uris": {"android": "https://dc.lft.to/lastmile_qr_scan", "ios": "https://dc.lft.to/lastmile_qr_scan"}, "fusion_lon": 0.0}, {"lat": 38.91215733333333, "is_disabled": 0, "type": "electric_scooter", "lon": -77.04351166666666, "bike_id": "36977b0a8b88552a43d7218d41f35391", "fusion_lat": 0.0, "name": "36977b0a8b88552a43d7218d41f35391", "is_reserved": 0, "rental_uris": {"android": "https://dc.lft.to/lastmile_qr_scan", "ios": "https://dc.lft.to/lastmile_qr_scan"}, "fusion_lon": 0.0}, {"lat": 38.918038833333334, "is_disabled": 0, "type": "electric_scooter", "lon": -77.02310933333334, "bike_id": "818f69c60397ea1458c51abde46cf019", "fusion_lat": 0.0, "name": "818f69c60397ea1458c51abde46cf019", "is_reserved": 0, "rental_uris": {"android": "https://dc.lft.to/lastmile_qr_scan", "ios": "https://dc.lft.to/lastmile_qr_scan"}, "fusion_lon": 0.0}, {"lat": 38.892854166666666, "is_disabled": 0, "type": "electric_scooter", "lon": -77.050463, "bike_id": "1309c4c55ab4a3e98e6d0d5dd5445285", "fusion_lat": 0.0, "name": "1309c4c55ab4a3e98e6d0d5dd5445285", "is_reserved": 0, "rental_uris": {"android": "https://dc.lft.to/lastmile_qr_scan", "ios": "https://dc.lft.to/lastmile_qr_scan"}, "fusion_lon": 0.0}, {"lat": 38.91837683333333, "is_disabled": 0, "type": "electric_scooter", "lon": -76.96540466666667, "bike_id": "06892ae2a75c10c81f7d5835ce364c4a", "fusion_lat": 0.0, "name": "06892ae2a75c10c81f7d5835ce364c4a", "is_reserved": 0, "rental_uris": {"android": "https://dc.lft.to/lastmile_qr_scan", "ios": "https://dc.lft.to/lastmile_qr_scan"}, "fusion_lon": 0.0}, {"lat": 38.9238345, "is_disabled": 0, "type": "electric_scooter", "lon": -77.03073566666667, "bike_id": "dfa8c5bf9b4356382111c0841206dca5", "fusion_lat": 0.0, "name": "dfa8c5bf9b4356382111c0841206dca5", "is_reserved": 0, "rental_uris": {"android": "https://dc.lft.to/lastmile_qr_scan", "ios": "https://dc.lft.to/lastmile_qr_scan"}, "fusion_lon": 0.0}, {"lat": 38.923199, "is_disabled": 0, "type": "electric_scooter", "lon": -77.02966116666667, "bike_id": "d9e252470a736010eb8c4ca9e718a026", "fusion_lat": 0.0, "name": "d9e252470a736010eb8c4ca9e718a026", "is_reserved": 0, "rental_uris": {"android": "https://dc.lft.to/lastmile_qr_scan", "ios": "https://dc.lft.to/lastmile_qr_scan"}, "fusion_lon": 0.0}, {"lat": 38.92912183333333, "is_disabled": 0, "type": "electric_scooter", "lon": -77.03259733333333, "bike_id": "64cbcb06a1fd6c778f1e63e603b63c97", "fusion_lat": 0.0, "name": "64cbcb06a1fd6c778f1e63e603b63c97", "is_reserved": 0, "rental_uris": {"android": "https://dc.lft.to/lastmile_qr_scan", "ios": "https://dc.lft.to/lastmile_qr_scan"}, "fusion_lon": 0.0}, {"lat": 38.9382995, "is_disabled": 0, "type": "electric_scooter", "lon": -77.06042433333333, "bike_id": "4835c29be2618b73f9c08d6fca938176", "fusion_lat": 0.0, "name": "4835c29be2618b73f9c08d6fca938176", "is_reserved": 0, "rental_uris": {"android": "https://dc.lft.to/lastmile_qr_scan", "ios": "https://dc.lft.to/lastmile_qr_scan"}, "fusion_lon": 0.0}, {"lat": 38.89837333333333, "is_disabled": 0, "type": "electric_scooter", "lon": -76.93103583333334, "bike_id": "e9101e86dd97a579907b49aa354006ea", "fusion_lat": 0.0, "name": "e9101e86dd97a579907b49aa354006ea", "is_reserved": 0, "rental_uris": {"android": "https://dc.lft.to/lastmile_qr_scan", "ios": "https://dc.lft.to/lastmile_qr_scan"}, "fusion_lon": 0.0}, {"lat": 38.8924155, "is_disabled": 0, "type": "electric_scooter", "lon": -77.0489425, "bike_id": "d9196d53bca75dfd41f04d537006ae6f", "fusion_lat": 0.0, "name": "d9196d53bca75dfd41f04d537006ae6f", "is_reserved": 0, "rental_uris": {"android": "https://dc.lft.to/lastmile_qr_scan", "ios": "https://dc.lft.to/lastmile_qr_scan"}, "fusion_lon": 0.0}, {"lat": 38.902354333333335, "is_disabled": 0, "type": "electric_scooter", "lon": -77.05342366666666, "bike_id": "8bda9919287abe79628e1cf8a43f76fa", "fusion_lat": 0.0, "name": "8bda9919287abe79628e1cf8a43f76fa", "is_reserved": 0, "rental_uris": {"android": "https://dc.lft.to/lastmile_qr_scan", "ios": "https://dc.lft.to/lastmile_qr_scan"}, "fusion_lon": 0.0}, {"lat": 38.96604833333333, "is_disabled": 0, "type": "electric_bike", "lon": -76.98334866666667, "bike_id": "01b88e524fd4bbd2339573f29d959a46", "fusion_lat": 0.0, "name": "01b88e524fd4bbd2339573f29d959a46", "is_reserved": 0, "rental_uris": {"android": "https://dc.lft.to/lastmile_qr_scan", "ios": "https://dc.lft.to/lastmile_qr_scan"}, "fusion_lon": 0.0}, {"lat": 38.93330916666667, "is_disabled": 0, "type": "electric_scooter", "lon": -77.05705933333333, "bike_id": "b327bd23659286d71405605c065b6f02", "fusion_lat": 0.0, "name": "b327bd23659286d71405605c065b6f02", "is_reserved": 0, "rental_uris": {"android": "https://dc.lft.to/lastmile_qr_scan", "ios": "https://dc.lft.to/lastmile_qr_scan"}, "fusion_lon": 0.0}, {"lat": 38.933546, "is_disabled": 0, "type": "electric_scooter", "lon": -77.07376166666667, "bike_id": "0ded5e4b3c90ff1ecb92d2cf9d1b0608", "fusion_lat": 0.0, "name": "0ded5e4b3c90ff1ecb92d2cf9d1b0608", "is_reserved": 0, "rental_uris": {"android": "https://dc.lft.to/lastmile_qr_scan", "ios": "https://dc.lft.to/lastmile_qr_scan"}, "fusion_lon": 0.0}, {"lat": 38.899814666666664, "is_disabled": 0, "type": "electric_bike", "lon": -76.98544916666667, "bike_id": "831ba1afb7579f2a3767aab372a5bf59", "fusion_lat": 0.0, "name": "831ba1afb7579f2a3767aab372a5bf59", "is_reserved": 0, "rental_uris": {"android": "https://dc.lft.to/lastmile_qr_scan", "ios": "https://dc.lft.to/lastmile_qr_scan"}, "fusion_lon": 0.0}, {"lat": 38.910478833333336, "is_disabled": 0, "type": "electric_scooter", "lon": -77.0152355, "bike_id": "8228a96594364b7368cec2f8c24320c8", "fusion_lat": 0.0, "name": "8228a96594364b7368cec2f8c24320c8", "is_reserved": 0, "rental_uris": {"android": "https://dc.lft.to/lastmile_qr_scan", "ios": "https://dc.lft.to/lastmile_qr_scan"}, "fusion_lon": 0.0}, {"lat": 38.91684516666667, "is_disabled": 0, "type": "electric_scooter", "lon": -77.0377165, "bike_id": "f40d18321df1c7e7ae64b30a0acdcfc5", "fusion_lat": 0.0, "name": "f40d18321df1c7e7ae64b30a0acdcfc5", "is_reserved": 0, "rental_uris": {"android": "https://dc.lft.to/lastmile_qr_scan", "ios": "https://dc.lft.to/lastmile_qr_scan"}, "fusion_lon": 0.0}, {"lat": 38.9460085, "is_disabled": 0, "type": "electric_scooter", "lon": -77.02978766666666, "bike_id": "42da81fa741f25f01edd7e080295cb2c", "fusion_lat": 0.0, "name": "42da81fa741f25f01edd7e080295cb2c", "is_reserved": 0, "rental_uris": {"android": "https://dc.lft.to/lastmile_qr_scan", "ios": "https://dc.lft.to/lastmile_qr_scan"}, "fusion_lon": 0.0}, {"lat": 38.92413033333333, "is_disabled": 0, "type": "electric_scooter", "lon": -77.04455533333334, "bike_id": "d6678a5240667550ae298c6fd3e8a59b", "fusion_lat": 0.0, "name": "d6678a5240667550ae298c6fd3e8a59b", "is_reserved": 0, "rental_uris": {"android": "https://dc.lft.to/lastmile_qr_scan", "ios": "https://dc.lft.to/lastmile_qr_scan"}, "fusion_lon": 0.0}, {"lat": 38.86512416666667, "is_disabled": 0, "type": "electric_scooter", "lon": -76.974228, "bike_id": "a380753225bbf95ccaba3ab96df07c14", "fusion_lat": 0.0, "name": "a380753225bbf95ccaba3ab96df07c14", "is_reserved": 0, "rental_uris": {"android": "https://dc.lft.to/lastmile_qr_scan", "ios": "https://dc.lft.to/lastmile_qr_scan"}, "fusion_lon": 0.0}, {"lat": 38.899474166666664, "is_disabled": 0, "type": "electric_scooter", "lon": -77.0517165, "bike_id": "5f60679231f128cae2abab95d2d55b21", "fusion_lat": 0.0, "name": "5f60679231f128cae2abab95d2d55b21", "is_reserved": 0, "rental_uris": {"android": "https://dc.lft.to/lastmile_qr_scan", "ios": "https://dc.lft.to/lastmile_qr_scan"}, "fusion_lon": 0.0}, {"lat": 38.87475333333333, "is_disabled": 0, "type": "electric_scooter", "lon": -77.01072183333333, "bike_id": "8060490d5df90508055508ab88aa67fe", "fusion_lat": 0.0, "name": "8060490d5df90508055508ab88aa67fe", "is_reserved": 0, "rental_uris": {"android": "https://dc.lft.to/lastmile_qr_scan", "ios": "https://dc.lft.to/lastmile_qr_scan"}, "fusion_lon": 0.0}, {"lat": 38.902089833333335, "is_disabled": 0, "type": "electric_scooter", "lon": -77.02816366666667, "bike_id": "eafa52352b3a7d881ff6abbbe5445e97", "fusion_lat": 0.0, "name": "eafa52352b3a7d881ff6abbbe5445e97", "is_reserved": 0, "rental_uris": {"android": "https://dc.lft.to/lastmile_qr_scan", "ios": "https://dc.lft.to/lastmile_qr_scan"}, "fusion_lon": 0.0}, {"lat": 38.899614, "is_disabled": 0, "type": "electric_scooter", "lon": -77.050993, "bike_id": "1bc89caf7b048f235cc6c836efda6c8b", "fusion_lat": 0.0, "name": "1bc89caf7b048f235cc6c836efda6c8b", "is_reserved": 0, "rental_uris": {"android": "https://dc.lft.to/lastmile_qr_scan", "ios": "https://dc.lft.to/lastmile_qr_scan"}, "fusion_lon": 0.0}, {"lat": 38.897356333333335, "is_disabled": 0, "type": "electric_scooter", "lon": -77.04685366666666, "bike_id": "f24b9a7af23a80d15a2ce48887090402", "fusion_lat": 0.0, "name": "f24b9a7af23a80d15a2ce48887090402", "is_reserved": 0, "rental_uris": {"android": "https://dc.lft.to/lastmile_qr_scan", "ios": "https://dc.lft.to/lastmile_qr_scan"}, "fusion_lon": 0.0}, {"lat": 38.90032766666667, "is_disabled": 0, "type": "electric_scooter", "lon": -77.01229483333333, "bike_id": "238b35c424682ef57e7b02f7ec86c28b", "fusion_lat": 0.0, "name": "238b35c424682ef57e7b02f7ec86c28b", "is_reserved": 0, "rental_uris": {"android": "https://dc.lft.to/lastmile_qr_scan", "ios": "https://dc.lft.to/lastmile_qr_scan"}, "fusion_lon": 0.0}, {"lat": 38.892261, "is_disabled": 0, "type": "electric_scooter", "lon": -77.02645166666667, "bike_id": "2194230d47f544d105c113e22a00d9d9", "fusion_lat": 0.0, "name": "2194230d47f544d105c113e22a00d9d9", "is_reserved": 0, "rental_uris": {"android": "https://dc.lft.to/lastmile_qr_scan", "ios": "https://dc.lft.to/lastmile_qr_scan"}, "fusion_lon": 0.0}, {"lat": 38.876029, "is_disabled": 0, "type": "electric_bike", "lon": -77.00076333333334, "bike_id": "813ea144ca99f1d0b7442d3e312bfde6", "fusion_lat": 0.0, "name": "813ea144ca99f1d0b7442d3e312bfde6", "is_reserved": 0, "rental_uris": {"android": "https://dc.lft.to/lastmile_qr_scan", "ios": "https://dc.lft.to/lastmile_qr_scan"}, "fusion_lon": 0.0}, {"lat": 38.912530833333335, "is_disabled": 0, "type": "electric_scooter", "lon": -77.03863416666667, "bike_id": "35c41e44677ce7bc6188ca2da0cd09df", "fusion_lat": 0.0, "name": "35c41e44677ce7bc6188ca2da0cd09df", "is_reserved": 0, "rental_uris": {"android": "https://dc.lft.to/lastmile_qr_scan", "ios": "https://dc.lft.to/lastmile_qr_scan"}, "fusion_lon": 0.0}, {"lat": 38.8768085, "is_disabled": 0, "type": "electric_scooter", "lon": -77.0178865, "bike_id": "ed68cfa3574dbdb94ae8becc1adb1ff2", "fusion_lat": 0.0, "name": "ed68cfa3574dbdb94ae8becc1adb1ff2", "is_reserved": 0, "rental_uris": {"android": "https://dc.lft.to/lastmile_qr_scan", "ios": "https://dc.lft.to/lastmile_qr_scan"}, "fusion_lon": 0.0}, {"lat": 38.906930333333335, "is_disabled": 0, "type": "electric_scooter", "lon": -76.9995935, "bike_id": "c3ba05d8d1783fa7032710982434def8", "fusion_lat": 0.0, "name": "c3ba05d8d1783fa7032710982434def8", "is_reserved": 0, "rental_uris": {"android": "https://dc.lft.to/lastmile_qr_scan", "ios": "https://dc.lft.to/lastmile_qr_scan"}, "fusion_lon": 0.0}, {"lat": 38.926271666666665, "is_disabled": 0, "type": "electric_scooter", "lon": -77.03788766666666, "bike_id": "a173ccc91472d966532be8bcd8886146", "fusion_lat": 0.0, "name": "a173ccc91472d966532be8bcd8886146", "is_reserved": 0, "rental_uris": {"android": "https://dc.lft.to/lastmile_qr_scan", "ios": "https://dc.lft.to/lastmile_qr_scan"}, "fusion_lon": 0.0}, {"lat": 38.90295866666666, "is_disabled": 0, "type": "electric_scooter", "lon": -77.05332116666666, "bike_id": "1a9d29bef04486fd4fbcf0a6a98af684", "fusion_lat": 0.0, "name": "1a9d29bef04486fd4fbcf0a6a98af684", "is_reserved": 0, "rental_uris": {"android": "https://dc.lft.to/lastmile_qr_scan", "ios": "https://dc.lft.to/lastmile_qr_scan"}, "fusion_lon": 0.0}, {"lat": 38.90221283333333, "is_disabled": 0, "type": "electric_scooter", "lon": -77.0164065, "bike_id": "ae045ff82a55ddbbe508a4450edcddc5", "fusion_lat": 0.0, "name": "ae045ff82a55ddbbe508a4450edcddc5", "is_reserved": 0, "rental_uris": {"android": "https://dc.lft.to/lastmile_qr_scan", "ios": "https://dc.lft.to/lastmile_qr_scan"}, "fusion_lon": 0.0}, {"lat": 38.95544816666666, "is_disabled": 0, "type": "electric_bike", "lon": -76.935412, "bike_id": "cc2139fabe8f2f87c440881cc9b3893a", "fusion_lat": 0.0, "name": "cc2139fabe8f2f87c440881cc9b3893a", "is_reserved": 0, "rental_uris": {"android": "https://dc.lft.to/lastmile_qr_scan", "ios": "https://dc.lft.to/lastmile_qr_scan"}, "fusion_lon": 0.0}, {"lat": 38.842929166666664, "is_disabled": 0, "type": "electric_scooter", "lon": -76.99949083333334, "bike_id": "e991d54f69ca309314f924f488e1ad31", "fusion_lat": 0.0, "name": "e991d54f69ca309314f924f488e1ad31", "is_reserved": 0, "rental_uris": {"android": "https://dc.lft.to/lastmile_qr_scan", "ios": "https://dc.lft.to/lastmile_qr_scan"}, "fusion_lon": 0.0}, {"lat": 38.937026833333334, "is_disabled": 0, "type": "electric_bike", "lon": -77.02532266666667, "bike_id": "a9a2c71c54a5f661a75bca2c4d7aff68", "fusion_lat": 0.0, "name": "a9a2c71c54a5f661a75bca2c4d7aff68", "is_reserved": 0, "rental_uris": {"android": "https://dc.lft.to/lastmile_qr_scan", "ios": "https://dc.lft.to/lastmile_qr_scan"}, "fusion_lon": 0.0}, {"lat": 38.88125933333333, "is_disabled": 0, "type": "electric_bike", "lon": -77.02712966666667, "bike_id": "1629f1aa9066f80d13de987599220df8", "fusion_lat": 0.0, "name": "1629f1aa9066f80d13de987599220df8", "is_reserved": 0, "rental_uris": {"android": "https://dc.lft.to/lastmile_qr_scan", "ios": "https://dc.lft.to/lastmile_qr_scan"}, "fusion_lon": 0.0}, {"lat": 38.86345416666666, "is_disabled": 0, "type": "electric_scooter", "lon": -76.99001166666666, "bike_id": "3b56e104eb37594225720e92c322aa0c", "fusion_lat": 0.0, "name": "3b56e104eb37594225720e92c322aa0c", "is_reserved": 0, "rental_uris": {"android": "https://dc.lft.to/lastmile_qr_scan", "ios": "https://dc.lft.to/lastmile_qr_scan"}, "fusion_lon": 0.0}, {"lat": 38.91265416666667, "is_disabled": 0, "type": "electric_scooter", "lon": -77.01309083333334, "bike_id": "8e4ff537b6384f67f5d97720492db7a7", "fusion_lat": 0.0, "name": "8e4ff537b6384f67f5d97720492db7a7", "is_reserved": 0, "rental_uris": {"android": "https://dc.lft.to/lastmile_qr_scan", "ios": "https://dc.lft.to/lastmile_qr_scan"}, "fusion_lon": 0.0}, {"lat": 38.911206166666666, "is_disabled": 0, "type": "electric_scooter", "lon": -77.03827833333334, "bike_id": "fd2aaefeeb9aed7e54b22b4494a3909c", "fusion_lat": 0.0, "name": "fd2aaefeeb9aed7e54b22b4494a3909c", "is_reserved": 0, "rental_uris": {"android": "https://dc.lft.to/lastmile_qr_scan", "ios": "https://dc.lft.to/lastmile_qr_scan"}, "fusion_lon": 0.0}, {"lat": 38.896904666666664, "is_disabled": 0, "type": "electric_scooter", "lon": -77.019728, "bike_id": "185826b0b1febd90d8f8a59b19799895", "fusion_lat": 0.0, "name": "185826b0b1febd90d8f8a59b19799895", "is_reserved": 0, "rental_uris": {"android": "https://dc.lft.to/lastmile_qr_scan", "ios": "https://dc.lft.to/lastmile_qr_scan"}, "fusion_lon": 0.0}, {"lat": 38.957771666666666, "is_disabled": 0, "type": "electric_scooter", "lon": -77.024691, "bike_id": "4c5665ffd8d0dbef54e685748b18ea2c", "fusion_lat": 0.0, "name": "4c5665ffd8d0dbef54e685748b18ea2c", "is_reserved": 0, "rental_uris": {"android": "https://dc.lft.to/lastmile_qr_scan", "ios": "https://dc.lft.to/lastmile_qr_scan"}, "fusion_lon": 0.0}, {"lat": 38.92682283333333, "is_disabled": 0, "type": "electric_scooter", "lon": -77.0510805, "bike_id": "03ca2bbe0236985e69c1fce5b13b5ee7", "fusion_lat": 0.0, "name": "03ca2bbe0236985e69c1fce5b13b5ee7", "is_reserved": 0, "rental_uris": {"android": "https://dc.lft.to/lastmile_qr_scan", "ios": "https://dc.lft.to/lastmile_qr_scan"}, "fusion_lon": 0.0}, {"lat": 38.89916733333333, "is_disabled": 0, "type": "electric_scooter", "lon": -76.93383833333333, "bike_id": "0d442af41414122cb0353e3866f7ec6e", "fusion_lat": 0.0, "name": "0d442af41414122cb0353e3866f7ec6e", "is_reserved": 0, "rental_uris": {"android": "https://dc.lft.to/lastmile_qr_scan", "ios": "https://dc.lft.to/lastmile_qr_scan"}, "fusion_lon": 0.0}, {"lat": 38.90642233333333, "is_disabled": 0, "type": "electric_scooter", "lon": -77.03853133333334, "bike_id": "09700c3981ba8b4de2efa6e74e76cc90", "fusion_lat": 0.0, "name": "09700c3981ba8b4de2efa6e74e76cc90", "is_reserved": 0, "rental_uris": {"android": "https://dc.lft.to/lastmile_qr_scan", "ios": "https://dc.lft.to/lastmile_qr_scan"}, "fusion_lon": 0.0}, {"lat": 38.90005166666667, "is_disabled": 0, "type": "electric_scooter", "lon": -76.98797633333334, "bike_id": "9b99982b92a599c7c043ca20548217ac", "fusion_lat": 0.0, "name": "9b99982b92a599c7c043ca20548217ac", "is_reserved": 0, "rental_uris": {"android": "https://dc.lft.to/lastmile_qr_scan", "ios": "https://dc.lft.to/lastmile_qr_scan"}, "fusion_lon": 0.0}, {"lat": 38.8990545, "is_disabled": 0, "type": "electric_scooter", "lon": -76.9335325, "bike_id": "518021cc9c1e8270f3452a22f0bbd169", "fusion_lat": 0.0, "name": "518021cc9c1e8270f3452a22f0bbd169", "is_reserved": 0, "rental_uris": {"android": "https://dc.lft.to/lastmile_qr_scan", "ios": "https://dc.lft.to/lastmile_qr_scan"}, "fusion_lon": 0.0}, {"lat": 38.8925775, "is_disabled": 0, "type": "electric_scooter", "lon": -76.9415735, "bike_id": "6bc97fa10e97420cdaed3a8c43507f1d", "fusion_lat": 0.0, "name": "6bc97fa10e97420cdaed3a8c43507f1d", "is_reserved": 0, "rental_uris": {"android": "https://dc.lft.to/lastmile_qr_scan", "ios": "https://dc.lft.to/lastmile_qr_scan"}, "fusion_lon": 0.0}, {"lat": 38.90391533333333, "is_disabled": 0, "type": "electric_scooter", "lon": -77.020751, "bike_id": "cec1e164babf2344a612866448f10414", "fusion_lat": 0.0, "name": "cec1e164babf2344a612866448f10414", "is_reserved": 0, "rental_uris": {"android": "https://dc.lft.to/lastmile_qr_scan", "ios": "https://dc.lft.to/lastmile_qr_scan"}, "fusion_lon": 0.0}, {"lat": 38.897528333333334, "is_disabled": 0, "type": "electric_scooter", "lon": -77.03211333333333, "bike_id": "05d363104e582acbc4810e4754112904", "fusion_lat": 0.0, "name": "05d363104e582acbc4810e4754112904", "is_reserved": 0, "rental_uris": {"android": "https://dc.lft.to/lastmile_qr_scan", "ios": "https://dc.lft.to/lastmile_qr_scan"}, "fusion_lon": 0.0}, {"lat": 38.885181333333335, "is_disabled": 0, "type": "electric_scooter", "lon": -77.03338766666667, "bike_id": "bb894cea75ca12c166307a0925017af1", "fusion_lat": 0.0, "name": "bb894cea75ca12c166307a0925017af1", "is_reserved": 0, "rental_uris": {"android": "https://dc.lft.to/lastmile_qr_scan", "ios": "https://dc.lft.to/lastmile_qr_scan"}, "fusion_lon": 0.0}, {"lat": 38.858109666666664, "is_disabled": 0, "type": "electric_scooter", "lon": -76.989908, "bike_id": "fe9152eff72cc2a6201297695c2bf6d8", "fusion_lat": 0.0, "name": "fe9152eff72cc2a6201297695c2bf6d8", "is_reserved": 0, "rental_uris": {"android": "https://dc.lft.to/lastmile_qr_scan", "ios": "https://dc.lft.to/lastmile_qr_scan"}, "fusion_lon": 0.0}, {"lat": 38.897273, "is_disabled": 0, "type": "electric_scooter", "lon": -77.03258733333334, "bike_id": "40451b0d2aed7c2a3bc5e37d05bc5e5f", "fusion_lat": 0.0, "name": "40451b0d2aed7c2a3bc5e37d05bc5e5f", "is_reserved": 0, "rental_uris": {"android": "https://dc.lft.to/lastmile_qr_scan", "ios": "https://dc.lft.to/lastmile_qr_scan"}, "fusion_lon": 0.0}, {"lat": 38.93984, "is_disabled": 0, "type": "electric_scooter", "lon": -77.07175433333333, "bike_id": "010277ee1356133c9257b5799b749b71", "fusion_lat": 0.0, "name": "010277ee1356133c9257b5799b749b71", "is_reserved": 0, "rental_uris": {"android": "https://dc.lft.to/lastmile_qr_scan", "ios": "https://dc.lft.to/lastmile_qr_scan"}, "fusion_lon": 0.0}, {"lat": 38.805533833333335, "is_disabled": 0, "type": "electric_bike", "lon": -77.132449, "bike_id": "3664a4b25cb5d139e272ff829b2be099", "fusion_lat": 0.0, "name": "3664a4b25cb5d139e272ff829b2be099", "is_reserved": 0, "rental_uris": {"android": "https://dc.lft.to/lastmile_qr_scan", "ios": "https://dc.lft.to/lastmile_qr_scan"}, "fusion_lon": 0.0}, {"lat": 38.90670383333333, "is_disabled": 0, "type": "electric_scooter", "lon": -77.02705333333333, "bike_id": "6ba06c0e19f9a5b3eb7b925f8173eec7", "fusion_lat": 0.0, "name": "6ba06c0e19f9a5b3eb7b925f8173eec7", "is_reserved": 0, "rental_uris": {"android": "https://dc.lft.to/lastmile_qr_scan", "ios": "https://dc.lft.to/lastmile_qr_scan"}, "fusion_lon": 0.0}, {"lat": 38.912220166666664, "is_disabled": 0, "type": "electric_scooter", "lon": -77.02182333333333, "bike_id": "e123a8aec2f76bac659caa151376bfff", "fusion_lat": 0.0, "name": "e123a8aec2f76bac659caa151376bfff", "is_reserved": 0, "rental_uris": {"android": "https://dc.lft.to/lastmile_qr_scan", "ios": "https://dc.lft.to/lastmile_qr_scan"}, "fusion_lon": 0.0}, {"lat": 38.9053515, "is_disabled": 0, "type": "electric_scooter", "lon": -76.98649266666666, "bike_id": "7effeb84915e9a2e7d17494b18e7a7ad", "fusion_lat": 0.0, "name": "7effeb84915e9a2e7d17494b18e7a7ad", "is_reserved": 0, "rental_uris": {"android": "https://dc.lft.to/lastmile_qr_scan", "ios": "https://dc.lft.to/lastmile_qr_scan"}, "fusion_lon": 0.0}, {"lat": 38.89739, "is_disabled": 0, "type": "electric_scooter", "lon": -77.0453205, "bike_id": "0b0c3153a55a8ece4a4a047b16f55509", "fusion_lat": 0.0, "name": "0b0c3153a55a8ece4a4a047b16f55509", "is_reserved": 0, "rental_uris": {"android": "https://dc.lft.to/lastmile_qr_scan", "ios": "https://dc.lft.to/lastmile_qr_scan"}, "fusion_lon": 0.0}, {"lat": 38.87340566666666, "is_disabled": 0, "type": "electric_scooter", "lon": -76.99163983333334, "bike_id": "a96f88c721e682f11dc80829090d7ede", "fusion_lat": 0.0, "name": "a96f88c721e682f11dc80829090d7ede", "is_reserved": 0, "rental_uris": {"android": "https://dc.lft.to/lastmile_qr_scan", "ios": "https://dc.lft.to/lastmile_qr_scan"}, "fusion_lon": 0.0}, {"lat": 38.897397833333336, "is_disabled": 0, "type": "electric_scooter", "lon": -77.00854666666666, "bike_id": "5ee5496873714acb4d4285a6303ea323", "fusion_lat": 0.0, "name": "5ee5496873714acb4d4285a6303ea323", "is_reserved": 0, "rental_uris": {"android": "https://dc.lft.to/lastmile_qr_scan", "ios": "https://dc.lft.to/lastmile_qr_scan"}, "fusion_lon": 0.0}, {"lat": 38.92805466666667, "is_disabled": 0, "type": "electric_scooter", "lon": -77.0431775, "bike_id": "1193a657700227509b81b9bf318e8dd1", "fusion_lat": 0.0, "name": "1193a657700227509b81b9bf318e8dd1", "is_reserved": 0, "rental_uris": {"android": "https://dc.lft.to/lastmile_qr_scan", "ios": "https://dc.lft.to/lastmile_qr_scan"}, "fusion_lon": 0.0}, {"lat": 38.9197325, "is_disabled": 0, "type": "electric_scooter", "lon": -77.043152, "bike_id": "3c9bf30c4c8a7306291b6c8edf36d062", "fusion_lat": 0.0, "name": "3c9bf30c4c8a7306291b6c8edf36d062", "is_reserved": 0, "rental_uris": {"android": "https://dc.lft.to/lastmile_qr_scan", "ios": "https://dc.lft.to/lastmile_qr_scan"}, "fusion_lon": 0.0}, {"lat": 38.90460983333333, "is_disabled": 0, "type": "electric_scooter", "lon": -77.03225433333333, "bike_id": "dbe9e2b535149961e49bd5f4c3116401", "fusion_lat": 0.0, "name": "dbe9e2b535149961e49bd5f4c3116401", "is_reserved": 0, "rental_uris": {"android": "https://dc.lft.to/lastmile_qr_scan", "ios": "https://dc.lft.to/lastmile_qr_scan"}, "fusion_lon": 0.0}, {"lat": 38.93547233333334, "is_disabled": 0, "type": "electric_scooter", "lon": -77.03416666666666, "bike_id": "8f2ca4b2c602723214bc8251fb3495ae", "fusion_lat": 0.0, "name": "8f2ca4b2c602723214bc8251fb3495ae", "is_reserved": 0, "rental_uris": {"android": "https://dc.lft.to/lastmile_qr_scan", "ios": "https://dc.lft.to/lastmile_qr_scan"}, "fusion_lon": 0.0}, {"lat": 38.905161666666665, "is_disabled": 0, "type": "electric_scooter", "lon": -77.06877516666667, "bike_id": "eadb00af7128965f5b8e2a3fbce96401", "fusion_lat": 0.0, "name": "eadb00af7128965f5b8e2a3fbce96401", "is_reserved": 0, "rental_uris": {"android": "https://dc.lft.to/lastmile_qr_scan", "ios": "https://dc.lft.to/lastmile_qr_scan"}, "fusion_lon": 0.0}, {"lat": 38.9333075, "is_disabled": 0, "type": "electric_scooter", "lon": -77.05699266666667, "bike_id": "f423feef2059f731e14c54a303192a4f", "fusion_lat": 0.0, "name": "f423feef2059f731e14c54a303192a4f", "is_reserved": 0, "rental_uris": {"android": "https://dc.lft.to/lastmile_qr_scan", "ios": "https://dc.lft.to/lastmile_qr_scan"}, "fusion_lon": 0.0}, {"lat": 38.911218, "is_disabled": 0, "type": "electric_scooter", "lon": -77.02198533333333, "bike_id": "6b12912299e883bb7ec02c38f0675aab", "fusion_lat": 0.0, "name": "6b12912299e883bb7ec02c38f0675aab", "is_reserved": 0, "rental_uris": {"android": "https://dc.lft.to/lastmile_qr_scan", "ios": "https://dc.lft.to/lastmile_qr_scan"}, "fusion_lon": 0.0}, {"lat": 38.8844285, "is_disabled": 0, "type": "electric_scooter", "lon": -77.03037583333334, "bike_id": "4672585a35218aabe6cc3d50ee24af6d", "fusion_lat": 0.0, "name": "4672585a35218aabe6cc3d50ee24af6d", "is_reserved": 0, "rental_uris": {"android": "https://dc.lft.to/lastmile_qr_scan", "ios": "https://dc.lft.to/lastmile_qr_scan"}, "fusion_lon": 0.0}, {"lat": 39.01600033333333, "is_disabled": 0, "type": "electric_bike", "lon": -77.0442575, "bike_id": "ad0be69d8f00ce78035e176697f03f2d", "fusion_lat": 0.0, "name": "ad0be69d8f00ce78035e176697f03f2d", "is_reserved": 0, "rental_uris": {"android": "https://dc.lft.to/lastmile_qr_scan", "ios": "https://dc.lft.to/lastmile_qr_scan"}, "fusion_lon": 0.0}, {"lat": 38.90136316666667, "is_disabled": 0, "type": "electric_scooter", "lon": -77.01811883333333, "bike_id": "92b127e8417b61930a94d7d20428efe7", "fusion_lat": 0.0, "name": "92b127e8417b61930a94d7d20428efe7", "is_reserved": 0, "rental_uris": {"android": "https://dc.lft.to/lastmile_qr_scan", "ios": "https://dc.lft.to/lastmile_qr_scan"}, "fusion_lon": 0.0}, {"lat": 38.910841166666664, "is_disabled": 0, "type": "electric_scooter", "lon": -77.07642483333333, "bike_id": "25752d009ae7e4380cdc66e259a60414", "fusion_lat": 0.0, "name": "25752d009ae7e4380cdc66e259a60414", "is_reserved": 0, "rental_uris": {"android": "https://dc.lft.to/lastmile_qr_scan", "ios": "https://dc.lft.to/lastmile_qr_scan"}, "fusion_lon": 0.0}, {"lat": 38.9480335, "is_disabled": 0, "type": "electric_scooter", "lon": -77.0790825, "bike_id": "e2f5ed6cf3c90d8ed3291317557930e8", "fusion_lat": 0.0, "name": "e2f5ed6cf3c90d8ed3291317557930e8", "is_reserved": 0, "rental_uris": {"android": "https://dc.lft.to/lastmile_qr_scan", "ios": "https://dc.lft.to/lastmile_qr_scan"}, "fusion_lon": 0.0}, {"lat": 38.8911985, "is_disabled": 0, "type": "electric_scooter", "lon": -76.940918, "bike_id": "9e8b4ce154ea1d3b9c395b0eb42206d9", "fusion_lat": 0.0, "name": "9e8b4ce154ea1d3b9c395b0eb42206d9", "is_reserved": 0, "rental_uris": {"android": "https://dc.lft.to/lastmile_qr_scan", "ios": "https://dc.lft.to/lastmile_qr_scan"}, "fusion_lon": 0.0}, {"lat": 38.900082833333336, "is_disabled": 0, "type": "electric_scooter", "lon": -76.99854533333334, "bike_id": "9a3886c4659bbcc873bc02886872be2e", "fusion_lat": 0.0, "name": "9a3886c4659bbcc873bc02886872be2e", "is_reserved": 0, "rental_uris": {"android": "https://dc.lft.to/lastmile_qr_scan", "ios": "https://dc.lft.to/lastmile_qr_scan"}, "fusion_lon": 0.0}, {"lat": 38.902410333333336, "is_disabled": 0, "type": "electric_scooter", "lon": -77.02685683333333, "bike_id": "dcceb6ff15c843e1ab42cb2ff46ca377", "fusion_lat": 0.0, "name": "dcceb6ff15c843e1ab42cb2ff46ca377", "is_reserved": 0, "rental_uris": {"android": "https://dc.lft.to/lastmile_qr_scan", "ios": "https://dc.lft.to/lastmile_qr_scan"}, "fusion_lon": 0.0}, {"lat": 38.8968855, "is_disabled": 0, "type": "electric_scooter", "lon": -77.0240965, "bike_id": "14549a9f65e69573aee9f389a058a357", "fusion_lat": 0.0, "name": "14549a9f65e69573aee9f389a058a357", "is_reserved": 0, "rental_uris": {"android": "https://dc.lft.to/lastmile_qr_scan", "ios": "https://dc.lft.to/lastmile_qr_scan"}, "fusion_lon": 0.0}, {"lat": 38.8722975, "is_disabled": 0, "type": "electric_bike", "lon": -77.01181916666667, "bike_id": "54c1eaf8c88e4bc324dbbef5b71ce4c7", "fusion_lat": 0.0, "name": "54c1eaf8c88e4bc324dbbef5b71ce4c7", "is_reserved": 0, "rental_uris": {"android": "https://dc.lft.to/lastmile_qr_scan", "ios": "https://dc.lft.to/lastmile_qr_scan"}, "fusion_lon": 0.0}, {"lat": 38.92139733333333, "is_disabled": 0, "type": "electric_scooter", "lon": -77.0338285, "bike_id": "42ab63fd52f57968d2c9ce632947eb71", "fusion_lat": 0.0, "name": "42ab63fd52f57968d2c9ce632947eb71", "is_reserved": 0, "rental_uris": {"android": "https://dc.lft.to/lastmile_qr_scan", "ios": "https://dc.lft.to/lastmile_qr_scan"}, "fusion_lon": 0.0}, {"lat": 38.950986, "is_disabled": 0, "type": "electric_scooter", "lon": -77.0233935, "bike_id": "27dd4b635ccff8a584b67ecf2a0fd211", "fusion_lat": 0.0, "name": "27dd4b635ccff8a584b67ecf2a0fd211", "is_reserved": 0, "rental_uris": {"android": "https://dc.lft.to/lastmile_qr_scan", "ios": "https://dc.lft.to/lastmile_qr_scan"}, "fusion_lon": 0.0}, {"lat": 38.924560166666666, "is_disabled": 0, "type": "electric_bike", "lon": -76.97562916666666, "bike_id": "309a03acc08723978f1cf8c4fd7326da", "fusion_lat": 0.0, "name": "309a03acc08723978f1cf8c4fd7326da", "is_reserved": 0, "rental_uris": {"android": "https://dc.lft.to/lastmile_qr_scan", "ios": "https://dc.lft.to/lastmile_qr_scan"}, "fusion_lon": 0.0}, {"lat": 38.9101345, "is_disabled": 0, "type": "electric_scooter", "lon": -77.0889515, "bike_id": "e08e92b938018082ec43886ec05aa06a", "fusion_lat": 0.0, "name": "e08e92b938018082ec43886ec05aa06a", "is_reserved": 0, "rental_uris": {"android": "https://dc.lft.to/lastmile_qr_scan", "ios": "https://dc.lft.to/lastmile_qr_scan"}, "fusion_lon": 0.0}, {"lat": 38.86171616666667, "is_disabled": 0, "type": "electric_bike", "lon": -77.13146266666666, "bike_id": "d3d1297f22f81aee297e78db1058931e", "fusion_lat": 0.0, "name": "d3d1297f22f81aee297e78db1058931e", "is_reserved": 0, "rental_uris": {"android": "https://dc.lft.to/lastmile_qr_scan", "ios": "https://dc.lft.to/lastmile_qr_scan"}, "fusion_lon": 0.0}, {"lat": 38.90088133333333, "is_disabled": 0, "type": "electric_scooter", "lon": -77.00368216666666, "bike_id": "fdb72d63ab3f266c1be5e128f1aec254", "fusion_lat": 0.0, "name": "fdb72d63ab3f266c1be5e128f1aec254", "is_reserved": 0, "rental_uris": {"android": "https://dc.lft.to/lastmile_qr_scan", "ios": "https://dc.lft.to/lastmile_qr_scan"}, "fusion_lon": 0.0}, {"lat": 38.90309666666667, "is_disabled": 0, "type": "electric_scooter", "lon": -76.97801433333333, "bike_id": "096811e45b5b10ae710054ed9a45e94b", "fusion_lat": 0.0, "name": "096811e45b5b10ae710054ed9a45e94b", "is_reserved": 0, "rental_uris": {"android": "https://dc.lft.to/lastmile_qr_scan", "ios": "https://dc.lft.to/lastmile_qr_scan"}, "fusion_lon": 0.0}, {"lat": 38.896156833333336, "is_disabled": 0, "type": "electric_scooter", "lon": -77.0450485, "bike_id": "d8c2b71d567c4cd74fcd78eea0e1984c", "fusion_lat": 0.0, "name": "d8c2b71d567c4cd74fcd78eea0e1984c", "is_reserved": 0, "rental_uris": {"android": "https://dc.lft.to/lastmile_qr_scan", "ios": "https://dc.lft.to/lastmile_qr_scan"}, "fusion_lon": 0.0}, {"lat": 38.9105545, "is_disabled": 0, "type": "electric_scooter", "lon": -77.0424185, "bike_id": "067332b91dbeaeaa5c7e428bdce3dadf", "fusion_lat": 0.0, "name": "067332b91dbeaeaa5c7e428bdce3dadf", "is_reserved": 0, "rental_uris": {"android": "https://dc.lft.to/lastmile_qr_scan", "ios": "https://dc.lft.to/lastmile_qr_scan"}, "fusion_lon": 0.0}, {"lat": 38.91415466666667, "is_disabled": 0, "type": "electric_scooter", "lon": -77.0223405, "bike_id": "ac31807c9ab77ad31bb582680980dad1", "fusion_lat": 0.0, "name": "ac31807c9ab77ad31bb582680980dad1", "is_reserved": 0, "rental_uris": {"android": "https://dc.lft.to/lastmile_qr_scan", "ios": "https://dc.lft.to/lastmile_qr_scan"}, "fusion_lon": 0.0}, {"lat": 38.926885, "is_disabled": 0, "type": "electric_scooter", "lon": -77.02778766666667, "bike_id": "5b9a65ab5db018856ed0bff4753e0807", "fusion_lat": 0.0, "name": "5b9a65ab5db018856ed0bff4753e0807", "is_reserved": 0, "rental_uris": {"android": "https://dc.lft.to/lastmile_qr_scan", "ios": "https://dc.lft.to/lastmile_qr_scan"}, "fusion_lon": 0.0}, {"lat": 38.914462, "is_disabled": 0, "type": "electric_scooter", "lon": -77.045857, "bike_id": "071c4e236b03189adc2737bc4fda4bf8", "fusion_lat": 0.0, "name": "071c4e236b03189adc2737bc4fda4bf8", "is_reserved": 0, "rental_uris": {"android": "https://dc.lft.to/lastmile_qr_scan", "ios": "https://dc.lft.to/lastmile_qr_scan"}, "fusion_lon": 0.0}, {"lat": 38.910476833333334, "is_disabled": 0, "type": "electric_scooter", "lon": -77.02683583333334, "bike_id": "0d07a4f3cb158c559c5f14bbde5a2b61", "fusion_lat": 0.0, "name": "0d07a4f3cb158c559c5f14bbde5a2b61", "is_reserved": 0, "rental_uris": {"android": "https://dc.lft.to/lastmile_qr_scan", "ios": "https://dc.lft.to/lastmile_qr_scan"}, "fusion_lon": 0.0}, {"lat": 38.94199283333333, "is_disabled": 0, "type": "electric_scooter", "lon": -77.018301, "bike_id": "85e4c503beee872c6fa0abd9479b58e6", "fusion_lat": 0.0, "name": "85e4c503beee872c6fa0abd9479b58e6", "is_reserved": 0, "rental_uris": {"android": "https://dc.lft.to/lastmile_qr_scan", "ios": "https://dc.lft.to/lastmile_qr_scan"}, "fusion_lon": 0.0}, {"lat": 38.920446, "is_disabled": 0, "type": "electric_scooter", "lon": -77.03294133333333, "bike_id": "dc130513eb85d353b5140dce3846d436", "fusion_lat": 0.0, "name": "dc130513eb85d353b5140dce3846d436", "is_reserved": 0, "rental_uris": {"android": "https://dc.lft.to/lastmile_qr_scan", "ios": "https://dc.lft.to/lastmile_qr_scan"}, "fusion_lon": 0.0}, {"lat": 38.917834666666664, "is_disabled": 0, "type": "electric_scooter", "lon": -77.02261216666666, "bike_id": "46ee1673fd2447e8bf3a8fef585134a4", "fusion_lat": 0.0, "name": "46ee1673fd2447e8bf3a8fef585134a4", "is_reserved": 0, "rental_uris": {"android": "https://dc.lft.to/lastmile_qr_scan", "ios": "https://dc.lft.to/lastmile_qr_scan"}, "fusion_lon": 0.0}, {"lat": 38.887426833333336, "is_disabled": 0, "type": "electric_scooter", "lon": -77.01492483333334, "bike_id": "84f5fea0ec5f3cc8f090fc3d4bb9237c", "fusion_lat": 0.0, "name": "84f5fea0ec5f3cc8f090fc3d4bb9237c", "is_reserved": 0, "rental_uris": {"android": "https://dc.lft.to/lastmile_qr_scan", "ios": "https://dc.lft.to/lastmile_qr_scan"}, "fusion_lon": 0.0}, {"lat": 38.88924866666667, "is_disabled": 0, "type": "electric_scooter", "lon": -76.9737615, "bike_id": "6aedf77e779d43c38007e4ba74fea930", "fusion_lat": 0.0, "name": "6aedf77e779d43c38007e4ba74fea930", "is_reserved": 0, "rental_uris": {"android": "https://dc.lft.to/lastmile_qr_scan", "ios": "https://dc.lft.to/lastmile_qr_scan"}, "fusion_lon": 0.0}, {"lat": 38.906324166666664, "is_disabled": 0, "type": "electric_scooter", "lon": -77.06282133333333, "bike_id": "c9421828f98a9d2ea6224b13c61cea52", "fusion_lat": 0.0, "name": "c9421828f98a9d2ea6224b13c61cea52", "is_reserved": 0, "rental_uris": {"android": "https://dc.lft.to/lastmile_qr_scan", "ios": "https://dc.lft.to/lastmile_qr_scan"}, "fusion_lon": 0.0}, {"lat": 38.90970933333333, "is_disabled": 0, "type": "electric_scooter", "lon": -77.03431533333334, "bike_id": "b2edb9e3246bab9f2a934aa1defda2b3", "fusion_lat": 0.0, "name": "b2edb9e3246bab9f2a934aa1defda2b3", "is_reserved": 0, "rental_uris": {"android": "https://dc.lft.to/lastmile_qr_scan", "ios": "https://dc.lft.to/lastmile_qr_scan"}, "fusion_lon": 0.0}, {"lat": 38.967028666666664, "is_disabled": 0, "type": "electric_bike", "lon": -77.102218, "bike_id": "3072ab8bb4f3313dba386b8dcace10cf", "fusion_lat": 0.0, "name": "3072ab8bb4f3313dba386b8dcace10cf", "is_reserved": 0, "rental_uris": {"android": "https://dc.lft.to/lastmile_qr_scan", "ios": "https://dc.lft.to/lastmile_qr_scan"}, "fusion_lon": 0.0}, {"lat": 38.86160133333333, "is_disabled": 0, "type": "electric_bike", "lon": -77.13096183333333, "bike_id": "5b3c4f5704be8584da7742f5a076706e", "fusion_lat": 0.0, "name": "5b3c4f5704be8584da7742f5a076706e", "is_reserved": 0, "rental_uris": {"android": "https://dc.lft.to/lastmile_qr_scan", "ios": "https://dc.lft.to/lastmile_qr_scan"}, "fusion_lon": 0.0}, {"lat": 38.90234133333333, "is_disabled": 0, "type": "electric_scooter", "lon": -77.0176235, "bike_id": "64f8ff6cb0f0da1bd85005d172420c9d", "fusion_lat": 0.0, "name": "64f8ff6cb0f0da1bd85005d172420c9d", "is_reserved": 0, "rental_uris": {"android": "https://dc.lft.to/lastmile_qr_scan", "ios": "https://dc.lft.to/lastmile_qr_scan"}, "fusion_lon": 0.0}, {"lat": 38.8873665, "is_disabled": 0, "type": "electric_scooter", "lon": -77.032035, "bike_id": "d3f8a92b5dfce3affce401d23de7f491", "fusion_lat": 0.0, "name": "d3f8a92b5dfce3affce401d23de7f491", "is_reserved": 0, "rental_uris": {"android": "https://dc.lft.to/lastmile_qr_scan", "ios": "https://dc.lft.to/lastmile_qr_scan"}, "fusion_lon": 0.0}, {"lat": 38.95562316666667, "is_disabled": 0, "type": "electric_scooter", "lon": -77.02230816666666, "bike_id": "d7756a7e0624801dafbd4a315e83996c", "fusion_lat": 0.0, "name": "d7756a7e0624801dafbd4a315e83996c", "is_reserved": 0, "rental_uris": {"android": "https://dc.lft.to/lastmile_qr_scan", "ios": "https://dc.lft.to/lastmile_qr_scan"}, "fusion_lon": 0.0}, {"lat": 38.865516, "is_disabled": 0, "type": "electric_scooter", "lon": -76.98962466666667, "bike_id": "caa9ea2414d80b2f0746ef6196488b2d", "fusion_lat": 0.0, "name": "caa9ea2414d80b2f0746ef6196488b2d", "is_reserved": 0, "rental_uris": {"android": "https://dc.lft.to/lastmile_qr_scan", "ios": "https://dc.lft.to/lastmile_qr_scan"}, "fusion_lon": 0.0}, {"lat": 38.9091515, "is_disabled": 0, "type": "electric_scooter", "lon": -77.03640866666667, "bike_id": "f26a3662394f39d197f6ec239c296208", "fusion_lat": 0.0, "name": "f26a3662394f39d197f6ec239c296208", "is_reserved": 0, "rental_uris": {"android": "https://dc.lft.to/lastmile_qr_scan", "ios": "https://dc.lft.to/lastmile_qr_scan"}, "fusion_lon": 0.0}, {"lat": 38.938695, "is_disabled": 0, "type": "electric_scooter", "lon": -77.02447466666666, "bike_id": "5b3de8316a3c2d228f2b185aaeb5c161", "fusion_lat": 0.0, "name": "5b3de8316a3c2d228f2b185aaeb5c161", "is_reserved": 0, "rental_uris": {"android": "https://dc.lft.to/lastmile_qr_scan", "ios": "https://dc.lft.to/lastmile_qr_scan"}, "fusion_lon": 0.0}, {"lat": 38.8904385, "is_disabled": 0, "type": "electric_scooter", "lon": -76.98995483333333, "bike_id": "1104debafd5186ff51b4f5696e6dff1e", "fusion_lat": 0.0, "name": "1104debafd5186ff51b4f5696e6dff1e", "is_reserved": 0, "rental_uris": {"android": "https://dc.lft.to/lastmile_qr_scan", "ios": "https://dc.lft.to/lastmile_qr_scan"}, "fusion_lon": 0.0}, {"lat": 38.897875666666664, "is_disabled": 0, "type": "electric_scooter", "lon": -77.0300585, "bike_id": "fe8f72abda1b780454aa0dcc15d9455c", "fusion_lat": 0.0, "name": "fe8f72abda1b780454aa0dcc15d9455c", "is_reserved": 0, "rental_uris": {"android": "https://dc.lft.to/lastmile_qr_scan", "ios": "https://dc.lft.to/lastmile_qr_scan"}, "fusion_lon": 0.0}, {"lat": 38.89836966666667, "is_disabled": 0, "type": "electric_scooter", "lon": -77.04369766666667, "bike_id": "141788d3316547529d58b7f79f42b047", "fusion_lat": 0.0, "name": "141788d3316547529d58b7f79f42b047", "is_reserved": 0, "rental_uris": {"android": "https://dc.lft.to/lastmile_qr_scan", "ios": "https://dc.lft.to/lastmile_qr_scan"}, "fusion_lon": 0.0}, {"lat": 38.91724283333333, "is_disabled": 0, "type": "electric_bike", "lon": -77.0079855, "bike_id": "f9c3baf5151b335f9fefad41a144c295", "fusion_lat": 0.0, "name": "f9c3baf5151b335f9fefad41a144c295", "is_reserved": 0, "rental_uris": {"android": "https://dc.lft.to/lastmile_qr_scan", "ios": "https://dc.lft.to/lastmile_qr_scan"}, "fusion_lon": 0.0}, {"lat": 38.89618166666666, "is_disabled": 0, "type": "electric_scooter", "lon": -76.998427, "bike_id": "34af34f9e6fafda739d2f74d4667a778", "fusion_lat": 0.0, "name": "34af34f9e6fafda739d2f74d4667a778", "is_reserved": 0, "rental_uris": {"android": "https://dc.lft.to/lastmile_qr_scan", "ios": "https://dc.lft.to/lastmile_qr_scan"}, "fusion_lon": 0.0}, {"lat": 38.9019255, "is_disabled": 0, "type": "electric_scooter", "lon": -77.02366566666667, "bike_id": "4054323e9c0c1913b5261dd7caee2922", "fusion_lat": 0.0, "name": "4054323e9c0c1913b5261dd7caee2922", "is_reserved": 0, "rental_uris": {"android": "https://dc.lft.to/lastmile_qr_scan", "ios": "https://dc.lft.to/lastmile_qr_scan"}, "fusion_lon": 0.0}, {"lat": 38.893285, "is_disabled": 0, "type": "electric_scooter", "lon": -76.92993766666666, "bike_id": "b7d1523cea6ec61494156dcbfbbcc5be", "fusion_lat": 0.0, "name": "b7d1523cea6ec61494156dcbfbbcc5be", "is_reserved": 0, "rental_uris": {"android": "https://dc.lft.to/lastmile_qr_scan", "ios": "https://dc.lft.to/lastmile_qr_scan"}, "fusion_lon": 0.0}, {"lat": 38.90096783333333, "is_disabled": 0, "type": "electric_scooter", "lon": -77.01357666666667, "bike_id": "81c0ecd3ef117e3878f915fe84bd0067", "fusion_lat": 0.0, "name": "81c0ecd3ef117e3878f915fe84bd0067", "is_reserved": 0, "rental_uris": {"android": "https://dc.lft.to/lastmile_qr_scan", "ios": "https://dc.lft.to/lastmile_qr_scan"}, "fusion_lon": 0.0}, {"lat": 38.88925866666666, "is_disabled": 0, "type": "electric_scooter", "lon": -77.02168383333333, "bike_id": "dda4e6491e31f6ff7ad2f18f9501b147", "fusion_lat": 0.0, "name": "dda4e6491e31f6ff7ad2f18f9501b147", "is_reserved": 0, "rental_uris": {"android": "https://dc.lft.to/lastmile_qr_scan", "ios": "https://dc.lft.to/lastmile_qr_scan"}, "fusion_lon": 0.0}, {"lat": 38.946385666666664, "is_disabled": 0, "type": "electric_scooter", "lon": -77.0192635, "bike_id": "aea91af913804759a9a9a94c8ef0c9dc", "fusion_lat": 0.0, "name": "aea91af913804759a9a9a94c8ef0c9dc", "is_reserved": 0, "rental_uris": {"android": "https://dc.lft.to/lastmile_qr_scan", "ios": "https://dc.lft.to/lastmile_qr_scan"}, "fusion_lon": 0.0}, {"lat": 38.8762795, "is_disabled": 0, "type": "electric_scooter", "lon": -76.96526783333333, "bike_id": "aac4f70c0e513ddb17b61318a7c462ab", "fusion_lat": 0.0, "name": "aac4f70c0e513ddb17b61318a7c462ab", "is_reserved": 0, "rental_uris": {"android": "https://dc.lft.to/lastmile_qr_scan", "ios": "https://dc.lft.to/lastmile_qr_scan"}, "fusion_lon": 0.0}, {"lat": 38.89218, "is_disabled": 0, "type": "electric_scooter", "lon": -77.04365383333334, "bike_id": "19ea6bc81e886a1490dbc59536338f07", "fusion_lat": 0.0, "name": "19ea6bc81e886a1490dbc59536338f07", "is_reserved": 0, "rental_uris": {"android": "https://dc.lft.to/lastmile_qr_scan", "ios": "https://dc.lft.to/lastmile_qr_scan"}, "fusion_lon": 0.0}, {"lat": 39.034100333333335, "is_disabled": 0, "type": "electric_bike", "lon": -77.04208716666666, "bike_id": "d5c9e0baa0ce7ece1c1964d6c1dd350b", "fusion_lat": 0.0, "name": "d5c9e0baa0ce7ece1c1964d6c1dd350b", "is_reserved": 0, "rental_uris": {"android": "https://dc.lft.to/lastmile_qr_scan", "ios": "https://dc.lft.to/lastmile_qr_scan"}, "fusion_lon": 0.0}, {"lat": 38.9030035, "is_disabled": 0, "type": "electric_scooter", "lon": -77.0205065, "bike_id": "04594c2723a141150ea0716e11097859", "fusion_lat": 0.0, "name": "04594c2723a141150ea0716e11097859", "is_reserved": 0, "rental_uris": {"android": "https://dc.lft.to/lastmile_qr_scan", "ios": "https://dc.lft.to/lastmile_qr_scan"}, "fusion_lon": 0.0}, {"lat": 38.90961733333333, "is_disabled": 0, "type": "electric_scooter", "lon": -76.98469566666667, "bike_id": "e10270fb65a2dd8c790d73e954fff461", "fusion_lat": 0.0, "name": "e10270fb65a2dd8c790d73e954fff461", "is_reserved": 0, "rental_uris": {"android": "https://dc.lft.to/lastmile_qr_scan", "ios": "https://dc.lft.to/lastmile_qr_scan"}, "fusion_lon": 0.0}, {"lat": 38.894032833333334, "is_disabled": 0, "type": "electric_scooter", "lon": -76.95666033333333, "bike_id": "90ffb78d6d2a78a59e342a496fdd4c76", "fusion_lat": 0.0, "name": "90ffb78d6d2a78a59e342a496fdd4c76", "is_reserved": 0, "rental_uris": {"android": "https://dc.lft.to/lastmile_qr_scan", "ios": "https://dc.lft.to/lastmile_qr_scan"}, "fusion_lon": 0.0}, {"lat": 38.93295666666667, "is_disabled": 0, "type": "electric_scooter", "lon": -77.03449483333333, "bike_id": "806df8a1121cc728f7c7d9be4d09bb56", "fusion_lat": 0.0, "name": "806df8a1121cc728f7c7d9be4d09bb56", "is_reserved": 0, "rental_uris": {"android": "https://dc.lft.to/lastmile_qr_scan", "ios": "https://dc.lft.to/lastmile_qr_scan"}, "fusion_lon": 0.0}, {"lat": 38.913306, "is_disabled": 0, "type": "electric_scooter", "lon": -77.048144, "bike_id": "ed875ce432ff9b6810762f4b13629b52", "fusion_lat": 0.0, "name": "ed875ce432ff9b6810762f4b13629b52", "is_reserved": 0, "rental_uris": {"android": "https://dc.lft.to/lastmile_qr_scan", "ios": "https://dc.lft.to/lastmile_qr_scan"}, "fusion_lon": 0.0}, {"lat": 38.9083095, "is_disabled": 0, "type": "electric_scooter", "lon": -76.99966333333333, "bike_id": "c53f482351569ffb1558409e6914efda", "fusion_lat": 0.0, "name": "c53f482351569ffb1558409e6914efda", "is_reserved": 0, "rental_uris": {"android": "https://dc.lft.to/lastmile_qr_scan", "ios": "https://dc.lft.to/lastmile_qr_scan"}, "fusion_lon": 0.0}, {"lat": 38.86390866666667, "is_disabled": 0, "type": "electric_bike", "lon": -76.97431516666667, "bike_id": "da2cd6719d5d77d636a11a0c14836022", "fusion_lat": 0.0, "name": "da2cd6719d5d77d636a11a0c14836022", "is_reserved": 0, "rental_uris": {"android": "https://dc.lft.to/lastmile_qr_scan", "ios": "https://dc.lft.to/lastmile_qr_scan"}, "fusion_lon": 0.0}, {"lat": 38.90235933333334, "is_disabled": 0, "type": "electric_scooter", "lon": -77.04608233333333, "bike_id": "b2ed56a49a463e21b7b77b6b48184430", "fusion_lat": 0.0, "name": "b2ed56a49a463e21b7b77b6b48184430", "is_reserved": 0, "rental_uris": {"android": "https://dc.lft.to/lastmile_qr_scan", "ios": "https://dc.lft.to/lastmile_qr_scan"}, "fusion_lon": 0.0}, {"lat": 38.906240833333335, "is_disabled": 0, "type": "electric_scooter", "lon": -77.03849866666667, "bike_id": "361b45e4116b4cb8345d33aa739817d9", "fusion_lat": 0.0, "name": "361b45e4116b4cb8345d33aa739817d9", "is_reserved": 0, "rental_uris": {"android": "https://dc.lft.to/lastmile_qr_scan", "ios": "https://dc.lft.to/lastmile_qr_scan"}, "fusion_lon": 0.0}, {"lat": 38.909667166666665, "is_disabled": 0, "type": "electric_scooter", "lon": -77.045195, "bike_id": "9d54d5340db12a62d485d3adf84fee80", "fusion_lat": 0.0, "name": "9d54d5340db12a62d485d3adf84fee80", "is_reserved": 0, "rental_uris": {"android": "https://dc.lft.to/lastmile_qr_scan", "ios": "https://dc.lft.to/lastmile_qr_scan"}, "fusion_lon": 0.0}, {"lat": 38.99618066666667, "is_disabled": 0, "type": "electric_scooter", "lon": -77.03207016666667, "bike_id": "75a859a70ee6b74000d42883b130201d", "fusion_lat": 0.0, "name": "75a859a70ee6b74000d42883b130201d", "is_reserved": 0, "rental_uris": {"android": "https://dc.lft.to/lastmile_qr_scan", "ios": "https://dc.lft.to/lastmile_qr_scan"}, "fusion_lon": 0.0}, {"lat": 38.9071565, "is_disabled": 0, "type": "electric_scooter", "lon": -76.998298, "bike_id": "e743afb576575a45c41844adb2330564", "fusion_lat": 0.0, "name": "e743afb576575a45c41844adb2330564", "is_reserved": 0, "rental_uris": {"android": "https://dc.lft.to/lastmile_qr_scan", "ios": "https://dc.lft.to/lastmile_qr_scan"}, "fusion_lon": 0.0}, {"lat": 38.93983333333333, "is_disabled": 0, "type": "electric_scooter", "lon": -77.0717225, "bike_id": "db07af93ed106df5607918d2d7a177e5", "fusion_lat": 0.0, "name": "db07af93ed106df5607918d2d7a177e5", "is_reserved": 0, "rental_uris": {"android": "https://dc.lft.to/lastmile_qr_scan", "ios": "https://dc.lft.to/lastmile_qr_scan"}, "fusion_lon": 0.0}, {"lat": 38.9141955, "is_disabled": 0, "type": "electric_scooter", "lon": -77.03174516666667, "bike_id": "f0fa26fe241e07ff0fee12e80ac4c4aa", "fusion_lat": 0.0, "name": "f0fa26fe241e07ff0fee12e80ac4c4aa", "is_reserved": 0, "rental_uris": {"android": "https://dc.lft.to/lastmile_qr_scan", "ios": "https://dc.lft.to/lastmile_qr_scan"}, "fusion_lon": 0.0}, {"lat": 38.8975155, "is_disabled": 0, "type": "electric_scooter", "lon": -77.02977883333334, "bike_id": "40c2b070908ab86615350bd3c2565ae9", "fusion_lat": 0.0, "name": "40c2b070908ab86615350bd3c2565ae9", "is_reserved": 0, "rental_uris": {"android": "https://dc.lft.to/lastmile_qr_scan", "ios": "https://dc.lft.to/lastmile_qr_scan"}, "fusion_lon": 0.0}, {"lat": 38.8505155, "is_disabled": 0, "type": "electric_bike", "lon": -76.97316516666666, "bike_id": "94a65fc0e1f90dc3242a8ed3944b11bb", "fusion_lat": 0.0, "name": "94a65fc0e1f90dc3242a8ed3944b11bb", "is_reserved": 0, "rental_uris": {"android": "https://dc.lft.to/lastmile_qr_scan", "ios": "https://dc.lft.to/lastmile_qr_scan"}, "fusion_lon": 0.0}, {"lat": 38.898838166666664, "is_disabled": 0, "type": "electric_scooter", "lon": -76.93175216666667, "bike_id": "1bfc45afd58db3ce5ea434337faf39c7", "fusion_lat": 0.0, "name": "1bfc45afd58db3ce5ea434337faf39c7", "is_reserved": 0, "rental_uris": {"android": "https://dc.lft.to/lastmile_qr_scan", "ios": "https://dc.lft.to/lastmile_qr_scan"}, "fusion_lon": 0.0}, {"lat": 38.926213833333335, "is_disabled": 0, "type": "electric_scooter", "lon": -77.03705033333334, "bike_id": "df570ba2dcee1d84921803c07db8a872", "fusion_lat": 0.0, "name": "df570ba2dcee1d84921803c07db8a872", "is_reserved": 0, "rental_uris": {"android": "https://dc.lft.to/lastmile_qr_scan", "ios": "https://dc.lft.to/lastmile_qr_scan"}, "fusion_lon": 0.0}, {"lat": 38.90503116666667, "is_disabled": 0, "type": "electric_scooter", "lon": -77.06203983333333, "bike_id": "1a410eaf4ffa6b7781a2462e2434881a", "fusion_lat": 0.0, "name": "1a410eaf4ffa6b7781a2462e2434881a", "is_reserved": 0, "rental_uris": {"android": "https://dc.lft.to/lastmile_qr_scan", "ios": "https://dc.lft.to/lastmile_qr_scan"}, "fusion_lon": 0.0}, {"lat": 38.899999, "is_disabled": 0, "type": "electric_bike", "lon": -77.02181483333334, "bike_id": "4dd0b9195cd14118ea724fdbd0b0ff39", "fusion_lat": 0.0, "name": "4dd0b9195cd14118ea724fdbd0b0ff39", "is_reserved": 0, "rental_uris": {"android": "https://dc.lft.to/lastmile_qr_scan", "ios": "https://dc.lft.to/lastmile_qr_scan"}, "fusion_lon": 0.0}, {"lat": 38.897394, "is_disabled": 0, "type": "electric_scooter", "lon": -77.047621, "bike_id": "ef8c1db2ccdae8f029c208a03aeee86e", "fusion_lat": 0.0, "name": "ef8c1db2ccdae8f029c208a03aeee86e", "is_reserved": 0, "rental_uris": {"android": "https://dc.lft.to/lastmile_qr_scan", "ios": "https://dc.lft.to/lastmile_qr_scan"}, "fusion_lon": 0.0}, {"lat": 38.900755, "is_disabled": 0, "type": "electric_scooter", "lon": -77.05050633333333, "bike_id": "9b2bd1cef51cf6cd4efc5d2817459e3f", "fusion_lat": 0.0, "name": "9b2bd1cef51cf6cd4efc5d2817459e3f", "is_reserved": 0, "rental_uris": {"android": "https://dc.lft.to/lastmile_qr_scan", "ios": "https://dc.lft.to/lastmile_qr_scan"}, "fusion_lon": 0.0}, {"lat": 38.918211666666664, "is_disabled": 0, "type": "electric_scooter", "lon": -77.03439216666666, "bike_id": "5fcf4fda0d66eac961e1c9b22721b33c", "fusion_lat": 0.0, "name": "5fcf4fda0d66eac961e1c9b22721b33c", "is_reserved": 0, "rental_uris": {"android": "https://dc.lft.to/lastmile_qr_scan", "ios": "https://dc.lft.to/lastmile_qr_scan"}, "fusion_lon": 0.0}, {"lat": 38.899707166666666, "is_disabled": 0, "type": "electric_scooter", "lon": -77.05704083333333, "bike_id": "da3e76a53a8b7c08a60279b384c4db06", "fusion_lat": 0.0, "name": "da3e76a53a8b7c08a60279b384c4db06", "is_reserved": 0, "rental_uris": {"android": "https://dc.lft.to/lastmile_qr_scan", "ios": "https://dc.lft.to/lastmile_qr_scan"}, "fusion_lon": 0.0}, {"lat": 38.922334, "is_disabled": 0, "type": "electric_scooter", "lon": -77.04575466666667, "bike_id": "dc4f08ca5fcd3693de2070ae6d6a302a", "fusion_lat": 0.0, "name": "dc4f08ca5fcd3693de2070ae6d6a302a", "is_reserved": 0, "rental_uris": {"android": "https://dc.lft.to/lastmile_qr_scan", "ios": "https://dc.lft.to/lastmile_qr_scan"}, "fusion_lon": 0.0}, {"lat": 38.90539016666666, "is_disabled": 0, "type": "electric_scooter", "lon": -77.03408633333333, "bike_id": "32eabae8b88511c05e2b714aa2409816", "fusion_lat": 0.0, "name": "32eabae8b88511c05e2b714aa2409816", "is_reserved": 0, "rental_uris": {"android": "https://dc.lft.to/lastmile_qr_scan", "ios": "https://dc.lft.to/lastmile_qr_scan"}, "fusion_lon": 0.0}, {"lat": 38.932842, "is_disabled": 0, "type": "electric_scooter", "lon": -77.03633733333334, "bike_id": "17abd6685b3f89ec40964b7838759fd8", "fusion_lat": 0.0, "name": "17abd6685b3f89ec40964b7838759fd8", "is_reserved": 0, "rental_uris": {"android": "https://dc.lft.to/lastmile_qr_scan", "ios": "https://dc.lft.to/lastmile_qr_scan"}, "fusion_lon": 0.0}, {"lat": 38.920029166666666, "is_disabled": 0, "type": "electric_scooter", "lon": -77.03235583333333, "bike_id": "080af5b18ed8e70d57390c3fc431846f", "fusion_lat": 0.0, "name": "080af5b18ed8e70d57390c3fc431846f", "is_reserved": 0, "rental_uris": {"android": "https://dc.lft.to/lastmile_qr_scan", "ios": "https://dc.lft.to/lastmile_qr_scan"}, "fusion_lon": 0.0}, {"lat": 38.84656366666667, "is_disabled": 0, "type": "electric_bike", "lon": -76.97929483333333, "bike_id": "6bfc643bdc5ff2eebcd7660c8ac37793", "fusion_lat": 0.0, "name": "6bfc643bdc5ff2eebcd7660c8ac37793", "is_reserved": 0, "rental_uris": {"android": "https://dc.lft.to/lastmile_qr_scan", "ios": "https://dc.lft.to/lastmile_qr_scan"}, "fusion_lon": 0.0}, {"lat": 38.91043066666667, "is_disabled": 0, "type": "electric_scooter", "lon": -77.01512366666667, "bike_id": "f07adbd7ca07a1e9b39536fb5a86b01b", "fusion_lat": 0.0, "name": "f07adbd7ca07a1e9b39536fb5a86b01b", "is_reserved": 0, "rental_uris": {"android": "https://dc.lft.to/lastmile_qr_scan", "ios": "https://dc.lft.to/lastmile_qr_scan"}, "fusion_lon": 0.0}, {"lat": 38.8690045, "is_disabled": 0, "type": "electric_bike", "lon": -77.13182766666667, "bike_id": "4cc2bf5ad5d7139fe17fc8a6e17bd091", "fusion_lat": 0.0, "name": "4cc2bf5ad5d7139fe17fc8a6e17bd091", "is_reserved": 0, "rental_uris": {"android": "https://dc.lft.to/lastmile_qr_scan", "ios": "https://dc.lft.to/lastmile_qr_scan"}, "fusion_lon": 0.0}, {"lat": 38.90376283333333, "is_disabled": 0, "type": "electric_scooter", "lon": -77.02570516666667, "bike_id": "5ba887f32ea73d6602369cc1c5ee1ca7", "fusion_lat": 0.0, "name": "5ba887f32ea73d6602369cc1c5ee1ca7", "is_reserved": 0, "rental_uris": {"android": "https://dc.lft.to/lastmile_qr_scan", "ios": "https://dc.lft.to/lastmile_qr_scan"}, "fusion_lon": 0.0}, {"lat": 38.9072535, "is_disabled": 0, "type": "electric_scooter", "lon": -77.02376266666667, "bike_id": "e9e1d2512df16ef122a1e84aaaa12ee7", "fusion_lat": 0.0, "name": "e9e1d2512df16ef122a1e84aaaa12ee7", "is_reserved": 0, "rental_uris": {"android": "https://dc.lft.to/lastmile_qr_scan", "ios": "https://dc.lft.to/lastmile_qr_scan"}, "fusion_lon": 0.0}, {"lat": 38.93282633333333, "is_disabled": 0, "type": "electric_scooter", "lon": -77.039755, "bike_id": "2518f44b362a3bcabdefbb14e7df84eb", "fusion_lat": 0.0, "name": "2518f44b362a3bcabdefbb14e7df84eb", "is_reserved": 0, "rental_uris": {"android": "https://dc.lft.to/lastmile_qr_scan", "ios": "https://dc.lft.to/lastmile_qr_scan"}, "fusion_lon": 0.0}, {"lat": 38.9248245, "is_disabled": 0, "type": "electric_scooter", "lon": -77.05212883333333, "bike_id": "82ef8ed94cf718aa05752f3225883fd5", "fusion_lat": 0.0, "name": "82ef8ed94cf718aa05752f3225883fd5", "is_reserved": 0, "rental_uris": {"android": "https://dc.lft.to/lastmile_qr_scan", "ios": "https://dc.lft.to/lastmile_qr_scan"}, "fusion_lon": 0.0}, {"lat": 38.8904245, "is_disabled": 0, "type": "electric_scooter", "lon": -76.951402, "bike_id": "8dfa0b6b5023dd25374f076970b04f05", "fusion_lat": 0.0, "name": "8dfa0b6b5023dd25374f076970b04f05", "is_reserved": 0, "rental_uris": {"android": "https://dc.lft.to/lastmile_qr_scan", "ios": "https://dc.lft.to/lastmile_qr_scan"}, "fusion_lon": 0.0}, {"lat": 38.89631116666666, "is_disabled": 0, "type": "electric_scooter", "lon": -77.029571, "bike_id": "255220995a5ae2403e686c64c836244f", "fusion_lat": 0.0, "name": "255220995a5ae2403e686c64c836244f", "is_reserved": 0, "rental_uris": {"android": "https://dc.lft.to/lastmile_qr_scan", "ios": "https://dc.lft.to/lastmile_qr_scan"}, "fusion_lon": 0.0}, {"lat": 38.93170033333333, "is_disabled": 0, "type": "electric_scooter", "lon": -77.02818066666667, "bike_id": "2e39d58ab0bf1a11da5c331c20a6fc17", "fusion_lat": 0.0, "name": "2e39d58ab0bf1a11da5c331c20a6fc17", "is_reserved": 0, "rental_uris": {"android": "https://dc.lft.to/lastmile_qr_scan", "ios": "https://dc.lft.to/lastmile_qr_scan"}, "fusion_lon": 0.0}, {"lat": 38.89512116666667, "is_disabled": 0, "type": "electric_scooter", "lon": -77.02280716666667, "bike_id": "a00c547a47ce08877f442c7aa0776a25", "fusion_lat": 0.0, "name": "a00c547a47ce08877f442c7aa0776a25", "is_reserved": 0, "rental_uris": {"android": "https://dc.lft.to/lastmile_qr_scan", "ios": "https://dc.lft.to/lastmile_qr_scan"}, "fusion_lon": 0.0}, {"lat": 38.90541066666667, "is_disabled": 0, "type": "electric_scooter", "lon": -77.0340205, "bike_id": "ad796b3f9e3978addce1f6d35516bb07", "fusion_lat": 0.0, "name": "ad796b3f9e3978addce1f6d35516bb07", "is_reserved": 0, "rental_uris": {"android": "https://dc.lft.to/lastmile_qr_scan", "ios": "https://dc.lft.to/lastmile_qr_scan"}, "fusion_lon": 0.0}, {"lat": 38.91167683333333, "is_disabled": 0, "type": "electric_scooter", "lon": -77.04145583333333, "bike_id": "a98c081e62eb06740e9dcfc0da0738b7", "fusion_lat": 0.0, "name": "a98c081e62eb06740e9dcfc0da0738b7", "is_reserved": 0, "rental_uris": {"android": "https://dc.lft.to/lastmile_qr_scan", "ios": "https://dc.lft.to/lastmile_qr_scan"}, "fusion_lon": 0.0}, {"lat": 38.909633166666666, "is_disabled": 0, "type": "electric_scooter", "lon": -77.03719133333334, "bike_id": "86db1d6f5be1aad401069890fb7569b6", "fusion_lat": 0.0, "name": "86db1d6f5be1aad401069890fb7569b6", "is_reserved": 0, "rental_uris": {"android": "https://dc.lft.to/lastmile_qr_scan", "ios": "https://dc.lft.to/lastmile_qr_scan"}, "fusion_lon": 0.0}, {"lat": 38.90405666666667, "is_disabled": 0, "type": "electric_scooter", "lon": -77.043545, "bike_id": "110de6f9cc50ab088da9284ba4bc4889", "fusion_lat": 0.0, "name": "110de6f9cc50ab088da9284ba4bc4889", "is_reserved": 0, "rental_uris": {"android": "https://dc.lft.to/lastmile_qr_scan", "ios": "https://dc.lft.to/lastmile_qr_scan"}, "fusion_lon": 0.0}, {"lat": 38.865216833333335, "is_disabled": 0, "type": "electric_scooter", "lon": -76.990532, "bike_id": "13bef5773c27a0b9b43a0255acf2f373", "fusion_lat": 0.0, "name": "13bef5773c27a0b9b43a0255acf2f373", "is_reserved": 0, "rental_uris": {"android": "https://dc.lft.to/lastmile_qr_scan", "ios": "https://dc.lft.to/lastmile_qr_scan"}, "fusion_lon": 0.0}, {"lat": 38.863664166666666, "is_disabled": 0, "type": "electric_scooter", "lon": -76.99063233333334, "bike_id": "36c1ab00db8c7c399cdc599ed3d47806", "fusion_lat": 0.0, "name": "36c1ab00db8c7c399cdc599ed3d47806", "is_reserved": 0, "rental_uris": {"android": "https://dc.lft.to/lastmile_qr_scan", "ios": "https://dc.lft.to/lastmile_qr_scan"}, "fusion_lon": 0.0}, {"lat": 38.91284066666667, "is_disabled": 0, "type": "electric_scooter", "lon": -77.04515133333334, "bike_id": "4c2a2d9bca522666780b6d1b8236ef3d", "fusion_lat": 0.0, "name": "4c2a2d9bca522666780b6d1b8236ef3d", "is_reserved": 0, "rental_uris": {"android": "https://dc.lft.to/lastmile_qr_scan", "ios": "https://dc.lft.to/lastmile_qr_scan"}, "fusion_lon": 0.0}, {"lat": 38.89821716666667, "is_disabled": 0, "type": "electric_scooter", "lon": -77.00578783333333, "bike_id": "6098cc7d9673ca986e615e4c4da19d3d", "fusion_lat": 0.0, "name": "6098cc7d9673ca986e615e4c4da19d3d", "is_reserved": 0, "rental_uris": {"android": "https://dc.lft.to/lastmile_qr_scan", "ios": "https://dc.lft.to/lastmile_qr_scan"}, "fusion_lon": 0.0},