{"data": {"bikes": [{"is_reserved": 0, "lat": 38.9244935, "rental_uris": {"android": "https://dc.lft.to/lastmile_qr_scan", "ios": "https://dc.lft.to/lastmile_qr_scan"}, "bike_id": "ec3da869270df7c3d4433d311e19717f", "fusion_lon": 0.0, "fusion_lat": 0.0, "is_disabled": 0, "name": "ec3da869270df7c3d4433d311e19717f", "type": "electric_scooter", "lon": -77.04020683333333}, {"is_reserved": 0, "lat": 38.892168166666664, "rental_uris": {"android": "https://dc.lft.to/lastmile_qr_scan", "ios": "https://dc.lft.to/lastmile_qr_scan"}, "bike_id": "8161a0a4c79eb9c7df7327bd3a6b5347", "fusion_lon": 0.0, "fusion_lat": 0.0, "is_disabled": 0, "name": "8161a0a4c79eb9c7df7327bd3a6b5347", "type": "electric_scooter", "lon": -77.0262765}, {"is_reserved": 0, "lat": 38.919327, "rental_uris": {"android": "https://dc.lft.to/lastmile_qr_scan", "ios": "https://dc.lft.to/lastmile_qr_scan"}, "bike_id": "38ce704550a5d6241195cf47f55c5976", "fusion_lon": 0.0, "fusion_lat": 0.0, "is_disabled": 0, "name": "38ce704550a5d6241195cf47f55c5976", "type": "electric_scooter", "lon": -77.0250505}, {"is_reserved": 0, "lat": 38.9139625, "rental_uris": {"android": "https://dc.lft.to/lastmile_qr_scan", "ios": "https://dc.lft.to/lastmile_qr_scan"}, "bike_id": "2673c910d7f33659a91a218b30472c3c", "fusion_lon": 0.0, "fusion_lat": 0.0, "is_disabled": 0, "name": "2673c910d7f33659a91a218b30472c3c", "type": "electric_scooter", "lon": -77.0318095}, {"is_reserved": 0, "lat": 38.91606633333333, "rental_uris": {"android": "https://dc.lft.to/lastmile_qr_scan", "ios": "https://dc.lft.to/lastmile_qr_scan"}, "bike_id": "41a1d10655fd2b371832d7f457b11823", "fusion_lon": 0.0, "fusion_lat": 0.0, "is_disabled": 0, "name": "41a1d10655fd2b371832d7f457b11823", "type": "electric_scooter", "lon": -77.0384905}, {"is_reserved": 0, "lat": 38.852249, "rental_uris": {"android": "https://dc.lft.to/lastmile_qr_scan", "ios": "https://dc.lft.to/lastmile_qr_scan"}, "bike_id": "74a71dfed0698522769a020162ca3540", "fusion_lon": 0.0, "fusion_lat": 0.0, "is_disabled": 0, "name": "74a71dfed0698522769a020162ca3540", "type": "electric_bike", "lon": -77.1295935}, {"is_reserved": 0, "lat": 38.86589883333333, "rental_uris": {"android": "https://dc.lft.to/lastmile_qr_scan", "ios": "https://dc.lft.to/lastmile_qr_scan"}, "bike_id": "d1c524a4eda1fcaa3a8171d81aefd7a7", "fusion_lon": 0.0, "fusion_lat": 0.0, "is_disabled": 0, "name": "d1c524a4eda1fcaa3a8171d81aefd7a7", "type": "electric_bike", "lon": -76.93227316666666}, {"is_reserved": 0, "lat": 38.91918733333333, "rental_uris": {"android": "https://dc.lft.to/lastmile_qr_scan", "ios": "https://dc.lft.to/lastmile_qr_scan"}, "bike_id": "d25209c7799e98a1c8eb10b2c6ecdba1", "fusion_lon": 0.0, "fusion_lat": 0.0, "is_disabled": 0, "name": "d25209c7799e98a1c8eb10b2c6ecdba1", "type": "electric_scooter", "lon": -77.0316985}, {"is_reserved": 0, "lat": 38.91550466666666, "rental_uris": {"android": "https://dc.lft.to/lastmile_qr_scan", "ios": "https://dc.lft.to/lastmile_qr_scan"}, "bike_id": "36d227de21c2e398d7307d589ca0c033", "fusion_lon": 0.0, "fusion_lat": 0.0, "is_disabled": 0, "name": "36d227de21c2e398d7307d589ca0c033", "type": "electric_scooter", "lon": -77.04618166666667}, {"is_reserved": 0, "lat": 38.909965166666666, "rental_uris": {"android": "https://dc.lft.to/lastmile_qr_scan", "ios": "https://dc.lft.to/lastmile_qr_scan"}, "bike_id": "979f6e6d9c282df613aecdb21eb79507", "fusion_lon": 0.0, "fusion_lat": 0.0, "is_disabled": 0, "name": "979f6e6d9c282df613aecdb21eb79507", "type": "electric_scooter", "lon": -77.04004266666666}, {"is_reserved": 0, "lat": 38.90495283333333, "rental_uris": {"android": "https://dc.lft.to/lastmile_qr_scan", "ios": "https://dc.lft.to/lastmile_qr_scan"}, "bike_id": "d01466aaa0d18b3159ec1c17c1615401", "fusion_lon": 0.0, "fusion_lat": 0.0, "is_disabled": 0, "name": "d01466aaa0d18b3159ec1c17c1615401", "type": "electric_scooter", "lon": -77.00219466666667}, {"is_reserved": 0, "lat": 38.95348666666667, "rental_uris": {"android": "https://dc.lft.to/lastmile_qr_scan", "ios": "https://dc.lft.to/lastmile_qr_scan"}, "bike_id": "df444be17d56208693e967bb5381abe8", "fusion_lon": 0.0, "fusion_lat": 0.0, "is_disabled": 0, "name": "df444be17d56208693e967bb5381abe8", "type": "electric_bike", "lon": -76.980982}, {"is_reserved": 0, "lat": 38.90381383333333, "rental_uris": {"android": "https://dc.lft.to/lastmile_qr_scan", "ios": "https://dc.lft.to/lastmile_qr_scan"}, "bike_id": "f52ba162b06d0d23dae71f29fc8854ec", "fusion_lon": 0.0, "fusion_lat": 0.0, "is_disabled": 0, "name": "f52ba162b06d0d23dae71f29fc8854ec", "type": "electric_scooter", "lon": -77.0401855}, {"is_reserved": 0, "lat": 38.8652215, "rental_uris": {"android": "https://dc.lft.to/lastmile_qr_scan", "ios": "https://dc.lft.to/lastmile_qr_scan"}, "bike_id": "a8d310277b7891ed2ad78b7da168cd57", "fusion_lon": 0.0, "fusion_lat": 0.0, "is_disabled": 0, "name": "a8d310277b7891ed2ad78b7da168cd57", "type": "electric_scooter", "lon": -76.99030766666667}, {"is_reserved": 0, "lat": 38.933298, "rental_uris": {"android": "https://dc.lft.to/lastmile_qr_scan", "ios": "https://dc.lft.to/lastmile_qr_scan"}, "bike_id": "0bd793fe2eec8605954cd993deacf951", "fusion_lon": 0.0, "fusion_lat": 0.0, "is_disabled": 0, "name": "0bd793fe2eec8605954cd993deacf951", "type": "electric_scooter", "lon": -77.04384833333333}, {"is_reserved": 0, "lat": 38.892148166666665, "rental_uris": {"android": "https://dc.lft.to/lastmile_qr_scan", "ios": "https://dc.lft.to/lastmile_qr_scan"}, "bike_id": "8ee6887e2174e240cc10ed75b4db8e80", "fusion_lon": 0.0, "fusion_lat": 0.0, "is_disabled": 0, "name": "8ee6887e2174e240cc10ed75b4db8e80", "type": "electric_scooter", "lon": -77.02633883333333}, {"is_reserved": 0, "lat": 38.904291666666666, "rental_uris": {"android": "https://dc.lft.to/lastmile_qr_scan", "ios": "https://dc.lft.to/lastmile_qr_scan"}, "bike_id": "925344f06563a7cefe77237e91448b59", "fusion_lon": 0.0, "fusion_lat": 0.0, "is_disabled": 0, "name": "925344f06563a7cefe77237e91448b59", "type": "electric_scooter", "lon": -77.04337316666667}, {"is_reserved": 0, "lat": 38.88531416666667, "rental_uris": {"android": "https://dc.lft.to/lastmile_qr_scan", "ios": "https://dc.lft.to/lastmile_qr_scan"}, "bike_id": "42cda4036635560d9ba72b145b4eb33f", "fusion_lon": 0.0, "fusion_lat": 0.0, "is_disabled": 0, "name": "42cda4036635560d9ba72b145b4eb33f", "type": "electric_scooter", "lon": -77.015304}, {"is_reserved": 0, "lat": 38.91279433333333, "rental_uris": {"android": "https://dc.lft.to/lastmile_qr_scan", "ios": "https://dc.lft.to/lastmile_qr_scan"}, "bike_id": "d99aa4f81e08f9d20f06d515a64dcf82", "fusion_lon": 0.0, "fusion_lat": 0.0, "is_disabled": 0, "name": "d99aa4f81e08f9d20f06d515a64dcf82", "type": "electric_scooter", "lon": -77.04506783333333}, {"is_reserved": 0, "lat": 38.859537, "rental_uris": {"android": "https://dc.lft.to/lastmile_qr_scan", "ios": "https://dc.lft.to/lastmile_qr_scan"}, "bike_id": "4da3ccb6ae97ba29b643bfd78ef494d0", "fusion_lon": 0.0, "fusion_lat": 0.0, "is_disabled": 0, "name": "4da3ccb6ae97ba29b643bfd78ef494d0", "type": "electric_scooter", "lon": -76.99138383333333}, {"is_reserved": 0, "lat": 38.927975, "rental_uris": {"android": "https://dc.lft.to/lastmile_qr_scan", "ios": "https://dc.lft.to/lastmile_qr_scan"}, "bike_id": "9c4c3331ab64d45f78d15cfd88c215a0", "fusion_lon": 0.0, "fusion_lat": 0.0, "is_disabled": 0, "name": "9c4c3331ab64d45f78d15cfd88c215a0", "type": "electric_scooter", "lon": -77.03159033333333}, {"is_reserved": 0, "lat": 38.90244283333333, "rental_uris": {"android": "https://dc.lft.to/lastmile_qr_scan", "ios": "https://dc.lft.to/lastmile_qr_scan"}, "bike_id": "6cb50fa6cf159f4d7e4d45f624bf3285", "fusion_lon": 0.0, "fusion_lat": 0.0, "is_disabled": 0, "name": "6cb50fa6cf159f4d7e4d45f624bf3285", "type": "electric_scooter", "lon": -77.01968466666666}, {"is_reserved": 0, "lat": 38.892259, "rental_uris": {"android": "https://dc.lft.to/lastmile_qr_scan", "ios": "https://dc.lft.to/lastmile_qr_scan"}, "bike_id": "0516109bfe30775a90054ce919d3c99c", "fusion_lon": 0.0, "fusion_lat": 0.0, "is_disabled": 0, "name": "0516109bfe30775a90054ce919d3c99c", "type": "electric_scooter", "lon": -77.04331533333334}, {"is_reserved": 0, "lat": 38.90163783333333, "rental_uris": {"android": "https://dc.lft.to/lastmile_qr_scan", "ios": "https://dc.lft.to/lastmile_qr_scan"}, "bike_id": "47192177590668c1b735c0bdb699eae6", "fusion_lon": 0.0, "fusion_lat": 0.0, "is_disabled": 0, "name": "47192177590668c1b735c0bdb699eae6", "type": "electric_scooter", "lon": -76.998541}, {"is_reserved": 0, "lat": 38.91742216666667, "rental_uris": {"android": "https://dc.lft.to/lastmile_qr_scan", "ios": "https://dc.lft.to/lastmile_qr_scan"}, "bike_id": "a1cbafe8f7c801b9531aa8a690ac4f74", "fusion_lon": 0.0, "fusion_lat": 0.0, "is_disabled": 0, "name": "a1cbafe8f7c801b9531aa8a690ac4f74", "type": "electric_scooter", "lon": -77.0217775}, {"is_reserved": 0, "lat": 38.909636666666664, "rental_uris": {"android": "https://dc.lft.to/lastmile_qr_scan", "ios": "https://dc.lft.to/lastmile_qr_scan"}, "bike_id": "0f53171b33951e23c693944d4bf35ca5", "fusion_lon": 0.0, "fusion_lat": 0.0, "is_disabled": 0, "name": "0f53171b33951e23c693944d4bf35ca5", "type": "electric_scooter", "lon": -77.0322945}, {"is_reserved": 0, "lat": 38.91692883333333, "rental_uris": {"android": "https://dc.lft.to/lastmile_qr_scan", "ios": "https://dc.lft.to/lastmile_qr_scan"}, "bike_id": "ec1a4683fc5d818a63787b8eff53785d", "fusion_lon": 0.0, "fusion_lat": 0.0, "is_disabled": 0, "name": "ec1a4683fc5d818a63787b8eff53785d", "type": "electric_scooter", "lon": -77.0321395}, {"is_reserved": 0, "lat": 38.9236385, "rental_uris": {"android": "https://dc.lft.to/lastmile_qr_scan", "ios": "https://dc.lft.to/lastmile_qr_scan"}, "bike_id": "90ccfc8b44b1cdb83d1e31292549c8ce", "fusion_lon": 0.0, "fusion_lat": 0.0, "is_disabled": 0, "name": "90ccfc8b44b1cdb83d1e31292549c8ce", "type": "electric_scooter", "lon": -77.051276}, {"is_reserved": 0, "lat": 38.91805033333333, "rental_uris": {"android": "https://dc.lft.to/lastmile_qr_scan", "ios": "https://dc.lft.to/lastmile_qr_scan"}, "bike_id": "27768015c22662e336bc104164454573", "fusion_lon": 0.0, "fusion_lat": 0.0, "is_disabled": 0, "name": "27768015c22662e336bc104164454573", "type": "electric_scooter", "lon": -77.040284}, {"is_reserved": 0, "lat": 38.911105666666664, "rental_uris": {"android": "https://dc.lft.to/lastmile_qr_scan", "ios": "https://dc.lft.to/lastmile_qr_scan"}, "bike_id": "e9747cc2831a5d54d76c50f4e232b6cb", "fusion_lon": 0.0, "fusion_lat": 0.0, "is_disabled": 0, "name": "e9747cc2831a5d54d76c50f4e232b6cb", "type": "electric_scooter", "lon": -77.03147666666666}, {"is_reserved": 0, "lat": 38.9441205, "rental_uris": {"android": "https://dc.lft.to/lastmile_qr_scan", "ios": "https://dc.lft.to/lastmile_qr_scan"}, "bike_id": "0300680ae7d3e4c6f15bd256bd206e14", "fusion_lon": 0.0, "fusion_lat": 0.0, "is_disabled": 0, "name": "0300680ae7d3e4c6f15bd256bd206e14", "type": "electric_scooter", "lon": -77.0551315}, {"is_reserved": 0, "lat": 38.922005166666665, "rental_uris": {"android": "https://dc.lft.to/lastmile_qr_scan", "ios": "https://dc.lft.to/lastmile_qr_scan"}, "bike_id": "8d54f5c6f1b4d2ba4a1b9582b64792a1", "fusion_lon": 0.0, "fusion_lat": 0.0, "is_disabled": 0, "name": "8d54f5c6f1b4d2ba4a1b9582b64792a1", "type": "electric_scooter", "lon": -77.04253666666666}, {"is_reserved": 0, "lat": 38.90727783333333, "rental_uris": {"android": "https://dc.lft.to/lastmile_qr_scan", "ios": "https://dc.lft.to/lastmile_qr_scan"}, "bike_id": "bb5964e9c1e3c3d59693414ade8d45c8", "fusion_lon": 0.0, "fusion_lat": 0.0, "is_disabled": 0, "name": "bb5964e9c1e3c3d59693414ade8d45c8", "type": "electric_scooter", "lon": -76.99676716666667}, {"is_reserved": 0, "lat": 38.91565833333333, "rental_uris": {"android": "https://dc.lft.to/lastmile_qr_scan", "ios": "https://dc.lft.to/lastmile_qr_scan"}, "bike_id": "bf904bf5a335814522bec1a34384c4ea", "fusion_lon": 0.0, "fusion_lat": 0.0, "is_disabled": 0, "name": "bf904bf5a335814522bec1a34384c4ea", "type": "electric_scooter", "lon": -77.020034}, {"is_reserved": 0, "lat": 38.906127166666664, "rental_uris": {"android": "https://dc.lft.to/lastmile_qr_scan", "ios": "https://dc.lft.to/lastmile_qr_scan"}, "bike_id": "475b3eb7f5349140f5ebe5779d81c96e", "fusion_lon": 0.0, "fusion_lat": 0.0, "is_disabled": 0, "name": "475b3eb7f5349140f5ebe5779d81c96e", "type": "electric_scooter", "lon": -77.02187316666667}, {"is_reserved": 0, "lat": 38.892184, "rental_uris": {"android": "https://dc.lft.to/lastmile_qr_scan", "ios": "https://dc.lft.to/lastmile_qr_scan"}, "bike_id": "e2673e1716ce163466adf8b8bbcddad9", "fusion_lon": 0.0, "fusion_lat": 0.0, "is_disabled": 0, "name": "e2673e1716ce163466adf8b8bbcddad9", "type": "electric_scooter", "lon": -77.02632083333333}, {"is_reserved": 0, "lat": 38.906694333333334, "rental_uris": {"android": "https://dc.lft.to/lastmile_qr_scan", "ios": "https://dc.lft.to/lastmile_qr_scan"}, "bike_id": "759d5b25c43c4542e30bb14049a8de07", "fusion_lon": 0.0, "fusion_lat": 0.0, "is_disabled": 0, "name": "759d5b25c43c4542e30bb14049a8de07", "type": "electric_scooter", "lon": -77.038316}, {"is_reserved": 0, "lat": 38.91758516666667, "rental_uris": {"android": "https://dc.lft.to/lastmile_qr_scan", "ios": "https://dc.lft.to/lastmile_qr_scan"}, "bike_id": "f91760bcbc3b3ead7e246d3121a341f3", "fusion_lon": 0.0, "fusion_lat": 0.0, "is_disabled": 0, "name": "f91760bcbc3b3ead7e246d3121a341f3", "type": "electric_scooter", "lon": -77.03840616666666}, {"is_reserved": 0, "lat": 38.89391033333333, "rental_uris": {"android": "https://dc.lft.to/lastmile_qr_scan", "ios": "https://dc.lft.to/lastmile_qr_scan"}, "bike_id": "68656f69deef942cde36acfe9c043ed2", "fusion_lon": 0.0, "fusion_lat": 0.0, "is_disabled": 0, "name": "68656f69deef942cde36acfe9c043ed2", "type": "electric_scooter", "lon": -76.94997166666667}, {"is_reserved": 0, "lat": 38.915554, "rental_uris": {"android": "https://dc.lft.to/lastmile_qr_scan", "ios": "https://dc.lft.to/lastmile_qr_scan"}, "bike_id": "8971f74b419fa0d1072d16b010a6490e", "fusion_lon": 0.0, "fusion_lat": 0.0, "is_disabled": 0, "name": "8971f74b419fa0d1072d16b010a6490e", "type": "electric_scooter", "lon": -77.03162816666666}, {"is_reserved": 0, "lat": 38.9215625, "rental_uris": {"android": "https://dc.lft.to/lastmile_qr_scan", "ios": "https://dc.lft.to/lastmile_qr_scan"}, "bike_id": "4fa84fdeeefe2ac467caf85e649c598c", "fusion_lon": 0.0, "fusion_lat": 0.0, "is_disabled": 0, "name": "4fa84fdeeefe2ac467caf85e649c598c", "type": "electric_scooter", "lon": -77.0325465}, {"is_reserved": 0, "lat": 38.914526, "rental_uris": {"android": "https://dc.lft.to/lastmile_qr_scan", "ios": "https://dc.lft.to/lastmile_qr_scan"}, "bike_id": "423cc857aa165c5effefbec0cbd93eb8", "fusion_lon": 0.0, "fusion_lat": 0.0, "is_disabled": 0, "name": "423cc857aa165c5effefbec0cbd93eb8", "type": "electric_scooter", "lon": -77.02203366666667}, {"is_reserved": 0, "lat": 38.806796, "rental_uris": {"android": "https://dc.lft.to/lastmile_qr_scan", "ios": "https://dc.lft.to/lastmile_qr_scan"}, "bike_id": "57080b9839a29b04a8c368b500c12f99", "fusion_lon": 0.0, "fusion_lat": 0.0, "is_disabled": 0, "name": "57080b9839a29b04a8c368b500c12f99", "type": "electric_bike", "lon": -77.08120116666667}, {"is_reserved": 0, "lat": 38.9036045, "rental_uris": {"android": "https://dc.lft.to/lastmile_qr_scan", "ios": "https://dc.lft.to/lastmile_qr_scan"}, "bike_id": "ab761b6b2c4e24776073e6f83602f3dd", "fusion_lon": 0.0, "fusion_lat": 0.0, "is_disabled": 0, "name": "ab761b6b2c4e24776073e6f83602f3dd", "type": "electric_scooter", "lon": -77.04508983333334}, {"is_reserved": 0, "lat": 38.90552916666667, "rental_uris": {"android": "https://dc.lft.to/lastmile_qr_scan", "ios": "https://dc.lft.to/lastmile_qr_scan"}, "bike_id": "a08c7854118a6e085ddfdcf35a541893", "fusion_lon": 0.0, "fusion_lat": 0.0, "is_disabled": 0, "name": "a08c7854118a6e085ddfdcf35a541893", "type": "electric_scooter", "lon": -77.00574566666667}, {"is_reserved": 0, "lat": 38.897882833333334, "rental_uris": {"android": "https://dc.lft.to/lastmile_qr_scan", "ios": "https://dc.lft.to/lastmile_qr_scan"}, "bike_id": "42acc4ca4ca780ef3ed5f4ad0c7f2aa9", "fusion_lon": 0.0, "fusion_lat": 0.0, "is_disabled": 0, "name": "42acc4ca4ca780ef3ed5f4ad0c7f2aa9", "type": "electric_scooter", "lon": -77.02205766666667}, {"is_reserved": 0, "lat": 38.87177966666667, "rental_uris": {"android": "https://dc.lft.to/lastmile_qr_scan", "ios": "https://dc.lft.to/lastmile_qr_scan"}, "bike_id": "eb5925e12bbb63efb8a9d335efc47815", "fusion_lon": 0.0, "fusion_lat": 0.0, "is_disabled": 0, "name": "eb5925e12bbb63efb8a9d335efc47815", "type": "electric_scooter", "lon": -77.006096}, {"is_reserved": 0, "lat": 38.90329066666666, "rental_uris": {"android": "https://dc.lft.to/lastmile_qr_scan", "ios": "https://dc.lft.to/lastmile_qr_scan"}, "bike_id": "c17eac7d3867cb5b3165287e2deb212e", "fusion_lon": 0.0, "fusion_lat": 0.0, "is_disabled": 0, "name": "c17eac7d3867cb5b3165287e2deb212e", "type": "electric_scooter", "lon": -76.9759835}, {"is_reserved": 0, "lat": 38.917801, "rental_uris": {"android": "https://dc.lft.to/lastmile_qr_scan", "ios": "https://dc.lft.to/lastmile_qr_scan"}, "bike_id": "d745e13ace4ac383bf33e0a07c1a2518", "fusion_lon": 0.0, "fusion_lat": 0.0, "is_disabled": 0, "name": "d745e13ace4ac383bf33e0a07c1a2518", "type": "electric_scooter", "lon": -77.02347733333333}, {"is_reserved": 0, "lat": 38.870873833333334, "rental_uris": {"android": "https://dc.lft.to/lastmile_qr_scan", "ios": "https://dc.lft.to/lastmile_qr_scan"}, "bike_id": "a6704eda9b8db9312748d28bb106dd05", "fusion_lon": 0.0, "fusion_lat": 0.0, "is_disabled": 0, "name": "a6704eda9b8db9312748d28bb106dd05", "type": "electric_bike", "lon": -77.0121455}, {"is_reserved": 0, "lat": 38.91844283333333, "rental_uris": {"android": "https://dc.lft.to/lastmile_qr_scan", "ios": "https://dc.lft.to/lastmile_qr_scan"}, "bike_id": "ad98aaf69980babc1b4897f64bf5a8ae", "fusion_lon": 0.0, "fusion_lat": 0.0, "is_disabled": 0, "name": "ad98aaf69980babc1b4897f64bf5a8ae", "type": "electric_scooter", "lon": -77.03210583333333}, {"is_reserved": 0, "lat": 38.91268616666667, "rental_uris": {"android": "https://dc.lft.to/lastmile_qr_scan", "ios": "https://dc.lft.to/lastmile_qr_scan"}, "bike_id": "18225ba65b0f6aea7f9826445edd569e", "fusion_lon": 0.0, "fusion_lat": 0.0, "is_disabled": 0, "name": "18225ba65b0f6aea7f9826445edd569e", "type": "electric_scooter", "lon": -77.04410533333333}, {"is_reserved": 0, "lat": 38.86884933333333, "rental_uris": {"android": "https://dc.lft.to/lastmile_qr_scan", "ios": "https://dc.lft.to/lastmile_qr_scan"}, "bike_id": "e223364c5b1897b669725fb49a705ead", "fusion_lon": 0.0, "fusion_lat": 0.0, "is_disabled": 0, "name": "e223364c5b1897b669725fb49a705ead", "type": "electric_scooter", "lon": -76.98313683333333}, {"is_reserved": 0, "lat": 38.902077, "rental_uris": {"android": "https://dc.lft.to/lastmile_qr_scan", "ios": "https://dc.lft.to/lastmile_qr_scan"}, "bike_id": "575846655524bf23d5f40ca1444c076b", "fusion_lon": 0.0, "fusion_lat": 0.0, "is_disabled": 0, "name": "575846655524bf23d5f40ca1444c076b", "type": "electric_scooter", "lon": -76.99269566666666}, {"is_reserved": 0, "lat": 38.89514416666667, "rental_uris": {"android": "https://dc.lft.to/lastmile_qr_scan", "ios": "https://dc.lft.to/lastmile_qr_scan"}, "bike_id": "08e99446cf4cbb28f50041e784cbed7f", "fusion_lon": 0.0, "fusion_lat": 0.0, "is_disabled": 0, "name": "08e99446cf4cbb28f50041e784cbed7f", "type": "electric_scooter", "lon": -76.99213666666667}, {"is_reserved": 0, "lat": 38.917414666666666, "rental_uris": {"android": "https://dc.lft.to/lastmile_qr_scan", "ios": "https://dc.lft.to/lastmile_qr_scan"}, "bike_id": "6aaca0369307751d22305197e65ff9e2", "fusion_lon": 0.0, "fusion_lat": 0.0, "is_disabled": 0, "name": "6aaca0369307751d22305197e65ff9e2", "type": "electric_scooter", "lon": -77.03194666666667}, {"is_reserved": 0, "lat": 38.90561266666667, "rental_uris": {"android": "https://dc.lft.to/lastmile_qr_scan", "ios": "https://dc.lft.to/lastmile_qr_scan"}, "bike_id": "6ad93387b679163c37e260a0d090cc62", "fusion_lon": 0.0, "fusion_lat": 0.0, "is_disabled": 0, "name": "6ad93387b679163c37e260a0d090cc62", "type": "electric_scooter", "lon": -77.00917566666666}, {"is_reserved": 0, "lat": 38.909779, "rental_uris": {"android": "https://dc.lft.to/lastmile_qr_scan", "ios": "https://dc.lft.to/lastmile_qr_scan"}, "bike_id": "29f980730d9b02b3566e88180113b350", "fusion_lon": 0.0, "fusion_lat": 0.0, "is_disabled": 0, "name": "29f980730d9b02b3566e88180113b350", "type": "electric_scooter", "lon": -77.02183183333334}, {"is_reserved": 0, "lat": 38.91946733333333, "rental_uris": {"android": "https://dc.lft.to/lastmile_qr_scan", "ios": "https://dc.lft.to/lastmile_qr_scan"}, "bike_id": "6a31ea48d88f4e871588fb67ad95a742", "fusion_lon": 0.0, "fusion_lat": 0.0, "is_disabled": 0, "name": "6a31ea48d88f4e871588fb67ad95a742", "type": "electric_scooter", "lon": -77.079757}, {"is_reserved": 0, "lat": 38.898943, "rental_uris": {"android": "https://dc.lft.to/lastmile_qr_scan", "ios": "https://dc.lft.to/lastmile_qr_scan"}, "bike_id": "513382f086b033c2b310e85e8b740461", "fusion_lon": 0.0, "fusion_lat": 0.0, "is_disabled": 0, "name": "513382f086b033c2b310e85e8b740461", "type": "electric_scooter", "lon": -76.9973035}, {"is_reserved": 0, "lat": 38.8988255, "rental_uris": {"android": "https://dc.lft.to/lastmile_qr_scan", "ios": "https://dc.lft.to/lastmile_qr_scan"}, "bike_id": "08a7d354599720b791bccf5329bcb2c1", "fusion_lon": 0.0, "fusion_lat": 0.0, "is_disabled": 0, "name": "08a7d354599720b791bccf5329bcb2c1", "type": "electric_scooter", "lon": -76.9317455}, {"is_reserved": 0, "lat": 38.9203815, "rental_uris": {"android": "https://dc.lft.to/lastmile_qr_scan", "ios": "https://dc.lft.to/lastmile_qr_scan"}, "bike_id": "e959259a6a21defdb26eeb4f01c8bb09", "fusion_lon": 0.0, "fusion_lat": 0.0, "is_disabled": 0, "name": "e959259a6a21defdb26eeb4f01c8bb09", "type": "electric_scooter", "lon": -77.02985983333333}, {"is_reserved": 0, "lat": 38.95613783333334, "rental_uris": {"android": "https://dc.lft.to/lastmile_qr_scan", "ios": "https://dc.lft.to/lastmile_qr_scan"}, "bike_id": "bf0eded3223e9fd819c44791540a7415", "fusion_lon": 0.0, "fusion_lat": 0.0, "is_disabled": 0, "name": "bf0eded3223e9fd819c44791540a7415", "type": "electric_scooter", "lon": -77.02759266666666}, {"is_reserved": 0, "lat": 38.89908166666667, "rental_uris": {"android": "https://dc.lft.to/lastmile_qr_scan", "ios": "https://dc.lft.to/lastmile_qr_scan"}, "bike_id": "5ea613e0a05cc6a72ad8179ca4c8acaf", "fusion_lon": 0.0, "fusion_lat": 0.0, "is_disabled": 0, "name": "5ea613e0a05cc6a72ad8179ca4c8acaf", "type": "electric_scooter", "lon": -77.02810066666666}, {"is_reserved": 0, "lat": 38.881374666666666, "rental_uris": {"android": "https://dc.lft.to/lastmile_qr_scan", "ios": "https://dc.lft.to/lastmile_qr_scan"}, "bike_id": "73a3f6e95d441cf544fce5e877a283b2", "fusion_lon": 0.0, "fusion_lat": 0.0, "is_disabled": 0, "name": "73a3f6e95d441cf544fce5e877a283b2", "type": "electric_scooter", "lon": -76.99511433333333}, {"is_reserved": 0, "lat": 38.95295516666667, "rental_uris": {"android": "https://dc.lft.to/lastmile_qr_scan", "ios": "https://dc.lft.to/lastmile_qr_scan"}, "bike_id": "abb9e4a10a4c2f0c9dcbfe3b659ac640", "fusion_lon": 0.0, "fusion_lat": 0.0, "is_disabled": 0, "name": "abb9e4a10a4c2f0c9dcbfe3b659ac640", "type": "electric_bike", "lon": -77.02472816666666}, {"is_reserved": 0, "lat": 38.88496816666667, "rental_uris": {"android": "https://dc.lft.to/lastmile_qr_scan", "ios": "https://dc.lft.to/lastmile_qr_scan"}, "bike_id": "62f0d0901903bacd766583b6ee171d9c", "fusion_lon": 0.0, "fusion_lat": 0.0, "is_disabled": 0, "name": "62f0d0901903bacd766583b6ee171d9c", "type": "electric_scooter", "lon": -77.00706883333334}, {"is_reserved": 0, "lat": 38.80060866666667, "rental_uris": {"android": "https://dc.lft.to/lastmile_qr_scan", "ios": "https://dc.lft.to/lastmile_qr_scan"}, "bike_id": "fa659311e6d3c2d8076740b309c11ee7", "fusion_lon": 0.0, "fusion_lat": 0.0, "is_disabled": 0, "name": "fa659311e6d3c2d8076740b309c11ee7", "type": "electric_bike", "lon": -77.07108016666666}, {"is_reserved": 0, "lat": 38.91395583333333, "rental_uris": {"android": "https://dc.lft.to/lastmile_qr_scan", "ios": "https://dc.lft.to/lastmile_qr_scan"}, "bike_id": "001944e467377f3778f1077fa55b6112", "fusion_lon": 0.0, "fusion_lat": 0.0, "is_disabled": 0, "name": "001944e467377f3778f1077fa55b6112", "type": "electric_scooter", "lon": -77.01993316666666}, {"is_reserved": 0, "lat": 38.91842916666667, "rental_uris": {"android": "https://dc.lft.to/lastmile_qr_scan", "ios": "https://dc.lft.to/lastmile_qr_scan"}, "bike_id": "3feb0502f4bb339edc6d7b2e1b8c4731", "fusion_lon": 0.0, "fusion_lat": 0.0, "is_disabled": 0, "name": "3feb0502f4bb339edc6d7b2e1b8c4731", "type": "electric_scooter", "lon": -77.03205666666666}, {"is_reserved": 0, "lat": 38.903941, "rental_uris": {"android": "https://dc.lft.to/lastmile_qr_scan", "ios": "https://dc.lft.to/lastmile_qr_scan"}, "bike_id": "16e2b4ef15977e14b4eb1a9a5e18f1e4", "fusion_lon": 0.0, "fusion_lat": 0.0, "is_disabled": 0, "name": "16e2b4ef15977e14b4eb1a9a5e18f1e4", "type": "electric_scooter", "lon": -76.98940066666667}, {"is_reserved": 0, "lat": 38.901335833333334, "rental_uris": {"android": "https://dc.lft.to/lastmile_qr_scan", "ios": "https://dc.lft.to/lastmile_qr_scan"}, "bike_id": "120fbb776570b11ab1e83d0ff48e7e61", "fusion_lon": 0.0, "fusion_lat": 0.0, "is_disabled": 0, "name": "120fbb776570b11ab1e83d0ff48e7e61", "type": "electric_scooter", "lon": -77.01784116666667}, {"is_reserved": 0, "lat": 38.90845066666667, "rental_uris": {"android": "https://dc.lft.to/lastmile_qr_scan", "ios": "https://dc.lft.to/lastmile_qr_scan"}, "bike_id": "06d598d4b2b9b7f785abc9314973d7d8", "fusion_lon": 0.0, "fusion_lat": 0.0, "is_disabled": 0, "name": "06d598d4b2b9b7f785abc9314973d7d8", "type": "electric_scooter", "lon": -77.02057266666667}, {"is_reserved": 0, "lat": 38.866504, "rental_uris": {"android": "https://dc.lft.to/lastmile_qr_scan", "ios": "https://dc.lft.to/lastmile_qr_scan"}, "bike_id": "6c24cf0757b341541e2412502f5c43f3", "fusion_lon": 0.0, "fusion_lat": 0.0, "is_disabled": 0, "name": "6c24cf0757b341541e2412502f5c43f3", "type": "electric_scooter", "lon": -76.9888095}, {"is_reserved": 0, "lat": 38.9210625, "rental_uris": {"android": "https://dc.lft.to/lastmile_qr_scan", "ios": "https://dc.lft.to/lastmile_qr_scan"}, "bike_id": "39e634f9dee59028580537c26d623388", "fusion_lon": 0.0, "fusion_lat": 0.0, "is_disabled": 0, "name": "39e634f9dee59028580537c26d623388", "type": "electric_bike", "lon": -77.06327883333333}, {"is_reserved": 0, "lat": 38.920648666666665, "rental_uris": {"android": "https://dc.lft.to/lastmile_qr_scan", "ios": "https://dc.lft.to/lastmile_qr_scan"}, "bike_id": "735f73488ea197372af3a55c98ebcbb9", "fusion_lon": 0.0, "fusion_lat": 0.0, "is_disabled": 0, "name": "735f73488ea197372af3a55c98ebcbb9", "type": "electric_scooter", "lon": -77.04212283333334}, {"is_reserved": 0, "lat": 38.919500666666664, "rental_uris": {"android": "https://dc.lft.to/lastmile_qr_scan", "ios": "https://dc.lft.to/lastmile_qr_scan"}, "bike_id": "886b7a2d466f091ae3507c6576b35c73", "fusion_lon": 0.0, "fusion_lat": 0.0, "is_disabled": 0, "name": "886b7a2d466f091ae3507c6576b35c73", "type": "electric_scooter", "lon": -77.0249245}, {"is_reserved": 0, "lat": 38.89716683333333, "rental_uris": {"android": "https://dc.lft.to/lastmile_qr_scan", "ios": "https://dc.lft.to/lastmile_qr_scan"}, "bike_id": "a33a33f7deb2e32b2eb4f48b67ffc477", "fusion_lon": 0.0, "fusion_lat": 0.0, "is_disabled": 0, "name": "a33a33f7deb2e32b2eb4f48b67ffc477", "type": "electric_scooter", "lon": -77.02768683333333}, {"is_reserved": 0, "lat": 38.910609, "rental_uris": {"android": "https://dc.lft.to/lastmile_qr_scan", "ios": "https://dc.lft.to/lastmile_qr_scan"}, "bike_id": "a58e9100e20433ef49df7599d586a210", "fusion_lon": 0.0, "fusion_lat": 0.0, "is_disabled": 0, "name": "a58e9100e20433ef49df7599d586a210", "type": "electric_scooter", "lon": -77.00396266666667}, {"is_reserved": 0, "lat": 38.928787, "rental_uris": {"android": "https://dc.lft.to/lastmile_qr_scan", "ios": "https://dc.lft.to/lastmile_qr_scan"}, "bike_id": "af2d1646ae62e580c642e1078be32dcf", "fusion_lon": 0.0, "fusion_lat": 0.0, "is_disabled": 0, "name": "af2d1646ae62e580c642e1078be32dcf", "type": "electric_scooter", "lon": -77.02703333333334}, {"is_reserved": 0, "lat": 38.922186333333336, "rental_uris": {"android": "https://dc.lft.to/lastmile_qr_scan", "ios": "https://dc.lft.to/lastmile_qr_scan"}, "bike_id": "788e1514030ea7bd034fc9ac700a1c6e", "fusion_lon": 0.0, "fusion_lat": 0.0, "is_disabled": 0, "name": "788e1514030ea7bd034fc9ac700a1c6e", "type": "electric_scooter", "lon": -77.04242883333333}, {"is_reserved": 0, "lat": 38.912685833333335, "rental_uris": {"android": "https://dc.lft.to/lastmile_qr_scan", "ios": "https://dc.lft.to/lastmile_qr_scan"}, "bike_id": "275b7c6f99ef45e572b3d5c6d5583387", "fusion_lon": 0.0, "fusion_lat": 0.0, "is_disabled": 0, "name": "275b7c6f99ef45e572b3d5c6d5583387", "type": "electric_scooter", "lon": -77.02226616666667}, {"is_reserved": 0, "lat": 38.90737216666667, "rental_uris": {"android": "https://dc.lft.to/lastmile_qr_scan", "ios": "https://dc.lft.to/lastmile_qr_scan"}, "bike_id": "ffab82d5eb8e1994e66faa963bbe797f", "fusion_lon": 0.0, "fusion_lat": 0.0, "is_disabled": 0, "name": "ffab82d5eb8e1994e66faa963bbe797f", "type": "electric_scooter", "lon": -77.0271235}, {"is_reserved": 0, "lat": 38.8922705, "rental_uris": {"android": "https://dc.lft.to/lastmile_qr_scan", "ios": "https://dc.lft.to/lastmile_qr_scan"}, "bike_id": "e149f347203fcb341357ce8f259e42e0", "fusion_lon": 0.0, "fusion_lat": 0.0, "is_disabled": 0, "name": "e149f347203fcb341357ce8f259e42e0", "type": "electric_scooter", "lon": -77.04505266666666}, {"is_reserved": 0, "lat": 38.90783866666666, "rental_uris": {"android": "https://dc.lft.to/lastmile_qr_scan", "ios": "https://dc.lft.to/lastmile_qr_scan"}, "bike_id": "1d46ea011d4133f92503304dc23b3a2c", "fusion_lon": 0.0, "fusion_lat": 0.0, "is_disabled": 0, "name": "1d46ea011d4133f92503304dc23b3a2c", "type": "electric_scooter", "lon": -77.072558}, {"is_reserved": 0, "lat": 38.84079216666667, "rental_uris": {"android": "https://dc.lft.to/lastmile_qr_scan", "ios": "https://dc.lft.to/lastmile_qr_scan"}, "bike_id": "c74fa9c62d846e4681d2c81f565e223c", "fusion_lon": 0.0, "fusion_lat": 0.0, "is_disabled": 0, "name": "c74fa9c62d846e4681d2c81f565e223c", "type": "electric_scooter", "lon": -76.98926083333333}, {"is_reserved": 0, "lat": 38.896528833333335, "rental_uris": {"android": "https://dc.lft.to/lastmile_qr_scan", "ios": "https://dc.lft.to/lastmile_qr_scan"}, "bike_id": "935ee0e4b2784472932add31393fad75", "fusion_lon": 0.0, "fusion_lat": 0.0, "is_disabled": 0, "name": "935ee0e4b2784472932add31393fad75", "type": "electric_scooter", "lon": -77.05019383333334}, {"is_reserved": 0, "lat": 38.92255166666666, "rental_uris": {"android": "https://dc.lft.to/lastmile_qr_scan", "ios": "https://dc.lft.to/lastmile_qr_scan"}, "bike_id": "9ca8e057c663dc9fb33b6b7a8a14985c", "fusion_lon": 0.0, "fusion_lat": 0.0, "is_disabled": 0, "name": "9ca8e057c663dc9fb33b6b7a8a14985c", "type": "electric_scooter", "lon": -77.019486}, {"is_reserved": 0, "lat": 38.916760333333336, "rental_uris": {"android": "https://dc.lft.to/lastmile_qr_scan", "ios": "https://dc.lft.to/lastmile_qr_scan"}, "bike_id": "b1efee0b28bbe397b02b1f65c6c2addc", "fusion_lon": 0.0, "fusion_lat": 0.0, "is_disabled": 0, "name": "b1efee0b28bbe397b02b1f65c6c2addc", "type": "electric_scooter", "lon": -77.0233575}, {"is_reserved": 0, "lat": 38.92247366666667, "rental_uris": {"android": "https://dc.lft.to/lastmile_qr_scan", "ios": "https://dc.lft.to/lastmile_qr_scan"}, "bike_id": "37ae1cc33474ba2a7faca9c14b60a8cd", "fusion_lon": 0.0, "fusion_lat": 0.0, "is_disabled": 0, "name": "37ae1cc33474ba2a7faca9c14b60a8cd", "type": "electric_scooter", "lon": -77.03008933333334}, {"is_reserved": 0, "lat": 38.89226083333333, "rental_uris": {"android": "https://dc.lft.to/lastmile_qr_scan", "ios": "https://dc.lft.to/lastmile_qr_scan"}, "bike_id": "03e10c0c13d6147b53674fa375df1e3b", "fusion_lon": 0.0, "fusion_lat": 0.0, "is_disabled": 0, "name": "03e10c0c13d6147b53674fa375df1e3b", "type": "electric_scooter", "lon": -77.033773}, {"is_reserved": 0, "lat": 38.90471633333333, "rental_uris": {"android": "https://dc.lft.to/lastmile_qr_scan", "ios": "https://dc.lft.to/lastmile_qr_scan"}, "bike_id": "58335f8e91219a37aa0e4fb8cf277916", "fusion_lon": 0.0, "fusion_lat": 0.0, "is_disabled": 0, "name": "58335f8e91219a37aa0e4fb8cf277916", "type": "electric_scooter", "lon": -77.03917166666666}, {"is_reserved": 0, "lat": 38.898815666666664, "rental_uris": {"android": "https://dc.lft.to/lastmile_qr_scan", "ios": "https://dc.lft.to/lastmile_qr_scan"}, "bike_id": "aba2efa80d27ea452cb6d5681c3b20f2", "fusion_lon": 0.0, "fusion_lat": 0.0, "is_disabled": 0, "name": "aba2efa80d27ea452cb6d5681c3b20f2", "type": "electric_scooter", "lon": -76.9317205}, {"is_reserved": 0, "lat": 38.85713833333333, "rental_uris": {"android": "https://dc.lft.to/lastmile_qr_scan", "ios": "https://dc.lft.to/lastmile_qr_scan"}, "bike_id": "0eb8c22072d0e18756ce654be3ddb7cd", "fusion_lon": 0.0, "fusion_lat": 0.0, "is_disabled": 0, "name": "0eb8c22072d0e18756ce654be3ddb7cd", "type": "electric_bike", "lon": -76.97087816666667}, {"is_reserved": 0, "lat": 38.92286333333333, "rental_uris": {"android": "https://dc.lft.to/lastmile_qr_scan", "ios": "https://dc.lft.to/lastmile_qr_scan"}, "bike_id": "9f99232b66abebfee31dd6a2d9c20911", "fusion_lon": 0.0, "fusion_lat": 0.0, "is_disabled": 0, "name": "9f99232b66abebfee31dd6a2d9c20911", "type": "electric_scooter", "lon": -77.04258833333333}, {"is_reserved": 0, "lat": 38.88427216666667, "rental_uris": {"android": "https://dc.lft.to/lastmile_qr_scan", "ios": "https://dc.lft.to/lastmile_qr_scan"}, "bike_id": "f0347b972824d8a1bef8870291b391d9", "fusion_lon": 0.0, "fusion_lat": 0.0, "is_disabled": 0, "name": "f0347b972824d8a1bef8870291b391d9", "type": "electric_scooter", "lon": -76.95753533333334}, {"is_reserved": 0, "lat": 38.8442165, "rental_uris": {"android": "https://dc.lft.to/lastmile_qr_scan", "ios": "https://dc.lft.to/lastmile_qr_scan"}, "bike_id": "012af271ff986b461ef0fd7de8b9dbc0", "fusion_lon": 0.0, "fusion_lat": 0.0, "is_disabled": 0, "name": "012af271ff986b461ef0fd7de8b9dbc0", "type": "electric_scooter", "lon": -76.99775166666667}, {"is_reserved": 0, "lat": 38.96135683333333, "rental_uris": {"android": "https://dc.lft.to/lastmile_qr_scan", "ios": "https://dc.lft.to/lastmile_qr_scan"}, "bike_id": "ff1f7e4bdb7d34292d2b567ade532ea2", "fusion_lon": 0.0, "fusion_lat": 0.0, "is_disabled": 0, "name": "ff1f7e4bdb7d34292d2b567ade532ea2", "type": "electric_scooter", "lon": -77.0223655}, {"is_reserved": 0, "lat": 38.871457166666666, "rental_uris": {"android": "https://dc.lft.to/lastmile_qr_scan", "ios": "https://dc.lft.to/lastmile_qr_scan"}, "bike_id": "ab4b6c94bb8ef4e75323914f9c115d7a", "fusion_lon": 0.0, "fusion_lat": 0.0, "is_disabled": 0, "name": "ab4b6c94bb8ef4e75323914f9c115d7a", "type": "electric_bike", "lon": -76.93698033333334}, {"is_reserved": 0, "lat": 38.90154883333334, "rental_uris": {"android": "https://dc.lft.to/lastmile_qr_scan", "ios": "https://dc.lft.to/lastmile_qr_scan"}, "bike_id": "5f8afc4469a70d42119a40751b7570ef", "fusion_lon": 0.0, "fusion_lat": 0.0, "is_disabled": 0, "name": "5f8afc4469a70d42119a40751b7570ef", "type": "electric_scooter", "lon": -77.0394435}, {"is_reserved": 0, "lat": 38.90427583333334, "rental_uris": {"android": "https://dc.lft.to/lastmile_qr_scan", "ios": "https://dc.lft.to/lastmile_qr_scan"}, "bike_id": "bf3ad3bba2ff2058ba5e8338c78fa449", "fusion_lon": 0.0, "fusion_lat": 0.0, "is_disabled": 0, "name": "bf3ad3bba2ff2058ba5e8338c78fa449", "type": "electric_scooter", "lon": -77.0021215}, {"is_reserved": 0, "lat": 38.91744466666667, "rental_uris": {"android": "https://dc.lft.to/lastmile_qr_scan", "ios": "https://dc.lft.to/lastmile_qr_scan"}, "bike_id": "e040e3bea52598de84add50fbe1db1d4", "fusion_lon": 0.0, "fusion_lat": 0.0, "is_disabled": 0, "name": "e040e3bea52598de84add50fbe1db1d4", "type": "electric_scooter", "lon": -77.02391583333333}, {"is_reserved": 0, "lat": 38.8992425, "rental_uris": {"android": "https://dc.lft.to/lastmile_qr_scan", "ios": "https://dc.lft.to/lastmile_qr_scan"}, "bike_id": "81dcd5851a3c014d98a6aefe12937ba6", "fusion_lon": 0.0, "fusion_lat": 0.0, "is_disabled": 0, "name": "81dcd5851a3c014d98a6aefe12937ba6", "type": "electric_scooter", "lon": -77.04071016666667}, {"is_reserved": 0, "lat": 38.90272683333333, "rental_uris": {"android": "https://dc.lft.to/lastmile_qr_scan", "ios": "https://dc.lft.to/lastmile_qr_scan"}, "bike_id": "9d40f19ec68e416d6642531f388cc3c4", "fusion_lon": 0.0, "fusion_lat": 0.0, "is_disabled": 0, "name": "9d40f19ec68e416d6642531f388cc3c4", "type": "electric_scooter", "lon": -77.03635183333333}, {"is_reserved": 0, "lat": 38.894361833333335, "rental_uris": {"android": "https://dc.lft.to/lastmile_qr_scan", "ios": "https://dc.lft.to/lastmile_qr_scan"}, "bike_id": "bf309f08189044e6edef9eb20fdcdd5b", "fusion_lon": 0.0, "fusion_lat": 0.0, "is_disabled": 0, "name": "bf309f08189044e6edef9eb20fdcdd5b", "type": "electric_bike", "lon": -76.98354583333334}, {"is_reserved": 0, "lat": 38.8134475, "rental_uris": {"android": "https://dc.lft.to/lastmile_qr_scan", "ios": "https://dc.lft.to/lastmile_qr_scan"}, "bike_id": "2c4a02ceb7090507911cdb1313a37c0c", "fusion_lon": 0.0, "fusion_lat": 0.0, "is_disabled": 0, "name": "2c4a02ceb7090507911cdb1313a37c0c", "type": "electric_bike", "lon": -77.04921316666666}, {"is_reserved": 0, "lat": 38.96201, "rental_uris": {"android": "https://dc.lft.to/lastmile_qr_scan", "ios": "https://dc.lft.to/lastmile_qr_scan"}, "bike_id": "cc2b66b7785f1c92433a5606ba56f7f0", "fusion_lon": 0.0, "fusion_lat": 0.0, "is_disabled": 0, "name": "cc2b66b7785f1c92433a5606ba56f7f0", "type": "electric_bike", "lon": -77.03513283333334}, {"is_reserved": 0, "lat": 38.8990455, "rental_uris": {"android": "https://dc.lft.to/lastmile_qr_scan", "ios": "https://dc.lft.to/lastmile_qr_scan"}, "bike_id": "8bf761bcf633053c613637c6cf39f1a3", "fusion_lon": 0.0, "fusion_lat": 0.0, "is_disabled": 0, "name": "8bf761bcf633053c613637c6cf39f1a3", "type": "electric_scooter", "lon": -77.039586}, {"is_reserved": 0, "lat": 38.8999625, "rental_uris": {"android": "https://dc.lft.to/lastmile_qr_scan", "ios": "https://dc.lft.to/lastmile_qr_scan"}, "bike_id": "9a0cafbedd73f8345dad3e81dc7fa862", "fusion_lon": 0.0, "fusion_lat": 0.0, "is_disabled": 0, "name": "9a0cafbedd73f8345dad3e81dc7fa862", "type": "electric_scooter", "lon": -76.998496}, {"is_reserved": 0, "lat": 38.93253516666667, "rental_uris": {"android": "https://dc.lft.to/lastmile_qr_scan", "ios": "https://dc.lft.to/lastmile_qr_scan"}, "bike_id": "f5bc9af9b780da2d8e027272750332fd", "fusion_lon": 0.0, "fusion_lat": 0.0, "is_disabled": 0, "name": "f5bc9af9b780da2d8e027272750332fd", "type": "electric_scooter", "lon": -77.03285066666666}, {"is_reserved": 0, "lat": 38.92896183333333, "rental_uris": {"android": "https://dc.lft.to/lastmile_qr_scan", "ios": "https://dc.lft.to/lastmile_qr_scan"}, "bike_id": "b6b3b2e9620b655b90085b63f7e5c6ef", "fusion_lon": 0.0, "fusion_lat": 0.0, "is_disabled": 0, "name": "b6b3b2e9620b655b90085b63f7e5c6ef", "type": "electric_scooter", "lon": -77.0163095}, {"is_reserved": 0, "lat": 38.918184333333336, "rental_uris": {"android": "https://dc.lft.to/lastmile_qr_scan", "ios": "https://dc.lft.to/lastmile_qr_scan"}, "bike_id": "422e6a2f0e2060f37e12065187736732", "fusion_lon": 0.0, "fusion_lat": 0.0, "is_disabled": 0, "name": "422e6a2f0e2060f37e12065187736732", "type": "electric_scooter", "lon": -77.03531516666666}, {"is_reserved": 0, "lat": 38.917717333333336, "rental_uris": {"android": "https://dc.lft.to/lastmile_qr_scan", "ios": "https://dc.lft.to/lastmile_qr_scan"}, "bike_id": "aa906b8b8646a4b7a4b3c01dbc27147e", "fusion_lon": 0.0, "fusion_lat": 0.0, "is_disabled": 0, "name": "aa906b8b8646a4b7a4b3c01dbc27147e", "type": "electric_scooter", "lon": -77.02353316666667}, {"is_reserved": 0, "lat": 38.905889333333334, "rental_uris": {"android": "https://dc.lft.to/lastmile_qr_scan", "ios": "https://dc.lft.to/lastmile_qr_scan"}, "bike_id": "135e5759d84ebb313e04e89a0197631c", "fusion_lon": 0.0, "fusion_lat": 0.0, "is_disabled": 0, "name": "135e5759d84ebb313e04e89a0197631c", "type": "electric_scooter", "lon": -77.0628415}, {"is_reserved": 0, "lat": 38.92247616666667, "rental_uris": {"android": "https://dc.lft.to/lastmile_qr_scan", "ios": "https://dc.lft.to/lastmile_qr_scan"}, "bike_id": "005b9f97f3daf0a86cad2b6fffd421b6", "fusion_lon": 0.0, "fusion_lat": 0.0, "is_disabled": 0, "name": "005b9f97f3daf0a86cad2b6fffd421b6", "type": "electric_scooter", "lon": -77.034151}, {"is_reserved": 0, "lat": 38.90844966666667, "rental_uris": {"android": "https://dc.lft.to/lastmile_qr_scan", "ios": "https://dc.lft.to/lastmile_qr_scan"}, "bike_id": "ee0a71a63247794208ae86246b34e765", "fusion_lon": 0.0, "fusion_lat": 0.0, "is_disabled": 0, "name": "ee0a71a63247794208ae86246b34e765", "type": "electric_scooter", "lon": -77.0222425}, {"is_reserved": 0, "lat": 38.915554166666666, "rental_uris": {"android": "https://dc.lft.to/lastmile_qr_scan", "ios": "https://dc.lft.to/lastmile_qr_scan"}, "bike_id": "0b1e6e7800646953422c04d94be07a3e", "fusion_lon": 0.0, "fusion_lat": 0.0, "is_disabled": 0, "name": "0b1e6e7800646953422c04d94be07a3e", "type": "electric_scooter", "lon": -77.03155866666667}, {"is_reserved": 0, "lat": 38.851845833333336, "rental_uris": {"android": "https://dc.lft.to/lastmile_qr_scan", "ios": "https://dc.lft.to/lastmile_qr_scan"}, "bike_id": "d3d140ee7752a9297cc33599b3ff4adb", "fusion_lon": 0.0, "fusion_lat": 0.0, "is_disabled": 0, "name": "d3d140ee7752a9297cc33599b3ff4adb", "type": "electric_bike", "lon": -76.96112366666667}, {"is_reserved": 0, "lat": 38.898452666666664, "rental_uris": {"android": "https://dc.lft.to/lastmile_qr_scan", "ios": "https://dc.lft.to/lastmile_qr_scan"}, "bike_id": "6bfc32ad041fbf1164987b99ac30b00d", "fusion_lon": 0.0, "fusion_lat": 0.0, "is_disabled": 0, "name": "6bfc32ad041fbf1164987b99ac30b00d", "type": "electric_scooter", "lon": -76.98173466666667}, {"is_reserved": 0, "lat": 38.949236666666664, "rental_uris": {"android": "https://dc.lft.to/lastmile_qr_scan", "ios": "https://dc.lft.to/lastmile_qr_scan"}, "bike_id": "84f0ff3a573456858f8ebb9ab7d23656", "fusion_lon": 0.0, "fusion_lat": 0.0, "is_disabled": 0, "name": "84f0ff3a573456858f8ebb9ab7d23656", "type": "electric_scooter", "lon": -77.01942733333334}, {"is_reserved": 0, "lat": 38.898414833333334, "rental_uris": {"android": "https://dc.lft.to/lastmile_qr_scan", "ios": "https://dc.lft.to/lastmile_qr_scan"}, "bike_id": "273358dcce1d3118d76e0243d32668cf", "fusion_lon": 0.0, "fusion_lat": 0.0, "is_disabled": 0, "name": "273358dcce1d3118d76e0243d32668cf", "type": "electric_scooter", "lon": -76.946366}, {"is_reserved": 0, "lat": 38.91804533333333, "rental_uris": {"android": "https://dc.lft.to/lastmile_qr_scan", "ios": "https://dc.lft.to/lastmile_qr_scan"}, "bike_id": "77999564e03a774995409da5a3652ea7", "fusion_lon": 0.0, "fusion_lat": 0.0, "is_disabled": 0, "name": "77999564e03a774995409da5a3652ea7", "type": "electric_scooter", "lon": -77.0402765}, {"is_reserved": 0, "lat": 38.92857, "rental_uris": {"android": "https://dc.lft.to/lastmile_qr_scan", "ios": "https://dc.lft.to/lastmile_qr_scan"}, "bike_id": "17ba0afbec42bf5b00553707327f9284", "fusion_lon": 0.0, "fusion_lat": 0.0, "is_disabled": 0, "name": "17ba0afbec42bf5b00553707327f9284", "type": "electric_scooter", "lon": -77.0371705}, {"is_reserved": 0, "lat": 38.85512583333333, "rental_uris": {"android": "https://dc.lft.to/lastmile_qr_scan", "ios": "https://dc.lft.to/lastmile_qr_scan"}, "bike_id": "3fc2ea25afaa9d6a630c8589df61bd9c", "fusion_lon": 0.0, "fusion_lat": 0.0, "is_disabled": 0, "name": "3fc2ea25afaa9d6a630c8589df61bd9c", "type": "electric_bike", "lon": -77.12031216666666}, {"is_reserved": 0, "lat": 38.91007783333333, "rental_uris": {"android": "https://dc.lft.to/lastmile_qr_scan", "ios": "https://dc.lft.to/lastmile_qr_scan"}, "bike_id": "f6c0e3caaaf8aa9a341635c997b4001e", "fusion_lon": 0.0, "fusion_lat": 0.0, "is_disabled": 0, "name": "f6c0e3caaaf8aa9a341635c997b4001e", "type": "electric_scooter", "lon": -76.99381416666667}, {"is_reserved": 0, "lat": 38.9041875, "rental_uris": {"android": "https://dc.lft.to/lastmile_qr_scan", "ios": "https://dc.lft.to/lastmile_qr_scan"}, "bike_id": "df4c5b60807af2713ab856ae3e67c6f5", "fusion_lon": 0.0, "fusion_lat": 0.0, "is_disabled": 0, "name": "df4c5b60807af2713ab856ae3e67c6f5", "type": "electric_scooter", "lon": -77.06889}, {"is_reserved": 0, "lat": 38.916782166666664, "rental_uris": {"android": "https://dc.lft.to/lastmile_qr_scan", "ios": "https://dc.lft.to/lastmile_qr_scan"}, "bike_id": "912e6e80785563f428a9609ab93a6a76", "fusion_lon": 0.0, "fusion_lat": 0.0, "is_disabled": 0, "name": "912e6e80785563f428a9609ab93a6a76", "type": "electric_scooter", "lon": -77.0385375}, {"is_reserved": 0, "lat": 38.915637333333336, "rental_uris": {"android": "https://dc.lft.to/lastmile_qr_scan", "ios": "https://dc.lft.to/lastmile_qr_scan"}, "bike_id": "54708092c1558e0ef0a6eafd9ff0cf6e", "fusion_lon": 0.0, "fusion_lat": 0.0, "is_disabled": 0, "name": "54708092c1558e0ef0a6eafd9ff0cf6e", "type": "electric_scooter", "lon": -77.0218735}, {"is_reserved": 0, "lat": 38.932830833333334, "rental_uris": {"android": "https://dc.lft.to/lastmile_qr_scan", "ios": "https://dc.lft.to/lastmile_qr_scan"}, "bike_id": "1ffac6c9eb66342c56c22c8a4e4d9519", "fusion_lon": 0.0, "fusion_lat": 0.0, "is_disabled": 0, "name": "1ffac6c9eb66342c56c22c8a4e4d9519", "type": "electric_scooter", "lon": -77.03643066666666}, {"is_reserved": 0, "lat": 38.8990215, "rental_uris": {"android": "https://dc.lft.to/lastmile_qr_scan", "ios": "https://dc.lft.to/lastmile_qr_scan"}, "bike_id": "d92794dd9fc8bee5b279197ab653c453", "fusion_lon": 0.0, "fusion_lat": 0.0, "is_disabled": 0, "name": "d92794dd9fc8bee5b279197ab653c453", "type": "electric_scooter", "lon": -77.03260916666666}, {"is_reserved": 0, "lat": 38.918213, "rental_uris": {"android": "https://dc.lft.to/lastmile_qr_scan", "ios": "https://dc.lft.to/lastmile_qr_scan"}, "bike_id": "16f908586f215324f2bc10d24a0a1517", "fusion_lon": 0.0, "fusion_lat": 0.0, "is_disabled": 0, "name": "16f908586f215324f2bc10d24a0a1517", "type": "electric_scooter", "lon": -77.03533683333333}, {"is_reserved": 0, "lat": 38.901106166666665, "rental_uris": {"android": "https://dc.lft.to/lastmile_qr_scan", "ios": "https://dc.lft.to/lastmile_qr_scan"}, "bike_id": "f0f4d61de1d38bfd5a15abfba6c1ca30", "fusion_lon": 0.0, "fusion_lat": 0.0, "is_disabled": 0, "name": "f0f4d61de1d38bfd5a15abfba6c1ca30", "type": "electric_scooter", "lon": -76.99550283333333}, {"is_reserved": 0, "lat": 38.895968333333336, "rental_uris": {"android": "https://dc.lft.to/lastmile_qr_scan", "ios": "https://dc.lft.to/lastmile_qr_scan"}, "bike_id": "fac71dee8d65e3cbb313af9004a76c98", "fusion_lon": 0.0, "fusion_lat": 0.0, "is_disabled": 0, "name": "fac71dee8d65e3cbb313af9004a76c98", "type": "electric_scooter", "lon": -77.01050766666667}, {"is_reserved": 0, "lat": 38.892235, "rental_uris": {"android": "https://dc.lft.to/lastmile_qr_scan", "ios": "https://dc.lft.to/lastmile_qr_scan"}, "bike_id": "aa9e7af68e546a8cb7041451a299409b", "fusion_lon": 0.0, "fusion_lat": 0.0, "is_disabled": 0, "name": "aa9e7af68e546a8cb7041451a299409b", "type": "electric_scooter", "lon": -77.04199016666666}, {"is_reserved": 0, "lat": 38.89002883333333, "rental_uris": {"android": "https://dc.lft.to/lastmile_qr_scan", "ios": "https://dc.lft.to/lastmile_qr_scan"}, "bike_id": "796f3b1de930ec33b8a980856508b816", "fusion_lon": 0.0, "fusion_lat": 0.0, "is_disabled": 0, "name": "796f3b1de930ec33b8a980856508b816", "type": "electric_scooter", "lon": -76.93739716666667}, {"is_reserved": 0, "lat": 38.92112783333334, "rental_uris": {"android": "https://dc.lft.to/lastmile_qr_scan", "ios": "https://dc.lft.to/lastmile_qr_scan"}, "bike_id": "854386c6c5a29fdf0f12475dccd1e522", "fusion_lon": 0.0, "fusion_lat": 0.0, "is_disabled": 0, "name": "854386c6c5a29fdf0f12475dccd1e522", "type": "electric_scooter", "lon": -77.01752016666667}, {"is_reserved": 0, "lat": 38.920768, "rental_uris": {"android": "https://dc.lft.to/lastmile_qr_scan", "ios": "https://dc.lft.to/lastmile_qr_scan"}, "bike_id": "b39e1a6ea3d18ca50a77369f6bf40ede", "fusion_lon": 0.0, "fusion_lat": 0.0, "is_disabled": 0, "name": "b39e1a6ea3d18ca50a77369f6bf40ede", "type": "electric_scooter", "lon": -77.03652266666667}, {"is_reserved": 0, "lat": 38.9146965, "rental_uris": {"android": "https://dc.lft.to/lastmile_qr_scan", "ios": "https://dc.lft.to/lastmile_qr_scan"}, "bike_id": "ad285ae7ddd0d5125729280fe2a03ca0", "fusion_lon": 0.0, "fusion_lat": 0.0, "is_disabled": 0, "name": "ad285ae7ddd0d5125729280fe2a03ca0", "type": "electric_scooter", "lon": -77.0384805}, {"is_reserved": 0, "lat": 39.03890833333333, "rental_uris": {"android": "https://dc.lft.to/lastmile_qr_scan", "ios": "https://dc.lft.to/lastmile_qr_scan"}, "bike_id": "33622a2e42a10e96d89eefe99aa9553a", "fusion_lon": 0.0, "fusion_lat": 0.0, "is_disabled": 0, "name": "33622a2e42a10e96d89eefe99aa9553a", "type": "electric_bike", "lon": -77.04991483333333}, {"is_reserved": 0, "lat": 38.90618216666667, "rental_uris": {"android": "https://dc.lft.to/lastmile_qr_scan", "ios": "https://dc.lft.to/lastmile_qr_scan"}, "bike_id": "0026fce477fafcf16a07632fdf09b7bf", "fusion_lon": 0.0, "fusion_lat": 0.0, "is_disabled": 0, "name": "0026fce477fafcf16a07632fdf09b7bf", "type": "electric_scooter", "lon": -77.04345766666667}, {"is_reserved": 0, "lat": 38.915592333333336, "rental_uris": {"android": "https://dc.lft.to/lastmile_qr_scan", "ios": "https://dc.lft.to/lastmile_qr_scan"}, "bike_id": "fe86e6b9eaada532037849b73e0d0df9", "fusion_lon": 0.0, "fusion_lat": 0.0, "is_disabled": 0, "name": "fe86e6b9eaada532037849b73e0d0df9", "type": "electric_scooter", "lon": -77.03167016666667}, {"is_reserved": 0, "lat": 38.92208316666667, "rental_uris": {"android": "https://dc.lft.to/lastmile_qr_scan", "ios": "https://dc.lft.to/lastmile_qr_scan"}, "bike_id": "c6bfc08af8ac4a0baf0ecacc1db75d16", "fusion_lon": 0.0, "fusion_lat": 0.0, "is_disabled": 0, "name": "c6bfc08af8ac4a0baf0ecacc1db75d16", "type": "electric_bike", "lon": -76.98797216666667}, {"is_reserved": 0, "lat": 38.9248615, "rental_uris": {"android": "https://dc.lft.to/lastmile_qr_scan", "ios": "https://dc.lft.to/lastmile_qr_scan"}, "bike_id": "381087c441f31b9b631cb7af78ee9e12", "fusion_lon": 0.0, "fusion_lat": 0.0, "is_disabled": 0, "name": "381087c441f31b9b631cb7af78ee9e12", "type": "electric_scooter", "lon": -77.022086}, {"is_reserved": 0, "lat": 38.862345833333336, "rental_uris": {"android": "https://dc.lft.to/lastmile_qr_scan", "ios": "https://dc.lft.to/lastmile_qr_scan"}, "bike_id": "93625f798505f45900d1df77620cd945", "fusion_lon": 0.0, "fusion_lat": 0.0, "is_disabled": 0, "name": "93625f798505f45900d1df77620cd945", "type": "electric_bike", "lon": -77.08806316666667}, {"is_reserved": 0, "lat": 38.9320175, "rental_uris": {"android": "https://dc.lft.to/lastmile_qr_scan", "ios": "https://dc.lft.to/lastmile_qr_scan"}, "bike_id": "6ef757d603bb0512751f1f9be61bdb31", "fusion_lon": 0.0, "fusion_lat": 0.0, "is_disabled": 0, "name": "6ef757d603bb0512751f1f9be61bdb31", "type": "electric_scooter", "lon": -77.04427083333333}, {"is_reserved": 0, "lat": 38.87790416666667, "rental_uris": {"android": "https://dc.lft.to/lastmile_qr_scan", "ios": "https://dc.lft.to/lastmile_qr_scan"}, "bike_id": "10e71650d64381abaa6f62619c1552af", "fusion_lon": 0.0, "fusion_lat": 0.0, "is_disabled": 0, "name": "10e71650d64381abaa6f62619c1552af", "type": "electric_scooter", "lon": -76.99404766666666}, {"is_reserved": 0, "lat": 38.933022666666666, "rental_uris": {"android": "https://dc.lft.to/lastmile_qr_scan", "ios": "https://dc.lft.to/lastmile_qr_scan"}, "bike_id": "7b92fa01bb90b6cceac92de40649968c", "fusion_lon": 0.0, "fusion_lat": 0.0, "is_disabled": 0, "name": "7b92fa01bb90b6cceac92de40649968c", "type": "electric_scooter", "lon": -77.0358805}, {"is_reserved": 0, "lat": 38.893740666666666, "rental_uris": {"android": "https://dc.lft.to/lastmile_qr_scan", "ios": "https://dc.lft.to/lastmile_qr_scan"}, "bike_id": "673a26fd356fac8ea9882a2ac82e5ff1", "fusion_lon": 0.0, "fusion_lat": 0.0, "is_disabled": 0, "name": "673a26fd356fac8ea9882a2ac82e5ff1", "type": "electric_scooter", "lon": -77.05023266666667}, {"is_reserved": 0, "lat": 38.937430166666665, "rental_uris": {"android": "https://dc.lft.to/lastmile_qr_scan", "ios": "https://dc.lft.to/lastmile_qr_scan"}, "bike_id": "6ca40950350399378d07b2fe7f1ea3d2", "fusion_lon": 0.0, "fusion_lat": 0.0, "is_disabled": 0, "name": "6ca40950350399378d07b2fe7f1ea3d2", "type": "electric_scooter", "lon": -77.03455683333334}, {"is_reserved": 0, "lat": 38.921871333333335, "rental_uris": {"android": "https://dc.lft.to/lastmile_qr_scan", "ios": "https://dc.lft.to/lastmile_qr_scan"}, "bike_id": "10b067432856770d513fe44e56431634", "fusion_lon": 0.0, "fusion_lat": 0.0, "is_disabled": 0, "name": "10b067432856770d513fe44e56431634", "type": "electric_scooter", "lon": -77.03796983333334}, {"is_reserved": 0, "lat": 38.9074965, "rental_uris": {"android": "https://dc.lft.to/lastmile_qr_scan", "ios": "https://dc.lft.to/lastmile_qr_scan"}, "bike_id": "974afbfa101423c4d5294667445ac101", "fusion_lon": 0.0, "fusion_lat": 0.0, "is_disabled": 0, "name": "974afbfa101423c4d5294667445ac101", "type": "electric_scooter", "lon": -76.99904783333334}, {"is_reserved": 0, "lat": 38.9324145, "rental_uris": {"android": "https://dc.lft.to/lastmile_qr_scan", "ios": "https://dc.lft.to/lastmile_qr_scan"}, "bike_id": "f55d95cec11d508387dbedfac97522b6", "fusion_lon": 0.0, "fusion_lat": 0.0, "is_disabled": 0, "name": "f55d95cec11d508387dbedfac97522b6", "type": "electric_scooter", "lon": -77.03849016666666}, {"is_reserved": 0, "lat": 38.9440205, "rental_uris": {"android": "https://dc.lft.to/lastmile_qr_scan", "ios": "https://dc.lft.to/lastmile_qr_scan"}, "bike_id": "2b14f8dbeba9d0d49ff08b4e4ffa80e8", "fusion_lon": 0.0, "fusion_lat": 0.0, "is_disabled": 0, "name": "2b14f8dbeba9d0d49ff08b4e4ffa80e8", "type": "electric_scooter", "lon": -77.06234316666666}, {"is_reserved": 0, "lat": 38.91923116666667, "rental_uris": {"android": "https://dc.lft.to/lastmile_qr_scan", "ios": "https://dc.lft.to/lastmile_qr_scan"}, "bike_id": "cdb70b84540ec042b43e399df22e5597", "fusion_lon": 0.0, "fusion_lat": 0.0, "is_disabled": 0, "name": "cdb70b84540ec042b43e399df22e5597", "type": "electric_scooter", "lon": -77.03140633333334}, {"is_reserved": 0, "lat": 38.9287275, "rental_uris": {"android": "https://dc.lft.to/lastmile_qr_scan", "ios": "https://dc.lft.to/lastmile_qr_scan"}, "bike_id": "6e6350a3d3252140bb219c75533aacaa", "fusion_lon": 0.0, "fusion_lat": 0.0, "is_disabled": 0, "name": "6e6350a3d3252140bb219c75533aacaa", "type": "electric_bike", "lon": -77.01243433333333}, {"is_reserved": 0, "lat": 38.919869166666665, "rental_uris": {"android": "https://dc.lft.to/lastmile_qr_scan", "ios": "https://dc.lft.to/lastmile_qr_scan"}, "bike_id": "675bcbf48dfadd39a02e0921032f0614", "fusion_lon": 0.0, "fusion_lat": 0.0, "is_disabled": 0, "name": "675bcbf48dfadd39a02e0921032f0614", "type": "electric_scooter", "lon": -77.02362783333334}, {"is_reserved": 0, "lat": 38.91689316666667, "rental_uris": {"android": "https://dc.lft.to/lastmile_qr_scan", "ios": "https://dc.lft.to/lastmile_qr_scan"}, "bike_id": "912fec946503d8dc3a1c1c5702bbb9a5", "fusion_lon": 0.0, "fusion_lat": 0.0, "is_disabled": 0, "name": "912fec946503d8dc3a1c1c5702bbb9a5", "type": "electric_scooter", "lon": -77.03337466666666}, {"is_reserved": 0, "lat": 38.900229, "rental_uris": {"android": "https://dc.lft.to/lastmile_qr_scan", "ios": "https://dc.lft.to/lastmile_qr_scan"}, "bike_id": "eb6cb76ebcfef85a6053c7280b21bd6c", "fusion_lon": 0.0, "fusion_lat": 0.0, "is_disabled": 0, "name": "eb6cb76ebcfef85a6053c7280b21bd6c", "type": "electric_scooter", "lon": -77.0116405}, {"is_reserved": 0, "lat": 38.906774, "rental_uris": {"android": "https://dc.lft.to/lastmile_qr_scan", "ios": "https://dc.lft.to/lastmile_qr_scan"}, "bike_id": "1d240cf7a60e89a821268471269b66f9", "fusion_lon": 0.0, "fusion_lat": 0.0, "is_disabled": 0, "name": "1d240cf7a60e89a821268471269b66f9", "type": "electric_scooter", "lon": -77.0269525}, {"is_reserved": 0, "lat": 38.90567266666667, "rental_uris": {"android": "https://dc.lft.to/lastmile_qr_scan", "ios": "https://dc.lft.to/lastmile_qr_scan"}, "bike_id": "d80d9a0b5f54a2317d9e06fe3ccb6a45", "fusion_lon": 0.0, "fusion_lat": 0.0, "is_disabled": 0, "name": "d80d9a0b5f54a2317d9e06fe3ccb6a45", "type": "electric_scooter", "lon": -77.03080733333333}, {"is_reserved": 0, "lat": 38.919742, "rental_uris": {"android": "https://dc.lft.to/lastmile_qr_scan", "ios": "https://dc.lft.to/lastmile_qr_scan"}, "bike_id": "a4bebaa59a19f275f65fa2e4ffe38aff", "fusion_lon": 0.0, "fusion_lat": 0.0, "is_disabled": 0, "name": "a4bebaa59a19f275f65fa2e4ffe38aff", "type": "electric_scooter", "lon": -77.01212766666667}, {"is_reserved": 0, "lat": 38.91685666666667, "rental_uris": {"android": "https://dc.lft.to/lastmile_qr_scan", "ios": "https://dc.lft.to/lastmile_qr_scan"}, "bike_id": "cd8883d4d0c05429fd82f6f7dfb27efa", "fusion_lon": 0.0, "fusion_lat": 0.0, "is_disabled": 0, "name": "cd8883d4d0c05429fd82f6f7dfb27efa", "type": "electric_scooter", "lon": -77.02971133333334}, {"is_reserved": 0, "lat": 38.89496666666667, "rental_uris": {"android": "https://dc.lft.to/lastmile_qr_scan", "ios": "https://dc.lft.to/lastmile_qr_scan"}, "bike_id": "0f7ff1a31a8a4266df2ee5e979e372cd", "fusion_lon": 0.0, "fusion_lat": 0.0, "is_disabled": 0, "name": "0f7ff1a31a8a4266df2ee5e979e372cd", "type": "electric_scooter", "lon": -77.00205916666667}, {"is_reserved": 0, "lat": 38.92667733333333, "rental_uris": {"android": "https://dc.lft.to/lastmile_qr_scan", "ios": "https://dc.lft.to/lastmile_qr_scan"}, "bike_id": "e9aab8022ad8777d64d15a15e349699d", "fusion_lon": 0.0, "fusion_lat": 0.0, "is_disabled": 0, "name": "e9aab8022ad8777d64d15a15e349699d", "type": "electric_scooter", "lon": -77.0147365}, {"is_reserved": 0, "lat": 38.9145305, "rental_uris": {"android": "https://dc.lft.to/lastmile_qr_scan", "ios": "https://dc.lft.to/lastmile_qr_scan"}, "bike_id": "792e19ef0eeda7b5267087b1f55f9dff", "fusion_lon": 0.0, "fusion_lat": 0.0, "is_disabled": 0, "name": "792e19ef0eeda7b5267087b1f55f9dff", "type": "electric_scooter", "lon": -77.01524683333334}, {"is_reserved": 0, "lat": 38.877286833333336, "rental_uris": {"android": "https://dc.lft.to/lastmile_qr_scan", "ios": "https://dc.lft.to/lastmile_qr_scan"}, "bike_id": "bfa800db0d3d8d6b1c9fa5f0b13c6ff2", "fusion_lon": 0.0, "fusion_lat": 0.0, "is_disabled": 0, "name": "bfa800db0d3d8d6b1c9fa5f0b13c6ff2", "type": "electric_scooter", "lon": -77.01459383333334}, {"is_reserved": 0, "lat": 38.95531183333333, "rental_uris": {"android": "https://dc.lft.to/lastmile_qr_scan", "ios": "https://dc.lft.to/lastmile_qr_scan"}, "bike_id": "8850bd1439f5351ed4c43fd706bbab9c", "fusion_lon": 0.0, "fusion_lat": 0.0, "is_disabled": 0, "name": "8850bd1439f5351ed4c43fd706bbab9c", "type": "electric_bike", "lon": -76.9680105}, {"is_reserved": 0, "lat": 38.930604333333335, "rental_uris": {"android": "https://dc.lft.to/lastmile_qr_scan", "ios": "https://dc.lft.to/lastmile_qr_scan"}, "bike_id": "334f82f7932b5cbeb9b21c409628f402", "fusion_lon": 0.0, "fusion_lat": 0.0, "is_disabled": 0, "name": "334f82f7932b5cbeb9b21c409628f402", "type": "electric_scooter", "lon": -77.02323383333334}, {"is_reserved": 0, "lat": 38.922375833333334, "rental_uris": {"android": "https://dc.lft.to/lastmile_qr_scan", "ios": "https://dc.lft.to/lastmile_qr_scan"}, "bike_id": "1d19998cc775feb09cea493b696bb732", "fusion_lon": 0.0, "fusion_lat": 0.0, "is_disabled": 0, "name": "1d19998cc775feb09cea493b696bb732", "type": "electric_scooter", "lon": -77.04363633333334}, {"is_reserved": 0, "lat": 38.80226033333334, "rental_uris": {"android": "https://dc.lft.to/lastmile_qr_scan", "ios": "https://dc.lft.to/lastmile_qr_scan"}, "bike_id": "210d6a7eee898ad9057f2cc3e2b181d5", "fusion_lon": 0.0, "fusion_lat": 0.0, "is_disabled": 0, "name": "210d6a7eee898ad9057f2cc3e2b181d5", "type": "electric_bike", "lon": -77.0791495}, {"is_reserved": 0, "lat": 38.91948266666667, "rental_uris": {"android": "https://dc.lft.to/lastmile_qr_scan", "ios": "https://dc.lft.to/lastmile_qr_scan"}, "bike_id": "95beccc543e42a88d8b28dafab4852db", "fusion_lon": 0.0, "fusion_lat": 0.0, "is_disabled": 0, "name": "95beccc543e42a88d8b28dafab4852db", "type": "electric_scooter", "lon": -76.96979183333333}, {"is_reserved": 0, "lat": 38.92440633333333, "rental_uris": {"android": "https://dc.lft.to/lastmile_qr_scan", "ios": "https://dc.lft.to/lastmile_qr_scan"}, "bike_id": "0b440c4762af5ef1d01fea7abe88e93b", "fusion_lon": 0.0, "fusion_lat": 0.0, "is_disabled": 0, "name": "0b440c4762af5ef1d01fea7abe88e93b", "type": "electric_scooter", "lon": -77.04024466666667}, {"is_reserved": 0, "lat": 38.8636215, "rental_uris": {"android": "https://dc.lft.to/lastmile_qr_scan", "ios": "https://dc.lft.to/lastmile_qr_scan"}, "bike_id": "b74e3d2f6b088ea4da3c696dcb3cef97", "fusion_lon": 0.0, "fusion_lat": 0.0, "is_disabled": 0, "name": "b74e3d2f6b088ea4da3c696dcb3cef97", "type": "electric_scooter", "lon": -76.990349}, {"is_reserved": 0, "lat": 38.902344166666666, "rental_uris": {"android": "https://dc.lft.to/lastmile_qr_scan", "ios": "https://dc.lft.to/lastmile_qr_scan"}, "bike_id": "25e4d23301fd5a51e29e848bb15ccd8a", "fusion_lon": 0.0, "fusion_lat": 0.0, "is_disabled": 0, "name": "25e4d23301fd5a51e29e848bb15ccd8a", "type": "electric_scooter", "lon": -77.04355116666666}, {"is_reserved": 0, "lat": 38.912685833333335, "rental_uris": {"android": "https://dc.lft.to/lastmile_qr_scan", "ios": "https://dc.lft.to/lastmile_qr_scan"}, "bike_id": "61dcd2db28792e9b3d284665d6468d8e", "fusion_lon": 0.0, "fusion_lat": 0.0, "is_disabled": 0, "name": "61dcd2db28792e9b3d284665d6468d8e", "type": "electric_scooter", "lon": -77.03332433333334}, {"is_reserved": 0, "lat": 38.884842666666664, "rental_uris": {"android": "https://dc.lft.to/lastmile_qr_scan", "ios": "https://dc.lft.to/lastmile_qr_scan"}, "bike_id": "f5ccf16f95e656752c9bc4252bdfbb61", "fusion_lon": 0.0, "fusion_lat": 0.0, "is_disabled": 0, "name": "f5ccf16f95e656752c9bc4252bdfbb61", "type": "electric_scooter", "lon": -77.03475766666666}, {"is_reserved": 0, "lat": 38.917376, "rental_uris": {"android": "https://dc.lft.to/lastmile_qr_scan", "ios": "https://dc.lft.to/lastmile_qr_scan"}, "bike_id": "2aafbb4bddd6bd59ce1b4947a2642ed4", "fusion_lon": 0.0, "fusion_lat": 0.0, "is_disabled": 0, "name": "2aafbb4bddd6bd59ce1b4947a2642ed4", "type": "electric_scooter", "lon": -77.03195483333333}, {"is_reserved": 0, "lat": 38.944624, "rental_uris": {"android": "https://dc.lft.to/lastmile_qr_scan", "ios": "https://dc.lft.to/lastmile_qr_scan"}, "bike_id": "02bc17a186e59b1e4ff847f998987e6d", "fusion_lon": 0.0, "fusion_lat": 0.0, "is_disabled": 0, "name": "02bc17a186e59b1e4ff847f998987e6d", "type": "electric_scooter", "lon": -77.06029533333333}, {"is_reserved": 0, "lat": 38.919928666666664, "rental_uris": {"android": "https://dc.lft.to/lastmile_qr_scan", "ios": "https://dc.lft.to/lastmile_qr_scan"}, "bike_id": "9c899f4865ff3a5ce0eda8512a57fa99", "fusion_lon": 0.0, "fusion_lat": 0.0, "is_disabled": 0, "name": "9c899f4865ff3a5ce0eda8512a57fa99", "type": "electric_scooter", "lon": -77.03241}, {"is_reserved": 0, "lat": 38.9022385, "rental_uris": {"android": "https://dc.lft.to/lastmile_qr_scan", "ios": "https://dc.lft.to/lastmile_qr_scan"}, "bike_id": "a9a25df57f55fdf2d9bb98b0bc1d7cb4", "fusion_lon": 0.0, "fusion_lat": 0.0, "is_disabled": 0, "name": "a9a25df57f55fdf2d9bb98b0bc1d7cb4", "type": "electric_scooter", "lon": -77.06058416666667}, {"is_reserved": 0, "lat": 38.896821333333335, "rental_uris": {"android": "https://dc.lft.to/lastmile_qr_scan", "ios": "https://dc.lft.to/lastmile_qr_scan"}, "bike_id": "a2998bc25310c7567004c9a8aaa6b651", "fusion_lon": 0.0, "fusion_lat": 0.0, "is_disabled": 0, "name": "a2998bc25310c7567004c9a8aaa6b651", "type": "electric_scooter", "lon": -76.93609116666667}, {"is_reserved": 0, "lat": 38.88449133333334, "rental_uris": {"android": "https://dc.lft.to/lastmile_qr_scan", "ios": "https://dc.lft.to/lastmile_qr_scan"}, "bike_id": "7ccb564e58bcd1ff201068c10adc30b4", "fusion_lon": 0.0, "fusion_lat": 0.0, "is_disabled": 0, "name": "7ccb564e58bcd1ff201068c10adc30b4", "type": "electric_scooter", "lon": -76.950953}, {"is_reserved": 0, "lat": 38.90540433333334, "rental_uris": {"android": "https://dc.lft.to/lastmile_qr_scan", "ios": "https://dc.lft.to/lastmile_qr_scan"}, "bike_id": "e5c70d5aa176112fa519fa9a66c6b098", "fusion_lon": 0.0, "fusion_lat": 0.0, "is_disabled": 0, "name": "e5c70d5aa176112fa519fa9a66c6b098", "type": "electric_scooter", "lon": -77.02208216666666}, {"is_reserved": 0, "lat": 38.90586, "rental_uris": {"android": "https://dc.lft.to/lastmile_qr_scan", "ios": "https://dc.lft.to/lastmile_qr_scan"}, "bike_id": "7b569ee1c5f1f86717f36a20073c73f0", "fusion_lon": 0.0, "fusion_lat": 0.0, "is_disabled": 0, "name": "7b569ee1c5f1f86717f36a20073c73f0", "type": "electric_scooter", "lon": -77.04182616666667}, {"is_reserved": 0, "lat": 38.90140866666667, "rental_uris": {"android": "https://dc.lft.to/lastmile_qr_scan", "ios": "https://dc.lft.to/lastmile_qr_scan"}, "bike_id": "1fd9e88dc79322216ff6265f6ae832d8", "fusion_lon": 0.0, "fusion_lat": 0.0, "is_disabled": 0, "name": "1fd9e88dc79322216ff6265f6ae832d8", "type": "electric_scooter", "lon": -77.02701666666667}, {"is_reserved": 0, "lat": 38.9249295, "rental_uris": {"android": "https://dc.lft.to/lastmile_qr_scan", "ios": "https://dc.lft.to/lastmile_qr_scan"}, "bike_id": "ba2f6cc05e94136ac09eed1706bf242b", "fusion_lon": 0.0, "fusion_lat": 0.0, "is_disabled": 0, "name": "ba2f6cc05e94136ac09eed1706bf242b", "type": "electric_scooter", "lon": -77.0523125}, {"is_reserved": 0, "lat": 38.948231, "rental_uris": {"android": "https://dc.lft.to/lastmile_qr_scan", "ios": "https://dc.lft.to/lastmile_qr_scan"}, "bike_id": "410df17af5da5251a31230386e381461", "fusion_lon": 0.0, "fusion_lat": 0.0, "is_disabled": 0, "name": "410df17af5da5251a31230386e381461", "type": "electric_scooter", "lon": -76.99902583333333}, {"is_reserved": 0, "lat": 38.909609833333334, "rental_uris": {"android": "https://dc.lft.to/lastmile_qr_scan", "ios": "https://dc.lft.to/lastmile_qr_scan"}, "bike_id": "131797ce15033274009705e4381ab430", "fusion_lon": 0.0, "fusion_lat": 0.0, "is_disabled": 0, "name": "131797ce15033274009705e4381ab430", "type": "electric_scooter", "lon": -77.0328915}, {"is_reserved": 0, "lat": 38.909645166666664, "rental_uris": {"android": "https://dc.lft.to/lastmile_qr_scan", "ios": "https://dc.lft.to/lastmile_qr_scan"}, "bike_id": "cf9096bfc8d5e1190198b21583bf9203", "fusion_lon": 0.0, "fusion_lat": 0.0, "is_disabled": 0, "name": "cf9096bfc8d5e1190198b21583bf9203", "type": "electric_scooter", "lon": -77.0340475}, {"is_reserved": 0, "lat": 38.9121005, "rental_uris": {"android": "https://dc.lft.to/lastmile_qr_scan", "ios": "https://dc.lft.to/lastmile_qr_scan"}, "bike_id": "72390e4c24f63c05edb8be570feacd56", "fusion_lon": 0.0, "fusion_lat": 0.0, "is_disabled": 0, "name": "72390e4c24f63c05edb8be570feacd56", "type": "electric_scooter", "lon": -77.03208283333333}, {"is_reserved": 0, "lat": 38.91988666666666, "rental_uris": {"android": "https://dc.lft.to/lastmile_qr_scan", "ios": "https://dc.lft.to/lastmile_qr_scan"}, "bike_id": "44fe2dafe501479f51a84a03672ad7f1", "fusion_lon": 0.0, "fusion_lat": 0.0, "is_disabled": 0, "name": "44fe2dafe501479f51a84a03672ad7f1", "type": "electric_scooter", "lon": -77.03263066666666}, {"is_reserved": 0, "lat": 38.92447383333333, "rental_uris": {"android": "https://dc.lft.to/lastmile_qr_scan", "ios": "https://dc.lft.to/lastmile_qr_scan"}, "bike_id": "d09a36c775733fc45bc902f2c17c7efe", "fusion_lon": 0.0, "fusion_lat": 0.0, "is_disabled": 0, "name": "d09a36c775733fc45bc902f2c17c7efe", "type": "electric_scooter", "lon": -77.04211316666667}, {"is_reserved": 0, "lat": 38.892243666666666, "rental_uris": {"android": "https://dc.lft.to/lastmile_qr_scan", "ios": "https://dc.lft.to/lastmile_qr_scan"}, "bike_id": "a175b0f93248be5f0cd31ce4e0e92d9b", "fusion_lon": 0.0, "fusion_lat": 0.0, "is_disabled": 0, "name": "a175b0f93248be5f0cd31ce4e0e92d9b", "type": "electric_scooter", "lon": -77.04329133333333}, {"is_reserved": 0, "lat": 38.94819316666667, "rental_uris": {"android": "https://dc.lft.to/lastmile_qr_scan", "ios": "https://dc.lft.to/lastmile_qr_scan"}, "bike_id": "9fda5ec8e29b270330d19074877f8ef7", "fusion_lon": 0.0, "fusion_lat": 0.0, "is_disabled": 0, "name": "9fda5ec8e29b270330d19074877f8ef7", "type": "electric_scooter", "lon": -76.9990845}, {"is_reserved": 0, "lat": 38.92632233333333, "rental_uris": {"android": "https://dc.lft.to/lastmile_qr_scan", "ios": "https://dc.lft.to/lastmile_qr_scan"}, "bike_id": "e44c27d3ed25a1fc74225c004ebfdd74", "fusion_lon": 0.0, "fusion_lat": 0.0, "is_disabled": 0, "name": "e44c27d3ed25a1fc74225c004ebfdd74", "type": "electric_scooter", "lon": -77.037861}, {"is_reserved": 0, "lat": 38.91815416666667, "rental_uris": {"android": "https://dc.lft.to/lastmile_qr_scan", "ios": "https://dc.lft.to/lastmile_qr_scan"}, "bike_id": "bf4dd502a10c5b8ee9481362e696bcc0", "fusion_lon": 0.0, "fusion_lat": 0.0, "is_disabled": 0, "name": "bf4dd502a10c5b8ee9481362e696bcc0", "type": "electric_scooter", "lon": -77.0346225}, {"is_reserved": 0, "lat": 38.90261733333333, "rental_uris": {"android": "https://dc.lft.to/lastmile_qr_scan", "ios": "https://dc.lft.to/lastmile_qr_scan"}, "bike_id": "438f7d2aa8610716b1423a77a2390f99", "fusion_lon": 0.0, "fusion_lat": 0.0, "is_disabled": 0, "name": "438f7d2aa8610716b1423a77a2390f99", "type": "electric_scooter", "lon": -77.03966566666666}, {"is_reserved": 0, "lat": 38.87655616666667, "rental_uris": {"android": "https://dc.lft.to/lastmile_qr_scan", "ios": "https://dc.lft.to/lastmile_qr_scan"}, "bike_id": "bcb8b9f79664e51e9d638f87eff4cb2d", "fusion_lon": 0.0, "fusion_lat": 0.0, "is_disabled": 0, "name": "bcb8b9f79664e51e9d638f87eff4cb2d", "type": "electric_scooter", "lon": -77.0042955}, {"is_reserved": 0, "lat": 38.90077683333333, "rental_uris": {"android": "https://dc.lft.to/lastmile_qr_scan", "ios": "https://dc.lft.to/lastmile_qr_scan"}, "bike_id": "fadb0d29c4ab1f8cebd3d3fac0843177", "fusion_lon": 0.0, "fusion_lat": 0.0, "is_disabled": 0, "name": "fadb0d29c4ab1f8cebd3d3fac0843177", "type": "electric_scooter", "lon": -77.01841683333333}, {"is_reserved": 0, "lat": 38.918040166666664, "rental_uris": {"android": "https://dc.lft.to/lastmile_qr_scan", "ios": "https://dc.lft.to/lastmile_qr_scan"}, "bike_id": "e0e0cdbf99ab755c2f149f3d5f66f694", "fusion_lon": 0.0, "fusion_lat": 0.0, "is_disabled": 0, "name": "e0e0cdbf99ab755c2f149f3d5f66f694", "type": "electric_scooter", "lon": -77.04170633333334}, {"is_reserved": 0, "lat": 38.917684, "rental_uris": {"android": "https://dc.lft.to/lastmile_qr_scan", "ios": "https://dc.lft.to/lastmile_qr_scan"}, "bike_id": "30d7b3d5554c2dfa3b821e62fc0241d8", "fusion_lon": 0.0, "fusion_lat": 0.0, "is_disabled": 0, "name": "30d7b3d5554c2dfa3b821e62fc0241d8", "type": "electric_bike", "lon": -76.97198633333333}, {"is_reserved": 0, "lat": 38.9051685, "rental_uris": {"android": "https://dc.lft.to/lastmile_qr_scan", "ios": "https://dc.lft.to/lastmile_qr_scan"}, "bike_id": "ec7cc2dac064cac67fa7ab3b1d8de678", "fusion_lon": 0.0, "fusion_lat": 0.0, "is_disabled": 0, "name": "ec7cc2dac064cac67fa7ab3b1d8de678", "type": "electric_scooter", "lon": -77.02197216666667}, {"is_reserved": 0, "lat": 38.903975833333334, "rental_uris": {"android": "https://dc.lft.to/lastmile_qr_scan", "ios": "https://dc.lft.to/lastmile_qr_scan"}, "bike_id": "d0d005fa30c901bc1e91d5e5c144347d", "fusion_lon": 0.0, "fusion_lat": 0.0, "is_disabled": 0, "name": "d0d005fa30c901bc1e91d5e5c144347d", "type": "electric_scooter", "lon": -77.0629875}, {"is_reserved": 0, "lat": 38.926102666666665, "rental_uris": {"android": "https://dc.lft.to/lastmile_qr_scan", "ios": "https://dc.lft.to/lastmile_qr_scan"}, "bike_id": "db2dd2ba77472bcde7e7f7b9de189d1b", "fusion_lon": 0.0, "fusion_lat": 0.0, "is_disabled": 0, "name": "db2dd2ba77472bcde7e7f7b9de189d1b", "type": "electric_scooter", "lon": -77.021624}, {"is_reserved": 0, "lat": 38.917223, "rental_uris": {"android": "https://dc.lft.to/lastmile_qr_scan", "ios": "https://dc.lft.to/lastmile_qr_scan"}, "bike_id": "be6646bf4a7db665c24ecedf6af035a5", "fusion_lon": 0.0, "fusion_lat": 0.0, "is_disabled": 0, "name": "be6646bf4a7db665c24ecedf6af035a5", "type": "electric_scooter", "lon": -77.03659366666666}, {"is_reserved": 0, "lat": 38.8706605, "rental_uris": {"android": "https://dc.lft.to/lastmile_qr_scan", "ios": "https://dc.lft.to/lastmile_qr_scan"}, "bike_id": "1d2465f13af0b50aa0a35acaafef1778", "fusion_lon": 0.0, "fusion_lat": 0.0, "is_disabled": 0, "name": "1d2465f13af0b50aa0a35acaafef1778", "type": "electric_scooter", "lon": -77.00840516666666}, {"is_reserved": 0, "lat": 38.887373, "rental_uris": {"android": "https://dc.lft.to/lastmile_qr_scan", "ios": "https://dc.lft.to/lastmile_qr_scan"}, "bike_id": "05fc9a704a9f147aefb52b8b9e880763", "fusion_lon": 0.0, "fusion_lat": 0.0, "is_disabled": 0, "name": "05fc9a704a9f147aefb52b8b9e880763", "type": "electric_scooter", "lon": -77.0033465}, {"is_reserved": 0, "lat": 38.899152, "rental_uris": {"android": "https://dc.lft.to/lastmile_qr_scan", "ios": "https://dc.lft.to/lastmile_qr_scan"}, "bike_id": "53056e264b8270df6b73b38f232ad164", "fusion_lon": 0.0, "fusion_lat": 0.0, "is_disabled": 0, "name": "53056e264b8270df6b73b38f232ad164", "type": "electric_scooter", "lon": -77.04058316666666}, {"is_reserved": 0, "lat": 38.91818766666667, "rental_uris": {"android": "https://dc.lft.to/lastmile_qr_scan", "ios": "https://dc.lft.to/lastmile_qr_scan"}, "bike_id": "8df643512a1addc504db37590e09efe2", "fusion_lon": 0.0, "fusion_lat": 0.0, "is_disabled": 0, "name": "8df643512a1addc504db37590e09efe2", "type": "electric_scooter", "lon": -77.02704083333333}, {"is_reserved": 0, "lat": 38.8988335, "rental_uris": {"android": "https://dc.lft.to/lastmile_qr_scan", "ios": "https://dc.lft.to/lastmile_qr_scan"}, "bike_id": "e75be4ebf31ff152c6d656628679937d", "fusion_lon": 0.0, "fusion_lat": 0.0, "is_disabled": 0, "name": "e75be4ebf31ff152c6d656628679937d", "type": "electric_scooter", "lon": -76.93177}, {"is_reserved": 0, "lat": 38.86539466666667, "rental_uris": {"android": "https://dc.lft.to/lastmile_qr_scan", "ios": "https://dc.lft.to/lastmile_qr_scan"}, "bike_id": "8af5914cc490638ee2df061fb56f5a4c", "fusion_lon": 0.0, "fusion_lat": 0.0, "is_disabled": 0, "name": "8af5914cc490638ee2df061fb56f5a4c", "type": "electric_scooter", "lon": -76.98707033333334}, {"is_reserved": 0, "lat": 38.90559733333333, "rental_uris": {"android": "https://dc.lft.to/lastmile_qr_scan", "ios": "https://dc.lft.to/lastmile_qr_scan"}, "bike_id": "5399598f7ca5e714b701d1aa29a982d8", "fusion_lon": 0.0, "fusion_lat": 0.0, "is_disabled": 0, "name": "5399598f7ca5e714b701d1aa29a982d8", "type": "electric_scooter", "lon": -77.01771116666667}, {"is_reserved": 0, "lat": 38.885257, "rental_uris": {"android": "https://dc.lft.to/lastmile_qr_scan", "ios": "https://dc.lft.to/lastmile_qr_scan"}, "bike_id": "6c9256d9fb11f9b739f6c2f37760eae6", "fusion_lon": 0.0, "fusion_lat": 0.0, "is_disabled": 0, "name": "6c9256d9fb11f9b739f6c2f37760eae6", "type": "electric_scooter", "lon": -77.01133116666666}, {"is_reserved": 0, "lat": 38.906749166666664, "rental_uris": {"android": "https://dc.lft.to/lastmile_qr_scan", "ios": "https://dc.lft.to/lastmile_qr_scan"}, "bike_id": "8406ad3aa404b35f3403680aef231757", "fusion_lon": 0.0, "fusion_lat": 0.0, "is_disabled": 0, "name": "8406ad3aa404b35f3403680aef231757", "type": "electric_scooter", "lon": -77.02689716666667}, {"is_reserved": 0, "lat": 38.924394166666666, "rental_uris": {"android": "https://dc.lft.to/lastmile_qr_scan", "ios": "https://dc.lft.to/lastmile_qr_scan"}, "bike_id": "e23b4954c9c8608b893470b2cad469de", "fusion_lon": 0.0, "fusion_lat": 0.0, "is_disabled": 0, "name": "e23b4954c9c8608b893470b2cad469de", "type": "electric_scooter", "lon": -77.04023533333333}, {"is_reserved": 0, "lat": 38.91699083333334, "rental_uris": {"android": "https://dc.lft.to/lastmile_qr_scan", "ios": "https://dc.lft.to/lastmile_qr_scan"}, "bike_id": "361faa82174983f28746178d791c254a", "fusion_lon": 0.0, "fusion_lat": 0.0, "is_disabled": 0, "name": "361faa82174983f28746178d791c254a", "type": "electric_bike", "lon": -77.041745}, {"is_reserved": 0, "lat": 38.91254833333333, "rental_uris": {"android": "https://dc.lft.to/lastmile_qr_scan", "ios": "https://dc.lft.to/lastmile_qr_scan"}, "bike_id": "712fbf234e04fc5531ff228c240b4b0c", "fusion_lon": 0.0, "fusion_lat": 0.0, "is_disabled": 0, "name": "712fbf234e04fc5531ff228c240b4b0c", "type": "electric_scooter", "lon": -77.03138933333334}, {"is_reserved": 0, "lat": 38.903536833333334, "rental_uris": {"android": "https://dc.lft.to/lastmile_qr_scan", "ios": "https://dc.lft.to/lastmile_qr_scan"}, "bike_id": "06f1f4f3f9c60133be7ade9822213f44", "fusion_lon": 0.0, "fusion_lat": 0.0, "is_disabled": 0, "name": "06f1f4f3f9c60133be7ade9822213f44", "type": "electric_scooter", "lon": -77.0450905}, {"is_reserved": 0, "lat": 38.86166516666667, "rental_uris": {"android": "https://dc.lft.to/lastmile_qr_scan", "ios": "https://dc.lft.to/lastmile_qr_scan"}, "bike_id": "24e1c5999df30ad9ebfd498a60e6f637", "fusion_lon": 0.0, "fusion_lat": 0.0, "is_disabled": 0, "name": "24e1c5999df30ad9ebfd498a60e6f637", "type": "electric_bike", "lon": -77.1314215}, {"is_reserved": 0, "lat": 38.91789933333333, "rental_uris": {"android": "https://dc.lft.to/lastmile_qr_scan", "ios": "https://dc.lft.to/lastmile_qr_scan"}, "bike_id": "39295ef5bf215939d9e7a6e0fef2b270", "fusion_lon": 0.0, "fusion_lat": 0.0, "is_disabled": 0, "name": "39295ef5bf215939d9e7a6e0fef2b270", "type": "electric_bike", "lon": -76.97189016666667}, {"is_reserved": 0, "lat": 38.899733166666664, "rental_uris": {"android": "https://dc.lft.to/lastmile_qr_scan", "ios": "https://dc.lft.to/lastmile_qr_scan"}, "bike_id": "91282d68507f51ec9924e272aaccf155", "fusion_lon": 0.0, "fusion_lat": 0.0, "is_disabled": 0, "name": "91282d68507f51ec9924e272aaccf155", "type": "electric_scooter", "lon": -76.92723233333334}, {"is_reserved": 0, "lat": 38.90425283333333, "rental_uris": {"android": "https://dc.lft.to/lastmile_qr_scan", "ios": "https://dc.lft.to/lastmile_qr_scan"}, "bike_id": "ab01b6431d77d1c8cb0f384d83f4a533", "fusion_lon": 0.0, "fusion_lat": 0.0, "is_disabled": 0, "name": "ab01b6431d77d1c8cb0f384d83f4a533", "type": "electric_scooter", "lon": -77.0384985}, {"is_reserved": 0, "lat": 38.90008616666667, "rental_uris": {"android": "https://dc.lft.to/lastmile_qr_scan", "ios": "https://dc.lft.to/lastmile_qr_scan"}, "bike_id": "cc40871e858c05904004da157133350c", "fusion_lon": 0.0, "fusion_lat": 0.0, "is_disabled": 0, "name": "cc40871e858c05904004da157133350c", "type": "electric_scooter", "lon": -77.00193916666667}, {"is_reserved": 0, "lat": 38.90673, "rental_uris": {"android": "https://dc.lft.to/lastmile_qr_scan", "ios": "https://dc.lft.to/lastmile_qr_scan"}, "bike_id": "ad1f40341d7311914b76e1762fcc5d5c", "fusion_lon": 0.0, "fusion_lat": 0.0, "is_disabled": 0, "name": "ad1f40341d7311914b76e1762fcc5d5c", "type": "electric_scooter", "lon": -77.038302}, {"is_reserved": 0, "lat": 38.92443466666667, "rental_uris": {"android": "https://dc.lft.to/lastmile_qr_scan", "ios": "https://dc.lft.to/lastmile_qr_scan"}, "bike_id": "c22c0a2b40cf2ce1f7185d51b919e36b", "fusion_lon": 0.0, "fusion_lat": 0.0, "is_disabled": 0, "name": "c22c0a2b40cf2ce1f7185d51b919e36b", "type": "electric_scooter", "lon": -77.04026816666666}, {"is_reserved": 0, "lat": 38.88428183333333, "rental_uris": {"android": "https://dc.lft.to/lastmile_qr_scan", "ios": "https://dc.lft.to/lastmile_qr_scan"}, "bike_id": "174039fb913b52fa1ee79877f6675107", "fusion_lon": 0.0, "fusion_lat": 0.0, "is_disabled": 0, "name": "174039fb913b52fa1ee79877f6675107", "type": "electric_scooter", "lon": -76.95756166666666}, {"is_reserved": 0, "lat": 38.916686, "rental_uris": {"android": "https://dc.lft.to/lastmile_qr_scan", "ios": "https://dc.lft.to/lastmile_qr_scan"}, "bike_id": "b4769d6350be9cb43cf24383d1a292ea", "fusion_lon": 0.0, "fusion_lat": 0.0, "is_disabled": 0, "name": "b4769d6350be9cb43cf24383d1a292ea", "type": "electric_scooter", "lon": -77.0228285}, {"is_reserved": 0, "lat": 38.90733916666667, "rental_uris": {"android": "https://dc.lft.to/lastmile_qr_scan", "ios": "https://dc.lft.to/lastmile_qr_scan"}, "bike_id": "f8acbdd57775c97bd984b7b89bcb7eb7", "fusion_lon": 0.0, "fusion_lat": 0.0, "is_disabled": 0, "name": "f8acbdd57775c97bd984b7b89bcb7eb7", "type": "electric_scooter", "lon": -77.02708766666667}, {"is_reserved": 0, "lat": 38.920468166666666, "rental_uris": {"android": "https://dc.lft.to/lastmile_qr_scan", "ios": "https://dc.lft.to/lastmile_qr_scan"}, "bike_id": "134e7e37d98f6c8200a67e4142d376c5", "fusion_lon": 0.0, "fusion_lat": 0.0, "is_disabled": 0, "name": "134e7e37d98f6c8200a67e4142d376c5", "type": "electric_scooter", "lon": -77.0241755}, {"is_reserved": 0, "lat": 38.90307033333333, "rental_uris": {"android": "https://dc.lft.to/lastmile_qr_scan", "ios": "https://dc.lft.to/lastmile_qr_scan"}, "bike_id": "419895faa269968e5a4eb4ea44c2d842", "fusion_lon": 0.0, "fusion_lat": 0.0, "is_disabled": 0, "name": "419895faa269968e5a4eb4ea44c2d842", "type": "electric_scooter", "lon": -77.01183416666667}, {"is_reserved": 0, "lat": 38.844238, "rental_uris": {"android": "https://dc.lft.to/lastmile_qr_scan", "ios": "https://dc.lft.to/lastmile_qr_scan"}, "bike_id": "dbaf62073e6f38cbe2ee8b77efb9f108", "fusion_lon": 0.0, "fusion_lat": 0.0, "is_disabled": 0, "name": "dbaf62073e6f38cbe2ee8b77efb9f108", "type": "electric_scooter", "lon": -76.99776433333334}, {"is_reserved": 0, "lat": 38.89976716666666, "rental_uris": {"android": "https://dc.lft.to/lastmile_qr_scan", "ios": "https://dc.lft.to/lastmile_qr_scan"}, "bike_id": "573d985f5fe437c45340fd34318a8573", "fusion_lon": 0.0, "fusion_lat": 0.0, "is_disabled": 0, "name": "573d985f5fe437c45340fd34318a8573", "type": "electric_scooter", "lon": -77.03170883333334}, {"is_reserved": 0, "lat": 38.92355766666667, "rental_uris": {"android": "https://dc.lft.to/lastmile_qr_scan", "ios": "https://dc.lft.to/lastmile_qr_scan"}, "bike_id": "5ea29aea0e2f164526144c4107139079", "fusion_lon": 0.0, "fusion_lat": 0.0, "is_disabled": 0, "name": "5ea29aea0e2f164526144c4107139079", "type": "electric_scooter", "lon": -77.0403275}, {"is_reserved": 0, "lat": 38.902754, "rental_uris": {"android": "https://dc.lft.to/lastmile_qr_scan", "ios": "https://dc.lft.to/lastmile_qr_scan"}, "bike_id": "3bdaa4718918537168c628bcc52da216", "fusion_lon": 0.0, "fusion_lat": 0.0, "is_disabled": 0, "name": "3bdaa4718918537168c628bcc52da216", "type": "electric_scooter", "lon": -77.0322785}, {"is_reserved": 0, "lat": 38.90962433333333, "rental_uris": {"android": "https://dc.lft.to/lastmile_qr_scan", "ios": "https://dc.lft.to/lastmile_qr_scan"}, "bike_id": "8746bd5f15a1d1ac60dc43e0498bef10", "fusion_lon": 0.0, "fusion_lat": 0.0, "is_disabled": 0, "name": "8746bd5f15a1d1ac60dc43e0498bef10", "type": "electric_scooter", "lon": -77.032368}, {"is_reserved": 0, "lat": 38.934235666666666, "rental_uris": {"android": "https://dc.lft.to/lastmile_qr_scan", "ios": "https://dc.lft.to/lastmile_qr_scan"}, "bike_id": "5c8fdd77d5efcf370d61f00daf1dee05", "fusion_lon": 0.0, "fusion_lat": 0.0, "is_disabled": 0, "name": "5c8fdd77d5efcf370d61f00daf1dee05", "type": "electric_scooter", "lon": -77.04139166666667}, {"is_reserved": 0, "lat": 38.92041183333333, "rental_uris": {"android": "https://dc.lft.to/lastmile_qr_scan", "ios": "https://dc.lft.to/lastmile_qr_scan"}, "bike_id": "19f7ce69484c499754a5b6c997384d92", "fusion_lon": 0.0, "fusion_lat": 0.0, "is_disabled": 0, "name": "19f7ce69484c499754a5b6c997384d92", "type": "electric_scooter", "lon": -77.0398855}, {"is_reserved": 0, "lat": 38.90559616666667, "rental_uris": {"android": "https://dc.lft.to/lastmile_qr_scan", "ios": "https://dc.lft.to/lastmile_qr_scan"}, "bike_id": "945d04338c86ef777cda100cdd62e0bc", "fusion_lon": 0.0, "fusion_lat": 0.0, "is_disabled": 0, "name": "945d04338c86ef777cda100cdd62e0bc", "type": "electric_scooter", "lon": -77.0398095}, {"is_reserved": 0, "lat": 38.8922045, "rental_uris": {"android": "https://dc.lft.to/lastmile_qr_scan", "ios": "https://dc.lft.to/lastmile_qr_scan"}, "bike_id": "c006141d6600173d9c860f525b72e594", "fusion_lon": 0.0, "fusion_lat": 0.0, "is_disabled": 0, "name": "c006141d6600173d9c860f525b72e594", "type": "electric_scooter", "lon": -76.93293233333333}, {"is_reserved": 0, "lat": 38.89219833333333, "rental_uris": {"android": "https://dc.lft.to/lastmile_qr_scan", "ios": "https://dc.lft.to/lastmile_qr_scan"}, "bike_id": "f3582b1b8e9db49e52799d2f4addd3b8", "fusion_lon": 0.0, "fusion_lat": 0.0, "is_disabled": 0, "name": "f3582b1b8e9db49e52799d2f4addd3b8", "type": "electric_scooter", "lon": -77.02210216666667}, {"is_reserved": 0, "lat": 38.915695166666666, "rental_uris": {"android": "https://dc.lft.to/lastmile_qr_scan", "ios": "https://dc.lft.to/lastmile_qr_scan"}, "bike_id": "69263e74b3fbb09f0051c710b3bd8e27", "fusion_lon": 0.0, "fusion_lat": 0.0, "is_disabled": 0, "name": "69263e74b3fbb09f0051c710b3bd8e27", "type": "electric_scooter", "lon": -77.02292016666667}, {"is_reserved": 0, "lat": 38.900928666666665, "rental_uris": {"android": "https://dc.lft.to/lastmile_qr_scan", "ios": "https://dc.lft.to/lastmile_qr_scan"}, "bike_id": "728c284469becfad0e3c70f30e3558ec", "fusion_lon": 0.0, "fusion_lat": 0.0, "is_disabled": 0, "name": "728c284469becfad0e3c70f30e3558ec", "type": "electric_scooter", "lon": -77.05606833333333}, {"is_reserved": 0, "lat": 38.902206166666666, "rental_uris": {"android": "https://dc.lft.to/lastmile_qr_scan", "ios": "https://dc.lft.to/lastmile_qr_scan"}, "bike_id": "387e35f820b8495d4005d0b2dd449c89", "fusion_lon": 0.0, "fusion_lat": 0.0, "is_disabled": 0, "name": "387e35f820b8495d4005d0b2dd449c89", "type": "electric_scooter", "lon": -77.05912183333334}, {"is_reserved": 0, "lat": 38.94172066666667, "rental_uris": {"android": "https://dc.lft.to/lastmile_qr_scan", "ios": "https://dc.lft.to/lastmile_qr_scan"}, "bike_id": "68094c63e6e9a39d2c1ea4907b18a576", "fusion_lon": 0.0, "fusion_lat": 0.0, "is_disabled": 0, "name": "68094c63e6e9a39d2c1ea4907b18a576", "type": "electric_scooter", "lon": -77.02497666666666}, {"is_reserved": 0, "lat": 38.8999755, "rental_uris": {"android": "https://dc.lft.to/lastmile_qr_scan", "ios": "https://dc.lft.to/lastmile_qr_scan"}, "bike_id": "673732979439a453342e338a7e124a8c", "fusion_lon": 0.0, "fusion_lat": 0.0, "is_disabled": 0, "name": "673732979439a453342e338a7e124a8c", "type": "electric_scooter", "lon": -77.00665516666666}, {"is_reserved": 0, "lat": 38.898013, "rental_uris": {"android": "https://dc.lft.to/lastmile_qr_scan", "ios": "https://dc.lft.to/lastmile_qr_scan"}, "bike_id": "5e966889639a4a38a7a36f7cc3eb02a4", "fusion_lon": 0.0, "fusion_lat": 0.0, "is_disabled": 0, "name": "5e966889639a4a38a7a36f7cc3eb02a4", "type": "electric_scooter", "lon": -77.02810633333333}, {"is_reserved": 0, "lat": 38.913559666666664, "rental_uris": {"android": "https://dc.lft.to/lastmile_qr_scan", "ios": "https://dc.lft.to/lastmile_qr_scan"}, "bike_id": "d92e5a3ad95b11aa6012e49a3e5cf4ca", "fusion_lon": 0.0, "fusion_lat": 0.0, "is_disabled": 0, "name": "d92e5a3ad95b11aa6012e49a3e5cf4ca", "type": "electric_scooter", "lon": -77.03362183333333}, {"is_reserved": 0, "lat": 38.90493983333333, "rental_uris": {"android": "https://dc.lft.to/lastmile_qr_scan", "ios": "https://dc.lft.to/lastmile_qr_scan"}, "bike_id": "f8c085279244bab988f71538bd4a403e", "fusion_lon": 0.0, "fusion_lat": 0.0, "is_disabled": 0, "name": "f8c085279244bab988f71538bd4a403e", "type": "electric_scooter", "lon": -77.02970833333333}, {"is_reserved": 0, "lat": 38.9440225, "rental_uris": {"android": "https://dc.lft.to/lastmile_qr_scan", "ios": "https://dc.lft.to/lastmile_qr_scan"}, "bike_id": "c8ae1b7891255420886b3d84c2e00c01", "fusion_lon": 0.0, "fusion_lat": 0.0, "is_disabled": 0, "name": "c8ae1b7891255420886b3d84c2e00c01", "type": "electric_scooter", "lon": -77.026417}, {"is_reserved": 0, "lat": 38.90051716666667, "rental_uris": {"android": "https://dc.lft.to/lastmile_qr_scan", "ios": "https://dc.lft.to/lastmile_qr_scan"}, "bike_id": "420cbf018a5e010c16a280bd341c1caa", "fusion_lon": 0.0, "fusion_lat": 0.0, "is_disabled": 0, "name": "420cbf018a5e010c16a280bd341c1caa", "type": "electric_scooter", "lon": -77.0020595}, {"is_reserved": 0, "lat": 38.92480333333334, "rental_uris": {"android": "https://dc.lft.to/lastmile_qr_scan", "ios": "https://dc.lft.to/lastmile_qr_scan"}, "bike_id": "2d0e7ae6b1619bd87720c6a380bf4622", "fusion_lon": 0.0, "fusion_lat": 0.0, "is_disabled": 0, "name": "2d0e7ae6b1619bd87720c6a380bf4622", "type": "electric_scooter", "lon": -77.0272235}, {"is_reserved": 0, "lat": 38.8707295, "rental_uris": {"android": "https://dc.lft.to/lastmile_qr_scan", "ios": "https://dc.lft.to/lastmile_qr_scan"}, "bike_id": "d088d9cb9e01b95292e333668a3382ce", "fusion_lon": 0.0, "fusion_lat": 0.0, "is_disabled": 0, "name": "d088d9cb9e01b95292e333668a3382ce", "type": "electric_scooter", "lon": -76.9687045}, {"is_reserved": 0, "lat": 38.91694116666667, "rental_uris": {"android": "https://dc.lft.to/lastmile_qr_scan", "ios": "https://dc.lft.to/lastmile_qr_scan"}, "bike_id": "2ecebf2bfeb204f7bc5959fa9d792a0c", "fusion_lon": 0.0, "fusion_lat": 0.0, "is_disabled": 0, "name": "2ecebf2bfeb204f7bc5959fa9d792a0c", "type": "electric_scooter", "lon": -77.0334785}, {"is_reserved": 0, "lat": 38.914967833333336, "rental_uris": {"android": "https://dc.lft.to/lastmile_qr_scan", "ios": "https://dc.lft.to/lastmile_qr_scan"}, "bike_id": "fd739f8bd9cad680bf7f20f6816aeeec", "fusion_lon": 0.0, "fusion_lat": 0.0, "is_disabled": 0, "name": "fd739f8bd9cad680bf7f20f6816aeeec", "type": "electric_scooter", "lon": -77.01217083333333}, {"is_reserved": 0, "lat": 38.90782866666667, "rental_uris": {"android": "https://dc.lft.to/lastmile_qr_scan", "ios": "https://dc.lft.to/lastmile_qr_scan"}, "bike_id": "fbf94385c57778cd69cb082019fb6ae7", "fusion_lon": 0.0, "fusion_lat": 0.0, "is_disabled": 0, "name": "fbf94385c57778cd69cb082019fb6ae7", "type": "electric_scooter", "lon": -77.00958316666667}, {"is_reserved": 0, "lat": 38.90250066666667, "rental_uris": {"android": "https://dc.lft.to/lastmile_qr_scan", "ios": "https://dc.lft.to/lastmile_qr_scan"}, "bike_id": "513547bcd6a677f3db05eac7da04560e", "fusion_lon": 0.0, "fusion_lat": 0.0, "is_disabled": 0, "name": "513547bcd6a677f3db05eac7da04560e", "type": "electric_scooter", "lon": -77.042836}, {"is_reserved": 0, "lat": 38.872429, "rental_uris": {"android": "https://dc.lft.to/lastmile_qr_scan", "ios": "https://dc.lft.to/lastmile_qr_scan"}, "bike_id": "81c9aec7616966877053037d99ec497c", "fusion_lon": 0.0, "fusion_lat": 0.0, "is_disabled": 0, "name": "81c9aec7616966877053037d99ec497c", "type": "electric_scooter", "lon": -76.97725366666667}, {"is_reserved": 0, "lat": 38.905486333333336, "rental_uris": {"android": "https://dc.lft.to/lastmile_qr_scan", "ios": "https://dc.lft.to/lastmile_qr_scan"}, "bike_id": "0f3c2a40225b07aede68df84d8719dc7", "fusion_lon": 0.0, "fusion_lat": 0.0, "is_disabled": 0, "name": "0f3c2a40225b07aede68df84d8719dc7", "type": "electric_scooter", "lon": -77.0290875}, {"is_reserved": 0, "lat": 38.90854683333333, "rental_uris": {"android": "https://dc.lft.to/lastmile_qr_scan", "ios": "https://dc.lft.to/lastmile_qr_scan"}, "bike_id": "262d1fd4a26f9dba89adf419a2b0a58d", "fusion_lon": 0.0, "fusion_lat": 0.0, "is_disabled": 0, "name": "262d1fd4a26f9dba89adf419a2b0a58d", "type": "electric_scooter", "lon": -77.0476995}, {"is_reserved": 0, "lat": 38.95777483333333, "rental_uris": {"android": "https://dc.lft.to/lastmile_qr_scan", "ios": "https://dc.lft.to/lastmile_qr_scan"}, "bike_id": "f3cbb225e750849c30a56895fecb2c84", "fusion_lon": 0.0, "fusion_lat": 0.0, "is_disabled": 0, "name": "f3cbb225e750849c30a56895fecb2c84", "type": "electric_scooter", "lon": -77.02756316666667}, {"is_reserved": 0, "lat": 38.918985166666666, "rental_uris": {"android": "https://dc.lft.to/lastmile_qr_scan", "ios": "https://dc.lft.to/lastmile_qr_scan"}, "bike_id": "ca8561a1a87687d5322e79db40d95ba8", "fusion_lon": 0.0, "fusion_lat": 0.0, "is_disabled": 0, "name": "ca8561a1a87687d5322e79db40d95ba8", "type": "electric_scooter", "lon": -77.03205433333333}, {"is_reserved": 0, "lat": 38.90513133333333, "rental_uris": {"android": "https://dc.lft.to/lastmile_qr_scan", "ios": "https://dc.lft.to/lastmile_qr_scan"}, "bike_id": "4dd3761046097de726d103094cc0e827", "fusion_lon": 0.0, "fusion_lat": 0.0, "is_disabled": 0, "name": "4dd3761046097de726d103094cc0e827", "type": "electric_scooter", "lon": -77.04164583333333}, {"is_reserved": 0, "lat": 38.917943666666666, "rental_uris": {"android": "https://dc.lft.to/lastmile_qr_scan", "ios": "https://dc.lft.to/lastmile_qr_scan"}, "bike_id": "a3055b279a9648174355b4fdf4973e34", "fusion_lon": 0.0, "fusion_lat": 0.0, "is_disabled": 0, "name": "a3055b279a9648174355b4fdf4973e34", "type": "electric_scooter", "lon": -77.0343585}, {"is_reserved": 0, "lat": 38.90241233333333, "rental_uris": {"android": "https://dc.lft.to/lastmile_qr_scan", "ios": "https://dc.lft.to/lastmile_qr_scan"}, "bike_id": "2bb0663356127cb7ad58adfb66ff41b0", "fusion_lon": 0.0, "fusion_lat": 0.0, "is_disabled": 0, "name": "2bb0663356127cb7ad58adfb66ff41b0", "type": "electric_scooter", "lon": -77.01794783333334}, {"is_reserved": 0, "lat": 38.8592735, "rental_uris": {"android": "https://dc.lft.to/lastmile_qr_scan", "ios": "https://dc.lft.to/lastmile_qr_scan"}, "bike_id": "746a6ba0045de30cdc6401df1d99bb8c", "fusion_lon": 0.0, "fusion_lat": 0.0, "is_disabled": 0, "name": "746a6ba0045de30cdc6401df1d99bb8c", "type": "electric_scooter", "lon": -76.99701866666666}, {"is_reserved": 0, "lat": 38.9059185, "rental_uris": {"android": "https://dc.lft.to/lastmile_qr_scan", "ios": "https://dc.lft.to/lastmile_qr_scan"}, "bike_id": "c41410d9deb42c6cc08fc3e786520c75", "fusion_lon": 0.0, "fusion_lat": 0.0, "is_disabled": 0, "name": "c41410d9deb42c6cc08fc3e786520c75", "type": "electric_scooter", "lon": -77.04337616666666}, {"is_reserved": 0, "lat": 38.876246333333334, "rental_uris": {"android": "https://dc.lft.to/lastmile_qr_scan", "ios": "https://dc.lft.to/lastmile_qr_scan"}, "bike_id": "cb248c23b8c968f1414c316466cfdb12", "fusion_lon": 0.0, "fusion_lat": 0.0, "is_disabled": 0, "name": "cb248c23b8c968f1414c316466cfdb12", "type": "electric_scooter", "lon": -76.96524816666667}, {"is_reserved": 0, "lat": 38.93527816666667, "rental_uris": {"android": "https://dc.lft.to/lastmile_qr_scan", "ios": "https://dc.lft.to/lastmile_qr_scan"}, "bike_id": "d2ec492a9517f2e48f3d4b777bcfa439", "fusion_lon": 0.0, "fusion_lat": 0.0, "is_disabled": 0, "name": "d2ec492a9517f2e48f3d4b777bcfa439", "type": "electric_scooter", "lon": -77.07299883333333}, {"is_reserved": 0, "lat": 38.900744833333334, "rental_uris": {"android": "https://dc.lft.to/lastmile_qr_scan", "ios": "https://dc.lft.to/lastmile_qr_scan"}, "bike_id": "095771c500387e81af486d8392fd9e59", "fusion_lon": 0.0, "fusion_lat": 0.0, "is_disabled": 0, "name": "095771c500387e81af486d8392fd9e59", "type": "electric_scooter", "lon": -77.02712933333333}, {"is_reserved": 0, "lat": 38.9094295, "rental_uris": {"android": "https://dc.lft.to/lastmile_qr_scan", "ios": "https://dc.lft.to/lastmile_qr_scan"}, "bike_id": "54270847e326da59d3769b00f98018c7", "fusion_lon": 0.0, "fusion_lat": 0.0, "is_disabled": 0, "name": "54270847e326da59d3769b00f98018c7", "type": "electric_scooter", "lon": -76.98962183333333}, {"is_reserved": 0, "lat": 38.88743766666666, "rental_uris": {"android": "https://dc.lft.to/lastmile_qr_scan", "ios": "https://dc.lft.to/lastmile_qr_scan"}, "bike_id": "ac35e2ab17d88165d633b8ee84ed5e46", "fusion_lon": 0.0, "fusion_lat": 0.0, "is_disabled": 0, "name": "ac35e2ab17d88165d633b8ee84ed5e46", "type": "electric_scooter", "lon": -76.9835895}, {"is_reserved": 0, "lat": 38.91117833333333, "rental_uris": {"android": "https://dc.lft.to/lastmile_qr_scan", "ios": "https://dc.lft.to/lastmile_qr_scan"}, "bike_id": "1b6094c7e30a93e561993fd68ccad8ed", "fusion_lon": 0.0, "fusion_lat": 0.0, "is_disabled": 0, "name": "1b6094c7e30a93e561993fd68ccad8ed", "type": "electric_scooter", "lon": -77.02197316666667}, {"is_reserved": 0, "lat": 38.90349416666667, "rental_uris": {"android": "https://dc.lft.to/lastmile_qr_scan", "ios": "https://dc.lft.to/lastmile_qr_scan"}, "bike_id": "95a5f7fbe313bd0cebea2494b0feda26", "fusion_lon": 0.0, "fusion_lat": 0.0, "is_disabled": 0, "name": "95a5f7fbe313bd0cebea2494b0feda26", "type": "electric_scooter", "lon": -77.01091}, {"is_reserved": 0, "lat": 38.902734833333334, "rental_uris": {"android": "https://dc.lft.to/lastmile_qr_scan", "ios": "https://dc.lft.to/lastmile_qr_scan"}, "bike_id": "b3120dbf681efdfad4956169b7d2f9fb", "fusion_lon": 0.0, "fusion_lat": 0.0, "is_disabled": 0, "name": "b3120dbf681efdfad4956169b7d2f9fb", "type": "electric_scooter", "lon": -77.058015}, {"is_reserved": 0, "lat": 38.84024616666667, "rental_uris": {"android": "https://dc.lft.to/lastmile_qr_scan", "ios": "https://dc.lft.to/lastmile_qr_scan"}, "bike_id": "c80971cbd8c25c5f802655713a9b8d44", "fusion_lon": 0.0, "fusion_lat": 0.0, "is_disabled": 0, "name": "c80971cbd8c25c5f802655713a9b8d44", "type": "electric_bike", "lon": -76.97586333333334}, {"is_reserved": 0, "lat": 38.918089333333334, "rental_uris": {"android": "https://dc.lft.to/lastmile_qr_scan", "ios": "https://dc.lft.to/lastmile_qr_scan"}, "bike_id": "1b4196e999a69978392e6aee41dcd58b", "fusion_lon": 0.0, "fusion_lat": 0.0, "is_disabled": 0, "name": "1b4196e999a69978392e6aee41dcd58b", "type": "electric_scooter", "lon": -77.03196083333333}, {"is_reserved": 0, "lat": 38.924409, "rental_uris": {"android": "https://dc.lft.to/lastmile_qr_scan", "ios": "https://dc.lft.to/lastmile_qr_scan"}, "bike_id": "6e5a717612eec954020d6eaa0a77a447", "fusion_lon": 0.0, "fusion_lat": 0.0, "is_disabled": 0, "name": "6e5a717612eec954020d6eaa0a77a447", "type": "electric_scooter", "lon": -77.0402565}, {"is_reserved": 0, "lat": 38.874101333333336, "rental_uris": {"android": "https://dc.lft.to/lastmile_qr_scan", "ios": "https://dc.lft.to/lastmile_qr_scan"}, "bike_id": "1a280a50fb28288505a94eafeba5359c", "fusion_lon": 0.0, "fusion_lat": 0.0, "is_disabled": 0, "name": "1a280a50fb28288505a94eafeba5359c", "type": "electric_bike", "lon": -76.965801}, {"is_reserved": 0, "lat": 38.8669965, "rental_uris": {"android": "https://dc.lft.to/lastmile_qr_scan", "ios": "https://dc.lft.to/lastmile_qr_scan"}, "bike_id": "267d5544e52dc8ed623a5d32302ca2ac", "fusion_lon": 0.0, "fusion_lat": 0.0, "is_disabled": 0, "name": "267d5544e52dc8ed623a5d32302ca2ac", "type": "electric_scooter", "lon": -76.9871245}, {"is_reserved": 0, "lat": 38.9055685, "rental_uris": {"android": "https://dc.lft.to/lastmile_qr_scan", "ios": "https://dc.lft.to/lastmile_qr_scan"}, "bike_id": "a155a0fda2695fb6056270f2a5a2a026", "fusion_lon": 0.0, "fusion_lat": 0.0, "is_disabled": 0, "name": "a155a0fda2695fb6056270f2a5a2a026", "type": "electric_scooter", "lon": -77.01676633333334}, {"is_reserved": 0, "lat": 38.916734, "rental_uris": {"android": "https://dc.lft.to/lastmile_qr_scan", "ios": "https://dc.lft.to/lastmile_qr_scan"}, "bike_id": "90acef94345115557d1b30e3f6b1baed", "fusion_lon": 0.0, "fusion_lat": 0.0, "is_disabled": 0, "name": "90acef94345115557d1b30e3f6b1baed", "type": "electric_scooter", "lon": -77.02302816666666}, {"is_reserved": 0, "lat": 38.899645166666666, "rental_uris": {"android": "https://dc.lft.to/lastmile_qr_scan", "ios": "https://dc.lft.to/lastmile_qr_scan"}, "bike_id": "dfe245174fc7a49afc3be655b9c26155", "fusion_lon": 0.0, "fusion_lat": 0.0, "is_disabled": 0, "name": "dfe245174fc7a49afc3be655b9c26155", "type": "electric_scooter", "lon": -77.03071083333333},