{"data": {"bikes": [{"is_reserved": 0, "bike_id": "61d12ed19825fad69766e3db62cab9e7", "type": "electric_scooter", "name": "61d12ed19825fad69766e3db62cab9e7", "is_disabled": 0, "fusion_lon": 0.0, "rental_uris": {"android": "https://dc.lft.to/lastmile_qr_scan", "ios": "https://dc.lft.to/lastmile_qr_scan"}, "lat": 38.923700333333336, "lon": -77.07232866666666, "fusion_lat": 0.0}, {"is_reserved": 0, "bike_id": "964da98862d9b0b2a957fe5284618046", "type": "electric_bike", "name": "964da98862d9b0b2a957fe5284618046", "is_disabled": 0, "fusion_lon": 0.0, "rental_uris": {"android": "https://dc.lft.to/lastmile_qr_scan", "ios": "https://dc.lft.to/lastmile_qr_scan"}, "lat": 38.91876283333333, "lon": -77.04154216666667, "fusion_lat": 0.0}, {"is_reserved": 0, "bike_id": "56148afc1a2b734556ae40b52bc1af92", "type": "electric_scooter", "name": "56148afc1a2b734556ae40b52bc1af92", "is_disabled": 0, "fusion_lon": 0.0, "rental_uris": {"android": "https://dc.lft.to/lastmile_qr_scan", "ios": "https://dc.lft.to/lastmile_qr_scan"}, "lat": 38.934644666666664, "lon": -77.03069833333333, "fusion_lat": 0.0}, {"is_reserved": 0, "bike_id": "ec8a58939b1337eac7329d3dcd771259", "type": "electric_scooter", "name": "ec8a58939b1337eac7329d3dcd771259", "is_disabled": 0, "fusion_lon": 0.0, "rental_uris": {"android": "https://dc.lft.to/lastmile_qr_scan", "ios": "https://dc.lft.to/lastmile_qr_scan"}, "lat": 38.87899216666667, "lon": -76.93523383333333, "fusion_lat": 0.0}, {"is_reserved": 0, "bike_id": "84b01c7445f661dc3b11b03beca58da3", "type": "electric_scooter", "name": "84b01c7445f661dc3b11b03beca58da3", "is_disabled": 0, "fusion_lon": 0.0, "rental_uris": {"android": "https://dc.lft.to/lastmile_qr_scan", "ios": "https://dc.lft.to/lastmile_qr_scan"}, "lat": 38.929185833333335, "lon": -77.03478866666667, "fusion_lat": 0.0}, {"is_reserved": 0, "bike_id": "f8c6684229f7f1ca228c88083d8096d3", "type": "electric_scooter", "name": "f8c6684229f7f1ca228c88083d8096d3", "is_disabled": 0, "fusion_lon": 0.0, "rental_uris": {"android": "https://dc.lft.to/lastmile_qr_scan", "ios": "https://dc.lft.to/lastmile_qr_scan"}, "lat": 38.95739533333333, "lon": -77.02389183333334, "fusion_lat": 0.0}, {"is_reserved": 0, "bike_id": "30e90f07ec6a158915ef1d8029b2a699", "type": "electric_scooter", "name": "30e90f07ec6a158915ef1d8029b2a699", "is_disabled": 0, "fusion_lon": 0.0, "rental_uris": {"android": "https://dc.lft.to/lastmile_qr_scan", "ios": "https://dc.lft.to/lastmile_qr_scan"}, "lat": 38.899841, "lon": -76.99147233333333, "fusion_lat": 0.0}, {"is_reserved": 0, "bike_id": "04cdc93e8be520d532021155c09296fa", "type": "electric_bike", "name": "04cdc93e8be520d532021155c09296fa", "is_disabled": 0, "fusion_lon": 0.0, "rental_uris": {"android": "https://dc.lft.to/lastmile_qr_scan", "ios": "https://dc.lft.to/lastmile_qr_scan"}, "lat": 38.822111666666665, "lon": -76.977035, "fusion_lat": 0.0}, {"is_reserved": 0, "bike_id": "90b4c0f6a49f4420b06f9c8f987f462c", "type": "electric_scooter", "name": "90b4c0f6a49f4420b06f9c8f987f462c", "is_disabled": 0, "fusion_lon": 0.0, "rental_uris": {"android": "https://dc.lft.to/lastmile_qr_scan", "ios": "https://dc.lft.to/lastmile_qr_scan"}, "lat": 38.903406333333336, "lon": -77.01635233333333, "fusion_lat": 0.0}, {"is_reserved": 0, "bike_id": "0f963fe42dbd3f476008d1d0101de72c", "type": "electric_scooter", "name": "0f963fe42dbd3f476008d1d0101de72c", "is_disabled": 0, "fusion_lon": 0.0, "rental_uris": {"android": "https://dc.lft.to/lastmile_qr_scan", "ios": "https://dc.lft.to/lastmile_qr_scan"}, "lat": 38.905961, "lon": -76.98543383333333, "fusion_lat": 0.0}, {"is_reserved": 0, "bike_id": "4bd9d8896e14763932ac46a0111cade2", "type": "electric_scooter", "name": "4bd9d8896e14763932ac46a0111cade2", "is_disabled": 0, "fusion_lon": 0.0, "rental_uris": {"android": "https://dc.lft.to/lastmile_qr_scan", "ios": "https://dc.lft.to/lastmile_qr_scan"}, "lat": 38.876457333333335, "lon": -77.00568666666666, "fusion_lat": 0.0}, {"is_reserved": 0, "bike_id": "7675b7fc1489e31f46e031a1a98c64a6", "type": "electric_scooter", "name": "7675b7fc1489e31f46e031a1a98c64a6", "is_disabled": 0, "fusion_lon": 0.0, "rental_uris": {"android": "https://dc.lft.to/lastmile_qr_scan", "ios": "https://dc.lft.to/lastmile_qr_scan"}, "lat": 38.91623333333333, "lon": -77.00343166666667, "fusion_lat": 0.0}, {"is_reserved": 0, "bike_id": "922131e2bec26b3e40641dd3bbe04c0e", "type": "electric_scooter", "name": "922131e2bec26b3e40641dd3bbe04c0e", "is_disabled": 0, "fusion_lon": 0.0, "rental_uris": {"android": "https://dc.lft.to/lastmile_qr_scan", "ios": "https://dc.lft.to/lastmile_qr_scan"}, "lat": 38.89634066666667, "lon": -77.033137, "fusion_lat": 0.0}, {"is_reserved": 0, "bike_id": "ea567682323e43ec263cf99514e93352", "type": "electric_scooter", "name": "ea567682323e43ec263cf99514e93352", "is_disabled": 0, "fusion_lon": 0.0, "rental_uris": {"android": "https://dc.lft.to/lastmile_qr_scan", "ios": "https://dc.lft.to/lastmile_qr_scan"}, "lat": 38.9353815, "lon": -77.02353566666666, "fusion_lat": 0.0}, {"is_reserved": 0, "bike_id": "7bb071a33eea513f2eeaf5533e13249a", "type": "electric_scooter", "name": "7bb071a33eea513f2eeaf5533e13249a", "is_disabled": 0, "fusion_lon": 0.0, "rental_uris": {"android": "https://dc.lft.to/lastmile_qr_scan", "ios": "https://dc.lft.to/lastmile_qr_scan"}, "lat": 38.90550183333333, "lon": -77.04341916666667, "fusion_lat": 0.0}, {"is_reserved": 0, "bike_id": "361ca768b1b96f948b2bc40bc28c2dcd", "type": "electric_scooter", "name": "361ca768b1b96f948b2bc40bc28c2dcd", "is_disabled": 0, "fusion_lon": 0.0, "rental_uris": {"android": "https://dc.lft.to/lastmile_qr_scan", "ios": "https://dc.lft.to/lastmile_qr_scan"}, "lat": 38.931979, "lon": -77.02503333333334, "fusion_lat": 0.0}, {"is_reserved": 0, "bike_id": "ae274ce1c803bec1139b582d44d17ba1", "type": "electric_scooter", "name": "ae274ce1c803bec1139b582d44d17ba1", "is_disabled": 0, "fusion_lon": 0.0, "rental_uris": {"android": "https://dc.lft.to/lastmile_qr_scan", "ios": "https://dc.lft.to/lastmile_qr_scan"}, "lat": 38.923608, "lon": -77.0205615, "fusion_lat": 0.0}, {"is_reserved": 0, "bike_id": "82aa7a4f74f0576a74ec692ac7ab0b62", "type": "electric_scooter", "name": "82aa7a4f74f0576a74ec692ac7ab0b62", "is_disabled": 0, "fusion_lon": 0.0, "rental_uris": {"android": "https://dc.lft.to/lastmile_qr_scan", "ios": "https://dc.lft.to/lastmile_qr_scan"}, "lat": 38.91885833333333, "lon": -77.04468716666666, "fusion_lat": 0.0}, {"is_reserved": 0, "bike_id": "1f527a94615e5fd3ebfc9558f5bc1e01", "type": "electric_scooter", "name": "1f527a94615e5fd3ebfc9558f5bc1e01", "is_disabled": 0, "fusion_lon": 0.0, "rental_uris": {"android": "https://dc.lft.to/lastmile_qr_scan", "ios": "https://dc.lft.to/lastmile_qr_scan"}, "lat": 38.91635433333333, "lon": -77.032087, "fusion_lat": 0.0}, {"is_reserved": 0, "bike_id": "2278bbf3402966f88eb6965a5233d2bb", "type": "electric_scooter", "name": "2278bbf3402966f88eb6965a5233d2bb", "is_disabled": 0, "fusion_lon": 0.0, "rental_uris": {"android": "https://dc.lft.to/lastmile_qr_scan", "ios": "https://dc.lft.to/lastmile_qr_scan"}, "lat": 38.93520133333333, "lon": -77.0254555, "fusion_lat": 0.0}, {"is_reserved": 0, "bike_id": "16093a8186d54eb8b2b51d16aeef22e7", "type": "electric_scooter", "name": "16093a8186d54eb8b2b51d16aeef22e7", "is_disabled": 0, "fusion_lon": 0.0, "rental_uris": {"android": "https://dc.lft.to/lastmile_qr_scan", "ios": "https://dc.lft.to/lastmile_qr_scan"}, "lat": 38.883221666666664, "lon": -77.02165466666666, "fusion_lat": 0.0}, {"is_reserved": 0, "bike_id": "f6c535115b14414c16f68171291cdf84", "type": "electric_scooter", "name": "f6c535115b14414c16f68171291cdf84", "is_disabled": 0, "fusion_lon": 0.0, "rental_uris": {"android": "https://dc.lft.to/lastmile_qr_scan", "ios": "https://dc.lft.to/lastmile_qr_scan"}, "lat": 38.9202285, "lon": -77.03117033333334, "fusion_lat": 0.0}, {"is_reserved": 0, "bike_id": "4f5bdb2ce96cdc0da9fc08dfe8dfcf07", "type": "electric_scooter", "name": "4f5bdb2ce96cdc0da9fc08dfe8dfcf07", "is_disabled": 0, "fusion_lon": 0.0, "rental_uris": {"android": "https://dc.lft.to/lastmile_qr_scan", "ios": "https://dc.lft.to/lastmile_qr_scan"}, "lat": 38.94616383333333, "lon": -77.03059316666666, "fusion_lat": 0.0}, {"is_reserved": 0, "bike_id": "cc1c25d3da5f1c733a915214214ca24e", "type": "electric_bike", "name": "cc1c25d3da5f1c733a915214214ca24e", "is_disabled": 0, "fusion_lon": 0.0, "rental_uris": {"android": "https://dc.lft.to/lastmile_qr_scan", "ios": "https://dc.lft.to/lastmile_qr_scan"}, "lat": 38.92040983333333, "lon": -77.00357, "fusion_lat": 0.0}, {"is_reserved": 0, "bike_id": "67718934311745d814b6de11dc6b6f43", "type": "electric_scooter", "name": "67718934311745d814b6de11dc6b6f43", "is_disabled": 0, "fusion_lon": 0.0, "rental_uris": {"android": "https://dc.lft.to/lastmile_qr_scan", "ios": "https://dc.lft.to/lastmile_qr_scan"}, "lat": 38.927005, "lon": -77.025699, "fusion_lat": 0.0}, {"is_reserved": 0, "bike_id": "05013593e052430027a698118645be1b", "type": "electric_scooter", "name": "05013593e052430027a698118645be1b", "is_disabled": 0, "fusion_lon": 0.0, "rental_uris": {"android": "https://dc.lft.to/lastmile_qr_scan", "ios": "https://dc.lft.to/lastmile_qr_scan"}, "lat": 38.911896666666664, "lon": -77.037606, "fusion_lat": 0.0}, {"is_reserved": 0, "bike_id": "31af74ada3683103f46120ce3843e928", "type": "electric_scooter", "name": "31af74ada3683103f46120ce3843e928", "is_disabled": 0, "fusion_lon": 0.0, "rental_uris": {"android": "https://dc.lft.to/lastmile_qr_scan", "ios": "https://dc.lft.to/lastmile_qr_scan"}, "lat": 38.89814366666667, "lon": -77.01357266666666, "fusion_lat": 0.0}, {"is_reserved": 0, "bike_id": "329f2510dfc6c11ea9b28ee397904638", "type": "electric_scooter", "name": "329f2510dfc6c11ea9b28ee397904638", "is_disabled": 0, "fusion_lon": 0.0, "rental_uris": {"android": "https://dc.lft.to/lastmile_qr_scan", "ios": "https://dc.lft.to/lastmile_qr_scan"}, "lat": 38.917027833333336, "lon": -77.01171233333334, "fusion_lat": 0.0}, {"is_reserved": 0, "bike_id": "de76105124dffe30723ac6aa60f1954a", "type": "electric_bike", "name": "de76105124dffe30723ac6aa60f1954a", "is_disabled": 0, "fusion_lon": 0.0, "rental_uris": {"android": "https://dc.lft.to/lastmile_qr_scan", "ios": "https://dc.lft.to/lastmile_qr_scan"}, "lat": 38.9362345, "lon": -77.02636666666666, "fusion_lat": 0.0}, {"is_reserved": 0, "bike_id": "c54a58187644ec0733c7b77800065075", "type": "electric_scooter", "name": "c54a58187644ec0733c7b77800065075", "is_disabled": 0, "fusion_lon": 0.0, "rental_uris": {"android": "https://dc.lft.to/lastmile_qr_scan", "ios": "https://dc.lft.to/lastmile_qr_scan"}, "lat": 38.901560833333335, "lon": -77.04358916666666, "fusion_lat": 0.0}, {"is_reserved": 0, "bike_id": "c66198eac57d8382922fc2286a295007", "type": "electric_scooter", "name": "c66198eac57d8382922fc2286a295007", "is_disabled": 0, "fusion_lon": 0.0, "rental_uris": {"android": "https://dc.lft.to/lastmile_qr_scan", "ios": "https://dc.lft.to/lastmile_qr_scan"}, "lat": 38.9573525, "lon": -77.02335783333334, "fusion_lat": 0.0}, {"is_reserved": 0, "bike_id": "cc47af201259cb525fa517dcc22724ea", "type": "electric_scooter", "name": "cc47af201259cb525fa517dcc22724ea", "is_disabled": 0, "fusion_lon": 0.0, "rental_uris": {"android": "https://dc.lft.to/lastmile_qr_scan", "ios": "https://dc.lft.to/lastmile_qr_scan"}, "lat": 38.87711633333333, "lon": -77.00390466666667, "fusion_lat": 0.0}, {"is_reserved": 0, "bike_id": "91545505e2510ac4ce7d00b60b23a6cf", "type": "electric_scooter", "name": "91545505e2510ac4ce7d00b60b23a6cf", "is_disabled": 0, "fusion_lon": 0.0, "rental_uris": {"android": "https://dc.lft.to/lastmile_qr_scan", "ios": "https://dc.lft.to/lastmile_qr_scan"}, "lat": 38.9181535, "lon": -77.02768583333334, "fusion_lat": 0.0}, {"is_reserved": 0, "bike_id": "3f96cf8a0e0f1e549ac3184259f458c6", "type": "electric_scooter", "name": "3f96cf8a0e0f1e549ac3184259f458c6", "is_disabled": 0, "fusion_lon": 0.0, "rental_uris": {"android": "https://dc.lft.to/lastmile_qr_scan", "ios": "https://dc.lft.to/lastmile_qr_scan"}, "lat": 38.918823, "lon": -77.0431285, "fusion_lat": 0.0}, {"is_reserved": 0, "bike_id": "06cf3b5f7090ae46f9124c572fbbe6bb", "type": "electric_scooter", "name": "06cf3b5f7090ae46f9124c572fbbe6bb", "is_disabled": 0, "fusion_lon": 0.0, "rental_uris": {"android": "https://dc.lft.to/lastmile_qr_scan", "ios": "https://dc.lft.to/lastmile_qr_scan"}, "lat": 38.91433416666667, "lon": -77.02817966666667, "fusion_lat": 0.0}, {"is_reserved": 0, "bike_id": "9185e92bf98e388d3f7d78d0d5486eea", "type": "electric_scooter", "name": "9185e92bf98e388d3f7d78d0d5486eea", "is_disabled": 0, "fusion_lon": 0.0, "rental_uris": {"android": "https://dc.lft.to/lastmile_qr_scan", "ios": "https://dc.lft.to/lastmile_qr_scan"}, "lat": 38.8925365, "lon": -77.0395695, "fusion_lat": 0.0}, {"is_reserved": 0, "bike_id": "7b1b6ed35245774314d5bcc7167f447b", "type": "electric_scooter", "name": "7b1b6ed35245774314d5bcc7167f447b", "is_disabled": 0, "fusion_lon": 0.0, "rental_uris": {"android": "https://dc.lft.to/lastmile_qr_scan", "ios": "https://dc.lft.to/lastmile_qr_scan"}, "lat": 38.907288, "lon": -77.01070833333333, "fusion_lat": 0.0}, {"is_reserved": 0, "bike_id": "e56def71b41e03edfca3064faa902a67", "type": "electric_scooter", "name": "e56def71b41e03edfca3064faa902a67", "is_disabled": 0, "fusion_lon": 0.0, "rental_uris": {"android": "https://dc.lft.to/lastmile_qr_scan", "ios": "https://dc.lft.to/lastmile_qr_scan"}, "lat": 38.93405683333334, "lon": -77.039903, "fusion_lat": 0.0}, {"is_reserved": 0, "bike_id": "73da4ed2bc920a9c5c6134d92be27fda", "type": "electric_scooter", "name": "73da4ed2bc920a9c5c6134d92be27fda", "is_disabled": 0, "fusion_lon": 0.0, "rental_uris": {"android": "https://dc.lft.to/lastmile_qr_scan", "ios": "https://dc.lft.to/lastmile_qr_scan"}, "lat": 38.893659166666666, "lon": -77.00337833333333, "fusion_lat": 0.0}, {"is_reserved": 0, "bike_id": "cc059314205bd39866a8d99832c9d10e", "type": "electric_scooter", "name": "cc059314205bd39866a8d99832c9d10e", "is_disabled": 0, "fusion_lon": 0.0, "rental_uris": {"android": "https://dc.lft.to/lastmile_qr_scan", "ios": "https://dc.lft.to/lastmile_qr_scan"}, "lat": 38.9004835, "lon": -77.04845, "fusion_lat": 0.0}, {"is_reserved": 0, "bike_id": "bdec04c38ff005aaa11905d277104e6d", "type": "electric_scooter", "name": "bdec04c38ff005aaa11905d277104e6d", "is_disabled": 0, "fusion_lon": 0.0, "rental_uris": {"android": "https://dc.lft.to/lastmile_qr_scan", "ios": "https://dc.lft.to/lastmile_qr_scan"}, "lat": 38.91693683333333, "lon": -77.046015, "fusion_lat": 0.0}, {"is_reserved": 0, "bike_id": "13472cceb1ae577ea5e66dea0f7a1274", "type": "electric_scooter", "name": "13472cceb1ae577ea5e66dea0f7a1274", "is_disabled": 0, "fusion_lon": 0.0, "rental_uris": {"android": "https://dc.lft.to/lastmile_qr_scan", "ios": "https://dc.lft.to/lastmile_qr_scan"}, "lat": 38.912619166666666, "lon": -77.04739516666666, "fusion_lat": 0.0}, {"is_reserved": 0, "bike_id": "b734a5f8df3d53667a988c6b4c5b2ebc", "type": "electric_scooter", "name": "b734a5f8df3d53667a988c6b4c5b2ebc", "is_disabled": 0, "fusion_lon": 0.0, "rental_uris": {"android": "https://dc.lft.to/lastmile_qr_scan", "ios": "https://dc.lft.to/lastmile_qr_scan"}, "lat": 38.89222383333333, "lon": -77.02415566666667, "fusion_lat": 0.0}, {"is_reserved": 0, "bike_id": "07b21f64a1ef0f51d5a37c256bf67836", "type": "electric_scooter", "name": "07b21f64a1ef0f51d5a37c256bf67836", "is_disabled": 0, "fusion_lon": 0.0, "rental_uris": {"android": "https://dc.lft.to/lastmile_qr_scan", "ios": "https://dc.lft.to/lastmile_qr_scan"}, "lat": 38.925032, "lon": -77.05250416666667, "fusion_lat": 0.0}, {"is_reserved": 0, "bike_id": "e8473956ec29ec322dee42c5863feaf0", "type": "electric_scooter", "name": "e8473956ec29ec322dee42c5863feaf0", "is_disabled": 0, "fusion_lon": 0.0, "rental_uris": {"android": "https://dc.lft.to/lastmile_qr_scan", "ios": "https://dc.lft.to/lastmile_qr_scan"}, "lat": 38.919208, "lon": -77.03243766666667, "fusion_lat": 0.0}, {"is_reserved": 0, "bike_id": "be9b124327dc1b5dff50851637d64603", "type": "electric_scooter", "name": "be9b124327dc1b5dff50851637d64603", "is_disabled": 0, "fusion_lon": 0.0, "rental_uris": {"android": "https://dc.lft.to/lastmile_qr_scan", "ios": "https://dc.lft.to/lastmile_qr_scan"}, "lat": 38.883213833333336, "lon": -77.0300075, "fusion_lat": 0.0}, {"is_reserved": 0, "bike_id": "9b12b5a3ee111c53eb26cc4a99571941", "type": "electric_bike", "name": "9b12b5a3ee111c53eb26cc4a99571941", "is_disabled": 0, "fusion_lon": 0.0, "rental_uris": {"android": "https://dc.lft.to/lastmile_qr_scan", "ios": "https://dc.lft.to/lastmile_qr_scan"}, "lat": 38.888698166666664, "lon": -77.0817785, "fusion_lat": 0.0}, {"is_reserved": 0, "bike_id": "5c64b77b2c46f8fa8d3a4159e04ddf56", "type": "electric_scooter", "name": "5c64b77b2c46f8fa8d3a4159e04ddf56", "is_disabled": 0, "fusion_lon": 0.0, "rental_uris": {"android": "https://dc.lft.to/lastmile_qr_scan", "ios": "https://dc.lft.to/lastmile_qr_scan"}, "lat": 38.946148, "lon": -77.08023733333333, "fusion_lat": 0.0}, {"is_reserved": 0, "bike_id": "abb706e9de60b3cde07a0f266b050eac", "type": "electric_scooter", "name": "abb706e9de60b3cde07a0f266b050eac", "is_disabled": 0, "fusion_lon": 0.0, "rental_uris": {"android": "https://dc.lft.to/lastmile_qr_scan", "ios": "https://dc.lft.to/lastmile_qr_scan"}, "lat": 38.904766, "lon": -77.03555066666667, "fusion_lat": 0.0}, {"is_reserved": 0, "bike_id": "7f0aecb204fbc98f35d43bea7308e0d5", "type": "electric_scooter", "name": "7f0aecb204fbc98f35d43bea7308e0d5", "is_disabled": 0, "fusion_lon": 0.0, "rental_uris": {"android": "https://dc.lft.to/lastmile_qr_scan", "ios": "https://dc.lft.to/lastmile_qr_scan"}, "lat": 38.9136395, "lon": -77.02049166666667, "fusion_lat": 0.0}, {"is_reserved": 0, "bike_id": "e4f6ce054ceee81fbf7c6db8abec8826", "type": "electric_scooter", "name": "e4f6ce054ceee81fbf7c6db8abec8826", "is_disabled": 0, "fusion_lon": 0.0, "rental_uris": {"android": "https://dc.lft.to/lastmile_qr_scan", "ios": "https://dc.lft.to/lastmile_qr_scan"}, "lat": 38.900113166666664, "lon": -77.046407, "fusion_lat": 0.0}, {"is_reserved": 0, "bike_id": "f2cd427984fe356b610305f04ff017bb", "type": "electric_scooter", "name": "f2cd427984fe356b610305f04ff017bb", "is_disabled": 0, "fusion_lon": 0.0, "rental_uris": {"android": "https://dc.lft.to/lastmile_qr_scan", "ios": "https://dc.lft.to/lastmile_qr_scan"}, "lat": 38.89998516666667, "lon": -76.990091, "fusion_lat": 0.0}, {"is_reserved": 0, "bike_id": "ed3a477fbd977bb2ccfd072a868994d6", "type": "electric_scooter", "name": "ed3a477fbd977bb2ccfd072a868994d6", "is_disabled": 0, "fusion_lon": 0.0, "rental_uris": {"android": "https://dc.lft.to/lastmile_qr_scan", "ios": "https://dc.lft.to/lastmile_qr_scan"}, "lat": 38.9259725, "lon": -77.0440655, "fusion_lat": 0.0}, {"is_reserved": 0, "bike_id": "dee53cb15f0a6f5fd4cc3d32fa534c1b", "type": "electric_scooter", "name": "dee53cb15f0a6f5fd4cc3d32fa534c1b", "is_disabled": 0, "fusion_lon": 0.0, "rental_uris": {"android": "https://dc.lft.to/lastmile_qr_scan", "ios": "https://dc.lft.to/lastmile_qr_scan"}, "lat": 38.90750416666667, "lon": -77.00762033333334, "fusion_lat": 0.0}, {"is_reserved": 0, "bike_id": "f0098fea0949d61a21ce4bae1493f099", "type": "electric_scooter", "name": "f0098fea0949d61a21ce4bae1493f099", "is_disabled": 0, "fusion_lon": 0.0, "rental_uris": {"android": "https://dc.lft.to/lastmile_qr_scan", "ios": "https://dc.lft.to/lastmile_qr_scan"}, "lat": 38.898804, "lon": -77.04542516666666, "fusion_lat": 0.0}, {"is_reserved": 0, "bike_id": "6bcd1db3680b9dd2b911e0956450a699", "type": "electric_bike", "name": "6bcd1db3680b9dd2b911e0956450a699", "is_disabled": 0, "fusion_lon": 0.0, "rental_uris": {"android": "https://dc.lft.to/lastmile_qr_scan", "ios": "https://dc.lft.to/lastmile_qr_scan"}, "lat": 38.8980815, "lon": -76.99065883333333, "fusion_lat": 0.0}, {"is_reserved": 0, "bike_id": "ce2db1749923ce706e3b0f5d9e20d7f4", "type": "electric_scooter", "name": "ce2db1749923ce706e3b0f5d9e20d7f4", "is_disabled": 0, "fusion_lon": 0.0, "rental_uris": {"android": "https://dc.lft.to/lastmile_qr_scan", "ios": "https://dc.lft.to/lastmile_qr_scan"}, "lat": 38.908579333333336, "lon": -77.04737783333333, "fusion_lat": 0.0}, {"is_reserved": 0, "bike_id": "ccd46798e45afadfeef96ceaf57eb212", "type": "electric_scooter", "name": "ccd46798e45afadfeef96ceaf57eb212", "is_disabled": 0, "fusion_lon": 0.0, "rental_uris": {"android": "https://dc.lft.to/lastmile_qr_scan", "ios": "https://dc.lft.to/lastmile_qr_scan"}, "lat": 38.89870766666667, "lon": -76.946633, "fusion_lat": 0.0}, {"is_reserved": 0, "bike_id": "83072c9e694d0c1d90617d101a8effd3", "type": "electric_scooter", "name": "83072c9e694d0c1d90617d101a8effd3", "is_disabled": 0, "fusion_lon": 0.0, "rental_uris": {"android": "https://dc.lft.to/lastmile_qr_scan", "ios": "https://dc.lft.to/lastmile_qr_scan"}, "lat": 38.90848016666666, "lon": -77.0333865, "fusion_lat": 0.0}, {"is_reserved": 0, "bike_id": "7dfd379750abf21c7f82cbb71953c4f5", "type": "electric_scooter", "name": "7dfd379750abf21c7f82cbb71953c4f5", "is_disabled": 0, "fusion_lon": 0.0, "rental_uris": {"android": "https://dc.lft.to/lastmile_qr_scan", "ios": "https://dc.lft.to/lastmile_qr_scan"}, "lat": 38.935388, "lon": -77.02351983333334, "fusion_lat": 0.0}, {"is_reserved": 0, "bike_id": "27d6c7381fe18bf749421883f3d7ab7a", "type": "electric_scooter", "name": "27d6c7381fe18bf749421883f3d7ab7a", "is_disabled": 0, "fusion_lon": 0.0, "rental_uris": {"android": "https://dc.lft.to/lastmile_qr_scan", "ios": "https://dc.lft.to/lastmile_qr_scan"}, "lat": 38.92606383333333, "lon": -77.02154866666666, "fusion_lat": 0.0}, {"is_reserved": 0, "bike_id": "eb0bcad6f1de5aace4ef94a7de0efd2b", "type": "electric_scooter", "name": "eb0bcad6f1de5aace4ef94a7de0efd2b", "is_disabled": 0, "fusion_lon": 0.0, "rental_uris": {"android": "https://dc.lft.to/lastmile_qr_scan", "ios": "https://dc.lft.to/lastmile_qr_scan"}, "lat": 38.88737833333333, "lon": -77.02579, "fusion_lat": 0.0}, {"is_reserved": 0, "bike_id": "26fb3f10a7422f99fc57efef63b33e83", "type": "electric_scooter", "name": "26fb3f10a7422f99fc57efef63b33e83", "is_disabled": 0, "fusion_lon": 0.0, "rental_uris": {"android": "https://dc.lft.to/lastmile_qr_scan", "ios": "https://dc.lft.to/lastmile_qr_scan"}, "lat": 38.931048, "lon": -77.09091583333333, "fusion_lat": 0.0}, {"is_reserved": 0, "bike_id": "0e3588eaa25226dbd639ab9bc36b05fc", "type": "electric_scooter", "name": "0e3588eaa25226dbd639ab9bc36b05fc", "is_disabled": 0, "fusion_lon": 0.0, "rental_uris": {"android": "https://dc.lft.to/lastmile_qr_scan", "ios": "https://dc.lft.to/lastmile_qr_scan"}, "lat": 38.92159633333333, "lon": -77.033782, "fusion_lat": 0.0}, {"is_reserved": 0, "bike_id": "8a690398bf6b09c572d3910809600d08", "type": "electric_scooter", "name": "8a690398bf6b09c572d3910809600d08", "is_disabled": 0, "fusion_lon": 0.0, "rental_uris": {"android": "https://dc.lft.to/lastmile_qr_scan", "ios": "https://dc.lft.to/lastmile_qr_scan"}, "lat": 38.88751383333334, "lon": -77.03147283333334, "fusion_lat": 0.0}, {"is_reserved": 0, "bike_id": "26b63eb8ac28226dd6673706a51c86dc", "type": "electric_scooter", "name": "26b63eb8ac28226dd6673706a51c86dc", "is_disabled": 0, "fusion_lon": 0.0, "rental_uris": {"android": "https://dc.lft.to/lastmile_qr_scan", "ios": "https://dc.lft.to/lastmile_qr_scan"}, "lat": 38.935368, "lon": -77.0235505, "fusion_lat": 0.0}, {"is_reserved": 0, "bike_id": "8a938f92ac974f2968f2b315f534b252", "type": "electric_scooter", "name": "8a938f92ac974f2968f2b315f534b252", "is_disabled": 0, "fusion_lon": 0.0, "rental_uris": {"android": "https://dc.lft.to/lastmile_qr_scan", "ios": "https://dc.lft.to/lastmile_qr_scan"}, "lat": 38.92160583333333, "lon": -77.0332525, "fusion_lat": 0.0}, {"is_reserved": 0, "bike_id": "b10cbc2cf1b541c5ed07b6882ac359e6", "type": "electric_scooter", "name": "b10cbc2cf1b541c5ed07b6882ac359e6", "is_disabled": 0, "fusion_lon": 0.0, "rental_uris": {"android": "https://dc.lft.to/lastmile_qr_scan", "ios": "https://dc.lft.to/lastmile_qr_scan"}, "lat": 38.89623733333333, "lon": -76.98570183333334, "fusion_lat": 0.0}, {"is_reserved": 0, "bike_id": "844dbedb916e93af2f8ce8b10f75d511", "type": "electric_scooter", "name": "844dbedb916e93af2f8ce8b10f75d511", "is_disabled": 0, "fusion_lon": 0.0, "rental_uris": {"android": "https://dc.lft.to/lastmile_qr_scan", "ios": "https://dc.lft.to/lastmile_qr_scan"}, "lat": 38.9027295, "lon": -77.06015716666667, "fusion_lat": 0.0}, {"is_reserved": 0, "bike_id": "e136ab14d3340c50224cdca49e9a63d1", "type": "electric_scooter", "name": "e136ab14d3340c50224cdca49e9a63d1", "is_disabled": 0, "fusion_lon": 0.0, "rental_uris": {"android": "https://dc.lft.to/lastmile_qr_scan", "ios": "https://dc.lft.to/lastmile_qr_scan"}, "lat": 38.900331333333334, "lon": -76.98797, "fusion_lat": 0.0}, {"is_reserved": 0, "bike_id": "0673b3e4628e7995e3e2c294283c3ece", "type": "electric_scooter", "name": "0673b3e4628e7995e3e2c294283c3ece", "is_disabled": 0, "fusion_lon": 0.0, "rental_uris": {"android": "https://dc.lft.to/lastmile_qr_scan", "ios": "https://dc.lft.to/lastmile_qr_scan"}, "lat": 38.8845505, "lon": -76.9295755, "fusion_lat": 0.0}, {"is_reserved": 0, "bike_id": "97c2178a1717cfeaaa1d96059a009b85", "type": "electric_scooter", "name": "97c2178a1717cfeaaa1d96059a009b85", "is_disabled": 0, "fusion_lon": 0.0, "rental_uris": {"android": "https://dc.lft.to/lastmile_qr_scan", "ios": "https://dc.lft.to/lastmile_qr_scan"}, "lat": 38.92624266666667, "lon": -77.0433065, "fusion_lat": 0.0}, {"is_reserved": 0, "bike_id": "66012108b11be362632eb323235a2e5b", "type": "electric_scooter", "name": "66012108b11be362632eb323235a2e5b", "is_disabled": 0, "fusion_lon": 0.0, "rental_uris": {"android": "https://dc.lft.to/lastmile_qr_scan", "ios": "https://dc.lft.to/lastmile_qr_scan"}, "lat": 38.904017833333334, "lon": -77.035597, "fusion_lat": 0.0}, {"is_reserved": 0, "bike_id": "8e9fa9318bb8c4e299e7fab86cbf0971", "type": "electric_scooter", "name": "8e9fa9318bb8c4e299e7fab86cbf0971", "is_disabled": 0, "fusion_lon": 0.0, "rental_uris": {"android": "https://dc.lft.to/lastmile_qr_scan", "ios": "https://dc.lft.to/lastmile_qr_scan"}, "lat": 38.87400616666667, "lon": -77.0005295, "fusion_lat": 0.0}, {"is_reserved": 0, "bike_id": "9e5ee6ffe310846d03318fa45b502391", "type": "electric_scooter", "name": "9e5ee6ffe310846d03318fa45b502391", "is_disabled": 0, "fusion_lon": 0.0, "rental_uris": {"android": "https://dc.lft.to/lastmile_qr_scan", "ios": "https://dc.lft.to/lastmile_qr_scan"}, "lat": 38.9530065, "lon": -77.02907216666667, "fusion_lat": 0.0}, {"is_reserved": 0, "bike_id": "ca5cffaa75c8bfb34cdf93df8e910fda", "type": "electric_scooter", "name": "ca5cffaa75c8bfb34cdf93df8e910fda", "is_disabled": 0, "fusion_lon": 0.0, "rental_uris": {"android": "https://dc.lft.to/lastmile_qr_scan", "ios": "https://dc.lft.to/lastmile_qr_scan"}, "lat": 38.9680035, "lon": -77.024121, "fusion_lat": 0.0}, {"is_reserved": 0, "bike_id": "8d47ca93f7b76e5c328feed5c87bbf54", "type": "electric_scooter", "name": "8d47ca93f7b76e5c328feed5c87bbf54", "is_disabled": 0, "fusion_lon": 0.0, "rental_uris": {"android": "https://dc.lft.to/lastmile_qr_scan", "ios": "https://dc.lft.to/lastmile_qr_scan"}, "lat": 38.908495, "lon": -77.03299966666667, "fusion_lat": 0.0}, {"is_reserved": 0, "bike_id": "210dfb60b1ac32e6e0e018c386962390", "type": "electric_bike", "name": "210dfb60b1ac32e6e0e018c386962390", "is_disabled": 0, "fusion_lon": 0.0, "rental_uris": {"android": "https://dc.lft.to/lastmile_qr_scan", "ios": "https://dc.lft.to/lastmile_qr_scan"}, "lat": 38.924866333333334, "lon": -77.03200566666666, "fusion_lat": 0.0}, {"is_reserved": 0, "bike_id": "90ac36375d876e2ec3e655511bd37392", "type": "electric_scooter", "name": "90ac36375d876e2ec3e655511bd37392", "is_disabled": 0, "fusion_lon": 0.0, "rental_uris": {"android": "https://dc.lft.to/lastmile_qr_scan", "ios": "https://dc.lft.to/lastmile_qr_scan"}, "lat": 38.887277833333336, "lon": -76.98339566666667, "fusion_lat": 0.0}, {"is_reserved": 0, "bike_id": "706b2a518275349dc34b8719f8761666", "type": "electric_scooter", "name": "706b2a518275349dc34b8719f8761666", "is_disabled": 0, "fusion_lon": 0.0, "rental_uris": {"android": "https://dc.lft.to/lastmile_qr_scan", "ios": "https://dc.lft.to/lastmile_qr_scan"}, "lat": 38.9193245, "lon": -77.04491333333333, "fusion_lat": 0.0}, {"is_reserved": 0, "bike_id": "36b3aa51132229e6ff78e0ed87d7b68e", "type": "electric_scooter", "name": "36b3aa51132229e6ff78e0ed87d7b68e", "is_disabled": 0, "fusion_lon": 0.0, "rental_uris": {"android": "https://dc.lft.to/lastmile_qr_scan", "ios": "https://dc.lft.to/lastmile_qr_scan"}, "lat": 38.914066166666665, "lon": -77.010151, "fusion_lat": 0.0}, {"is_reserved": 0, "bike_id": "d0d8c48ede0df8f4acd47c69c8fe33ce", "type": "electric_scooter", "name": "d0d8c48ede0df8f4acd47c69c8fe33ce", "is_disabled": 0, "fusion_lon": 0.0, "rental_uris": {"android": "https://dc.lft.to/lastmile_qr_scan", "ios": "https://dc.lft.to/lastmile_qr_scan"}, "lat": 38.91058483333333, "lon": -77.05287783333333, "fusion_lat": 0.0}, {"is_reserved": 0, "bike_id": "6cf98f580364339138ce877c9e881155", "type": "electric_scooter", "name": "6cf98f580364339138ce877c9e881155", "is_disabled": 0, "fusion_lon": 0.0, "rental_uris": {"android": "https://dc.lft.to/lastmile_qr_scan", "ios": "https://dc.lft.to/lastmile_qr_scan"}, "lat": 38.92083916666667, "lon": -77.024727, "fusion_lat": 0.0}, {"is_reserved": 0, "bike_id": "0739d6b167ffa4a6386bd250e9a3c01b", "type": "electric_scooter", "name": "0739d6b167ffa4a6386bd250e9a3c01b", "is_disabled": 0, "fusion_lon": 0.0, "rental_uris": {"android": "https://dc.lft.to/lastmile_qr_scan", "ios": "https://dc.lft.to/lastmile_qr_scan"}, "lat": 38.91122816666667, "lon": -77.05029933333333, "fusion_lat": 0.0}, {"is_reserved": 0, "bike_id": "a6a8fa5c439f3285c4d3885fb3d23d37", "type": "electric_scooter", "name": "a6a8fa5c439f3285c4d3885fb3d23d37", "is_disabled": 0, "fusion_lon": 0.0, "rental_uris": {"android": "https://dc.lft.to/lastmile_qr_scan", "ios": "https://dc.lft.to/lastmile_qr_scan"}, "lat": 38.88532816666667, "lon": -76.99711, "fusion_lat": 0.0}, {"is_reserved": 0, "bike_id": "3751df164672b95dea6b7b515b41a695", "type": "electric_scooter", "name": "3751df164672b95dea6b7b515b41a695", "is_disabled": 0, "fusion_lon": 0.0, "rental_uris": {"android": "https://dc.lft.to/lastmile_qr_scan", "ios": "https://dc.lft.to/lastmile_qr_scan"}, "lat": 38.901897, "lon": -77.0433605, "fusion_lat": 0.0}, {"is_reserved": 0, "bike_id": "deb7ddf756455b272ecc8a1cb49b30e8", "type": "electric_scooter", "name": "deb7ddf756455b272ecc8a1cb49b30e8", "is_disabled": 0, "fusion_lon": 0.0, "rental_uris": {"android": "https://dc.lft.to/lastmile_qr_scan", "ios": "https://dc.lft.to/lastmile_qr_scan"}, "lat": 38.90984383333333, "lon": -77.06599783333333, "fusion_lat": 0.0}, {"is_reserved": 0, "bike_id": "13e592b158a3bf85ce2d50cfea7eeed5", "type": "electric_scooter", "name": "13e592b158a3bf85ce2d50cfea7eeed5", "is_disabled": 0, "fusion_lon": 0.0, "rental_uris": {"android": "https://dc.lft.to/lastmile_qr_scan", "ios": "https://dc.lft.to/lastmile_qr_scan"}, "lat": 38.889722, "lon": -77.04021083333333, "fusion_lat": 0.0}, {"is_reserved": 0, "bike_id": "7064a70eb8418a60985957cc44238bfe", "type": "electric_scooter", "name": "7064a70eb8418a60985957cc44238bfe", "is_disabled": 0, "fusion_lon": 0.0, "rental_uris": {"android": "https://dc.lft.to/lastmile_qr_scan", "ios": "https://dc.lft.to/lastmile_qr_scan"}, "lat": 38.91934883333333, "lon": -77.03419833333334, "fusion_lat": 0.0}, {"is_reserved": 0, "bike_id": "3dd410ab465175a2407ce79908f56074", "type": "electric_scooter", "name": "3dd410ab465175a2407ce79908f56074", "is_disabled": 0, "fusion_lon": 0.0, "rental_uris": {"android": "https://dc.lft.to/lastmile_qr_scan", "ios": "https://dc.lft.to/lastmile_qr_scan"}, "lat": 38.9034895, "lon": -76.92942233333333, "fusion_lat": 0.0}, {"is_reserved": 0, "bike_id": "293ed42428cdc9b486deecc566fd3696", "type": "electric_scooter", "name": "293ed42428cdc9b486deecc566fd3696", "is_disabled": 0, "fusion_lon": 0.0, "rental_uris": {"android": "https://dc.lft.to/lastmile_qr_scan", "ios": "https://dc.lft.to/lastmile_qr_scan"}, "lat": 38.92606416666667, "lon": -77.02157766666667, "fusion_lat": 0.0}, {"is_reserved": 0, "bike_id": "3257d0c9f383b695b5c6094f0e211d67", "type": "electric_scooter", "name": "3257d0c9f383b695b5c6094f0e211d67", "is_disabled": 0, "fusion_lon": 0.0, "rental_uris": {"android": "https://dc.lft.to/lastmile_qr_scan", "ios": "https://dc.lft.to/lastmile_qr_scan"}, "lat": 38.9176685, "lon": -77.04765266666666, "fusion_lat": 0.0}, {"is_reserved": 0, "bike_id": "4ff35fd43b8724b275561176b823c167", "type": "electric_scooter", "name": "4ff35fd43b8724b275561176b823c167", "is_disabled": 0, "fusion_lon": 0.0, "rental_uris": {"android": "https://dc.lft.to/lastmile_qr_scan", "ios": "https://dc.lft.to/lastmile_qr_scan"}, "lat": 38.912683, "lon": -77.03871616666666, "fusion_lat": 0.0}, {"is_reserved": 0, "bike_id": "a93282f418b70acda4e4150e3cf6a0bd", "type": "electric_scooter", "name": "a93282f418b70acda4e4150e3cf6a0bd", "is_disabled": 0, "fusion_lon": 0.0, "rental_uris": {"android": "https://dc.lft.to/lastmile_qr_scan", "ios": "https://dc.lft.to/lastmile_qr_scan"}, "lat": 38.88602733333333, "lon": -76.92504333333333, "fusion_lat": 0.0}, {"is_reserved": 0, "bike_id": "b7c866d3cbe46efdba6f19130a9c4d1c", "type": "electric_scooter", "name": "b7c866d3cbe46efdba6f19130a9c4d1c", "is_disabled": 0, "fusion_lon": 0.0, "rental_uris": {"android": "https://dc.lft.to/lastmile_qr_scan", "ios": "https://dc.lft.to/lastmile_qr_scan"}, "lat": 38.87288866666667, "lon": -77.01704033333333, "fusion_lat": 0.0}, {"is_reserved": 0, "bike_id": "26166b4bc022aedf547aa60942bdf075", "type": "electric_scooter", "name": "26166b4bc022aedf547aa60942bdf075", "is_disabled": 0, "fusion_lon": 0.0, "rental_uris": {"android": "https://dc.lft.to/lastmile_qr_scan", "ios": "https://dc.lft.to/lastmile_qr_scan"}, "lat": 38.87681833333333, "lon": -77.00065583333334, "fusion_lat": 0.0}, {"is_reserved": 0, "bike_id": "f1dcf5ebdafdc05ede8a50ae23248842", "type": "electric_scooter", "name": "f1dcf5ebdafdc05ede8a50ae23248842", "is_disabled": 0, "fusion_lon": 0.0, "rental_uris": {"android": "https://dc.lft.to/lastmile_qr_scan", "ios": "https://dc.lft.to/lastmile_qr_scan"}, "lat": 38.91604366666667, "lon": -77.0366375, "fusion_lat": 0.0}, {"is_reserved": 0, "bike_id": "5d7d29412799eb6c6b1cef0dfb20d38f", "type": "electric_scooter", "name": "5d7d29412799eb6c6b1cef0dfb20d38f", "is_disabled": 0, "fusion_lon": 0.0, "rental_uris": {"android": "https://dc.lft.to/lastmile_qr_scan", "ios": "https://dc.lft.to/lastmile_qr_scan"}, "lat": 38.95612166666667, "lon": -77.02761766666667, "fusion_lat": 0.0}, {"is_reserved": 0, "bike_id": "34f397df06d01d38fce58c302386bbc9", "type": "electric_scooter", "name": "34f397df06d01d38fce58c302386bbc9", "is_disabled": 0, "fusion_lon": 0.0, "rental_uris": {"android": "https://dc.lft.to/lastmile_qr_scan", "ios": "https://dc.lft.to/lastmile_qr_scan"}, "lat": 38.9241875, "lon": -77.035446, "fusion_lat": 0.0}, {"is_reserved": 0, "bike_id": "6ea0669b6ee06b30fd03153071d3abfb", "type": "electric_scooter", "name": "6ea0669b6ee06b30fd03153071d3abfb", "is_disabled": 0, "fusion_lon": 0.0, "rental_uris": {"android": "https://dc.lft.to/lastmile_qr_scan", "ios": "https://dc.lft.to/lastmile_qr_scan"}, "lat": 38.884896833333336, "lon": -76.9960885, "fusion_lat": 0.0}, {"is_reserved": 0, "bike_id": "5a08e99cf2c42f8c29fd3313146fe189", "type": "electric_scooter", "name": "5a08e99cf2c42f8c29fd3313146fe189", "is_disabled": 0, "fusion_lon": 0.0, "rental_uris": {"android": "https://dc.lft.to/lastmile_qr_scan", "ios": "https://dc.lft.to/lastmile_qr_scan"}, "lat": 38.897321, "lon": -77.0463955, "fusion_lat": 0.0}, {"is_reserved": 0, "bike_id": "c9e3677d21261c0821a8c0daf3d523e2", "type": "electric_scooter", "name": "c9e3677d21261c0821a8c0daf3d523e2", "is_disabled": 0, "fusion_lon": 0.0, "rental_uris": {"android": "https://dc.lft.to/lastmile_qr_scan", "ios": "https://dc.lft.to/lastmile_qr_scan"}, "lat": 38.88492133333333, "lon": -77.0195745, "fusion_lat": 0.0}, {"is_reserved": 0, "bike_id": "4f8932695b3d4909244f1d1fd279c229", "type": "electric_scooter", "name": "4f8932695b3d4909244f1d1fd279c229", "is_disabled": 0, "fusion_lon": 0.0, "rental_uris": {"android": "https://dc.lft.to/lastmile_qr_scan", "ios": "https://dc.lft.to/lastmile_qr_scan"}, "lat": 38.903888, "lon": -77.0312015, "fusion_lat": 0.0}, {"is_reserved": 0, "bike_id": "4cfd9ce41e621d21c97c92ea9a61d1ba", "type": "electric_scooter", "name": "4cfd9ce41e621d21c97c92ea9a61d1ba", "is_disabled": 0, "fusion_lon": 0.0, "rental_uris": {"android": "https://dc.lft.to/lastmile_qr_scan", "ios": "https://dc.lft.to/lastmile_qr_scan"}, "lat": 38.91115766666667, "lon": -77.0034235, "fusion_lat": 0.0}, {"is_reserved": 0, "bike_id": "4e3bd6acf0656fa26deb3eeb2800f038", "type": "electric_scooter", "name": "4e3bd6acf0656fa26deb3eeb2800f038", "is_disabled": 0, "fusion_lon": 0.0, "rental_uris": {"android": "https://dc.lft.to/lastmile_qr_scan", "ios": "https://dc.lft.to/lastmile_qr_scan"}, "lat": 38.88394866666667, "lon": -76.95449583333334, "fusion_lat": 0.0}, {"is_reserved": 0, "bike_id": "20432bb06b3a73345e6d7649784afe1f", "type": "electric_scooter", "name": "20432bb06b3a73345e6d7649784afe1f", "is_disabled": 0, "fusion_lon": 0.0, "rental_uris": {"android": "https://dc.lft.to/lastmile_qr_scan", "ios": "https://dc.lft.to/lastmile_qr_scan"}, "lat": 38.899472, "lon": -77.04494116666666, "fusion_lat": 0.0}, {"is_reserved": 0, "bike_id": "38056173489db851538895b50536d20c", "type": "electric_scooter", "name": "38056173489db851538895b50536d20c", "is_disabled": 0, "fusion_lon": 0.0, "rental_uris": {"android": "https://dc.lft.to/lastmile_qr_scan", "ios": "https://dc.lft.to/lastmile_qr_scan"}, "lat": 38.91675433333333, "lon": -77.02331633333333, "fusion_lat": 0.0}, {"is_reserved": 0, "bike_id": "a51b32a09ef902a542af0dd032843468", "type": "electric_scooter", "name": "a51b32a09ef902a542af0dd032843468", "is_disabled": 0, "fusion_lon": 0.0, "rental_uris": {"android": "https://dc.lft.to/lastmile_qr_scan", "ios": "https://dc.lft.to/lastmile_qr_scan"}, "lat": 38.91931016666667, "lon": -77.03423716666667, "fusion_lat": 0.0}, {"is_reserved": 0, "bike_id": "f9a57eca8a1a4ccd97f5b0cae27b2bc0", "type": "electric_scooter", "name": "f9a57eca8a1a4ccd97f5b0cae27b2bc0", "is_disabled": 0, "fusion_lon": 0.0, "rental_uris": {"android": "https://dc.lft.to/lastmile_qr_scan", "ios": "https://dc.lft.to/lastmile_qr_scan"}, "lat": 38.905093666666666, "lon": -77.029408, "fusion_lat": 0.0}, {"is_reserved": 0, "bike_id": "ccd53cff2dbf64448d8c6afeaab1b6dd", "type": "electric_scooter", "name": "ccd53cff2dbf64448d8c6afeaab1b6dd", "is_disabled": 0, "fusion_lon": 0.0, "rental_uris": {"android": "https://dc.lft.to/lastmile_qr_scan", "ios": "https://dc.lft.to/lastmile_qr_scan"}, "lat": 38.859712333333334, "lon": -76.98707716666667, "fusion_lat": 0.0}, {"is_reserved": 0, "bike_id": "21554307527ecbbfbbd4cda0ce59abd1", "type": "electric_scooter", "name": "21554307527ecbbfbbd4cda0ce59abd1", "is_disabled": 0, "fusion_lon": 0.0, "rental_uris": {"android": "https://dc.lft.to/lastmile_qr_scan", "ios": "https://dc.lft.to/lastmile_qr_scan"}, "lat": 38.919352333333336, "lon": -77.0449415, "fusion_lat": 0.0}, {"is_reserved": 0, "bike_id": "c6c28f432064528f9b71e3e8559fd4d5", "type": "electric_scooter", "name": "c6c28f432064528f9b71e3e8559fd4d5", "is_disabled": 0, "fusion_lon": 0.0, "rental_uris": {"android": "https://dc.lft.to/lastmile_qr_scan", "ios": "https://dc.lft.to/lastmile_qr_scan"}, "lat": 38.876621, "lon": -77.00294266666667, "fusion_lat": 0.0}, {"is_reserved": 0, "bike_id": "9f4af051a02dd5595fdb73c04f72b5da", "type": "electric_scooter", "name": "9f4af051a02dd5595fdb73c04f72b5da", "is_disabled": 0, "fusion_lon": 0.0, "rental_uris": {"android": "https://dc.lft.to/lastmile_qr_scan", "ios": "https://dc.lft.to/lastmile_qr_scan"}, "lat": 38.916403833333334, "lon": -77.00584383333333, "fusion_lat": 0.0}, {"is_reserved": 0, "bike_id": "090de7d9abe916504a5d9cad26a26a3f", "type": "electric_scooter", "name": "090de7d9abe916504a5d9cad26a26a3f", "is_disabled": 0, "fusion_lon": 0.0, "rental_uris": {"android": "https://dc.lft.to/lastmile_qr_scan", "ios": "https://dc.lft.to/lastmile_qr_scan"}, "lat": 38.91984216666667, "lon": -77.033512, "fusion_lat": 0.0}, {"is_reserved": 0, "bike_id": "2846e47a3c439bec24baebd5a64d4011", "type": "electric_scooter", "name": "2846e47a3c439bec24baebd5a64d4011", "is_disabled": 0, "fusion_lon": 0.0, "rental_uris": {"android": "https://dc.lft.to/lastmile_qr_scan", "ios": "https://dc.lft.to/lastmile_qr_scan"}, "lat": 38.91921216666667, "lon": -77.03115766666667, "fusion_lat": 0.0}, {"is_reserved": 0, "bike_id": "5c61485bd36af5e6877f87dfbc4c7668", "type": "electric_scooter", "name": "5c61485bd36af5e6877f87dfbc4c7668", "is_disabled": 0, "fusion_lon": 0.0, "rental_uris": {"android": "https://dc.lft.to/lastmile_qr_scan", "ios": "https://dc.lft.to/lastmile_qr_scan"}, "lat": 38.878532666666665, "lon": -77.00794866666666, "fusion_lat": 0.0}, {"is_reserved": 0, "bike_id": "0bfa7bdd729efd92eca748b1244887a1", "type": "electric_scooter", "name": "0bfa7bdd729efd92eca748b1244887a1", "is_disabled": 0, "fusion_lon": 0.0, "rental_uris": {"android": "https://dc.lft.to/lastmile_qr_scan", "ios": "https://dc.lft.to/lastmile_qr_scan"}, "lat": 38.890275333333335, "lon": -76.94461783333334, "fusion_lat": 0.0}, {"is_reserved": 0, "bike_id": "75ab790203b185a794f488df262d8b12", "type": "electric_scooter", "name": "75ab790203b185a794f488df262d8b12", "is_disabled": 0, "fusion_lon": 0.0, "rental_uris": {"android": "https://dc.lft.to/lastmile_qr_scan", "ios": "https://dc.lft.to/lastmile_qr_scan"}, "lat": 38.886006, "lon": -77.019862, "fusion_lat": 0.0}, {"is_reserved": 0, "bike_id": "7276118007b89cfe5e89ccf0257bfee0", "type": "electric_scooter", "name": "7276118007b89cfe5e89ccf0257bfee0", "is_disabled": 0, "fusion_lon": 0.0, "rental_uris": {"android": "https://dc.lft.to/lastmile_qr_scan", "ios": "https://dc.lft.to/lastmile_qr_scan"}, "lat": 38.900341833333336, "lon": -76.99868233333333, "fusion_lat": 0.0}, {"is_reserved": 0, "bike_id": "24f85f2a0b1beace454ea23eeb58325b", "type": "electric_scooter", "name": "24f85f2a0b1beace454ea23eeb58325b", "is_disabled": 0, "fusion_lon": 0.0, "rental_uris": {"android": "https://dc.lft.to/lastmile_qr_scan", "ios": "https://dc.lft.to/lastmile_qr_scan"}, "lat": 38.905627, "lon": -77.03451266666667, "fusion_lat": 0.0}, {"is_reserved": 0, "bike_id": "41376274d4d33c78eee7b295fc4ad7ba", "type": "electric_scooter", "name": "41376274d4d33c78eee7b295fc4ad7ba", "is_disabled": 0, "fusion_lon": 0.0, "rental_uris": {"android": "https://dc.lft.to/lastmile_qr_scan", "ios": "https://dc.lft.to/lastmile_qr_scan"}, "lat": 38.93934516666667, "lon": -77.02576416666666, "fusion_lat": 0.0}, {"is_reserved": 0, "bike_id": "ce35eef64506243e36838410fa89d625", "type": "electric_scooter", "name": "ce35eef64506243e36838410fa89d625", "is_disabled": 0, "fusion_lon": 0.0, "rental_uris": {"android": "https://dc.lft.to/lastmile_qr_scan", "ios": "https://dc.lft.to/lastmile_qr_scan"}, "lat": 38.9094805, "lon": -77.034537, "fusion_lat": 0.0}, {"is_reserved": 0, "bike_id": "b2091aa45ce029798e3012a6f42acb98", "type": "electric_scooter", "name": "b2091aa45ce029798e3012a6f42acb98", "is_disabled": 0, "fusion_lon": 0.0, "rental_uris": {"android": "https://dc.lft.to/lastmile_qr_scan", "ios": "https://dc.lft.to/lastmile_qr_scan"}, "lat": 38.900374666666664, "lon": -76.99867066666667, "fusion_lat": 0.0}, {"is_reserved": 0, "bike_id": "85447c957d991d9feca738291188a01d", "type": "electric_scooter", "name": "85447c957d991d9feca738291188a01d", "is_disabled": 0, "fusion_lon": 0.0, "rental_uris": {"android": "https://dc.lft.to/lastmile_qr_scan", "ios": "https://dc.lft.to/lastmile_qr_scan"}, "lat": 38.90983533333333, "lon": -77.0338975, "fusion_lat": 0.0}, {"is_reserved": 0, "bike_id": "9dcf23a555af70e15efce551984a5471", "type": "electric_scooter", "name": "9dcf23a555af70e15efce551984a5471", "is_disabled": 0, "fusion_lon": 0.0, "rental_uris": {"android": "https://dc.lft.to/lastmile_qr_scan", "ios": "https://dc.lft.to/lastmile_qr_scan"}, "lat": 38.917996, "lon": -77.02113616666666, "fusion_lat": 0.0}, {"is_reserved": 0, "bike_id": "fbc570daa777f49b2ea6b6bd2a1ac796", "type": "electric_scooter", "name": "fbc570daa777f49b2ea6b6bd2a1ac796", "is_disabled": 0, "fusion_lon": 0.0, "rental_uris": {"android": "https://dc.lft.to/lastmile_qr_scan", "ios": "https://dc.lft.to/lastmile_qr_scan"}, "lat": 38.90187266666667, "lon": -77.04818816666666, "fusion_lat": 0.0}, {"is_reserved": 0, "bike_id": "b2c22299feaff360ee0bd5c724055d75", "type": "electric_scooter", "name": "b2c22299feaff360ee0bd5c724055d75", "is_disabled": 0, "fusion_lon": 0.0, "rental_uris": {"android": "https://dc.lft.to/lastmile_qr_scan", "ios": "https://dc.lft.to/lastmile_qr_scan"}, "lat": 38.91448333333334, "lon": -77.0228925, "fusion_lat": 0.0}, {"is_reserved": 0, "bike_id": "4c9ff49e03240e88720fa2171fa84a70", "type": "electric_scooter", "name": "4c9ff49e03240e88720fa2171fa84a70", "is_disabled": 0, "fusion_lon": 0.0, "rental_uris": {"android": "https://dc.lft.to/lastmile_qr_scan", "ios": "https://dc.lft.to/lastmile_qr_scan"}, "lat": 38.88969983333333, "lon": -76.98032866666667, "fusion_lat": 0.0}, {"is_reserved": 0, "bike_id": "9681851d9f9f507be4d2fdd25bbea9d9", "type": "electric_scooter", "name": "9681851d9f9f507be4d2fdd25bbea9d9", "is_disabled": 0, "fusion_lon": 0.0, "rental_uris": {"android": "https://dc.lft.to/lastmile_qr_scan", "ios": "https://dc.lft.to/lastmile_qr_scan"}, "lat": 38.926687333333334, "lon": -77.022779, "fusion_lat": 0.0}, {"is_reserved": 0, "bike_id": "def46b881cf6b298afe7644cc5b450b7", "type": "electric_scooter", "name": "def46b881cf6b298afe7644cc5b450b7", "is_disabled": 0, "fusion_lon": 0.0, "rental_uris": {"android": "https://dc.lft.to/lastmile_qr_scan", "ios": "https://dc.lft.to/lastmile_qr_scan"}, "lat": 38.92935083333333, "lon": -77.01946716666667, "fusion_lat": 0.0}, {"is_reserved": 0, "bike_id": "8366984268384d026bd94a418993b69e", "type": "electric_scooter", "name": "8366984268384d026bd94a418993b69e", "is_disabled": 0, "fusion_lon": 0.0, "rental_uris": {"android": "https://dc.lft.to/lastmile_qr_scan", "ios": "https://dc.lft.to/lastmile_qr_scan"}, "lat": 38.91706833333333, "lon": -77.03999866666666, "fusion_lat": 0.0}, {"is_reserved": 0, "bike_id": "856043d2e794e921d5ca44045954ed2b", "type": "electric_bike", "name": "856043d2e794e921d5ca44045954ed2b", "is_disabled": 0, "fusion_lon": 0.0, "rental_uris": {"android": "https://dc.lft.to/lastmile_qr_scan", "ios": "https://dc.lft.to/lastmile_qr_scan"}, "lat": 38.95074233333333, "lon": -76.99599866666667, "fusion_lat": 0.0}, {"is_reserved": 0, "bike_id": "6dc64519f1d709a0d93ee37e4226c37b", "type": "electric_scooter", "name": "6dc64519f1d709a0d93ee37e4226c37b", "is_disabled": 0, "fusion_lon": 0.0, "rental_uris": {"android": "https://dc.lft.to/lastmile_qr_scan", "ios": "https://dc.lft.to/lastmile_qr_scan"}, "lat": 38.90645, "lon": -77.011388, "fusion_lat": 0.0}, {"is_reserved": 0, "bike_id": "59e7fdd182d69e049d58ab79fe0847d5", "type": "electric_scooter", "name": "59e7fdd182d69e049d58ab79fe0847d5", "is_disabled": 0, "fusion_lon": 0.0, "rental_uris": {"android": "https://dc.lft.to/lastmile_qr_scan", "ios": "https://dc.lft.to/lastmile_qr_scan"}, "lat": 38.920820166666665, "lon": -77.02460766666667, "fusion_lat": 0.0}, {"is_reserved": 0, "bike_id": "af3e78f4689a669580dc5beaac26e5c9", "type": "electric_scooter", "name": "af3e78f4689a669580dc5beaac26e5c9", "is_disabled": 0, "fusion_lon": 0.0, "rental_uris": {"android": "https://dc.lft.to/lastmile_qr_scan", "ios": "https://dc.lft.to/lastmile_qr_scan"}, "lat": 38.906387333333335, "lon": -77.0060015, "fusion_lat": 0.0}, {"is_reserved": 0, "bike_id": "d9482295e3e7984001715b9c6047a51d", "type": "electric_scooter", "name": "d9482295e3e7984001715b9c6047a51d", "is_disabled": 0, "fusion_lon": 0.0, "rental_uris": {"android": "https://dc.lft.to/lastmile_qr_scan", "ios": "https://dc.lft.to/lastmile_qr_scan"}, "lat": 38.908319666666664, "lon": -76.99450266666666, "fusion_lat": 0.0}, {"is_reserved": 0, "bike_id": "2565e69acb96e5f4de8cb55c9593a0b2", "type": "electric_scooter", "name": "2565e69acb96e5f4de8cb55c9593a0b2", "is_disabled": 0, "fusion_lon": 0.0, "rental_uris": {"android": "https://dc.lft.to/lastmile_qr_scan", "ios": "https://dc.lft.to/lastmile_qr_scan"}, "lat": 38.904141333333335, "lon": -77.06286583333333, "fusion_lat": 0.0}, {"is_reserved": 0, "bike_id": "0786029407ee1037498b68e02c8c9da0", "type": "electric_scooter", "name": "0786029407ee1037498b68e02c8c9da0", "is_disabled": 0, "fusion_lon": 0.0, "rental_uris": {"android": "https://dc.lft.to/lastmile_qr_scan", "ios": "https://dc.lft.to/lastmile_qr_scan"}, "lat": 38.887452833333334, "lon": -77.03146033333333, "fusion_lat": 0.0}, {"is_reserved": 0, "bike_id": "c0effad00fb5994b33aae557aa0155dd", "type": "electric_scooter", "name": "c0effad00fb5994b33aae557aa0155dd", "is_disabled": 0, "fusion_lon": 0.0, "rental_uris": {"android": "https://dc.lft.to/lastmile_qr_scan", "ios": "https://dc.lft.to/lastmile_qr_scan"}, "lat": 38.9245045, "lon": -77.03314716666667, "fusion_lat": 0.0}, {"is_reserved": 0, "bike_id": "a369d489b54f7545f0c8d86cfca0ebbe", "type": "electric_scooter", "name": "a369d489b54f7545f0c8d86cfca0ebbe", "is_disabled": 0, "fusion_lon": 0.0, "rental_uris": {"android": "https://dc.lft.to/lastmile_qr_scan", "ios": "https://dc.lft.to/lastmile_qr_scan"}, "lat": 38.90400916666667, "lon": -77.06846, "fusion_lat": 0.0}, {"is_reserved": 0, "bike_id": "49eeb8bad4a358f8963ef10b03d15632", "type": "electric_bike", "name": "49eeb8bad4a358f8963ef10b03d15632", "is_disabled": 0, "fusion_lon": 0.0, "rental_uris": {"android": "https://dc.lft.to/lastmile_qr_scan", "ios": "https://dc.lft.to/lastmile_qr_scan"}, "lat": 38.898150333333334, "lon": -76.99067633333334, "fusion_lat": 0.0}, {"is_reserved": 0, "bike_id": "641486dc23a66fb9d954276bc15953a4", "type": "electric_scooter", "name": "641486dc23a66fb9d954276bc15953a4", "is_disabled": 0, "fusion_lon": 0.0, "rental_uris": {"android": "https://dc.lft.to/lastmile_qr_scan", "ios": "https://dc.lft.to/lastmile_qr_scan"}, "lat": 38.912712666666664, "lon": -77.02225683333333, "fusion_lat": 0.0}, {"is_reserved": 0, "bike_id": "36e97cc83e9d21196b89d7cb45fb0531", "type": "electric_scooter", "name": "36e97cc83e9d21196b89d7cb45fb0531", "is_disabled": 0, "fusion_lon": 0.0, "rental_uris": {"android": "https://dc.lft.to/lastmile_qr_scan", "ios": "https://dc.lft.to/lastmile_qr_scan"}, "lat": 38.916467, "lon": -77.0288195, "fusion_lat": 0.0}, {"is_reserved": 0, "bike_id": "9054cf2edf160f046bfbe7a960ac00f1", "type": "electric_scooter", "name": "9054cf2edf160f046bfbe7a960ac00f1", "is_disabled": 0, "fusion_lon": 0.0, "rental_uris": {"android": "https://dc.lft.to/lastmile_qr_scan", "ios": "https://dc.lft.to/lastmile_qr_scan"}, "lat": 38.90648933333333, "lon": -77.03713883333333, "fusion_lat": 0.0}, {"is_reserved": 0, "bike_id": "94c45426de415561a41701d55b2a88b4", "type": "electric_scooter", "name": "94c45426de415561a41701d55b2a88b4", "is_disabled": 0, "fusion_lon": 0.0, "rental_uris": {"android": "https://dc.lft.to/lastmile_qr_scan", "ios": "https://dc.lft.to/lastmile_qr_scan"}, "lat": 38.92472216666667, "lon": -77.029966, "fusion_lat": 0.0}, {"is_reserved": 0, "bike_id": "23e5153ab9d95dbe79008e277b6b0f43", "type": "electric_scooter", "name": "23e5153ab9d95dbe79008e277b6b0f43", "is_disabled": 0, "fusion_lon": 0.0, "rental_uris": {"android": "https://dc.lft.to/lastmile_qr_scan", "ios": "https://dc.lft.to/lastmile_qr_scan"}, "lat": 38.9038615, "lon": -77.04213, "fusion_lat": 0.0}, {"is_reserved": 0, "bike_id": "ef4e7ccac764c52975d6aa2c25e8f73d", "type": "electric_bike", "name": "ef4e7ccac764c52975d6aa2c25e8f73d", "is_disabled": 0, "fusion_lon": 0.0, "rental_uris": {"android": "https://dc.lft.to/lastmile_qr_scan", "ios": "https://dc.lft.to/lastmile_qr_scan"}, "lat": 38.99233183333333, "lon": -77.065299, "fusion_lat": 0.0}, {"is_reserved": 0, "bike_id": "793e34ac7f94f06c52faab6124f62e2f", "type": "electric_scooter", "name": "793e34ac7f94f06c52faab6124f62e2f", "is_disabled": 0, "fusion_lon": 0.0, "rental_uris": {"android": "https://dc.lft.to/lastmile_qr_scan", "ios": "https://dc.lft.to/lastmile_qr_scan"}, "lat": 38.926006666666666, "lon": -77.02493716666666, "fusion_lat": 0.0}, {"is_reserved": 0, "bike_id": "79803cc524e251aacbeab16ee799cc13", "type": "electric_scooter", "name": "79803cc524e251aacbeab16ee799cc13", "is_disabled": 0, "fusion_lon": 0.0, "rental_uris": {"android": "https://dc.lft.to/lastmile_qr_scan", "ios": "https://dc.lft.to/lastmile_qr_scan"}, "lat": 38.906461666666665, "lon": -76.98570633333334, "fusion_lat": 0.0}, {"is_reserved": 0, "bike_id": "9b569b682d8f925d1b3a776e2d914a1a", "type": "electric_bike", "name": "9b569b682d8f925d1b3a776e2d914a1a", "is_disabled": 0, "fusion_lon": 0.0, "rental_uris": {"android": "https://dc.lft.to/lastmile_qr_scan", "ios": "https://dc.lft.to/lastmile_qr_scan"}, "lat": 38.9822255, "lon": -77.0964715, "fusion_lat": 0.0}, {"is_reserved": 0, "bike_id": "391d7957559fa79f965c4f9d125b4af5", "type": "electric_scooter", "name": "391d7957559fa79f965c4f9d125b4af5", "is_disabled": 0, "fusion_lon": 0.0, "rental_uris": {"android": "https://dc.lft.to/lastmile_qr_scan", "ios": "https://dc.lft.to/lastmile_qr_scan"}, "lat": 38.8843705, "lon": -76.99682033333333, "fusion_lat": 0.0}, {"is_reserved": 0, "bike_id": "64938eb4104038a15b06601022b4f477", "type": "electric_scooter", "name": "64938eb4104038a15b06601022b4f477", "is_disabled": 0, "fusion_lon": 0.0, "rental_uris": {"android": "https://dc.lft.to/lastmile_qr_scan", "ios": "https://dc.lft.to/lastmile_qr_scan"}, "lat": 38.94946683333333, "lon": -77.06644016666667, "fusion_lat": 0.0}, {"is_reserved": 0, "bike_id": "674f95f704863fa9100e489194c44c36", "type": "electric_bike", "name": "674f95f704863fa9100e489194c44c36", "is_disabled": 0, "fusion_lon": 0.0, "rental_uris": {"android": "https://dc.lft.to/lastmile_qr_scan", "ios": "https://dc.lft.to/lastmile_qr_scan"}, "lat": 38.93520483333333, "lon": -77.05418716666667, "fusion_lat": 0.0}, {"is_reserved": 0, "bike_id": "3d22f2975bbc5ad2de5cb1add6455743", "type": "electric_scooter", "name": "3d22f2975bbc5ad2de5cb1add6455743", "is_disabled": 0, "fusion_lon": 0.0, "rental_uris": {"android": "https://dc.lft.to/lastmile_qr_scan", "ios": "https://dc.lft.to/lastmile_qr_scan"}, "lat": 38.89739083333333, "lon": -77.02692, "fusion_lat": 0.0}, {"is_reserved": 0, "bike_id": "4f227428a1e590b3e3d06bdf14cac6a2", "type": "electric_scooter", "name": "4f227428a1e590b3e3d06bdf14cac6a2", "is_disabled": 0, "fusion_lon": 0.0, "rental_uris": {"android": "https://dc.lft.to/lastmile_qr_scan", "ios": "https://dc.lft.to/lastmile_qr_scan"}, "lat": 38.94280333333333, "lon": -77.0292905, "fusion_lat": 0.0}, {"is_reserved": 0, "bike_id": "cb5e5a8151ab04cceb47e506df1ae022", "type": "electric_scooter", "name": "cb5e5a8151ab04cceb47e506df1ae022", "is_disabled": 0, "fusion_lon": 0.0, "rental_uris": {"android": "https://dc.lft.to/lastmile_qr_scan", "ios": "https://dc.lft.to/lastmile_qr_scan"}, "lat": 38.92715066666667, "lon": -77.05988883333333, "fusion_lat": 0.0}, {"is_reserved": 0, "bike_id": "558aa2e1c91c5f6e9433cf9052092a33", "type": "electric_scooter", "name": "558aa2e1c91c5f6e9433cf9052092a33", "is_disabled": 0, "fusion_lon": 0.0, "rental_uris": {"android": "https://dc.lft.to/lastmile_qr_scan", "ios": "https://dc.lft.to/lastmile_qr_scan"}, "lat": 38.90121083333333, "lon": -77.01774183333333, "fusion_lat": 0.0}, {"is_reserved": 0, "bike_id": "0770b4e2553c04be615b28670207252a", "type": "electric_bike", "name": "0770b4e2553c04be615b28670207252a", "is_disabled": 0, "fusion_lon": 0.0, "rental_uris": {"android": "https://dc.lft.to/lastmile_qr_scan", "ios": "https://dc.lft.to/lastmile_qr_scan"}, "lat": 39.0037945, "lon": -77.01283366666667, "fusion_lat": 0.0}, {"is_reserved": 0, "bike_id": "4e38e5e60319f9cdbeee1a37461d4d3a", "type": "electric_scooter", "name": "4e38e5e60319f9cdbeee1a37461d4d3a", "is_disabled": 0, "fusion_lon": 0.0, "rental_uris": {"android": "https://dc.lft.to/lastmile_qr_scan", "ios": "https://dc.lft.to/lastmile_qr_scan"}, "lat": 38.944536666666664, "lon": -77.02334983333333, "fusion_lat": 0.0}, {"is_reserved": 0, "bike_id": "3abcbcca41fec23f6dd8488960e344f5", "type": "electric_scooter", "name": "3abcbcca41fec23f6dd8488960e344f5", "is_disabled": 0, "fusion_lon": 0.0, "rental_uris": {"android": "https://dc.lft.to/lastmile_qr_scan", "ios": "https://dc.lft.to/lastmile_qr_scan"}, "lat": 38.935432166666665, "lon": -77.0308965, "fusion_lat": 0.0}, {"is_reserved": 0, "bike_id": "1643b77e3f935f185433895f1f0ccb6e", "type": "electric_scooter", "name": "1643b77e3f935f185433895f1f0ccb6e", "is_disabled": 0, "fusion_lon": 0.0, "rental_uris": {"android": "https://dc.lft.to/lastmile_qr_scan", "ios": "https://dc.lft.to/lastmile_qr_scan"}, "lat": 38.92602316666667, "lon": -77.0215345, "fusion_lat": 0.0}, {"is_reserved": 0, "bike_id": "eb6051b14ed65cece6da6b17f39c8890", "type": "electric_scooter", "name": "eb6051b14ed65cece6da6b17f39c8890", "is_disabled": 0, "fusion_lon": 0.0, "rental_uris": {"android": "https://dc.lft.to/lastmile_qr_scan", "ios": "https://dc.lft.to/lastmile_qr_scan"}, "lat": 38.92659666666667, "lon": -77.02598133333333, "fusion_lat": 0.0}, {"is_reserved": 0, "bike_id": "11ea9ca09120c5b6bfb67cc73dcb4c2c", "type": "electric_scooter", "name": "11ea9ca09120c5b6bfb67cc73dcb4c2c", "is_disabled": 0, "fusion_lon": 0.0, "rental_uris": {"android": "https://dc.lft.to/lastmile_qr_scan", "ios": "https://dc.lft.to/lastmile_qr_scan"}, "lat": 38.90620066666666, "lon": -77.04135216666667, "fusion_lat": 0.0}, {"is_reserved": 0, "bike_id": "1885284e6e283e8e84f2a87ee7c730f7", "type": "electric_scooter", "name": "1885284e6e283e8e84f2a87ee7c730f7", "is_disabled": 0, "fusion_lon": 0.0, "rental_uris": {"android": "https://dc.lft.to/lastmile_qr_scan", "ios": "https://dc.lft.to/lastmile_qr_scan"}, "lat": 38.908919833333336, "lon": -77.00303733333334, "fusion_lat": 0.0}, {"is_reserved": 0, "bike_id": "4fed5aa4eb30e4c0f6bc0087510ef730", "type": "electric_scooter", "name": "4fed5aa4eb30e4c0f6bc0087510ef730", "is_disabled": 0, "fusion_lon": 0.0, "rental_uris": {"android": "https://dc.lft.to/lastmile_qr_scan", "ios": "https://dc.lft.to/lastmile_qr_scan"}, "lat": 38.91566483333333, "lon": -77.06798233333333, "fusion_lat": 0.0}, {"is_reserved": 0, "bike_id": "55da11408b6ea56ebf465b4a7e2f0bf2", "type": "electric_scooter", "name": "55da11408b6ea56ebf465b4a7e2f0bf2", "is_disabled": 0, "fusion_lon": 0.0, "rental_uris": {"android": "https://dc.lft.to/lastmile_qr_scan", "ios": "https://dc.lft.to/lastmile_qr_scan"}, "lat": 38.91670383333334, "lon": -77.03858333333334, "fusion_lat": 0.0}, {"is_reserved": 0, "bike_id": "df1fea7e512ee802747e297aca15d2eb", "type": "electric_scooter", "name": "df1fea7e512ee802747e297aca15d2eb", "is_disabled": 0, "fusion_lon": 0.0, "rental_uris": {"android": "https://dc.lft.to/lastmile_qr_scan", "ios": "https://dc.lft.to/lastmile_qr_scan"}, "lat": 38.911933833333336, "lon": -77.06083916666667, "fusion_lat": 0.0}, {"is_reserved": 0, "bike_id": "b38e826f40f67208dce8b3637ca2c7ec", "type": "electric_scooter", "name": "b38e826f40f67208dce8b3637ca2c7ec", "is_disabled": 0, "fusion_lon": 0.0, "rental_uris": {"android": "https://dc.lft.to/lastmile_qr_scan", "ios": "https://dc.lft.to/lastmile_qr_scan"}, "lat": 38.927268166666664, "lon": -77.02096366666666, "fusion_lat": 0.0}, {"is_reserved": 0, "bike_id": "8fae2cc9f94177af4f41e045bd2cf52d", "type": "electric_scooter", "name": "8fae2cc9f94177af4f41e045bd2cf52d", "is_disabled": 0, "fusion_lon": 0.0, "rental_uris": {"android": "https://dc.lft.to/lastmile_qr_scan", "ios": "https://dc.lft.to/lastmile_qr_scan"}, "lat": 38.934442, "lon": -77.03435833333333, "fusion_lat": 0.0}, {"is_reserved": 0, "bike_id": "6d7c0b95e853effd33d90de46c73c5f1", "type": "electric_scooter", "name": "6d7c0b95e853effd33d90de46c73c5f1", "is_disabled": 0, "fusion_lon": 0.0, "rental_uris": {"android": "https://dc.lft.to/lastmile_qr_scan", "ios": "https://dc.lft.to/lastmile_qr_scan"}, "lat": 38.913304, "lon": -77.04540183333333, "fusion_lat": 0.0}, {"is_reserved": 0, "bike_id": "07e7931613762081392df6283100cfa0", "type": "electric_scooter", "name": "07e7931613762081392df6283100cfa0", "is_disabled": 0, "fusion_lon": 0.0, "rental_uris": {"android": "https://dc.lft.to/lastmile_qr_scan", "ios": "https://dc.lft.to/lastmile_qr_scan"}, "lat": 38.93577366666667, "lon": -77.03351633333334, "fusion_lat": 0.0}, {"is_reserved": 0, "bike_id": "6d5c71af0646a93ccb70d2747d8eaa9d", "type": "electric_scooter", "name": "6d5c71af0646a93ccb70d2747d8eaa9d", "is_disabled": 0, "fusion_lon": 0.0, "rental_uris": {"android": "https://dc.lft.to/lastmile_qr_scan", "ios": "https://dc.lft.to/lastmile_qr_scan"}, "lat": 38.91564316666667, "lon": -77.04655616666666, "fusion_lat": 0.0}, {"is_reserved": 0, "bike_id": "61b0f52267bc864a65e438b1f44d3e72", "type": "electric_scooter", "name": "61b0f52267bc864a65e438b1f44d3e72", "is_disabled": 0, "fusion_lon": 0.0, "rental_uris": {"android": "https://dc.lft.to/lastmile_qr_scan", "ios": "https://dc.lft.to/lastmile_qr_scan"}, "lat": 38.923829166666664, "lon": -77.04423666666666, "fusion_lat": 0.0}, {"is_reserved": 0, "bike_id": "0910bcde9d8306781712051e11a12885", "type": "electric_scooter", "name": "0910bcde9d8306781712051e11a12885", "is_disabled": 0, "fusion_lon": 0.0, "rental_uris": {"android": "https://dc.lft.to/lastmile_qr_scan", "ios": "https://dc.lft.to/lastmile_qr_scan"}, "lat": 38.92701566666667, "lon": -77.02083033333334, "fusion_lat": 0.0}, {"is_reserved": 0, "bike_id": "65d0dc7fbfa2ebb8c0c3adae9c1298a7", "type": "electric_scooter", "name": "65d0dc7fbfa2ebb8c0c3adae9c1298a7", "is_disabled": 0, "fusion_lon": 0.0, "rental_uris": {"android": "https://dc.lft.to/lastmile_qr_scan", "ios": "https://dc.lft.to/lastmile_qr_scan"}, "lat": 38.88351933333333, "lon": -76.93628583333333, "fusion_lat": 0.0}, {"is_reserved": 0, "bike_id": "0cc308299d4ee240d0743407de7f2bf2", "type": "electric_scooter", "name": "0cc308299d4ee240d0743407de7f2bf2", "is_disabled": 0, "fusion_lon": 0.0, "rental_uris": {"android": "https://dc.lft.to/lastmile_qr_scan", "ios": "https://dc.lft.to/lastmile_qr_scan"}, "lat": 38.89864933333333, "lon": -77.03178583333333, "fusion_lat": 0.0}, {"is_reserved": 0, "bike_id": "06f52f4cc0ca5b7ec0c173ba4fbe8130", "type": "electric_scooter", "name": "06f52f4cc0ca5b7ec0c173ba4fbe8130", "is_disabled": 0, "fusion_lon": 0.0, "rental_uris": {"android": "https://dc.lft.to/lastmile_qr_scan", "ios": "https://dc.lft.to/lastmile_qr_scan"}, "lat": 38.89967633333333, "lon": -77.0161775, "fusion_lat": 0.0}, {"is_reserved": 0, "bike_id": "cf3ad50d9150f5b02fd1ae58aebbae68", "type": "electric_scooter", "name": "cf3ad50d9150f5b02fd1ae58aebbae68", "is_disabled": 0, "fusion_lon": 0.0, "rental_uris": {"android": "https://dc.lft.to/lastmile_qr_scan", "ios": "https://dc.lft.to/lastmile_qr_scan"}, "lat": 38.91985433333333, "lon": -77.07105716666666, "fusion_lat": 0.0}, {"is_reserved": 0, "bike_id": "4ae39b7c4bc0a37e8cee495ea8d22b7a", "type": "electric_scooter", "name": "4ae39b7c4bc0a37e8cee495ea8d22b7a", "is_disabled": 0, "fusion_lon": 0.0, "rental_uris": {"android": "https://dc.lft.to/lastmile_qr_scan", "ios": "https://dc.lft.to/lastmile_qr_scan"}, "lat": 38.914092, "lon": -77.032267, "fusion_lat": 0.0}, {"is_reserved": 0, "bike_id": "dfbcceaf485a92a3b69250aea41a9207", "type": "electric_scooter", "name": "dfbcceaf485a92a3b69250aea41a9207", "is_disabled": 0, "fusion_lon": 0.0, "rental_uris": {"android": "https://dc.lft.to/lastmile_qr_scan", "ios": "https://dc.lft.to/lastmile_qr_scan"}, "lat": 38.934316, "lon": -77.0400455, "fusion_lat": 0.0}, {"is_reserved": 0, "bike_id": "42ee5f4ba323eae76c9cd95df15590a8", "type": "electric_scooter", "name": "42ee5f4ba323eae76c9cd95df15590a8", "is_disabled": 0, "fusion_lon": 0.0, "rental_uris": {"android": "https://dc.lft.to/lastmile_qr_scan", "ios": "https://dc.lft.to/lastmile_qr_scan"}, "lat": 38.87440733333333, "lon": -77.00113233333333, "fusion_lat": 0.0}, {"is_reserved": 0, "bike_id": "58c0dc14193af5da074832557a7420f5", "type": "electric_bike", "name": "58c0dc14193af5da074832557a7420f5", "is_disabled": 0, "fusion_lon": 0.0, "rental_uris": {"android": "https://dc.lft.to/lastmile_qr_scan", "ios": "https://dc.lft.to/lastmile_qr_scan"}, "lat": 38.99100933333333, "lon": -76.99360266666666, "fusion_lat": 0.0}, {"is_reserved": 0, "bike_id": "d34203894c11035871630b45f3ed34d4", "type": "electric_scooter", "name": "d34203894c11035871630b45f3ed34d4", "is_disabled": 0, "fusion_lon": 0.0, "rental_uris": {"android": "https://dc.lft.to/lastmile_qr_scan", "ios": "https://dc.lft.to/lastmile_qr_scan"}, "lat": 38.92666, "lon": -77.0431135, "fusion_lat": 0.0}, {"is_reserved": 0, "bike_id": "63a562f76b2a2b6d015f1685e707fb2f", "type": "electric_scooter", "name": "63a562f76b2a2b6d015f1685e707fb2f", "is_disabled": 0, "fusion_lon": 0.0, "rental_uris": {"android": "https://dc.lft.to/lastmile_qr_scan", "ios": "https://dc.lft.to/lastmile_qr_scan"}, "lat": 38.923359166666664, "lon": -77.00889333333333, "fusion_lat": 0.0}, {"is_reserved": 0, "bike_id": "c70c4def55daf949ec53e80d61c61669", "type": "electric_scooter", "name": "c70c4def55daf949ec53e80d61c61669", "is_disabled": 0, "fusion_lon": 0.0, "rental_uris": {"android": "https://dc.lft.to/lastmile_qr_scan", "ios": "https://dc.lft.to/lastmile_qr_scan"}, "lat": 38.90655566666667, "lon": -77.02529233333334, "fusion_lat": 0.0}, {"is_reserved": 0, "bike_id": "9660a3a1e13bd04b76d10bfa98a95034", "type": "electric_scooter", "name": "9660a3a1e13bd04b76d10bfa98a95034", "is_disabled": 0, "fusion_lon": 0.0, "rental_uris": {"android": "https://dc.lft.to/lastmile_qr_scan", "ios": "https://dc.lft.to/lastmile_qr_scan"}, "lat": 38.93170116666667, "lon": -77.02830816666666, "fusion_lat": 0.0}, {"is_reserved": 0, "bike_id": "9dd6b704d67c0e013975e9bbfc7a011a", "type": "electric_scooter", "name": "9dd6b704d67c0e013975e9bbfc7a011a", "is_disabled": 0, "fusion_lon": 0.0, "rental_uris": {"android": "https://dc.lft.to/lastmile_qr_scan", "ios": "https://dc.lft.to/lastmile_qr_scan"}, "lat": 38.90038283333333, "lon": -77.0336755, "fusion_lat": 0.0}, {"is_reserved": 0, "bike_id": "6c39c54b0998e043aa93cb4c5b4a025b", "type": "electric_bike", "name": "6c39c54b0998e043aa93cb4c5b4a025b", "is_disabled": 0, "fusion_lon": 0.0, "rental_uris": {"android": "https://dc.lft.to/lastmile_qr_scan", "ios": "https://dc.lft.to/lastmile_qr_scan"}, "lat": 38.855877166666666, "lon": -76.97431883333333, "fusion_lat": 0.0}, {"is_reserved": 0, "bike_id": "442e015be236d426f9992884b1df9d99", "type": "electric_bike", "name": "442e015be236d426f9992884b1df9d99", "is_disabled": 0, "fusion_lon": 0.0, "rental_uris": {"android": "https://dc.lft.to/lastmile_qr_scan", "ios": "https://dc.lft.to/lastmile_qr_scan"}, "lat": 39.06223966666666, "lon": -77.12919233333334, "fusion_lat": 0.0}, {"is_reserved": 0, "bike_id": "d7aadfcc67b77f014eccf07a3defc622", "type": "electric_scooter", "name": "d7aadfcc67b77f014eccf07a3defc622", "is_disabled": 0, "fusion_lon": 0.0, "rental_uris": {"android": "https://dc.lft.to/lastmile_qr_scan", "ios": "https://dc.lft.to/lastmile_qr_scan"}, "lat": 38.920731833333335, "lon": -77.0230465, "fusion_lat": 0.0}, {"is_reserved": 0, "bike_id": "fe68f412dac64ea4d6484d7b61c7d140", "type": "electric_scooter", "name": "fe68f412dac64ea4d6484d7b61c7d140", "is_disabled": 0, "fusion_lon": 0.0, "rental_uris": {"android": "https://dc.lft.to/lastmile_qr_scan", "ios": "https://dc.lft.to/lastmile_qr_scan"}, "lat": 38.8996445, "lon": -77.04682966666667, "fusion_lat": 0.0}, {"is_reserved": 0, "bike_id": "009d3c24afd53839975145f83f066c9b", "type": "electric_scooter", "name": "009d3c24afd53839975145f83f066c9b", "is_disabled": 0, "fusion_lon": 0.0, "rental_uris": {"android": "https://dc.lft.to/lastmile_qr_scan", "ios": "https://dc.lft.to/lastmile_qr_scan"}, "lat": 38.92116566666667, "lon": -77.03933366666666, "fusion_lat": 0.0}, {"is_reserved": 0, "bike_id": "758be43a5bf1c07099cdfba38dd77f49", "type": "electric_scooter", "name": "758be43a5bf1c07099cdfba38dd77f49", "is_disabled": 0, "fusion_lon": 0.0, "rental_uris": {"android": "https://dc.lft.to/lastmile_qr_scan", "ios": "https://dc.lft.to/lastmile_qr_scan"}, "lat": 38.929133666666665, "lon": -77.0187125, "fusion_lat": 0.0}, {"is_reserved": 0, "bike_id": "f8742aba6fce5a751bd0ca0760a785ff", "type": "electric_scooter", "name": "f8742aba6fce5a751bd0ca0760a785ff", "is_disabled": 0, "fusion_lon": 0.0, "rental_uris": {"android": "https://dc.lft.to/lastmile_qr_scan", "ios": "https://dc.lft.to/lastmile_qr_scan"}, "lat": 38.8887085, "lon": -77.04008716666667, "fusion_lat": 0.0}, {"is_reserved": 0, "bike_id": "d03159e9decba917e7ff710d76108538", "type": "electric_scooter", "name": "d03159e9decba917e7ff710d76108538", "is_disabled": 0, "fusion_lon": 0.0, "rental_uris": {"android": "https://dc.lft.to/lastmile_qr_scan", "ios": "https://dc.lft.to/lastmile_qr_scan"}, "lat": 38.88679166666667, "lon": -77.01375966666667, "fusion_lat": 0.0}, {"is_reserved": 0, "bike_id": "697ccd8b51da1be4f61cce5e388f0b04", "type": "electric_scooter", "name": "697ccd8b51da1be4f61cce5e388f0b04", "is_disabled": 0, "fusion_lon": 0.0, "rental_uris": {"android": "https://dc.lft.to/lastmile_qr_scan", "ios": "https://dc.lft.to/lastmile_qr_scan"}, "lat": 38.92378133333333, "lon": -77.021244, "fusion_lat": 0.0}, {"is_reserved": 0, "bike_id": "df0467f8a3a2daed9bae0dcc321a8f16", "type": "electric_bike", "name": "df0467f8a3a2daed9bae0dcc321a8f16", "is_disabled": 0, "fusion_lon": 0.0, "rental_uris": {"android": "https://dc.lft.to/lastmile_qr_scan", "ios": "https://dc.lft.to/lastmile_qr_scan"}, "lat": 38.985552, "lon": -77.00395533333334, "fusion_lat": 0.0}, {"is_reserved": 0, "bike_id": "d717f237fde51b8ecfde5aa775fd1e45", "type": "electric_scooter", "name": "d717f237fde51b8ecfde5aa775fd1e45", "is_disabled": 0, "fusion_lon": 0.0, "rental_uris": {"android": "https://dc.lft.to/lastmile_qr_scan", "ios": "https://dc.lft.to/lastmile_qr_scan"}, "lat": 38.90612733333333, "lon": -77.00783583333333, "fusion_lat": 0.0}, {"is_reserved": 0, "bike_id": "92a69a212fc6be14854fb5e92c467f22", "type": "electric_scooter", "name": "92a69a212fc6be14854fb5e92c467f22", "is_disabled": 0, "fusion_lon": 0.0, "rental_uris": {"android": "https://dc.lft.to/lastmile_qr_scan", "ios": "https://dc.lft.to/lastmile_qr_scan"}, "lat": 38.91839183333333, "lon": -77.03441833333333, "fusion_lat": 0.0}, {"is_reserved": 0, "bike_id": "3fe53d04fa95795915b9b48d2a6db7e2", "type": "electric_scooter", "name": "3fe53d04fa95795915b9b48d2a6db7e2", "is_disabled": 0, "fusion_lon": 0.0, "rental_uris": {"android": "https://dc.lft.to/lastmile_qr_scan", "ios": "https://dc.lft.to/lastmile_qr_scan"}, "lat": 38.92577033333333, "lon": -77.02686383333334, "fusion_lat": 0.0}, {"is_reserved": 0, "bike_id": "7d25a92011477d84f69617859a915f02", "type": "electric_scooter", "name": "7d25a92011477d84f69617859a915f02", "is_disabled": 0, "fusion_lon": 0.0, "rental_uris": {"android": "https://dc.lft.to/lastmile_qr_scan", "ios": "https://dc.lft.to/lastmile_qr_scan"}, "lat": 38.9149, "lon": -77.02188433333333, "fusion_lat": 0.0}, {"is_reserved": 0, "bike_id": "642d7d35c302a4c44efeeac5082f5dc0", "type": "electric_scooter", "name": "642d7d35c302a4c44efeeac5082f5dc0", "is_disabled": 0, "fusion_lon": 0.0, "rental_uris": {"android": "https://dc.lft.to/lastmile_qr_scan", "ios": "https://dc.lft.to/lastmile_qr_scan"}, "lat": 38.9198705, "lon": -77.0379255, "fusion_lat": 0.0}, {"is_reserved": 0, "bike_id": "08dd5c9e3460f064633a20f1f8257e58", "type": "electric_scooter", "name": "08dd5c9e3460f064633a20f1f8257e58", "is_disabled": 0, "fusion_lon": 0.0, "rental_uris": {"android": "https://dc.lft.to/lastmile_qr_scan", "ios": "https://dc.lft.to/lastmile_qr_scan"}, "lat": 38.896353, "lon": -76.92960183333334, "fusion_lat": 0.0}, {"is_reserved": 0, "bike_id": "717d014fc1b10c376ed920e4f75659f2", "type": "electric_bike", "name": "717d014fc1b10c376ed920e4f75659f2", "is_disabled": 0, "fusion_lon": 0.0, "rental_uris": {"android": "https://dc.lft.to/lastmile_qr_scan", "ios": "https://dc.lft.to/lastmile_qr_scan"}, "lat": 38.86585516666667, "lon": -77.12938383333334, "fusion_lat": 0.0}, {"is_reserved": 0, "bike_id": "76dc1034a2631669fb62fe9371323e13", "type": "electric_scooter", "name": "76dc1034a2631669fb62fe9371323e13", "is_disabled": 0, "fusion_lon": 0.0, "rental_uris": {"android": "https://dc.lft.to/lastmile_qr_scan", "ios": "https://dc.lft.to/lastmile_qr_scan"}, "lat": 38.9170965, "lon": -77.0040815, "fusion_lat": 0.0}, {"is_reserved": 0, "bike_id": "a5ea390e40c0f81804a5e4a08a9c5a6c", "type": "electric_scooter", "name": "a5ea390e40c0f81804a5e4a08a9c5a6c", "is_disabled": 0, "fusion_lon": 0.0, "rental_uris": {"android": "https://dc.lft.to/lastmile_qr_scan", "ios": "https://dc.lft.to/lastmile_qr_scan"}, "lat": 38.9296165, "lon": -77.03289283333334, "fusion_lat": 0.0}, {"is_reserved": 0, "bike_id": "97a068e2531d6b94036b7cbf87682065", "type": "electric_scooter", "name": "97a068e2531d6b94036b7cbf87682065", "is_disabled": 0, "fusion_lon": 0.0, "rental_uris": {"android": "https://dc.lft.to/lastmile_qr_scan", "ios": "https://dc.lft.to/lastmile_qr_scan"}, "lat": 38.91865966666667, "lon": -77.03658883333334, "fusion_lat": 0.0}, {"is_reserved": 0, "bike_id": "1bfdc61d6ffe001d7c55e338b4051f02", "type": "electric_scooter", "name": "1bfdc61d6ffe001d7c55e338b4051f02", "is_disabled": 0, "fusion_lon": 0.0, "rental_uris": {"android": "https://dc.lft.to/lastmile_qr_scan", "ios": "https://dc.lft.to/lastmile_qr_scan"}, "lat": 38.92962166666667, "lon": -77.0278285, "fusion_lat": 0.0}, {"is_reserved": 0, "bike_id": "4341e1efed9df79de1fbce16e981ee3b", "type": "electric_scooter", "name": "4341e1efed9df79de1fbce16e981ee3b", "is_disabled": 0, "fusion_lon": 0.0, "rental_uris": {"android": "https://dc.lft.to/lastmile_qr_scan", "ios": "https://dc.lft.to/lastmile_qr_scan"}, "lat": 38.90352166666667, "lon": -76.9860855, "fusion_lat": 0.0}, {"is_reserved": 0, "bike_id": "7167fb716ec6005c1020f9bbc6f19382", "type": "electric_scooter", "name": "7167fb716ec6005c1020f9bbc6f19382", "is_disabled": 0, "fusion_lon": 0.0, "rental_uris": {"android": "https://dc.lft.to/lastmile_qr_scan", "ios": "https://dc.lft.to/lastmile_qr_scan"}, "lat": 38.900313, "lon": -77.02273116666667, "fusion_lat": 0.0}, {"is_reserved": 0, "bike_id": "dddff8d1c69b74df73bb30df33e992ab", "type": "electric_bike", "name": "dddff8d1c69b74df73bb30df33e992ab", "is_disabled": 0, "fusion_lon": 0.0, "rental_uris": {"android": "https://dc.lft.to/lastmile_qr_scan", "ios": "https://dc.lft.to/lastmile_qr_scan"}, "lat": 38.90976533333333, "lon": -77.0882035, "fusion_lat": 0.0}, {"is_reserved": 0, "bike_id": "d52aa8afe9fa50205d5a7f7a4f5cd90e", "type": "electric_scooter", "name": "d52aa8afe9fa50205d5a7f7a4f5cd90e", "is_disabled": 0, "fusion_lon": 0.0, "rental_uris": {"android": "https://dc.lft.to/lastmile_qr_scan", "ios": "https://dc.lft.to/lastmile_qr_scan"}, "lat": 38.9099255, "lon": -77.00916716666667, "fusion_lat": 0.0}, {"is_reserved": 0, "bike_id": "da72227521d7d0c9fe631d1f5cdd947a", "type": "electric_scooter", "name": "da72227521d7d0c9fe631d1f5cdd947a", "is_disabled": 0, "fusion_lon": 0.0, "rental_uris": {"android": "https://dc.lft.to/lastmile_qr_scan", "ios": "https://dc.lft.to/lastmile_qr_scan"}, "lat": 38.93589083333333, "lon": -77.033497, "fusion_lat": 0.0}, {"is_reserved": 0, "bike_id": "557781a9976e2dc1b45ca27e547586d1", "type": "electric_scooter", "name": "557781a9976e2dc1b45ca27e547586d1", "is_disabled": 0, "fusion_lon": 0.0, "rental_uris": {"android": "https://dc.lft.to/lastmile_qr_scan", "ios": "https://dc.lft.to/lastmile_qr_scan"}, "lat": 38.92247616666667, "lon": -77.0307405, "fusion_lat": 0.0}, {"is_reserved": 0, "bike_id": "2643f9384ba1745c237b50f6d9eefc69", "type": "electric_scooter", "name": "2643f9384ba1745c237b50f6d9eefc69", "is_disabled": 0, "fusion_lon": 0.0, "rental_uris": {"android": "https://dc.lft.to/lastmile_qr_scan", "ios": "https://dc.lft.to/lastmile_qr_scan"}, "lat": 38.92654016666667, "lon": -77.0371015, "fusion_lat": 0.0}, {"is_reserved": 0, "bike_id": "f1e91af086ea8d8e3ee71ee23bcd02a5", "type": "electric_bike", "name": "f1e91af086ea8d8e3ee71ee23bcd02a5", "is_disabled": 0, "fusion_lon": 0.0, "rental_uris": {"android": "https://dc.lft.to/lastmile_qr_scan", "ios": "https://dc.lft.to/lastmile_qr_scan"}, "lat": 38.831415166666666, "lon": -77.113169, "fusion_lat": 0.0}, {"is_reserved": 0, "bike_id": "6782ca4e6e42b1011fc97e54fc0c8afd", "type": "electric_scooter", "name": "6782ca4e6e42b1011fc97e54fc0c8afd", "is_disabled": 0, "fusion_lon": 0.0, "rental_uris": {"android": "https://dc.lft.to/lastmile_qr_scan", "ios": "https://dc.lft.to/lastmile_qr_scan"}, "lat": 38.89897083333334, "lon": -77.039331, "fusion_lat": 0.0}, {"is_reserved": 0, "bike_id": "5e8eb15085b050c2de581d78ea3d5e85", "type": "electric_scooter", "name": "5e8eb15085b050c2de581d78ea3d5e85", "is_disabled": 0, "fusion_lon": 0.0, "rental_uris": {"android": "https://dc.lft.to/lastmile_qr_scan", "ios": "https://dc.lft.to/lastmile_qr_scan"}, "lat": 38.93812533333333, "lon": -77.0266995, "fusion_lat": 0.0}, {"is_reserved": 0, "bike_id": "63532657edd54bcd8d27b028c7977c8b", "type": "electric_scooter", "name": "63532657edd54bcd8d27b028c7977c8b", "is_disabled": 0, "fusion_lon": 0.0, "rental_uris": {"android": "https://dc.lft.to/lastmile_qr_scan", "ios": "https://dc.lft.to/lastmile_qr_scan"}, "lat": 38.9219825, "lon": -77.03516383333333, "fusion_lat": 0.0}, {"is_reserved": 0, "bike_id": "c489f72819333521c8b548f0bad00733", "type": "electric_scooter", "name": "c489f72819333521c8b548f0bad00733", "is_disabled": 0, "fusion_lon": 0.0, "rental_uris": {"android": "https://dc.lft.to/lastmile_qr_scan", "ios": "https://dc.lft.to/lastmile_qr_scan"}, "lat": 38.910485666666666, "lon": -77.03438266666667, "fusion_lat": 0.0}, {"is_reserved": 0, "bike_id": "8ff596e1d65f901cfc7e9c1599c89376", "type": "electric_scooter", "name": "8ff596e1d65f901cfc7e9c1599c89376", "is_disabled": 0, "fusion_lon": 0.0, "rental_uris": {"android": "https://dc.lft.to/lastmile_qr_scan", "ios": "https://dc.lft.to/lastmile_qr_scan"}, "lat": 38.886403333333334, "lon": -77.0009605, "fusion_lat": 0.0}, {"is_reserved": 0, "bike_id": "d17b299e880cad06d8978eb1fae8e4f8", "type": "electric_scooter", "name": "d17b299e880cad06d8978eb1fae8e4f8", "is_disabled": 0, "fusion_lon": 0.0, "rental_uris": {"android": "https://dc.lft.to/lastmile_qr_scan", "ios": "https://dc.lft.to/lastmile_qr_scan"}, "lat": 38.92159916666667, "lon": -77.03378683333334, "fusion_lat": 0.0}, {"is_reserved": 0, "bike_id": "b1b93f2a0c72045d47ae9eb8341ec315", "type": "electric_bike", "name": "b1b93f2a0c72045d47ae9eb8341ec315", "is_disabled": 0, "fusion_lon": 0.0, "rental_uris": {"android": "https://dc.lft.to/lastmile_qr_scan", "ios": "https://dc.lft.to/lastmile_qr_scan"}, "lat": 38.83833883333333, "lon": -77.07917966666666, "fusion_lat": 0.0}, {"is_reserved": 0, "bike_id": "c0b812d700e63b6c4cc99d5c7754c18b", "type": "electric_scooter", "name": "c0b812d700e63b6c4cc99d5c7754c18b", "is_disabled": 0, "fusion_lon": 0.0, "rental_uris": {"android": "https://dc.lft.to/lastmile_qr_scan", "ios": "https://dc.lft.to/lastmile_qr_scan"}, "lat": 38.92088016666666, "lon": -77.02236566666667, "fusion_lat": 0.0}, {"is_reserved": 0, "bike_id": "bbe1ff4491acfdf4b7f00c6394dd2e12", "type": "electric_bike", "name": "bbe1ff4491acfdf4b7f00c6394dd2e12", "is_disabled": 0, "fusion_lon": 0.0, "rental_uris": {"android": "https://dc.lft.to/lastmile_qr_scan", "ios": "https://dc.lft.to/lastmile_qr_scan"}, "lat": 38.92895866666667, "lon": -77.2317755, "fusion_lat": 0.0}, {"is_reserved": 0, "bike_id": "187e5e478ab6f8a000b5714e4d974cf6", "type": "electric_scooter", "name": "187e5e478ab6f8a000b5714e4d974cf6", "is_disabled": 0, "fusion_lon": 0.0, "rental_uris": {"android": "https://dc.lft.to/lastmile_qr_scan", "ios": "https://dc.lft.to/lastmile_qr_scan"}, "lat": 38.958147, "lon": -77.0144895, "fusion_lat": 0.0}, {"is_reserved": 0, "bike_id": "35116ac7db309ea160798356ae852173", "type": "electric_scooter", "name": "35116ac7db309ea160798356ae852173", "is_disabled": 0, "fusion_lon": 0.0, "rental_uris": {"android": "https://dc.lft.to/lastmile_qr_scan", "ios": "https://dc.lft.to/lastmile_qr_scan"}, "lat": 38.93534183333333, "lon": -77.023481, "fusion_lat": 0.0}, {"is_reserved": 0, "bike_id": "14827c75641fec74d6151e2204fb4036", "type": "electric_scooter", "name": "14827c75641fec74d6151e2204fb4036", "is_disabled": 0, "fusion_lon": 0.0, "rental_uris": {"android": "https://dc.lft.to/lastmile_qr_scan", "ios": "https://dc.lft.to/lastmile_qr_scan"}, "lat": 38.901319, "lon": -77.04348583333334, "fusion_lat": 0.0}, {"is_reserved": 0, "bike_id": "5ca03cd83fb03b3a34617e45cbc327a0", "type": "electric_scooter", "name": "5ca03cd83fb03b3a34617e45cbc327a0", "is_disabled": 0, "fusion_lon": 0.0, "rental_uris": {"android": "https://dc.lft.to/lastmile_qr_scan", "ios": "https://dc.lft.to/lastmile_qr_scan"}, "lat": 38.895052, "lon": -76.99257166666666, "fusion_lat": 0.0}, {"is_reserved": 0, "bike_id": "87622b9fd95292b41debb598e7a366f6", "type": "electric_bike", "name": "87622b9fd95292b41debb598e7a366f6", "is_disabled": 0, "fusion_lon": 0.0, "rental_uris": {"android": "https://dc.lft.to/lastmile_qr_scan", "ios": "https://dc.lft.to/lastmile_qr_scan"}, "lat": 38.964755, "lon": -77.03563816666667, "fusion_lat": 0.0}, {"is_reserved": 0, "bike_id": "f7646a6e18f7277b42091080e26523dd", "type": "electric_bike", "name": "f7646a6e18f7277b42091080e26523dd", "is_disabled": 0, "fusion_lon": 0.0, "rental_uris": {"android": "https://dc.lft.to/lastmile_qr_scan", "ios": "https://dc.lft.to/lastmile_qr_scan"}, "lat": 38.997842, "lon": -77.00760916666667, "fusion_lat": 0.0}, {"is_reserved": 0, "bike_id": "67f8fdfe069659ac1242e9893e298110", "type": "electric_scooter", "name": "67f8fdfe069659ac1242e9893e298110", "is_disabled": 0, "fusion_lon": 0.0, "rental_uris": {"android": "https://dc.lft.to/lastmile_qr_scan", "ios": "https://dc.lft.to/lastmile_qr_scan"}, "lat": 38.91404283333333, "lon": -77.028956, "fusion_lat": 0.0}, {"is_reserved": 0, "bike_id": "7180041db61477f469816ac368f0d793", "type": "electric_bike", "name": "7180041db61477f469816ac368f0d793", "is_disabled": 0, "fusion_lon": 0.0, "rental_uris": {"android": "https://dc.lft.to/lastmile_qr_scan", "ios": "https://dc.lft.to/lastmile_qr_scan"}, "lat": 38.961301, "lon": -77.03275783333333, "fusion_lat": 0.0}, {"is_reserved": 0, "bike_id": "b7b8eb763ff64c39f3b32a02510db779", "type": "electric_bike", "name": "b7b8eb763ff64c39f3b32a02510db779", "is_disabled": 0, "fusion_lon": 0.0, "rental_uris": {"android": "https://dc.lft.to/lastmile_qr_scan", "ios": "https://dc.lft.to/lastmile_qr_scan"}, "lat": 38.952467, "lon": -77.09622066666667, "fusion_lat": 0.0}, {"is_reserved": 0, "bike_id": "973ee935d8f0ee9617cbee71e6affb43", "type": "electric_bike", "name": "973ee935d8f0ee9617cbee71e6affb43", "is_disabled": 0, "fusion_lon": 0.0, "rental_uris": {"android": "https://dc.lft.to/lastmile_qr_scan", "ios": "https://dc.lft.to/lastmile_qr_scan"}, "lat": 38.9174855, "lon": -77.0076165, "fusion_lat": 0.0}, {"is_reserved": 0, "bike_id": "6d119ba061e6481172a62fbfabe0a1a7", "type": "electric_scooter", "name": "6d119ba061e6481172a62fbfabe0a1a7", "is_disabled": 0, "fusion_lon": 0.0, "rental_uris": {"android": "https://dc.lft.to/lastmile_qr_scan", "ios": "https://dc.lft.to/lastmile_qr_scan"}, "lat": 38.876334166666666, "lon": -77.0010985, "fusion_lat": 0.0}, {"is_reserved": 0, "bike_id": "e418e535c90e8e906d89047f92d12358", "type": "electric_scooter", "name": "e418e535c90e8e906d89047f92d12358", "is_disabled": 0, "fusion_lon": 0.0, "rental_uris": {"android": "https://dc.lft.to/lastmile_qr_scan", "ios": "https://dc.lft.to/lastmile_qr_scan"}, "lat": 38.90290816666667, "lon": -77.0231185, "fusion_lat": 0.0}, {"is_reserved": 0, "bike_id": "227083767c8382588673bec4ef45904f", "type": "electric_scooter", "name": "227083767c8382588673bec4ef45904f", "is_disabled": 0, "fusion_lon": 0.0, "rental_uris": {"android": "https://dc.lft.to/lastmile_qr_scan", "ios": "https://dc.lft.to/lastmile_qr_scan"}, "lat": 38.89205316666666, "lon": -76.9569915, "fusion_lat": 0.0}, {"is_reserved": 0, "bike_id": "7feef49a6c870aa3c3e53f3f2fb03b3f", "type": "electric_scooter", "name": "7feef49a6c870aa3c3e53f3f2fb03b3f", "is_disabled": 0, "fusion_lon": 0.0, "rental_uris": {"android": "https://dc.lft.to/lastmile_qr_scan", "ios": "https://dc.lft.to/lastmile_qr_scan"}, "lat": 38.9609335, "lon": -77.0733485, "fusion_lat": 0.0}, {"is_reserved": 0, "bike_id": "fbd6f327a5a1e0dca66f4bfd400540e6", "type": "electric_scooter", "name": "fbd6f327a5a1e0dca66f4bfd400540e6", "is_disabled": 0, "fusion_lon": 0.0, "rental_uris": {"android": "https://dc.lft.to/lastmile_qr_scan", "ios": "https://dc.lft.to/lastmile_qr_scan"}, "lat": 38.926261833333335, "lon": -77.03306433333333, "fusion_lat": 0.0}, {"is_reserved": 0, "bike_id": "c8ade0292a0025ae7b8407b035264d17", "type": "electric_bike", "name": "c8ade0292a0025ae7b8407b035264d17", "is_disabled": 0, "fusion_lon": 0.0, "rental_uris": {"android": "https://dc.lft.to/lastmile_qr_scan", "ios": "https://dc.lft.to/lastmile_qr_scan"}, "lat": 38.995023333333336, "lon": -77.0013555, "fusion_lat": 0.0}, {"is_reserved": 0, "bike_id": "177bddfde1b919fd2c2944bdd251dd5c", "type": "electric_scooter", "name": "177bddfde1b919fd2c2944bdd251dd5c", "is_disabled": 0, "fusion_lon": 0.0, "rental_uris": {"android": "https://dc.lft.to/lastmile_qr_scan", "ios": "https://dc.lft.to/lastmile_qr_scan"}, "lat": 38.9069945, "lon": -77.02981483333333, "fusion_lat": 0.0}, {"is_reserved": 0, "bike_id": "1120ba5204d90936abfad007b7804a5f", "type": "electric_scooter", "name": "1120ba5204d90936abfad007b7804a5f", "is_disabled": 0, "fusion_lon": 0.0, "rental_uris": {"android": "https://dc.lft.to/lastmile_qr_scan", "ios": "https://dc.lft.to/lastmile_qr_scan"}, "lat": 38.92347683333333, "lon": -77.05180616666667, "fusion_lat": 0.0}, {"is_reserved": 0, "bike_id": "cf6492b9a52f83b6e10ef0292519fb55", "type": "electric_scooter", "name": "cf6492b9a52f83b6e10ef0292519fb55", "is_disabled": 0, "fusion_lon": 0.0, "rental_uris": {"android": "https://dc.lft.to/lastmile_qr_scan", "ios": "https://dc.lft.to/lastmile_qr_scan"}, "lat": 38.94195883333333, "lon": -77.03098383333334, "fusion_lat": 0.0}, {"is_reserved": 0, "bike_id": "b4b00a6376c0169edc7660b12b0c54e6", "type": "electric_scooter", "name": "b4b00a6376c0169edc7660b12b0c54e6", "is_disabled": 0, "fusion_lon": 0.0, "rental_uris": {"android": "https://dc.lft.to/lastmile_qr_scan", "ios": "https://dc.lft.to/lastmile_qr_scan"}, "lat": 38.91673516666667, "lon": -77.03662016666667, "fusion_lat": 0.0}, {"is_reserved": 0, "bike_id": "e9a93e8a935e4b0ad68af9033c7bc610", "type": "electric_scooter", "name": "e9a93e8a935e4b0ad68af9033c7bc610", "is_disabled": 0, "fusion_lon": 0.0, "rental_uris": {"android": "https://dc.lft.to/lastmile_qr_scan", "ios": "https://dc.lft.to/lastmile_qr_scan"}, "lat": 38.9362545, "lon": -77.0327985, "fusion_lat": 0.0}, {"is_reserved": 0, "bike_id": "0254a65922d42a2038f2ba7cd5d7e37f", "type": "electric_scooter", "name": "0254a65922d42a2038f2ba7cd5d7e37f", "is_disabled": 0, "fusion_lon": 0.0, "rental_uris": {"android": "https://dc.lft.to/lastmile_qr_scan", "ios": "https://dc.lft.to/lastmile_qr_scan"}, "lat": 38.89725133333334, "lon": -76.98357583333333, "fusion_lat": 0.0}, {"is_reserved": 0, "bike_id": "8da2ab3d54724d476ac38238bfd634ec", "type": "electric_bike", "name": "8da2ab3d54724d476ac38238bfd634ec", "is_disabled": 0, "fusion_lon": 0.0, "rental_uris": {"android": "https://dc.lft.to/lastmile_qr_scan", "ios": "https://dc.lft.to/lastmile_qr_scan"}, "lat": 38.90695733333333, "lon": -76.9525205, "fusion_lat": 0.0}, {"is_reserved": 0, "bike_id": "1a01e1f0eaf1d7ff84b0f5b5b099cb6e", "type": "electric_scooter", "name": "1a01e1f0eaf1d7ff84b0f5b5b099cb6e", "is_disabled": 0, "fusion_lon": 0.0, "rental_uris": {"android": "https://dc.lft.to/lastmile_qr_scan", "ios": "https://dc.lft.to/lastmile_qr_scan"}, "lat": 38.876347333333335, "lon": -77.00954233333333, "fusion_lat": 0.0}, {"is_reserved": 0, "bike_id": "2520f4d991fb14c7e9f2b4b0be82fd13", "type": "electric_scooter", "name": "2520f4d991fb14c7e9f2b4b0be82fd13", "is_disabled": 0, "fusion_lon": 0.0, "rental_uris": {"android": "https://dc.lft.to/lastmile_qr_scan", "ios": "https://dc.lft.to/lastmile_qr_scan"}, "lat": 38.90145616666667, "lon": -77.05915066666667, "fusion_lat": 0.0}, {"is_reserved": 0, "bike_id": "d1d98d082385a544fe8ab6a75bcf72a4", "type": "electric_scooter", "name": "d1d98d082385a544fe8ab6a75bcf72a4", "is_disabled": 0, "fusion_lon": 0.0, "rental_uris": {"android": "https://dc.lft.to/lastmile_qr_scan", "ios": "https://dc.lft.to/lastmile_qr_scan"}, "lat": 38.9147695, "lon": -77.045451, "fusion_lat": 0.0}, {"is_reserved": 0, "bike_id": "e0c35d11d0442386e78354953afb4e9e", "type": "electric_scooter", "name": "e0c35d11d0442386e78354953afb4e9e", "is_disabled": 0, "fusion_lon": 0.0, "rental_uris": {"android": "https://dc.lft.to/lastmile_qr_scan", "ios": "https://dc.lft.to/lastmile_qr_scan"}, "lat": 38.881220666666664, "lon": -76.99340283333333, "fusion_lat": 0.0}, {"is_reserved": 0, "bike_id": "bf1b30d13f8cb3c27ef7214e5d15f8fc", "type": "electric_scooter", "name": "bf1b30d13f8cb3c27ef7214e5d15f8fc", "is_disabled": 0, "fusion_lon": 0.0, "rental_uris": {"android": "https://dc.lft.to/lastmile_qr_scan", "ios": "https://dc.lft.to/lastmile_qr_scan"}, "lat": 38.898489, "lon": -77.013781, "fusion_lat": 0.0}, {"is_reserved": 0, "bike_id": "0471d1adbf8f4ee18c205227f52a09a5", "type": "electric_scooter", "name": "0471d1adbf8f4ee18c205227f52a09a5", "is_disabled": 0, "fusion_lon": 0.0, "rental_uris": {"android": "https://dc.lft.to/lastmile_qr_scan", "ios": "https://dc.lft.to/lastmile_qr_scan"}, "lat": 38.91199533333333, "lon": -77.00728033333333, "fusion_lat": 0.0}, {"is_reserved": 0, "bike_id": "b72c650b774e6f542e94daf52fdb34a8", "type": "electric_scooter", "name": "b72c650b774e6f542e94daf52fdb34a8", "is_disabled": 0, "fusion_lon": 0.0, "rental_uris": {"android": "https://dc.lft.to/lastmile_qr_scan", "ios": "https://dc.lft.to/lastmile_qr_scan"}, "lat": 38.923652833333335, "lon": -77.03400466666666, "fusion_lat": 0.0}, {"is_reserved": 0, "bike_id": "18dff5dbf61917949d0a82d3c4660c15", "type": "electric_scooter", "name": "18dff5dbf61917949d0a82d3c4660c15", "is_disabled": 0, "fusion_lon": 0.0, "rental_uris": {"android": "https://dc.lft.to/lastmile_qr_scan", "ios": "https://dc.lft.to/lastmile_qr_scan"}, "lat": 38.922349833333335, "lon": -77.03363583333334, "fusion_lat": 0.0}, {"is_reserved": 0, "bike_id": "84bce079d959f354eb5ad5c1cbd82b38", "type": "electric_scooter", "name": "84bce079d959f354eb5ad5c1cbd82b38", "is_disabled": 0, "fusion_lon": 0.0, "rental_uris": {"android": "https://dc.lft.to/lastmile_qr_scan", "ios": "https://dc.lft.to/lastmile_qr_scan"}, "lat": 38.893581833333336, "lon": -77.003345, "fusion_lat": 0.0}, {"is_reserved": 0, "bike_id": "9c553e39d42eb168f45e1de1b2b0aef9", "type": "electric_scooter", "name": "9c553e39d42eb168f45e1de1b2b0aef9", "is_disabled": 0, "fusion_lon": 0.0, "rental_uris": {"android": "https://dc.lft.to/lastmile_qr_scan", "ios": "https://dc.lft.to/lastmile_qr_scan"}, "lat": 38.909989, "lon": -77.04010516666666, "fusion_lat": 0.0}, {"is_reserved": 0, "bike_id": "f7c17acb940dd8f6cffde1c13fa852dd", "type": "electric_scooter", "name": "f7c17acb940dd8f6cffde1c13fa852dd", "is_disabled": 0, "fusion_lon": 0.0, "rental_uris": {"android": "https://dc.lft.to/lastmile_qr_scan", "ios": "https://dc.lft.to/lastmile_qr_scan"}, "lat": 38.918756, "lon": -77.04201016666667, "fusion_lat": 0.0}, {"is_reserved": 0, "bike_id": "07150e2a5ebfdf670b8e1839c4c616bc", "type": "electric_scooter", "name": "07150e2a5ebfdf670b8e1839c4c616bc", "is_disabled": 0, "fusion_lon": 0.0, "rental_uris": {"android": "https://dc.lft.to/lastmile_qr_scan", "ios": "https://dc.lft.to/lastmile_qr_scan"}, "lat": 38.895527, "lon": -77.00918466666667, "fusion_lat": 0.0}, {"is_reserved": 0, "bike_id": "86659c4fdc7b3dbca2bb32db7b277304", "type": "electric_scooter", "name": "86659c4fdc7b3dbca2bb32db7b277304", "is_disabled": 0, "fusion_lon": 0.0, "rental_uris": {"android": "https://dc.lft.to/lastmile_qr_scan", "ios": "https://dc.lft.to/lastmile_qr_scan"}, "lat": 38.923285, "lon": -77.0196005, "fusion_lat": 0.0}, {"is_reserved": 0, "bike_id": "ef0cc5888cefaa4ed834928624e8e678", "type": "electric_scooter", "name": "ef0cc5888cefaa4ed834928624e8e678", "is_disabled": 0, "fusion_lon": 0.0, "rental_uris": {"android": "https://dc.lft.to/lastmile_qr_scan", "ios": "https://dc.lft.to/lastmile_qr_scan"}, "lat": 38.926967166666664, "lon": -77.02575133333333, "fusion_lat": 0.0}, {"is_reserved": 0, "bike_id": "d5ee49378b4df68d21b1185b43e15ac2", "type": "electric_scooter", "name": "d5ee49378b4df68d21b1185b43e15ac2", "is_disabled": 0, "fusion_lon": 0.0, "rental_uris": {"android": "https://dc.lft.to/lastmile_qr_scan", "ios": "https://dc.lft.to/lastmile_qr_scan"}, "lat": 38.915481666666665, "lon": -77.02201166666667, "fusion_lat": 0.0}, {"is_reserved": 0, "bike_id": "c70d6cdb92361ba8b839278ba6dbcb46", "type": "electric_scooter", "name": "c70d6cdb92361ba8b839278ba6dbcb46", "is_disabled": 0, "fusion_lon": 0.0, "rental_uris": {"android": "https://dc.lft.to/lastmile_qr_scan", "ios": "https://dc.lft.to/lastmile_qr_scan"}, "lat": 38.914170666666664, "lon": -77.0223355, "fusion_lat": 0.0}, {"is_reserved": 0, "bike_id": "62954988f5ddfaadcc4fcfa44cc60fb8", "type": "electric_bike", "name": "62954988f5ddfaadcc4fcfa44cc60fb8", "is_disabled": 0, "fusion_lon": 0.0, "rental_uris": {"android": "https://dc.lft.to/lastmile_qr_scan", "ios": "https://dc.lft.to/lastmile_qr_scan"}, "lat": 38.92066783333333, "lon": -77.03063566666667, "fusion_lat": 0.0}, {"is_reserved": 0, "bike_id": "f2bbe549fa2aa142bdcffcee4559ac18", "type": "electric_scooter", "name": "f2bbe549fa2aa142bdcffcee4559ac18", "is_disabled": 0, "fusion_lon": 0.0, "rental_uris": {"android": "https://dc.lft.to/lastmile_qr_scan", "ios": "https://dc.lft.to/lastmile_qr_scan"}, "lat": 38.927192166666664, "lon": -77.0208705, "fusion_lat": 0.0}, {"is_reserved": 0, "bike_id": "d2af2620bf743ad213bb4a6937b71b2d", "type": "electric_scooter", "name": "d2af2620bf743ad213bb4a6937b71b2d", "is_disabled": 0, "fusion_lon": 0.0, "rental_uris": {"android": "https://dc.lft.to/lastmile_qr_scan", "ios": "https://dc.lft.to/lastmile_qr_scan"}, "lat": 38.914064, "lon": -77.0180325, "fusion_lat": 0.0}, {"is_reserved": 0, "bike_id": "14622b6b377e10c0facddb402c6db011", "type": "electric_scooter", "name": "14622b6b377e10c0facddb402c6db011", "is_disabled": 0, "fusion_lon": 0.0, "rental_uris": {"android": "https://dc.lft.to/lastmile_qr_scan", "ios": "https://dc.lft.to/lastmile_qr_scan"}, "lat": 38.8874075, "lon": -77.01505683333333, "fusion_lat": 0.0}, {"is_reserved": 0, "bike_id": "4159880878aa1ce4e9a97464ee7f4976", "type": "electric_bike", "name": "4159880878aa1ce4e9a97464ee7f4976", "is_disabled": 0, "fusion_lon": 0.0, "rental_uris": {"android": "https://dc.lft.to/lastmile_qr_scan", "ios": "https://dc.lft.to/lastmile_qr_scan"}, "lat": 38.9501535, "lon": -77.01559983333334, "fusion_lat": 0.0}, {"is_reserved": 0, "bike_id": "93b74bfc684d35e8e54fcc51ea1c0c21", "type": "electric_scooter", "name": "93b74bfc684d35e8e54fcc51ea1c0c21", "is_disabled": 0, "fusion_lon": 0.0, "rental_uris": {"android": "https://dc.lft.to/lastmile_qr_scan", "ios": "https://dc.lft.to/lastmile_qr_scan"}, "lat": 38.919178333333335, "lon": -77.03173966666667, "fusion_lat": 0.0}, {"is_reserved": 0, "bike_id": "43e680423ee438411365af12dc043faf", "type": "electric_scooter", "name": "43e680423ee438411365af12dc043faf", "is_disabled": 0, "fusion_lon": 0.0, "rental_uris": {"android": "https://dc.lft.to/lastmile_qr_scan", "ios": "https://dc.lft.to/lastmile_qr_scan"}, "lat": 38.87707133333333, "lon": -77.00309866666667, "fusion_lat": 0.0}, {"is_reserved": 0, "bike_id": "570c6d52b5b97118899270f4765a8f62", "type": "electric_scooter", "name": "570c6d52b5b97118899270f4765a8f62", "is_disabled": 0, "fusion_lon": 0.0, "rental_uris": {"android": "https://dc.lft.to/lastmile_qr_scan", "ios": "https://dc.lft.to/lastmile_qr_scan"}, "lat": 38.90557666666667, "lon": -77.00728733333334, "fusion_lat": 0.0}, {"is_reserved": 0, "bike_id": "f92686d866465fb2e93e92610e9ba1cb", "type": "electric_bike", "name": "f92686d866465fb2e93e92610e9ba1cb", "is_disabled": 0, "fusion_lon": 0.0, "rental_uris": {"android": "https://dc.lft.to/lastmile_qr_scan", "ios": "https://dc.lft.to/lastmile_qr_scan"}, "lat": 38.83591083333334, "lon": -76.99018066666666, "fusion_lat": 0.0}, {"is_reserved": 0, "bike_id": "d76ed5bebce8b0d55227fd126c3363d6", "type": "electric_scooter", "name": "d76ed5bebce8b0d55227fd126c3363d6", "is_disabled": 0, "fusion_lon": 0.0, "rental_uris": {"android": "https://dc.lft.to/lastmile_qr_scan", "ios": "https://dc.lft.to/lastmile_qr_scan"}, "lat": 38.930866333333334, "lon": -77.00198366666666, "fusion_lat": 0.0}, {"is_reserved": 0, "bike_id": "480dc745c6e03f3247be32576ab1519e", "type": "electric_scooter", "name": "480dc745c6e03f3247be32576ab1519e", "is_disabled": 0, "fusion_lon": 0.0, "rental_uris": {"android": "https://dc.lft.to/lastmile_qr_scan", "ios": "https://dc.lft.to/lastmile_qr_scan"}, "lat": 38.97000516666667, "lon": -77.02552183333333, "fusion_lat": 0.0}, {"is_reserved": 0, "bike_id": "52d516bf7385ca9ca28a61778dc454de", "type": "electric_scooter", "name": "52d516bf7385ca9ca28a61778dc454de", "is_disabled": 0, "fusion_lon": 0.0, "rental_uris": {"android": "https://dc.lft.to/lastmile_qr_scan", "ios": "https://dc.lft.to/lastmile_qr_scan"}, "lat": 38.902854166666664, "lon": -77.01629733333333, "fusion_lat": 0.0}, {"is_reserved": 0, "bike_id": "41cdc482d83c5e7b50c4a060b05c97cd", "type": "electric_scooter", "name": "41cdc482d83c5e7b50c4a060b05c97cd", "is_disabled": 0, "fusion_lon": 0.0, "rental_uris": {"android": "https://dc.lft.to/lastmile_qr_scan", "ios": "https://dc.lft.to/lastmile_qr_scan"}, "lat": 38.93081683333333, "lon": -77.0349505, "fusion_lat": 0.0}, {"is_reserved": 0, "bike_id": "848f878ea95868ab3f9b666e4921eda1", "type": "electric_bike", "name": "848f878ea95868ab3f9b666e4921eda1", "is_disabled": 0, "fusion_lon": 0.0, "rental_uris": {"android": "https://dc.lft.to/lastmile_qr_scan", "ios": "https://dc.lft.to/lastmile_qr_scan"}, "lat": 38.867576, "lon": -76.94536, "fusion_lat": 0.0}, {"is_reserved": 0, "bike_id": "e22ec875be18c92a4a1db923c371d627", "type": "electric_scooter", "name": "e22ec875be18c92a4a1db923c371d627", "is_disabled": 0, "fusion_lon": 0.0, "rental_uris": {"android": "https://dc.lft.to/lastmile_qr_scan", "ios": "https://dc.lft.to/lastmile_qr_scan"}, "lat": 38.92333983333333, "lon": -77.05391566666667, "fusion_lat": 0.0}, {"is_reserved": 0, "bike_id": "ea5a5424c4fbac3235634d4005e6c139", "type": "electric_scooter", "name": "ea5a5424c4fbac3235634d4005e6c139", "is_disabled": 0, "fusion_lon": 0.0, "rental_uris": {"android": "https://dc.lft.to/lastmile_qr_scan", "ios": "https://dc.lft.to/lastmile_qr_scan"}, "lat": 38.893593333333335, "lon": -77.00288866666666, "fusion_lat": 0.0}, {"is_reserved": 0, "bike_id": "8165902f110e434416e55c8c8d02d721", "type": "electric_scooter", "name": "8165902f110e434416e55c8c8d02d721", "is_disabled": 0, "fusion_lon": 0.0, "rental_uris": {"android": "https://dc.lft.to/lastmile_qr_scan", "ios": "https://dc.lft.to/lastmile_qr_scan"}, "lat": 38.90074, "lon": -77.013221, "fusion_lat": 0.0}, {"is_reserved": 0, "bike_id": "29b8ec1e0c3e378c018d8953ef6889bf", "type": "electric_scooter", "name": "29b8ec1e0c3e378c018d8953ef6889bf", "is_disabled": 0, "fusion_lon": 0.0, "rental_uris": {"android": "https://dc.lft.to/lastmile_qr_scan", "ios": "https://dc.lft.to/lastmile_qr_scan"}, "lat": 38.9211405, "lon": -77.03156466666667, "fusion_lat": 0.0},