{"data": {"bikes": [{"rental_uris": {"ios": "https://dc.lft.to/lastmile_qr_scan", "android": "https://dc.lft.to/lastmile_qr_scan"}, "fusion_lon": 0.0, "type": "electric_scooter", "is_reserved": 0, "lon": -77.03243983333333, "is_disabled": 0, "fusion_lat": 0.0, "bike_id": "d05be1eed69e1a04664d46449b7e826d", "name": "d05be1eed69e1a04664d46449b7e826d", "lat": 38.928640333333334}, {"rental_uris": {"ios": "https://dc.lft.to/lastmile_qr_scan", "android": "https://dc.lft.to/lastmile_qr_scan"}, "fusion_lon": 0.0, "type": "electric_scooter", "is_reserved": 0, "lon": -77.0071235, "is_disabled": 0, "fusion_lat": 0.0, "bike_id": "c797397085e9e7ef87225dec27a0590e", "name": "c797397085e9e7ef87225dec27a0590e", "lat": 38.88492083333333}, {"rental_uris": {"ios": "https://dc.lft.to/lastmile_qr_scan", "android": "https://dc.lft.to/lastmile_qr_scan"}, "fusion_lon": 0.0, "type": "electric_scooter", "is_reserved": 0, "lon": -77.00136283333333, "is_disabled": 0, "fusion_lat": 0.0, "bike_id": "99d7453dd0d64087a4749f4bebfffb11", "name": "99d7453dd0d64087a4749f4bebfffb11", "lat": 38.90011783333333}, {"rental_uris": {"ios": "https://dc.lft.to/lastmile_qr_scan", "android": "https://dc.lft.to/lastmile_qr_scan"}, "fusion_lon": 0.0, "type": "electric_scooter", "is_reserved": 0, "lon": -77.039039, "is_disabled": 0, "fusion_lat": 0.0, "bike_id": "cb47dc524dbf42f6fb37d4f2aa32b285", "name": "cb47dc524dbf42f6fb37d4f2aa32b285", "lat": 38.90250483333333}, {"rental_uris": {"ios": "https://dc.lft.to/lastmile_qr_scan", "android": "https://dc.lft.to/lastmile_qr_scan"}, "fusion_lon": 0.0, "type": "electric_scooter", "is_reserved": 0, "lon": -77.03335833333334, "is_disabled": 0, "fusion_lat": 0.0, "bike_id": "8af47411da1b7320554b4d0e305abfcc", "name": "8af47411da1b7320554b4d0e305abfcc", "lat": 38.901324333333335}, {"rental_uris": {"ios": "https://dc.lft.to/lastmile_qr_scan", "android": "https://dc.lft.to/lastmile_qr_scan"}, "fusion_lon": 0.0, "type": "electric_scooter", "is_reserved": 0, "lon": -77.07461983333333, "is_disabled": 0, "fusion_lat": 0.0, "bike_id": "ecb5765ddcb28c988e6ef444edf4732f", "name": "ecb5765ddcb28c988e6ef444edf4732f", "lat": 38.906420833333335}, {"rental_uris": {"ios": "https://dc.lft.to/lastmile_qr_scan", "android": "https://dc.lft.to/lastmile_qr_scan"}, "fusion_lon": 0.0, "type": "electric_scooter", "is_reserved": 0, "lon": -77.02687633333333, "is_disabled": 0, "fusion_lat": 0.0, "bike_id": "b715f56536b251b8043fa3186a8236f8", "name": "b715f56536b251b8043fa3186a8236f8", "lat": 38.90237333333334}, {"rental_uris": {"ios": "https://dc.lft.to/lastmile_qr_scan", "android": "https://dc.lft.to/lastmile_qr_scan"}, "fusion_lon": 0.0, "type": "electric_scooter", "is_reserved": 0, "lon": -77.01572416666667, "is_disabled": 0, "fusion_lat": 0.0, "bike_id": "da002757e593140353d874950a7ec30d", "name": "da002757e593140353d874950a7ec30d", "lat": 38.87468233333333}, {"rental_uris": {"ios": "https://dc.lft.to/lastmile_qr_scan", "android": "https://dc.lft.to/lastmile_qr_scan"}, "fusion_lon": 0.0, "type": "electric_scooter", "is_reserved": 0, "lon": -77.0400925, "is_disabled": 0, "fusion_lat": 0.0, "bike_id": "1bc3f13da83007067a974bb712e706be", "name": "1bc3f13da83007067a974bb712e706be", "lat": 38.90381683333333}, {"rental_uris": {"ios": "https://dc.lft.to/lastmile_qr_scan", "android": "https://dc.lft.to/lastmile_qr_scan"}, "fusion_lon": 0.0, "type": "electric_scooter", "is_reserved": 0, "lon": -77.01994, "is_disabled": 0, "fusion_lat": 0.0, "bike_id": "bb64ec6a9049be3f5bf7ad61e309e1db", "name": "bb64ec6a9049be3f5bf7ad61e309e1db", "lat": 38.93647333333333}, {"rental_uris": {"ios": "https://dc.lft.to/lastmile_qr_scan", "android": "https://dc.lft.to/lastmile_qr_scan"}, "fusion_lon": 0.0, "type": "electric_scooter", "is_reserved": 0, "lon": -77.030456, "is_disabled": 0, "fusion_lat": 0.0, "bike_id": "3aa92f72bd4a9f537f103444ad8eb5bb", "name": "3aa92f72bd4a9f537f103444ad8eb5bb", "lat": 38.8974175}, {"rental_uris": {"ios": "https://dc.lft.to/lastmile_qr_scan", "android": "https://dc.lft.to/lastmile_qr_scan"}, "fusion_lon": 0.0, "type": "electric_scooter", "is_reserved": 0, "lon": -77.03634833333334, "is_disabled": 0, "fusion_lat": 0.0, "bike_id": "2ec0ecf06bef418f96be5c4ca6b50e34", "name": "2ec0ecf06bef418f96be5c4ca6b50e34", "lat": 38.929491166666665}, {"rental_uris": {"ios": "https://dc.lft.to/lastmile_qr_scan", "android": "https://dc.lft.to/lastmile_qr_scan"}, "fusion_lon": 0.0, "type": "electric_scooter", "is_reserved": 0, "lon": -77.05233583333333, "is_disabled": 0, "fusion_lat": 0.0, "bike_id": "78ecc865e5d0cc52f627f340c1f68973", "name": "78ecc865e5d0cc52f627f340c1f68973", "lat": 38.92466616666667}, {"rental_uris": {"ios": "https://dc.lft.to/lastmile_qr_scan", "android": "https://dc.lft.to/lastmile_qr_scan"}, "fusion_lon": 0.0, "type": "electric_scooter", "is_reserved": 0, "lon": -77.0221875, "is_disabled": 0, "fusion_lat": 0.0, "bike_id": "387315f8be3fb3f7946a4a60ed1e83b1", "name": "387315f8be3fb3f7946a4a60ed1e83b1", "lat": 38.924724166666664}, {"rental_uris": {"ios": "https://dc.lft.to/lastmile_qr_scan", "android": "https://dc.lft.to/lastmile_qr_scan"}, "fusion_lon": 0.0, "type": "electric_scooter", "is_reserved": 0, "lon": -77.0031485, "is_disabled": 0, "fusion_lat": 0.0, "bike_id": "9d381aabe7193c226f3f0e03ff0fbbc9", "name": "9d381aabe7193c226f3f0e03ff0fbbc9", "lat": 38.88739533333333}, {"rental_uris": {"ios": "https://dc.lft.to/lastmile_qr_scan", "android": "https://dc.lft.to/lastmile_qr_scan"}, "fusion_lon": 0.0, "type": "electric_scooter", "is_reserved": 0, "lon": -77.02474983333333, "is_disabled": 0, "fusion_lat": 0.0, "bike_id": "96c8a923f9a07e7e48ae2cc6c49993d2", "name": "96c8a923f9a07e7e48ae2cc6c49993d2", "lat": 38.931001}, {"rental_uris": {"ios": "https://dc.lft.to/lastmile_qr_scan", "android": "https://dc.lft.to/lastmile_qr_scan"}, "fusion_lon": 0.0, "type": "electric_bike", "is_reserved": 0, "lon": -77.01963016666667, "is_disabled": 0, "fusion_lat": 0.0, "bike_id": "3e098dd924767c9a2f8f908a1b70436f", "name": "3e098dd924767c9a2f8f908a1b70436f", "lat": 39.025184}, {"rental_uris": {"ios": "https://dc.lft.to/lastmile_qr_scan", "android": "https://dc.lft.to/lastmile_qr_scan"}, "fusion_lon": 0.0, "type": "electric_scooter", "is_reserved": 0, "lon": -77.04483483333334, "is_disabled": 0, "fusion_lat": 0.0, "bike_id": "f83d52bd45cff028eb3019832a5df21f", "name": "f83d52bd45cff028eb3019832a5df21f", "lat": 38.91163683333333}, {"rental_uris": {"ios": "https://dc.lft.to/lastmile_qr_scan", "android": "https://dc.lft.to/lastmile_qr_scan"}, "fusion_lon": 0.0, "type": "electric_scooter", "is_reserved": 0, "lon": -77.04206166666667, "is_disabled": 0, "fusion_lat": 0.0, "bike_id": "c8f370e2afa11728effc1a9dc2a5d52a", "name": "c8f370e2afa11728effc1a9dc2a5d52a", "lat": 38.92108783333333}, {"rental_uris": {"ios": "https://dc.lft.to/lastmile_qr_scan", "android": "https://dc.lft.to/lastmile_qr_scan"}, "fusion_lon": 0.0, "type": "electric_scooter", "is_reserved": 0, "lon": -76.95525566666667, "is_disabled": 0, "fusion_lat": 0.0, "bike_id": "3a27c7ec31b7420ab1ee602d78ac1a54", "name": "3a27c7ec31b7420ab1ee602d78ac1a54", "lat": 38.887853666666665}, {"rental_uris": {"ios": "https://dc.lft.to/lastmile_qr_scan", "android": "https://dc.lft.to/lastmile_qr_scan"}, "fusion_lon": 0.0, "type": "electric_scooter", "is_reserved": 0, "lon": -77.0280345, "is_disabled": 0, "fusion_lat": 0.0, "bike_id": "e5cac6960ad57309f770ad3eae4c2e60", "name": "e5cac6960ad57309f770ad3eae4c2e60", "lat": 38.91721116666667}, {"rental_uris": {"ios": "https://dc.lft.to/lastmile_qr_scan", "android": "https://dc.lft.to/lastmile_qr_scan"}, "fusion_lon": 0.0, "type": "electric_scooter", "is_reserved": 0, "lon": -77.03198416666666, "is_disabled": 0, "fusion_lat": 0.0, "bike_id": "93bb2f32df5210f3747e1f595633b1ef", "name": "93bb2f32df5210f3747e1f595633b1ef", "lat": 38.8923245}, {"rental_uris": {"ios": "https://dc.lft.to/lastmile_qr_scan", "android": "https://dc.lft.to/lastmile_qr_scan"}, "fusion_lon": 0.0, "type": "electric_scooter", "is_reserved": 0, "lon": -77.01553733333333, "is_disabled": 0, "fusion_lat": 0.0, "bike_id": "d21859ea17f7134b8d5d643b00a8d899", "name": "d21859ea17f7134b8d5d643b00a8d899", "lat": 38.891752333333336}, {"rental_uris": {"ios": "https://dc.lft.to/lastmile_qr_scan", "android": "https://dc.lft.to/lastmile_qr_scan"}, "fusion_lon": 0.0, "type": "electric_bike", "is_reserved": 0, "lon": -76.95060233333334, "is_disabled": 0, "fusion_lat": 0.0, "bike_id": "de22e2803d4f21e58e6f1fc3f0d4b488", "name": "de22e2803d4f21e58e6f1fc3f0d4b488", "lat": 39.08508883333333}, {"rental_uris": {"ios": "https://dc.lft.to/lastmile_qr_scan", "android": "https://dc.lft.to/lastmile_qr_scan"}, "fusion_lon": 0.0, "type": "electric_scooter", "is_reserved": 0, "lon": -77.00062233333334, "is_disabled": 0, "fusion_lat": 0.0, "bike_id": "60f6f8f79769e570211a22088ae8a594", "name": "60f6f8f79769e570211a22088ae8a594", "lat": 38.876671333333334}, {"rental_uris": {"ios": "https://dc.lft.to/lastmile_qr_scan", "android": "https://dc.lft.to/lastmile_qr_scan"}, "fusion_lon": 0.0, "type": "electric_scooter", "is_reserved": 0, "lon": -77.02966633333334, "is_disabled": 0, "fusion_lat": 0.0, "bike_id": "3148bff4990d2b6aa362d6213afe7f78", "name": "3148bff4990d2b6aa362d6213afe7f78", "lat": 38.9167965}, {"rental_uris": {"ios": "https://dc.lft.to/lastmile_qr_scan", "android": "https://dc.lft.to/lastmile_qr_scan"}, "fusion_lon": 0.0, "type": "electric_scooter", "is_reserved": 0, "lon": -77.00146416666666, "is_disabled": 0, "fusion_lat": 0.0, "bike_id": "b8ad5cd303f33151ac4bc1ff0fa5baa0", "name": "b8ad5cd303f33151ac4bc1ff0fa5baa0", "lat": 38.867512166666664}, {"rental_uris": {"ios": "https://dc.lft.to/lastmile_qr_scan", "android": "https://dc.lft.to/lastmile_qr_scan"}, "fusion_lon": 0.0, "type": "electric_scooter", "is_reserved": 0, "lon": -77.01195966666667, "is_disabled": 0, "fusion_lat": 0.0, "bike_id": "19f4df437be917a10c3f1f3e6739a7c6", "name": "19f4df437be917a10c3f1f3e6739a7c6", "lat": 38.8967975}, {"rental_uris": {"ios": "https://dc.lft.to/lastmile_qr_scan", "android": "https://dc.lft.to/lastmile_qr_scan"}, "fusion_lon": 0.0, "type": "electric_scooter", "is_reserved": 0, "lon": -76.99513866666666, "is_disabled": 0, "fusion_lat": 0.0, "bike_id": "92e11a8fb25fd592b198a1ac35fc7e9d", "name": "92e11a8fb25fd592b198a1ac35fc7e9d", "lat": 38.894854}, {"rental_uris": {"ios": "https://dc.lft.to/lastmile_qr_scan", "android": "https://dc.lft.to/lastmile_qr_scan"}, "fusion_lon": 0.0, "type": "electric_scooter", "is_reserved": 0, "lon": -76.98501566666667, "is_disabled": 0, "fusion_lat": 0.0, "bike_id": "f97bbc253e0a225ea8fa418b1a9c47d6", "name": "f97bbc253e0a225ea8fa418b1a9c47d6", "lat": 38.866727166666664}, {"rental_uris": {"ios": "https://dc.lft.to/lastmile_qr_scan", "android": "https://dc.lft.to/lastmile_qr_scan"}, "fusion_lon": 0.0, "type": "electric_scooter", "is_reserved": 0, "lon": -77.01498666666667, "is_disabled": 0, "fusion_lat": 0.0, "bike_id": "c9172e3833d8e925bc4142667a855801", "name": "c9172e3833d8e925bc4142667a855801", "lat": 38.92666883333333}, {"rental_uris": {"ios": "https://dc.lft.to/lastmile_qr_scan", "android": "https://dc.lft.to/lastmile_qr_scan"}, "fusion_lon": 0.0, "type": "electric_scooter", "is_reserved": 0, "lon": -76.98070116666666, "is_disabled": 0, "fusion_lat": 0.0, "bike_id": "b023332497b7364d6f4c39e64715d2b6", "name": "b023332497b7364d6f4c39e64715d2b6", "lat": 38.914884666666666}, {"rental_uris": {"ios": "https://dc.lft.to/lastmile_qr_scan", "android": "https://dc.lft.to/lastmile_qr_scan"}, "fusion_lon": 0.0, "type": "electric_bike", "is_reserved": 0, "lon": -77.07057616666667, "is_disabled": 0, "fusion_lat": 0.0, "bike_id": "a95615901a168ca31f99d32853529a16", "name": "a95615901a168ca31f99d32853529a16", "lat": 38.89771733333333}, {"rental_uris": {"ios": "https://dc.lft.to/lastmile_qr_scan", "android": "https://dc.lft.to/lastmile_qr_scan"}, "fusion_lon": 0.0, "type": "electric_scooter", "is_reserved": 0, "lon": -77.03496716666666, "is_disabled": 0, "fusion_lat": 0.0, "bike_id": "a72fced7c774236e6c022e8578bb7295", "name": "a72fced7c774236e6c022e8578bb7295", "lat": 38.92341033333334}, {"rental_uris": {"ios": "https://dc.lft.to/lastmile_qr_scan", "android": "https://dc.lft.to/lastmile_qr_scan"}, "fusion_lon": 0.0, "type": "electric_scooter", "is_reserved": 0, "lon": -76.98378166666667, "is_disabled": 0, "fusion_lat": 0.0, "bike_id": "01dc88d8ff7dcfa249eb04d5264afaed", "name": "01dc88d8ff7dcfa249eb04d5264afaed", "lat": 38.887116}, {"rental_uris": {"ios": "https://dc.lft.to/lastmile_qr_scan", "android": "https://dc.lft.to/lastmile_qr_scan"}, "fusion_lon": 0.0, "type": "electric_scooter", "is_reserved": 0, "lon": -77.03661083333333, "is_disabled": 0, "fusion_lat": 0.0, "bike_id": "633c87dc3b54a26f25f833ff30b22bec", "name": "633c87dc3b54a26f25f833ff30b22bec", "lat": 38.923274}, {"rental_uris": {"ios": "https://dc.lft.to/lastmile_qr_scan", "android": "https://dc.lft.to/lastmile_qr_scan"}, "fusion_lon": 0.0, "type": "electric_scooter", "is_reserved": 0, "lon": -77.03099733333333, "is_disabled": 0, "fusion_lat": 0.0, "bike_id": "a95c2d368656ef0153e17579353b8c0c", "name": "a95c2d368656ef0153e17579353b8c0c", "lat": 38.93302683333334}, {"rental_uris": {"ios": "https://dc.lft.to/lastmile_qr_scan", "android": "https://dc.lft.to/lastmile_qr_scan"}, "fusion_lon": 0.0, "type": "electric_scooter", "is_reserved": 0, "lon": -76.9860685, "is_disabled": 0, "fusion_lat": 0.0, "bike_id": "2824092ec177a421f9a2097048113084", "name": "2824092ec177a421f9a2097048113084", "lat": 38.90349233333333}, {"rental_uris": {"ios": "https://dc.lft.to/lastmile_qr_scan", "android": "https://dc.lft.to/lastmile_qr_scan"}, "fusion_lon": 0.0, "type": "electric_scooter", "is_reserved": 0, "lon": -77.07248616666666, "is_disabled": 0, "fusion_lat": 0.0, "bike_id": "86eb6b481465fe9513782ee85b3f7a0a", "name": "86eb6b481465fe9513782ee85b3f7a0a", "lat": 38.907841833333336}, {"rental_uris": {"ios": "https://dc.lft.to/lastmile_qr_scan", "android": "https://dc.lft.to/lastmile_qr_scan"}, "fusion_lon": 0.0, "type": "electric_scooter", "is_reserved": 0, "lon": -77.04458433333333, "is_disabled": 0, "fusion_lat": 0.0, "bike_id": "5dfa9dec60fefcb8977aa41845964b6d", "name": "5dfa9dec60fefcb8977aa41845964b6d", "lat": 38.92330283333333}, {"rental_uris": {"ios": "https://dc.lft.to/lastmile_qr_scan", "android": "https://dc.lft.to/lastmile_qr_scan"}, "fusion_lon": 0.0, "type": "electric_scooter", "is_reserved": 0, "lon": -77.05002483333334, "is_disabled": 0, "fusion_lat": 0.0, "bike_id": "0c7fe90878158175e0cf5b5737db23ae", "name": "0c7fe90878158175e0cf5b5737db23ae", "lat": 38.89403183333334}, {"rental_uris": {"ios": "https://dc.lft.to/lastmile_qr_scan", "android": "https://dc.lft.to/lastmile_qr_scan"}, "fusion_lon": 0.0, "type": "electric_scooter", "is_reserved": 0, "lon": -76.94475033333333, "is_disabled": 0, "fusion_lat": 0.0, "bike_id": "fa904b47600bed7c69419703ef2f8be5", "name": "fa904b47600bed7c69419703ef2f8be5", "lat": 38.879082}, {"rental_uris": {"ios": "https://dc.lft.to/lastmile_qr_scan", "android": "https://dc.lft.to/lastmile_qr_scan"}, "fusion_lon": 0.0, "type": "electric_scooter", "is_reserved": 0, "lon": -77.02955866666667, "is_disabled": 0, "fusion_lat": 0.0, "bike_id": "29bc9749bd4066d4fe1363a79d55278f", "name": "29bc9749bd4066d4fe1363a79d55278f", "lat": 38.91604916666667}, {"rental_uris": {"ios": "https://dc.lft.to/lastmile_qr_scan", "android": "https://dc.lft.to/lastmile_qr_scan"}, "fusion_lon": 0.0, "type": "electric_scooter", "is_reserved": 0, "lon": -77.05673633333333, "is_disabled": 0, "fusion_lat": 0.0, "bike_id": "bea5860214ca31898fe98210c6cfb5c3", "name": "bea5860214ca31898fe98210c6cfb5c3", "lat": 38.9167785}, {"rental_uris": {"ios": "https://dc.lft.to/lastmile_qr_scan", "android": "https://dc.lft.to/lastmile_qr_scan"}, "fusion_lon": 0.0, "type": "electric_scooter", "is_reserved": 0, "lon": -77.00488416666667, "is_disabled": 0, "fusion_lat": 0.0, "bike_id": "1f5644acda789c506e0bf4eef753d66f", "name": "1f5644acda789c506e0bf4eef753d66f", "lat": 38.8969235}, {"rental_uris": {"ios": "https://dc.lft.to/lastmile_qr_scan", "android": "https://dc.lft.to/lastmile_qr_scan"}, "fusion_lon": 0.0, "type": "electric_bike", "is_reserved": 0, "lon": -76.99367233333334, "is_disabled": 0, "fusion_lat": 0.0, "bike_id": "9bbd4cdaef53ab06b261c77b560aee9a", "name": "9bbd4cdaef53ab06b261c77b560aee9a", "lat": 38.990961166666665}, {"rental_uris": {"ios": "https://dc.lft.to/lastmile_qr_scan", "android": "https://dc.lft.to/lastmile_qr_scan"}, "fusion_lon": 0.0, "type": "electric_scooter", "is_reserved": 0, "lon": -76.99141066666667, "is_disabled": 0, "fusion_lat": 0.0, "bike_id": "a9b4798a2063dd4d5d3846c22b01594c", "name": "a9b4798a2063dd4d5d3846c22b01594c", "lat": 38.8866955}, {"rental_uris": {"ios": "https://dc.lft.to/lastmile_qr_scan", "android": "https://dc.lft.to/lastmile_qr_scan"}, "fusion_lon": 0.0, "type": "electric_scooter", "is_reserved": 0, "lon": -77.03260516666667, "is_disabled": 0, "fusion_lat": 0.0, "bike_id": "a9ea3c56ca103fc1828006c9c7f9bc6b", "name": "a9ea3c56ca103fc1828006c9c7f9bc6b", "lat": 38.9375535}, {"rental_uris": {"ios": "https://dc.lft.to/lastmile_qr_scan", "android": "https://dc.lft.to/lastmile_qr_scan"}, "fusion_lon": 0.0, "type": "electric_scooter", "is_reserved": 0, "lon": -77.03184483333334, "is_disabled": 0, "fusion_lat": 0.0, "bike_id": "b27eb33ff6c784843ba42e1a0e719f8e", "name": "b27eb33ff6c784843ba42e1a0e719f8e", "lat": 38.913291666666666}, {"rental_uris": {"ios": "https://dc.lft.to/lastmile_qr_scan", "android": "https://dc.lft.to/lastmile_qr_scan"}, "fusion_lon": 0.0, "type": "electric_scooter", "is_reserved": 0, "lon": -77.054041, "is_disabled": 0, "fusion_lat": 0.0, "bike_id": "33f7b94d3941f72ef428667b7c1d6249", "name": "33f7b94d3941f72ef428667b7c1d6249", "lat": 38.95053933333333}, {"rental_uris": {"ios": "https://dc.lft.to/lastmile_qr_scan", "android": "https://dc.lft.to/lastmile_qr_scan"}, "fusion_lon": 0.0, "type": "electric_scooter", "is_reserved": 0, "lon": -77.01672766666667, "is_disabled": 0, "fusion_lat": 0.0, "bike_id": "0ecc6f1ee99f3f924f5389adda3bf897", "name": "0ecc6f1ee99f3f924f5389adda3bf897", "lat": 38.9204075}, {"rental_uris": {"ios": "https://dc.lft.to/lastmile_qr_scan", "android": "https://dc.lft.to/lastmile_qr_scan"}, "fusion_lon": 0.0, "type": "electric_bike", "is_reserved": 0, "lon": -76.9899865, "is_disabled": 0, "fusion_lat": 0.0, "bike_id": "ea8fa3298bb63f91566ca12d37f1585f", "name": "ea8fa3298bb63f91566ca12d37f1585f", "lat": 38.866258333333334}, {"rental_uris": {"ios": "https://dc.lft.to/lastmile_qr_scan", "android": "https://dc.lft.to/lastmile_qr_scan"}, "fusion_lon": 0.0, "type": "electric_scooter", "is_reserved": 0, "lon": -77.02405866666666, "is_disabled": 0, "fusion_lat": 0.0, "bike_id": "86cf86690cac6cb16415ad523d103cc8", "name": "86cf86690cac6cb16415ad523d103cc8", "lat": 38.917105}, {"rental_uris": {"ios": "https://dc.lft.to/lastmile_qr_scan", "android": "https://dc.lft.to/lastmile_qr_scan"}, "fusion_lon": 0.0, "type": "electric_scooter", "is_reserved": 0, "lon": -77.033046, "is_disabled": 0, "fusion_lat": 0.0, "bike_id": "73938749285fe3be2e730d1fd1c21f71", "name": "73938749285fe3be2e730d1fd1c21f71", "lat": 38.8992725}, {"rental_uris": {"ios": "https://dc.lft.to/lastmile_qr_scan", "android": "https://dc.lft.to/lastmile_qr_scan"}, "fusion_lon": 0.0, "type": "electric_scooter", "is_reserved": 0, "lon": -77.01474116666667, "is_disabled": 0, "fusion_lat": 0.0, "bike_id": "bb68f7c2749b92fb55a02c4e28d3e6e0", "name": "bb68f7c2749b92fb55a02c4e28d3e6e0", "lat": 38.926707}, {"rental_uris": {"ios": "https://dc.lft.to/lastmile_qr_scan", "android": "https://dc.lft.to/lastmile_qr_scan"}, "fusion_lon": 0.0, "type": "electric_scooter", "is_reserved": 0, "lon": -77.02967083333333, "is_disabled": 0, "fusion_lat": 0.0, "bike_id": "818e6514eb83093f7e380327e6668f24", "name": "818e6514eb83093f7e380327e6668f24", "lat": 38.90607416666667}, {"rental_uris": {"ios": "https://dc.lft.to/lastmile_qr_scan", "android": "https://dc.lft.to/lastmile_qr_scan"}, "fusion_lon": 0.0, "type": "electric_scooter", "is_reserved": 0, "lon": -77.00297216666667, "is_disabled": 0, "fusion_lat": 0.0, "bike_id": "f50ba0251273cf691267c553f022025a", "name": "f50ba0251273cf691267c553f022025a", "lat": 38.892053833333335}, {"rental_uris": {"ios": "https://dc.lft.to/lastmile_qr_scan", "android": "https://dc.lft.to/lastmile_qr_scan"}, "fusion_lon": 0.0, "type": "electric_scooter", "is_reserved": 0, "lon": -77.03857883333333, "is_disabled": 0, "fusion_lat": 0.0, "bike_id": "785213cd2ccd70d24452c428836c009a", "name": "785213cd2ccd70d24452c428836c009a", "lat": 38.91656866666667}, {"rental_uris": {"ios": "https://dc.lft.to/lastmile_qr_scan", "android": "https://dc.lft.to/lastmile_qr_scan"}, "fusion_lon": 0.0, "type": "electric_scooter", "is_reserved": 0, "lon": -76.99486633333333, "is_disabled": 0, "fusion_lat": 0.0, "bike_id": "b0d72c5dedd1743805f0baa1a238d4e6", "name": "b0d72c5dedd1743805f0baa1a238d4e6", "lat": 38.9063385}, {"rental_uris": {"ios": "https://dc.lft.to/lastmile_qr_scan", "android": "https://dc.lft.to/lastmile_qr_scan"}, "fusion_lon": 0.0, "type": "electric_scooter", "is_reserved": 0, "lon": -77.0221375, "is_disabled": 0, "fusion_lat": 0.0, "bike_id": "6b4c6e1ee59b9c6a747786902d371b73", "name": "6b4c6e1ee59b9c6a747786902d371b73", "lat": 38.924703}, {"rental_uris": {"ios": "https://dc.lft.to/lastmile_qr_scan", "android": "https://dc.lft.to/lastmile_qr_scan"}, "fusion_lon": 0.0, "type": "electric_bike", "is_reserved": 0, "lon": -76.99363033333333, "is_disabled": 0, "fusion_lat": 0.0, "bike_id": "4b00ce316191f4369c28a78857cddfc0", "name": "4b00ce316191f4369c28a78857cddfc0", "lat": 38.927377}, {"rental_uris": {"ios": "https://dc.lft.to/lastmile_qr_scan", "android": "https://dc.lft.to/lastmile_qr_scan"}, "fusion_lon": 0.0, "type": "electric_scooter", "is_reserved": 0, "lon": -77.01758366666667, "is_disabled": 0, "fusion_lat": 0.0, "bike_id": "9072782372f239cb650e49d219311839", "name": "9072782372f239cb650e49d219311839", "lat": 38.902632833333335}, {"rental_uris": {"ios": "https://dc.lft.to/lastmile_qr_scan", "android": "https://dc.lft.to/lastmile_qr_scan"}, "fusion_lon": 0.0, "type": "electric_scooter", "is_reserved": 0, "lon": -77.07842833333333, "is_disabled": 0, "fusion_lat": 0.0, "bike_id": "9a2181a2182710ab1f13c6a3acfb40a1", "name": "9a2181a2182710ab1f13c6a3acfb40a1", "lat": 38.93136833333333}, {"rental_uris": {"ios": "https://dc.lft.to/lastmile_qr_scan", "android": "https://dc.lft.to/lastmile_qr_scan"}, "fusion_lon": 0.0, "type": "electric_scooter", "is_reserved": 0, "lon": -76.98504166666666, "is_disabled": 0, "fusion_lat": 0.0, "bike_id": "3121b750d4f3edae5836e7566b1bb9c4", "name": "3121b750d4f3edae5836e7566b1bb9c4", "lat": 38.91551283333333}, {"rental_uris": {"ios": "https://dc.lft.to/lastmile_qr_scan", "android": "https://dc.lft.to/lastmile_qr_scan"}, "fusion_lon": 0.0, "type": "electric_scooter", "is_reserved": 0, "lon": -77.04520933333333, "is_disabled": 0, "fusion_lat": 0.0, "bike_id": "4cfed62e26e2883e0e2323799e4c98d9", "name": "4cfed62e26e2883e0e2323799e4c98d9", "lat": 38.9075785}, {"rental_uris": {"ios": "https://dc.lft.to/lastmile_qr_scan", "android": "https://dc.lft.to/lastmile_qr_scan"}, "fusion_lon": 0.0, "type": "electric_scooter", "is_reserved": 0, "lon": -76.95057916666667, "is_disabled": 0, "fusion_lat": 0.0, "bike_id": "cab34412e7a700eaadf06066748dcdf8", "name": "cab34412e7a700eaadf06066748dcdf8", "lat": 38.8934}, {"rental_uris": {"ios": "https://dc.lft.to/lastmile_qr_scan", "android": "https://dc.lft.to/lastmile_qr_scan"}, "fusion_lon": 0.0, "type": "electric_scooter", "is_reserved": 0, "lon": -77.07356966666667, "is_disabled": 0, "fusion_lat": 0.0, "bike_id": "773b21d8876ce7b7920974cb7623a90d", "name": "773b21d8876ce7b7920974cb7623a90d", "lat": 38.9373715}, {"rental_uris": {"ios": "https://dc.lft.to/lastmile_qr_scan", "android": "https://dc.lft.to/lastmile_qr_scan"}, "fusion_lon": 0.0, "type": "electric_scooter", "is_reserved": 0, "lon": -77.02727666666667, "is_disabled": 0, "fusion_lat": 0.0, "bike_id": "fecbec5ddaca32c0a7f9fffb7c6a644a", "name": "fecbec5ddaca32c0a7f9fffb7c6a644a", "lat": 38.9042245}, {"rental_uris": {"ios": "https://dc.lft.to/lastmile_qr_scan", "android": "https://dc.lft.to/lastmile_qr_scan"}, "fusion_lon": 0.0, "type": "electric_scooter", "is_reserved": 0, "lon": -77.0242075, "is_disabled": 0, "fusion_lat": 0.0, "bike_id": "6fcd1d026783f7677ee69cc320ca377a", "name": "6fcd1d026783f7677ee69cc320ca377a", "lat": 38.920729}, {"rental_uris": {"ios": "https://dc.lft.to/lastmile_qr_scan", "android": "https://dc.lft.to/lastmile_qr_scan"}, "fusion_lon": 0.0, "type": "electric_scooter", "is_reserved": 0, "lon": -77.057085, "is_disabled": 0, "fusion_lat": 0.0, "bike_id": "d9a7a64c41b8009cb78ec476bf03a44d", "name": "d9a7a64c41b8009cb78ec476bf03a44d", "lat": 38.93343733333333}, {"rental_uris": {"ios": "https://dc.lft.to/lastmile_qr_scan", "android": "https://dc.lft.to/lastmile_qr_scan"}, "fusion_lon": 0.0, "type": "electric_scooter", "is_reserved": 0, "lon": -76.948857, "is_disabled": 0, "fusion_lat": 0.0, "bike_id": "817acf7957ed70a101bc4b74adc1d457", "name": "817acf7957ed70a101bc4b74adc1d457", "lat": 38.89510516666667}, {"rental_uris": {"ios": "https://dc.lft.to/lastmile_qr_scan", "android": "https://dc.lft.to/lastmile_qr_scan"}, "fusion_lon": 0.0, "type": "electric_scooter", "is_reserved": 0, "lon": -76.98843866666667, "is_disabled": 0, "fusion_lat": 0.0, "bike_id": "1bb41f4aa739aeb5b13a33d7f8b526ce", "name": "1bb41f4aa739aeb5b13a33d7f8b526ce", "lat": 38.90028216666666}, {"rental_uris": {"ios": "https://dc.lft.to/lastmile_qr_scan", "android": "https://dc.lft.to/lastmile_qr_scan"}, "fusion_lon": 0.0, "type": "electric_scooter", "is_reserved": 0, "lon": -77.03818383333333, "is_disabled": 0, "fusion_lat": 0.0, "bike_id": "fbe8823dfdfa57507830e70782ee814d", "name": "fbe8823dfdfa57507830e70782ee814d", "lat": 38.9011715}, {"rental_uris": {"ios": "https://dc.lft.to/lastmile_qr_scan", "android": "https://dc.lft.to/lastmile_qr_scan"}, "fusion_lon": 0.0, "type": "electric_bike", "is_reserved": 0, "lon": -77.04098866666666, "is_disabled": 0, "fusion_lat": 0.0, "bike_id": "9c93662e806fd3417a4e4d6837bc811d", "name": "9c93662e806fd3417a4e4d6837bc811d", "lat": 39.034755833333335}, {"rental_uris": {"ios": "https://dc.lft.to/lastmile_qr_scan", "android": "https://dc.lft.to/lastmile_qr_scan"}, "fusion_lon": 0.0, "type": "electric_bike", "is_reserved": 0, "lon": -77.05230366666666, "is_disabled": 0, "fusion_lat": 0.0, "bike_id": "56c5a4ba8563a1e756e81a1d97f98acb", "name": "56c5a4ba8563a1e756e81a1d97f98acb", "lat": 38.92466266666667}, {"rental_uris": {"ios": "https://dc.lft.to/lastmile_qr_scan", "android": "https://dc.lft.to/lastmile_qr_scan"}, "fusion_lon": 0.0, "type": "electric_scooter", "is_reserved": 0, "lon": -77.03857033333334, "is_disabled": 0, "fusion_lat": 0.0, "bike_id": "647d7a0fd6222a0ca5912622b94050ea", "name": "647d7a0fd6222a0ca5912622b94050ea", "lat": 38.932127333333334}, {"rental_uris": {"ios": "https://dc.lft.to/lastmile_qr_scan", "android": "https://dc.lft.to/lastmile_qr_scan"}, "fusion_lon": 0.0, "type": "electric_scooter", "is_reserved": 0, "lon": -77.05759183333333, "is_disabled": 0, "fusion_lat": 0.0, "bike_id": "fa7d5298a7f0dd69bdbfea93039c069c", "name": "fa7d5298a7f0dd69bdbfea93039c069c", "lat": 38.933849333333335}, {"rental_uris": {"ios": "https://dc.lft.to/lastmile_qr_scan", "android": "https://dc.lft.to/lastmile_qr_scan"}, "fusion_lon": 0.0, "type": "electric_scooter", "is_reserved": 0, "lon": -77.0213115, "is_disabled": 0, "fusion_lat": 0.0, "bike_id": "3a832982a6b98bbda4349b3d4c3b2889", "name": "3a832982a6b98bbda4349b3d4c3b2889", "lat": 38.92360733333334}, {"rental_uris": {"ios": "https://dc.lft.to/lastmile_qr_scan", "android": "https://dc.lft.to/lastmile_qr_scan"}, "fusion_lon": 0.0, "type": "electric_scooter", "is_reserved": 0, "lon": -77.0224335, "is_disabled": 0, "fusion_lat": 0.0, "bike_id": "22c76dd8c7101960e5cb6502f2d62759", "name": "22c76dd8c7101960e5cb6502f2d62759", "lat": 38.912783}, {"rental_uris": {"ios": "https://dc.lft.to/lastmile_qr_scan", "android": "https://dc.lft.to/lastmile_qr_scan"}, "fusion_lon": 0.0, "type": "electric_scooter", "is_reserved": 0, "lon": -77.0150995, "is_disabled": 0, "fusion_lat": 0.0, "bike_id": "c99774ddfd82b1d14ac8d8601ff18fb4", "name": "c99774ddfd82b1d14ac8d8601ff18fb4", "lat": 38.926739833333336}, {"rental_uris": {"ios": "https://dc.lft.to/lastmile_qr_scan", "android": "https://dc.lft.to/lastmile_qr_scan"}, "fusion_lon": 0.0, "type": "electric_scooter", "is_reserved": 0, "lon": -76.93765133333333, "is_disabled": 0, "fusion_lat": 0.0, "bike_id": "0a68a4605771f8f6ae86430f19ef6bf8", "name": "0a68a4605771f8f6ae86430f19ef6bf8", "lat": 38.89935533333333}, {"rental_uris": {"ios": "https://dc.lft.to/lastmile_qr_scan", "android": "https://dc.lft.to/lastmile_qr_scan"}, "fusion_lon": 0.0, "type": "electric_scooter", "is_reserved": 0, "lon": -77.0038905, "is_disabled": 0, "fusion_lat": 0.0, "bike_id": "5881b968b974cb2b263b0874ac13dba8", "name": "5881b968b974cb2b263b0874ac13dba8", "lat": 38.94068016666667}, {"rental_uris": {"ios": "https://dc.lft.to/lastmile_qr_scan", "android": "https://dc.lft.to/lastmile_qr_scan"}, "fusion_lon": 0.0, "type": "electric_scooter", "is_reserved": 0, "lon": -77.00489883333333, "is_disabled": 0, "fusion_lat": 0.0, "bike_id": "c9f91bfd853d97502e48fea8da61fc1c", "name": "c9f91bfd853d97502e48fea8da61fc1c", "lat": 38.896958833333336}, {"rental_uris": {"ios": "https://dc.lft.to/lastmile_qr_scan", "android": "https://dc.lft.to/lastmile_qr_scan"}, "fusion_lon": 0.0, "type": "electric_scooter", "is_reserved": 0, "lon": -77.01256583333333, "is_disabled": 0, "fusion_lat": 0.0, "bike_id": "b27d75c8120bd7255039ef34b8f52021", "name": "b27d75c8120bd7255039ef34b8f52021", "lat": 38.930169666666664}, {"rental_uris": {"ios": "https://dc.lft.to/lastmile_qr_scan", "android": "https://dc.lft.to/lastmile_qr_scan"}, "fusion_lon": 0.0, "type": "electric_scooter", "is_reserved": 0, "lon": -77.00986016666667, "is_disabled": 0, "fusion_lat": 0.0, "bike_id": "c41b1db42322774e8d0254566563e4f9", "name": "c41b1db42322774e8d0254566563e4f9", "lat": 38.872857}, {"rental_uris": {"ios": "https://dc.lft.to/lastmile_qr_scan", "android": "https://dc.lft.to/lastmile_qr_scan"}, "fusion_lon": 0.0, "type": "electric_scooter", "is_reserved": 0, "lon": -76.98553666666666, "is_disabled": 0, "fusion_lat": 0.0, "bike_id": "1e4df7776002a81ab76406754b91c110", "name": "1e4df7776002a81ab76406754b91c110", "lat": 38.882945666666664}, {"rental_uris": {"ios": "https://dc.lft.to/lastmile_qr_scan", "android": "https://dc.lft.to/lastmile_qr_scan"}, "fusion_lon": 0.0, "type": "electric_scooter", "is_reserved": 0, "lon": -76.976744, "is_disabled": 0, "fusion_lat": 0.0, "bike_id": "a5db2fe039da427428993ec18c1ad753", "name": "a5db2fe039da427428993ec18c1ad753", "lat": 38.901860166666665}, {"rental_uris": {"ios": "https://dc.lft.to/lastmile_qr_scan", "android": "https://dc.lft.to/lastmile_qr_scan"}, "fusion_lon": 0.0, "type": "electric_scooter", "is_reserved": 0, "lon": -77.03857083333334, "is_disabled": 0, "fusion_lat": 0.0, "bike_id": "fb5d2deb07562b900289faed11f7fa4f", "name": "fb5d2deb07562b900289faed11f7fa4f", "lat": 38.909908}, {"rental_uris": {"ios": "https://dc.lft.to/lastmile_qr_scan", "android": "https://dc.lft.to/lastmile_qr_scan"}, "fusion_lon": 0.0, "type": "electric_scooter", "is_reserved": 0, "lon": -76.99833833333334, "is_disabled": 0, "fusion_lat": 0.0, "bike_id": "d6149ba0c82ae085beae6cf02723d7ea", "name": "d6149ba0c82ae085beae6cf02723d7ea", "lat": 38.880073}, {"rental_uris": {"ios": "https://dc.lft.to/lastmile_qr_scan", "android": "https://dc.lft.to/lastmile_qr_scan"}, "fusion_lon": 0.0, "type": "electric_scooter", "is_reserved": 0, "lon": -77.03556766666667, "is_disabled": 0, "fusion_lat": 0.0, "bike_id": "414a2585b5547db4ecd082d6fb8b77f2", "name": "414a2585b5547db4ecd082d6fb8b77f2", "lat": 38.92741516666667}, {"rental_uris": {"ios": "https://dc.lft.to/lastmile_qr_scan", "android": "https://dc.lft.to/lastmile_qr_scan"}, "fusion_lon": 0.0, "type": "electric_scooter", "is_reserved": 0, "lon": -76.99840583333334, "is_disabled": 0, "fusion_lat": 0.0, "bike_id": "c9d6a6da940ceb7cc1671c6da9bb56aa", "name": "c9d6a6da940ceb7cc1671c6da9bb56aa", "lat": 38.90302166666667}, {"rental_uris": {"ios": "https://dc.lft.to/lastmile_qr_scan", "android": "https://dc.lft.to/lastmile_qr_scan"}, "fusion_lon": 0.0, "type": "electric_scooter", "is_reserved": 0, "lon": -76.9999185, "is_disabled": 0, "fusion_lat": 0.0, "bike_id": "a29b42c34e814da444f8e6cbd1c071f2", "name": "a29b42c34e814da444f8e6cbd1c071f2", "lat": 38.87395866666667}, {"rental_uris": {"ios": "https://dc.lft.to/lastmile_qr_scan", "android": "https://dc.lft.to/lastmile_qr_scan"}, "fusion_lon": 0.0, "type": "electric_scooter", "is_reserved": 0, "lon": -77.04362283333333, "is_disabled": 0, "fusion_lat": 0.0, "bike_id": "81f5aa28b642868c6aa76f9e471eda1a", "name": "81f5aa28b642868c6aa76f9e471eda1a", "lat": 38.902733166666664}, {"rental_uris": {"ios": "https://dc.lft.to/lastmile_qr_scan", "android": "https://dc.lft.to/lastmile_qr_scan"}, "fusion_lon": 0.0, "type": "electric_scooter", "is_reserved": 0, "lon": -77.0140445, "is_disabled": 0, "fusion_lat": 0.0, "bike_id": "7839048c6193f93f61f5f490a62a1c47", "name": "7839048c6193f93f61f5f490a62a1c47", "lat": 38.928059833333336}, {"rental_uris": {"ios": "https://dc.lft.to/lastmile_qr_scan", "android": "https://dc.lft.to/lastmile_qr_scan"}, "fusion_lon": 0.0, "type": "electric_scooter", "is_reserved": 0, "lon": -77.04176816666667, "is_disabled": 0, "fusion_lat": 0.0, "bike_id": "92c4696f7106ba5487309cce54dc485d", "name": "92c4696f7106ba5487309cce54dc485d", "lat": 38.913392333333334}, {"rental_uris": {"ios": "https://dc.lft.to/lastmile_qr_scan", "android": "https://dc.lft.to/lastmile_qr_scan"}, "fusion_lon": 0.0, "type": "electric_scooter", "is_reserved": 0, "lon": -77.0240985, "is_disabled": 0, "fusion_lat": 0.0, "bike_id": "3fefb940afc287e342bccc60850de4e5", "name": "3fefb940afc287e342bccc60850de4e5", "lat": 38.909645833333336}, {"rental_uris": {"ios": "https://dc.lft.to/lastmile_qr_scan", "android": "https://dc.lft.to/lastmile_qr_scan"}, "fusion_lon": 0.0, "type": "electric_scooter", "is_reserved": 0, "lon": -76.97856166666666, "is_disabled": 0, "fusion_lat": 0.0, "bike_id": "3c934e1839259312c314d1088216f9a6", "name": "3c934e1839259312c314d1088216f9a6", "lat": 38.8972255}, {"rental_uris": {"ios": "https://dc.lft.to/lastmile_qr_scan", "android": "https://dc.lft.to/lastmile_qr_scan"}, "fusion_lon": 0.0, "type": "electric_bike", "is_reserved": 0, "lon": -77.04636766666667, "is_disabled": 0, "fusion_lat": 0.0, "bike_id": "e3f15971dd370bd23b1a39b54bf7c36c", "name": "e3f15971dd370bd23b1a39b54bf7c36c", "lat": 38.8154405}, {"rental_uris": {"ios": "https://dc.lft.to/lastmile_qr_scan", "android": "https://dc.lft.to/lastmile_qr_scan"}, "fusion_lon": 0.0, "type": "electric_bike", "is_reserved": 0, "lon": -76.99057066666667, "is_disabled": 0, "fusion_lat": 0.0, "bike_id": "c30295271b536c28c8356bcad48fd540", "name": "c30295271b536c28c8356bcad48fd540", "lat": 38.936916833333335}, {"rental_uris": {"ios": "https://dc.lft.to/lastmile_qr_scan", "android": "https://dc.lft.to/lastmile_qr_scan"}, "fusion_lon": 0.0, "type": "electric_scooter", "is_reserved": 0, "lon": -77.01415116666666, "is_disabled": 0, "fusion_lat": 0.0, "bike_id": "c3cb95ed14aa3fa1a7c9bab40abd9e01", "name": "c3cb95ed14aa3fa1a7c9bab40abd9e01", "lat": 38.90652083333333}, {"rental_uris": {"ios": "https://dc.lft.to/lastmile_qr_scan", "android": "https://dc.lft.to/lastmile_qr_scan"}, "fusion_lon": 0.0, "type": "electric_scooter", "is_reserved": 0, "lon": -77.0228175, "is_disabled": 0, "fusion_lat": 0.0, "bike_id": "2b03b1360cb96562f8ec03c41d8bb43b", "name": "2b03b1360cb96562f8ec03c41d8bb43b", "lat": 38.925109666666664}, {"rental_uris": {"ios": "https://dc.lft.to/lastmile_qr_scan", "android": "https://dc.lft.to/lastmile_qr_scan"}, "fusion_lon": 0.0, "type": "electric_scooter", "is_reserved": 0, "lon": -77.04175033333334, "is_disabled": 0, "fusion_lat": 0.0, "bike_id": "f5eb0fed5f26ce028534f2490b3986e3", "name": "f5eb0fed5f26ce028534f2490b3986e3", "lat": 38.9255345}, {"rental_uris": {"ios": "https://dc.lft.to/lastmile_qr_scan", "android": "https://dc.lft.to/lastmile_qr_scan"}, "fusion_lon": 0.0, "type": "electric_scooter", "is_reserved": 0, "lon": -77.03371833333334, "is_disabled": 0, "fusion_lat": 0.0, "bike_id": "4ca3f5f886ec7f03f4a3f45c81f05ff2", "name": "4ca3f5f886ec7f03f4a3f45c81f05ff2", "lat": 38.9223915}, {"rental_uris": {"ios": "https://dc.lft.to/lastmile_qr_scan", "android": "https://dc.lft.to/lastmile_qr_scan"}, "fusion_lon": 0.0, "type": "electric_scooter", "is_reserved": 0, "lon": -77.03665366666667, "is_disabled": 0, "fusion_lat": 0.0, "bike_id": "48ebdcf032686c57d5e35cd36b3fea0f", "name": "48ebdcf032686c57d5e35cd36b3fea0f", "lat": 38.923290333333334}, {"rental_uris": {"ios": "https://dc.lft.to/lastmile_qr_scan", "android": "https://dc.lft.to/lastmile_qr_scan"}, "fusion_lon": 0.0, "type": "electric_scooter", "is_reserved": 0, "lon": -77.044951, "is_disabled": 0, "fusion_lat": 0.0, "bike_id": "76e2355738b10251987fc02069997040", "name": "76e2355738b10251987fc02069997040", "lat": 38.900236166666666}, {"rental_uris": {"ios": "https://dc.lft.to/lastmile_qr_scan", "android": "https://dc.lft.to/lastmile_qr_scan"}, "fusion_lon": 0.0, "type": "electric_scooter", "is_reserved": 0, "lon": -77.0326875, "is_disabled": 0, "fusion_lat": 0.0, "bike_id": "54bda6a2198a1b5ab54b2cf54c1cd037", "name": "54bda6a2198a1b5ab54b2cf54c1cd037", "lat": 38.932535666666666}, {"rental_uris": {"ios": "https://dc.lft.to/lastmile_qr_scan", "android": "https://dc.lft.to/lastmile_qr_scan"}, "fusion_lon": 0.0, "type": "electric_scooter", "is_reserved": 0, "lon": -77.03789116666667, "is_disabled": 0, "fusion_lat": 0.0, "bike_id": "b8a05f4035c35b37a9126a7d02cfb8be", "name": "b8a05f4035c35b37a9126a7d02cfb8be", "lat": 38.9302015}, {"rental_uris": {"ios": "https://dc.lft.to/lastmile_qr_scan", "android": "https://dc.lft.to/lastmile_qr_scan"}, "fusion_lon": 0.0, "type": "electric_scooter", "is_reserved": 0, "lon": -76.99074516666667, "is_disabled": 0, "fusion_lat": 0.0, "bike_id": "27e02defa6b46d64e52748774ad5dce0", "name": "27e02defa6b46d64e52748774ad5dce0", "lat": 38.855630833333336}, {"rental_uris": {"ios": "https://dc.lft.to/lastmile_qr_scan", "android": "https://dc.lft.to/lastmile_qr_scan"}, "fusion_lon": 0.0, "type": "electric_scooter", "is_reserved": 0, "lon": -77.0213635, "is_disabled": 0, "fusion_lat": 0.0, "bike_id": "11583b287a4711b8015c309cdcbf5798", "name": "11583b287a4711b8015c309cdcbf5798", "lat": 38.924784333333335}, {"rental_uris": {"ios": "https://dc.lft.to/lastmile_qr_scan", "android": "https://dc.lft.to/lastmile_qr_scan"}, "fusion_lon": 0.0, "type": "electric_scooter", "is_reserved": 0, "lon": -77.01534233333334, "is_disabled": 0, "fusion_lat": 0.0, "bike_id": "cbf7318bad47dce1ec7b0d041592e32f", "name": "cbf7318bad47dce1ec7b0d041592e32f", "lat": 38.92684283333333}, {"rental_uris": {"ios": "https://dc.lft.to/lastmile_qr_scan", "android": "https://dc.lft.to/lastmile_qr_scan"}, "fusion_lon": 0.0, "type": "electric_scooter", "is_reserved": 0, "lon": -77.04323883333333, "is_disabled": 0, "fusion_lat": 0.0, "bike_id": "c123a149dda740a48665d760cc465936", "name": "c123a149dda740a48665d760cc465936", "lat": 38.9055375}, {"rental_uris": {"ios": "https://dc.lft.to/lastmile_qr_scan", "android": "https://dc.lft.to/lastmile_qr_scan"}, "fusion_lon": 0.0, "type": "electric_scooter", "is_reserved": 0, "lon": -76.93326633333334, "is_disabled": 0, "fusion_lat": 0.0, "bike_id": "66a35c4f6788572f11c9c1c3877838d8", "name": "66a35c4f6788572f11c9c1c3877838d8", "lat": 38.88244133333333}, {"rental_uris": {"ios": "https://dc.lft.to/lastmile_qr_scan", "android": "https://dc.lft.to/lastmile_qr_scan"}, "fusion_lon": 0.0, "type": "electric_scooter", "is_reserved": 0, "lon": -77.02057483333333, "is_disabled": 0, "fusion_lat": 0.0, "bike_id": "a8cb052d9608ed6f7fac3cc4a1b1a505", "name": "a8cb052d9608ed6f7fac3cc4a1b1a505", "lat": 38.8936845}, {"rental_uris": {"ios": "https://dc.lft.to/lastmile_qr_scan", "android": "https://dc.lft.to/lastmile_qr_scan"}, "fusion_lon": 0.0, "type": "electric_scooter", "is_reserved": 0, "lon": -76.93206366666666, "is_disabled": 0, "fusion_lat": 0.0, "bike_id": "d1856255e59104be6de9bf056e8cd0cc", "name": "d1856255e59104be6de9bf056e8cd0cc", "lat": 38.898538333333335}, {"rental_uris": {"ios": "https://dc.lft.to/lastmile_qr_scan", "android": "https://dc.lft.to/lastmile_qr_scan"}, "fusion_lon": 0.0, "type": "electric_scooter", "is_reserved": 0, "lon": -77.02275583333333, "is_disabled": 0, "fusion_lat": 0.0, "bike_id": "f92c99881de4e6003eb8de94c7b8baf0", "name": "f92c99881de4e6003eb8de94c7b8baf0", "lat": 38.89841}, {"rental_uris": {"ios": "https://dc.lft.to/lastmile_qr_scan", "android": "https://dc.lft.to/lastmile_qr_scan"}, "fusion_lon": 0.0, "type": "electric_scooter", "is_reserved": 0, "lon": -77.04156083333334, "is_disabled": 0, "fusion_lat": 0.0, "bike_id": "9a7b3efdb08455e366e4f1f8a78386c6", "name": "9a7b3efdb08455e366e4f1f8a78386c6", "lat": 38.9186575}, {"rental_uris": {"ios": "https://dc.lft.to/lastmile_qr_scan", "android": "https://dc.lft.to/lastmile_qr_scan"}, "fusion_lon": 0.0, "type": "electric_scooter", "is_reserved": 0, "lon": -77.02722466666667, "is_disabled": 0, "fusion_lat": 0.0, "bike_id": "3a2967e8b67b2c92ac6b4559beb199b0", "name": "3a2967e8b67b2c92ac6b4559beb199b0", "lat": 38.904260666666666}, {"rental_uris": {"ios": "https://dc.lft.to/lastmile_qr_scan", "android": "https://dc.lft.to/lastmile_qr_scan"}, "fusion_lon": 0.0, "type": "electric_scooter", "is_reserved": 0, "lon": -77.0258615, "is_disabled": 0, "fusion_lat": 0.0, "bike_id": "7db1638fb9573dbe068f029d359912db", "name": "7db1638fb9573dbe068f029d359912db", "lat": 38.905955666666664}, {"rental_uris": {"ios": "https://dc.lft.to/lastmile_qr_scan", "android": "https://dc.lft.to/lastmile_qr_scan"}, "fusion_lon": 0.0, "type": "electric_scooter", "is_reserved": 0, "lon": -77.033619, "is_disabled": 0, "fusion_lat": 0.0, "bike_id": "7560424e63a5d8685018c16503be52ce", "name": "7560424e63a5d8685018c16503be52ce", "lat": 38.90268966666667}, {"rental_uris": {"ios": "https://dc.lft.to/lastmile_qr_scan", "android": "https://dc.lft.to/lastmile_qr_scan"}, "fusion_lon": 0.0, "type": "electric_scooter", "is_reserved": 0, "lon": -76.93746716666666, "is_disabled": 0, "fusion_lat": 0.0, "bike_id": "b04d44a2d4a29b0d621c8811480e8e1c", "name": "b04d44a2d4a29b0d621c8811480e8e1c", "lat": 38.89006916666666}, {"rental_uris": {"ios": "https://dc.lft.to/lastmile_qr_scan", "android": "https://dc.lft.to/lastmile_qr_scan"}, "fusion_lon": 0.0, "type": "electric_scooter", "is_reserved": 0, "lon": -77.01983833333334, "is_disabled": 0, "fusion_lat": 0.0, "bike_id": "b3d9cb3bb1015ec42b05696be28fa76c", "name": "b3d9cb3bb1015ec42b05696be28fa76c", "lat": 38.90292566666667}, {"rental_uris": {"ios": "https://dc.lft.to/lastmile_qr_scan", "android": "https://dc.lft.to/lastmile_qr_scan"}, "fusion_lon": 0.0, "type": "electric_scooter", "is_reserved": 0, "lon": -76.9359305, "is_disabled": 0, "fusion_lat": 0.0, "bike_id": "05276cb577935d93d6f4daedd4e84a89", "name": "05276cb577935d93d6f4daedd4e84a89", "lat": 38.90945166666667}, {"rental_uris": {"ios": "https://dc.lft.to/lastmile_qr_scan", "android": "https://dc.lft.to/lastmile_qr_scan"}, "fusion_lon": 0.0, "type": "electric_bike", "is_reserved": 0, "lon": -76.95137533333333, "is_disabled": 0, "fusion_lat": 0.0, "bike_id": "ab0826c60d257d132f301a8db8b15958", "name": "ab0826c60d257d132f301a8db8b15958", "lat": 39.08432883333333}, {"rental_uris": {"ios": "https://dc.lft.to/lastmile_qr_scan", "android": "https://dc.lft.to/lastmile_qr_scan"}, "fusion_lon": 0.0, "type": "electric_scooter", "is_reserved": 0, "lon": -77.01803283333334, "is_disabled": 0, "fusion_lat": 0.0, "bike_id": "7d2811aca935a6e84bfafef3b032fc63", "name": "7d2811aca935a6e84bfafef3b032fc63", "lat": 38.919887833333334}, {"rental_uris": {"ios": "https://dc.lft.to/lastmile_qr_scan", "android": "https://dc.lft.to/lastmile_qr_scan"}, "fusion_lon": 0.0, "type": "electric_bike", "is_reserved": 0, "lon": -77.03060933333333, "is_disabled": 0, "fusion_lat": 0.0, "bike_id": "989be246a149c73e24d767c93fce9e12", "name": "989be246a149c73e24d767c93fce9e12", "lat": 38.92244816666667}, {"rental_uris": {"ios": "https://dc.lft.to/lastmile_qr_scan", "android": "https://dc.lft.to/lastmile_qr_scan"}, "fusion_lon": 0.0, "type": "electric_scooter", "is_reserved": 0, "lon": -77.06707133333333, "is_disabled": 0, "fusion_lat": 0.0, "bike_id": "225562bfccb56a0e073408b4e161a25b", "name": "225562bfccb56a0e073408b4e161a25b", "lat": 38.913675166666664}, {"rental_uris": {"ios": "https://dc.lft.to/lastmile_qr_scan", "android": "https://dc.lft.to/lastmile_qr_scan"}, "fusion_lon": 0.0, "type": "electric_scooter", "is_reserved": 0, "lon": -77.06354766666666, "is_disabled": 0, "fusion_lat": 0.0, "bike_id": "e51838b590ba69ce0cbdb591b3b5b2c9", "name": "e51838b590ba69ce0cbdb591b3b5b2c9", "lat": 38.908046666666664}, {"rental_uris": {"ios": "https://dc.lft.to/lastmile_qr_scan", "android": "https://dc.lft.to/lastmile_qr_scan"}, "fusion_lon": 0.0, "type": "electric_scooter", "is_reserved": 0, "lon": -77.0389715, "is_disabled": 0, "fusion_lat": 0.0, "bike_id": "17d1047f0d569e866c7c12e0a0ae236c", "name": "17d1047f0d569e866c7c12e0a0ae236c", "lat": 38.917095333333336}, {"rental_uris": {"ios": "https://dc.lft.to/lastmile_qr_scan", "android": "https://dc.lft.to/lastmile_qr_scan"}, "fusion_lon": 0.0, "type": "electric_scooter", "is_reserved": 0, "lon": -77.04987516666667, "is_disabled": 0, "fusion_lat": 0.0, "bike_id": "2f4f3e08ac6db7f77c8d4a3ea8fb05ea", "name": "2f4f3e08ac6db7f77c8d4a3ea8fb05ea", "lat": 38.89731233333333}, {"rental_uris": {"ios": "https://dc.lft.to/lastmile_qr_scan", "android": "https://dc.lft.to/lastmile_qr_scan"}, "fusion_lon": 0.0, "type": "electric_scooter", "is_reserved": 0, "lon": -77.019461, "is_disabled": 0, "fusion_lat": 0.0, "bike_id": "de2c8ece7378ec8bbba2fe2806c53b79", "name": "de2c8ece7378ec8bbba2fe2806c53b79", "lat": 38.924202333333334}, {"rental_uris": {"ios": "https://dc.lft.to/lastmile_qr_scan", "android": "https://dc.lft.to/lastmile_qr_scan"}, "fusion_lon": 0.0, "type": "electric_scooter", "is_reserved": 0, "lon": -77.03896616666667, "is_disabled": 0, "fusion_lat": 0.0, "bike_id": "910cf76a00115ad04dfc8be2a6cc1bf5", "name": "910cf76a00115ad04dfc8be2a6cc1bf5", "lat": 38.9250495}, {"rental_uris": {"ios": "https://dc.lft.to/lastmile_qr_scan", "android": "https://dc.lft.to/lastmile_qr_scan"}, "fusion_lon": 0.0, "type": "electric_scooter", "is_reserved": 0, "lon": -77.02156483333333, "is_disabled": 0, "fusion_lat": 0.0, "bike_id": "4161af623555edc8b79d0aa6520d8d3a", "name": "4161af623555edc8b79d0aa6520d8d3a", "lat": 38.92614783333333}, {"rental_uris": {"ios": "https://dc.lft.to/lastmile_qr_scan", "android": "https://dc.lft.to/lastmile_qr_scan"}, "fusion_lon": 0.0, "type": "electric_scooter", "is_reserved": 0, "lon": -77.0301115, "is_disabled": 0, "fusion_lat": 0.0, "bike_id": "0791a4321100eb6f14df750a72c9a9a6", "name": "0791a4321100eb6f14df750a72c9a9a6", "lat": 38.931197833333336}, {"rental_uris": {"ios": "https://dc.lft.to/lastmile_qr_scan", "android": "https://dc.lft.to/lastmile_qr_scan"}, "fusion_lon": 0.0, "type": "electric_scooter", "is_reserved": 0, "lon": -77.05612266666667, "is_disabled": 0, "fusion_lat": 0.0, "bike_id": "9bae0ea3c46959d4b6f82e43a33f8cd1", "name": "9bae0ea3c46959d4b6f82e43a33f8cd1", "lat": 38.93159766666667}, {"rental_uris": {"ios": "https://dc.lft.to/lastmile_qr_scan", "android": "https://dc.lft.to/lastmile_qr_scan"}, "fusion_lon": 0.0, "type": "electric_scooter", "is_reserved": 0, "lon": -77.02822616666667, "is_disabled": 0, "fusion_lat": 0.0, "bike_id": "1cf54064aaeef205e5b68b86dd3e4264", "name": "1cf54064aaeef205e5b68b86dd3e4264", "lat": 38.922342}, {"rental_uris": {"ios": "https://dc.lft.to/lastmile_qr_scan", "android": "https://dc.lft.to/lastmile_qr_scan"}, "fusion_lon": 0.0, "type": "electric_scooter", "is_reserved": 0, "lon": -77.0223985, "is_disabled": 0, "fusion_lat": 0.0, "bike_id": "e7e7e1f7854c255bcbc998d5f7cfdf9f", "name": "e7e7e1f7854c255bcbc998d5f7cfdf9f", "lat": 38.92463266666667}, {"rental_uris": {"ios": "https://dc.lft.to/lastmile_qr_scan", "android": "https://dc.lft.to/lastmile_qr_scan"}, "fusion_lon": 0.0, "type": "electric_scooter", "is_reserved": 0, "lon": -77.02596266666667, "is_disabled": 0, "fusion_lat": 0.0, "bike_id": "0ad07763a6c7a228e7ff0fcaea547d91", "name": "0ad07763a6c7a228e7ff0fcaea547d91", "lat": 38.94341266666667}, {"rental_uris": {"ios": "https://dc.lft.to/lastmile_qr_scan", "android": "https://dc.lft.to/lastmile_qr_scan"}, "fusion_lon": 0.0, "type": "electric_scooter", "is_reserved": 0, "lon": -77.0334315, "is_disabled": 0, "fusion_lat": 0.0, "bike_id": "e6cb356dc7db00e2b3dd428b21507ee7", "name": "e6cb356dc7db00e2b3dd428b21507ee7", "lat": 38.90957183333333}, {"rental_uris": {"ios": "https://dc.lft.to/lastmile_qr_scan", "android": "https://dc.lft.to/lastmile_qr_scan"}, "fusion_lon": 0.0, "type": "electric_scooter", "is_reserved": 0, "lon": -77.0195765, "is_disabled": 0, "fusion_lat": 0.0, "bike_id": "e7104dab5204897d021f38721a0a9587", "name": "e7104dab5204897d021f38721a0a9587", "lat": 38.92326083333333}, {"rental_uris": {"ios": "https://dc.lft.to/lastmile_qr_scan", "android": "https://dc.lft.to/lastmile_qr_scan"}, "fusion_lon": 0.0, "type": "electric_scooter", "is_reserved": 0, "lon": -77.0210965, "is_disabled": 0, "fusion_lat": 0.0, "bike_id": "5d9cac5b57bb7b3194c86e05cdc7e5a5", "name": "5d9cac5b57bb7b3194c86e05cdc7e5a5", "lat": 38.9222205}, {"rental_uris": {"ios": "https://dc.lft.to/lastmile_qr_scan", "android": "https://dc.lft.to/lastmile_qr_scan"}, "fusion_lon": 0.0, "type": "electric_scooter", "is_reserved": 0, "lon": -77.02703316666667, "is_disabled": 0, "fusion_lat": 0.0, "bike_id": "f9d7026ff82ae6f1659fedd39f69b06c", "name": "f9d7026ff82ae6f1659fedd39f69b06c", "lat": 38.88137016666667}, {"rental_uris": {"ios": "https://dc.lft.to/lastmile_qr_scan", "android": "https://dc.lft.to/lastmile_qr_scan"}, "fusion_lon": 0.0, "type": "electric_scooter", "is_reserved": 0, "lon": -77.02811916666667, "is_disabled": 0, "fusion_lat": 0.0, "bike_id": "7913095bb45e578de66864237befe268", "name": "7913095bb45e578de66864237befe268", "lat": 38.916117666666665}, {"rental_uris": {"ios": "https://dc.lft.to/lastmile_qr_scan", "android": "https://dc.lft.to/lastmile_qr_scan"}, "fusion_lon": 0.0, "type": "electric_scooter", "is_reserved": 0, "lon": -77.0259365, "is_disabled": 0, "fusion_lat": 0.0, "bike_id": "d48eb58af429ff6b037543b2653e922d", "name": "d48eb58af429ff6b037543b2653e922d", "lat": 38.91691766666667}, {"rental_uris": {"ios": "https://dc.lft.to/lastmile_qr_scan", "android": "https://dc.lft.to/lastmile_qr_scan"}, "fusion_lon": 0.0, "type": "electric_scooter", "is_reserved": 0, "lon": -77.029399, "is_disabled": 0, "fusion_lat": 0.0, "bike_id": "ad08c6f147b83cc459b02ae7278c3db3", "name": "ad08c6f147b83cc459b02ae7278c3db3", "lat": 38.9427155}, {"rental_uris": {"ios": "https://dc.lft.to/lastmile_qr_scan", "android": "https://dc.lft.to/lastmile_qr_scan"}, "fusion_lon": 0.0, "type": "electric_scooter", "is_reserved": 0, "lon": -77.025336, "is_disabled": 0, "fusion_lat": 0.0, "bike_id": "a30ecf0a9962fdcb9cdb3eae2d15f879", "name": "a30ecf0a9962fdcb9cdb3eae2d15f879", "lat": 38.9208555}, {"rental_uris": {"ios": "https://dc.lft.to/lastmile_qr_scan", "android": "https://dc.lft.to/lastmile_qr_scan"}, "fusion_lon": 0.0, "type": "electric_bike", "is_reserved": 0, "lon": -77.02730433333333, "is_disabled": 0, "fusion_lat": 0.0, "bike_id": "4545ebf4e871eea693b59569ef9b76db", "name": "4545ebf4e871eea693b59569ef9b76db", "lat": 38.89622816666667}, {"rental_uris": {"ios": "https://dc.lft.to/lastmile_qr_scan", "android": "https://dc.lft.to/lastmile_qr_scan"}, "fusion_lon": 0.0, "type": "electric_scooter", "is_reserved": 0, "lon": -76.98381483333333, "is_disabled": 0, "fusion_lat": 0.0, "bike_id": "f166dffe6932d6780db3168ad4188021", "name": "f166dffe6932d6780db3168ad4188021", "lat": 38.88712183333333}, {"rental_uris": {"ios": "https://dc.lft.to/lastmile_qr_scan", "android": "https://dc.lft.to/lastmile_qr_scan"}, "fusion_lon": 0.0, "type": "electric_scooter", "is_reserved": 0, "lon": -77.03416583333333, "is_disabled": 0, "fusion_lat": 0.0, "bike_id": "f912d33018dce5e9d81c24d8c54cee6d", "name": "f912d33018dce5e9d81c24d8c54cee6d", "lat": 38.903020166666664}, {"rental_uris": {"ios": "https://dc.lft.to/lastmile_qr_scan", "android": "https://dc.lft.to/lastmile_qr_scan"}, "fusion_lon": 0.0, "type": "electric_scooter", "is_reserved": 0, "lon": -77.01230333333334, "is_disabled": 0, "fusion_lat": 0.0, "bike_id": "a8e980421cd4f3988079061588465d7d", "name": "a8e980421cd4f3988079061588465d7d", "lat": 38.89292916666667}, {"rental_uris": {"ios": "https://dc.lft.to/lastmile_qr_scan", "android": "https://dc.lft.to/lastmile_qr_scan"}, "fusion_lon": 0.0, "type": "electric_scooter", "is_reserved": 0, "lon": -77.02245166666667, "is_disabled": 0, "fusion_lat": 0.0, "bike_id": "cf8e1909ce1ac13609a03bdcd61f62c3", "name": "cf8e1909ce1ac13609a03bdcd61f62c3", "lat": 38.922876333333335}, {"rental_uris": {"ios": "https://dc.lft.to/lastmile_qr_scan", "android": "https://dc.lft.to/lastmile_qr_scan"}, "fusion_lon": 0.0, "type": "electric_scooter", "is_reserved": 0, "lon": -77.044833, "is_disabled": 0, "fusion_lat": 0.0, "bike_id": "91190b7e4881ff1f6333029bc12929ca", "name": "91190b7e4881ff1f6333029bc12929ca", "lat": 38.9136865}, {"rental_uris": {"ios": "https://dc.lft.to/lastmile_qr_scan", "android": "https://dc.lft.to/lastmile_qr_scan"}, "fusion_lon": 0.0, "type": "electric_scooter", "is_reserved": 0, "lon": -76.998688, "is_disabled": 0, "fusion_lat": 0.0, "bike_id": "7b0fbe37108681ba64305b8061c4b0d5", "name": "7b0fbe37108681ba64305b8061c4b0d5", "lat": 38.900244}, {"rental_uris": {"ios": "https://dc.lft.to/lastmile_qr_scan", "android": "https://dc.lft.to/lastmile_qr_scan"}, "fusion_lon": 0.0, "type": "electric_scooter", "is_reserved": 0, "lon": -77.0220935, "is_disabled": 0, "fusion_lat": 0.0, "bike_id": "7373284b39fa6a2c6089ff8fa0c27ad4", "name": "7373284b39fa6a2c6089ff8fa0c27ad4", "lat": 38.924734666666666}, {"rental_uris": {"ios": "https://dc.lft.to/lastmile_qr_scan", "android": "https://dc.lft.to/lastmile_qr_scan"}, "fusion_lon": 0.0, "type": "electric_scooter", "is_reserved": 0, "lon": -77.0326175, "is_disabled": 0, "fusion_lat": 0.0, "bike_id": "3f6f142fc090f7f4c5b6cb6d7bff4d90", "name": "3f6f142fc090f7f4c5b6cb6d7bff4d90", "lat": 38.935711833333336}, {"rental_uris": {"ios": "https://dc.lft.to/lastmile_qr_scan", "android": "https://dc.lft.to/lastmile_qr_scan"}, "fusion_lon": 0.0, "type": "electric_scooter", "is_reserved": 0, "lon": -77.03993816666667, "is_disabled": 0, "fusion_lat": 0.0, "bike_id": "13b93a2872d000b5fca069103444e29e", "name": "13b93a2872d000b5fca069103444e29e", "lat": 38.90128216666667}, {"rental_uris": {"ios": "https://dc.lft.to/lastmile_qr_scan", "android": "https://dc.lft.to/lastmile_qr_scan"}, "fusion_lon": 0.0, "type": "electric_scooter", "is_reserved": 0, "lon": -77.0209345, "is_disabled": 0, "fusion_lat": 0.0, "bike_id": "e23dd3fd90f4e125242243e1fce88e0f", "name": "e23dd3fd90f4e125242243e1fce88e0f", "lat": 38.92149383333334}, {"rental_uris": {"ios": "https://dc.lft.to/lastmile_qr_scan", "android": "https://dc.lft.to/lastmile_qr_scan"}, "fusion_lon": 0.0, "type": "electric_scooter", "is_reserved": 0, "lon": -77.0203925, "is_disabled": 0, "fusion_lat": 0.0, "bike_id": "82b0490169ad058a5067da122f6597a3", "name": "82b0490169ad058a5067da122f6597a3", "lat": 38.92421316666667}, {"rental_uris": {"ios": "https://dc.lft.to/lastmile_qr_scan", "android": "https://dc.lft.to/lastmile_qr_scan"}, "fusion_lon": 0.0, "type": "electric_scooter", "is_reserved": 0, "lon": -77.01787416666667, "is_disabled": 0, "fusion_lat": 0.0, "bike_id": "29c1a21e968707674bb2eb8bb9dbf1cd", "name": "29c1a21e968707674bb2eb8bb9dbf1cd", "lat": 38.9192775}, {"rental_uris": {"ios": "https://dc.lft.to/lastmile_qr_scan", "android": "https://dc.lft.to/lastmile_qr_scan"}, "fusion_lon": 0.0, "type": "electric_bike", "is_reserved": 0, "lon": -77.01373166666667, "is_disabled": 0, "fusion_lat": 0.0, "bike_id": "3aafcc16f84417411913da186728a8eb", "name": "3aafcc16f84417411913da186728a8eb", "lat": 38.879330333333336}, {"rental_uris": {"ios": "https://dc.lft.to/lastmile_qr_scan", "android": "https://dc.lft.to/lastmile_qr_scan"}, "fusion_lon": 0.0, "type": "electric_scooter", "is_reserved": 0, "lon": -77.01945483333333, "is_disabled": 0, "fusion_lat": 0.0, "bike_id": "f831b173c0dcd4a9e704ff747dfcb0eb", "name": "f831b173c0dcd4a9e704ff747dfcb0eb", "lat": 38.9241705}, {"rental_uris": {"ios": "https://dc.lft.to/lastmile_qr_scan", "android": "https://dc.lft.to/lastmile_qr_scan"}, "fusion_lon": 0.0, "type": "electric_scooter", "is_reserved": 0, "lon": -77.02136233333333, "is_disabled": 0, "fusion_lat": 0.0, "bike_id": "acf8cc414b2a8169dd2cf9eb2eeb05de", "name": "acf8cc414b2a8169dd2cf9eb2eeb05de", "lat": 38.92488983333333}, {"rental_uris": {"ios": "https://dc.lft.to/lastmile_qr_scan", "android": "https://dc.lft.to/lastmile_qr_scan"}, "fusion_lon": 0.0, "type": "electric_scooter", "is_reserved": 0, "lon": -77.01909566666667, "is_disabled": 0, "fusion_lat": 0.0, "bike_id": "0f37163f73f0abde267f38c9b1dc58f3", "name": "0f37163f73f0abde267f38c9b1dc58f3", "lat": 38.8972695}, {"rental_uris": {"ios": "https://dc.lft.to/lastmile_qr_scan", "android": "https://dc.lft.to/lastmile_qr_scan"}, "fusion_lon": 0.0, "type": "electric_scooter", "is_reserved": 0, "lon": -77.00433583333333, "is_disabled": 0, "fusion_lat": 0.0, "bike_id": "d56e2df03050a8bc1c0e9695115e0917", "name": "d56e2df03050a8bc1c0e9695115e0917", "lat": 38.876589333333335}, {"rental_uris": {"ios": "https://dc.lft.to/lastmile_qr_scan", "android": "https://dc.lft.to/lastmile_qr_scan"}, "fusion_lon": 0.0, "type": "electric_scooter", "is_reserved": 0, "lon": -77.0035175, "is_disabled": 0, "fusion_lat": 0.0, "bike_id": "01464fc6f4224ad0b280299ea166a1c2", "name": "01464fc6f4224ad0b280299ea166a1c2", "lat": 38.899148833333335}, {"rental_uris": {"ios": "https://dc.lft.to/lastmile_qr_scan", "android": "https://dc.lft.to/lastmile_qr_scan"}, "fusion_lon": 0.0, "type": "electric_scooter", "is_reserved": 0, "lon": -77.03523733333333, "is_disabled": 0, "fusion_lat": 0.0, "bike_id": "57c96434b4589a2c3449f7c92caa3222", "name": "57c96434b4589a2c3449f7c92caa3222", "lat": 38.90786266666667}, {"rental_uris": {"ios": "https://dc.lft.to/lastmile_qr_scan", "android": "https://dc.lft.to/lastmile_qr_scan"}, "fusion_lon": 0.0, "type": "electric_scooter", "is_reserved": 0, "lon": -76.93208816666667, "is_disabled": 0, "fusion_lat": 0.0, "bike_id": "8c136e222968174de8357c6bbf81077e", "name": "8c136e222968174de8357c6bbf81077e", "lat": 38.896717833333334}, {"rental_uris": {"ios": "https://dc.lft.to/lastmile_qr_scan", "android": "https://dc.lft.to/lastmile_qr_scan"}, "fusion_lon": 0.0, "type": "electric_scooter", "is_reserved": 0, "lon": -76.93755266666666, "is_disabled": 0, "fusion_lat": 0.0, "bike_id": "fdc2f923cf569eb0b2552cb0bd4fcb00", "name": "fdc2f923cf569eb0b2552cb0bd4fcb00", "lat": 38.89059966666667}, {"rental_uris": {"ios": "https://dc.lft.to/lastmile_qr_scan", "android": "https://dc.lft.to/lastmile_qr_scan"}, "fusion_lon": 0.0, "type": "electric_scooter", "is_reserved": 0, "lon": -76.95766866666666, "is_disabled": 0, "fusion_lat": 0.0, "bike_id": "19c55010da4f1132f63990b7fa8abc13", "name": "19c55010da4f1132f63990b7fa8abc13", "lat": 38.883580333333335}, {"rental_uris": {"ios": "https://dc.lft.to/lastmile_qr_scan", "android": "https://dc.lft.to/lastmile_qr_scan"}, "fusion_lon": 0.0, "type": "electric_scooter", "is_reserved": 0, "lon": -77.02511083333333, "is_disabled": 0, "fusion_lat": 0.0, "bike_id": "59b67e7b8b74f35e463954da5567c6e0", "name": "59b67e7b8b74f35e463954da5567c6e0", "lat": 38.9209575}, {"rental_uris": {"ios": "https://dc.lft.to/lastmile_qr_scan", "android": "https://dc.lft.to/lastmile_qr_scan"}, "fusion_lon": 0.0, "type": "electric_scooter", "is_reserved": 0, "lon": -77.03999583333334, "is_disabled": 0, "fusion_lat": 0.0, "bike_id": "62e60d2c9555936534ff8e0179ceca16", "name": "62e60d2c9555936534ff8e0179ceca16", "lat": 38.89877}, {"rental_uris": {"ios": "https://dc.lft.to/lastmile_qr_scan", "android": "https://dc.lft.to/lastmile_qr_scan"}, "fusion_lon": 0.0, "type": "electric_bike", "is_reserved": 0, "lon": -77.09015983333333, "is_disabled": 0, "fusion_lat": 0.0, "bike_id": "fa2709c87f29b290c52911f90869b2df", "name": "fa2709c87f29b290c52911f90869b2df", "lat": 38.9265385}, {"rental_uris": {"ios": "https://dc.lft.to/lastmile_qr_scan", "android": "https://dc.lft.to/lastmile_qr_scan"}, "fusion_lon": 0.0, "type": "electric_scooter", "is_reserved": 0, "lon": -77.01873166666667, "is_disabled": 0, "fusion_lat": 0.0, "bike_id": "10a6b4b91b418c5cd9337571bef5edeb", "name": "10a6b4b91b418c5cd9337571bef5edeb", "lat": 38.921286}, {"rental_uris": {"ios": "https://dc.lft.to/lastmile_qr_scan", "android": "https://dc.lft.to/lastmile_qr_scan"}, "fusion_lon": 0.0, "type": "electric_scooter", "is_reserved": 0, "lon": -77.00498683333333, "is_disabled": 0, "fusion_lat": 0.0, "bike_id": "501a62cc6f00a8324d3faa65ff40b30e", "name": "501a62cc6f00a8324d3faa65ff40b30e", "lat": 38.91625533333333}, {"rental_uris": {"ios": "https://dc.lft.to/lastmile_qr_scan", "android": "https://dc.lft.to/lastmile_qr_scan"}, "fusion_lon": 0.0, "type": "electric_scooter", "is_reserved": 0, "lon": -77.02806966666667, "is_disabled": 0, "fusion_lat": 0.0, "bike_id": "6346457ea838b415c9e49cc87c2cee75", "name": "6346457ea838b415c9e49cc87c2cee75", "lat": 38.92334683333333}, {"rental_uris": {"ios": "https://dc.lft.to/lastmile_qr_scan", "android": "https://dc.lft.to/lastmile_qr_scan"}, "fusion_lon": 0.0, "type": "electric_scooter", "is_reserved": 0, "lon": -77.020693, "is_disabled": 0, "fusion_lat": 0.0, "bike_id": "811227522ff65d9c7140c962a5817ba3", "name": "811227522ff65d9c7140c962a5817ba3", "lat": 38.927028666666665}, {"rental_uris": {"ios": "https://dc.lft.to/lastmile_qr_scan", "android": "https://dc.lft.to/lastmile_qr_scan"}, "fusion_lon": 0.0, "type": "electric_bike", "is_reserved": 0, "lon": -77.00220366666667, "is_disabled": 0, "fusion_lat": 0.0, "bike_id": "b37ba62aaf9b9cbffbcd2744b193fb42", "name": "b37ba62aaf9b9cbffbcd2744b193fb42", "lat": 38.885136833333334}, {"rental_uris": {"ios": "https://dc.lft.to/lastmile_qr_scan", "android": "https://dc.lft.to/lastmile_qr_scan"}, "fusion_lon": 0.0, "type": "electric_scooter", "is_reserved": 0, "lon": -77.02202466666667, "is_disabled": 0, "fusion_lat": 0.0, "bike_id": "194068927581200a79e79782ad1a5a05", "name": "194068927581200a79e79782ad1a5a05", "lat": 38.9247185}, {"rental_uris": {"ios": "https://dc.lft.to/lastmile_qr_scan", "android": "https://dc.lft.to/lastmile_qr_scan"}, "fusion_lon": 0.0, "type": "electric_scooter", "is_reserved": 0, "lon": -77.02948283333333, "is_disabled": 0, "fusion_lat": 0.0, "bike_id": "e142c6bcd244dca3d7c2221b4ce38561", "name": "e142c6bcd244dca3d7c2221b4ce38561", "lat": 38.943078166666666}, {"rental_uris": {"ios": "https://dc.lft.to/lastmile_qr_scan", "android": "https://dc.lft.to/lastmile_qr_scan"}, "fusion_lon": 0.0, "type": "electric_scooter", "is_reserved": 0, "lon": -77.00365116666667, "is_disabled": 0, "fusion_lat": 0.0, "bike_id": "2e01916576082c86ffdb7735993d206a", "name": "2e01916576082c86ffdb7735993d206a", "lat": 38.89917283333333}, {"rental_uris": {"ios": "https://dc.lft.to/lastmile_qr_scan", "android": "https://dc.lft.to/lastmile_qr_scan"}, "fusion_lon": 0.0, "type": "electric_scooter", "is_reserved": 0, "lon": -77.02127183333333, "is_disabled": 0, "fusion_lat": 0.0, "bike_id": "b806ce484c7f9fc450100cc2297c55de", "name": "b806ce484c7f9fc450100cc2297c55de", "lat": 38.922765}, {"rental_uris": {"ios": "https://dc.lft.to/lastmile_qr_scan", "android": "https://dc.lft.to/lastmile_qr_scan"}, "fusion_lon": 0.0, "type": "electric_scooter", "is_reserved": 0, "lon": -77.038598, "is_disabled": 0, "fusion_lat": 0.0, "bike_id": "e712fb69f64fd75dd72f06d8418262c6", "name": "e712fb69f64fd75dd72f06d8418262c6", "lat": 38.917090333333334}, {"rental_uris": {"ios": "https://dc.lft.to/lastmile_qr_scan", "android": "https://dc.lft.to/lastmile_qr_scan"}, "fusion_lon": 0.0, "type": "electric_scooter", "is_reserved": 0, "lon": -76.9949045, "is_disabled": 0, "fusion_lat": 0.0, "bike_id": "20279d24bcd99d091f4933015d92e74b", "name": "20279d24bcd99d091f4933015d92e74b", "lat": 38.8996115}, {"rental_uris": {"ios": "https://dc.lft.to/lastmile_qr_scan", "android": "https://dc.lft.to/lastmile_qr_scan"}, "fusion_lon": 0.0, "type": "electric_scooter", "is_reserved": 0, "lon": -77.04345666666667, "is_disabled": 0, "fusion_lat": 0.0, "bike_id": "ee0db7211454d707bdab10cab17f9702", "name": "ee0db7211454d707bdab10cab17f9702", "lat": 38.928452666666665}, {"rental_uris": {"ios": "https://dc.lft.to/lastmile_qr_scan", "android": "https://dc.lft.to/lastmile_qr_scan"}, "fusion_lon": 0.0, "type": "electric_scooter", "is_reserved": 0, "lon": -77.04655666666666, "is_disabled": 0, "fusion_lat": 0.0, "bike_id": "3e88adb488ad6ade6e1e52562d1acced", "name": "3e88adb488ad6ade6e1e52562d1acced", "lat": 38.89858816666667}, {"rental_uris": {"ios": "https://dc.lft.to/lastmile_qr_scan", "android": "https://dc.lft.to/lastmile_qr_scan"}, "fusion_lon": 0.0, "type": "electric_bike", "is_reserved": 0, "lon": -76.98416733333333, "is_disabled": 0, "fusion_lat": 0.0, "bike_id": "1aa71fb856495ee697aee7ea8e7610fc", "name": "1aa71fb856495ee697aee7ea8e7610fc", "lat": 38.97413733333333}, {"rental_uris": {"ios": "https://dc.lft.to/lastmile_qr_scan", "android": "https://dc.lft.to/lastmile_qr_scan"}, "fusion_lon": 0.0, "type": "electric_scooter", "is_reserved": 0, "lon": -77.03515033333333, "is_disabled": 0, "fusion_lat": 0.0, "bike_id": "8f999f51f91b45f6a3108a18eccde826", "name": "8f999f51f91b45f6a3108a18eccde826", "lat": 38.92159183333333}, {"rental_uris": {"ios": "https://dc.lft.to/lastmile_qr_scan", "android": "https://dc.lft.to/lastmile_qr_scan"}, "fusion_lon": 0.0, "type": "electric_scooter", "is_reserved": 0, "lon": -76.99619983333334, "is_disabled": 0, "fusion_lat": 0.0, "bike_id": "58c99f734cc57ffa6649bbabe36e2123", "name": "58c99f734cc57ffa6649bbabe36e2123", "lat": 38.900014}, {"rental_uris": {"ios": "https://dc.lft.to/lastmile_qr_scan", "android": "https://dc.lft.to/lastmile_qr_scan"}, "fusion_lon": 0.0, "type": "electric_scooter", "is_reserved": 0, "lon": -77.04526433333334, "is_disabled": 0, "fusion_lat": 0.0, "bike_id": "864064020a6aaee0231af3a2f20eb2e4", "name": "864064020a6aaee0231af3a2f20eb2e4", "lat": 38.908587}, {"rental_uris": {"ios": "https://dc.lft.to/lastmile_qr_scan", "android": "https://dc.lft.to/lastmile_qr_scan"}, "fusion_lon": 0.0, "type": "electric_bike", "is_reserved": 0, "lon": -77.0852505, "is_disabled": 0, "fusion_lat": 0.0, "bike_id": "873ea5704d3e5aabf2b79ec422c4abf8", "name": "873ea5704d3e5aabf2b79ec422c4abf8", "lat": 38.8564815}, {"rental_uris": {"ios": "https://dc.lft.to/lastmile_qr_scan", "android": "https://dc.lft.to/lastmile_qr_scan"}, "fusion_lon": 0.0, "type": "electric_scooter", "is_reserved": 0, "lon": -77.022011, "is_disabled": 0, "fusion_lat": 0.0, "bike_id": "d3aa73d871982e4f4b663fdf7ed22539", "name": "d3aa73d871982e4f4b663fdf7ed22539", "lat": 38.896226166666665}, {"rental_uris": {"ios": "https://dc.lft.to/lastmile_qr_scan", "android": "https://dc.lft.to/lastmile_qr_scan"}, "fusion_lon": 0.0, "type": "electric_scooter", "is_reserved": 0, "lon": -77.0386675, "is_disabled": 0, "fusion_lat": 0.0, "bike_id": "3683c3b0ee23f5062372fef80dbf3a3f", "name": "3683c3b0ee23f5062372fef80dbf3a3f", "lat": 38.91265633333333}, {"rental_uris": {"ios": "https://dc.lft.to/lastmile_qr_scan", "android": "https://dc.lft.to/lastmile_qr_scan"}, "fusion_lon": 0.0, "type": "electric_bike", "is_reserved": 0, "lon": -76.97332366666667, "is_disabled": 0, "fusion_lat": 0.0, "bike_id": "14abd6300f0abed48aa13a7983be2377", "name": "14abd6300f0abed48aa13a7983be2377", "lat": 38.8651735}, {"rental_uris": {"ios": "https://dc.lft.to/lastmile_qr_scan", "android": "https://dc.lft.to/lastmile_qr_scan"}, "fusion_lon": 0.0, "type": "electric_scooter", "is_reserved": 0, "lon": -77.04526416666667, "is_disabled": 0, "fusion_lat": 0.0, "bike_id": "d7ea20785f4f89b9c29e58a6f8c3c647", "name": "d7ea20785f4f89b9c29e58a6f8c3c647", "lat": 38.907510333333335}, {"rental_uris": {"ios": "https://dc.lft.to/lastmile_qr_scan", "android": "https://dc.lft.to/lastmile_qr_scan"}, "fusion_lon": 0.0, "type": "electric_bike", "is_reserved": 0, "lon": -77.04476583333333, "is_disabled": 0, "fusion_lat": 0.0, "bike_id": "71c0c3e20c3040a69b3f9fb5eb4f7159", "name": "71c0c3e20c3040a69b3f9fb5eb4f7159", "lat": 38.924269333333335}, {"rental_uris": {"ios": "https://dc.lft.to/lastmile_qr_scan", "android": "https://dc.lft.to/lastmile_qr_scan"}, "fusion_lon": 0.0, "type": "electric_scooter", "is_reserved": 0, "lon": -77.0058045, "is_disabled": 0, "fusion_lat": 0.0, "bike_id": "36bb8ab0cf9975fc9b44956c56905f87", "name": "36bb8ab0cf9975fc9b44956c56905f87", "lat": 38.87149433333333}, {"rental_uris": {"ios": "https://dc.lft.to/lastmile_qr_scan", "android": "https://dc.lft.to/lastmile_qr_scan"}, "fusion_lon": 0.0, "type": "electric_scooter", "is_reserved": 0, "lon": -77.00562916666667, "is_disabled": 0, "fusion_lat": 0.0, "bike_id": "f48820c9fc47c684b105f08c74f68d29", "name": "f48820c9fc47c684b105f08c74f68d29", "lat": 38.885168666666665}, {"rental_uris": {"ios": "https://dc.lft.to/lastmile_qr_scan", "android": "https://dc.lft.to/lastmile_qr_scan"}, "fusion_lon": 0.0, "type": "electric_scooter", "is_reserved": 0, "lon": -77.02176966666667, "is_disabled": 0, "fusion_lat": 0.0, "bike_id": "43a012777026d31e677c4c9553f2a699", "name": "43a012777026d31e677c4c9553f2a699", "lat": 38.90701716666667}, {"rental_uris": {"ios": "https://dc.lft.to/lastmile_qr_scan", "android": "https://dc.lft.to/lastmile_qr_scan"}, "fusion_lon": 0.0, "type": "electric_scooter", "is_reserved": 0, "lon": -77.02556283333334, "is_disabled": 0, "fusion_lat": 0.0, "bike_id": "4f5b131972364530b030549c4dec4679", "name": "4f5b131972364530b030549c4dec4679", "lat": 38.89971883333333}, {"rental_uris": {"ios": "https://dc.lft.to/lastmile_qr_scan", "android": "https://dc.lft.to/lastmile_qr_scan"}, "fusion_lon": 0.0, "type": "electric_scooter", "is_reserved": 0, "lon": -77.027593, "is_disabled": 0, "fusion_lat": 0.0, "bike_id": "72d718708ca2eb1bad19a711c7671f76", "name": "72d718708ca2eb1bad19a711c7671f76", "lat": 38.910426666666666}, {"rental_uris": {"ios": "https://dc.lft.to/lastmile_qr_scan", "android": "https://dc.lft.to/lastmile_qr_scan"}, "fusion_lon": 0.0, "type": "electric_scooter", "is_reserved": 0, "lon": -77.02029633333333, "is_disabled": 0, "fusion_lat": 0.0, "bike_id": "f09ee63fd3d4bd5e348e23240e593216", "name": "f09ee63fd3d4bd5e348e23240e593216", "lat": 38.92683366666667}, {"rental_uris": {"ios": "https://dc.lft.to/lastmile_qr_scan", "android": "https://dc.lft.to/lastmile_qr_scan"}, "fusion_lon": 0.0, "type": "electric_scooter", "is_reserved": 0, "lon": -76.99607583333334, "is_disabled": 0, "fusion_lat": 0.0, "bike_id": "59a9984d2e332fc57c4887958ad58513", "name": "59a9984d2e332fc57c4887958ad58513", "lat": 38.8962265}, {"rental_uris": {"ios": "https://dc.lft.to/lastmile_qr_scan", "android": "https://dc.lft.to/lastmile_qr_scan"}, "fusion_lon": 0.0, "type": "electric_scooter", "is_reserved": 0, "lon": -77.04845883333333, "is_disabled": 0, "fusion_lat": 0.0, "bike_id": "0a453a506ac31b3f8a93bff0c93a003c", "name": "0a453a506ac31b3f8a93bff0c93a003c", "lat": 38.902147666666664}, {"rental_uris": {"ios": "https://dc.lft.to/lastmile_qr_scan", "android": "https://dc.lft.to/lastmile_qr_scan"}, "fusion_lon": 0.0, "type": "electric_scooter", "is_reserved": 0, "lon": -76.9990895, "is_disabled": 0, "fusion_lat": 0.0, "bike_id": "9a07765be7569a1dd81878e08074c598", "name": "9a07765be7569a1dd81878e08074c598", "lat": 38.920990833333335}, {"rental_uris": {"ios": "https://dc.lft.to/lastmile_qr_scan", "android": "https://dc.lft.to/lastmile_qr_scan"}, "fusion_lon": 0.0, "type": "electric_scooter", "is_reserved": 0, "lon": -77.0150855, "is_disabled": 0, "fusion_lat": 0.0, "bike_id": "d4a7b743cd01a20301e724e623418ece", "name": "d4a7b743cd01a20301e724e623418ece", "lat": 38.893081}, {"rental_uris": {"ios": "https://dc.lft.to/lastmile_qr_scan", "android": "https://dc.lft.to/lastmile_qr_scan"}, "fusion_lon": 0.0, "type": "electric_scooter", "is_reserved": 0, "lon": -77.00889083333334, "is_disabled": 0, "fusion_lat": 0.0, "bike_id": "d4b7a9c0cdd5522aed243e661ab1e408", "name": "d4b7a9c0cdd5522aed243e661ab1e408", "lat": 38.924813}, {"rental_uris": {"ios": "https://dc.lft.to/lastmile_qr_scan", "android": "https://dc.lft.to/lastmile_qr_scan"}, "fusion_lon": 0.0, "type": "electric_scooter", "is_reserved": 0, "lon": -77.01373516666666, "is_disabled": 0, "fusion_lat": 0.0, "bike_id": "aae2410dee4f1be47db75f82c35b23ae", "name": "aae2410dee4f1be47db75f82c35b23ae", "lat": 38.8871795}, {"rental_uris": {"ios": "https://dc.lft.to/lastmile_qr_scan", "android": "https://dc.lft.to/lastmile_qr_scan"}, "fusion_lon": 0.0, "type": "electric_scooter", "is_reserved": 0, "lon": -77.01204966666667, "is_disabled": 0, "fusion_lat": 0.0, "bike_id": "bd90203389d108b8b716e42e73dce2a2", "name": "bd90203389d108b8b716e42e73dce2a2", "lat": 38.9212275}, {"rental_uris": {"ios": "https://dc.lft.to/lastmile_qr_scan", "android": "https://dc.lft.to/lastmile_qr_scan"}, "fusion_lon": 0.0, "type": "electric_scooter", "is_reserved": 0, "lon": -77.0281565, "is_disabled": 0, "fusion_lat": 0.0, "bike_id": "2a943274f2551611ba0e0152b27f1b5c", "name": "2a943274f2551611ba0e0152b27f1b5c", "lat": 38.920675833333334}, {"rental_uris": {"ios": "https://dc.lft.to/lastmile_qr_scan", "android": "https://dc.lft.to/lastmile_qr_scan"}, "fusion_lon": 0.0, "type": "electric_scooter", "is_reserved": 0, "lon": -77.07236383333333, "is_disabled": 0, "fusion_lat": 0.0, "bike_id": "fae4f544f7860bcf73a5f7a7f1ad74ae", "name": "fae4f544f7860bcf73a5f7a7f1ad74ae", "lat": 38.939536}, {"rental_uris": {"ios": "https://dc.lft.to/lastmile_qr_scan", "android": "https://dc.lft.to/lastmile_qr_scan"}, "fusion_lon": 0.0, "type": "electric_scooter", "is_reserved": 0, "lon": -77.05320183333333, "is_disabled": 0, "fusion_lat": 0.0, "bike_id": "39c26e1ac85557269b084cad8577d016", "name": "39c26e1ac85557269b084cad8577d016", "lat": 38.90653283333333}, {"rental_uris": {"ios": "https://dc.lft.to/lastmile_qr_scan", "android": "https://dc.lft.to/lastmile_qr_scan"}, "fusion_lon": 0.0, "type": "electric_bike", "is_reserved": 0, "lon": -77.233846, "is_disabled": 0, "fusion_lat": 0.0, "bike_id": "8b265653a3305b000c892a2e6644cbb9", "name": "8b265653a3305b000c892a2e6644cbb9", "lat": 38.8717475}, {"rental_uris": {"ios": "https://dc.lft.to/lastmile_qr_scan", "android": "https://dc.lft.to/lastmile_qr_scan"}, "fusion_lon": 0.0, "type": "electric_scooter", "is_reserved": 0, "lon": -77.04347966666667, "is_disabled": 0, "fusion_lat": 0.0, "bike_id": "5e7c536f7d42e7b73c3dc6b157ccec5f", "name": "5e7c536f7d42e7b73c3dc6b157ccec5f", "lat": 38.92174766666667}, {"rental_uris": {"ios": "https://dc.lft.to/lastmile_qr_scan", "android": "https://dc.lft.to/lastmile_qr_scan"}, "fusion_lon": 0.0, "type": "electric_scooter", "is_reserved": 0, "lon": -77.04529433333333, "is_disabled": 0, "fusion_lat": 0.0, "bike_id": "b64fea43fcc0e4f274277e4a33129fa3", "name": "b64fea43fcc0e4f274277e4a33129fa3", "lat": 38.907467}, {"rental_uris": {"ios": "https://dc.lft.to/lastmile_qr_scan", "android": "https://dc.lft.to/lastmile_qr_scan"}, "fusion_lon": 0.0, "type": "electric_scooter", "is_reserved": 0, "lon": -76.9833575, "is_disabled": 0, "fusion_lat": 0.0, "bike_id": "df08f3e4f5a9a6b35db4834b9007d764", "name": "df08f3e4f5a9a6b35db4834b9007d764", "lat": 38.8954745}, {"rental_uris": {"ios": "https://dc.lft.to/lastmile_qr_scan", "android": "https://dc.lft.to/lastmile_qr_scan"}, "fusion_lon": 0.0, "type": "electric_scooter", "is_reserved": 0, "lon": -76.99785466666667, "is_disabled": 0, "fusion_lat": 0.0, "bike_id": "b382e4c7a530603ca009a5e6b428e749", "name": "b382e4c7a530603ca009a5e6b428e749", "lat": 38.88562983333333}, {"rental_uris": {"ios": "https://dc.lft.to/lastmile_qr_scan", "android": "https://dc.lft.to/lastmile_qr_scan"}, "fusion_lon": 0.0, "type": "electric_scooter", "is_reserved": 0, "lon": -77.0059965, "is_disabled": 0, "fusion_lat": 0.0, "bike_id": "e8476c0a6056cba97131e63f047c195b", "name": "e8476c0a6056cba97131e63f047c195b", "lat": 38.9111715}, {"rental_uris": {"ios": "https://dc.lft.to/lastmile_qr_scan", "android": "https://dc.lft.to/lastmile_qr_scan"}, "fusion_lon": 0.0, "type": "electric_scooter", "is_reserved": 0, "lon": -77.04242616666667, "is_disabled": 0, "fusion_lat": 0.0, "bike_id": "478175442a827b9dabfaed3af6bac8be", "name": "478175442a827b9dabfaed3af6bac8be", "lat": 38.9221215}, {"rental_uris": {"ios": "https://dc.lft.to/lastmile_qr_scan", "android": "https://dc.lft.to/lastmile_qr_scan"}, "fusion_lon": 0.0, "type": "electric_scooter", "is_reserved": 0, "lon": -77.0318115, "is_disabled": 0, "fusion_lat": 0.0, "bike_id": "3000aaa0a81ddb6d4bc9ec0a36e446a9", "name": "3000aaa0a81ddb6d4bc9ec0a36e446a9", "lat": 38.913284166666664}, {"rental_uris": {"ios": "https://dc.lft.to/lastmile_qr_scan", "android": "https://dc.lft.to/lastmile_qr_scan"}, "fusion_lon": 0.0, "type": "electric_scooter", "is_reserved": 0, "lon": -77.02455116666667, "is_disabled": 0, "fusion_lat": 0.0, "bike_id": "0b3c3be3b6fda44ab3ef211cd1797386", "name": "0b3c3be3b6fda44ab3ef211cd1797386", "lat": 38.918313166666664}, {"rental_uris": {"ios": "https://dc.lft.to/lastmile_qr_scan", "android": "https://dc.lft.to/lastmile_qr_scan"}, "fusion_lon": 0.0, "type": "electric_scooter", "is_reserved": 0, "lon": -77.03863133333333, "is_disabled": 0, "fusion_lat": 0.0, "bike_id": "6f66ae78e1912996269138215ebc40da", "name": "6f66ae78e1912996269138215ebc40da", "lat": 38.9171125}, {"rental_uris": {"ios": "https://dc.lft.to/lastmile_qr_scan", "android": "https://dc.lft.to/lastmile_qr_scan"}, "fusion_lon": 0.0, "type": "electric_bike", "is_reserved": 0, "lon": -76.91062666666667, "is_disabled": 0, "fusion_lat": 0.0, "bike_id": "13bd46cec147886a4a68885cbd3b3c2b", "name": "13bd46cec147886a4a68885cbd3b3c2b", "lat": 39.01077133333333}, {"rental_uris": {"ios": "https://dc.lft.to/lastmile_qr_scan", "android": "https://dc.lft.to/lastmile_qr_scan"}, "fusion_lon": 0.0, "type": "electric_bike", "is_reserved": 0, "lon": -77.09685616666667, "is_disabled": 0, "fusion_lat": 0.0, "bike_id": "5aee21471fde7d6099d729a55145ac69", "name": "5aee21471fde7d6099d729a55145ac69", "lat": 38.807387}, {"rental_uris": {"ios": "https://dc.lft.to/lastmile_qr_scan", "android": "https://dc.lft.to/lastmile_qr_scan"}, "fusion_lon": 0.0, "type": "electric_scooter", "is_reserved": 0, "lon": -76.99030583333334, "is_disabled": 0, "fusion_lat": 0.0, "bike_id": "0a5198cd9d13317837aae650f964aa4b", "name": "0a5198cd9d13317837aae650f964aa4b", "lat": 38.898515833333335}, {"rental_uris": {"ios": "https://dc.lft.to/lastmile_qr_scan", "android": "https://dc.lft.to/lastmile_qr_scan"}, "fusion_lon": 0.0, "type": "electric_scooter", "is_reserved": 0, "lon": -77.02054983333333, "is_disabled": 0, "fusion_lat": 0.0, "bike_id": "6c53044ecaeafd170bbb5d4de42a6494", "name": "6c53044ecaeafd170bbb5d4de42a6494", "lat": 38.91363333333334}, {"rental_uris": {"ios": "https://dc.lft.to/lastmile_qr_scan", "android": "https://dc.lft.to/lastmile_qr_scan"}, "fusion_lon": 0.0, "type": "electric_scooter", "is_reserved": 0, "lon": -77.04500283333333, "is_disabled": 0, "fusion_lat": 0.0, "bike_id": "e87ac170b0925150f78b03cf72a4c464", "name": "e87ac170b0925150f78b03cf72a4c464", "lat": 38.892598166666666}, {"rental_uris": {"ios": "https://dc.lft.to/lastmile_qr_scan", "android": "https://dc.lft.to/lastmile_qr_scan"}, "fusion_lon": 0.0, "type": "electric_scooter", "is_reserved": 0, "lon": -77.0195315, "is_disabled": 0, "fusion_lat": 0.0, "bike_id": "1a5480095f95e00e36ba9d22818399be", "name": "1a5480095f95e00e36ba9d22818399be", "lat": 38.923671}, {"rental_uris": {"ios": "https://dc.lft.to/lastmile_qr_scan", "android": "https://dc.lft.to/lastmile_qr_scan"}, "fusion_lon": 0.0, "type": "electric_scooter", "is_reserved": 0, "lon": -77.02129216666667, "is_disabled": 0, "fusion_lat": 0.0, "bike_id": "76273a80d435fdf336f0bb775cdd9865", "name": "76273a80d435fdf336f0bb775cdd9865", "lat": 38.9233755}, {"rental_uris": {"ios": "https://dc.lft.to/lastmile_qr_scan", "android": "https://dc.lft.to/lastmile_qr_scan"}, "fusion_lon": 0.0, "type": "electric_scooter", "is_reserved": 0, "lon": -77.04742233333333, "is_disabled": 0, "fusion_lat": 0.0, "bike_id": "683ca59f8a323a728f94b3ff367fb12a", "name": "683ca59f8a323a728f94b3ff367fb12a", "lat": 38.917719166666664}, {"rental_uris": {"ios": "https://dc.lft.to/lastmile_qr_scan", "android": "https://dc.lft.to/lastmile_qr_scan"}, "fusion_lon": 0.0, "type": "electric_scooter", "is_reserved": 0, "lon": -77.02113833333334, "is_disabled": 0, "fusion_lat": 0.0, "bike_id": "c13d3d7ad7a143ec73c676a7d8f5e57f", "name": "c13d3d7ad7a143ec73c676a7d8f5e57f", "lat": 38.917388}, {"rental_uris": {"ios": "https://dc.lft.to/lastmile_qr_scan", "android": "https://dc.lft.to/lastmile_qr_scan"}, "fusion_lon": 0.0, "type": "electric_scooter", "is_reserved": 0, "lon": -77.0417255, "is_disabled": 0, "fusion_lat": 0.0, "bike_id": "3a9157e313c80989551cbe49589c8225", "name": "3a9157e313c80989551cbe49589c8225", "lat": 38.920051666666666}, {"rental_uris": {"ios": "https://dc.lft.to/lastmile_qr_scan", "android": "https://dc.lft.to/lastmile_qr_scan"}, "fusion_lon": 0.0, "type": "electric_scooter", "is_reserved": 0, "lon": -77.04323033333333, "is_disabled": 0, "fusion_lat": 0.0, "bike_id": "1ecb8adf5b07065f9fb6ec871b166bd6", "name": "1ecb8adf5b07065f9fb6ec871b166bd6", "lat": 38.9088565}, {"rental_uris": {"ios": "https://dc.lft.to/lastmile_qr_scan", "android": "https://dc.lft.to/lastmile_qr_scan"}, "fusion_lon": 0.0, "type": "electric_scooter", "is_reserved": 0, "lon": -77.02081266666667, "is_disabled": 0, "fusion_lat": 0.0, "bike_id": "110b151294fce3729e19182e3a769bec", "name": "110b151294fce3729e19182e3a769bec", "lat": 38.9247295}, {"rental_uris": {"ios": "https://dc.lft.to/lastmile_qr_scan", "android": "https://dc.lft.to/lastmile_qr_scan"}, "fusion_lon": 0.0, "type": "electric_bike", "is_reserved": 0, "lon": -77.0608195, "is_disabled": 0, "fusion_lat": 0.0, "bike_id": "7f65dbbf81294b04834800e2dea05a8e", "name": "7f65dbbf81294b04834800e2dea05a8e", "lat": 38.804392666666665}, {"rental_uris": {"ios": "https://dc.lft.to/lastmile_qr_scan", "android": "https://dc.lft.to/lastmile_qr_scan"}, "fusion_lon": 0.0, "type": "electric_scooter", "is_reserved": 0, "lon": -77.0191275, "is_disabled": 0, "fusion_lat": 0.0, "bike_id": "8f592564f635d424e0c2f8449e10ce8b", "name": "8f592564f635d424e0c2f8449e10ce8b", "lat": 38.89728083333333}, {"rental_uris": {"ios": "https://dc.lft.to/lastmile_qr_scan", "android": "https://dc.lft.to/lastmile_qr_scan"}, "fusion_lon": 0.0, "type": "electric_scooter", "is_reserved": 0, "lon": -77.02238966666667, "is_disabled": 0, "fusion_lat": 0.0, "bike_id": "262a14719c9e739c04d9f03078d08128", "name": "262a14719c9e739c04d9f03078d08128", "lat": 38.92464583333334}, {"rental_uris": {"ios": "https://dc.lft.to/lastmile_qr_scan", "android": "https://dc.lft.to/lastmile_qr_scan"}, "fusion_lon": 0.0, "type": "electric_scooter", "is_reserved": 0, "lon": -77.01639633333333, "is_disabled": 0, "fusion_lat": 0.0, "bike_id": "870534b86797f9537c6312eeeb8d8eef", "name": "870534b86797f9537c6312eeeb8d8eef", "lat": 38.877173}, {"rental_uris": {"ios": "https://dc.lft.to/lastmile_qr_scan", "android": "https://dc.lft.to/lastmile_qr_scan"}, "fusion_lon": 0.0, "type": "electric_scooter", "is_reserved": 0, "lon": -77.02949133333334, "is_disabled": 0, "fusion_lat": 0.0, "bike_id": "37da8b3ece7173f349a1b58cbaf7fb74", "name": "37da8b3ece7173f349a1b58cbaf7fb74", "lat": 38.90181666666667}, {"rental_uris": {"ios": "https://dc.lft.to/lastmile_qr_scan", "android": "https://dc.lft.to/lastmile_qr_scan"}, "fusion_lon": 0.0, "type": "electric_scooter", "is_reserved": 0, "lon": -77.03195033333333, "is_disabled": 0, "fusion_lat": 0.0, "bike_id": "2c982cc521695a73411cb27b49eee304", "name": "2c982cc521695a73411cb27b49eee304", "lat": 38.92070283333334}, {"rental_uris": {"ios": "https://dc.lft.to/lastmile_qr_scan", "android": "https://dc.lft.to/lastmile_qr_scan"}, "fusion_lon": 0.0, "type": "electric_bike", "is_reserved": 0, "lon": -76.98602033333333, "is_disabled": 0, "fusion_lat": 0.0, "bike_id": "a169c15ed01986fc302494de39681b34", "name": "a169c15ed01986fc302494de39681b34", "lat": 38.929806}, {"rental_uris": {"ios": "https://dc.lft.to/lastmile_qr_scan", "android": "https://dc.lft.to/lastmile_qr_scan"}, "fusion_lon": 0.0, "type": "electric_scooter", "is_reserved": 0, "lon": -77.03841516666667, "is_disabled": 0, "fusion_lat": 0.0, "bike_id": "f99de25f6d34a3bdfc6b5a5daa9157c5", "name": "f99de25f6d34a3bdfc6b5a5daa9157c5", "lat": 38.92656366666667}, {"rental_uris": {"ios": "https://dc.lft.to/lastmile_qr_scan", "android": "https://dc.lft.to/lastmile_qr_scan"}, "fusion_lon": 0.0, "type": "electric_scooter", "is_reserved": 0, "lon": -77.01263516666667, "is_disabled": 0, "fusion_lat": 0.0, "bike_id": "dab26aa47b38d9788aab9cadf9f3f612", "name": "dab26aa47b38d9788aab9cadf9f3f612", "lat": 38.89819833333333}, {"rental_uris": {"ios": "https://dc.lft.to/lastmile_qr_scan", "android": "https://dc.lft.to/lastmile_qr_scan"}, "fusion_lon": 0.0, "type": "electric_scooter", "is_reserved": 0, "lon": -76.99157616666666, "is_disabled": 0, "fusion_lat": 0.0, "bike_id": "6661cd2a6890e5331122755fb33319fa", "name": "6661cd2a6890e5331122755fb33319fa", "lat": 38.900375}, {"rental_uris": {"ios": "https://dc.lft.to/lastmile_qr_scan", "android": "https://dc.lft.to/lastmile_qr_scan"}, "fusion_lon": 0.0, "type": "electric_bike", "is_reserved": 0, "lon": -77.076613, "is_disabled": 0, "fusion_lat": 0.0, "bike_id": "48bed4c44cada668761d62e3569e31c6", "name": "48bed4c44cada668761d62e3569e31c6", "lat": 38.809781}, {"rental_uris": {"ios": "https://dc.lft.to/lastmile_qr_scan", "android": "https://dc.lft.to/lastmile_qr_scan"}, "fusion_lon": 0.0, "type": "electric_scooter", "is_reserved": 0, "lon": -77.0333495, "is_disabled": 0, "fusion_lat": 0.0, "bike_id": "5f3d02d824572bc16ac83b00ad7059ad", "name": "5f3d02d824572bc16ac83b00ad7059ad", "lat": 38.919161}, {"rental_uris": {"ios": "https://dc.lft.to/lastmile_qr_scan", "android": "https://dc.lft.to/lastmile_qr_scan"}, "fusion_lon": 0.0, "type": "electric_scooter", "is_reserved": 0, "lon": -77.06003516666667, "is_disabled": 0, "fusion_lat": 0.0, "bike_id": "31cd509d1f466953d39760fe36eed9d8", "name": "31cd509d1f466953d39760fe36eed9d8", "lat": 38.903604666666666}, {"rental_uris": {"ios": "https://dc.lft.to/lastmile_qr_scan", "android": "https://dc.lft.to/lastmile_qr_scan"}, "fusion_lon": 0.0, "type": "electric_scooter", "is_reserved": 0, "lon": -77.02134416666667, "is_disabled": 0, "fusion_lat": 0.0, "bike_id": "39c809e934c44d5cf936aff5d55cf366", "name": "39c809e934c44d5cf936aff5d55cf366", "lat": 38.924101}, {"rental_uris": {"ios": "https://dc.lft.to/lastmile_qr_scan", "android": "https://dc.lft.to/lastmile_qr_scan"}, "fusion_lon": 0.0, "type": "electric_scooter", "is_reserved": 0, "lon": -77.01607083333333, "is_disabled": 0, "fusion_lat": 0.0, "bike_id": "57cf6c0fd5e09d79d4c214771913025a", "name": "57cf6c0fd5e09d79d4c214771913025a", "lat": 38.89968733333333}, {"rental_uris": {"ios": "https://dc.lft.to/lastmile_qr_scan", "android": "https://dc.lft.to/lastmile_qr_scan"}, "fusion_lon": 0.0, "type": "electric_scooter", "is_reserved": 0, "lon": -77.0239915, "is_disabled": 0, "fusion_lat": 0.0, "bike_id": "2783f74df9c7ea6bc2de634548457dda", "name": "2783f74df9c7ea6bc2de634548457dda", "lat": 38.917032166666665}, {"rental_uris": {"ios": "https://dc.lft.to/lastmile_qr_scan", "android": "https://dc.lft.to/lastmile_qr_scan"}, "fusion_lon": 0.0, "type": "electric_scooter", "is_reserved": 0, "lon": -76.97814116666666, "is_disabled": 0, "fusion_lat": 0.0, "bike_id": "bfffef39682b42d2afebb62107eaf842", "name": "bfffef39682b42d2afebb62107eaf842", "lat": 38.893977166666666}, {"rental_uris": {"ios": "https://dc.lft.to/lastmile_qr_scan", "android": "https://dc.lft.to/lastmile_qr_scan"}, "fusion_lon": 0.0, "type": "electric_scooter", "is_reserved": 0, "lon": -76.98706383333334, "is_disabled": 0, "fusion_lat": 0.0, "bike_id": "bf9ffb98d3df7407e6347f27e749f114", "name": "bf9ffb98d3df7407e6347f27e749f114", "lat": 38.900586833333335}, {"rental_uris": {"ios": "https://dc.lft.to/lastmile_qr_scan", "android": "https://dc.lft.to/lastmile_qr_scan"}, "fusion_lon": 0.0, "type": "electric_scooter", "is_reserved": 0, "lon": -77.09507716666667, "is_disabled": 0, "fusion_lat": 0.0, "bike_id": "7232011568c28f9144c21559b3e8eea9", "name": "7232011568c28f9144c21559b3e8eea9", "lat": 38.94482216666667}, {"rental_uris": {"ios": "https://dc.lft.to/lastmile_qr_scan", "android": "https://dc.lft.to/lastmile_qr_scan"}, "fusion_lon": 0.0, "type": "electric_scooter", "is_reserved": 0, "lon": -77.03998383333334, "is_disabled": 0, "fusion_lat": 0.0, "bike_id": "6faf45e1fb49c1a612b140ff31f775da", "name": "6faf45e1fb49c1a612b140ff31f775da", "lat": 38.88871366666667}, {"rental_uris": {"ios": "https://dc.lft.to/lastmile_qr_scan", "android": "https://dc.lft.to/lastmile_qr_scan"}, "fusion_lon": 0.0, "type": "electric_scooter", "is_reserved": 0, "lon": -77.02835266666666, "is_disabled": 0, "fusion_lat": 0.0, "bike_id": "00906458337d4dfc0024cb6e0ca116c0", "name": "00906458337d4dfc0024cb6e0ca116c0", "lat": 38.89629166666667}, {"rental_uris": {"ios": "https://dc.lft.to/lastmile_qr_scan", "android": "https://dc.lft.to/lastmile_qr_scan"}, "fusion_lon": 0.0, "type": "electric_scooter", "is_reserved": 0, "lon": -77.0712225, "is_disabled": 0, "fusion_lat": 0.0, "bike_id": "5492ae2248e2805545f499a4e360160b", "name": "5492ae2248e2805545f499a4e360160b", "lat": 38.920154}, {"rental_uris": {"ios": "https://dc.lft.to/lastmile_qr_scan", "android": "https://dc.lft.to/lastmile_qr_scan"}, "fusion_lon": 0.0, "type": "electric_scooter", "is_reserved": 0, "lon": -77.03347666666667, "is_disabled": 0, "fusion_lat": 0.0, "bike_id": "5e1265ee7d68fe66713fc14b5603037f", "name": "5e1265ee7d68fe66713fc14b5603037f", "lat": 38.8924325}, {"rental_uris": {"ios": "https://dc.lft.to/lastmile_qr_scan", "android": "https://dc.lft.to/lastmile_qr_scan"}, "fusion_lon": 0.0, "type": "electric_scooter", "is_reserved": 0, "lon": -77.0268895, "is_disabled": 0, "fusion_lat": 0.0, "bike_id": "e7623fdb7eaf71bca92e10255c1f65b3", "name": "e7623fdb7eaf71bca92e10255c1f65b3", "lat": 38.902396}, {"rental_uris": {"ios": "https://dc.lft.to/lastmile_qr_scan", "android": "https://dc.lft.to/lastmile_qr_scan"}, "fusion_lon": 0.0, "type": "electric_scooter", "is_reserved": 0, "lon": -77.02630633333334, "is_disabled": 0, "fusion_lat": 0.0, "bike_id": "31f92e7267d33748f191f6bb66056e4b", "name": "31f92e7267d33748f191f6bb66056e4b", "lat": 38.9446425}, {"rental_uris": {"ios": "https://dc.lft.to/lastmile_qr_scan", "android": "https://dc.lft.to/lastmile_qr_scan"}, "fusion_lon": 0.0, "type": "electric_scooter", "is_reserved": 0, "lon": -77.040285, "is_disabled": 0, "fusion_lat": 0.0, "bike_id": "76454f1f9662e5f4ba0a1e13b9ff25d9", "name": "76454f1f9662e5f4ba0a1e13b9ff25d9", "lat": 38.921665}, {"rental_uris": {"ios": "https://dc.lft.to/lastmile_qr_scan", "android": "https://dc.lft.to/lastmile_qr_scan"}, "fusion_lon": 0.0, "type": "electric_scooter", "is_reserved": 0, "lon": -77.03368233333333, "is_disabled": 0, "fusion_lat": 0.0, "bike_id": "16918b1b0e45177088cd7226704d72e6", "name": "16918b1b0e45177088cd7226704d72e6", "lat": 38.92875866666667}, {"rental_uris": {"ios": "https://dc.lft.to/lastmile_qr_scan", "android": "https://dc.lft.to/lastmile_qr_scan"}, "fusion_lon": 0.0, "type": "electric_scooter", "is_reserved": 0, "lon": -76.99154166666666, "is_disabled": 0, "fusion_lat": 0.0, "bike_id": "e8ed23e2be5efe32b270cac9d6604519", "name": "e8ed23e2be5efe32b270cac9d6604519", "lat": 38.900376333333334}, {"rental_uris": {"ios": "https://dc.lft.to/lastmile_qr_scan", "android": "https://dc.lft.to/lastmile_qr_scan"}, "fusion_lon": 0.0, "type": "electric_scooter", "is_reserved": 0, "lon": -76.97802816666666, "is_disabled": 0, "fusion_lat": 0.0, "bike_id": "57cc5a8082e49a50ad17da3e37f6a5dd", "name": "57cc5a8082e49a50ad17da3e37f6a5dd", "lat": 38.920349333333334}, {"rental_uris": {"ios": "https://dc.lft.to/lastmile_qr_scan", "android": "https://dc.lft.to/lastmile_qr_scan"}, "fusion_lon": 0.0, "type": "electric_scooter", "is_reserved": 0, "lon": -76.990514, "is_disabled": 0, "fusion_lat": 0.0, "bike_id": "cc9bba9c669de13a6d3f228dfe2b585e", "name": "cc9bba9c669de13a6d3f228dfe2b585e", "lat": 38.92617216666667}, {"rental_uris": {"ios": "https://dc.lft.to/lastmile_qr_scan", "android": "https://dc.lft.to/lastmile_qr_scan"}, "fusion_lon": 0.0, "type": "electric_scooter", "is_reserved": 0, "lon": -77.04718233333334, "is_disabled": 0, "fusion_lat": 0.0, "bike_id": "be8ac670078e5bc69b2aeb4050cbe55c", "name": "be8ac670078e5bc69b2aeb4050cbe55c", "lat": 38.899722833333335}, {"rental_uris": {"ios": "https://dc.lft.to/lastmile_qr_scan", "android": "https://dc.lft.to/lastmile_qr_scan"}, "fusion_lon": 0.0, "type": "electric_scooter", "is_reserved": 0, "lon": -77.018024, "is_disabled": 0, "fusion_lat": 0.0, "bike_id": "2b8b24475a0542d87bfc383a93840d2e", "name": "2b8b24475a0542d87bfc383a93840d2e", "lat": 38.91108333333333}, {"rental_uris": {"ios": "https://dc.lft.to/lastmile_qr_scan", "android": "https://dc.lft.to/lastmile_qr_scan"}, "fusion_lon": 0.0, "type": "electric_scooter", "is_reserved": 0, "lon": -77.00489366666666, "is_disabled": 0, "fusion_lat": 0.0, "bike_id": "25a467654694294ebf36ea261ae161bb", "name": "25a467654694294ebf36ea261ae161bb", "lat": 38.896895666666666}, {"rental_uris": {"ios": "https://dc.lft.to/lastmile_qr_scan", "android": "https://dc.lft.to/lastmile_qr_scan"}, "fusion_lon": 0.0, "type": "electric_scooter", "is_reserved": 0, "lon": -77.03213466666666, "is_disabled": 0, "fusion_lat": 0.0, "bike_id": "5d06af15240f82cc2f9a5f7a7859bd7d", "name": "5d06af15240f82cc2f9a5f7a7859bd7d", "lat": 38.8924435}, {"rental_uris": {"ios": "https://dc.lft.to/lastmile_qr_scan", "android": "https://dc.lft.to/lastmile_qr_scan"}, "fusion_lon": 0.0, "type": "electric_scooter", "is_reserved": 0, "lon": -77.002976, "is_disabled": 0, "fusion_lat": 0.0, "bike_id": "b94e7d5cbccdd4bcb59014f36449322b", "name": "b94e7d5cbccdd4bcb59014f36449322b", "lat": 38.8766135}, {"rental_uris": {"ios": "https://dc.lft.to/lastmile_qr_scan", "android": "https://dc.lft.to/lastmile_qr_scan"}, "fusion_lon": 0.0, "type": "electric_scooter", "is_reserved": 0, "lon": -77.00531, "is_disabled": 0, "fusion_lat": 0.0, "bike_id": "8e961ed99caef4048497a18ff3504783", "name": "8e961ed99caef4048497a18ff3504783", "lat": 38.874705166666665}, {"rental_uris": {"ios": "https://dc.lft.to/lastmile_qr_scan", "android": "https://dc.lft.to/lastmile_qr_scan"}, "fusion_lon": 0.0, "type": "electric_scooter", "is_reserved": 0, "lon": -77.02254683333334, "is_disabled": 0, "fusion_lat": 0.0, "bike_id": "08cb63ab0fe44e7841a65414b568e027", "name": "08cb63ab0fe44e7841a65414b568e027", "lat": 38.92897683333333}, {"rental_uris": {"ios": "https://dc.lft.to/lastmile_qr_scan", "android": "https://dc.lft.to/lastmile_qr_scan"}, "fusion_lon": 0.0, "type": "electric_scooter", "is_reserved": 0, "lon": -77.02448083333333, "is_disabled": 0, "fusion_lat": 0.0, "bike_id": "fa0d1442051e3bda63cfc89b07a26b79", "name": "fa0d1442051e3bda63cfc89b07a26b79", "lat": 38.91806183333333}, {"rental_uris": {"ios": "https://dc.lft.to/lastmile_qr_scan", "android": "https://dc.lft.to/lastmile_qr_scan"}, "fusion_lon": 0.0, "type": "electric_bike", "is_reserved": 0, "lon": -77.12643566666667, "is_disabled": 0, "fusion_lat": 0.0, "bike_id": "e6e2421cc5b03488e7d44fe284aacb57", "name": "e6e2421cc5b03488e7d44fe284aacb57", "lat": 38.8190455}, {"rental_uris": {"ios": "https://dc.lft.to/lastmile_qr_scan", "android": "https://dc.lft.to/lastmile_qr_scan"}, "fusion_lon": 0.0, "type": "electric_scooter", "is_reserved": 0, "lon": -77.01206466666666, "is_disabled": 0, "fusion_lat": 0.0, "bike_id": "a7d794a5b3709724b45aa01b6296b3d1", "name": "a7d794a5b3709724b45aa01b6296b3d1", "lat": 38.9155765}, {"rental_uris": {"ios": "https://dc.lft.to/lastmile_qr_scan", "android": "https://dc.lft.to/lastmile_qr_scan"}, "fusion_lon": 0.0, "type": "electric_scooter", "is_reserved": 0, "lon": -77.0204325, "is_disabled": 0, "fusion_lat": 0.0, "bike_id": "63c15bcf08fe589e24feca7d4a5c14ee", "name": "63c15bcf08fe589e24feca7d4a5c14ee", "lat": 38.927712666666665}, {"rental_uris": {"ios": "https://dc.lft.to/lastmile_qr_scan", "android": "https://dc.lft.to/lastmile_qr_scan"}, "fusion_lon": 0.0, "type": "electric_scooter", "is_reserved": 0, "lon": -77.04494716666666, "is_disabled": 0, "fusion_lat": 0.0, "bike_id": "4df91f5100acc8a910f114261111295b", "name": "4df91f5100acc8a910f114261111295b", "lat": 38.9010165}, {"rental_uris": {"ios": "https://dc.lft.to/lastmile_qr_scan", "android": "https://dc.lft.to/lastmile_qr_scan"}, "fusion_lon": 0.0, "type": "electric_scooter", "is_reserved": 0, "lon": -77.0071605, "is_disabled": 0, "fusion_lat": 0.0, "bike_id": "7a75bedc10d6ec16da1d19cb9fe832a2", "name": "7a75bedc10d6ec16da1d19cb9fe832a2", "lat": 38.90991616666667}, {"rental_uris": {"ios": "https://dc.lft.to/lastmile_qr_scan", "android": "https://dc.lft.to/lastmile_qr_scan"}, "fusion_lon": 0.0, "type": "electric_scooter", "is_reserved": 0, "lon": -77.00536566666666, "is_disabled": 0, "fusion_lat": 0.0, "bike_id": "97abf6ba78c53a24b2138770a81257dd", "name": "97abf6ba78c53a24b2138770a81257dd", "lat": 38.87544166666667}, {"rental_uris": {"ios": "https://dc.lft.to/lastmile_qr_scan", "android": "https://dc.lft.to/lastmile_qr_scan"}, "fusion_lon": 0.0, "type": "electric_scooter", "is_reserved": 0, "lon": -77.026521, "is_disabled": 0, "fusion_lat": 0.0, "bike_id": "954d6153c64c47bae8728ddd079bfc48", "name": "954d6153c64c47bae8728ddd079bfc48", "lat": 38.97601233333334}, {"rental_uris": {"ios": "https://dc.lft.to/lastmile_qr_scan", "android": "https://dc.lft.to/lastmile_qr_scan"}, "fusion_lon": 0.0, "type": "electric_scooter", "is_reserved": 0, "lon": -77.03389266666667, "is_disabled": 0, "fusion_lat": 0.0, "bike_id": "a3a6bddd533b812c21b7a455da3f8a6f", "name": "a3a6bddd533b812c21b7a455da3f8a6f", "lat": 38.92870633333333}, {"rental_uris": {"ios": "https://dc.lft.to/lastmile_qr_scan", "android": "https://dc.lft.to/lastmile_qr_scan"}, "fusion_lon": 0.0, "type": "electric_scooter", "is_reserved": 0, "lon": -76.945763, "is_disabled": 0, "fusion_lat": 0.0, "bike_id": "cb922ad68c7f6891bfd0712ed829be58", "name": "cb922ad68c7f6891bfd0712ed829be58", "lat": 38.8992245}, {"rental_uris": {"ios": "https://dc.lft.to/lastmile_qr_scan", "android": "https://dc.lft.to/lastmile_qr_scan"}, "fusion_lon": 0.0, "type": "electric_scooter", "is_reserved": 0, "lon": -77.0050475, "is_disabled": 0, "fusion_lat": 0.0, "bike_id": "3ba1e0cacb1ba0ce56f5bc0987b4edac", "name": "3ba1e0cacb1ba0ce56f5bc0987b4edac", "lat": 38.907273}, {"rental_uris": {"ios": "https://dc.lft.to/lastmile_qr_scan", "android": "https://dc.lft.to/lastmile_qr_scan"}, "fusion_lon": 0.0, "type": "electric_scooter", "is_reserved": 0, "lon": -77.031744, "is_disabled": 0, "fusion_lat": 0.0, "bike_id": "5843c04062d6d735455b57bc7bfcee0c", "name": "5843c04062d6d735455b57bc7bfcee0c", "lat": 38.924852}, {"rental_uris": {"ios": "https://dc.lft.to/lastmile_qr_scan", "android": "https://dc.lft.to/lastmile_qr_scan"}, "fusion_lon": 0.0, "type": "electric_bike", "is_reserved": 0, "lon": -76.93870383333334, "is_disabled": 0, "fusion_lat": 0.0, "bike_id": "916140a0b01fc3ea70eb3f411499695b", "name": "916140a0b01fc3ea70eb3f411499695b", "lat": 38.95628416666667},