{"data": {"bikes": [{"rental_uris": {"ios": "https://dc.lft.to/lastmile_qr_scan", "android": "https://dc.lft.to/lastmile_qr_scan"}, "lon": -77.04891033333334, "type": "electric_scooter", "fusion_lat": 0.0, "lat": 38.9006205, "name": "872e78266fc1e3906b468362d4be99b3", "fusion_lon": 0.0, "bike_id": "872e78266fc1e3906b468362d4be99b3", "is_disabled": 0, "is_reserved": 0}, {"rental_uris": {"ios": "https://dc.lft.to/lastmile_qr_scan", "android": "https://dc.lft.to/lastmile_qr_scan"}, "lon": -76.96527066666667, "type": "electric_scooter", "fusion_lat": 0.0, "lat": 38.87863216666667, "name": "51778f5ba1ed21542c61e0f2e4e3661f", "fusion_lon": 0.0, "bike_id": "51778f5ba1ed21542c61e0f2e4e3661f", "is_disabled": 0, "is_reserved": 0}, {"rental_uris": {"ios": "https://dc.lft.to/lastmile_qr_scan", "android": "https://dc.lft.to/lastmile_qr_scan"}, "lon": -77.06027083333333, "type": "electric_scooter", "fusion_lat": 0.0, "lat": 38.90482883333333, "name": "d1538907f282984d164d6f3d21035b71", "fusion_lon": 0.0, "bike_id": "d1538907f282984d164d6f3d21035b71", "is_disabled": 0, "is_reserved": 0}, {"rental_uris": {"ios": "https://dc.lft.to/lastmile_qr_scan", "android": "https://dc.lft.to/lastmile_qr_scan"}, "lon": -76.99500983333333, "type": "electric_bike", "fusion_lat": 0.0, "lat": 38.99998683333333, "name": "60bd69f11c0f8de3f16dee45bc3201e7", "fusion_lon": 0.0, "bike_id": "60bd69f11c0f8de3f16dee45bc3201e7", "is_disabled": 0, "is_reserved": 0}, {"rental_uris": {"ios": "https://dc.lft.to/lastmile_qr_scan", "android": "https://dc.lft.to/lastmile_qr_scan"}, "lon": -77.03853666666667, "type": "electric_scooter", "fusion_lat": 0.0, "lat": 38.915452333333334, "name": "4141fa7b66f7577c7a5c8c96af401e63", "fusion_lon": 0.0, "bike_id": "4141fa7b66f7577c7a5c8c96af401e63", "is_disabled": 0, "is_reserved": 0}, {"rental_uris": {"ios": "https://dc.lft.to/lastmile_qr_scan", "android": "https://dc.lft.to/lastmile_qr_scan"}, "lon": -77.07239483333333, "type": "electric_scooter", "fusion_lat": 0.0, "lat": 38.922507333333336, "name": "6eda695ec146ea14d5f1b208c7121b62", "fusion_lon": 0.0, "bike_id": "6eda695ec146ea14d5f1b208c7121b62", "is_disabled": 0, "is_reserved": 0}, {"rental_uris": {"ios": "https://dc.lft.to/lastmile_qr_scan", "android": "https://dc.lft.to/lastmile_qr_scan"}, "lon": -76.99976233333334, "type": "electric_scooter", "fusion_lat": 0.0, "lat": 38.83835783333333, "name": "9dbc2ff4dcd672eb66c1e652b59a6fa2", "fusion_lon": 0.0, "bike_id": "9dbc2ff4dcd672eb66c1e652b59a6fa2", "is_disabled": 0, "is_reserved": 0}, {"rental_uris": {"ios": "https://dc.lft.to/lastmile_qr_scan", "android": "https://dc.lft.to/lastmile_qr_scan"}, "lon": -77.05140166666666, "type": "electric_scooter", "fusion_lat": 0.0, "lat": 38.90123416666667, "name": "1fa7ed17ff99606780d49aa342d50ece", "fusion_lon": 0.0, "bike_id": "1fa7ed17ff99606780d49aa342d50ece", "is_disabled": 0, "is_reserved": 0}, {"rental_uris": {"ios": "https://dc.lft.to/lastmile_qr_scan", "android": "https://dc.lft.to/lastmile_qr_scan"}, "lon": -77.04158266666667, "type": "electric_scooter", "fusion_lat": 0.0, "lat": 38.914202, "name": "2cf9b33eb0ac1674726670451a312bd3", "fusion_lon": 0.0, "bike_id": "2cf9b33eb0ac1674726670451a312bd3", "is_disabled": 0, "is_reserved": 0}, {"rental_uris": {"ios": "https://dc.lft.to/lastmile_qr_scan", "android": "https://dc.lft.to/lastmile_qr_scan"}, "lon": -77.069872, "type": "electric_scooter", "fusion_lat": 0.0, "lat": 38.954819666666666, "name": "c7172b6d0a90fed5c90b071bf886896f", "fusion_lon": 0.0, "bike_id": "c7172b6d0a90fed5c90b071bf886896f", "is_disabled": 0, "is_reserved": 0}, {"rental_uris": {"ios": "https://dc.lft.to/lastmile_qr_scan", "android": "https://dc.lft.to/lastmile_qr_scan"}, "lon": -77.03982833333333, "type": "electric_scooter", "fusion_lat": 0.0, "lat": 38.8953395, "name": "d05527fb7c8ef34b54719aa192c03422", "fusion_lon": 0.0, "bike_id": "d05527fb7c8ef34b54719aa192c03422", "is_disabled": 0, "is_reserved": 0}, {"rental_uris": {"ios": "https://dc.lft.to/lastmile_qr_scan", "android": "https://dc.lft.to/lastmile_qr_scan"}, "lon": -77.00933666666667, "type": "electric_scooter", "fusion_lat": 0.0, "lat": 38.8976575, "name": "c480179ed9ac3066d1f95e8aa3039f3b", "fusion_lon": 0.0, "bike_id": "c480179ed9ac3066d1f95e8aa3039f3b", "is_disabled": 0, "is_reserved": 0}, {"rental_uris": {"ios": "https://dc.lft.to/lastmile_qr_scan", "android": "https://dc.lft.to/lastmile_qr_scan"}, "lon": -76.99003216666667, "type": "electric_scooter", "fusion_lat": 0.0, "lat": 38.865025833333334, "name": "ba14f93b0581fc6b310fed11646d2a33", "fusion_lon": 0.0, "bike_id": "ba14f93b0581fc6b310fed11646d2a33", "is_disabled": 0, "is_reserved": 0}, {"rental_uris": {"ios": "https://dc.lft.to/lastmile_qr_scan", "android": "https://dc.lft.to/lastmile_qr_scan"}, "lon": -77.0126115, "type": "electric_bike", "fusion_lat": 0.0, "lat": 38.903763833333336, "name": "cce83480263625b88448f6c38d0702a5", "fusion_lon": 0.0, "bike_id": "cce83480263625b88448f6c38d0702a5", "is_disabled": 0, "is_reserved": 0}, {"rental_uris": {"ios": "https://dc.lft.to/lastmile_qr_scan", "android": "https://dc.lft.to/lastmile_qr_scan"}, "lon": -77.019989, "type": "electric_scooter", "fusion_lat": 0.0, "lat": 38.897318, "name": "3ce4194faacdbaeaf05e3e8208885cc1", "fusion_lon": 0.0, "bike_id": "3ce4194faacdbaeaf05e3e8208885cc1", "is_disabled": 0, "is_reserved": 0}, {"rental_uris": {"ios": "https://dc.lft.to/lastmile_qr_scan", "android": "https://dc.lft.to/lastmile_qr_scan"}, "lon": -77.01552633333333, "type": "electric_scooter", "fusion_lat": 0.0, "lat": 38.8850565, "name": "284d60a5804d7e423eaf97d39b172f9c", "fusion_lon": 0.0, "bike_id": "284d60a5804d7e423eaf97d39b172f9c", "is_disabled": 0, "is_reserved": 0}, {"rental_uris": {"ios": "https://dc.lft.to/lastmile_qr_scan", "android": "https://dc.lft.to/lastmile_qr_scan"}, "lon": -77.03050666666667, "type": "electric_scooter", "fusion_lat": 0.0, "lat": 38.894806333333335, "name": "f964ddf8392304bed66c534038fefd08", "fusion_lon": 0.0, "bike_id": "f964ddf8392304bed66c534038fefd08", "is_disabled": 0, "is_reserved": 0}, {"rental_uris": {"ios": "https://dc.lft.to/lastmile_qr_scan", "android": "https://dc.lft.to/lastmile_qr_scan"}, "lon": -77.0137895, "type": "electric_scooter", "fusion_lat": 0.0, "lat": 38.869566, "name": "3b4f4830133f82a2109c91078dfc9431", "fusion_lon": 0.0, "bike_id": "3b4f4830133f82a2109c91078dfc9431", "is_disabled": 0, "is_reserved": 0}, {"rental_uris": {"ios": "https://dc.lft.to/lastmile_qr_scan", "android": "https://dc.lft.to/lastmile_qr_scan"}, "lon": -77.01820583333334, "type": "electric_scooter", "fusion_lat": 0.0, "lat": 38.929642666666666, "name": "1f690497bde32a26c39fb63e4c17b82b", "fusion_lon": 0.0, "bike_id": "1f690497bde32a26c39fb63e4c17b82b", "is_disabled": 0, "is_reserved": 0}, {"rental_uris": {"ios": "https://dc.lft.to/lastmile_qr_scan", "android": "https://dc.lft.to/lastmile_qr_scan"}, "lon": -77.03350283333333, "type": "electric_scooter", "fusion_lat": 0.0, "lat": 38.89902883333333, "name": "249f9f8f6745d7836dc2b8d8621a257d", "fusion_lon": 0.0, "bike_id": "249f9f8f6745d7836dc2b8d8621a257d", "is_disabled": 0, "is_reserved": 0}, {"rental_uris": {"ios": "https://dc.lft.to/lastmile_qr_scan", "android": "https://dc.lft.to/lastmile_qr_scan"}, "lon": -77.03810933333334, "type": "electric_scooter", "fusion_lat": 0.0, "lat": 38.93393566666667, "name": "7c8cd0f34fa649f35c892f56d96fa96c", "fusion_lon": 0.0, "bike_id": "7c8cd0f34fa649f35c892f56d96fa96c", "is_disabled": 0, "is_reserved": 0}, {"rental_uris": {"ios": "https://dc.lft.to/lastmile_qr_scan", "android": "https://dc.lft.to/lastmile_qr_scan"}, "lon": -77.06710883333334, "type": "electric_scooter", "fusion_lat": 0.0, "lat": 38.90980483333333, "name": "104cbdcf194ed77934b823bb4ebcd442", "fusion_lon": 0.0, "bike_id": "104cbdcf194ed77934b823bb4ebcd442", "is_disabled": 0, "is_reserved": 0}, {"rental_uris": {"ios": "https://dc.lft.to/lastmile_qr_scan", "android": "https://dc.lft.to/lastmile_qr_scan"}, "lon": -76.95001916666666, "type": "electric_scooter", "fusion_lat": 0.0, "lat": 38.89371716666667, "name": "1cd40a4ee1f13bcfa01cf29e64689fd3", "fusion_lon": 0.0, "bike_id": "1cd40a4ee1f13bcfa01cf29e64689fd3", "is_disabled": 0, "is_reserved": 0}, {"rental_uris": {"ios": "https://dc.lft.to/lastmile_qr_scan", "android": "https://dc.lft.to/lastmile_qr_scan"}, "lon": -77.01981283333333, "type": "electric_scooter", "fusion_lat": 0.0, "lat": 38.900989833333334, "name": "5fa5f5f5486373b5da67179ac104f9e8", "fusion_lon": 0.0, "bike_id": "5fa5f5f5486373b5da67179ac104f9e8", "is_disabled": 0, "is_reserved": 0}, {"rental_uris": {"ios": "https://dc.lft.to/lastmile_qr_scan", "android": "https://dc.lft.to/lastmile_qr_scan"}, "lon": -77.04654316666667, "type": "electric_scooter", "fusion_lat": 0.0, "lat": 38.89730183333333, "name": "823c44035ad1507bcefbd8908bdb34c5", "fusion_lon": 0.0, "bike_id": "823c44035ad1507bcefbd8908bdb34c5", "is_disabled": 0, "is_reserved": 0}, {"rental_uris": {"ios": "https://dc.lft.to/lastmile_qr_scan", "android": "https://dc.lft.to/lastmile_qr_scan"}, "lon": -76.98977316666667, "type": "electric_scooter", "fusion_lat": 0.0, "lat": 38.85915466666667, "name": "564337c6c5addccb145306948baa644f", "fusion_lon": 0.0, "bike_id": "564337c6c5addccb145306948baa644f", "is_disabled": 0, "is_reserved": 0}, {"rental_uris": {"ios": "https://dc.lft.to/lastmile_qr_scan", "android": "https://dc.lft.to/lastmile_qr_scan"}, "lon": -77.0246375, "type": "electric_scooter", "fusion_lat": 0.0, "lat": 38.92391416666667, "name": "bbc09204306ad3766047a77668b952b0", "fusion_lon": 0.0, "bike_id": "bbc09204306ad3766047a77668b952b0", "is_disabled": 0, "is_reserved": 0}, {"rental_uris": {"ios": "https://dc.lft.to/lastmile_qr_scan", "android": "https://dc.lft.to/lastmile_qr_scan"}, "lon": -77.02561933333334, "type": "electric_scooter", "fusion_lat": 0.0, "lat": 38.88644633333333, "name": "9c8acb2ff31fbaf0dead98a3b14502db", "fusion_lon": 0.0, "bike_id": "9c8acb2ff31fbaf0dead98a3b14502db", "is_disabled": 0, "is_reserved": 0}, {"rental_uris": {"ios": "https://dc.lft.to/lastmile_qr_scan", "android": "https://dc.lft.to/lastmile_qr_scan"}, "lon": -77.02565833333334, "type": "electric_scooter", "fusion_lat": 0.0, "lat": 38.942041833333334, "name": "237a995cfdbcaa1483a19094c51440c8", "fusion_lon": 0.0, "bike_id": "237a995cfdbcaa1483a19094c51440c8", "is_disabled": 0, "is_reserved": 0}, {"rental_uris": {"ios": "https://dc.lft.to/lastmile_qr_scan", "android": "https://dc.lft.to/lastmile_qr_scan"}, "lon": -77.02176033333333, "type": "electric_scooter", "fusion_lat": 0.0, "lat": 38.94287533333333, "name": "e62a3ab9bfa8314f31f2d5e80db990a0", "fusion_lon": 0.0, "bike_id": "e62a3ab9bfa8314f31f2d5e80db990a0", "is_disabled": 0, "is_reserved": 0}, {"rental_uris": {"ios": "https://dc.lft.to/lastmile_qr_scan", "android": "https://dc.lft.to/lastmile_qr_scan"}, "lon": -76.960904, "type": "electric_scooter", "fusion_lat": 0.0, "lat": 38.87415466666667, "name": "28b86f02b04acb4171c362df88564f3c", "fusion_lon": 0.0, "bike_id": "28b86f02b04acb4171c362df88564f3c", "is_disabled": 0, "is_reserved": 0}, {"rental_uris": {"ios": "https://dc.lft.to/lastmile_qr_scan", "android": "https://dc.lft.to/lastmile_qr_scan"}, "lon": -77.02742033333334, "type": "electric_scooter", "fusion_lat": 0.0, "lat": 38.90962616666667, "name": "aa9e07bcf50e76174287530e8d31736b", "fusion_lon": 0.0, "bike_id": "aa9e07bcf50e76174287530e8d31736b", "is_disabled": 0, "is_reserved": 0}, {"rental_uris": {"ios": "https://dc.lft.to/lastmile_qr_scan", "android": "https://dc.lft.to/lastmile_qr_scan"}, "lon": -77.018175, "type": "electric_scooter", "fusion_lat": 0.0, "lat": 38.90556333333333, "name": "806357e31cd4c33680a65899907525eb", "fusion_lon": 0.0, "bike_id": "806357e31cd4c33680a65899907525eb", "is_disabled": 0, "is_reserved": 0}, {"rental_uris": {"ios": "https://dc.lft.to/lastmile_qr_scan", "android": "https://dc.lft.to/lastmile_qr_scan"}, "lon": -76.98510516666667, "type": "electric_scooter", "fusion_lat": 0.0, "lat": 38.900845833333335, "name": "d0beabbd4d52d17fedeeeb722bc31664", "fusion_lon": 0.0, "bike_id": "d0beabbd4d52d17fedeeeb722bc31664", "is_disabled": 0, "is_reserved": 0}, {"rental_uris": {"ios": "https://dc.lft.to/lastmile_qr_scan", "android": "https://dc.lft.to/lastmile_qr_scan"}, "lon": -77.04755233333333, "type": "electric_scooter", "fusion_lat": 0.0, "lat": 38.8972625, "name": "9770ab31b71ac47b8a7647b15f4c802d", "fusion_lon": 0.0, "bike_id": "9770ab31b71ac47b8a7647b15f4c802d", "is_disabled": 0, "is_reserved": 0}, {"rental_uris": {"ios": "https://dc.lft.to/lastmile_qr_scan", "android": "https://dc.lft.to/lastmile_qr_scan"}, "lon": -77.04351366666667, "type": "electric_scooter", "fusion_lat": 0.0, "lat": 38.91593066666667, "name": "01e453ac4e6fce05ec0046616c61fa05", "fusion_lon": 0.0, "bike_id": "01e453ac4e6fce05ec0046616c61fa05", "is_disabled": 0, "is_reserved": 0}, {"rental_uris": {"ios": "https://dc.lft.to/lastmile_qr_scan", "android": "https://dc.lft.to/lastmile_qr_scan"}, "lon": -77.0383385, "type": "electric_scooter", "fusion_lat": 0.0, "lat": 38.90780933333333, "name": "68da51cef356600de56df0ef6c7d5e73", "fusion_lon": 0.0, "bike_id": "68da51cef356600de56df0ef6c7d5e73", "is_disabled": 0, "is_reserved": 0}, {"rental_uris": {"ios": "https://dc.lft.to/lastmile_qr_scan", "android": "https://dc.lft.to/lastmile_qr_scan"}, "lon": -77.03862183333334, "type": "electric_bike", "fusion_lat": 0.0, "lat": 38.912033, "name": "3b7f006ba5bb2cc6b11c9de048708281", "fusion_lon": 0.0, "bike_id": "3b7f006ba5bb2cc6b11c9de048708281", "is_disabled": 0, "is_reserved": 0}, {"rental_uris": {"ios": "https://dc.lft.to/lastmile_qr_scan", "android": "https://dc.lft.to/lastmile_qr_scan"}, "lon": -77.1309365, "type": "electric_bike", "fusion_lat": 0.0, "lat": 38.861618666666665, "name": "d9d5b9c0b2aed3118835950516d76d7f", "fusion_lon": 0.0, "bike_id": "d9d5b9c0b2aed3118835950516d76d7f", "is_disabled": 0, "is_reserved": 0}, {"rental_uris": {"ios": "https://dc.lft.to/lastmile_qr_scan", "android": "https://dc.lft.to/lastmile_qr_scan"}, "lon": -77.02273016666666, "type": "electric_scooter", "fusion_lat": 0.0, "lat": 38.878321, "name": "3cc0a0d693f7d170c9a207414bfa9159", "fusion_lon": 0.0, "bike_id": "3cc0a0d693f7d170c9a207414bfa9159", "is_disabled": 0, "is_reserved": 0}, {"rental_uris": {"ios": "https://dc.lft.to/lastmile_qr_scan", "android": "https://dc.lft.to/lastmile_qr_scan"}, "lon": -77.0080765, "type": "electric_scooter", "fusion_lat": 0.0, "lat": 38.914033, "name": "c24cc2068847c594befe5bc4f54ef8d4", "fusion_lon": 0.0, "bike_id": "c24cc2068847c594befe5bc4f54ef8d4", "is_disabled": 0, "is_reserved": 0}, {"rental_uris": {"ios": "https://dc.lft.to/lastmile_qr_scan", "android": "https://dc.lft.to/lastmile_qr_scan"}, "lon": -77.03208716666667, "type": "electric_scooter", "fusion_lat": 0.0, "lat": 38.9163365, "name": "5908b1c97827ac603a1a9170cd0197ec", "fusion_lon": 0.0, "bike_id": "5908b1c97827ac603a1a9170cd0197ec", "is_disabled": 0, "is_reserved": 0}, {"rental_uris": {"ios": "https://dc.lft.to/lastmile_qr_scan", "android": "https://dc.lft.to/lastmile_qr_scan"}, "lon": -77.036415, "type": "electric_scooter", "fusion_lat": 0.0, "lat": 38.91733633333333, "name": "88e69ecedf738a53d3d359c24a2b2a28", "fusion_lon": 0.0, "bike_id": "88e69ecedf738a53d3d359c24a2b2a28", "is_disabled": 0, "is_reserved": 0}, {"rental_uris": {"ios": "https://dc.lft.to/lastmile_qr_scan", "android": "https://dc.lft.to/lastmile_qr_scan"}, "lon": -77.00216016666667, "type": "electric_scooter", "fusion_lat": 0.0, "lat": 38.913386, "name": "8a66205fd4868007f3e38ce0e3ce0f02", "fusion_lon": 0.0, "bike_id": "8a66205fd4868007f3e38ce0e3ce0f02", "is_disabled": 0, "is_reserved": 0}, {"rental_uris": {"ios": "https://dc.lft.to/lastmile_qr_scan", "android": "https://dc.lft.to/lastmile_qr_scan"}, "lon": -77.02661566666667, "type": "electric_scooter", "fusion_lat": 0.0, "lat": 38.9217945, "name": "106e94adcd6742affafdfd54b5702402", "fusion_lon": 0.0, "bike_id": "106e94adcd6742affafdfd54b5702402", "is_disabled": 0, "is_reserved": 0}, {"rental_uris": {"ios": "https://dc.lft.to/lastmile_qr_scan", "android": "https://dc.lft.to/lastmile_qr_scan"}, "lon": -77.091631, "type": "electric_bike", "fusion_lat": 0.0, "lat": 38.96765216666667, "name": "c92b39aa25738630b35208a7f12e5a7f", "fusion_lon": 0.0, "bike_id": "c92b39aa25738630b35208a7f12e5a7f", "is_disabled": 0, "is_reserved": 0}, {"rental_uris": {"ios": "https://dc.lft.to/lastmile_qr_scan", "android": "https://dc.lft.to/lastmile_qr_scan"}, "lon": -77.03228666666666, "type": "electric_scooter", "fusion_lat": 0.0, "lat": 38.9617435, "name": "1de87c9e1765569a7bfe01741925571c", "fusion_lon": 0.0, "bike_id": "1de87c9e1765569a7bfe01741925571c", "is_disabled": 0, "is_reserved": 0}, {"rental_uris": {"ios": "https://dc.lft.to/lastmile_qr_scan", "android": "https://dc.lft.to/lastmile_qr_scan"}, "lon": -77.02334633333334, "type": "electric_scooter", "fusion_lat": 0.0, "lat": 38.883416, "name": "63646dd484da12dcd9df37d2c0aeff62", "fusion_lon": 0.0, "bike_id": "63646dd484da12dcd9df37d2c0aeff62", "is_disabled": 0, "is_reserved": 0}, {"rental_uris": {"ios": "https://dc.lft.to/lastmile_qr_scan", "android": "https://dc.lft.to/lastmile_qr_scan"}, "lon": -77.02435116666666, "type": "electric_scooter", "fusion_lat": 0.0, "lat": 38.87965916666667, "name": "5a81a420329e86b85bac0ed4b6a39842", "fusion_lon": 0.0, "bike_id": "5a81a420329e86b85bac0ed4b6a39842", "is_disabled": 0, "is_reserved": 0}, {"rental_uris": {"ios": "https://dc.lft.to/lastmile_qr_scan", "android": "https://dc.lft.to/lastmile_qr_scan"}, "lon": -76.93718983333333, "type": "electric_scooter", "fusion_lat": 0.0, "lat": 38.8958875, "name": "ac9fad7fd00af06489d6c711242f3615", "fusion_lon": 0.0, "bike_id": "ac9fad7fd00af06489d6c711242f3615", "is_disabled": 0, "is_reserved": 0}, {"rental_uris": {"ios": "https://dc.lft.to/lastmile_qr_scan", "android": "https://dc.lft.to/lastmile_qr_scan"}, "lon": -77.00724883333334, "type": "electric_scooter", "fusion_lat": 0.0, "lat": 38.903680333333334, "name": "4bbd699d3d7a61165b2d808cf3165ec0", "fusion_lon": 0.0, "bike_id": "4bbd699d3d7a61165b2d808cf3165ec0", "is_disabled": 0, "is_reserved": 0}, {"rental_uris": {"ios": "https://dc.lft.to/lastmile_qr_scan", "android": "https://dc.lft.to/lastmile_qr_scan"}, "lon": -77.00541566666666, "type": "electric_bike", "fusion_lat": 0.0, "lat": 38.8791445, "name": "9f38661881259e5dbbc634630df04ac3", "fusion_lon": 0.0, "bike_id": "9f38661881259e5dbbc634630df04ac3", "is_disabled": 0, "is_reserved": 0}, {"rental_uris": {"ios": "https://dc.lft.to/lastmile_qr_scan", "android": "https://dc.lft.to/lastmile_qr_scan"}, "lon": -77.0322825, "type": "electric_scooter", "fusion_lat": 0.0, "lat": 38.9266345, "name": "91645b7d68c600453838faf606a9c279", "fusion_lon": 0.0, "bike_id": "91645b7d68c600453838faf606a9c279", "is_disabled": 0, "is_reserved": 0}, {"rental_uris": {"ios": "https://dc.lft.to/lastmile_qr_scan", "android": "https://dc.lft.to/lastmile_qr_scan"}, "lon": -77.0487205, "type": "electric_scooter", "fusion_lat": 0.0, "lat": 38.90848033333333, "name": "07aad078f36f5fcce460e1a537e2a09a", "fusion_lon": 0.0, "bike_id": "07aad078f36f5fcce460e1a537e2a09a", "is_disabled": 0, "is_reserved": 0}, {"rental_uris": {"ios": "https://dc.lft.to/lastmile_qr_scan", "android": "https://dc.lft.to/lastmile_qr_scan"}, "lon": -77.03439833333333, "type": "electric_scooter", "fusion_lat": 0.0, "lat": 38.9097085, "name": "679f486a0e32f2d29e85d594d0444a11", "fusion_lon": 0.0, "bike_id": "679f486a0e32f2d29e85d594d0444a11", "is_disabled": 0, "is_reserved": 0}, {"rental_uris": {"ios": "https://dc.lft.to/lastmile_qr_scan", "android": "https://dc.lft.to/lastmile_qr_scan"}, "lon": -77.00885633333333, "type": "electric_scooter", "fusion_lat": 0.0, "lat": 38.91421183333333, "name": "5b06047461261704bd5de42beab8d17f", "fusion_lon": 0.0, "bike_id": "5b06047461261704bd5de42beab8d17f", "is_disabled": 0, "is_reserved": 0}, {"rental_uris": {"ios": "https://dc.lft.to/lastmile_qr_scan", "android": "https://dc.lft.to/lastmile_qr_scan"}, "lon": -76.974929, "type": "electric_bike", "fusion_lat": 0.0, "lat": 38.920041, "name": "1e524ae69dfd653c0f601104159045f4", "fusion_lon": 0.0, "bike_id": "1e524ae69dfd653c0f601104159045f4", "is_disabled": 0, "is_reserved": 0}, {"rental_uris": {"ios": "https://dc.lft.to/lastmile_qr_scan", "android": "https://dc.lft.to/lastmile_qr_scan"}, "lon": -77.060863, "type": "electric_scooter", "fusion_lat": 0.0, "lat": 38.912599666666665, "name": "e757e08096990f5b8b3797762880e6ef", "fusion_lon": 0.0, "bike_id": "e757e08096990f5b8b3797762880e6ef", "is_disabled": 0, "is_reserved": 0}, {"rental_uris": {"ios": "https://dc.lft.to/lastmile_qr_scan", "android": "https://dc.lft.to/lastmile_qr_scan"}, "lon": -77.0324635, "type": "electric_scooter", "fusion_lat": 0.0, "lat": 38.91927966666667, "name": "1a4e42232700af6540ae6fd80edc901b", "fusion_lon": 0.0, "bike_id": "1a4e42232700af6540ae6fd80edc901b", "is_disabled": 0, "is_reserved": 0}, {"rental_uris": {"ios": "https://dc.lft.to/lastmile_qr_scan", "android": "https://dc.lft.to/lastmile_qr_scan"}, "lon": -77.023416, "type": "electric_scooter", "fusion_lat": 0.0, "lat": 38.92512216666667, "name": "da6e22dddd0d774245f882b4ea8b60ba", "fusion_lon": 0.0, "bike_id": "da6e22dddd0d774245f882b4ea8b60ba", "is_disabled": 0, "is_reserved": 0}, {"rental_uris": {"ios": "https://dc.lft.to/lastmile_qr_scan", "android": "https://dc.lft.to/lastmile_qr_scan"}, "lon": -77.03468233333334, "type": "electric_scooter", "fusion_lat": 0.0, "lat": 38.909403833333336, "name": "d0d72246b018e5fcc6206e036cefce49", "fusion_lon": 0.0, "bike_id": "d0d72246b018e5fcc6206e036cefce49", "is_disabled": 0, "is_reserved": 0}, {"rental_uris": {"ios": "https://dc.lft.to/lastmile_qr_scan", "android": "https://dc.lft.to/lastmile_qr_scan"}, "lon": -77.035173, "type": "electric_scooter", "fusion_lat": 0.0, "lat": 38.935903833333334, "name": "01475f47ff84685bc1245d57f10461d9", "fusion_lon": 0.0, "bike_id": "01475f47ff84685bc1245d57f10461d9", "is_disabled": 0, "is_reserved": 0}, {"rental_uris": {"ios": "https://dc.lft.to/lastmile_qr_scan", "android": "https://dc.lft.to/lastmile_qr_scan"}, "lon": -77.01336516666667, "type": "electric_bike", "fusion_lat": 0.0, "lat": 38.927314833333334, "name": "9f065e9fcc3f8c0711ada7783f8006c0", "fusion_lon": 0.0, "bike_id": "9f065e9fcc3f8c0711ada7783f8006c0", "is_disabled": 0, "is_reserved": 0}, {"rental_uris": {"ios": "https://dc.lft.to/lastmile_qr_scan", "android": "https://dc.lft.to/lastmile_qr_scan"}, "lon": -76.93739916666667, "type": "electric_scooter", "fusion_lat": 0.0, "lat": 38.890099, "name": "5ee9bdd11dff2714852a237f2f04c812", "fusion_lon": 0.0, "bike_id": "5ee9bdd11dff2714852a237f2f04c812", "is_disabled": 0, "is_reserved": 0}, {"rental_uris": {"ios": "https://dc.lft.to/lastmile_qr_scan", "android": "https://dc.lft.to/lastmile_qr_scan"}, "lon": -76.97409116666667, "type": "electric_scooter", "fusion_lat": 0.0, "lat": 38.9015175, "name": "1a645ab84ed84f5b56a0bbf6c33c03dd", "fusion_lon": 0.0, "bike_id": "1a645ab84ed84f5b56a0bbf6c33c03dd", "is_disabled": 0, "is_reserved": 0}, {"rental_uris": {"ios": "https://dc.lft.to/lastmile_qr_scan", "android": "https://dc.lft.to/lastmile_qr_scan"}, "lon": -76.98654616666667, "type": "electric_scooter", "fusion_lat": 0.0, "lat": 38.85805166666667, "name": "c7bf211f4a13ebe8bcdc3f24c72b13ad", "fusion_lon": 0.0, "bike_id": "c7bf211f4a13ebe8bcdc3f24c72b13ad", "is_disabled": 0, "is_reserved": 0}, {"rental_uris": {"ios": "https://dc.lft.to/lastmile_qr_scan", "android": "https://dc.lft.to/lastmile_qr_scan"}, "lon": -77.02723016666667, "type": "electric_scooter", "fusion_lat": 0.0, "lat": 38.93428516666667, "name": "1abd55ec20b44cc74a2a61a8f3231b20", "fusion_lon": 0.0, "bike_id": "1abd55ec20b44cc74a2a61a8f3231b20", "is_disabled": 0, "is_reserved": 0}, {"rental_uris": {"ios": "https://dc.lft.to/lastmile_qr_scan", "android": "https://dc.lft.to/lastmile_qr_scan"}, "lon": -76.9606205, "type": "electric_bike", "fusion_lat": 0.0, "lat": 38.8840275, "name": "308d935ca332eefc44bf781af9ad2b19", "fusion_lon": 0.0, "bike_id": "308d935ca332eefc44bf781af9ad2b19", "is_disabled": 0, "is_reserved": 0}, {"rental_uris": {"ios": "https://dc.lft.to/lastmile_qr_scan", "android": "https://dc.lft.to/lastmile_qr_scan"}, "lon": -76.99677333333334, "type": "electric_scooter", "fusion_lat": 0.0, "lat": 38.910131166666666, "name": "ab48f0dcdfdd98a11295d72447dc8337", "fusion_lon": 0.0, "bike_id": "ab48f0dcdfdd98a11295d72447dc8337", "is_disabled": 0, "is_reserved": 0}, {"rental_uris": {"ios": "https://dc.lft.to/lastmile_qr_scan", "android": "https://dc.lft.to/lastmile_qr_scan"}, "lon": -77.06104966666666, "type": "electric_scooter", "fusion_lat": 0.0, "lat": 38.93700066666667, "name": "bcb7397bfc8f061eca0fe18d20fabd5a", "fusion_lon": 0.0, "bike_id": "bcb7397bfc8f061eca0fe18d20fabd5a", "is_disabled": 0, "is_reserved": 0}, {"rental_uris": {"ios": "https://dc.lft.to/lastmile_qr_scan", "android": "https://dc.lft.to/lastmile_qr_scan"}, "lon": -77.044924, "type": "electric_scooter", "fusion_lat": 0.0, "lat": 38.9000545, "name": "35df4ed9dad768ee727477e1a80bb0d6", "fusion_lon": 0.0, "bike_id": "35df4ed9dad768ee727477e1a80bb0d6", "is_disabled": 0, "is_reserved": 0}, {"rental_uris": {"ios": "https://dc.lft.to/lastmile_qr_scan", "android": "https://dc.lft.to/lastmile_qr_scan"}, "lon": -77.01107466666667, "type": "electric_scooter", "fusion_lat": 0.0, "lat": 38.903585166666666, "name": "ecf8f5b8d8801dba785b51992dda60a3", "fusion_lon": 0.0, "bike_id": "ecf8f5b8d8801dba785b51992dda60a3", "is_disabled": 0, "is_reserved": 0}, {"rental_uris": {"ios": "https://dc.lft.to/lastmile_qr_scan", "android": "https://dc.lft.to/lastmile_qr_scan"}, "lon": -76.95900266666666, "type": "electric_scooter", "fusion_lat": 0.0, "lat": 38.92688116666667, "name": "c1be0c3d86e7a3159a64c48bc87a6b84", "fusion_lon": 0.0, "bike_id": "c1be0c3d86e7a3159a64c48bc87a6b84", "is_disabled": 0, "is_reserved": 0}, {"rental_uris": {"ios": "https://dc.lft.to/lastmile_qr_scan", "android": "https://dc.lft.to/lastmile_qr_scan"}, "lon": -77.10441916666667, "type": "electric_bike", "fusion_lat": 0.0, "lat": 38.935599, "name": "a079912a63373d777a06c5eb6f42d314", "fusion_lon": 0.0, "bike_id": "a079912a63373d777a06c5eb6f42d314", "is_disabled": 0, "is_reserved": 0}, {"rental_uris": {"ios": "https://dc.lft.to/lastmile_qr_scan", "android": "https://dc.lft.to/lastmile_qr_scan"}, "lon": -77.07915583333333, "type": "electric_bike", "fusion_lat": 0.0, "lat": 38.802252, "name": "e09c1da5c3dc4c10651d1b4a2dac3d4c", "fusion_lon": 0.0, "bike_id": "e09c1da5c3dc4c10651d1b4a2dac3d4c", "is_disabled": 0, "is_reserved": 0}, {"rental_uris": {"ios": "https://dc.lft.to/lastmile_qr_scan", "android": "https://dc.lft.to/lastmile_qr_scan"}, "lon": -77.03671983333334, "type": "electric_scooter", "fusion_lat": 0.0, "lat": 38.91866383333333, "name": "080b4a683d5ebf9327cc153524f94a67", "fusion_lon": 0.0, "bike_id": "080b4a683d5ebf9327cc153524f94a67", "is_disabled": 0, "is_reserved": 0}, {"rental_uris": {"ios": "https://dc.lft.to/lastmile_qr_scan", "android": "https://dc.lft.to/lastmile_qr_scan"}, "lon": -77.04289766666666, "type": "electric_scooter", "fusion_lat": 0.0, "lat": 38.8952565, "name": "bc3d7278a7bdcce0e17ae1ac5fdb6387", "fusion_lon": 0.0, "bike_id": "bc3d7278a7bdcce0e17ae1ac5fdb6387", "is_disabled": 0, "is_reserved": 0}, {"rental_uris": {"ios": "https://dc.lft.to/lastmile_qr_scan", "android": "https://dc.lft.to/lastmile_qr_scan"}, "lon": -77.013657, "type": "electric_scooter", "fusion_lat": 0.0, "lat": 38.88649983333333, "name": "68d39630ef08a9f9590e27430a868e10", "fusion_lon": 0.0, "bike_id": "68d39630ef08a9f9590e27430a868e10", "is_disabled": 0, "is_reserved": 0}, {"rental_uris": {"ios": "https://dc.lft.to/lastmile_qr_scan", "android": "https://dc.lft.to/lastmile_qr_scan"}, "lon": -77.03465116666666, "type": "electric_scooter", "fusion_lat": 0.0, "lat": 38.909411166666665, "name": "339492197cb147932df107e4c9de6c86", "fusion_lon": 0.0, "bike_id": "339492197cb147932df107e4c9de6c86", "is_disabled": 0, "is_reserved": 0}, {"rental_uris": {"ios": "https://dc.lft.to/lastmile_qr_scan", "android": "https://dc.lft.to/lastmile_qr_scan"}, "lon": -77.071477, "type": "electric_scooter", "fusion_lat": 0.0, "lat": 38.9527285, "name": "7eaec7636d020ae0807454f08cf3640e", "fusion_lon": 0.0, "bike_id": "7eaec7636d020ae0807454f08cf3640e", "is_disabled": 0, "is_reserved": 0}, {"rental_uris": {"ios": "https://dc.lft.to/lastmile_qr_scan", "android": "https://dc.lft.to/lastmile_qr_scan"}, "lon": -76.93174433333333, "type": "electric_scooter", "fusion_lat": 0.0, "lat": 38.89881483333333, "name": "5471c8e8782c0a8fb0bb5568dbfa71c8", "fusion_lon": 0.0, "bike_id": "5471c8e8782c0a8fb0bb5568dbfa71c8", "is_disabled": 0, "is_reserved": 0}, {"rental_uris": {"ios": "https://dc.lft.to/lastmile_qr_scan", "android": "https://dc.lft.to/lastmile_qr_scan"}, "lon": -77.02413783333333, "type": "electric_scooter", "fusion_lat": 0.0, "lat": 38.9061445, "name": "c871c22bb145840717919cb452bc3806", "fusion_lon": 0.0, "bike_id": "c871c22bb145840717919cb452bc3806", "is_disabled": 0, "is_reserved": 0}, {"rental_uris": {"ios": "https://dc.lft.to/lastmile_qr_scan", "android": "https://dc.lft.to/lastmile_qr_scan"}, "lon": -76.95190733333334, "type": "electric_bike", "fusion_lat": 0.0, "lat": 38.90681633333333, "name": "fa527b008d6cf58815e3a309e2d304d4", "fusion_lon": 0.0, "bike_id": "fa527b008d6cf58815e3a309e2d304d4", "is_disabled": 0, "is_reserved": 0}, {"rental_uris": {"ios": "https://dc.lft.to/lastmile_qr_scan", "android": "https://dc.lft.to/lastmile_qr_scan"}, "lon": -76.99854383333333, "type": "electric_scooter", "fusion_lat": 0.0, "lat": 38.90266733333333, "name": "a4f97c1e1e5ed4ce400cbd3d2e3f6921", "fusion_lon": 0.0, "bike_id": "a4f97c1e1e5ed4ce400cbd3d2e3f6921", "is_disabled": 0, "is_reserved": 0}, {"rental_uris": {"ios": "https://dc.lft.to/lastmile_qr_scan", "android": "https://dc.lft.to/lastmile_qr_scan"}, "lon": -77.02956983333333, "type": "electric_scooter", "fusion_lat": 0.0, "lat": 38.91771383333333, "name": "055efd5ad857bb68c2bcbc6b45b48354", "fusion_lon": 0.0, "bike_id": "055efd5ad857bb68c2bcbc6b45b48354", "is_disabled": 0, "is_reserved": 0}, {"rental_uris": {"ios": "https://dc.lft.to/lastmile_qr_scan", "android": "https://dc.lft.to/lastmile_qr_scan"}, "lon": -77.03352616666666, "type": "electric_bike", "fusion_lat": 0.0, "lat": 38.968020833333334, "name": "a27b8c74bca17a8b4276f75be4eaca83", "fusion_lon": 0.0, "bike_id": "a27b8c74bca17a8b4276f75be4eaca83", "is_disabled": 0, "is_reserved": 0}, {"rental_uris": {"ios": "https://dc.lft.to/lastmile_qr_scan", "android": "https://dc.lft.to/lastmile_qr_scan"}, "lon": -77.039356, "type": "electric_scooter", "fusion_lat": 0.0, "lat": 38.8990235, "name": "234cce3707e8da4829a9f16d8ce18fa2", "fusion_lon": 0.0, "bike_id": "234cce3707e8da4829a9f16d8ce18fa2", "is_disabled": 0, "is_reserved": 0}, {"rental_uris": {"ios": "https://dc.lft.to/lastmile_qr_scan", "android": "https://dc.lft.to/lastmile_qr_scan"}, "lon": -77.02893283333333, "type": "electric_scooter", "fusion_lat": 0.0, "lat": 38.92570883333333, "name": "a4c6c1ae07cd03e9982fb2e696fa345d", "fusion_lon": 0.0, "bike_id": "a4c6c1ae07cd03e9982fb2e696fa345d", "is_disabled": 0, "is_reserved": 0}, {"rental_uris": {"ios": "https://dc.lft.to/lastmile_qr_scan", "android": "https://dc.lft.to/lastmile_qr_scan"}, "lon": -77.0312265, "type": "electric_scooter", "fusion_lat": 0.0, "lat": 38.91333266666667, "name": "f3e80d49dfcb910d94955c99b9e74fcd", "fusion_lon": 0.0, "bike_id": "f3e80d49dfcb910d94955c99b9e74fcd", "is_disabled": 0, "is_reserved": 0}, {"rental_uris": {"ios": "https://dc.lft.to/lastmile_qr_scan", "android": "https://dc.lft.to/lastmile_qr_scan"}, "lon": -77.05885583333334, "type": "electric_scooter", "fusion_lat": 0.0, "lat": 38.9363235, "name": "74227f78e42a35e59722e5ea27942cd1", "fusion_lon": 0.0, "bike_id": "74227f78e42a35e59722e5ea27942cd1", "is_disabled": 0, "is_reserved": 0}, {"rental_uris": {"ios": "https://dc.lft.to/lastmile_qr_scan", "android": "https://dc.lft.to/lastmile_qr_scan"}, "lon": -77.01101133333333, "type": "electric_scooter", "fusion_lat": 0.0, "lat": 38.895477166666666, "name": "5391f7424a3b2bdce2bb8edcb7a1f435", "fusion_lon": 0.0, "bike_id": "5391f7424a3b2bdce2bb8edcb7a1f435", "is_disabled": 0, "is_reserved": 0}, {"rental_uris": {"ios": "https://dc.lft.to/lastmile_qr_scan", "android": "https://dc.lft.to/lastmile_qr_scan"}, "lon": -77.03120883333334, "type": "electric_scooter", "fusion_lat": 0.0, "lat": 38.89974266666667, "name": "83ff78040619614b7524143d180f4c51", "fusion_lon": 0.0, "bike_id": "83ff78040619614b7524143d180f4c51", "is_disabled": 0, "is_reserved": 0}, {"rental_uris": {"ios": "https://dc.lft.to/lastmile_qr_scan", "android": "https://dc.lft.to/lastmile_qr_scan"}, "lon": -77.04684683333333, "type": "electric_scooter", "fusion_lat": 0.0, "lat": 38.896115333333334, "name": "0afb6f0456399eda5d64c4773936949e", "fusion_lon": 0.0, "bike_id": "0afb6f0456399eda5d64c4773936949e", "is_disabled": 0, "is_reserved": 0}, {"rental_uris": {"ios": "https://dc.lft.to/lastmile_qr_scan", "android": "https://dc.lft.to/lastmile_qr_scan"}, "lon": -77.05919866666666, "type": "electric_scooter", "fusion_lat": 0.0, "lat": 38.90232966666667, "name": "e104d00ef86da5f20065b7ec9622a35d", "fusion_lon": 0.0, "bike_id": "e104d00ef86da5f20065b7ec9622a35d", "is_disabled": 0, "is_reserved": 0}, {"rental_uris": {"ios": "https://dc.lft.to/lastmile_qr_scan", "android": "https://dc.lft.to/lastmile_qr_scan"}, "lon": -77.04484466666666, "type": "electric_scooter", "fusion_lat": 0.0, "lat": 38.912177666666665, "name": "b7a886aefca7694bf07df907dbc337ed", "fusion_lon": 0.0, "bike_id": "b7a886aefca7694bf07df907dbc337ed", "is_disabled": 0, "is_reserved": 0}, {"rental_uris": {"ios": "https://dc.lft.to/lastmile_qr_scan", "android": "https://dc.lft.to/lastmile_qr_scan"}, "lon": -77.02766866666667, "type": "electric_scooter", "fusion_lat": 0.0, "lat": 38.88162633333334, "name": "589ad04d98c07332dda79891cc205aaa", "fusion_lon": 0.0, "bike_id": "589ad04d98c07332dda79891cc205aaa", "is_disabled": 0, "is_reserved": 0}, {"rental_uris": {"ios": "https://dc.lft.to/lastmile_qr_scan", "android": "https://dc.lft.to/lastmile_qr_scan"}, "lon": -76.98791216666666, "type": "electric_bike", "fusion_lat": 0.0, "lat": 38.904124, "name": "023275e95533786b8ec1913b65319196", "fusion_lon": 0.0, "bike_id": "023275e95533786b8ec1913b65319196", "is_disabled": 0, "is_reserved": 0}, {"rental_uris": {"ios": "https://dc.lft.to/lastmile_qr_scan", "android": "https://dc.lft.to/lastmile_qr_scan"}, "lon": -77.0296295, "type": "electric_scooter", "fusion_lat": 0.0, "lat": 38.92563, "name": "49176e9793a22373c4581b942ba548d7", "fusion_lon": 0.0, "bike_id": "49176e9793a22373c4581b942ba548d7", "is_disabled": 0, "is_reserved": 0}, {"rental_uris": {"ios": "https://dc.lft.to/lastmile_qr_scan", "android": "https://dc.lft.to/lastmile_qr_scan"}, "lon": -77.11799683333334, "type": "electric_bike", "fusion_lat": 0.0, "lat": 38.898366833333334, "name": "7496e8a125c34f5439acc9cb4818a5d5", "fusion_lon": 0.0, "bike_id": "7496e8a125c34f5439acc9cb4818a5d5", "is_disabled": 0, "is_reserved": 0}, {"rental_uris": {"ios": "https://dc.lft.to/lastmile_qr_scan", "android": "https://dc.lft.to/lastmile_qr_scan"}, "lon": -77.032072, "type": "electric_scooter", "fusion_lat": 0.0, "lat": 38.90022883333334, "name": "64f2d32b1e568400bca217acc38c36bd", "fusion_lon": 0.0, "bike_id": "64f2d32b1e568400bca217acc38c36bd", "is_disabled": 0, "is_reserved": 0}, {"rental_uris": {"ios": "https://dc.lft.to/lastmile_qr_scan", "android": "https://dc.lft.to/lastmile_qr_scan"}, "lon": -77.01243883333333, "type": "electric_scooter", "fusion_lat": 0.0, "lat": 38.917055166666664, "name": "33f04bdf9dec08e8e8a87fd6883a2add", "fusion_lon": 0.0, "bike_id": "33f04bdf9dec08e8e8a87fd6883a2add", "is_disabled": 0, "is_reserved": 0}, {"rental_uris": {"ios": "https://dc.lft.to/lastmile_qr_scan", "android": "https://dc.lft.to/lastmile_qr_scan"}, "lon": -77.05224616666666, "type": "electric_scooter", "fusion_lat": 0.0, "lat": 38.8980685, "name": "00911bacbda270b147cd25afc03d50c4", "fusion_lon": 0.0, "bike_id": "00911bacbda270b147cd25afc03d50c4", "is_disabled": 0, "is_reserved": 0}, {"rental_uris": {"ios": "https://dc.lft.to/lastmile_qr_scan", "android": "https://dc.lft.to/lastmile_qr_scan"}, "lon": -76.95470516666667, "type": "electric_bike", "fusion_lat": 0.0, "lat": 38.8864335, "name": "8a96446040a1de1f08c53165bc207b7e", "fusion_lon": 0.0, "bike_id": "8a96446040a1de1f08c53165bc207b7e", "is_disabled": 0, "is_reserved": 0}, {"rental_uris": {"ios": "https://dc.lft.to/lastmile_qr_scan", "android": "https://dc.lft.to/lastmile_qr_scan"}, "lon": -77.04338416666667, "type": "electric_scooter", "fusion_lat": 0.0, "lat": 38.90823483333333, "name": "3d0e3310e1cafc24a430fd7c10bb9776", "fusion_lon": 0.0, "bike_id": "3d0e3310e1cafc24a430fd7c10bb9776", "is_disabled": 0, "is_reserved": 0}, {"rental_uris": {"ios": "https://dc.lft.to/lastmile_qr_scan", "android": "https://dc.lft.to/lastmile_qr_scan"}, "lon": -77.01537216666667, "type": "electric_scooter", "fusion_lat": 0.0, "lat": 38.88738416666666, "name": "137dedda36caa540078007a9c738c46f", "fusion_lon": 0.0, "bike_id": "137dedda36caa540078007a9c738c46f", "is_disabled": 0, "is_reserved": 0}, {"rental_uris": {"ios": "https://dc.lft.to/lastmile_qr_scan", "android": "https://dc.lft.to/lastmile_qr_scan"}, "lon": -77.0270325, "type": "electric_scooter", "fusion_lat": 0.0, "lat": 38.91626216666667, "name": "03c24ed4e5f8adf91fea6f797a543e11", "fusion_lon": 0.0, "bike_id": "03c24ed4e5f8adf91fea6f797a543e11", "is_disabled": 0, "is_reserved": 0}, {"rental_uris": {"ios": "https://dc.lft.to/lastmile_qr_scan", "android": "https://dc.lft.to/lastmile_qr_scan"}, "lon": -77.0598475, "type": "electric_scooter", "fusion_lat": 0.0, "lat": 38.935488666666664, "name": "5d7bc1a26409b4b413f0fbd9b1692ba7", "fusion_lon": 0.0, "bike_id": "5d7bc1a26409b4b413f0fbd9b1692ba7", "is_disabled": 0, "is_reserved": 0}, {"rental_uris": {"ios": "https://dc.lft.to/lastmile_qr_scan", "android": "https://dc.lft.to/lastmile_qr_scan"}, "lon": -76.9745885, "type": "electric_scooter", "fusion_lat": 0.0, "lat": 38.8654115, "name": "3bfe9525617d639d035859b2bced4021", "fusion_lon": 0.0, "bike_id": "3bfe9525617d639d035859b2bced4021", "is_disabled": 0, "is_reserved": 0}, {"rental_uris": {"ios": "https://dc.lft.to/lastmile_qr_scan", "android": "https://dc.lft.to/lastmile_qr_scan"}, "lon": -77.06287266666666, "type": "electric_scooter", "fusion_lat": 0.0, "lat": 38.905328833333336, "name": "e9f93c7b4cfcdedf5b9dbf6cf58bfbeb", "fusion_lon": 0.0, "bike_id": "e9f93c7b4cfcdedf5b9dbf6cf58bfbeb", "is_disabled": 0, "is_reserved": 0}, {"rental_uris": {"ios": "https://dc.lft.to/lastmile_qr_scan", "android": "https://dc.lft.to/lastmile_qr_scan"}, "lon": -77.0227115, "type": "electric_scooter", "fusion_lat": 0.0, "lat": 38.91268816666667, "name": "633099a1ec101fd47edf1e0d46d1cc3a", "fusion_lon": 0.0, "bike_id": "633099a1ec101fd47edf1e0d46d1cc3a", "is_disabled": 0, "is_reserved": 0}, {"rental_uris": {"ios": "https://dc.lft.to/lastmile_qr_scan", "android": "https://dc.lft.to/lastmile_qr_scan"}, "lon": -76.99062633333334, "type": "electric_scooter", "fusion_lat": 0.0, "lat": 38.863547833333335, "name": "532d4e6c40d6bef5a08bcf3a000676a0", "fusion_lon": 0.0, "bike_id": "532d4e6c40d6bef5a08bcf3a000676a0", "is_disabled": 0, "is_reserved": 0}, {"rental_uris": {"ios": "https://dc.lft.to/lastmile_qr_scan", "android": "https://dc.lft.to/lastmile_qr_scan"}, "lon": -77.03457966666667, "type": "electric_scooter", "fusion_lat": 0.0, "lat": 38.93637733333333, "name": "78b5308892d970e725208c5f9033c16e", "fusion_lon": 0.0, "bike_id": "78b5308892d970e725208c5f9033c16e", "is_disabled": 0, "is_reserved": 0}, {"rental_uris": {"ios": "https://dc.lft.to/lastmile_qr_scan", "android": "https://dc.lft.to/lastmile_qr_scan"}, "lon": -76.97816666666667, "type": "electric_scooter", "fusion_lat": 0.0, "lat": 38.886141333333335, "name": "eccb3d02d29af60252c97de3c1fde3d4", "fusion_lon": 0.0, "bike_id": "eccb3d02d29af60252c97de3c1fde3d4", "is_disabled": 0, "is_reserved": 0}, {"rental_uris": {"ios": "https://dc.lft.to/lastmile_qr_scan", "android": "https://dc.lft.to/lastmile_qr_scan"}, "lon": -77.029544, "type": "electric_scooter", "fusion_lat": 0.0, "lat": 38.916843666666665, "name": "51dbfe24aa6bc0edf060848225bf9332", "fusion_lon": 0.0, "bike_id": "51dbfe24aa6bc0edf060848225bf9332", "is_disabled": 0, "is_reserved": 0}, {"rental_uris": {"ios": "https://dc.lft.to/lastmile_qr_scan", "android": "https://dc.lft.to/lastmile_qr_scan"}, "lon": -77.0049045, "type": "electric_scooter", "fusion_lat": 0.0, "lat": 38.874595, "name": "ff087e31fe7ecbaf5f8a3ea8097bb262", "fusion_lon": 0.0, "bike_id": "ff087e31fe7ecbaf5f8a3ea8097bb262", "is_disabled": 0, "is_reserved": 0}, {"rental_uris": {"ios": "https://dc.lft.to/lastmile_qr_scan", "android": "https://dc.lft.to/lastmile_qr_scan"}, "lon": -77.046579, "type": "electric_scooter", "fusion_lat": 0.0, "lat": 38.893634, "name": "7cd49027f50f8d945ce60820807a9361", "fusion_lon": 0.0, "bike_id": "7cd49027f50f8d945ce60820807a9361", "is_disabled": 0, "is_reserved": 0}, {"rental_uris": {"ios": "https://dc.lft.to/lastmile_qr_scan", "android": "https://dc.lft.to/lastmile_qr_scan"}, "lon": -77.02953566666666, "type": "electric_scooter", "fusion_lat": 0.0, "lat": 38.9126985, "name": "5c81aec864b230dc5a3151e7e7b25dee", "fusion_lon": 0.0, "bike_id": "5c81aec864b230dc5a3151e7e7b25dee", "is_disabled": 0, "is_reserved": 0}, {"rental_uris": {"ios": "https://dc.lft.to/lastmile_qr_scan", "android": "https://dc.lft.to/lastmile_qr_scan"}, "lon": -77.01298033333333, "type": "electric_bike", "fusion_lat": 0.0, "lat": 38.88118433333333, "name": "bedcb58952667af9c130a97ee0a38d37", "fusion_lon": 0.0, "bike_id": "bedcb58952667af9c130a97ee0a38d37", "is_disabled": 0, "is_reserved": 0}, {"rental_uris": {"ios": "https://dc.lft.to/lastmile_qr_scan", "android": "https://dc.lft.to/lastmile_qr_scan"}, "lon": -77.0457905, "type": "electric_scooter", "fusion_lat": 0.0, "lat": 38.910582166666664, "name": "88bbc4c14ed421d18685c52f0bf4b5ef", "fusion_lon": 0.0, "bike_id": "88bbc4c14ed421d18685c52f0bf4b5ef", "is_disabled": 0, "is_reserved": 0}, {"rental_uris": {"ios": "https://dc.lft.to/lastmile_qr_scan", "android": "https://dc.lft.to/lastmile_qr_scan"}, "lon": -77.02061983333333, "type": "electric_scooter", "fusion_lat": 0.0, "lat": 38.908425, "name": "4d958b19a3730bdfbbd0192f31109d7a", "fusion_lon": 0.0, "bike_id": "4d958b19a3730bdfbbd0192f31109d7a", "is_disabled": 0, "is_reserved": 0}, {"rental_uris": {"ios": "https://dc.lft.to/lastmile_qr_scan", "android": "https://dc.lft.to/lastmile_qr_scan"}, "lon": -77.0058275, "type": "electric_scooter", "fusion_lat": 0.0, "lat": 38.844962333333335, "name": "10871027a40605883f7f7f4c1e307ec3", "fusion_lon": 0.0, "bike_id": "10871027a40605883f7f7f4c1e307ec3", "is_disabled": 0, "is_reserved": 0}, {"rental_uris": {"ios": "https://dc.lft.to/lastmile_qr_scan", "android": "https://dc.lft.to/lastmile_qr_scan"}, "lon": -77.02325016666667, "type": "electric_scooter", "fusion_lat": 0.0, "lat": 38.87872316666667, "name": "326f1a648cd4000ed47f08ecd464cbd1", "fusion_lon": 0.0, "bike_id": "326f1a648cd4000ed47f08ecd464cbd1", "is_disabled": 0, "is_reserved": 0}, {"rental_uris": {"ios": "https://dc.lft.to/lastmile_qr_scan", "android": "https://dc.lft.to/lastmile_qr_scan"}, "lon": -77.04316566666667, "type": "electric_scooter", "fusion_lat": 0.0, "lat": 38.91886233333334, "name": "92799e56de495fa81b83f67993076c28", "fusion_lon": 0.0, "bike_id": "92799e56de495fa81b83f67993076c28", "is_disabled": 0, "is_reserved": 0}, {"rental_uris": {"ios": "https://dc.lft.to/lastmile_qr_scan", "android": "https://dc.lft.to/lastmile_qr_scan"}, "lon": -77.0385365, "type": "electric_scooter", "fusion_lat": 0.0, "lat": 38.92022983333333, "name": "53cc285fbb2c8832713b4583169aa175", "fusion_lon": 0.0, "bike_id": "53cc285fbb2c8832713b4583169aa175", "is_disabled": 0, "is_reserved": 0}, {"rental_uris": {"ios": "https://dc.lft.to/lastmile_qr_scan", "android": "https://dc.lft.to/lastmile_qr_scan"}, "lon": -77.019, "type": "electric_scooter", "fusion_lat": 0.0, "lat": 38.911901, "name": "20d94eb3ca78212c7aae0fad6f3db2ed", "fusion_lon": 0.0, "bike_id": "20d94eb3ca78212c7aae0fad6f3db2ed", "is_disabled": 0, "is_reserved": 0}, {"rental_uris": {"ios": "https://dc.lft.to/lastmile_qr_scan", "android": "https://dc.lft.to/lastmile_qr_scan"}, "lon": -76.97807916666666, "type": "electric_scooter", "fusion_lat": 0.0, "lat": 38.90308383333333, "name": "426d36a2112b5b8ecd8cd0a6cc0d1023", "fusion_lon": 0.0, "bike_id": "426d36a2112b5b8ecd8cd0a6cc0d1023", "is_disabled": 0, "is_reserved": 0}, {"rental_uris": {"ios": "https://dc.lft.to/lastmile_qr_scan", "android": "https://dc.lft.to/lastmile_qr_scan"}, "lon": -76.98577583333334, "type": "electric_scooter", "fusion_lat": 0.0, "lat": 38.86158366666667, "name": "2c6d44b71fe738955a4f1cc80585afa3", "fusion_lon": 0.0, "bike_id": "2c6d44b71fe738955a4f1cc80585afa3", "is_disabled": 0, "is_reserved": 0}, {"rental_uris": {"ios": "https://dc.lft.to/lastmile_qr_scan", "android": "https://dc.lft.to/lastmile_qr_scan"}, "lon": -77.0239685, "type": "electric_scooter", "fusion_lat": 0.0, "lat": 38.9167615, "name": "09bef9cb3c6951f947316cbca7e95298", "fusion_lon": 0.0, "bike_id": "09bef9cb3c6951f947316cbca7e95298", "is_disabled": 0, "is_reserved": 0}, {"rental_uris": {"ios": "https://dc.lft.to/lastmile_qr_scan", "android": "https://dc.lft.to/lastmile_qr_scan"}, "lon": -77.023216, "type": "electric_scooter", "fusion_lat": 0.0, "lat": 38.8787635, "name": "82aaec910f2814e3804e0e8561cf4936", "fusion_lon": 0.0, "bike_id": "82aaec910f2814e3804e0e8561cf4936", "is_disabled": 0, "is_reserved": 0}, {"rental_uris": {"ios": "https://dc.lft.to/lastmile_qr_scan", "android": "https://dc.lft.to/lastmile_qr_scan"}, "lon": -77.01111583333333, "type": "electric_scooter", "fusion_lat": 0.0, "lat": 38.89501533333333, "name": "0cb94d1e74266b49a86f4f17a6a24501", "fusion_lon": 0.0, "bike_id": "0cb94d1e74266b49a86f4f17a6a24501", "is_disabled": 0, "is_reserved": 0}, {"rental_uris": {"ios": "https://dc.lft.to/lastmile_qr_scan", "android": "https://dc.lft.to/lastmile_qr_scan"}, "lon": -76.975639, "type": "electric_scooter", "fusion_lat": 0.0, "lat": 38.90440816666667, "name": "1c099c40ab1c6aa98a7307a9a2bd84bb", "fusion_lon": 0.0, "bike_id": "1c099c40ab1c6aa98a7307a9a2bd84bb", "is_disabled": 0, "is_reserved": 0}, {"rental_uris": {"ios": "https://dc.lft.to/lastmile_qr_scan", "android": "https://dc.lft.to/lastmile_qr_scan"}, "lon": -77.003413, "type": "electric_scooter", "fusion_lat": 0.0, "lat": 38.90810233333333, "name": "b67ca3a751d09ba4d55af6451372f4b7", "fusion_lon": 0.0, "bike_id": "b67ca3a751d09ba4d55af6451372f4b7", "is_disabled": 0, "is_reserved": 0}, {"rental_uris": {"ios": "https://dc.lft.to/lastmile_qr_scan", "android": "https://dc.lft.to/lastmile_qr_scan"}, "lon": -77.04302116666666, "type": "electric_scooter", "fusion_lat": 0.0, "lat": 38.905641833333334, "name": "fb41a31fb3a7e400cb6c5c7eced4aa60", "fusion_lon": 0.0, "bike_id": "fb41a31fb3a7e400cb6c5c7eced4aa60", "is_disabled": 0, "is_reserved": 0}, {"rental_uris": {"ios": "https://dc.lft.to/lastmile_qr_scan", "android": "https://dc.lft.to/lastmile_qr_scan"}, "lon": -76.98885333333334, "type": "electric_scooter", "fusion_lat": 0.0, "lat": 38.86663816666667, "name": "338d50d2f61cbc126da1f701aa111a29", "fusion_lon": 0.0, "bike_id": "338d50d2f61cbc126da1f701aa111a29", "is_disabled": 0, "is_reserved": 0}, {"rental_uris": {"ios": "https://dc.lft.to/lastmile_qr_scan", "android": "https://dc.lft.to/lastmile_qr_scan"}, "lon": -77.0055735, "type": "electric_scooter", "fusion_lat": 0.0, "lat": 38.87551533333333, "name": "994176f25f8baafd5be9ede2a1b267d9", "fusion_lon": 0.0, "bike_id": "994176f25f8baafd5be9ede2a1b267d9", "is_disabled": 0, "is_reserved": 0}, {"rental_uris": {"ios": "https://dc.lft.to/lastmile_qr_scan", "android": "https://dc.lft.to/lastmile_qr_scan"}, "lon": -77.03810933333334, "type": "electric_scooter", "fusion_lat": 0.0, "lat": 38.9098155, "name": "c94dc9ae684fbaeca3146678f5d9f367", "fusion_lon": 0.0, "bike_id": "c94dc9ae684fbaeca3146678f5d9f367", "is_disabled": 0, "is_reserved": 0}, {"rental_uris": {"ios": "https://dc.lft.to/lastmile_qr_scan", "android": "https://dc.lft.to/lastmile_qr_scan"}, "lon": -77.03177483333333, "type": "electric_scooter", "fusion_lat": 0.0, "lat": 38.8835035, "name": "c7579e7ccbc84145b07d9d5594bdf372", "fusion_lon": 0.0, "bike_id": "c7579e7ccbc84145b07d9d5594bdf372", "is_disabled": 0, "is_reserved": 0}, {"rental_uris": {"ios": "https://dc.lft.to/lastmile_qr_scan", "android": "https://dc.lft.to/lastmile_qr_scan"}, "lon": -77.03262783333334, "type": "electric_scooter", "fusion_lat": 0.0, "lat": 38.93524816666667, "name": "0b792fe3eeb791a70fce4f549e4c477d", "fusion_lon": 0.0, "bike_id": "0b792fe3eeb791a70fce4f549e4c477d", "is_disabled": 0, "is_reserved": 0}, {"rental_uris": {"ios": "https://dc.lft.to/lastmile_qr_scan", "android": "https://dc.lft.to/lastmile_qr_scan"}, "lon": -77.01410333333334, "type": "electric_scooter", "fusion_lat": 0.0, "lat": 38.920240666666665, "name": "50922878151bbbbdbfaea4e80ec72ab6", "fusion_lon": 0.0, "bike_id": "50922878151bbbbdbfaea4e80ec72ab6", "is_disabled": 0, "is_reserved": 0}, {"rental_uris": {"ios": "https://dc.lft.to/lastmile_qr_scan", "android": "https://dc.lft.to/lastmile_qr_scan"}, "lon": -77.02981433333333, "type": "electric_scooter", "fusion_lat": 0.0, "lat": 38.90041016666667, "name": "1856c48dac3442bd659baf046243dd3f", "fusion_lon": 0.0, "bike_id": "1856c48dac3442bd659baf046243dd3f", "is_disabled": 0, "is_reserved": 0}, {"rental_uris": {"ios": "https://dc.lft.to/lastmile_qr_scan", "android": "https://dc.lft.to/lastmile_qr_scan"}, "lon": -77.03262933333333, "type": "electric_scooter", "fusion_lat": 0.0, "lat": 38.900127833333336, "name": "b2f102a127ae0e19e80bc61f646436ad", "fusion_lon": 0.0, "bike_id": "b2f102a127ae0e19e80bc61f646436ad", "is_disabled": 0, "is_reserved": 0}, {"rental_uris": {"ios": "https://dc.lft.to/lastmile_qr_scan", "android": "https://dc.lft.to/lastmile_qr_scan"}, "lon": -77.03271616666666, "type": "electric_scooter", "fusion_lat": 0.0, "lat": 38.928536, "name": "8e11a83ec42809e787a5d5bad3415c4a", "fusion_lon": 0.0, "bike_id": "8e11a83ec42809e787a5d5bad3415c4a", "is_disabled": 0, "is_reserved": 0}, {"rental_uris": {"ios": "https://dc.lft.to/lastmile_qr_scan", "android": "https://dc.lft.to/lastmile_qr_scan"}, "lon": -76.93870866666667, "type": "electric_scooter", "fusion_lat": 0.0, "lat": 38.900848333333336, "name": "f92861e013debfcb2ce3debfea4be550", "fusion_lon": 0.0, "bike_id": "f92861e013debfcb2ce3debfea4be550", "is_disabled": 0, "is_reserved": 0}, {"rental_uris": {"ios": "https://dc.lft.to/lastmile_qr_scan", "android": "https://dc.lft.to/lastmile_qr_scan"}, "lon": -76.97671483333333, "type": "electric_bike", "fusion_lat": 0.0, "lat": 38.9662275, "name": "8847f08cc449a52063933b751f7146bb", "fusion_lon": 0.0, "bike_id": "8847f08cc449a52063933b751f7146bb", "is_disabled": 0, "is_reserved": 0}, {"rental_uris": {"ios": "https://dc.lft.to/lastmile_qr_scan", "android": "https://dc.lft.to/lastmile_qr_scan"}, "lon": -77.03967816666666, "type": "electric_scooter", "fusion_lat": 0.0, "lat": 38.919775, "name": "92f61fe7fa02c02599a62b5d67d53d3b", "fusion_lon": 0.0, "bike_id": "92f61fe7fa02c02599a62b5d67d53d3b", "is_disabled": 0, "is_reserved": 0}, {"rental_uris": {"ios": "https://dc.lft.to/lastmile_qr_scan", "android": "https://dc.lft.to/lastmile_qr_scan"}, "lon": -77.02132583333334, "type": "electric_scooter", "fusion_lat": 0.0, "lat": 38.8960185, "name": "c0eac6345a63743b4de5f2d9180d58eb", "fusion_lon": 0.0, "bike_id": "c0eac6345a63743b4de5f2d9180d58eb", "is_disabled": 0, "is_reserved": 0}, {"rental_uris": {"ios": "https://dc.lft.to/lastmile_qr_scan", "android": "https://dc.lft.to/lastmile_qr_scan"}, "lon": -77.01667216666667, "type": "electric_scooter", "fusion_lat": 0.0, "lat": 38.90051416666667, "name": "634c2a71d40865235cb1d395ec233477", "fusion_lon": 0.0, "bike_id": "634c2a71d40865235cb1d395ec233477", "is_disabled": 0, "is_reserved": 0}, {"rental_uris": {"ios": "https://dc.lft.to/lastmile_qr_scan", "android": "https://dc.lft.to/lastmile_qr_scan"}, "lon": -77.04483483333334, "type": "electric_scooter", "fusion_lat": 0.0, "lat": 38.909662, "name": "726db097eb8cff88d3d667a92a06a155", "fusion_lon": 0.0, "bike_id": "726db097eb8cff88d3d667a92a06a155", "is_disabled": 0, "is_reserved": 0}, {"rental_uris": {"ios": "https://dc.lft.to/lastmile_qr_scan", "android": "https://dc.lft.to/lastmile_qr_scan"}, "lon": -77.05185349999999, "type": "electric_scooter", "fusion_lat": 0.0, "lat": 38.92429533333333, "name": "112a7908dc6a009b275ccab6e473b688", "fusion_lon": 0.0, "bike_id": "112a7908dc6a009b275ccab6e473b688", "is_disabled": 0, "is_reserved": 0}, {"rental_uris": {"ios": "https://dc.lft.to/lastmile_qr_scan", "android": "https://dc.lft.to/lastmile_qr_scan"}, "lon": -77.0465765, "type": "electric_scooter", "fusion_lat": 0.0, "lat": 38.8973055, "name": "dbbbc1e861566389767d4b0be041434b", "fusion_lon": 0.0, "bike_id": "dbbbc1e861566389767d4b0be041434b", "is_disabled": 0, "is_reserved": 0}, {"rental_uris": {"ios": "https://dc.lft.to/lastmile_qr_scan", "android": "https://dc.lft.to/lastmile_qr_scan"}, "lon": -77.049009, "type": "electric_scooter", "fusion_lat": 0.0, "lat": 38.8966, "name": "cbfc71975e4ae36dc73c653d6cda0c1c", "fusion_lon": 0.0, "bike_id": "cbfc71975e4ae36dc73c653d6cda0c1c", "is_disabled": 0, "is_reserved": 0}, {"rental_uris": {"ios": "https://dc.lft.to/lastmile_qr_scan", "android": "https://dc.lft.to/lastmile_qr_scan"}, "lon": -77.03544466666666, "type": "electric_scooter", "fusion_lat": 0.0, "lat": 38.926226, "name": "fb63fbe020598d6d5c2c881fc59ba219", "fusion_lon": 0.0, "bike_id": "fb63fbe020598d6d5c2c881fc59ba219", "is_disabled": 0, "is_reserved": 0}, {"rental_uris": {"ios": "https://dc.lft.to/lastmile_qr_scan", "android": "https://dc.lft.to/lastmile_qr_scan"}, "lon": -77.03329683333334, "type": "electric_scooter", "fusion_lat": 0.0, "lat": 38.90019733333333, "name": "680fd60f1a788c2c7eaef072a31af3af", "fusion_lon": 0.0, "bike_id": "680fd60f1a788c2c7eaef072a31af3af", "is_disabled": 0, "is_reserved": 0}, {"rental_uris": {"ios": "https://dc.lft.to/lastmile_qr_scan", "android": "https://dc.lft.to/lastmile_qr_scan"}, "lon": -77.023949, "type": "electric_scooter", "fusion_lat": 0.0, "lat": 38.92507033333333, "name": "98dbbed235dd1e78c72ec99bf6fa9979", "fusion_lon": 0.0, "bike_id": "98dbbed235dd1e78c72ec99bf6fa9979", "is_disabled": 0, "is_reserved": 0}, {"rental_uris": {"ios": "https://dc.lft.to/lastmile_qr_scan", "android": "https://dc.lft.to/lastmile_qr_scan"}, "lon": -76.97708816666666, "type": "electric_scooter", "fusion_lat": 0.0, "lat": 38.89706433333333, "name": "689b66e4605b01eb4a0f647c0177425e", "fusion_lon": 0.0, "bike_id": "689b66e4605b01eb4a0f647c0177425e", "is_disabled": 0, "is_reserved": 0}, {"rental_uris": {"ios": "https://dc.lft.to/lastmile_qr_scan", "android": "https://dc.lft.to/lastmile_qr_scan"}, "lon": -77.0234435, "type": "electric_scooter", "fusion_lat": 0.0, "lat": 38.92965366666667, "name": "8feb59da0ec357848fec8f939fb0f5a1", "fusion_lon": 0.0, "bike_id": "8feb59da0ec357848fec8f939fb0f5a1", "is_disabled": 0, "is_reserved": 0}, {"rental_uris": {"ios": "https://dc.lft.to/lastmile_qr_scan", "android": "https://dc.lft.to/lastmile_qr_scan"}, "lon": -77.041466, "type": "electric_scooter", "fusion_lat": 0.0, "lat": 38.8999345, "name": "c194f6b345c5bef2f7a0b8c59e9e0468", "fusion_lon": 0.0, "bike_id": "c194f6b345c5bef2f7a0b8c59e9e0468", "is_disabled": 0, "is_reserved": 0}, {"rental_uris": {"ios": "https://dc.lft.to/lastmile_qr_scan", "android": "https://dc.lft.to/lastmile_qr_scan"}, "lon": -77.03180316666666, "type": "electric_scooter", "fusion_lat": 0.0, "lat": 38.91196016666667, "name": "e6ecd8f6f7c22cc8be02a005e57d6346", "fusion_lon": 0.0, "bike_id": "e6ecd8f6f7c22cc8be02a005e57d6346", "is_disabled": 0, "is_reserved": 0}, {"rental_uris": {"ios": "https://dc.lft.to/lastmile_qr_scan", "android": "https://dc.lft.to/lastmile_qr_scan"}, "lon": -77.0512355, "type": "electric_scooter", "fusion_lat": 0.0, "lat": 38.90215233333333, "name": "afc5af01ae85d6630a602a53ac1528f4", "fusion_lon": 0.0, "bike_id": "afc5af01ae85d6630a602a53ac1528f4", "is_disabled": 0, "is_reserved": 0}, {"rental_uris": {"ios": "https://dc.lft.to/lastmile_qr_scan", "android": "https://dc.lft.to/lastmile_qr_scan"}, "lon": -77.00831866666667, "type": "electric_bike", "fusion_lat": 0.0, "lat": 38.83434, "name": "7a2436a8e51910766b6200b5e0b03ea1", "fusion_lon": 0.0, "bike_id": "7a2436a8e51910766b6200b5e0b03ea1", "is_disabled": 0, "is_reserved": 0}, {"rental_uris": {"ios": "https://dc.lft.to/lastmile_qr_scan", "android": "https://dc.lft.to/lastmile_qr_scan"}, "lon": -77.03201683333333, "type": "electric_scooter", "fusion_lat": 0.0, "lat": 38.8921905, "name": "32a868451fe413c5f1fef1a5daac27d3", "fusion_lon": 0.0, "bike_id": "32a868451fe413c5f1fef1a5daac27d3", "is_disabled": 0, "is_reserved": 0}, {"rental_uris": {"ios": "https://dc.lft.to/lastmile_qr_scan", "android": "https://dc.lft.to/lastmile_qr_scan"}, "lon": -77.01625366666667, "type": "electric_scooter", "fusion_lat": 0.0, "lat": 38.901249666666665, "name": "785c1171a33ba64a9b4f4323333ed027", "fusion_lon": 0.0, "bike_id": "785c1171a33ba64a9b4f4323333ed027", "is_disabled": 0, "is_reserved": 0}, {"rental_uris": {"ios": "https://dc.lft.to/lastmile_qr_scan", "android": "https://dc.lft.to/lastmile_qr_scan"}, "lon": -77.0198985, "type": "electric_scooter", "fusion_lat": 0.0, "lat": 38.9113505, "name": "ab9027e0b0f8bc28e21ff481adea004e", "fusion_lon": 0.0, "bike_id": "ab9027e0b0f8bc28e21ff481adea004e", "is_disabled": 0, "is_reserved": 0}, {"rental_uris": {"ios": "https://dc.lft.to/lastmile_qr_scan", "android": "https://dc.lft.to/lastmile_qr_scan"}, "lon": -77.06279633333334, "type": "electric_scooter", "fusion_lat": 0.0, "lat": 38.91246533333333, "name": "03b70eff9b60e1d8fe41db49ed33d467", "fusion_lon": 0.0, "bike_id": "03b70eff9b60e1d8fe41db49ed33d467", "is_disabled": 0, "is_reserved": 0}, {"rental_uris": {"ios": "https://dc.lft.to/lastmile_qr_scan", "android": "https://dc.lft.to/lastmile_qr_scan"}, "lon": -76.9977505, "type": "electric_scooter", "fusion_lat": 0.0, "lat": 38.84421783333333, "name": "d7cfc9d2c51976f39b113c971c47e169", "fusion_lon": 0.0, "bike_id": "d7cfc9d2c51976f39b113c971c47e169", "is_disabled": 0, "is_reserved": 0}, {"rental_uris": {"ios": "https://dc.lft.to/lastmile_qr_scan", "android": "https://dc.lft.to/lastmile_qr_scan"}, "lon": -77.02980583333333, "type": "electric_scooter", "fusion_lat": 0.0, "lat": 38.900336333333335, "name": "1326790cf56093914db78ef6317d6f3d", "fusion_lon": 0.0, "bike_id": "1326790cf56093914db78ef6317d6f3d", "is_disabled": 0, "is_reserved": 0}, {"rental_uris": {"ios": "https://dc.lft.to/lastmile_qr_scan", "android": "https://dc.lft.to/lastmile_qr_scan"}, "lon": -77.01796166666666, "type": "electric_scooter", "fusion_lat": 0.0, "lat": 38.941126833333335, "name": "0f9f0704509af0a97a718a42f7df61db", "fusion_lon": 0.0, "bike_id": "0f9f0704509af0a97a718a42f7df61db", "is_disabled": 0, "is_reserved": 0}, {"rental_uris": {"ios": "https://dc.lft.to/lastmile_qr_scan", "android": "https://dc.lft.to/lastmile_qr_scan"}, "lon": -77.04164816666666, "type": "electric_scooter", "fusion_lat": 0.0, "lat": 38.919860666666665, "name": "aa2c8dcee8a92ad7482a10e8ec75441d", "fusion_lon": 0.0, "bike_id": "aa2c8dcee8a92ad7482a10e8ec75441d", "is_disabled": 0, "is_reserved": 0}, {"rental_uris": {"ios": "https://dc.lft.to/lastmile_qr_scan", "android": "https://dc.lft.to/lastmile_qr_scan"}, "lon": -77.04252666666666, "type": "electric_scooter", "fusion_lat": 0.0, "lat": 38.910497166666666, "name": "f12161c282c23322a88b4a23fd78a598", "fusion_lon": 0.0, "bike_id": "f12161c282c23322a88b4a23fd78a598", "is_disabled": 0, "is_reserved": 0}, {"rental_uris": {"ios": "https://dc.lft.to/lastmile_qr_scan", "android": "https://dc.lft.to/lastmile_qr_scan"}, "lon": -77.03217816666667, "type": "electric_scooter", "fusion_lat": 0.0, "lat": 38.91709683333333, "name": "28c45563f8c0ed54d68307f49ce1da24", "fusion_lon": 0.0, "bike_id": "28c45563f8c0ed54d68307f49ce1da24", "is_disabled": 0, "is_reserved": 0}, {"rental_uris": {"ios": "https://dc.lft.to/lastmile_qr_scan", "android": "https://dc.lft.to/lastmile_qr_scan"}, "lon": -76.94988383333333, "type": "electric_scooter", "fusion_lat": 0.0, "lat": 38.89357533333333, "name": "fa7004827a90ccb5227e4c510301401c", "fusion_lon": 0.0, "bike_id": "fa7004827a90ccb5227e4c510301401c", "is_disabled": 0, "is_reserved": 0}, {"rental_uris": {"ios": "https://dc.lft.to/lastmile_qr_scan", "android": "https://dc.lft.to/lastmile_qr_scan"}, "lon": -77.13182183333333, "type": "electric_bike", "fusion_lat": 0.0, "lat": 38.869084, "name": "1976699ca59e65a1fc251d44a5822ca0", "fusion_lon": 0.0, "bike_id": "1976699ca59e65a1fc251d44a5822ca0", "is_disabled": 0, "is_reserved": 0}, {"rental_uris": {"ios": "https://dc.lft.to/lastmile_qr_scan", "android": "https://dc.lft.to/lastmile_qr_scan"}, "lon": -77.02971583333333, "type": "electric_scooter", "fusion_lat": 0.0, "lat": 38.93148933333333, "name": "3cc63e9d52842ec6c8747775f83f1219", "fusion_lon": 0.0, "bike_id": "3cc63e9d52842ec6c8747775f83f1219", "is_disabled": 0, "is_reserved": 0}, {"rental_uris": {"ios": "https://dc.lft.to/lastmile_qr_scan", "android": "https://dc.lft.to/lastmile_qr_scan"}, "lon": -77.0321165, "type": "electric_scooter", "fusion_lat": 0.0, "lat": 38.91106766666667, "name": "aab9c4b95f75ef94927d8257ccc0f508", "fusion_lon": 0.0, "bike_id": "aab9c4b95f75ef94927d8257ccc0f508", "is_disabled": 0, "is_reserved": 0}, {"rental_uris": {"ios": "https://dc.lft.to/lastmile_qr_scan", "android": "https://dc.lft.to/lastmile_qr_scan"}, "lon": -77.02310733333333, "type": "electric_scooter", "fusion_lat": 0.0, "lat": 38.90184566666667, "name": "b8138cb6d191277ec6303344369e7b01", "fusion_lon": 0.0, "bike_id": "b8138cb6d191277ec6303344369e7b01", "is_disabled": 0, "is_reserved": 0}, {"rental_uris": {"ios": "https://dc.lft.to/lastmile_qr_scan", "android": "https://dc.lft.to/lastmile_qr_scan"}, "lon": -77.03669933333333, "type": "electric_scooter", "fusion_lat": 0.0, "lat": 38.929337833333335, "name": "f4acf73f02a6b285493af01279fcb30a", "fusion_lon": 0.0, "bike_id": "f4acf73f02a6b285493af01279fcb30a", "is_disabled": 0, "is_reserved": 0}, {"rental_uris": {"ios": "https://dc.lft.to/lastmile_qr_scan", "android": "https://dc.lft.to/lastmile_qr_scan"}, "lon": -77.0756555, "type": "electric_scooter", "fusion_lat": 0.0, "lat": 38.920881666666666, "name": "849a1bdc88a8eb206c2c1762bfa3c955", "fusion_lon": 0.0, "bike_id": "849a1bdc88a8eb206c2c1762bfa3c955", "is_disabled": 0, "is_reserved": 0}, {"rental_uris": {"ios": "https://dc.lft.to/lastmile_qr_scan", "android": "https://dc.lft.to/lastmile_qr_scan"}, "lon": -77.0433605, "type": "electric_scooter", "fusion_lat": 0.0, "lat": 38.892210166666665, "name": "d4d0405d90cc63791f0067ee553b02eb", "fusion_lon": 0.0, "bike_id": "d4d0405d90cc63791f0067ee553b02eb", "is_disabled": 0, "is_reserved": 0}, {"rental_uris": {"ios": "https://dc.lft.to/lastmile_qr_scan", "android": "https://dc.lft.to/lastmile_qr_scan"}, "lon": -77.002167, "type": "electric_scooter", "fusion_lat": 0.0, "lat": 38.902595166666664, "name": "293327fe5691f2b55ce59519322497ea", "fusion_lon": 0.0, "bike_id": "293327fe5691f2b55ce59519322497ea", "is_disabled": 0, "is_reserved": 0}, {"rental_uris": {"ios": "https://dc.lft.to/lastmile_qr_scan", "android": "https://dc.lft.to/lastmile_qr_scan"}, "lon": -77.01765416666667, "type": "electric_scooter", "fusion_lat": 0.0, "lat": 38.88397483333333, "name": "e231f9c81da5a9f984e42a2e66252b6d", "fusion_lon": 0.0, "bike_id": "e231f9c81da5a9f984e42a2e66252b6d", "is_disabled": 0, "is_reserved": 0}, {"rental_uris": {"ios": "https://dc.lft.to/lastmile_qr_scan", "android": "https://dc.lft.to/lastmile_qr_scan"}, "lon": -77.016872, "type": "electric_scooter", "fusion_lat": 0.0, "lat": 38.91141616666667, "name": "b8bb21d961ab49e102881648a9e53e6d", "fusion_lon": 0.0, "bike_id": "b8bb21d961ab49e102881648a9e53e6d", "is_disabled": 0, "is_reserved": 0}, {"rental_uris": {"ios": "https://dc.lft.to/lastmile_qr_scan", "android": "https://dc.lft.to/lastmile_qr_scan"}, "lon": -77.03527883333334, "type": "electric_scooter", "fusion_lat": 0.0, "lat": 38.9272575, "name": "8f2a729974ab656cbe4a46d47e88bd17", "fusion_lon": 0.0, "bike_id": "8f2a729974ab656cbe4a46d47e88bd17", "is_disabled": 0, "is_reserved": 0}, {"rental_uris": {"ios": "https://dc.lft.to/lastmile_qr_scan", "android": "https://dc.lft.to/lastmile_qr_scan"}, "lon": -77.005811, "type": "electric_scooter", "fusion_lat": 0.0, "lat": 38.87230683333333, "name": "7afcd7936195f29e3c038bec9551c9ce", "fusion_lon": 0.0, "bike_id": "7afcd7936195f29e3c038bec9551c9ce", "is_disabled": 0, "is_reserved": 0}, {"rental_uris": {"ios": "https://dc.lft.to/lastmile_qr_scan", "android": "https://dc.lft.to/lastmile_qr_scan"}, "lon": -76.93548266666667, "type": "electric_bike", "fusion_lat": 0.0, "lat": 38.95181783333334, "name": "4df338523b44da7ac461e2e1bcabe343", "fusion_lon": 0.0, "bike_id": "4df338523b44da7ac461e2e1bcabe343", "is_disabled": 0, "is_reserved": 0}, {"rental_uris": {"ios": "https://dc.lft.to/lastmile_qr_scan", "android": "https://dc.lft.to/lastmile_qr_scan"}, "lon": -76.97321383333333, "type": "electric_scooter", "fusion_lat": 0.0, "lat": 38.904750666666665, "name": "7dbadac090ef6b340a1aa857a2e190ad", "fusion_lon": 0.0, "bike_id": "7dbadac090ef6b340a1aa857a2e190ad", "is_disabled": 0, "is_reserved": 0}, {"rental_uris": {"ios": "https://dc.lft.to/lastmile_qr_scan", "android": "https://dc.lft.to/lastmile_qr_scan"}, "lon": -77.05686616666667, "type": "electric_scooter", "fusion_lat": 0.0, "lat": 38.937023, "name": "1ce087458c9383730b0726a78543747c", "fusion_lon": 0.0, "bike_id": "1ce087458c9383730b0726a78543747c", "is_disabled": 0, "is_reserved": 0}, {"rental_uris": {"ios": "https://dc.lft.to/lastmile_qr_scan", "android": "https://dc.lft.to/lastmile_qr_scan"}, "lon": -77.058072, "type": "electric_scooter", "fusion_lat": 0.0, "lat": 38.90292316666667, "name": "5b5c907a1b1ffa5f4f72e3c05b93bc77", "fusion_lon": 0.0, "bike_id": "5b5c907a1b1ffa5f4f72e3c05b93bc77", "is_disabled": 0, "is_reserved": 0}, {"rental_uris": {"ios": "https://dc.lft.to/lastmile_qr_scan", "android": "https://dc.lft.to/lastmile_qr_scan"}, "lon": -77.048151, "type": "electric_scooter", "fusion_lat": 0.0, "lat": 38.89748983333333, "name": "8919c81be3d28b9e002ddb79b2f2cda8", "fusion_lon": 0.0, "bike_id": "8919c81be3d28b9e002ddb79b2f2cda8", "is_disabled": 0, "is_reserved": 0}, {"rental_uris": {"ios": "https://dc.lft.to/lastmile_qr_scan", "android": "https://dc.lft.to/lastmile_qr_scan"}, "lon": -77.004066, "type": "electric_scooter", "fusion_lat": 0.0, "lat": 38.91751683333333, "name": "cca0d5ee1c1eeeb362eb68c5000266d4", "fusion_lon": 0.0, "bike_id": "cca0d5ee1c1eeeb362eb68c5000266d4", "is_disabled": 0, "is_reserved": 0}, {"rental_uris": {"ios": "https://dc.lft.to/lastmile_qr_scan", "android": "https://dc.lft.to/lastmile_qr_scan"}, "lon": -77.00109333333333, "type": "electric_scooter", "fusion_lat": 0.0, "lat": 38.87319633333333, "name": "8ca930e7058910f586d8bcdd336e473d", "fusion_lon": 0.0, "bike_id": "8ca930e7058910f586d8bcdd336e473d", "is_disabled": 0, "is_reserved": 0}, {"rental_uris": {"ios": "https://dc.lft.to/lastmile_qr_scan", "android": "https://dc.lft.to/lastmile_qr_scan"}, "lon": -77.031853, "type": "electric_bike", "fusion_lat": 0.0, "lat": 38.944054666666666, "name": "810c58d2a52c452b1174b0c2034e83fb", "fusion_lon": 0.0, "bike_id": "810c58d2a52c452b1174b0c2034e83fb", "is_disabled": 0, "is_reserved": 0}, {"rental_uris": {"ios": "https://dc.lft.to/lastmile_qr_scan", "android": "https://dc.lft.to/lastmile_qr_scan"}, "lon": -77.00305683333333, "type": "electric_scooter", "fusion_lat": 0.0, "lat": 38.90898116666666, "name": "58fac9677981d63f96e5abe700acfce9", "fusion_lon": 0.0, "bike_id": "58fac9677981d63f96e5abe700acfce9", "is_disabled": 0, "is_reserved": 0}, {"rental_uris": {"ios": "https://dc.lft.to/lastmile_qr_scan", "android": "https://dc.lft.to/lastmile_qr_scan"}, "lon": -77.02113433333334, "type": "electric_scooter", "fusion_lat": 0.0, "lat": 38.9221895, "name": "85f782c3b7e3cda08d58b3bb67a67133", "fusion_lon": 0.0, "bike_id": "85f782c3b7e3cda08d58b3bb67a67133", "is_disabled": 0, "is_reserved": 0}, {"rental_uris": {"ios": "https://dc.lft.to/lastmile_qr_scan", "android": "https://dc.lft.to/lastmile_qr_scan"}, "lon": -77.04502416666666, "type": "electric_scooter", "fusion_lat": 0.0, "lat": 38.921439166666666, "name": "908eb61d3778f5a34ac56edbd3146908", "fusion_lon": 0.0, "bike_id": "908eb61d3778f5a34ac56edbd3146908", "is_disabled": 0, "is_reserved": 0}, {"rental_uris": {"ios": "https://dc.lft.to/lastmile_qr_scan", "android": "https://dc.lft.to/lastmile_qr_scan"}, "lon": -77.02811733333333, "type": "electric_scooter", "fusion_lat": 0.0, "lat": 38.92245033333333, "name": "6961a75ca135cfd7eb304be423c5f39d", "fusion_lon": 0.0, "bike_id": "6961a75ca135cfd7eb304be423c5f39d", "is_disabled": 0, "is_reserved": 0}, {"rental_uris": {"ios": "https://dc.lft.to/lastmile_qr_scan", "android": "https://dc.lft.to/lastmile_qr_scan"}, "lon": -77.03217966666666, "type": "electric_scooter", "fusion_lat": 0.0, "lat": 38.91709316666667, "name": "2b53efa1741bbb5c58569c85ae410e31", "fusion_lon": 0.0, "bike_id": "2b53efa1741bbb5c58569c85ae410e31", "is_disabled": 0, "is_reserved": 0}, {"rental_uris": {"ios": "https://dc.lft.to/lastmile_qr_scan", "android": "https://dc.lft.to/lastmile_qr_scan"}, "lon": -76.98415933333334, "type": "electric_scooter", "fusion_lat": 0.0, "lat": 38.91388116666667, "name": "72e5cb9b4224b095fce2b542f57f041d", "fusion_lon": 0.0, "bike_id": "72e5cb9b4224b095fce2b542f57f041d", "is_disabled": 0, "is_reserved": 0}, {"rental_uris": {"ios": "https://dc.lft.to/lastmile_qr_scan", "android": "https://dc.lft.to/lastmile_qr_scan"}, "lon": -77.11429916666667, "type": "electric_bike", "fusion_lat": 0.0, "lat": 38.85244516666667, "name": "2c868fb1dd742d69985b861110e5e3e7", "fusion_lon": 0.0, "bike_id": "2c868fb1dd742d69985b861110e5e3e7", "is_disabled": 0, "is_reserved": 0}, {"rental_uris": {"ios": "https://dc.lft.to/lastmile_qr_scan", "android": "https://dc.lft.to/lastmile_qr_scan"}, "lon": -77.03219066666666, "type": "electric_scooter", "fusion_lat": 0.0, "lat": 38.91190916666667, "name": "b4e8bbea3435fc180fe1b79f81e50c01", "fusion_lon": 0.0, "bike_id": "b4e8bbea3435fc180fe1b79f81e50c01", "is_disabled": 0, "is_reserved": 0}, {"rental_uris": {"ios": "https://dc.lft.to/lastmile_qr_scan", "android": "https://dc.lft.to/lastmile_qr_scan"}, "lon": -76.96792066666667, "type": "electric_scooter", "fusion_lat": 0.0, "lat": 38.86135783333334, "name": "eeaf3a0090773256f225d1bcf3114038", "fusion_lon": 0.0, "bike_id": "eeaf3a0090773256f225d1bcf3114038", "is_disabled": 0, "is_reserved": 0}, {"rental_uris": {"ios": "https://dc.lft.to/lastmile_qr_scan", "android": "https://dc.lft.to/lastmile_qr_scan"}, "lon": -77.04672416666666, "type": "electric_scooter", "fusion_lat": 0.0, "lat": 38.90531633333333, "name": "7b94e08993334392eaf0c02601a57926", "fusion_lon": 0.0, "bike_id": "7b94e08993334392eaf0c02601a57926", "is_disabled": 0, "is_reserved": 0}, {"rental_uris": {"ios": "https://dc.lft.to/lastmile_qr_scan", "android": "https://dc.lft.to/lastmile_qr_scan"}, "lon": -77.0140525, "type": "electric_scooter", "fusion_lat": 0.0, "lat": 38.92800033333333, "name": "ab0c07e705eb7be39201b9a9dee5bed1", "fusion_lon": 0.0, "bike_id": "ab0c07e705eb7be39201b9a9dee5bed1", "is_disabled": 0, "is_reserved": 0}, {"rental_uris": {"ios": "https://dc.lft.to/lastmile_qr_scan", "android": "https://dc.lft.to/lastmile_qr_scan"}, "lon": -77.12627066666667, "type": "electric_bike", "fusion_lat": 0.0, "lat": 39.058101, "name": "d419ef2d7bb52307d78e85d08a119b84", "fusion_lon": 0.0, "bike_id": "d419ef2d7bb52307d78e85d08a119b84", "is_disabled": 0, "is_reserved": 0}, {"rental_uris": {"ios": "https://dc.lft.to/lastmile_qr_scan", "android": "https://dc.lft.to/lastmile_qr_scan"}, "lon": -77.005216, "type": "electric_scooter", "fusion_lat": 0.0, "lat": 38.90554816666667, "name": "8435fbdc9b97f70255e5ba2dae44f80f", "fusion_lon": 0.0, "bike_id": "8435fbdc9b97f70255e5ba2dae44f80f", "is_disabled": 0, "is_reserved": 0}, {"rental_uris": {"ios": "https://dc.lft.to/lastmile_qr_scan", "android": "https://dc.lft.to/lastmile_qr_scan"}, "lon": -77.01794716666667, "type": "electric_scooter", "fusion_lat": 0.0, "lat": 38.90130416666667, "name": "324217d68d9433c79788037572fce768", "fusion_lon": 0.0, "bike_id": "324217d68d9433c79788037572fce768", "is_disabled": 0, "is_reserved": 0}, {"rental_uris": {"ios": "https://dc.lft.to/lastmile_qr_scan", "android": "https://dc.lft.to/lastmile_qr_scan"}, "lon": -77.01767333333333, "type": "electric_scooter", "fusion_lat": 0.0, "lat": 38.887288, "name": "d3383568e68def85a9dd34018b70c31e", "fusion_lon": 0.0, "bike_id": "d3383568e68def85a9dd34018b70c31e", "is_disabled": 0, "is_reserved": 0}, {"rental_uris": {"ios": "https://dc.lft.to/lastmile_qr_scan", "android": "https://dc.lft.to/lastmile_qr_scan"}, "lon": -76.980903, "type": "electric_bike", "fusion_lat": 0.0, "lat": 38.953560833333334, "name": "8a3d213aae0bed9fe2650090eb07f673", "fusion_lon": 0.0, "bike_id": "8a3d213aae0bed9fe2650090eb07f673", "is_disabled": 0, "is_reserved": 0}, {"rental_uris": {"ios": "https://dc.lft.to/lastmile_qr_scan", "android": "https://dc.lft.to/lastmile_qr_scan"}, "lon": -76.9783055, "type": "electric_bike", "fusion_lat": 0.0, "lat": 38.84610216666667, "name": "b96a421d05cafb3877c5b59d93ae80fc", "fusion_lon": 0.0, "bike_id": "b96a421d05cafb3877c5b59d93ae80fc", "is_disabled": 0, "is_reserved": 0}, {"rental_uris": {"ios": "https://dc.lft.to/lastmile_qr_scan", "android": "https://dc.lft.to/lastmile_qr_scan"}, "lon": -77.17849483333333, "type": "electric_bike", "fusion_lat": 0.0, "lat": 39.089019666666665, "name": "20bdcc95b2c25330ecf40336546458c2", "fusion_lon": 0.0, "bike_id": "20bdcc95b2c25330ecf40336546458c2", "is_disabled": 0, "is_reserved": 0}, {"rental_uris": {"ios": "https://dc.lft.to/lastmile_qr_scan", "android": "https://dc.lft.to/lastmile_qr_scan"}, "lon": -77.0141565, "type": "electric_scooter", "fusion_lat": 0.0, "lat": 38.9131665, "name": "2e79b444c750331212ca80914876edd9", "fusion_lon": 0.0, "bike_id": "2e79b444c750331212ca80914876edd9", "is_disabled": 0, "is_reserved": 0}, {"rental_uris": {"ios": "https://dc.lft.to/lastmile_qr_scan", "android": "https://dc.lft.to/lastmile_qr_scan"}, "lon": -77.01745316666667, "type": "electric_bike", "fusion_lat": 0.0, "lat": 39.00013366666666, "name": "8a37ac77df51eb305dc3080a2fefeef1", "fusion_lon": 0.0, "bike_id": "8a37ac77df51eb305dc3080a2fefeef1", "is_disabled": 0, "is_reserved": 0}, {"rental_uris": {"ios": "https://dc.lft.to/lastmile_qr_scan", "android": "https://dc.lft.to/lastmile_qr_scan"}, "lon": -77.01508683333333, "type": "electric_scooter", "fusion_lat": 0.0, "lat": 38.892293, "name": "4ce3ce8f88ca67f05bdec2bcb258eca3", "fusion_lon": 0.0, "bike_id": "4ce3ce8f88ca67f05bdec2bcb258eca3", "is_disabled": 0, "is_reserved": 0}, {"rental_uris": {"ios": "https://dc.lft.to/lastmile_qr_scan", "android": "https://dc.lft.to/lastmile_qr_scan"}, "lon": -77.027515, "type": "electric_scooter", "fusion_lat": 0.0, "lat": 38.93961266666667, "name": "42151dad835d295b4994a8c3769285c2", "fusion_lon": 0.0, "bike_id": "42151dad835d295b4994a8c3769285c2", "is_disabled": 0, "is_reserved": 0}, {"rental_uris": {"ios": "https://dc.lft.to/lastmile_qr_scan", "android": "https://dc.lft.to/lastmile_qr_scan"}, "lon": -77.0010055, "type": "electric_scooter", "fusion_lat": 0.0, "lat": 38.916298833333336, "name": "43352edd2245b837007a22270b345b8b", "fusion_lon": 0.0, "bike_id": "43352edd2245b837007a22270b345b8b", "is_disabled": 0, "is_reserved": 0}, {"rental_uris": {"ios": "https://dc.lft.to/lastmile_qr_scan", "android": "https://dc.lft.to/lastmile_qr_scan"}, "lon": -77.0250395, "type": "electric_scooter", "fusion_lat": 0.0, "lat": 38.88027916666667, "name": "31a75c721aab6a069ef01ec04d2ebe76", "fusion_lon": 0.0, "bike_id": "31a75c721aab6a069ef01ec04d2ebe76", "is_disabled": 0, "is_reserved": 0}, {"rental_uris": {"ios": "https://dc.lft.to/lastmile_qr_scan", "android": "https://dc.lft.to/lastmile_qr_scan"}, "lon": -77.03928916666666, "type": "electric_scooter", "fusion_lat": 0.0, "lat": 38.92099483333333, "name": "3dc3ddb9901852e12a92120197dbec18", "fusion_lon": 0.0, "bike_id": "3dc3ddb9901852e12a92120197dbec18", "is_disabled": 0, "is_reserved": 0}, {"rental_uris": {"ios": "https://dc.lft.to/lastmile_qr_scan", "android": "https://dc.lft.to/lastmile_qr_scan"}, "lon": -77.0372805, "type": "electric_scooter", "fusion_lat": 0.0, "lat": 38.911153666666664, "name": "1bc989a47213b328bb395cedfd86d7ad", "fusion_lon": 0.0, "bike_id": "1bc989a47213b328bb395cedfd86d7ad", "is_disabled": 0, "is_reserved": 0}, {"rental_uris": {"ios": "https://dc.lft.to/lastmile_qr_scan", "android": "https://dc.lft.to/lastmile_qr_scan"}, "lon": -77.01438516666667, "type": "electric_scooter", "fusion_lat": 0.0, "lat": 38.929881, "name": "e6dbae90ef415d95459cf2d33ed947cd", "fusion_lon": 0.0, "bike_id": "e6dbae90ef415d95459cf2d33ed947cd", "is_disabled": 0, "is_reserved": 0}, {"rental_uris": {"ios": "https://dc.lft.to/lastmile_qr_scan", "android": "https://dc.lft.to/lastmile_qr_scan"}, "lon": -77.0462635, "type": "electric_scooter", "fusion_lat": 0.0, "lat": 38.90136916666667, "name": "dd19dc43f5eea83123b990805fc25b6e", "fusion_lon": 0.0, "bike_id": "dd19dc43f5eea83123b990805fc25b6e", "is_disabled": 0, "is_reserved": 0}, {"rental_uris": {"ios": "https://dc.lft.to/lastmile_qr_scan", "android": "https://dc.lft.to/lastmile_qr_scan"}, "lon": -77.05346416666667, "type": "electric_scooter", "fusion_lat": 0.0, "lat": 38.903528333333334, "name": "2d169f5bae53782abcf106dcd7744469", "fusion_lon": 0.0, "bike_id": "2d169f5bae53782abcf106dcd7744469", "is_disabled": 0, "is_reserved": 0}, {"rental_uris": {"ios": "https://dc.lft.to/lastmile_qr_scan", "android": "https://dc.lft.to/lastmile_qr_scan"}, "lon": -76.99030483333334, "type": "electric_bike", "fusion_lat": 0.0, "lat": 39.038629, "name": "1a94c4a997436aed603f4ee0e68cdc79", "fusion_lon": 0.0, "bike_id": "1a94c4a997436aed603f4ee0e68cdc79", "is_disabled": 0, "is_reserved": 0}, {"rental_uris": {"ios": "https://dc.lft.to/lastmile_qr_scan", "android": "https://dc.lft.to/lastmile_qr_scan"}, "lon": -77.03510433333334, "type": "electric_scooter", "fusion_lat": 0.0, "lat": 38.9214365, "name": "c4961e7d3d7c78beabb40a2b550ecbc4", "fusion_lon": 0.0, "bike_id": "c4961e7d3d7c78beabb40a2b550ecbc4", "is_disabled": 0, "is_reserved": 0}, {"rental_uris": {"ios": "https://dc.lft.to/lastmile_qr_scan", "android": "https://dc.lft.to/lastmile_qr_scan"}, "lon": -77.02205166666667, "type": "electric_scooter", "fusion_lat": 0.0, "lat": 38.90706316666667, "name": "a84e60d035894bcd0414fdcf6f78b522", "fusion_lon": 0.0, "bike_id": "a84e60d035894bcd0414fdcf6f78b522", "is_disabled": 0, "is_reserved": 0}, {"rental_uris": {"ios": "https://dc.lft.to/lastmile_qr_scan", "android": "https://dc.lft.to/lastmile_qr_scan"}, "lon": -77.01942133333333, "type": "electric_scooter", "fusion_lat": 0.0, "lat": 38.88387566666667, "name": "53918eb8d3f0ebc838ac6e98355f1ef0", "fusion_lon": 0.0, "bike_id": "53918eb8d3f0ebc838ac6e98355f1ef0", "is_disabled": 0, "is_reserved": 0}, {"rental_uris": {"ios": "https://dc.lft.to/lastmile_qr_scan", "android": "https://dc.lft.to/lastmile_qr_scan"}, "lon": -77.021805, "type": "electric_scooter", "fusion_lat": 0.0, "lat": 38.91648966666666, "name": "03608909c124e5bdbe59db8330c46e63", "fusion_lon": 0.0, "bike_id": "03608909c124e5bdbe59db8330c46e63", "is_disabled": 0, "is_reserved": 0}, {"rental_uris": {"ios": "https://dc.lft.to/lastmile_qr_scan", "android": "https://dc.lft.to/lastmile_qr_scan"}, "lon": -77.03215733333333, "type": "electric_scooter", "fusion_lat": 0.0, "lat": 38.91707683333333, "name": "9cf0e10345e7c7578a322a4c1376abeb", "fusion_lon": 0.0, "bike_id": "9cf0e10345e7c7578a322a4c1376abeb", "is_disabled": 0, "is_reserved": 0}, {"rental_uris": {"ios": "https://dc.lft.to/lastmile_qr_scan", "android": "https://dc.lft.to/lastmile_qr_scan"}, "lon": -77.03455316666667, "type": "electric_scooter", "fusion_lat": 0.0, "lat": 38.91808533333333, "name": "8c08c0c3a6b60a90e664000ece411161", "fusion_lon": 0.0, "bike_id": "8c08c0c3a6b60a90e664000ece411161", "is_disabled": 0, "is_reserved": 0}, {"rental_uris": {"ios": "https://dc.lft.to/lastmile_qr_scan", "android": "https://dc.lft.to/lastmile_qr_scan"}, "lon": -77.03368183333333, "type": "electric_scooter", "fusion_lat": 0.0, "lat": 38.92157516666666, "name": "f72810416cd0766f1bdad9a13c5778c3", "fusion_lon": 0.0, "bike_id": "f72810416cd0766f1bdad9a13c5778c3", "is_disabled": 0, "is_reserved": 0}, {"rental_uris": {"ios": "https://dc.lft.to/lastmile_qr_scan", "android": "https://dc.lft.to/lastmile_qr_scan"}, "lon": -77.0213655, "type": "electric_bike", "fusion_lat": 0.0, "lat": 38.916413, "name": "994688d1bb3d9bf14f0d8b96c396dc44", "fusion_lon": 0.0, "bike_id": "994688d1bb3d9bf14f0d8b96c396dc44", "is_disabled": 0, "is_reserved": 0}, {"rental_uris": {"ios": "https://dc.lft.to/lastmile_qr_scan", "android": "https://dc.lft.to/lastmile_qr_scan"}, "lon": -77.02714083333333, "type": "electric_scooter", "fusion_lat": 0.0, "lat": 38.91809283333333, "name": "1ba69c5232069005b8310215dd4a898e", "fusion_lon": 0.0, "bike_id": "1ba69c5232069005b8310215dd4a898e", "is_disabled": 0, "is_reserved": 0}, {"rental_uris": {"ios": "https://dc.lft.to/lastmile_qr_scan", "android": "https://dc.lft.to/lastmile_qr_scan"}, "lon": -77.01113833333334, "type": "electric_scooter", "fusion_lat": 0.0, "lat": 38.90357316666667, "name": "c5f7b6ee1852a1f8f2cac33a77c35f4f", "fusion_lon": 0.0, "bike_id": "c5f7b6ee1852a1f8f2cac33a77c35f4f", "is_disabled": 0, "is_reserved": 0}, {"rental_uris": {"ios": "https://dc.lft.to/lastmile_qr_scan", "android": "https://dc.lft.to/lastmile_qr_scan"}, "lon": -76.9652675, "type": "electric_scooter", "fusion_lat": 0.0, "lat": 38.8762545, "name": "c324d3fef9256ec5b4436b51e52b7fa1", "fusion_lon": 0.0, "bike_id": "c324d3fef9256ec5b4436b51e52b7fa1", "is_disabled": 0, "is_reserved": 0}, {"rental_uris": {"ios": "https://dc.lft.to/lastmile_qr_scan", "android": "https://dc.lft.to/lastmile_qr_scan"}, "lon": -76.94755116666667, "type": "electric_scooter", "fusion_lat": 0.0, "lat": 38.900540666666664, "name": "30b5582bdcdca08b53493ce1e223522c", "fusion_lon": 0.0, "bike_id": "30b5582bdcdca08b53493ce1e223522c", "is_disabled": 0, "is_reserved": 0}, {"rental_uris": {"ios": "https://dc.lft.to/lastmile_qr_scan", "android": "https://dc.lft.to/lastmile_qr_scan"}, "lon": -77.033319, "type": "electric_scooter", "fusion_lat": 0.0, "lat": 38.9197565, "name": "04f0818dfea3bc06d5676a8e813baaca", "fusion_lon": 0.0, "bike_id": "04f0818dfea3bc06d5676a8e813baaca", "is_disabled": 0, "is_reserved": 0}, {"rental_uris": {"ios": "https://dc.lft.to/lastmile_qr_scan", "android": "https://dc.lft.to/lastmile_qr_scan"}, "lon": -76.96371833333333, "type": "electric_bike", "fusion_lat": 0.0, "lat": 38.94899216666666, "name": "811e2634ee362db6072927c712b3500c", "fusion_lon": 0.0, "bike_id": "811e2634ee362db6072927c712b3500c", "is_disabled": 0, "is_reserved": 0}, {"rental_uris": {"ios": "https://dc.lft.to/lastmile_qr_scan", "android": "https://dc.lft.to/lastmile_qr_scan"}, "lon": -77.046568, "type": "electric_scooter", "fusion_lat": 0.0, "lat": 38.90502333333333, "name": "8295686488356432b2737cebf28ad327", "fusion_lon": 0.0, "bike_id": "8295686488356432b2737cebf28ad327", "is_disabled": 0, "is_reserved": 0}, {"rental_uris": {"ios": "https://dc.lft.to/lastmile_qr_scan", "android": "https://dc.lft.to/lastmile_qr_scan"}, "lon": -77.02151216666667, "type": "electric_bike", "fusion_lat": 0.0, "lat": 38.9732005, "name": "cf896e1aa51983a6a71f63e8819e301f", "fusion_lon": 0.0, "bike_id": "cf896e1aa51983a6a71f63e8819e301f", "is_disabled": 0, "is_reserved": 0}, {"rental_uris": {"ios": "https://dc.lft.to/lastmile_qr_scan", "android": "https://dc.lft.to/lastmile_qr_scan"}, "lon": -77.00634416666666, "type": "electric_scooter", "fusion_lat": 0.0, "lat": 38.8765685, "name": "3e51a66722936186ba66dfe59320f544", "fusion_lon": 0.0, "bike_id": "3e51a66722936186ba66dfe59320f544", "is_disabled": 0, "is_reserved": 0}, {"rental_uris": {"ios": "https://dc.lft.to/lastmile_qr_scan", "android": "https://dc.lft.to/lastmile_qr_scan"}, "lon": -76.936187, "type": "electric_bike", "fusion_lat": 0.0, "lat": 38.9706645, "name": "bb3a4fab3bd25ec14c24c6047e4b2eb0", "fusion_lon": 0.0, "bike_id": "bb3a4fab3bd25ec14c24c6047e4b2eb0", "is_disabled": 0, "is_reserved": 0}, {"rental_uris": {"ios": "https://dc.lft.to/lastmile_qr_scan", "android": "https://dc.lft.to/lastmile_qr_scan"}, "lon": -77.04018933333333, "type": "electric_scooter", "fusion_lat": 0.0, "lat": 38.91817066666667, "name": "a63a9ae08b0e41fd80fdd7a3dbc1d9c6", "fusion_lon": 0.0, "bike_id": "a63a9ae08b0e41fd80fdd7a3dbc1d9c6", "is_disabled": 0, "is_reserved": 0}, {"rental_uris": {"ios": "https://dc.lft.to/lastmile_qr_scan", "android": "https://dc.lft.to/lastmile_qr_scan"}, "lon": -77.07904116666667, "type": "electric_bike", "fusion_lat": 0.0, "lat": 38.83931233333333, "name": "d1c83779deecb6cc2b952d749dd615be", "fusion_lon": 0.0, "bike_id": "d1c83779deecb6cc2b952d749dd615be", "is_disabled": 0, "is_reserved": 0}, {"rental_uris": {"ios": "https://dc.lft.to/lastmile_qr_scan", "android": "https://dc.lft.to/lastmile_qr_scan"}, "lon": -76.980847, "type": "electric_bike", "fusion_lat": 0.0, "lat": 38.902902166666664, "name": "b82cab06d43bb443e7458d31bcd81302", "fusion_lon": 0.0, "bike_id": "b82cab06d43bb443e7458d31bcd81302", "is_disabled": 0, "is_reserved": 0}, {"rental_uris": {"ios": "https://dc.lft.to/lastmile_qr_scan", "android": "https://dc.lft.to/lastmile_qr_scan"}, "lon": -77.02397283333333, "type": "electric_scooter", "fusion_lat": 0.0, "lat": 38.930844, "name": "ede4c6bbabd3610574704c2806d054e8", "fusion_lon": 0.0, "bike_id": "ede4c6bbabd3610574704c2806d054e8", "is_disabled": 0, "is_reserved": 0}, {"rental_uris": {"ios": "https://dc.lft.to/lastmile_qr_scan", "android": "https://dc.lft.to/lastmile_qr_scan"}, "lon": -76.999711, "type": "electric_scooter", "fusion_lat": 0.0, "lat": 38.90141083333334, "name": "5d9d0f23ddd4842fc60adfe76c9fca78", "fusion_lon": 0.0, "bike_id": "5d9d0f23ddd4842fc60adfe76c9fca78", "is_disabled": 0, "is_reserved": 0}, {"rental_uris": {"ios": "https://dc.lft.to/lastmile_qr_scan", "android": "https://dc.lft.to/lastmile_qr_scan"}, "lon": -77.03805416666667, "type": "electric_scooter", "fusion_lat": 0.0, "lat": 38.925036666666664, "name": "5e787577794eeed2bf9361d0e2dca267", "fusion_lon": 0.0, "bike_id": "5e787577794eeed2bf9361d0e2dca267", "is_disabled": 0, "is_reserved": 0}, {"rental_uris": {"ios": "https://dc.lft.to/lastmile_qr_scan", "android": "https://dc.lft.to/lastmile_qr_scan"}, "lon": -77.04818516666667, "type": "electric_scooter", "fusion_lat": 0.0, "lat": 38.9133395, "name": "9b8b49dd63121eccff02de4b6f7ddbb7", "fusion_lon": 0.0, "bike_id": "9b8b49dd63121eccff02de4b6f7ddbb7", "is_disabled": 0, "is_reserved": 0}, {"rental_uris": {"ios": "https://dc.lft.to/lastmile_qr_scan", "android": "https://dc.lft.to/lastmile_qr_scan"}, "lon": -76.90816716666667, "type": "electric_bike", "fusion_lat": 0.0, "lat": 38.99454016666667, "name": "0f6cc8be25267127349a83bfe1a1f195", "fusion_lon": 0.0, "bike_id": "0f6cc8be25267127349a83bfe1a1f195", "is_disabled": 0, "is_reserved": 0}, {"rental_uris": {"ios": "https://dc.lft.to/lastmile_qr_scan", "android": "https://dc.lft.to/lastmile_qr_scan"}, "lon": -76.9995835, "type": "electric_scooter", "fusion_lat": 0.0, "lat": 38.90863516666667, "name": "f45973a3fde3ab1bf376d9ce96285c90", "fusion_lon": 0.0, "bike_id": "f45973a3fde3ab1bf376d9ce96285c90", "is_disabled": 0, "is_reserved": 0}, {"rental_uris": {"ios": "https://dc.lft.to/lastmile_qr_scan", "android": "https://dc.lft.to/lastmile_qr_scan"}, "lon": -77.02772683333333, "type": "electric_scooter", "fusion_lat": 0.0, "lat": 38.905064, "name": "d790c882116f7cfbdffa292fec1e645e", "fusion_lon": 0.0, "bike_id": "d790c882116f7cfbdffa292fec1e645e", "is_disabled": 0, "is_reserved": 0}, {"rental_uris": {"ios": "https://dc.lft.to/lastmile_qr_scan", "android": "https://dc.lft.to/lastmile_qr_scan"}, "lon": -77.0226255, "type": "electric_scooter", "fusion_lat": 0.0, "lat": 38.9241095, "name": "9ad3270a12b4844b48868f4b79bdadad", "fusion_lon": 0.0, "bike_id": "9ad3270a12b4844b48868f4b79bdadad", "is_disabled": 0, "is_reserved": 0}, {"rental_uris": {"ios": "https://dc.lft.to/lastmile_qr_scan", "android": "https://dc.lft.to/lastmile_qr_scan"}, "lon": -77.05153283333334, "type": "electric_scooter", "fusion_lat": 0.0, "lat": 38.904991, "name": "0b7fa943e888c90f3a3d042ded13a7b9", "fusion_lon": 0.0, "bike_id": "0b7fa943e888c90f3a3d042ded13a7b9", "is_disabled": 0, "is_reserved": 0}, {"rental_uris": {"ios": "https://dc.lft.to/lastmile_qr_scan", "android": "https://dc.lft.to/lastmile_qr_scan"}, "lon": -77.06285466666667, "type": "electric_scooter", "fusion_lat": 0.0, "lat": 38.905364666666664, "name": "cc7c7d16af7aeaa91744391cdd761f19", "fusion_lon": 0.0, "bike_id": "cc7c7d16af7aeaa91744391cdd761f19", "is_disabled": 0, "is_reserved": 0}, {"rental_uris": {"ios": "https://dc.lft.to/lastmile_qr_scan", "android": "https://dc.lft.to/lastmile_qr_scan"}, "lon": -77.024542, "type": "electric_scooter", "fusion_lat": 0.0, "lat": 38.937091333333335, "name": "4b1a43c944762bb0d09cb16dfaa29c9a", "fusion_lon": 0.0, "bike_id": "4b1a43c944762bb0d09cb16dfaa29c9a", "is_disabled": 0, "is_reserved": 0}, {"rental_uris": {"ios": "https://dc.lft.to/lastmile_qr_scan", "android": "https://dc.lft.to/lastmile_qr_scan"}, "lon": -76.98995783333334, "type": "electric_scooter", "fusion_lat": 0.0, "lat": 38.9038895, "name": "b58e9a7d350967ebcb75402e4fc51a23", "fusion_lon": 0.0, "bike_id": "b58e9a7d350967ebcb75402e4fc51a23", "is_disabled": 0, "is_reserved": 0}, {"rental_uris": {"ios": "https://dc.lft.to/lastmile_qr_scan", "android": "https://dc.lft.to/lastmile_qr_scan"}, "lon": -77.05071816666667, "type": "electric_bike", "fusion_lat": 0.0, "lat": 39.0613035, "name": "691221766e582c48de7e8557ad8c5286", "fusion_lon": 0.0, "bike_id": "691221766e582c48de7e8557ad8c5286", "is_disabled": 0, "is_reserved": 0}, {"rental_uris": {"ios": "https://dc.lft.to/lastmile_qr_scan", "android": "https://dc.lft.to/lastmile_qr_scan"}, "lon": -77.01015216666667, "type": "electric_scooter", "fusion_lat": 0.0, "lat": 38.91810566666667, "name": "4ee70f8d6e28468276265acbd5de5390", "fusion_lon": 0.0, "bike_id": "4ee70f8d6e28468276265acbd5de5390", "is_disabled": 0, "is_reserved": 0}, {"rental_uris": {"ios": "https://dc.lft.to/lastmile_qr_scan", "android": "https://dc.lft.to/lastmile_qr_scan"}, "lon": -77.05393066666667, "type": "electric_scooter", "fusion_lat": 0.0, "lat": 38.9016455, "name": "1916d3aba23f299b3d3a1454ee113640", "fusion_lon": 0.0, "bike_id": "1916d3aba23f299b3d3a1454ee113640", "is_disabled": 0, "is_reserved": 0}, {"rental_uris": {"ios": "https://dc.lft.to/lastmile_qr_scan", "android": "https://dc.lft.to/lastmile_qr_scan"}, "lon": -77.03438016666666, "type": "electric_scooter", "fusion_lat": 0.0, "lat": 38.90974333333333, "name": "0aa218860978345128f367e0c47a1d5e", "fusion_lon": 0.0, "bike_id": "0aa218860978345128f367e0c47a1d5e", "is_disabled": 0, "is_reserved": 0}, {"rental_uris": {"ios": "https://dc.lft.to/lastmile_qr_scan", "android": "https://dc.lft.to/lastmile_qr_scan"}, "lon": -77.02684933333333, "type": "electric_scooter", "fusion_lat": 0.0, "lat": 38.8810295, "name": "e906e0f3a60b351925ff3f5775855705", "fusion_lon": 0.0, "bike_id": "e906e0f3a60b351925ff3f5775855705", "is_disabled": 0, "is_reserved": 0}, {"rental_uris": {"ios": "https://dc.lft.to/lastmile_qr_scan", "android": "https://dc.lft.to/lastmile_qr_scan"}, "lon": -77.10339633333334, "type": "electric_bike", "fusion_lat": 0.0, "lat": 38.8522605, "name": "c4f996a63ae0dca3847f84106da9aae3", "fusion_lon": 0.0, "bike_id": "c4f996a63ae0dca3847f84106da9aae3", "is_disabled": 0, "is_reserved": 0}, {"rental_uris": {"ios": "https://dc.lft.to/lastmile_qr_scan", "android": "https://dc.lft.to/lastmile_qr_scan"}, "lon": -77.01275416666667, "type": "electric_bike", "fusion_lat": 0.0, "lat": 38.881175666666664, "name": "9dd67660b71192df62fea52e09a15d26", "fusion_lon": 0.0, "bike_id": "9dd67660b71192df62fea52e09a15d26", "is_disabled": 0, "is_reserved": 0}, {"rental_uris": {"ios": "https://dc.lft.to/lastmile_qr_scan", "android": "https://dc.lft.to/lastmile_qr_scan"}, "lon": -77.007186, "type": "electric_scooter", "fusion_lat": 0.0, "lat": 38.88486783333333, "name": "b429c829eca1768e47d7d03e3927314d", "fusion_lon": 0.0, "bike_id": "b429c829eca1768e47d7d03e3927314d", "is_disabled": 0, "is_reserved": 0}, {"rental_uris": {"ios": "https://dc.lft.to/lastmile_qr_scan", "android": "https://dc.lft.to/lastmile_qr_scan"}, "lon": -77.02728916666666, "type": "electric_scooter", "fusion_lat": 0.0, "lat": 38.933967, "name": "d7fc426fb23c486932b1ae0e6a00a443", "fusion_lon": 0.0, "bike_id": "d7fc426fb23c486932b1ae0e6a00a443", "is_disabled": 0, "is_reserved": 0}, {"rental_uris": {"ios": "https://dc.lft.to/lastmile_qr_scan", "android": "https://dc.lft.to/lastmile_qr_scan"}, "lon": -77.00136966666666, "type": "electric_scooter", "fusion_lat": 0.0, "lat": 38.90407116666667, "name": "b92e9725973ddb6a7b9f0afc1d98e71f", "fusion_lon": 0.0, "bike_id": "b92e9725973ddb6a7b9f0afc1d98e71f", "is_disabled": 0, "is_reserved": 0}, {"rental_uris": {"ios": "https://dc.lft.to/lastmile_qr_scan", "android": "https://dc.lft.to/lastmile_qr_scan"}, "lon": -77.02216, "type": "electric_scooter", "fusion_lat": 0.0, "lat": 38.90567633333333, "name": "6a21a7a2e5071220d243ed69e86f9ffe", "fusion_lon": 0.0, "bike_id": "6a21a7a2e5071220d243ed69e86f9ffe", "is_disabled": 0, "is_reserved": 0}, {"rental_uris": {"ios": "https://dc.lft.to/lastmile_qr_scan", "android": "https://dc.lft.to/lastmile_qr_scan"}, "lon": -77.029771, "type": "electric_scooter", "fusion_lat": 0.0, "lat": 38.962269166666665, "name": "ac93955c4277aae35b25f5841daf7d50", "fusion_lon": 0.0, "bike_id": "ac93955c4277aae35b25f5841daf7d50", "is_disabled": 0, "is_reserved": 0}, {"rental_uris": {"ios": "https://dc.lft.to/lastmile_qr_scan", "android": "https://dc.lft.to/lastmile_qr_scan"}, "lon": -76.94665083333334, "type": "electric_scooter", "fusion_lat": 0.0, "lat": 38.89800983333333, "name": "366244414eef92dc5cfb5eed7c758892", "fusion_lon": 0.0, "bike_id": "366244414eef92dc5cfb5eed7c758892", "is_disabled": 0, "is_reserved": 0}, {"rental_uris": {"ios": "https://dc.lft.to/lastmile_qr_scan", "android": "https://dc.lft.to/lastmile_qr_scan"}, "lon": -76.9272475, "type": "electric_scooter", "fusion_lat": 0.0, "lat": 38.88037683333334, "name": "97ba3208e6a10055b9693edda4728642", "fusion_lon": 0.0, "bike_id": "97ba3208e6a10055b9693edda4728642", "is_disabled": 0, "is_reserved": 0}, {"rental_uris": {"ios": "https://dc.lft.to/lastmile_qr_scan", "android": "https://dc.lft.to/lastmile_qr_scan"}, "lon": -76.974303, "type": "electric_bike", "fusion_lat": 0.0, "lat": 38.932073, "name": "dff1d6ccd3f0c9c5fdf2818fca370649", "fusion_lon": 0.0, "bike_id": "dff1d6ccd3f0c9c5fdf2818fca370649", "is_disabled": 0, "is_reserved": 0}, {"rental_uris": {"ios": "https://dc.lft.to/lastmile_qr_scan", "android": "https://dc.lft.to/lastmile_qr_scan"}, "lon": -77.01660783333334, "type": "electric_scooter", "fusion_lat": 0.0, "lat": 38.90467233333333, "name": "70583200bc07ce5226bc457d09632c3d", "fusion_lon": 0.0, "bike_id": "70583200bc07ce5226bc457d09632c3d", "is_disabled": 0, "is_reserved": 0}, {"rental_uris": {"ios": "https://dc.lft.to/lastmile_qr_scan", "android": "https://dc.lft.to/lastmile_qr_scan"}, "lon": -77.031912, "type": "electric_scooter", "fusion_lat": 0.0, "lat": 38.9109205, "name": "20701e498bebcfb0cc2b01a38fa899cf", "fusion_lon": 0.0, "bike_id": "20701e498bebcfb0cc2b01a38fa899cf", "is_disabled": 0, "is_reserved": 0}, {"rental_uris": {"ios": "https://dc.lft.to/lastmile_qr_scan", "android": "https://dc.lft.to/lastmile_qr_scan"}, "lon": -77.04249316666667, "type": "electric_scooter", "fusion_lat": 0.0, "lat": 38.921989333333336, "name": "75a05dad47c3a6bf12360b46b82ca1e5", "fusion_lon": 0.0, "bike_id": "75a05dad47c3a6bf12360b46b82ca1e5", "is_disabled": 0, "is_reserved": 0}, {"rental_uris": {"ios": "https://dc.lft.to/lastmile_qr_scan", "android": "https://dc.lft.to/lastmile_qr_scan"}, "lon": -77.0713595, "type": "electric_scooter", "fusion_lat": 0.0, "lat": 38.92726533333333, "name": "70eca75358a88769a7ad592b84fb2be5", "fusion_lon": 0.0, "bike_id": "70eca75358a88769a7ad592b84fb2be5", "is_disabled": 0, "is_reserved": 0}, {"rental_uris": {"ios": "https://dc.lft.to/lastmile_qr_scan", "android": "https://dc.lft.to/lastmile_qr_scan"}, "lon": -77.03185366666666, "type": "electric_scooter", "fusion_lat": 0.0, "lat": 38.91122133333333, "name": "113a12a64301550e35500cd6430c6654", "fusion_lon": 0.0, "bike_id": "113a12a64301550e35500cd6430c6654", "is_disabled": 0, "is_reserved": 0}, {"rental_uris": {"ios": "https://dc.lft.to/lastmile_qr_scan", "android": "https://dc.lft.to/lastmile_qr_scan"}, "lon": -76.94999216666666, "type": "electric_scooter", "fusion_lat": 0.0, "lat": 38.89369516666667, "name": "017498440453555f877d7fc11b2ed395", "fusion_lon": 0.0, "bike_id": "017498440453555f877d7fc11b2ed395", "is_disabled": 0, "is_reserved": 0}, {"rental_uris": {"ios": "https://dc.lft.to/lastmile_qr_scan", "android": "https://dc.lft.to/lastmile_qr_scan"}, "lon": -77.081916, "type": "electric_scooter", "fusion_lat": 0.0, "lat": 38.92001416666667, "name": "55006171c93f47228e847c683a0f8aba", "fusion_lon": 0.0, "bike_id": "55006171c93f47228e847c683a0f8aba", "is_disabled": 0, "is_reserved": 0}, {"rental_uris": {"ios": "https://dc.lft.to/lastmile_qr_scan", "android": "https://dc.lft.to/lastmile_qr_scan"}, "lon": -77.02587233333334, "type": "electric_scooter", "fusion_lat": 0.0, "lat": 38.90146333333333, "name": "1fe6f3a8935a85b3179798d197693395", "fusion_lon": 0.0, "bike_id": "1fe6f3a8935a85b3179798d197693395", "is_disabled": 0, "is_reserved": 0}, {"rental_uris": {"ios": "https://dc.lft.to/lastmile_qr_scan", "android": "https://dc.lft.to/lastmile_qr_scan"}, "lon": -77.18292933333333, "type": "electric_bike", "fusion_lat": 0.0, "lat": 38.883483166666664, "name": "cee7804a07a267f84d68f247e8749a74", "fusion_lon": 0.0, "bike_id": "cee7804a07a267f84d68f247e8749a74", "is_disabled": 0, "is_reserved": 0}, {"rental_uris": {"ios": "https://dc.lft.to/lastmile_qr_scan", "android": "https://dc.lft.to/lastmile_qr_scan"}, "lon": -77.04480083333333, "type": "electric_scooter", "fusion_lat": 0.0, "lat": 38.92238316666667, "name": "1a410514fff54bea5afdc64da851f80b", "fusion_lon": 0.0, "bike_id": "1a410514fff54bea5afdc64da851f80b", "is_disabled": 0, "is_reserved": 0}, {"rental_uris": {"ios": "https://dc.lft.to/lastmile_qr_scan", "android": "https://dc.lft.to/lastmile_qr_scan"}, "lon": -77.04190716666666, "type": "electric_scooter", "fusion_lat": 0.0, "lat": 38.922001, "name": "a0bd93b80e2d3b6668de58ee3dcc2a1f", "fusion_lon": 0.0, "bike_id": "a0bd93b80e2d3b6668de58ee3dcc2a1f", "is_disabled": 0, "is_reserved": 0}, {"rental_uris": {"ios": "https://dc.lft.to/lastmile_qr_scan", "android": "https://dc.lft.to/lastmile_qr_scan"}, "lon": -77.04249266666666, "type": "electric_scooter", "fusion_lat": 0.0, "lat": 38.922348, "name": "cc095e80dd35b19d0a80c913eb8e053c", "fusion_lon": 0.0, "bike_id": "cc095e80dd35b19d0a80c913eb8e053c", "is_disabled": 0, "is_reserved": 0}, {"rental_uris": {"ios": "https://dc.lft.to/lastmile_qr_scan", "android": "https://dc.lft.to/lastmile_qr_scan"}, "lon": -77.07010666666666, "type": "electric_bike", "fusion_lat": 0.0, "lat": 38.90640066666667, "name": "dd814837a811f78abd9ce2a6216627e5", "fusion_lon": 0.0, "bike_id": "dd814837a811f78abd9ce2a6216627e5", "is_disabled": 0, "is_reserved": 0}, {"rental_uris": {"ios": "https://dc.lft.to/lastmile_qr_scan", "android": "https://dc.lft.to/lastmile_qr_scan"},