{"data": {"bikes": [{"is_reserved": 0, "fusion_lon": 0.0, "fusion_lat": 0.0, "name": "467a0c760bba3cadb0be166f2a288233", "type": "electric_scooter", "is_disabled": 0, "lat": 38.956166, "rental_uris": {"android": "https://dc.lft.to/lastmile_qr_scan", "ios": "https://dc.lft.to/lastmile_qr_scan"}, "bike_id": "467a0c760bba3cadb0be166f2a288233", "lon": -77.02780816666667}, {"is_reserved": 0, "fusion_lon": 0.0, "fusion_lat": 0.0, "name": "46c79cccc258930f7b2f9ad790f92881", "type": "electric_bike", "is_disabled": 0, "lat": 38.85937966666667, "rental_uris": {"android": "https://dc.lft.to/lastmile_qr_scan", "ios": "https://dc.lft.to/lastmile_qr_scan"}, "bike_id": "46c79cccc258930f7b2f9ad790f92881", "lon": -77.11831116666667}, {"is_reserved": 0, "fusion_lon": 0.0, "fusion_lat": 0.0, "name": "b4362234818312594d7db6b189c816b7", "type": "electric_scooter", "is_disabled": 0, "lat": 38.8860975, "rental_uris": {"android": "https://dc.lft.to/lastmile_qr_scan", "ios": "https://dc.lft.to/lastmile_qr_scan"}, "bike_id": "b4362234818312594d7db6b189c816b7", "lon": -77.00132516666666}, {"is_reserved": 0, "fusion_lon": 0.0, "fusion_lat": 0.0, "name": "2e9757ad9da761a9dfa70d8920bd107d", "type": "electric_scooter", "is_disabled": 0, "lat": 38.864741, "rental_uris": {"android": "https://dc.lft.to/lastmile_qr_scan", "ios": "https://dc.lft.to/lastmile_qr_scan"}, "bike_id": "2e9757ad9da761a9dfa70d8920bd107d", "lon": -76.9823505}, {"is_reserved": 0, "fusion_lon": 0.0, "fusion_lat": 0.0, "name": "6b8d5585e831bd115fa93f3c801f2f3b", "type": "electric_scooter", "is_disabled": 0, "lat": 38.908508499999996, "rental_uris": {"android": "https://dc.lft.to/lastmile_qr_scan", "ios": "https://dc.lft.to/lastmile_qr_scan"}, "bike_id": "6b8d5585e831bd115fa93f3c801f2f3b", "lon": -77.03857766666667}, {"is_reserved": 0, "fusion_lon": 0.0, "fusion_lat": 0.0, "name": "71511705c72f58927f0d55f9c6707dbe", "type": "electric_bike", "is_disabled": 0, "lat": 38.874158666666666, "rental_uris": {"android": "https://dc.lft.to/lastmile_qr_scan", "ios": "https://dc.lft.to/lastmile_qr_scan"}, "bike_id": "71511705c72f58927f0d55f9c6707dbe", "lon": -76.97164716666667}, {"is_reserved": 0, "fusion_lon": 0.0, "fusion_lat": 0.0, "name": "deec4c08e9e0b3032a3aa3e45039637e", "type": "electric_bike", "is_disabled": 0, "lat": 38.82372866666667, "rental_uris": {"android": "https://dc.lft.to/lastmile_qr_scan", "ios": "https://dc.lft.to/lastmile_qr_scan"}, "bike_id": "deec4c08e9e0b3032a3aa3e45039637e", "lon": -77.0021925}, {"is_reserved": 0, "fusion_lon": 0.0, "fusion_lat": 0.0, "name": "32c0c1b35e33f1d72b9c52fb735c837e", "type": "electric_scooter", "is_disabled": 0, "lat": 38.93997133333333, "rental_uris": {"android": "https://dc.lft.to/lastmile_qr_scan", "ios": "https://dc.lft.to/lastmile_qr_scan"}, "bike_id": "32c0c1b35e33f1d72b9c52fb735c837e", "lon": -77.01739666666667}, {"is_reserved": 0, "fusion_lon": 0.0, "fusion_lat": 0.0, "name": "7a268a861377eca83c6a1273530c3bdf", "type": "electric_bike", "is_disabled": 0, "lat": 38.95739066666667, "rental_uris": {"android": "https://dc.lft.to/lastmile_qr_scan", "ios": "https://dc.lft.to/lastmile_qr_scan"}, "bike_id": "7a268a861377eca83c6a1273530c3bdf", "lon": -77.02419716666667}, {"is_reserved": 0, "fusion_lon": 0.0, "fusion_lat": 0.0, "name": "c5e6f30294e3177b8a36eb10043c32c2", "type": "electric_scooter", "is_disabled": 0, "lat": 38.913679333333334, "rental_uris": {"android": "https://dc.lft.to/lastmile_qr_scan", "ios": "https://dc.lft.to/lastmile_qr_scan"}, "bike_id": "c5e6f30294e3177b8a36eb10043c32c2", "lon": -77.045582}, {"is_reserved": 0, "fusion_lon": 0.0, "fusion_lat": 0.0, "name": "fc1f09de5019fd036d86b73f7b9ad3cc", "type": "electric_scooter", "is_disabled": 0, "lat": 38.912718, "rental_uris": {"android": "https://dc.lft.to/lastmile_qr_scan", "ios": "https://dc.lft.to/lastmile_qr_scan"}, "bike_id": "fc1f09de5019fd036d86b73f7b9ad3cc", "lon": -77.03123233333334}, {"is_reserved": 0, "fusion_lon": 0.0, "fusion_lat": 0.0, "name": "fb147f934a159d721f58aed659b13504", "type": "electric_scooter", "is_disabled": 0, "lat": 38.92331333333333, "rental_uris": {"android": "https://dc.lft.to/lastmile_qr_scan", "ios": "https://dc.lft.to/lastmile_qr_scan"}, "bike_id": "fb147f934a159d721f58aed659b13504", "lon": -77.00047283333333}, {"is_reserved": 0, "fusion_lon": 0.0, "fusion_lat": 0.0, "name": "87c6c989df0660c5c478588bc1753e54", "type": "electric_scooter", "is_disabled": 0, "lat": 38.93044866666666, "rental_uris": {"android": "https://dc.lft.to/lastmile_qr_scan", "ios": "https://dc.lft.to/lastmile_qr_scan"}, "bike_id": "87c6c989df0660c5c478588bc1753e54", "lon": -77.01230483333333}, {"is_reserved": 0, "fusion_lon": 0.0, "fusion_lat": 0.0, "name": "5177777b0b74e8ae4a5961ac02ffdabc", "type": "electric_scooter", "is_disabled": 0, "lat": 38.92878733333333, "rental_uris": {"android": "https://dc.lft.to/lastmile_qr_scan", "ios": "https://dc.lft.to/lastmile_qr_scan"}, "bike_id": "5177777b0b74e8ae4a5961ac02ffdabc", "lon": -77.0363875}, {"is_reserved": 0, "fusion_lon": 0.0, "fusion_lat": 0.0, "name": "492d6f2f7686454100254e931770d7f2", "type": "electric_scooter", "is_disabled": 0, "lat": 38.924898666666664, "rental_uris": {"android": "https://dc.lft.to/lastmile_qr_scan", "ios": "https://dc.lft.to/lastmile_qr_scan"}, "bike_id": "492d6f2f7686454100254e931770d7f2", "lon": -77.0269715}, {"is_reserved": 0, "fusion_lon": 0.0, "fusion_lat": 0.0, "name": "175e2a26d0ca8ef3862f037e830f35bc", "type": "electric_bike", "is_disabled": 0, "lat": 38.862612166666665, "rental_uris": {"android": "https://dc.lft.to/lastmile_qr_scan", "ios": "https://dc.lft.to/lastmile_qr_scan"}, "bike_id": "175e2a26d0ca8ef3862f037e830f35bc", "lon": -76.98358366666666}, {"is_reserved": 0, "fusion_lon": 0.0, "fusion_lat": 0.0, "name": "7de7099586350683ce414d38b845d9f8", "type": "electric_scooter", "is_disabled": 0, "lat": 38.908638, "rental_uris": {"android": "https://dc.lft.to/lastmile_qr_scan", "ios": "https://dc.lft.to/lastmile_qr_scan"}, "bike_id": "7de7099586350683ce414d38b845d9f8", "lon": -77.08598483333333}, {"is_reserved": 0, "fusion_lon": 0.0, "fusion_lat": 0.0, "name": "013dbc932bb18cef109b5e7c6dd0a8a1", "type": "electric_scooter", "is_disabled": 0, "lat": 38.9181965, "rental_uris": {"android": "https://dc.lft.to/lastmile_qr_scan", "ios": "https://dc.lft.to/lastmile_qr_scan"}, "bike_id": "013dbc932bb18cef109b5e7c6dd0a8a1", "lon": -77.08952566666666}, {"is_reserved": 0, "fusion_lon": 0.0, "fusion_lat": 0.0, "name": "4a611584339ffc3399dbdfd33ffb9093", "type": "electric_scooter", "is_disabled": 0, "lat": 38.917398, "rental_uris": {"android": "https://dc.lft.to/lastmile_qr_scan", "ios": "https://dc.lft.to/lastmile_qr_scan"}, "bike_id": "4a611584339ffc3399dbdfd33ffb9093", "lon": -77.02701783333333}, {"is_reserved": 0, "fusion_lon": 0.0, "fusion_lat": 0.0, "name": "963274963ac6db9f7065cd75dd2322a6", "type": "electric_bike", "is_disabled": 0, "lat": 38.9632285, "rental_uris": {"android": "https://dc.lft.to/lastmile_qr_scan", "ios": "https://dc.lft.to/lastmile_qr_scan"}, "bike_id": "963274963ac6db9f7065cd75dd2322a6", "lon": -76.97358733333333}, {"is_reserved": 0, "fusion_lon": 0.0, "fusion_lat": 0.0, "name": "d6ab0becbfd669893183f6a36179638a", "type": "electric_scooter", "is_disabled": 0, "lat": 38.93606316666666, "rental_uris": {"android": "https://dc.lft.to/lastmile_qr_scan", "ios": "https://dc.lft.to/lastmile_qr_scan"}, "bike_id": "d6ab0becbfd669893183f6a36179638a", "lon": -77.03785216666667}, {"is_reserved": 0, "fusion_lon": 0.0, "fusion_lat": 0.0, "name": "1337158dd6e981386c8332a536febab3", "type": "electric_bike", "is_disabled": 0, "lat": 38.96919, "rental_uris": {"android": "https://dc.lft.to/lastmile_qr_scan", "ios": "https://dc.lft.to/lastmile_qr_scan"}, "bike_id": "1337158dd6e981386c8332a536febab3", "lon": -76.9949025}, {"is_reserved": 0, "fusion_lon": 0.0, "fusion_lat": 0.0, "name": "14f49935dce00c1b8e64ce9b137e28b6", "type": "electric_scooter", "is_disabled": 0, "lat": 38.907188833333336, "rental_uris": {"android": "https://dc.lft.to/lastmile_qr_scan", "ios": "https://dc.lft.to/lastmile_qr_scan"}, "bike_id": "14f49935dce00c1b8e64ce9b137e28b6", "lon": -77.03821066666667}, {"is_reserved": 0, "fusion_lon": 0.0, "fusion_lat": 0.0, "name": "4a8b7ce6d81360ac9ba7aeb54dd54c12", "type": "electric_scooter", "is_disabled": 0, "lat": 38.9001645, "rental_uris": {"android": "https://dc.lft.to/lastmile_qr_scan", "ios": "https://dc.lft.to/lastmile_qr_scan"}, "bike_id": "4a8b7ce6d81360ac9ba7aeb54dd54c12", "lon": -76.988717}, {"is_reserved": 0, "fusion_lon": 0.0, "fusion_lat": 0.0, "name": "f54d8e76961524016ba150c458a7a832", "type": "electric_bike", "is_disabled": 0, "lat": 38.876366166666664, "rental_uris": {"android": "https://dc.lft.to/lastmile_qr_scan", "ios": "https://dc.lft.to/lastmile_qr_scan"}, "bike_id": "f54d8e76961524016ba150c458a7a832", "lon": -76.98868633333333}, {"is_reserved": 0, "fusion_lon": 0.0, "fusion_lat": 0.0, "name": "5ad25e8bcbe7b1733e5a3d1fd3795592", "type": "electric_scooter", "is_disabled": 0, "lat": 38.8736035, "rental_uris": {"android": "https://dc.lft.to/lastmile_qr_scan", "ios": "https://dc.lft.to/lastmile_qr_scan"}, "bike_id": "5ad25e8bcbe7b1733e5a3d1fd3795592", "lon": -77.006164}, {"is_reserved": 0, "fusion_lon": 0.0, "fusion_lat": 0.0, "name": "608be3284a67d47341b5e13d4f0b66de", "type": "electric_scooter", "is_disabled": 0, "lat": 38.902864666666666, "rental_uris": {"android": "https://dc.lft.to/lastmile_qr_scan", "ios": "https://dc.lft.to/lastmile_qr_scan"}, "bike_id": "608be3284a67d47341b5e13d4f0b66de", "lon": -77.03345116666667}, {"is_reserved": 0, "fusion_lon": 0.0, "fusion_lat": 0.0, "name": "e3b9df4f3e1d4e2a50e9ba7060510502", "type": "electric_scooter", "is_disabled": 0, "lat": 38.864171166666665, "rental_uris": {"android": "https://dc.lft.to/lastmile_qr_scan", "ios": "https://dc.lft.to/lastmile_qr_scan"}, "bike_id": "e3b9df4f3e1d4e2a50e9ba7060510502", "lon": -77.01224183333333}, {"is_reserved": 0, "fusion_lon": 0.0, "fusion_lat": 0.0, "name": "3a7aff95e908eac928dab2b5c3114fbd", "type": "electric_scooter", "is_disabled": 0, "lat": 38.90437883333333, "rental_uris": {"android": "https://dc.lft.to/lastmile_qr_scan", "ios": "https://dc.lft.to/lastmile_qr_scan"}, "bike_id": "3a7aff95e908eac928dab2b5c3114fbd", "lon": -77.02594083333334}, {"is_reserved": 0, "fusion_lon": 0.0, "fusion_lat": 0.0, "name": "a9e0c217641e443b2ff431d3965f968d", "type": "electric_scooter", "is_disabled": 0, "lat": 38.917440666666664, "rental_uris": {"android": "https://dc.lft.to/lastmile_qr_scan", "ios": "https://dc.lft.to/lastmile_qr_scan"}, "bike_id": "a9e0c217641e443b2ff431d3965f968d", "lon": -77.01084416666667}, {"is_reserved": 0, "fusion_lon": 0.0, "fusion_lat": 0.0, "name": "57b02837b651d58b2db8b4b189455806", "type": "electric_scooter", "is_disabled": 0, "lat": 38.8858355, "rental_uris": {"android": "https://dc.lft.to/lastmile_qr_scan", "ios": "https://dc.lft.to/lastmile_qr_scan"}, "bike_id": "57b02837b651d58b2db8b4b189455806", "lon": -76.92985666666667}, {"is_reserved": 0, "fusion_lon": 0.0, "fusion_lat": 0.0, "name": "247fd307e6df6a5e9f6dc9ce1a9acefa", "type": "electric_scooter", "is_disabled": 0, "lat": 38.900642833333336, "rental_uris": {"android": "https://dc.lft.to/lastmile_qr_scan", "ios": "https://dc.lft.to/lastmile_qr_scan"}, "bike_id": "247fd307e6df6a5e9f6dc9ce1a9acefa", "lon": -77.00197266666666}, {"is_reserved": 0, "fusion_lon": 0.0, "fusion_lat": 0.0, "name": "818ebcc42b14f31c813769f1d996074a", "type": "electric_scooter", "is_disabled": 0, "lat": 38.92770316666667, "rental_uris": {"android": "https://dc.lft.to/lastmile_qr_scan", "ios": "https://dc.lft.to/lastmile_qr_scan"}, "bike_id": "818ebcc42b14f31c813769f1d996074a", "lon": -77.02784533333333}, {"is_reserved": 0, "fusion_lon": 0.0, "fusion_lat": 0.0, "name": "be8117cf51071c380f0a0ce6c95cf53d", "type": "electric_scooter", "is_disabled": 0, "lat": 38.900135666666664, "rental_uris": {"android": "https://dc.lft.to/lastmile_qr_scan", "ios": "https://dc.lft.to/lastmile_qr_scan"}, "bike_id": "be8117cf51071c380f0a0ce6c95cf53d", "lon": -76.9302755}, {"is_reserved": 0, "fusion_lon": 0.0, "fusion_lat": 0.0, "name": "1be231ddc3f438e6dd45d68d6674f135", "type": "electric_scooter", "is_disabled": 0, "lat": 38.93254, "rental_uris": {"android": "https://dc.lft.to/lastmile_qr_scan", "ios": "https://dc.lft.to/lastmile_qr_scan"}, "bike_id": "1be231ddc3f438e6dd45d68d6674f135", "lon": -77.03285733333334}, {"is_reserved": 0, "fusion_lon": 0.0, "fusion_lat": 0.0, "name": "d566394267837035ea4451f883c572ee", "type": "electric_scooter", "is_disabled": 0, "lat": 38.89237983333334, "rental_uris": {"android": "https://dc.lft.to/lastmile_qr_scan", "ios": "https://dc.lft.to/lastmile_qr_scan"}, "bike_id": "d566394267837035ea4451f883c572ee", "lon": -77.02381533333333}, {"is_reserved": 0, "fusion_lon": 0.0, "fusion_lat": 0.0, "name": "6bbee55bca078f08c94700fe57da8cb0", "type": "electric_scooter", "is_disabled": 0, "lat": 38.866971, "rental_uris": {"android": "https://dc.lft.to/lastmile_qr_scan", "ios": "https://dc.lft.to/lastmile_qr_scan"}, "bike_id": "6bbee55bca078f08c94700fe57da8cb0", "lon": -76.98592533333333}, {"is_reserved": 0, "fusion_lon": 0.0, "fusion_lat": 0.0, "name": "c78030ab002100443c0d5a9249ce79a0", "type": "electric_scooter", "is_disabled": 0, "lat": 38.9253835, "rental_uris": {"android": "https://dc.lft.to/lastmile_qr_scan", "ios": "https://dc.lft.to/lastmile_qr_scan"}, "bike_id": "c78030ab002100443c0d5a9249ce79a0", "lon": -76.97217816666667}, {"is_reserved": 0, "fusion_lon": 0.0, "fusion_lat": 0.0, "name": "1d3aa242bbe4ee7bc143f1b45e53f90d", "type": "electric_scooter", "is_disabled": 0, "lat": 38.9026, "rental_uris": {"android": "https://dc.lft.to/lastmile_qr_scan", "ios": "https://dc.lft.to/lastmile_qr_scan"}, "bike_id": "1d3aa242bbe4ee7bc143f1b45e53f90d", "lon": -77.0344625}, {"is_reserved": 0, "fusion_lon": 0.0, "fusion_lat": 0.0, "name": "0a0978ded648abcb7598c0c015ea895e", "type": "electric_scooter", "is_disabled": 0, "lat": 38.909773666666666, "rental_uris": {"android": "https://dc.lft.to/lastmile_qr_scan", "ios": "https://dc.lft.to/lastmile_qr_scan"}, "bike_id": "0a0978ded648abcb7598c0c015ea895e", "lon": -77.03179216666666}, {"is_reserved": 0, "fusion_lon": 0.0, "fusion_lat": 0.0, "name": "f99f017b5bb19618d8a01402add03b10", "type": "electric_scooter", "is_disabled": 0, "lat": 38.928526833333336, "rental_uris": {"android": "https://dc.lft.to/lastmile_qr_scan", "ios": "https://dc.lft.to/lastmile_qr_scan"}, "bike_id": "f99f017b5bb19618d8a01402add03b10", "lon": -77.03733366666667}, {"is_reserved": 0, "fusion_lon": 0.0, "fusion_lat": 0.0, "name": "ea52ab6a825d771f782d862112024c1a", "type": "electric_scooter", "is_disabled": 0, "lat": 38.90634816666667, "rental_uris": {"android": "https://dc.lft.to/lastmile_qr_scan", "ios": "https://dc.lft.to/lastmile_qr_scan"}, "bike_id": "ea52ab6a825d771f782d862112024c1a", "lon": -77.0347695}, {"is_reserved": 0, "fusion_lon": 0.0, "fusion_lat": 0.0, "name": "7833ed5e416525e3208d3d283f2b2102", "type": "electric_scooter", "is_disabled": 0, "lat": 38.90819233333333, "rental_uris": {"android": "https://dc.lft.to/lastmile_qr_scan", "ios": "https://dc.lft.to/lastmile_qr_scan"}, "bike_id": "7833ed5e416525e3208d3d283f2b2102", "lon": -77.04338733333333}, {"is_reserved": 0, "fusion_lon": 0.0, "fusion_lat": 0.0, "name": "2c3bc6e77a060ec736b25fdc368d7287", "type": "electric_scooter", "is_disabled": 0, "lat": 38.906256, "rental_uris": {"android": "https://dc.lft.to/lastmile_qr_scan", "ios": "https://dc.lft.to/lastmile_qr_scan"}, "bike_id": "2c3bc6e77a060ec736b25fdc368d7287", "lon": -77.04173233333333}, {"is_reserved": 0, "fusion_lon": 0.0, "fusion_lat": 0.0, "name": "e4667a6c0b973d04ea9aa91d08e38948", "type": "electric_scooter", "is_disabled": 0, "lat": 38.91825933333333, "rental_uris": {"android": "https://dc.lft.to/lastmile_qr_scan", "ios": "https://dc.lft.to/lastmile_qr_scan"}, "bike_id": "e4667a6c0b973d04ea9aa91d08e38948", "lon": -77.03453183333333}, {"is_reserved": 0, "fusion_lon": 0.0, "fusion_lat": 0.0, "name": "2724288cd69a1a9c06edeef72b2ec41a", "type": "electric_scooter", "is_disabled": 0, "lat": 38.910786333333334, "rental_uris": {"android": "https://dc.lft.to/lastmile_qr_scan", "ios": "https://dc.lft.to/lastmile_qr_scan"}, "bike_id": "2724288cd69a1a9c06edeef72b2ec41a", "lon": -77.04252766666667}, {"is_reserved": 0, "fusion_lon": 0.0, "fusion_lat": 0.0, "name": "1b49f38ffa0399cd16a75d214469a64e", "type": "electric_bike", "is_disabled": 0, "lat": 38.94926183333333, "rental_uris": {"android": "https://dc.lft.to/lastmile_qr_scan", "ios": "https://dc.lft.to/lastmile_qr_scan"}, "bike_id": "1b49f38ffa0399cd16a75d214469a64e", "lon": -77.0080035}, {"is_reserved": 0, "fusion_lon": 0.0, "fusion_lat": 0.0, "name": "33da6a9b4dd7d1ce598b27d368f43ec7", "type": "electric_scooter", "is_disabled": 0, "lat": 38.90642866666666, "rental_uris": {"android": "https://dc.lft.to/lastmile_qr_scan", "ios": "https://dc.lft.to/lastmile_qr_scan"}, "bike_id": "33da6a9b4dd7d1ce598b27d368f43ec7", "lon": -77.026981}, {"is_reserved": 0, "fusion_lon": 0.0, "fusion_lat": 0.0, "name": "b02751c079755904d1f731ca56cdfdad", "type": "electric_scooter", "is_disabled": 0, "lat": 38.90897366666667, "rental_uris": {"android": "https://dc.lft.to/lastmile_qr_scan", "ios": "https://dc.lft.to/lastmile_qr_scan"}, "bike_id": "b02751c079755904d1f731ca56cdfdad", "lon": -77.045833}, {"is_reserved": 0, "fusion_lon": 0.0, "fusion_lat": 0.0, "name": "b68afdd1706b121d17d47803aef17d1e", "type": "electric_scooter", "is_disabled": 0, "lat": 38.9012505, "rental_uris": {"android": "https://dc.lft.to/lastmile_qr_scan", "ios": "https://dc.lft.to/lastmile_qr_scan"}, "bike_id": "b68afdd1706b121d17d47803aef17d1e", "lon": -77.04362433333333}, {"is_reserved": 0, "fusion_lon": 0.0, "fusion_lat": 0.0, "name": "4e8ccbfd07cf6a1477cc502bca231059", "type": "electric_scooter", "is_disabled": 0, "lat": 38.911203666666665, "rental_uris": {"android": "https://dc.lft.to/lastmile_qr_scan", "ios": "https://dc.lft.to/lastmile_qr_scan"}, "bike_id": "4e8ccbfd07cf6a1477cc502bca231059", "lon": -77.04319483333333}, {"is_reserved": 0, "fusion_lon": 0.0, "fusion_lat": 0.0, "name": "c415cebca4d56525465f86fdd7e03e9f", "type": "electric_scooter", "is_disabled": 0, "lat": 38.876853, "rental_uris": {"android": "https://dc.lft.to/lastmile_qr_scan", "ios": "https://dc.lft.to/lastmile_qr_scan"}, "bike_id": "c415cebca4d56525465f86fdd7e03e9f", "lon": -77.017895}, {"is_reserved": 0, "fusion_lon": 0.0, "fusion_lat": 0.0, "name": "5e01f25acecc50434885c9fbece6fd64", "type": "electric_scooter", "is_disabled": 0, "lat": 38.908592, "rental_uris": {"android": "https://dc.lft.to/lastmile_qr_scan", "ios": "https://dc.lft.to/lastmile_qr_scan"}, "bike_id": "5e01f25acecc50434885c9fbece6fd64", "lon": -77.07098083333334}, {"is_reserved": 0, "fusion_lon": 0.0, "fusion_lat": 0.0, "name": "a3fd9b4804b65f836920db03c88b7a7e", "type": "electric_scooter", "is_disabled": 0, "lat": 38.88049933333333, "rental_uris": {"android": "https://dc.lft.to/lastmile_qr_scan", "ios": "https://dc.lft.to/lastmile_qr_scan"}, "bike_id": "a3fd9b4804b65f836920db03c88b7a7e", "lon": -76.93217}, {"is_reserved": 0, "fusion_lon": 0.0, "fusion_lat": 0.0, "name": "3cf14733583bc5420623e88af8896e6b", "type": "electric_scooter", "is_disabled": 0, "lat": 38.9056875, "rental_uris": {"android": "https://dc.lft.to/lastmile_qr_scan", "ios": "https://dc.lft.to/lastmile_qr_scan"}, "bike_id": "3cf14733583bc5420623e88af8896e6b", "lon": -77.00722383333333}, {"is_reserved": 0, "fusion_lon": 0.0, "fusion_lat": 0.0, "name": "e219ca4dd727af7bca8e5526de6c6483", "type": "electric_scooter", "is_disabled": 0, "lat": 38.89796716666667, "rental_uris": {"android": "https://dc.lft.to/lastmile_qr_scan", "ios": "https://dc.lft.to/lastmile_qr_scan"}, "bike_id": "e219ca4dd727af7bca8e5526de6c6483", "lon": -77.040041}, {"is_reserved": 0, "fusion_lon": 0.0, "fusion_lat": 0.0, "name": "9da6df8f76cad768452731d80896986e", "type": "electric_scooter", "is_disabled": 0, "lat": 38.87545016666667, "rental_uris": {"android": "https://dc.lft.to/lastmile_qr_scan", "ios": "https://dc.lft.to/lastmile_qr_scan"}, "bike_id": "9da6df8f76cad768452731d80896986e", "lon": -77.00599316666667}, {"is_reserved": 0, "fusion_lon": 0.0, "fusion_lat": 0.0, "name": "d8ae2c2a37864dd2d193ed947a3953ce", "type": "electric_scooter", "is_disabled": 0, "lat": 38.92052183333333, "rental_uris": {"android": "https://dc.lft.to/lastmile_qr_scan", "ios": "https://dc.lft.to/lastmile_qr_scan"}, "bike_id": "d8ae2c2a37864dd2d193ed947a3953ce", "lon": -77.03466216666666}, {"is_reserved": 0, "fusion_lon": 0.0, "fusion_lat": 0.0, "name": "0c49518f4972c6b7b6fecf3436a97e8f", "type": "electric_scooter", "is_disabled": 0, "lat": 38.952067166666666, "rental_uris": {"android": "https://dc.lft.to/lastmile_qr_scan", "ios": "https://dc.lft.to/lastmile_qr_scan"}, "bike_id": "0c49518f4972c6b7b6fecf3436a97e8f", "lon": -77.02741033333334}, {"is_reserved": 0, "fusion_lon": 0.0, "fusion_lat": 0.0, "name": "1263737da20c5a6a0c0a76103c2f5597", "type": "electric_scooter", "is_disabled": 0, "lat": 38.90716883333333, "rental_uris": {"android": "https://dc.lft.to/lastmile_qr_scan", "ios": "https://dc.lft.to/lastmile_qr_scan"}, "bike_id": "1263737da20c5a6a0c0a76103c2f5597", "lon": -77.04813366666667}, {"is_reserved": 0, "fusion_lon": 0.0, "fusion_lat": 0.0, "name": "77c74f2d4fb7293e0db96d7cf71498e7", "type": "electric_scooter", "is_disabled": 0, "lat": 38.90131316666667, "rental_uris": {"android": "https://dc.lft.to/lastmile_qr_scan", "ios": "https://dc.lft.to/lastmile_qr_scan"}, "bike_id": "77c74f2d4fb7293e0db96d7cf71498e7", "lon": -77.04010016666666}, {"is_reserved": 0, "fusion_lon": 0.0, "fusion_lat": 0.0, "name": "d9851a2ca2b52ffce89bf1a46f960c28", "type": "electric_scooter", "is_disabled": 0, "lat": 38.903642166666664, "rental_uris": {"android": "https://dc.lft.to/lastmile_qr_scan", "ios": "https://dc.lft.to/lastmile_qr_scan"}, "bike_id": "d9851a2ca2b52ffce89bf1a46f960c28", "lon": -77.0059}, {"is_reserved": 0, "fusion_lon": 0.0, "fusion_lat": 0.0, "name": "4fc99b47090ab887ef1427f766b3cac8", "type": "electric_scooter", "is_disabled": 0, "lat": 38.91386416666667, "rental_uris": {"android": "https://dc.lft.to/lastmile_qr_scan", "ios": "https://dc.lft.to/lastmile_qr_scan"}, "bike_id": "4fc99b47090ab887ef1427f766b3cac8", "lon": -77.01706166666666}, {"is_reserved": 0, "fusion_lon": 0.0, "fusion_lat": 0.0, "name": "d3711e2ddee01526926994cf2051aadb", "type": "electric_scooter", "is_disabled": 0, "lat": 38.909728666666666, "rental_uris": {"android": "https://dc.lft.to/lastmile_qr_scan", "ios": "https://dc.lft.to/lastmile_qr_scan"}, "bike_id": "d3711e2ddee01526926994cf2051aadb", "lon": -77.0385975}, {"is_reserved": 0, "fusion_lon": 0.0, "fusion_lat": 0.0, "name": "91d56f70cfec1b85bc91a6cc45095bbf", "type": "electric_scooter", "is_disabled": 0, "lat": 38.90127233333333, "rental_uris": {"android": "https://dc.lft.to/lastmile_qr_scan", "ios": "https://dc.lft.to/lastmile_qr_scan"}, "bike_id": "91d56f70cfec1b85bc91a6cc45095bbf", "lon": -77.03241666666666}, {"is_reserved": 0, "fusion_lon": 0.0, "fusion_lat": 0.0, "name": "dc9520f5495388780250d3cd2175c5dc", "type": "electric_scooter", "is_disabled": 0, "lat": 38.89017883333333, "rental_uris": {"android": "https://dc.lft.to/lastmile_qr_scan", "ios": "https://dc.lft.to/lastmile_qr_scan"}, "bike_id": "dc9520f5495388780250d3cd2175c5dc", "lon": -76.93735283333334}, {"is_reserved": 0, "fusion_lon": 0.0, "fusion_lat": 0.0, "name": "145820f415022fea1bc1108c403259a3", "type": "electric_scooter", "is_disabled": 0, "lat": 38.918007333333335, "rental_uris": {"android": "https://dc.lft.to/lastmile_qr_scan", "ios": "https://dc.lft.to/lastmile_qr_scan"}, "bike_id": "145820f415022fea1bc1108c403259a3", "lon": -77.03206733333333}, {"is_reserved": 0, "fusion_lon": 0.0, "fusion_lat": 0.0, "name": "c82ee85ada6176e2d0335604206d61de", "type": "electric_scooter", "is_disabled": 0, "lat": 38.93485183333333, "rental_uris": {"android": "https://dc.lft.to/lastmile_qr_scan", "ios": "https://dc.lft.to/lastmile_qr_scan"}, "bike_id": "c82ee85ada6176e2d0335604206d61de", "lon": -77.06482733333333}, {"is_reserved": 0, "fusion_lon": 0.0, "fusion_lat": 0.0, "name": "408cafa5675ac2bed1bf97ae67309eb0", "type": "electric_scooter", "is_disabled": 0, "lat": 38.971250166666664, "rental_uris": {"android": "https://dc.lft.to/lastmile_qr_scan", "ios": "https://dc.lft.to/lastmile_qr_scan"}, "bike_id": "408cafa5675ac2bed1bf97ae67309eb0", "lon": -77.0168705}, {"is_reserved": 0, "fusion_lon": 0.0, "fusion_lat": 0.0, "name": "3ee56345fac96174ac20a83857819c17", "type": "electric_bike", "is_disabled": 0, "lat": 38.85766483333333, "rental_uris": {"android": "https://dc.lft.to/lastmile_qr_scan", "ios": "https://dc.lft.to/lastmile_qr_scan"}, "bike_id": "3ee56345fac96174ac20a83857819c17", "lon": -76.98757966666666}, {"is_reserved": 0, "fusion_lon": 0.0, "fusion_lat": 0.0, "name": "af063df4cc06f5ae29fb7f063de5d143", "type": "electric_scooter", "is_disabled": 0, "lat": 38.9418, "rental_uris": {"android": "https://dc.lft.to/lastmile_qr_scan", "ios": "https://dc.lft.to/lastmile_qr_scan"}, "bike_id": "af063df4cc06f5ae29fb7f063de5d143", "lon": -77.02560083333333}, {"is_reserved": 0, "fusion_lon": 0.0, "fusion_lat": 0.0, "name": "86597ae6d0aab04b9bf90a93e64c8797", "type": "electric_scooter", "is_disabled": 0, "lat": 38.900390333333334, "rental_uris": {"android": "https://dc.lft.to/lastmile_qr_scan", "ios": "https://dc.lft.to/lastmile_qr_scan"}, "bike_id": "86597ae6d0aab04b9bf90a93e64c8797", "lon": -76.9805825}, {"is_reserved": 0, "fusion_lon": 0.0, "fusion_lat": 0.0, "name": "ac79010f283ac022fcdfb832fb7d52fd", "type": "electric_scooter", "is_disabled": 0, "lat": 38.866669, "rental_uris": {"android": "https://dc.lft.to/lastmile_qr_scan", "ios": "https://dc.lft.to/lastmile_qr_scan"}, "bike_id": "ac79010f283ac022fcdfb832fb7d52fd", "lon": -76.9851615}, {"is_reserved": 0, "fusion_lon": 0.0, "fusion_lat": 0.0, "name": "7cab18cf2d47d4be8aa713454508a1c7", "type": "electric_scooter", "is_disabled": 0, "lat": 38.94989666666667, "rental_uris": {"android": "https://dc.lft.to/lastmile_qr_scan", "ios": "https://dc.lft.to/lastmile_qr_scan"}, "bike_id": "7cab18cf2d47d4be8aa713454508a1c7", "lon": -77.0270475}, {"is_reserved": 0, "fusion_lon": 0.0, "fusion_lat": 0.0, "name": "f83aaa2913572ba07c08b6c3dbd1a094", "type": "electric_scooter", "is_disabled": 0, "lat": 38.93018166666667, "rental_uris": {"android": "https://dc.lft.to/lastmile_qr_scan", "ios": "https://dc.lft.to/lastmile_qr_scan"}, "bike_id": "f83aaa2913572ba07c08b6c3dbd1a094", "lon": -77.06092766666667}, {"is_reserved": 0, "fusion_lon": 0.0, "fusion_lat": 0.0, "name": "0f1b144a3f528ed351507f1c9b7136cc", "type": "electric_bike", "is_disabled": 0, "lat": 38.838141, "rental_uris": {"android": "https://dc.lft.to/lastmile_qr_scan", "ios": "https://dc.lft.to/lastmile_qr_scan"}, "bike_id": "0f1b144a3f528ed351507f1c9b7136cc", "lon": -77.095231}, {"is_reserved": 0, "fusion_lon": 0.0, "fusion_lat": 0.0, "name": "13714d0f254e4ec0885d9dca16cf69db", "type": "electric_scooter", "is_disabled": 0, "lat": 38.88841583333333, "rental_uris": {"android": "https://dc.lft.to/lastmile_qr_scan", "ios": "https://dc.lft.to/lastmile_qr_scan"}, "bike_id": "13714d0f254e4ec0885d9dca16cf69db", "lon": -77.0490645}, {"is_reserved": 0, "fusion_lon": 0.0, "fusion_lat": 0.0, "name": "2aca2f4410b42762224328999614a0a0", "type": "electric_scooter", "is_disabled": 0, "lat": 38.90818016666667, "rental_uris": {"android": "https://dc.lft.to/lastmile_qr_scan", "ios": "https://dc.lft.to/lastmile_qr_scan"}, "bike_id": "2aca2f4410b42762224328999614a0a0", "lon": -77.043347}, {"is_reserved": 0, "fusion_lon": 0.0, "fusion_lat": 0.0, "name": "1394bda30370ebfe7fbfb35b3df12994", "type": "electric_scooter", "is_disabled": 0, "lat": 38.8999615, "rental_uris": {"android": "https://dc.lft.to/lastmile_qr_scan", "ios": "https://dc.lft.to/lastmile_qr_scan"}, "bike_id": "1394bda30370ebfe7fbfb35b3df12994", "lon": -77.0119615}, {"is_reserved": 0, "fusion_lon": 0.0, "fusion_lat": 0.0, "name": "701ae221fb79fd63a9a8cedc0a4a0e93", "type": "electric_scooter", "is_disabled": 0, "lat": 38.886085, "rental_uris": {"android": "https://dc.lft.to/lastmile_qr_scan", "ios": "https://dc.lft.to/lastmile_qr_scan"}, "bike_id": "701ae221fb79fd63a9a8cedc0a4a0e93", "lon": -76.99511566666666}, {"is_reserved": 0, "fusion_lon": 0.0, "fusion_lat": 0.0, "name": "24281beb2ed0d07238b056ebb177a501", "type": "electric_scooter", "is_disabled": 0, "lat": 38.91460433333334, "rental_uris": {"android": "https://dc.lft.to/lastmile_qr_scan", "ios": "https://dc.lft.to/lastmile_qr_scan"}, "bike_id": "24281beb2ed0d07238b056ebb177a501", "lon": -77.02286333333333}, {"is_reserved": 0, "fusion_lon": 0.0, "fusion_lat": 0.0, "name": "38357c7da4f0d9188a2b655fd41d5141", "type": "electric_scooter", "is_disabled": 0, "lat": 38.9110015, "rental_uris": {"android": "https://dc.lft.to/lastmile_qr_scan", "ios": "https://dc.lft.to/lastmile_qr_scan"}, "bike_id": "38357c7da4f0d9188a2b655fd41d5141", "lon": -77.04473}, {"is_reserved": 0, "fusion_lon": 0.0, "fusion_lat": 0.0, "name": "36df6783643defdf2dfe538ca8e4e735", "type": "electric_scooter", "is_disabled": 0, "lat": 38.905096, "rental_uris": {"android": "https://dc.lft.to/lastmile_qr_scan", "ios": "https://dc.lft.to/lastmile_qr_scan"}, "bike_id": "36df6783643defdf2dfe538ca8e4e735", "lon": -77.05076216666667}, {"is_reserved": 0, "fusion_lon": 0.0, "fusion_lat": 0.0, "name": "649aa910f6ab258a4c8d512d2269e338", "type": "electric_bike", "is_disabled": 0, "lat": 38.938688166666665, "rental_uris": {"android": "https://dc.lft.to/lastmile_qr_scan", "ios": "https://dc.lft.to/lastmile_qr_scan"}, "bike_id": "649aa910f6ab258a4c8d512d2269e338", "lon": -76.9429365}, {"is_reserved": 0, "fusion_lon": 0.0, "fusion_lat": 0.0, "name": "5a746e91957d62e78fd576f8e1adc566", "type": "electric_scooter", "is_disabled": 0, "lat": 38.92343016666667, "rental_uris": {"android": "https://dc.lft.to/lastmile_qr_scan", "ios": "https://dc.lft.to/lastmile_qr_scan"}, "bike_id": "5a746e91957d62e78fd576f8e1adc566", "lon": -77.03500016666666}, {"is_reserved": 0, "fusion_lon": 0.0, "fusion_lat": 0.0, "name": "0db225b0a74cb38d5c3a2892d0dfc3a9", "type": "electric_scooter", "is_disabled": 0, "lat": 38.88522233333333, "rental_uris": {"android": "https://dc.lft.to/lastmile_qr_scan", "ios": "https://dc.lft.to/lastmile_qr_scan"}, "bike_id": "0db225b0a74cb38d5c3a2892d0dfc3a9", "lon": -76.9960515}, {"is_reserved": 0, "fusion_lon": 0.0, "fusion_lat": 0.0, "name": "8923f7650e665705cb0fbb3e207322f8", "type": "electric_bike", "is_disabled": 0, "lat": 38.96222433333333, "rental_uris": {"android": "https://dc.lft.to/lastmile_qr_scan", "ios": "https://dc.lft.to/lastmile_qr_scan"}, "bike_id": "8923f7650e665705cb0fbb3e207322f8", "lon": -77.02628483333334}, {"is_reserved": 0, "fusion_lon": 0.0, "fusion_lat": 0.0, "name": "c8058b4f8744dba0f8fc8ac494796826", "type": "electric_scooter", "is_disabled": 0, "lat": 38.88459316666667, "rental_uris": {"android": "https://dc.lft.to/lastmile_qr_scan", "ios": "https://dc.lft.to/lastmile_qr_scan"}, "bike_id": "c8058b4f8744dba0f8fc8ac494796826", "lon": -76.92622716666666}, {"is_reserved": 0, "fusion_lon": 0.0, "fusion_lat": 0.0, "name": "2eb391420ddb2488d321c8fbd7c0b550", "type": "electric_scooter", "is_disabled": 0, "lat": 38.930367, "rental_uris": {"android": "https://dc.lft.to/lastmile_qr_scan", "ios": "https://dc.lft.to/lastmile_qr_scan"}, "bike_id": "2eb391420ddb2488d321c8fbd7c0b550", "lon": -77.03304383333334}, {"is_reserved": 0, "fusion_lon": 0.0, "fusion_lat": 0.0, "name": "894cf3918f22ce1db10491095f59c38c", "type": "electric_bike", "is_disabled": 0, "lat": 38.81199983333333, "rental_uris": {"android": "https://dc.lft.to/lastmile_qr_scan", "ios": "https://dc.lft.to/lastmile_qr_scan"}, "bike_id": "894cf3918f22ce1db10491095f59c38c", "lon": -77.1083635}, {"is_reserved": 0, "fusion_lon": 0.0, "fusion_lat": 0.0, "name": "cc8cedd152e5dcc1960d703be4266ccd", "type": "electric_scooter", "is_disabled": 0, "lat": 38.9044565, "rental_uris": {"android": "https://dc.lft.to/lastmile_qr_scan", "ios": "https://dc.lft.to/lastmile_qr_scan"}, "bike_id": "cc8cedd152e5dcc1960d703be4266ccd", "lon": -77.03152466666667}, {"is_reserved": 0, "fusion_lon": 0.0, "fusion_lat": 0.0, "name": "f0010f3f46cc9eb919b525676e101df5", "type": "electric_scooter", "is_disabled": 0, "lat": 38.9002795, "rental_uris": {"android": "https://dc.lft.to/lastmile_qr_scan", "ios": "https://dc.lft.to/lastmile_qr_scan"}, "bike_id": "f0010f3f46cc9eb919b525676e101df5", "lon": -76.988561}, {"is_reserved": 0, "fusion_lon": 0.0, "fusion_lat": 0.0, "name": "258edbcf679c090cfc1dfca9616be874", "type": "electric_scooter", "is_disabled": 0, "lat": 38.927533333333336, "rental_uris": {"android": "https://dc.lft.to/lastmile_qr_scan", "ios": "https://dc.lft.to/lastmile_qr_scan"}, "bike_id": "258edbcf679c090cfc1dfca9616be874", "lon": -77.02959583333333}, {"is_reserved": 0, "fusion_lon": 0.0, "fusion_lat": 0.0, "name": "ceb3b70cf29b55196aec7c28a156211b", "type": "electric_scooter", "is_disabled": 0, "lat": 38.87641683333333, "rental_uris": {"android": "https://dc.lft.to/lastmile_qr_scan", "ios": "https://dc.lft.to/lastmile_qr_scan"}, "bike_id": "ceb3b70cf29b55196aec7c28a156211b", "lon": -77.015842}, {"is_reserved": 0, "fusion_lon": 0.0, "fusion_lat": 0.0, "name": "d56ef1d64b5632f18eca3668081da74d", "type": "electric_scooter", "is_disabled": 0, "lat": 38.919534, "rental_uris": {"android": "https://dc.lft.to/lastmile_qr_scan", "ios": "https://dc.lft.to/lastmile_qr_scan"}, "bike_id": "d56ef1d64b5632f18eca3668081da74d", "lon": -77.03206716666666}, {"is_reserved": 0, "fusion_lon": 0.0, "fusion_lat": 0.0, "name": "03aa1c6003f05df6055986708d960874", "type": "electric_bike", "is_disabled": 0, "lat": 38.845614166666664, "rental_uris": {"android": "https://dc.lft.to/lastmile_qr_scan", "ios": "https://dc.lft.to/lastmile_qr_scan"}, "bike_id": "03aa1c6003f05df6055986708d960874", "lon": -77.06692333333334}, {"is_reserved": 0, "fusion_lon": 0.0, "fusion_lat": 0.0, "name": "5971710ffbb186f3bc2cfe5f2e510d2f", "type": "electric_scooter", "is_disabled": 0, "lat": 38.9315305, "rental_uris": {"android": "https://dc.lft.to/lastmile_qr_scan", "ios": "https://dc.lft.to/lastmile_qr_scan"}, "bike_id": "5971710ffbb186f3bc2cfe5f2e510d2f", "lon": -77.03243766666667}, {"is_reserved": 0, "fusion_lon": 0.0, "fusion_lat": 0.0, "name": "6bebee5a5709899604b3a85753241dee", "type": "electric_scooter", "is_disabled": 0, "lat": 38.90470633333334, "rental_uris": {"android": "https://dc.lft.to/lastmile_qr_scan", "ios": "https://dc.lft.to/lastmile_qr_scan"}, "bike_id": "6bebee5a5709899604b3a85753241dee", "lon": -77.04813266666666}, {"is_reserved": 0, "fusion_lon": 0.0, "fusion_lat": 0.0, "name": "83c48e9620f60cf96bdd63d921e1533c", "type": "electric_scooter", "is_disabled": 0, "lat": 38.90263783333333, "rental_uris": {"android": "https://dc.lft.to/lastmile_qr_scan", "ios": "https://dc.lft.to/lastmile_qr_scan"}, "bike_id": "83c48e9620f60cf96bdd63d921e1533c", "lon": -77.033685}, {"is_reserved": 0, "fusion_lon": 0.0, "fusion_lat": 0.0, "name": "5cae05a1272ce9abb2387b558cc89f7e", "type": "electric_scooter", "is_disabled": 0, "lat": 38.93020966666667, "rental_uris": {"android": "https://dc.lft.to/lastmile_qr_scan", "ios": "https://dc.lft.to/lastmile_qr_scan"}, "bike_id": "5cae05a1272ce9abb2387b558cc89f7e", "lon": -77.05531933333333}, {"is_reserved": 0, "fusion_lon": 0.0, "fusion_lat": 0.0, "name": "062c2a97be9fa2bde60623a59db4f5ab", "type": "electric_bike", "is_disabled": 0, "lat": 38.99350883333334, "rental_uris": {"android": "https://dc.lft.to/lastmile_qr_scan", "ios": "https://dc.lft.to/lastmile_qr_scan"}, "bike_id": "062c2a97be9fa2bde60623a59db4f5ab", "lon": -77.1157145}, {"is_reserved": 0, "fusion_lon": 0.0, "fusion_lat": 0.0, "name": "05ef7dc566e5dc187e1e78eb44b07178", "type": "electric_scooter", "is_disabled": 0, "lat": 38.941865, "rental_uris": {"android": "https://dc.lft.to/lastmile_qr_scan", "ios": "https://dc.lft.to/lastmile_qr_scan"}, "bike_id": "05ef7dc566e5dc187e1e78eb44b07178", "lon": -77.02489316666667}, {"is_reserved": 0, "fusion_lon": 0.0, "fusion_lat": 0.0, "name": "6404fec93aecf329c4a1a214c12e198e", "type": "electric_scooter", "is_disabled": 0, "lat": 38.91057683333333, "rental_uris": {"android": "https://dc.lft.to/lastmile_qr_scan", "ios": "https://dc.lft.to/lastmile_qr_scan"}, "bike_id": "6404fec93aecf329c4a1a214c12e198e", "lon": -77.04101366666667}, {"is_reserved": 0, "fusion_lon": 0.0, "fusion_lat": 0.0, "name": "93ffb44b253cb5441b1a9169354f9c5c", "type": "electric_scooter", "is_disabled": 0, "lat": 38.93043566666667, "rental_uris": {"android": "https://dc.lft.to/lastmile_qr_scan", "ios": "https://dc.lft.to/lastmile_qr_scan"}, "bike_id": "93ffb44b253cb5441b1a9169354f9c5c", "lon": -77.03799166666667}, {"is_reserved": 0, "fusion_lon": 0.0, "fusion_lat": 0.0, "name": "657d6c95155d9e5a4fd8dc9e7f84f238", "type": "electric_scooter", "is_disabled": 0, "lat": 38.9219845, "rental_uris": {"android": "https://dc.lft.to/lastmile_qr_scan", "ios": "https://dc.lft.to/lastmile_qr_scan"}, "bike_id": "657d6c95155d9e5a4fd8dc9e7f84f238", "lon": -77.0424045}, {"is_reserved": 0, "fusion_lon": 0.0, "fusion_lat": 0.0, "name": "1bd0fff8b02fae043d1279700083792f", "type": "electric_scooter", "is_disabled": 0, "lat": 38.897342, "rental_uris": {"android": "https://dc.lft.to/lastmile_qr_scan", "ios": "https://dc.lft.to/lastmile_qr_scan"}, "bike_id": "1bd0fff8b02fae043d1279700083792f", "lon": -77.0547405}, {"is_reserved": 0, "fusion_lon": 0.0, "fusion_lat": 0.0, "name": "b3594a41bf72e99a509ac6e163cfc56a", "type": "electric_scooter", "is_disabled": 0, "lat": 38.953282333333334, "rental_uris": {"android": "https://dc.lft.to/lastmile_qr_scan", "ios": "https://dc.lft.to/lastmile_qr_scan"}, "bike_id": "b3594a41bf72e99a509ac6e163cfc56a", "lon": -77.07073833333334}, {"is_reserved": 0, "fusion_lon": 0.0, "fusion_lat": 0.0, "name": "5f99860bd980d302b9108e3aa4ac945b", "type": "electric_bike", "is_disabled": 0, "lat": 39.057964, "rental_uris": {"android": "https://dc.lft.to/lastmile_qr_scan", "ios": "https://dc.lft.to/lastmile_qr_scan"}, "bike_id": "5f99860bd980d302b9108e3aa4ac945b", "lon": -77.15022733333333}, {"is_reserved": 0, "fusion_lon": 0.0, "fusion_lat": 0.0, "name": "59742b5075083cd00cc8e679d6673e6f", "type": "electric_scooter", "is_disabled": 0, "lat": 38.925830833333336, "rental_uris": {"android": "https://dc.lft.to/lastmile_qr_scan", "ios": "https://dc.lft.to/lastmile_qr_scan"}, "bike_id": "59742b5075083cd00cc8e679d6673e6f", "lon": -77.026852}, {"is_reserved": 0, "fusion_lon": 0.0, "fusion_lat": 0.0, "name": "f2df95bece4974978081860079f47d2c", "type": "electric_scooter", "is_disabled": 0, "lat": 38.895217333333335, "rental_uris": {"android": "https://dc.lft.to/lastmile_qr_scan", "ios": "https://dc.lft.to/lastmile_qr_scan"}, "bike_id": "f2df95bece4974978081860079f47d2c", "lon": -77.03960666666667}, {"is_reserved": 0, "fusion_lon": 0.0, "fusion_lat": 0.0, "name": "37ad7489cc60799763f6771e72e4533c", "type": "electric_scooter", "is_disabled": 0, "lat": 38.903549166666664, "rental_uris": {"android": "https://dc.lft.to/lastmile_qr_scan", "ios": "https://dc.lft.to/lastmile_qr_scan"}, "bike_id": "37ad7489cc60799763f6771e72e4533c", "lon": -77.05342466666667}, {"is_reserved": 0, "fusion_lon": 0.0, "fusion_lat": 0.0, "name": "7c5ccb1d2e8cc54536513295cda6982b", "type": "electric_scooter", "is_disabled": 0, "lat": 38.92453316666667, "rental_uris": {"android": "https://dc.lft.to/lastmile_qr_scan", "ios": "https://dc.lft.to/lastmile_qr_scan"}, "bike_id": "7c5ccb1d2e8cc54536513295cda6982b", "lon": -77.05754583333334}, {"is_reserved": 0, "fusion_lon": 0.0, "fusion_lat": 0.0, "name": "93eb2d58ed0e8ea3d7ef6c81f2ac1199", "type": "electric_scooter", "is_disabled": 0, "lat": 38.92324033333333, "rental_uris": {"android": "https://dc.lft.to/lastmile_qr_scan", "ios": "https://dc.lft.to/lastmile_qr_scan"}, "bike_id": "93eb2d58ed0e8ea3d7ef6c81f2ac1199", "lon": -77.03542983333334}, {"is_reserved": 0, "fusion_lon": 0.0, "fusion_lat": 0.0, "name": "3c43d8d564ae02e3636356359bd08fb5", "type": "electric_scooter", "is_disabled": 0, "lat": 38.87232016666667, "rental_uris": {"android": "https://dc.lft.to/lastmile_qr_scan", "ios": "https://dc.lft.to/lastmile_qr_scan"}, "bike_id": "3c43d8d564ae02e3636356359bd08fb5", "lon": -77.01168766666666}, {"is_reserved": 0, "fusion_lon": 0.0, "fusion_lat": 0.0, "name": "ce5a9afe6341099d9dd17b1b9bbb4598", "type": "electric_scooter", "is_disabled": 0, "lat": 38.916996166666664, "rental_uris": {"android": "https://dc.lft.to/lastmile_qr_scan", "ios": "https://dc.lft.to/lastmile_qr_scan"}, "bike_id": "ce5a9afe6341099d9dd17b1b9bbb4598", "lon": -77.031164}, {"is_reserved": 0, "fusion_lon": 0.0, "fusion_lat": 0.0, "name": "49f13e960049207cb380011ea4494419", "type": "electric_scooter", "is_disabled": 0, "lat": 38.8995905, "rental_uris": {"android": "https://dc.lft.to/lastmile_qr_scan", "ios": "https://dc.lft.to/lastmile_qr_scan"}, "bike_id": "49f13e960049207cb380011ea4494419", "lon": -77.04249566666667}, {"is_reserved": 0, "fusion_lon": 0.0, "fusion_lat": 0.0, "name": "bdb6c8fcbbaf9fedbe498c34dc6f9df8", "type": "electric_scooter", "is_disabled": 0, "lat": 38.909873, "rental_uris": {"android": "https://dc.lft.to/lastmile_qr_scan", "ios": "https://dc.lft.to/lastmile_qr_scan"}, "bike_id": "bdb6c8fcbbaf9fedbe498c34dc6f9df8", "lon": -77.0425735}, {"is_reserved": 0, "fusion_lon": 0.0, "fusion_lat": 0.0, "name": "354ed7c5912822bdc9b6c7d1dff00ff5", "type": "electric_scooter", "is_disabled": 0, "lat": 38.892241, "rental_uris": {"android": "https://dc.lft.to/lastmile_qr_scan", "ios": "https://dc.lft.to/lastmile_qr_scan"}, "bike_id": "354ed7c5912822bdc9b6c7d1dff00ff5", "lon": -77.04377166666667}, {"is_reserved": 0, "fusion_lon": 0.0, "fusion_lat": 0.0, "name": "57f1d346fa5f63f7a9e26312ff151463", "type": "electric_scooter", "is_disabled": 0, "lat": 38.8929785, "rental_uris": {"android": "https://dc.lft.to/lastmile_qr_scan", "ios": "https://dc.lft.to/lastmile_qr_scan"}, "bike_id": "57f1d346fa5f63f7a9e26312ff151463", "lon": -76.93929133333333}, {"is_reserved": 0, "fusion_lon": 0.0, "fusion_lat": 0.0, "name": "2539a98e326be233ca3f3a15b41e3353", "type": "electric_scooter", "is_disabled": 0, "lat": 38.892206, "rental_uris": {"android": "https://dc.lft.to/lastmile_qr_scan", "ios": "https://dc.lft.to/lastmile_qr_scan"}, "bike_id": "2539a98e326be233ca3f3a15b41e3353", "lon": -77.04372566666666}, {"is_reserved": 0, "fusion_lon": 0.0, "fusion_lat": 0.0, "name": "e0cd1a7fbe2b586b605518f3ad93c660", "type": "electric_scooter", "is_disabled": 0, "lat": 38.92124116666667, "rental_uris": {"android": "https://dc.lft.to/lastmile_qr_scan", "ios": "https://dc.lft.to/lastmile_qr_scan"}, "bike_id": "e0cd1a7fbe2b586b605518f3ad93c660", "lon": -77.04354216666667}, {"is_reserved": 0, "fusion_lon": 0.0, "fusion_lat": 0.0, "name": "e973cb67242396ae7bca34377e47b71a", "type": "electric_scooter", "is_disabled": 0, "lat": 38.881195166666664, "rental_uris": {"android": "https://dc.lft.to/lastmile_qr_scan", "ios": "https://dc.lft.to/lastmile_qr_scan"}, "bike_id": "e973cb67242396ae7bca34377e47b71a", "lon": -77.01689166666667}, {"is_reserved": 0, "fusion_lon": 0.0, "fusion_lat": 0.0, "name": "1af4ab09e5d05007b67fa4c145552d99", "type": "electric_scooter", "is_disabled": 0, "lat": 38.928475666666664, "rental_uris": {"android": "https://dc.lft.to/lastmile_qr_scan", "ios": "https://dc.lft.to/lastmile_qr_scan"}, "bike_id": "1af4ab09e5d05007b67fa4c145552d99", "lon": -77.01398816666666}, {"is_reserved": 0, "fusion_lon": 0.0, "fusion_lat": 0.0, "name": "83a8a7102fd0efe4b45431e94e60f02c", "type": "electric_scooter", "is_disabled": 0, "lat": 38.93674866666667, "rental_uris": {"android": "https://dc.lft.to/lastmile_qr_scan", "ios": "https://dc.lft.to/lastmile_qr_scan"}, "bike_id": "83a8a7102fd0efe4b45431e94e60f02c", "lon": -77.03586833333334}, {"is_reserved": 0, "fusion_lon": 0.0, "fusion_lat": 0.0, "name": "bf58eabd10aff4a3340d116ddb0206ee", "type": "electric_scooter", "is_disabled": 0, "lat": 38.89351, "rental_uris": {"android": "https://dc.lft.to/lastmile_qr_scan", "ios": "https://dc.lft.to/lastmile_qr_scan"}, "bike_id": "bf58eabd10aff4a3340d116ddb0206ee", "lon": -77.04195183333333}, {"is_reserved": 0, "fusion_lon": 0.0, "fusion_lat": 0.0, "name": "fb1c8569c83a7b15ebe2c1dd0c430ecf", "type": "electric_bike", "is_disabled": 0, "lat": 38.95932583333333, "rental_uris": {"android": "https://dc.lft.to/lastmile_qr_scan", "ios": "https://dc.lft.to/lastmile_qr_scan"}, "bike_id": "fb1c8569c83a7b15ebe2c1dd0c430ecf", "lon": -76.925351}, {"is_reserved": 0, "fusion_lon": 0.0, "fusion_lat": 0.0, "name": "0fea582490aa99cfa338008bf68dc7fb", "type": "electric_scooter", "is_disabled": 0, "lat": 38.90735166666666, "rental_uris": {"android": "https://dc.lft.to/lastmile_qr_scan", "ios": "https://dc.lft.to/lastmile_qr_scan"}, "bike_id": "0fea582490aa99cfa338008bf68dc7fb", "lon": -76.98691183333334}, {"is_reserved": 0, "fusion_lon": 0.0, "fusion_lat": 0.0, "name": "58f23d2cbd84b02fa0cfe3f2702717f3", "type": "electric_bike", "is_disabled": 0, "lat": 38.96744966666667, "rental_uris": {"android": "https://dc.lft.to/lastmile_qr_scan", "ios": "https://dc.lft.to/lastmile_qr_scan"}, "bike_id": "58f23d2cbd84b02fa0cfe3f2702717f3", "lon": -76.9819345}, {"is_reserved": 0, "fusion_lon": 0.0, "fusion_lat": 0.0, "name": "98f141dbe6a6fa5797a43b258ebf15a8", "type": "electric_scooter", "is_disabled": 0, "lat": 38.912667666666664, "rental_uris": {"android": "https://dc.lft.to/lastmile_qr_scan", "ios": "https://dc.lft.to/lastmile_qr_scan"}, "bike_id": "98f141dbe6a6fa5797a43b258ebf15a8", "lon": -77.02871833333333}, {"is_reserved": 0, "fusion_lon": 0.0, "fusion_lat": 0.0, "name": "06bed01a47b216ed07aefdfaa6864199", "type": "electric_scooter", "is_disabled": 0, "lat": 38.9156735, "rental_uris": {"android": "https://dc.lft.to/lastmile_qr_scan", "ios": "https://dc.lft.to/lastmile_qr_scan"}, "bike_id": "06bed01a47b216ed07aefdfaa6864199", "lon": -77.04096}, {"is_reserved": 0, "fusion_lon": 0.0, "fusion_lat": 0.0, "name": "ac1a44656cf69b4de6e13f36db0d26b9", "type": "electric_scooter", "is_disabled": 0, "lat": 38.911951333333334, "rental_uris": {"android": "https://dc.lft.to/lastmile_qr_scan", "ios": "https://dc.lft.to/lastmile_qr_scan"}, "bike_id": "ac1a44656cf69b4de6e13f36db0d26b9", "lon": -77.03837516666667}, {"is_reserved": 0, "fusion_lon": 0.0, "fusion_lat": 0.0, "name": "e288744ff2415680a1b3565e250b9062", "type": "electric_scooter", "is_disabled": 0, "lat": 38.92653933333333, "rental_uris": {"android": "https://dc.lft.to/lastmile_qr_scan", "ios": "https://dc.lft.to/lastmile_qr_scan"}, "bike_id": "e288744ff2415680a1b3565e250b9062", "lon": -77.04140333333334}, {"is_reserved": 0, "fusion_lon": 0.0, "fusion_lat": 0.0, "name": "9b1fe52a0d1b5ed10469a02826bf52e0", "type": "electric_scooter", "is_disabled": 0, "lat": 38.902576833333335, "rental_uris": {"android": "https://dc.lft.to/lastmile_qr_scan", "ios": "https://dc.lft.to/lastmile_qr_scan"}, "bike_id": "9b1fe52a0d1b5ed10469a02826bf52e0", "lon": -77.01759283333334}, {"is_reserved": 0, "fusion_lon": 0.0, "fusion_lat": 0.0, "name": "269db943caedfd0b3ceb672d7b42b737", "type": "electric_bike", "is_disabled": 0, "lat": 39.014795, "rental_uris": {"android": "https://dc.lft.to/lastmile_qr_scan", "ios": "https://dc.lft.to/lastmile_qr_scan"}, "bike_id": "269db943caedfd0b3ceb672d7b42b737", "lon": -77.05495466666666}, {"is_reserved": 0, "fusion_lon": 0.0, "fusion_lat": 0.0, "name": "be235a4900d946c5a31850d638cbd972", "type": "electric_scooter", "is_disabled": 0, "lat": 38.91111883333333, "rental_uris": {"android": "https://dc.lft.to/lastmile_qr_scan", "ios": "https://dc.lft.to/lastmile_qr_scan"}, "bike_id": "be235a4900d946c5a31850d638cbd972", "lon": -77.032612}, {"is_reserved": 0, "fusion_lon": 0.0, "fusion_lat": 0.0, "name": "eb5a0a63f959c8ae31b201d9fab3c73e", "type": "electric_scooter", "is_disabled": 0, "lat": 38.91695216666667, "rental_uris": {"android": "https://dc.lft.to/lastmile_qr_scan", "ios": "https://dc.lft.to/lastmile_qr_scan"}, "bike_id": "eb5a0a63f959c8ae31b201d9fab3c73e", "lon": -77.03215}, {"is_reserved": 0, "fusion_lon": 0.0, "fusion_lat": 0.0, "name": "71770deb9adc28a5cbae9de1e32cbdd0", "type": "electric_bike", "is_disabled": 0, "lat": 38.93225266666666, "rental_uris": {"android": "https://dc.lft.to/lastmile_qr_scan", "ios": "https://dc.lft.to/lastmile_qr_scan"}, "bike_id": "71770deb9adc28a5cbae9de1e32cbdd0", "lon": -77.18127066666666}, {"is_reserved": 0, "fusion_lon": 0.0, "fusion_lat": 0.0, "name": "325b6522a068af6ddd8c762200b7d5a7", "type": "electric_scooter", "is_disabled": 0, "lat": 38.908457, "rental_uris": {"android": "https://dc.lft.to/lastmile_qr_scan", "ios": "https://dc.lft.to/lastmile_qr_scan"}, "bike_id": "325b6522a068af6ddd8c762200b7d5a7", "lon": -77.0448645}, {"is_reserved": 0, "fusion_lon": 0.0, "fusion_lat": 0.0, "name": "5148ed8430b14d448770ca02911be4f6", "type": "electric_scooter", "is_disabled": 0, "lat": 38.9163475, "rental_uris": {"android": "https://dc.lft.to/lastmile_qr_scan", "ios": "https://dc.lft.to/lastmile_qr_scan"}, "bike_id": "5148ed8430b14d448770ca02911be4f6", "lon": -77.0480405}, {"is_reserved": 0, "fusion_lon": 0.0, "fusion_lat": 0.0, "name": "879373268ee554105e8223ae1e1c6744", "type": "electric_bike", "is_disabled": 0, "lat": 38.9533285, "rental_uris": {"android": "https://dc.lft.to/lastmile_qr_scan", "ios": "https://dc.lft.to/lastmile_qr_scan"}, "bike_id": "879373268ee554105e8223ae1e1c6744", "lon": -76.95433533333333}, {"is_reserved": 0, "fusion_lon": 0.0, "fusion_lat": 0.0, "name": "ae7fa0be340f60ae352fdc46ea881a70", "type": "electric_scooter", "is_disabled": 0, "lat": 38.951893166666665, "rental_uris": {"android": "https://dc.lft.to/lastmile_qr_scan", "ios": "https://dc.lft.to/lastmile_qr_scan"}, "bike_id": "ae7fa0be340f60ae352fdc46ea881a70", "lon": -77.02614333333334}, {"is_reserved": 0, "fusion_lon": 0.0, "fusion_lat": 0.0, "name": "a8f6f642d71114efd9632d1c4f0d6623", "type": "electric_scooter", "is_disabled": 0, "lat": 38.9125465, "rental_uris": {"android": "https://dc.lft.to/lastmile_qr_scan", "ios": "https://dc.lft.to/lastmile_qr_scan"}, "bike_id": "a8f6f642d71114efd9632d1c4f0d6623", "lon": -77.07319116666666}, {"is_reserved": 0, "fusion_lon": 0.0, "fusion_lat": 0.0, "name": "f92ce5e0cc5c508131a7c1658f5fd906", "type": "electric_scooter", "is_disabled": 0, "lat": 38.926272166666664, "rental_uris": {"android": "https://dc.lft.to/lastmile_qr_scan", "ios": "https://dc.lft.to/lastmile_qr_scan"}, "bike_id": "f92ce5e0cc5c508131a7c1658f5fd906", "lon": -77.04329916666667}, {"is_reserved": 0, "fusion_lon": 0.0, "fusion_lat": 0.0, "name": "651773900d3e14be540304fbfb8743f6", "type": "electric_scooter", "is_disabled": 0, "lat": 38.91273133333333, "rental_uris": {"android": "https://dc.lft.to/lastmile_qr_scan", "ios": "https://dc.lft.to/lastmile_qr_scan"}, "bike_id": "651773900d3e14be540304fbfb8743f6", "lon": -77.04104033333333}, {"is_reserved": 0, "fusion_lon": 0.0, "fusion_lat": 0.0, "name": "ee245a2b286a9a72395cafca955c2176", "type": "electric_scooter", "is_disabled": 0, "lat": 38.900668833333334, "rental_uris": {"android": "https://dc.lft.to/lastmile_qr_scan", "ios": "https://dc.lft.to/lastmile_qr_scan"}, "bike_id": "ee245a2b286a9a72395cafca955c2176", "lon": -77.00199883333333}, {"is_reserved": 0, "fusion_lon": 0.0, "fusion_lat": 0.0, "name": "c764f0c010a8980edd98ed8d83a80a7a", "type": "electric_scooter", "is_disabled": 0, "lat": 38.921656166666665, "rental_uris": {"android": "https://dc.lft.to/lastmile_qr_scan", "ios": "https://dc.lft.to/lastmile_qr_scan"}, "bike_id": "c764f0c010a8980edd98ed8d83a80a7a", "lon": -77.0337835}, {"is_reserved": 0, "fusion_lon": 0.0, "fusion_lat": 0.0, "name": "d3bfb2d446f69523544592d723056360", "type": "electric_scooter", "is_disabled": 0, "lat": 38.894269666666666, "rental_uris": {"android": "https://dc.lft.to/lastmile_qr_scan", "ios": "https://dc.lft.to/lastmile_qr_scan"}, "bike_id": "d3bfb2d446f69523544592d723056360", "lon": -77.04000833333333}, {"is_reserved": 0, "fusion_lon": 0.0, "fusion_lat": 0.0, "name": "3843ea6fa19115f4186d6a393d294e74", "type": "electric_scooter", "is_disabled": 0, "lat": 38.9049185, "rental_uris": {"android": "https://dc.lft.to/lastmile_qr_scan", "ios": "https://dc.lft.to/lastmile_qr_scan"}, "bike_id": "3843ea6fa19115f4186d6a393d294e74", "lon": -76.98720166666666}, {"is_reserved": 0, "fusion_lon": 0.0, "fusion_lat": 0.0, "name": "e4e816c21f9abc906fa167aa8c24e619", "type": "electric_bike", "is_disabled": 0, "lat": 38.924263333333336, "rental_uris": {"android": "https://dc.lft.to/lastmile_qr_scan", "ios": "https://dc.lft.to/lastmile_qr_scan"}, "bike_id": "e4e816c21f9abc906fa167aa8c24e619", "lon": -76.9965715}, {"is_reserved": 0, "fusion_lon": 0.0, "fusion_lat": 0.0, "name": "e38d18b542fd5a0bbd8a8db8744199de", "type": "electric_scooter", "is_disabled": 0, "lat": 38.9166735, "rental_uris": {"android": "https://dc.lft.to/lastmile_qr_scan", "ios": "https://dc.lft.to/lastmile_qr_scan"}, "bike_id": "e38d18b542fd5a0bbd8a8db8744199de", "lon": -77.03852033333334}, {"is_reserved": 0, "fusion_lon": 0.0, "fusion_lat": 0.0, "name": "387eb749cc5bbdcee4e6ca8aa914618c", "type": "electric_bike", "is_disabled": 0, "lat": 38.948948, "rental_uris": {"android": "https://dc.lft.to/lastmile_qr_scan", "ios": "https://dc.lft.to/lastmile_qr_scan"}, "bike_id": "387eb749cc5bbdcee4e6ca8aa914618c", "lon": -77.03448733333333}, {"is_reserved": 0, "fusion_lon": 0.0, "fusion_lat": 0.0, "name": "1c1c48af7b647508507068f0465ac890", "type": "electric_scooter", "is_disabled": 0, "lat": 38.90190333333334, "rental_uris": {"android": "https://dc.lft.to/lastmile_qr_scan", "ios": "https://dc.lft.to/lastmile_qr_scan"}, "bike_id": "1c1c48af7b647508507068f0465ac890", "lon": -77.0131175}, {"is_reserved": 0, "fusion_lon": 0.0, "fusion_lat": 0.0, "name": "f042c662582b3cb72608f9a17c615c6c", "type": "electric_bike", "is_disabled": 0, "lat": 38.96463683333333, "rental_uris": {"android": "https://dc.lft.to/lastmile_qr_scan", "ios": "https://dc.lft.to/lastmile_qr_scan"}, "bike_id": "f042c662582b3cb72608f9a17c615c6c", "lon": -77.035632}, {"is_reserved": 0, "fusion_lon": 0.0, "fusion_lat": 0.0, "name": "dd47f1ab405454988e2dad271e3cc381", "type": "electric_scooter", "is_disabled": 0, "lat": 38.89315, "rental_uris": {"android": "https://dc.lft.to/lastmile_qr_scan", "ios": "https://dc.lft.to/lastmile_qr_scan"}, "bike_id": "dd47f1ab405454988e2dad271e3cc381", "lon": -76.92904633333333}, {"is_reserved": 0, "fusion_lon": 0.0, "fusion_lat": 0.0, "name": "b20cd7ca1bf870824e05c10a209a1381", "type": "electric_scooter", "is_disabled": 0, "lat": 38.926618500000004, "rental_uris": {"android": "https://dc.lft.to/lastmile_qr_scan", "ios": "https://dc.lft.to/lastmile_qr_scan"}, "bike_id": "b20cd7ca1bf870824e05c10a209a1381", "lon": -77.022836}, {"is_reserved": 0, "fusion_lon": 0.0, "fusion_lat": 0.0, "name": "273bbd0434a6c7c64564178995f9d587", "type": "electric_scooter", "is_disabled": 0, "lat": 38.9013835, "rental_uris": {"android": "https://dc.lft.to/lastmile_qr_scan", "ios": "https://dc.lft.to/lastmile_qr_scan"}, "bike_id": "273bbd0434a6c7c64564178995f9d587", "lon": -77.04005816666667}, {"is_reserved": 0, "fusion_lon": 0.0, "fusion_lat": 0.0, "name": "409c2d414b55c232c533b22547dc56b0", "type": "electric_scooter", "is_disabled": 0, "lat": 38.89635483333333, "rental_uris": {"android": "https://dc.lft.to/lastmile_qr_scan", "ios": "https://dc.lft.to/lastmile_qr_scan"}, "bike_id": "409c2d414b55c232c533b22547dc56b0", "lon": -77.02230283333333}, {"is_reserved": 0, "fusion_lon": 0.0, "fusion_lat": 0.0, "name": "08db34a61b7dc29df419302cc4e2728b", "type": "electric_bike", "is_disabled": 0, "lat": 38.812071, "rental_uris": {"android": "https://dc.lft.to/lastmile_qr_scan", "ios": "https://dc.lft.to/lastmile_qr_scan"}, "bike_id": "08db34a61b7dc29df419302cc4e2728b", "lon": -77.10840733333333}, {"is_reserved": 0, "fusion_lon": 0.0, "fusion_lat": 0.0, "name": "99382de027bffd6ea434abd9060fd052", "type": "electric_bike", "is_disabled": 0, "lat": 38.956931166666664, "rental_uris": {"android": "https://dc.lft.to/lastmile_qr_scan", "ios": "https://dc.lft.to/lastmile_qr_scan"}, "bike_id": "99382de027bffd6ea434abd9060fd052", "lon": -77.0222395}, {"is_reserved": 0, "fusion_lon": 0.0, "fusion_lat": 0.0, "name": "53f20fdeb3225ebc46c355fab77293f2", "type": "electric_scooter", "is_disabled": 0, "lat": 38.94294516666667, "rental_uris": {"android": "https://dc.lft.to/lastmile_qr_scan", "ios": "https://dc.lft.to/lastmile_qr_scan"}, "bike_id": "53f20fdeb3225ebc46c355fab77293f2", "lon": -77.06308633333333}, {"is_reserved": 0, "fusion_lon": 0.0, "fusion_lat": 0.0, "name": "8351f60c8dbd7c5fedba0475e5b9be81", "type": "electric_scooter", "is_disabled": 0, "lat": 38.914724166666666, "rental_uris": {"android": "https://dc.lft.to/lastmile_qr_scan", "ios": "https://dc.lft.to/lastmile_qr_scan"}, "bike_id": "8351f60c8dbd7c5fedba0475e5b9be81", "lon": -77.03844916666667}, {"is_reserved": 0, "fusion_lon": 0.0, "fusion_lat": 0.0, "name": "77e75c358ae86dfa7e425fe12ca64deb", "type": "electric_scooter", "is_disabled": 0, "lat": 38.9085385, "rental_uris": {"android": "https://dc.lft.to/lastmile_qr_scan", "ios": "https://dc.lft.to/lastmile_qr_scan"}, "bike_id": "77e75c358ae86dfa7e425fe12ca64deb", "lon": -77.03334816666667}, {"is_reserved": 0, "fusion_lon": 0.0, "fusion_lat": 0.0, "name": "b829f2061220e15f46a1f21333f0d265", "type": "electric_scooter", "is_disabled": 0, "lat": 38.915537666666665, "rental_uris": {"android": "https://dc.lft.to/lastmile_qr_scan", "ios": "https://dc.lft.to/lastmile_qr_scan"}, "bike_id": "b829f2061220e15f46a1f21333f0d265", "lon": -77.03850883333334}, {"is_reserved": 0, "fusion_lon": 0.0, "fusion_lat": 0.0, "name": "69da290232bdeac2322cffd81a9e91f9", "type": "electric_scooter", "is_disabled": 0, "lat": 38.95073416666666, "rental_uris": {"android": "https://dc.lft.to/lastmile_qr_scan", "ios": "https://dc.lft.to/lastmile_qr_scan"}, "bike_id": "69da290232bdeac2322cffd81a9e91f9", "lon": -76.995651}, {"is_reserved": 0, "fusion_lon": 0.0, "fusion_lat": 0.0, "name": "5062ca234e2a713c74d1f8596aca1f1f", "type": "electric_scooter", "is_disabled": 0, "lat": 38.908313, "rental_uris": {"android": "https://dc.lft.to/lastmile_qr_scan", "ios": "https://dc.lft.to/lastmile_qr_scan"}, "bike_id": "5062ca234e2a713c74d1f8596aca1f1f", "lon": -77.07416316666666}, {"is_reserved": 0, "fusion_lon": 0.0, "fusion_lat": 0.0, "name": "2448e71bb99ca900929d9a846344f4a7", "type": "electric_scooter", "is_disabled": 0, "lat": 38.90738266666666, "rental_uris": {"android": "https://dc.lft.to/lastmile_qr_scan", "ios": "https://dc.lft.to/lastmile_qr_scan"}, "bike_id": "2448e71bb99ca900929d9a846344f4a7", "lon": -77.0296985}, {"is_reserved": 0, "fusion_lon": 0.0, "fusion_lat": 0.0, "name": "9d98bd4cb7eaf9ebf464e6b473518772", "type": "electric_scooter", "is_disabled": 0, "lat": 38.9327045, "rental_uris": {"android": "https://dc.lft.to/lastmile_qr_scan", "ios": "https://dc.lft.to/lastmile_qr_scan"}, "bike_id": "9d98bd4cb7eaf9ebf464e6b473518772", "lon": -77.02101316666666}, {"is_reserved": 0, "fusion_lon": 0.0, "fusion_lat": 0.0, "name": "84146d87b562292051586a7b44f714f3", "type": "electric_scooter", "is_disabled": 0, "lat": 38.892233833333336, "rental_uris": {"android": "https://dc.lft.to/lastmile_qr_scan", "ios": "https://dc.lft.to/lastmile_qr_scan"}, "bike_id": "84146d87b562292051586a7b44f714f3", "lon": -77.04308366666666}, {"is_reserved": 0, "fusion_lon": 0.0, "fusion_lat": 0.0, "name": "e8a59e80a9ce4c9eb460312ff9365386", "type": "electric_scooter", "is_disabled": 0, "lat": 38.958381, "rental_uris": {"android": "https://dc.lft.to/lastmile_qr_scan", "ios": "https://dc.lft.to/lastmile_qr_scan"}, "bike_id": "e8a59e80a9ce4c9eb460312ff9365386", "lon": -77.015116}, {"is_reserved": 0, "fusion_lon": 0.0, "fusion_lat": 0.0, "name": "1044f1a40c2bb91ab30e3b96ec1d2a30", "type": "electric_scooter", "is_disabled": 0, "lat": 38.92539816666667, "rental_uris": {"android": "https://dc.lft.to/lastmile_qr_scan", "ios": "https://dc.lft.to/lastmile_qr_scan"}, "bike_id": "1044f1a40c2bb91ab30e3b96ec1d2a30", "lon": -77.038412}, {"is_reserved": 0, "fusion_lon": 0.0, "fusion_lat": 0.0, "name": "2f28ff0797f21d796b8d2f837fdd9bd0", "type": "electric_scooter", "is_disabled": 0, "lat": 38.9144825, "rental_uris": {"android": "https://dc.lft.to/lastmile_qr_scan", "ios": "https://dc.lft.to/lastmile_qr_scan"}, "bike_id": "2f28ff0797f21d796b8d2f837fdd9bd0", "lon": -77.02043133333333}, {"is_reserved": 0, "fusion_lon": 0.0, "fusion_lat": 0.0, "name": "d1a0f84d06bd62b9c3fb80028d98b0f2", "type": "electric_bike", "is_disabled": 0, "lat": 38.932372666666666, "rental_uris": {"android": "https://dc.lft.to/lastmile_qr_scan", "ios": "https://dc.lft.to/lastmile_qr_scan"}, "bike_id": "d1a0f84d06bd62b9c3fb80028d98b0f2", "lon": -76.9742325}, {"is_reserved": 0, "fusion_lon": 0.0, "fusion_lat": 0.0, "name": "f2e0d678728cbc07d41eaeaa3fe3e3b8", "type": "electric_scooter", "is_disabled": 0, "lat": 38.87647466666667, "rental_uris": {"android": "https://dc.lft.to/lastmile_qr_scan", "ios": "https://dc.lft.to/lastmile_qr_scan"}, "bike_id": "f2e0d678728cbc07d41eaeaa3fe3e3b8", "lon": -76.96506033333333}, {"is_reserved": 0, "fusion_lon": 0.0, "fusion_lat": 0.0, "name": "8422c2d399708244cc6e68fd8d002b8a", "type": "electric_bike", "is_disabled": 0, "lat": 38.955026, "rental_uris": {"android": "https://dc.lft.to/lastmile_qr_scan", "ios": "https://dc.lft.to/lastmile_qr_scan"}, "bike_id": "8422c2d399708244cc6e68fd8d002b8a", "lon": -76.99358933333333}, {"is_reserved": 0, "fusion_lon": 0.0, "fusion_lat": 0.0, "name": "3798cf531d9bb3d6a709f896d6115287", "type": "electric_scooter", "is_disabled": 0, "lat": 38.930958833333335, "rental_uris": {"android": "https://dc.lft.to/lastmile_qr_scan", "ios": "https://dc.lft.to/lastmile_qr_scan"}, "bike_id": "3798cf531d9bb3d6a709f896d6115287", "lon": -77.02801316666667}, {"is_reserved": 0, "fusion_lon": 0.0, "fusion_lat": 0.0, "name": "9136cecb00a54dfffe49e9e9f06f3317", "type": "electric_scooter", "is_disabled": 0, "lat": 38.9199545, "rental_uris": {"android": "https://dc.lft.to/lastmile_qr_scan", "ios": "https://dc.lft.to/lastmile_qr_scan"}, "bike_id": "9136cecb00a54dfffe49e9e9f06f3317", "lon": -77.0288475}, {"is_reserved": 0, "fusion_lon": 0.0, "fusion_lat": 0.0, "name": "a39b44e331d55d8b67957db0e0e8f16d", "type": "electric_bike", "is_disabled": 0, "lat": 39.042372, "rental_uris": {"android": "https://dc.lft.to/lastmile_qr_scan", "ios": "https://dc.lft.to/lastmile_qr_scan"}, "bike_id": "a39b44e331d55d8b67957db0e0e8f16d", "lon": -77.03078466666666}, {"is_reserved": 0, "fusion_lon": 0.0, "fusion_lat": 0.0, "name": "99c142831b0986bd9210a3ff0e5b5ac0", "type": "electric_scooter", "is_disabled": 0, "lat": 38.9127115, "rental_uris": {"android": "https://dc.lft.to/lastmile_qr_scan", "ios": "https://dc.lft.to/lastmile_qr_scan"}, "bike_id": "99c142831b0986bd9210a3ff0e5b5ac0", "lon": -77.03873733333333}, {"is_reserved": 0, "fusion_lon": 0.0, "fusion_lat": 0.0, "name": "3f02d0e0419f4788eabccebf4b189136", "type": "electric_scooter", "is_disabled": 0, "lat": 38.913666666666664, "rental_uris": {"android": "https://dc.lft.to/lastmile_qr_scan", "ios": "https://dc.lft.to/lastmile_qr_scan"}, "bike_id": "3f02d0e0419f4788eabccebf4b189136", "lon": -77.0204515}, {"is_reserved": 0, "fusion_lon": 0.0, "fusion_lat": 0.0, "name": "e340c8170a89b6bbf61d6a4a735cfc8e", "type": "electric_scooter", "is_disabled": 0, "lat": 38.869804, "rental_uris": {"android": "https://dc.lft.to/lastmile_qr_scan", "ios": "https://dc.lft.to/lastmile_qr_scan"}, "bike_id": "e340c8170a89b6bbf61d6a4a735cfc8e", "lon": -77.01223633333333}, {"is_reserved": 0, "fusion_lon": 0.0, "fusion_lat": 0.0, "name": "990a2b927a7a13d8f38e83555fe879e2", "type": "electric_scooter", "is_disabled": 0, "lat": 38.9205555, "rental_uris": {"android": "https://dc.lft.to/lastmile_qr_scan", "ios": "https://dc.lft.to/lastmile_qr_scan"}, "bike_id": "990a2b927a7a13d8f38e83555fe879e2", "lon": -77.046161}, {"is_reserved": 0, "fusion_lon": 0.0, "fusion_lat": 0.0, "name": "44e02a65a775e1c845b4d58d59bee6be", "type": "electric_scooter", "is_disabled": 0, "lat": 38.942098, "rental_uris": {"android": "https://dc.lft.to/lastmile_qr_scan", "ios": "https://dc.lft.to/lastmile_qr_scan"}, "bike_id": "44e02a65a775e1c845b4d58d59bee6be", "lon": -77.025152}, {"is_reserved": 0, "fusion_lon": 0.0, "fusion_lat": 0.0, "name": "a940ab5a85f0e4daf42c2ade78b3c29d", "type": "electric_scooter", "is_disabled": 0, "lat": 38.92940516666667, "rental_uris": {"android": "https://dc.lft.to/lastmile_qr_scan", "ios": "https://dc.lft.to/lastmile_qr_scan"}, "bike_id": "a940ab5a85f0e4daf42c2ade78b3c29d", "lon": -77.03655666666667}, {"is_reserved": 0, "fusion_lon": 0.0, "fusion_lat": 0.0, "name": "6bce70104398c87e0ee20d76475294c9", "type": "electric_scooter", "is_disabled": 0, "lat": 38.900882833333334, "rental_uris": {"android": "https://dc.lft.to/lastmile_qr_scan", "ios": "https://dc.lft.to/lastmile_qr_scan"}, "bike_id": "6bce70104398c87e0ee20d76475294c9", "lon": -77.03931116666666}, {"is_reserved": 0, "fusion_lon": 0.0, "fusion_lat": 0.0, "name": "cbf94eb0bcdb74eba268b84eedacd632", "type": "electric_scooter", "is_disabled": 0, "lat": 38.90608483333333, "rental_uris": {"android": "https://dc.lft.to/lastmile_qr_scan", "ios": "https://dc.lft.to/lastmile_qr_scan"}, "bike_id": "cbf94eb0bcdb74eba268b84eedacd632", "lon": -77.01626233333333}, {"is_reserved": 0, "fusion_lon": 0.0, "fusion_lat": 0.0, "name": "19a673ea761be5c8c29e9e7489c97e13", "type": "electric_bike", "is_disabled": 0, "lat": 38.8295365, "rental_uris": {"android": "https://dc.lft.to/lastmile_qr_scan", "ios": "https://dc.lft.to/lastmile_qr_scan"}, "bike_id": "19a673ea761be5c8c29e9e7489c97e13", "lon": -77.12353566666667}, {"is_reserved": 0, "fusion_lon": 0.0, "fusion_lat": 0.0, "name": "194ba6ab84a32acd327a798c7c970bb3", "type": "electric_scooter", "is_disabled": 0, "lat": 38.927476666666664, "rental_uris": {"android": "https://dc.lft.to/lastmile_qr_scan", "ios": "https://dc.lft.to/lastmile_qr_scan"}, "bike_id": "194ba6ab84a32acd327a798c7c970bb3", "lon": -77.02143883333333}, {"is_reserved": 0, "fusion_lon": 0.0, "fusion_lat": 0.0, "name": "a65c360267b63d7cf0bdc13e2623f1c3", "type": "electric_scooter", "is_disabled": 0, "lat": 38.926989166666665, "rental_uris": {"android": "https://dc.lft.to/lastmile_qr_scan", "ios": "https://dc.lft.to/lastmile_qr_scan"}, "bike_id": "a65c360267b63d7cf0bdc13e2623f1c3", "lon": -77.01494316666667}, {"is_reserved": 0, "fusion_lon": 0.0, "fusion_lat": 0.0, "name": "dc1280051c45a0ab0cf2d5327a21ccf6", "type": "electric_scooter", "is_disabled": 0, "lat": 38.9212815, "rental_uris": {"android": "https://dc.lft.to/lastmile_qr_scan", "ios": "https://dc.lft.to/lastmile_qr_scan"}, "bike_id": "dc1280051c45a0ab0cf2d5327a21ccf6", "lon": -77.0437355}, {"is_reserved": 0, "fusion_lon": 0.0, "fusion_lat": 0.0, "name": "6e65b417e6a2c403c4b154d9abf9c102", "type": "electric_scooter", "is_disabled": 0, "lat": 38.920425, "rental_uris": {"android": "https://dc.lft.to/lastmile_qr_scan", "ios": "https://dc.lft.to/lastmile_qr_scan"}, "bike_id": "6e65b417e6a2c403c4b154d9abf9c102", "lon": -76.98946966666666}, {"is_reserved": 0, "fusion_lon": 0.0, "fusion_lat": 0.0, "name": "9ed108d4b47fe27fb533c125d70f52a5", "type": "electric_scooter", "is_disabled": 0, "lat": 38.92419816666666, "rental_uris": {"android": "https://dc.lft.to/lastmile_qr_scan", "ios": "https://dc.lft.to/lastmile_qr_scan"}, "bike_id": "9ed108d4b47fe27fb533c125d70f52a5", "lon": -77.02286116666667}, {"is_reserved": 0, "fusion_lon": 0.0, "fusion_lat": 0.0, "name": "b8abe9580dc6a72647b246055786f101", "type": "electric_scooter", "is_disabled": 0, "lat": 38.880457, "rental_uris": {"android": "https://dc.lft.to/lastmile_qr_scan", "ios": "https://dc.lft.to/lastmile_qr_scan"}, "bike_id": "b8abe9580dc6a72647b246055786f101", "lon": -76.98631016666667}, {"is_reserved": 0, "fusion_lon": 0.0, "fusion_lat": 0.0, "name": "7c17d66d769dc0ff9e32e7c7f0eca544", "type": "electric_scooter", "is_disabled": 0, "lat": 38.9265095, "rental_uris": {"android": "https://dc.lft.to/lastmile_qr_scan", "ios": "https://dc.lft.to/lastmile_qr_scan"}, "bike_id": "7c17d66d769dc0ff9e32e7c7f0eca544", "lon": -77.02501766666667}, {"is_reserved": 0, "fusion_lon": 0.0, "fusion_lat": 0.0, "name": "f8a56a710d4ef9d4d37ed72c3b185398", "type": "electric_scooter", "is_disabled": 0, "lat": 38.9182335, "rental_uris": {"android": "https://dc.lft.to/lastmile_qr_scan", "ios": "https://dc.lft.to/lastmile_qr_scan"}, "bike_id": "f8a56a710d4ef9d4d37ed72c3b185398", "lon": -77.03454216666667}, {"is_reserved": 0, "fusion_lon": 0.0, "fusion_lat": 0.0, "name": "89816597e00a67fb7aa7f0338fff4718", "type": "electric_scooter", "is_disabled": 0, "lat": 38.90616716666667, "rental_uris": {"android": "https://dc.lft.to/lastmile_qr_scan", "ios": "https://dc.lft.to/lastmile_qr_scan"}, "bike_id": "89816597e00a67fb7aa7f0338fff4718", "lon": -77.034747}, {"is_reserved": 0, "fusion_lon": 0.0, "fusion_lat": 0.0, "name": "a02aee841d28d95abe58a860c7e063b7", "type": "electric_scooter", "is_disabled": 0, "lat": 38.92070366666667, "rental_uris": {"android": "https://dc.lft.to/lastmile_qr_scan", "ios": "https://dc.lft.to/lastmile_qr_scan"}, "bike_id": "a02aee841d28d95abe58a860c7e063b7", "lon": -77.04377666666667}, {"is_reserved": 0, "fusion_lon": 0.0, "fusion_lat": 0.0, "name": "ab494020ceff1a489e5b5ee17abcf7cc", "type": "electric_scooter", "is_disabled": 0, "lat": 38.936100333333336, "rental_uris": {"android": "https://dc.lft.to/lastmile_qr_scan", "ios": "https://dc.lft.to/lastmile_qr_scan"}, "bike_id": "ab494020ceff1a489e5b5ee17abcf7cc", "lon": -77.03799916666667}, {"is_reserved": 0, "fusion_lon": 0.0, "fusion_lat": 0.0, "name": "ff3027d05fd3d5900a62fbea53501565", "type": "electric_scooter", "is_disabled": 0, "lat": 38.93537966666667, "rental_uris": {"android": "https://dc.lft.to/lastmile_qr_scan", "ios": "https://dc.lft.to/lastmile_qr_scan"}, "bike_id": "ff3027d05fd3d5900a62fbea53501565", "lon": -77.02343866666666}, {"is_reserved": 0, "fusion_lon": 0.0, "fusion_lat": 0.0, "name": "7be6ebf2c4faafa28941046683dafb6f", "type": "electric_scooter", "is_disabled": 0, "lat": 38.92498416666667, "rental_uris": {"android": "https://dc.lft.to/lastmile_qr_scan", "ios": "https://dc.lft.to/lastmile_qr_scan"}, "bike_id": "7be6ebf2c4faafa28941046683dafb6f", "lon": -77.02170183333334}, {"is_reserved": 0, "fusion_lon": 0.0, "fusion_lat": 0.0, "name": "116ff5c2103e85bf8eb8dac72c950d42", "type": "electric_bike", "is_disabled": 0, "lat": 38.94564333333334, "rental_uris": {"android": "https://dc.lft.to/lastmile_qr_scan", "ios": "https://dc.lft.to/lastmile_qr_scan"}, "bike_id": "116ff5c2103e85bf8eb8dac72c950d42", "lon": -76.966886}, {"is_reserved": 0, "fusion_lon": 0.0, "fusion_lat": 0.0, "name": "d71c9f3255ca5c3ef1e71756dd8c9c5e", "type": "electric_scooter", "is_disabled": 0, "lat": 38.8985585, "rental_uris": {"android": "https://dc.lft.to/lastmile_qr_scan", "ios": "https://dc.lft.to/lastmile_qr_scan"}, "bike_id": "d71c9f3255ca5c3ef1e71756dd8c9c5e", "lon": -76.93205383333333}, {"is_reserved": 0, "fusion_lon": 0.0, "fusion_lat": 0.0, "name": "7b7faea69ab79b8ba6d14c12ea1e7f87", "type": "electric_scooter", "is_disabled": 0, "lat": 38.919215333333334, "rental_uris": {"android": "https://dc.lft.to/lastmile_qr_scan", "ios": "https://dc.lft.to/lastmile_qr_scan"}, "bike_id": "7b7faea69ab79b8ba6d14c12ea1e7f87", "lon": -77.02511933333334}, {"is_reserved": 0, "fusion_lon": 0.0, "fusion_lat": 0.0, "name": "cbeaf7d3b9a8dae166c086b93c270fb7", "type": "electric_scooter", "is_disabled": 0, "lat": 38.92244916666667, "rental_uris": {"android": "https://dc.lft.to/lastmile_qr_scan", "ios": "https://dc.lft.to/lastmile_qr_scan"}, "bike_id": "cbeaf7d3b9a8dae166c086b93c270fb7", "lon": -77.030236}, {"is_reserved": 0, "fusion_lon": 0.0, "fusion_lat": 0.0, "name": "d226ca02d4b641867d0bc1ba9f31baaa", "type": "electric_scooter", "is_disabled": 0, "lat": 38.880462, "rental_uris": {"android": "https://dc.lft.to/lastmile_qr_scan", "ios": "https://dc.lft.to/lastmile_qr_scan"}, "bike_id": "d226ca02d4b641867d0bc1ba9f31baaa", "lon": -77.01987566666666}, {"is_reserved": 0, "fusion_lon": 0.0, "fusion_lat": 0.0, "name": "e664f1a1d23304f21f121c4ed991e5f8", "type": "electric_scooter", "is_disabled": 0, "lat": 38.928616833333336, "rental_uris": {"android": "https://dc.lft.to/lastmile_qr_scan", "ios": "https://dc.lft.to/lastmile_qr_scan"}, "bike_id": "e664f1a1d23304f21f121c4ed991e5f8", "lon": -77.03409966666666}, {"is_reserved": 0, "fusion_lon": 0.0, "fusion_lat": 0.0, "name": "390df52ba94e37f8b6d9eb48310066cd", "type": "electric_scooter", "is_disabled": 0, "lat": 38.91826, "rental_uris": {"android": "https://dc.lft.to/lastmile_qr_scan", "ios": "https://dc.lft.to/lastmile_qr_scan"}, "bike_id": "390df52ba94e37f8b6d9eb48310066cd", "lon": -77.02420583333334}, {"is_reserved": 0, "fusion_lon": 0.0, "fusion_lat": 0.0, "name": "b45ed16530ab8abd9d89ece7654085e6", "type": "electric_bike", "is_disabled": 0, "lat": 38.877322666666664, "rental_uris": {"android": "https://dc.lft.to/lastmile_qr_scan", "ios": "https://dc.lft.to/lastmile_qr_scan"}, "bike_id": "b45ed16530ab8abd9d89ece7654085e6", "lon": -76.98107733333333}, {"is_reserved": 0, "fusion_lon": 0.0, "fusion_lat": 0.0, "name": "ead9f4d50d08223112c59d2690a6fe24", "type": "electric_scooter", "is_disabled": 0, "lat": 38.90346233333333, "rental_uris": {"android": "https://dc.lft.to/lastmile_qr_scan", "ios": "https://dc.lft.to/lastmile_qr_scan"}, "bike_id": "ead9f4d50d08223112c59d2690a6fe24", "lon": -77.04338333333334}, {"is_reserved": 0, "fusion_lon": 0.0, "fusion_lat": 0.0, "name": "b55bcac6b38b773600441664d38516c0", "type": "electric_scooter", "is_disabled": 0, "lat": 38.934855, "rental_uris": {"android": "https://dc.lft.to/lastmile_qr_scan", "ios": "https://dc.lft.to/lastmile_qr_scan"}, "bike_id": "b55bcac6b38b773600441664d38516c0", "lon": -77.05796083333334}, {"is_reserved": 0, "fusion_lon": 0.0, "fusion_lat": 0.0, "name": "d545e6beffdbfc6cffce5a390b1132b7", "type": "electric_scooter", "is_disabled": 0, "lat": 38.916985333333336, "rental_uris": {"android": "https://dc.lft.to/lastmile_qr_scan", "ios": "https://dc.lft.to/lastmile_qr_scan"}, "bike_id": "d545e6beffdbfc6cffce5a390b1132b7", "lon": -77.0346965}, {"is_reserved": 0, "fusion_lon": 0.0, "fusion_lat": 0.0, "name": "ce4706558970f959626daa2b675c2f25", "type": "electric_scooter", "is_disabled": 0, "lat": 38.90725, "rental_uris": {"android": "https://dc.lft.to/lastmile_qr_scan", "ios": "https://dc.lft.to/lastmile_qr_scan"}, "bike_id": "ce4706558970f959626daa2b675c2f25", "lon": -77.03281633333333}, {"is_reserved": 0, "fusion_lon": 0.0, "fusion_lat": 0.0, "name": "595297fb5fd0566874e2acfb2c5d5e05", "type": "electric_scooter", "is_disabled": 0, "lat": 38.90559783333333, "rental_uris": {"android": "https://dc.lft.to/lastmile_qr_scan", "ios": "https://dc.lft.to/lastmile_qr_scan"}, "bike_id": "595297fb5fd0566874e2acfb2c5d5e05", "lon": -77.00608083333333}, {"is_reserved": 0, "fusion_lon": 0.0, "fusion_lat": 0.0, "name": "2e243b03346d11b9276452bf9c26c035", "type": "electric_scooter", "is_disabled": 0, "lat": 38.90028183333333, "rental_uris": {"android": "https://dc.lft.to/lastmile_qr_scan", "ios": "https://dc.lft.to/lastmile_qr_scan"}, "bike_id": "2e243b03346d11b9276452bf9c26c035", "lon": -76.98862566666666}, {"is_reserved": 0, "fusion_lon": 0.0, "fusion_lat": 0.0, "name": "08019db0e85d618db08b73bc57b8f59c", "type": "electric_scooter", "is_disabled": 0, "lat": 38.860635, "rental_uris": {"android": "https://dc.lft.to/lastmile_qr_scan", "ios": "https://dc.lft.to/lastmile_qr_scan"}, "bike_id": "08019db0e85d618db08b73bc57b8f59c", "lon": -76.98423433333333}, {"is_reserved": 0, "fusion_lon": 0.0, "fusion_lat": 0.0, "name": "ff0394066c8c4a85089788d34e98ea42", "type": "electric_scooter", "is_disabled": 0, "lat": 38.92891316666667, "rental_uris": {"android": "https://dc.lft.to/lastmile_qr_scan", "ios": "https://dc.lft.to/lastmile_qr_scan"}, "bike_id": "ff0394066c8c4a85089788d34e98ea42", "lon": -77.032638}, {"is_reserved": 0, "fusion_lon": 0.0, "fusion_lat": 0.0, "name": "d67535cacdb0e1aad465d871b161a5fe", "type": "electric_bike", "is_disabled": 0, "lat": 38.95357666666666, "rental_uris": {"android": "https://dc.lft.to/lastmile_qr_scan", "ios": "https://dc.lft.to/lastmile_qr_scan"}, "bike_id": "d67535cacdb0e1aad465d871b161a5fe", "lon": -76.9809995}, {"is_reserved": 0, "fusion_lon": 0.0, "fusion_lat": 0.0, "name": "c0239f8b85080c18b5efc569d6b6b2e2", "type": "electric_scooter", "is_disabled": 0, "lat": 38.9203495, "rental_uris": {"android": "https://dc.lft.to/lastmile_qr_scan", "ios": "https://dc.lft.to/lastmile_qr_scan"}, "bike_id": "c0239f8b85080c18b5efc569d6b6b2e2", "lon": -77.022097}, {"is_reserved": 0, "fusion_lon": 0.0, "fusion_lat": 0.0, "name": "ea51042e891b7d1e05a36d6a843c628b", "type": "electric_scooter", "is_disabled": 0, "lat": 38.90069483333333, "rental_uris": {"android": "https://dc.lft.to/lastmile_qr_scan", "ios": "https://dc.lft.to/lastmile_qr_scan"}, "bike_id": "ea51042e891b7d1e05a36d6a843c628b", "lon": -77.00205933333334}, {"is_reserved": 0, "fusion_lon": 0.0, "fusion_lat": 0.0, "name": "ed8034288a7886df971e3c8351fd1437", "type": "electric_scooter", "is_disabled": 0, "lat": 38.892336666666665, "rental_uris": {"android": "https://dc.lft.to/lastmile_qr_scan", "ios": "https://dc.lft.to/lastmile_qr_scan"}, "bike_id": "ed8034288a7886df971e3c8351fd1437", "lon": -77.03207733333333}, {"is_reserved": 0, "fusion_lon": 0.0, "fusion_lat": 0.0, "name": "129b07c9f64fdc8de2dd48387a282eb0", "type": "electric_scooter", "is_disabled": 0, "lat": 38.9003025, "rental_uris": {"android": "https://dc.lft.to/lastmile_qr_scan", "ios": "https://dc.lft.to/lastmile_qr_scan"}, "bike_id": "129b07c9f64fdc8de2dd48387a282eb0", "lon": -76.98858483333333}, {"is_reserved": 0, "fusion_lon": 0.0, "fusion_lat": 0.0, "name": "fa3a542be4ba8224d4468d0bd110655c", "type": "electric_scooter", "is_disabled": 0, "lat": 38.894998, "rental_uris": {"android": "https://dc.lft.to/lastmile_qr_scan", "ios": "https://dc.lft.to/lastmile_qr_scan"}, "bike_id": "fa3a542be4ba8224d4468d0bd110655c", "lon": -77.027448}, {"is_reserved": 0, "fusion_lon": 0.0, "fusion_lat": 0.0, "name": "22a6e34c46f5b051e1af71bfe011bf06", "type": "electric_scooter", "is_disabled": 0, "lat": 38.9188805, "rental_uris": {"android": "https://dc.lft.to/lastmile_qr_scan", "ios": "https://dc.lft.to/lastmile_qr_scan"}, "bike_id": "22a6e34c46f5b051e1af71bfe011bf06", "lon": -77.04826616666666}, {"is_reserved": 0, "fusion_lon": 0.0, "fusion_lat": 0.0, "name": "6442db38ca7efbc970be96ea0292ec6d", "type": "electric_scooter", "is_disabled": 0, "lat": 38.921186666666664, "rental_uris": {"android": "https://dc.lft.to/lastmile_qr_scan", "ios": "https://dc.lft.to/lastmile_qr_scan"}, "bike_id": "6442db38ca7efbc970be96ea0292ec6d", "lon": -77.01211916666666}, {"is_reserved": 0, "fusion_lon": 0.0, "fusion_lat": 0.0, "name": "da616ffd7d7f3752f86a96095d7a4cd1", "type": "electric_scooter", "is_disabled": 0, "lat": 38.902316166666665, "rental_uris": {"android": "https://dc.lft.to/lastmile_qr_scan", "ios": "https://dc.lft.to/lastmile_qr_scan"}, "bike_id": "da616ffd7d7f3752f86a96095d7a4cd1", "lon": -76.992707}, {"is_reserved": 0, "fusion_lon": 0.0, "fusion_lat": 0.0, "name": "e621af38307ed1dabc8ab22b9969e29f", "type": "electric_scooter", "is_disabled": 0, "lat": 38.96785633333333, "rental_uris": {"android": "https://dc.lft.to/lastmile_qr_scan", "ios": "https://dc.lft.to/lastmile_qr_scan"}, "bike_id": "e621af38307ed1dabc8ab22b9969e29f", "lon": -77.0151265}, {"is_reserved": 0, "fusion_lon": 0.0, "fusion_lat": 0.0, "name": "859e7c334fd3acfb86176bf18eb482f5", "type": "electric_bike", "is_disabled": 0, "lat": 38.9224065, "rental_uris": {"android": "https://dc.lft.to/lastmile_qr_scan", "ios": "https://dc.lft.to/lastmile_qr_scan"}, "bike_id": "859e7c334fd3acfb86176bf18eb482f5", "lon": -77.04247733333334}, {"is_reserved": 0, "fusion_lon": 0.0, "fusion_lat": 0.0, "name": "c16f579371f454fd019ab14422c08a6b", "type": "electric_scooter", "is_disabled": 0, "lat": 38.90026966666667, "rental_uris": {"android": "https://dc.lft.to/lastmile_qr_scan", "ios": "https://dc.lft.to/lastmile_qr_scan"}, "bike_id": "c16f579371f454fd019ab14422c08a6b", "lon": -76.99604933333333}, {"is_reserved": 0, "fusion_lon": 0.0, "fusion_lat": 0.0, "name": "34167552b34d42e22fbd4a218db92526", "type": "electric_scooter", "is_disabled": 0, "lat": 38.8986675, "rental_uris": {"android": "https://dc.lft.to/lastmile_qr_scan", "ios": "https://dc.lft.to/lastmile_qr_scan"}, "bike_id": "34167552b34d42e22fbd4a218db92526", "lon": -76.94661216666667}, {"is_reserved": 0, "fusion_lon": 0.0, "fusion_lat": 0.0, "name": "14a35253f2d9b235bbf192ebe340c933", "type": "electric_bike", "is_disabled": 0, "lat": 38.87875233333333, "rental_uris": {"android": "https://dc.lft.to/lastmile_qr_scan", "ios": "https://dc.lft.to/lastmile_qr_scan"}, "bike_id": "14a35253f2d9b235bbf192ebe340c933", "lon": -76.9901605}, {"is_reserved": 0, "fusion_lon": 0.0, "fusion_lat": 0.0, "name": "e64159075f36881576b6591bbbfc8706", "type": "electric_scooter", "is_disabled": 0, "lat": 38.89348966666667, "rental_uris": {"android": "https://dc.lft.to/lastmile_qr_scan", "ios": "https://dc.lft.to/lastmile_qr_scan"}, "bike_id": "e64159075f36881576b6591bbbfc8706", "lon": -77.01727766666667}, {"is_reserved": 0, "fusion_lon": 0.0, "fusion_lat": 0.0, "name": "6d840a17cf9eaa83fa8eba21bae95675", "type": "electric_bike", "is_disabled": 0, "lat": 38.8548845, "rental_uris": {"android": "https://dc.lft.to/lastmile_qr_scan", "ios": "https://dc.lft.to/lastmile_qr_scan"}, "bike_id": "6d840a17cf9eaa83fa8eba21bae95675", "lon": -77.11611883333333}, {"is_reserved": 0, "fusion_lon": 0.0, "fusion_lat": 0.0, "name": "e12ebdf1e70082c3ac8b8ff4daa42942", "type": "electric_scooter", "is_disabled": 0, "lat": 38.900815333333334, "rental_uris": {"android": "https://dc.lft.to/lastmile_qr_scan", "ios": "https://dc.lft.to/lastmile_qr_scan"}, "bike_id": "e12ebdf1e70082c3ac8b8ff4daa42942", "lon": -77.0488665}, {"is_reserved": 0, "fusion_lon": 0.0, "fusion_lat": 0.0, "name": "8c92818882577dc52007c3383939b326", "type": "electric_scooter", "is_disabled": 0, "lat": 38.9112425, "rental_uris": {"android": "https://dc.lft.to/lastmile_qr_scan", "ios": "https://dc.lft.to/lastmile_qr_scan"}, "bike_id": "8c92818882577dc52007c3383939b326", "lon": -77.03150666666667}, {"is_reserved": 0, "fusion_lon": 0.0, "fusion_lat": 0.0, "name": "84da719c00fbd0ddcde9ded288bde114", "type": "electric_scooter", "is_disabled": 0, "lat": 38.90638, "rental_uris": {"android": "https://dc.lft.to/lastmile_qr_scan", "ios": "https://dc.lft.to/lastmile_qr_scan"}, "bike_id": "84da719c00fbd0ddcde9ded288bde114", "lon": -77.04653566666667}, {"is_reserved": 0, "fusion_lon": 0.0, "fusion_lat": 0.0, "name": "95931ec9efaf3b728d7bb14f0f3dbe41", "type": "electric_scooter", "is_disabled": 0, "lat": 38.91118983333333, "rental_uris": {"android": "https://dc.lft.to/lastmile_qr_scan", "ios": "https://dc.lft.to/lastmile_qr_scan"}, "bike_id": "95931ec9efaf3b728d7bb14f0f3dbe41", "lon": -77.03836016666666}, {"is_reserved": 0, "fusion_lon": 0.0, "fusion_lat": 0.0, "name": "93876b91b9b89a6925972b17e0c5c61f", "type": "electric_scooter", "is_disabled": 0, "lat": 38.9157355, "rental_uris": {"android": "https://dc.lft.to/lastmile_qr_scan", "ios": "https://dc.lft.to/lastmile_qr_scan"}, "bike_id": "93876b91b9b89a6925972b17e0c5c61f", "lon": -77.0199485}, {"is_reserved": 0, "fusion_lon": 0.0, "fusion_lat": 0.0, "name": "37bc5c5c1e2b9c415c345ce9660cee3b", "type": "electric_bike", "is_disabled": 0, "lat": 39.062952833333334, "rental_uris": {"android": "https://dc.lft.to/lastmile_qr_scan", "ios": "https://dc.lft.to/lastmile_qr_scan"}, "bike_id": "37bc5c5c1e2b9c415c345ce9660cee3b", "lon": -77.0497905}, {"is_reserved": 0, "fusion_lon": 0.0, "fusion_lat": 0.0, "name": "ae2d0b2b78f8cf382811b728f21889d8", "type": "electric_scooter", "is_disabled": 0, "lat": 38.905798833333336, "rental_uris": {"android": "https://dc.lft.to/lastmile_qr_scan", "ios": "https://dc.lft.to/lastmile_qr_scan"}, "bike_id": "ae2d0b2b78f8cf382811b728f21889d8", "lon": -77.0345635}, {"is_reserved": 0, "fusion_lon": 0.0, "fusion_lat": 0.0, "name": "650fc8537c60ced4eccc4e661359c385", "type": "electric_scooter", "is_disabled": 0, "lat": 38.899787, "rental_uris": {"android": "https://dc.lft.to/lastmile_qr_scan", "ios": "https://dc.lft.to/lastmile_qr_scan"}, "bike_id": "650fc8537c60ced4eccc4e661359c385", "lon": -77.049856}, {"is_reserved": 0, "fusion_lon": 0.0, "fusion_lat": 0.0, "name": "7d1dd5f50bee529a7561ddc4cb4e3f4c", "type": "electric_scooter", "is_disabled": 0, "lat": 38.892233833333336, "rental_uris": {"android": "https://dc.lft.to/lastmile_qr_scan", "ios": "https://dc.lft.to/lastmile_qr_scan"}, "bike_id": "7d1dd5f50bee529a7561ddc4cb4e3f4c", "lon": -77.02346816666666}, {"is_reserved": 0, "fusion_lon": 0.0, "fusion_lat": 0.0, "name": "9d376b1ecd4ea51ca38a043c194cc830", "type": "electric_scooter", "is_disabled": 0, "lat": 38.88305366666667, "rental_uris": {"android": "https://dc.lft.to/lastmile_qr_scan", "ios": "https://dc.lft.to/lastmile_qr_scan"}, "bike_id": "9d376b1ecd4ea51ca38a043c194cc830", "lon": -76.97869833333333}, {"is_reserved": 0, "fusion_lon": 0.0, "fusion_lat": 0.0, "name": "81320feb606c07c33ed741a7d44b42f6", "type": "electric_scooter", "is_disabled": 0, "lat": 38.8991585, "rental_uris": {"android": "https://dc.lft.to/lastmile_qr_scan", "ios": "https://dc.lft.to/lastmile_qr_scan"}, "bike_id": "81320feb606c07c33ed741a7d44b42f6", "lon": -76.9338255}, {"is_reserved": 0, "fusion_lon": 0.0, "fusion_lat": 0.0, "name": "80318542300a5ee568b4f40b8e6c30f9", "type": "electric_scooter", "is_disabled": 0, "lat": 38.906383166666664, "rental_uris": {"android": "https://dc.lft.to/lastmile_qr_scan", "ios": "https://dc.lft.to/lastmile_qr_scan"}, "bike_id": "80318542300a5ee568b4f40b8e6c30f9", "lon": -77.0480955}, {"is_reserved": 0, "fusion_lon": 0.0, "fusion_lat": 0.0, "name": "5456b94e3c6ffbd4279b9819e3426499", "type": "electric_bike", "is_disabled": 0, "lat": 38.91438866666667, "rental_uris": {"android": "https://dc.lft.to/lastmile_qr_scan", "ios": "https://dc.lft.to/lastmile_qr_scan"}, "bike_id": "5456b94e3c6ffbd4279b9819e3426499", "lon": -77.01705983333333}, {"is_reserved": 0, "fusion_lon": 0.0, "fusion_lat": 0.0, "name": "9b17e171ee64a92a83e7b07047c10815", "type": "electric_scooter", "is_disabled": 0, "lat": 38.92684, "rental_uris": {"android": "https://dc.lft.to/lastmile_qr_scan", "ios": "https://dc.lft.to/lastmile_qr_scan"}, "bike_id": "9b17e171ee64a92a83e7b07047c10815", "lon": -77.02994066666666}, {"is_reserved": 0, "fusion_lon": 0.0, "fusion_lat": 0.0, "name": "cc2baab73520473108a21c753b852e51", "type": "electric_scooter", "is_disabled": 0, "lat": 38.89321133333333, "rental_uris": {"android": "https://dc.lft.to/lastmile_qr_scan", "ios": "https://dc.lft.to/lastmile_qr_scan"}, "bike_id": "cc2baab73520473108a21c753b852e51", "lon": -76.9431545}, {"is_reserved": 0, "fusion_lon": 0.0, "fusion_lat": 0.0, "name": "0d77313cc20cdbc99e51493ff8512ef7", "type": "electric_scooter", "is_disabled": 0, "lat": 38.91778633333333, "rental_uris": {"android": "https://dc.lft.to/lastmile_qr_scan", "ios": "https://dc.lft.to/lastmile_qr_scan"}, "bike_id": "0d77313cc20cdbc99e51493ff8512ef7", "lon": -77.0453895}, {"is_reserved": 0, "fusion_lon": 0.0, "fusion_lat": 0.0, "name": "2cb52bddfb70d0b2be7b0c2a779d1ad6", "type": "electric_scooter", "is_disabled": 0, "lat": 38.907358, "rental_uris": {"android": "https://dc.lft.to/lastmile_qr_scan", "ios": "https://dc.lft.to/lastmile_qr_scan"}, "bike_id": "2cb52bddfb70d0b2be7b0c2a779d1ad6", "lon": -77.026942}, {"is_reserved": 0, "fusion_lon": 0.0, "fusion_lat": 0.0, "name": "26da363f797f42afd357033e581c04c4", "type": "electric_scooter", "is_disabled": 0, "lat": 38.906201, "rental_uris": {"android": "https://dc.lft.to/lastmile_qr_scan", "ios": "https://dc.lft.to/lastmile_qr_scan"}, "bike_id": "26da363f797f42afd357033e581c04c4", "lon": -76.98687633333333}, {"is_reserved": 0, "fusion_lon": 0.0, "fusion_lat": 0.0, "name": "facb9354bd0197230f8c60a88a43c669", "type": "electric_bike", "is_disabled": 0, "lat": 38.81842483333333, "rental_uris": {"android": "https://dc.lft.to/lastmile_qr_scan", "ios": "https://dc.lft.to/lastmile_qr_scan"}, "bike_id": "facb9354bd0197230f8c60a88a43c669", "lon": -77.10575283333333}, {"is_reserved": 0, "fusion_lon": 0.0, "fusion_lat": 0.0, "name": "bd8f2eb1858a741a0e5a36333bd5668f", "type": "electric_scooter", "is_disabled": 0, "lat": 38.8601065, "rental_uris": {"android": "https://dc.lft.to/lastmile_qr_scan", "ios": "https://dc.lft.to/lastmile_qr_scan"}, "bike_id": "bd8f2eb1858a741a0e5a36333bd5668f", "lon": -76.98517583333333}, {"is_reserved": 0, "fusion_lon": 0.0, "fusion_lat": 0.0, "name": "9bd27e85aa9438dc7ccbdea6a713c62b", "type": "electric_scooter", "is_disabled": 0, "lat": 38.90064133333333, "rental_uris": {"android": "https://dc.lft.to/lastmile_qr_scan", "ios": "https://dc.lft.to/lastmile_qr_scan"}, "bike_id": "9bd27e85aa9438dc7ccbdea6a713c62b", "lon": -77.00195983333333}, {"is_reserved": 0, "fusion_lon": 0.0, "fusion_lat": 0.0, "name": "c1d464c0feefd9019491e83133561198", "type": "electric_bike", "is_disabled": 0, "lat": 38.8662285, "rental_uris": {"android": "https://dc.lft.to/lastmile_qr_scan", "ios": "https://dc.lft.to/lastmile_qr_scan"}, "bike_id": "c1d464c0feefd9019491e83133561198", "lon": -76.94569483333333}, {"is_reserved": 0, "fusion_lon": 0.0, "fusion_lat": 0.0, "name": "1935cf957e7e89d13c069be95358dd7a", "type": "electric_scooter", "is_disabled": 0, "lat": 38.89878433333333, "rental_uris": {"android": "https://dc.lft.to/lastmile_qr_scan", "ios": "https://dc.lft.to/lastmile_qr_scan"}, "bike_id": "1935cf957e7e89d13c069be95358dd7a", "lon": -76.931896}, {"is_reserved": 0, "fusion_lon": 0.0, "fusion_lat": 0.0, "name": "1b22c7d19ddfd0666505ef8f216c2982", "type": "electric_scooter", "is_disabled": 0, "lat": 38.904271, "rental_uris": {"android": "https://dc.lft.to/lastmile_qr_scan", "ios": "https://dc.lft.to/lastmile_qr_scan"}, "bike_id": "1b22c7d19ddfd0666505ef8f216c2982", "lon": -76.99821033333333}, {"is_reserved": 0, "fusion_lon": 0.0, "fusion_lat": 0.0, "name": "7d41bd591e5cbc7218af953b78a3bba4", "type": "electric_scooter", "is_disabled": 0, "lat": 38.874724, "rental_uris": {"android": "https://dc.lft.to/lastmile_qr_scan", "ios": "https://dc.lft.to/lastmile_qr_scan"}, "bike_id": "7d41bd591e5cbc7218af953b78a3bba4", "lon": -77.005562}, {"is_reserved": 0, "fusion_lon": 0.0, "fusion_lat": 0.0, "name": "6713531b9f378fcd8ba98d1deaa017b5", "type": "electric_scooter", "is_disabled": 0, "lat": 38.92614583333334, "rental_uris": {"android": "https://dc.lft.to/lastmile_qr_scan", "ios": "https://dc.lft.to/lastmile_qr_scan"}, "bike_id": "6713531b9f378fcd8ba98d1deaa017b5", "lon": -77.03961433333333}, {"is_reserved": 0, "fusion_lon": 0.0, "fusion_lat": 0.0, "name": "21dcbb917e8c573e7aa668f27157d52c", "type": "electric_scooter", "is_disabled": 0, "lat": 38.914196833333335, "rental_uris": {"android": "https://dc.lft.to/lastmile_qr_scan", "ios": "https://dc.lft.to/lastmile_qr_scan"}, "bike_id": "21dcbb917e8c573e7aa668f27157d52c", "lon": -77.04918466666666}, {"is_reserved": 0, "fusion_lon": 0.0, "fusion_lat": 0.0, "name": "1f02da365ff612766d51647f8f02cc7e", "type": "electric_scooter", "is_disabled": 0, "lat": 38.880794, "rental_uris": {"android": "https://dc.lft.to/lastmile_qr_scan", "ios": "https://dc.lft.to/lastmile_qr_scan"}, "bike_id": "1f02da365ff612766d51647f8f02cc7e", "lon": -76.99846466666666}, {"is_reserved": 0, "fusion_lon": 0.0, "fusion_lat": 0.0, "name": "7e981fd21f9c7a464d9a36194c1fb40c", "type": "electric_scooter", "is_disabled": 0, "lat": 38.8763605, "rental_uris": {"android": "https://dc.lft.to/lastmile_qr_scan", "ios": "https://dc.lft.to/lastmile_qr_scan"}, "bike_id": "7e981fd21f9c7a464d9a36194c1fb40c", "lon": -77.01258083333333}, {"is_reserved": 0, "fusion_lon": 0.0, "fusion_lat": 0.0, "name": "9922621fb5391e5737b9caab08f1098a", "type": "electric_scooter", "is_disabled": 0, "lat": 38.902484666666666, "rental_uris": {"android": "https://dc.lft.to/lastmile_qr_scan", "ios": "https://dc.lft.to/lastmile_qr_scan"}, "bike_id": "9922621fb5391e5737b9caab08f1098a", "lon": -77.01759483333333}, {"is_reserved": 0, "fusion_lon": 0.0, "fusion_lat": 0.0, "name": "5e7a93dd011d59d39a09d4800df7145a", "type": "electric_scooter", "is_disabled": 0, "lat": 38.8838245, "rental_uris": {"android": "https://dc.lft.to/lastmile_qr_scan", "ios": "https://dc.lft.to/lastmile_qr_scan"}, "bike_id": "5e7a93dd011d59d39a09d4800df7145a", "lon": -77.03034733333334}, {"is_reserved": 0, "fusion_lon": 0.0, "fusion_lat": 0.0, "name": "af1dcadeec38226388115e1720a571ff", "type": "electric_scooter", "is_disabled": 0, "lat": 38.92490266666667, "rental_uris": {"android": "https://dc.lft.to/lastmile_qr_scan", "ios": "https://dc.lft.to/lastmile_qr_scan"}, "bike_id": "af1dcadeec38226388115e1720a571ff", "lon": -77.03184183333333}, {"is_reserved": 0, "fusion_lon": 0.0, "fusion_lat": 0.0, "name": "a5fa80732a1865748d591fda9bce9b79", "type": "electric_scooter", "is_disabled": 0, "lat": 38.91765216666667, "rental_uris": {"android": "https://dc.lft.to/lastmile_qr_scan", "ios": "https://dc.lft.to/lastmile_qr_scan"}, "bike_id": "a5fa80732a1865748d591fda9bce9b79", "lon": -77.01216633333334}, {"is_reserved": 0, "fusion_lon": 0.0, "fusion_lat": 0.0, "name": "28c5eedcbd0dc367e0f8df14a6b2c45a", "type": "electric_scooter", "is_disabled": 0, "lat": 38.9092595, "rental_uris": {"android": "https://dc.lft.to/lastmile_qr_scan", "ios": "https://dc.lft.to/lastmile_qr_scan"}, "bike_id": "28c5eedcbd0dc367e0f8df14a6b2c45a", "lon": -77.0727885}, {"is_reserved": 0, "fusion_lon": 0.0, "fusion_lat": 0.0, "name": "a476cf0d18c02175409397752207539d", "type": "electric_scooter", "is_disabled": 0, "lat": 38.86702716666667, "rental_uris": {"android": "https://dc.lft.to/lastmile_qr_scan", "ios": "https://dc.lft.to/lastmile_qr_scan"}, "bike_id": "a476cf0d18c02175409397752207539d", "lon": -76.98712616666667}, {"is_reserved": 0, "fusion_lon": 0.0, "fusion_lat": 0.0, "name": "b19a415839387048abefd41d82fa8fac", "type": "electric_scooter", "is_disabled": 0, "lat": 38.8673315, "rental_uris": {"android": "https://dc.lft.to/lastmile_qr_scan", "ios": "https://dc.lft.to/lastmile_qr_scan"}, "bike_id": "b19a415839387048abefd41d82fa8fac", "lon": -76.98785483333333}, {"is_reserved": 0, "fusion_lon": 0.0, "fusion_lat": 0.0, "name": "59f24f0383a45fdb21be31b3b3433121", "type": "electric_scooter", "is_disabled": 0, "lat": 38.932544166666666, "rental_uris": {"android": "https://dc.lft.to/lastmile_qr_scan", "ios": "https://dc.lft.to/lastmile_qr_scan"}, "bike_id": "59f24f0383a45fdb21be31b3b3433121", "lon": -77.02945233333334}, {"is_reserved": 0, "fusion_lon": 0.0, "fusion_lat": 0.0, "name": "6c6c6f59122d488596b4e0e95d61b435", "type": "electric_bike", "is_disabled": 0, "lat": 38.9201735, "rental_uris": {"android": "https://dc.lft.to/lastmile_qr_scan", "ios": "https://dc.lft.to/lastmile_qr_scan"}, "bike_id": "6c6c6f59122d488596b4e0e95d61b435", "lon": -77.013141}, {"is_reserved": 0, "fusion_lon": 0.0, "fusion_lat": 0.0, "name": "95b29d554a95f0eeef7bea5709a0959c", "type": "electric_scooter", "is_disabled": 0, "lat": 38.893751, "rental_uris": {"android": "https://dc.lft.to/lastmile_qr_scan", "ios": "https://dc.lft.to/lastmile_qr_scan"}, "bike_id": "95b29d554a95f0eeef7bea5709a0959c", "lon": -77.03210716666666}, {"is_reserved": 0, "fusion_lon": 0.0, "fusion_lat": 0.0, "name": "1255a4b05b580397ee7707ed4f7a7d12", "type": "electric_scooter", "is_disabled": 0, "lat": 38.915503333333334, "rental_uris": {"android": "https://dc.lft.to/lastmile_qr_scan", "ios": "https://dc.lft.to/lastmile_qr_scan"}, "bike_id": "1255a4b05b580397ee7707ed4f7a7d12", "lon": -77.03853266666667}, {"is_reserved": 0, "fusion_lon": 0.0, "fusion_lat": 0.0, "name": "7aa130860ad8cfe36f17728aa1d7df44", "type": "electric_scooter", "is_disabled": 0, "lat": 38.92314783333333, "rental_uris": {"android": "https://dc.lft.to/lastmile_qr_scan", "ios": "https://dc.lft.to/lastmile_qr_scan"}, "bike_id": "7aa130860ad8cfe36f17728aa1d7df44", "lon": -77.04390983333333}, {"is_reserved": 0, "fusion_lon": 0.0, "fusion_lat": 0.0, "name": "bfbc81250267931b4b7ad10249a272f9", "type": "electric_scooter", "is_disabled": 0, "lat": 38.90012883333333, "rental_uris": {"android": "https://dc.lft.to/lastmile_qr_scan", "ios": "https://dc.lft.to/lastmile_qr_scan"}, "bike_id": "bfbc81250267931b4b7ad10249a272f9", "lon": -76.99626116666667}, {"is_reserved": 0, "fusion_lon": 0.0, "fusion_lat": 0.0, "name": "293b51ebf3d92d38a0ec8a5bab376851", "type": "electric_scooter", "is_disabled": 0, "lat": 38.82383333333333, "rental_uris": {"android": "https://dc.lft.to/lastmile_qr_scan", "ios": "https://dc.lft.to/lastmile_qr_scan"}, "bike_id": "293b51ebf3d92d38a0ec8a5bab376851", "lon": -77.01189316666667}, {"is_reserved": 0, "fusion_lon": 0.0, "fusion_lat": 0.0, "name": "be43cd78764797bcd9cc31f42b715e46", "type": "electric_scooter", "is_disabled": 0, "lat": 38.90016333333333, "rental_uris": {"android": "https://dc.lft.to/lastmile_qr_scan", "ios": "https://dc.lft.to/lastmile_qr_scan"}, "bike_id": "be43cd78764797bcd9cc31f42b715e46", "lon": -77.04027383333333}, {"is_reserved": 0, "fusion_lon": 0.0, "fusion_lat": 0.0, "name": "0e06684b50481ee67b139cf150e0689d", "type": "electric_bike", "is_disabled": 0, "lat": 38.88050233333333, "rental_uris": {"android": "https://dc.lft.to/lastmile_qr_scan", "ios": "https://dc.lft.to/lastmile_qr_scan"}, "bike_id": "0e06684b50481ee67b139cf150e0689d", "lon": -77.011305}, {"is_reserved": 0, "fusion_lon": 0.0, "fusion_lat": 0.0, "name": "7dffa467af3667a23afceb7639421a7e", "type": "electric_scooter", "is_disabled": 0, "lat": 38.881288, "rental_uris": {"android": "https://dc.lft.to/lastmile_qr_scan", "ios": "https://dc.lft.to/lastmile_qr_scan"}, "bike_id": "7dffa467af3667a23afceb7639421a7e", "lon": -76.99571316666666}, {"is_reserved": 0, "fusion_lon": 0.0, "fusion_lat": 0.0, "name": "bc7af35c9afbe518de67a2b3e601bf33", "type": "electric_bike", "is_disabled": 0, "lat": 38.896171833333334, "rental_uris": {"android": "https://dc.lft.to/lastmile_qr_scan", "ios": "https://dc.lft.to/lastmile_qr_scan"}, "bike_id": "bc7af35c9afbe518de67a2b3e601bf33", "lon": -76.9074425}, {"is_reserved": 0, "fusion_lon": 0.0, "fusion_lat": 0.0, "name": "76b10f6aa19c9087f700cc5a0d3162e4", "type": "electric_scooter", "is_disabled": 0, "lat": 38.904998, "rental_uris": {"android": "https://dc.lft.to/lastmile_qr_scan", "ios": "https://dc.lft.to/lastmile_qr_scan"}, "bike_id": "76b10f6aa19c9087f700cc5a0d3162e4", "lon": -76.9742785}, {"is_reserved": 0, "fusion_lon": 0.0, "fusion_lat": 0.0, "name": "395ac8e6e12198fa6af734b71f32998f", "type": "electric_scooter", "is_disabled": 0, "lat": 38.897423333333336, "rental_uris": {"android": "https://dc.lft.to/lastmile_qr_scan", "ios": "https://dc.lft.to/lastmile_qr_scan"}, "bike_id": "395ac8e6e12198fa6af734b71f32998f", "lon": -77.03349866666667}, {"is_reserved": 0, "fusion_lon": 0.0, "fusion_lat": 0.0, "name": "362f1b61752b266473752d555f77b079", "type": "electric_scooter", "is_disabled": 0, "lat": 38.903806, "rental_uris": {"android": "https://dc.lft.to/lastmile_qr_scan", "ios": "https://dc.lft.to/lastmile_qr_scan"}, "bike_id": "362f1b61752b266473752d555f77b079", "lon": -77.03026566666666}, {"is_reserved": 0, "fusion_lon": 0.0, "fusion_lat": 0.0, "name": "2eb7d371315f68b688db824601ef38e2", "type": "electric_scooter", "is_disabled": 0, "lat": 38.897317, "rental_uris": {"android": "https://dc.lft.to/lastmile_qr_scan", "ios": "https://dc.lft.to/lastmile_qr_scan"}, "bike_id": "2eb7d371315f68b688db824601ef38e2", "lon": -77.05582483333333}, {"is_reserved": 0, "fusion_lon": 0.0, "fusion_lat": 0.0, "name": "5a6006a0c1ac3f92f7098c6a0b0c0fdb", "type": "electric_scooter", "is_disabled": 0, "lat": 38.879093833333336, "rental_uris": {"android": "https://dc.lft.to/lastmile_qr_scan", "ios": "https://dc.lft.to/lastmile_qr_scan"},