{"data": {"bikes": [{"fusion_lon": 0.0, "rental_uris": {"ios": "https://dc.lft.to/lastmile_qr_scan", "android": "https://dc.lft.to/lastmile_qr_scan"}, "type": "electric_scooter", "is_reserved": 0, "is_disabled": 0, "bike_id": "42d0b1acd2691ffb7c8e287fc8924a6a", "lat": 38.899869, "lon": -77.03164366666667, "fusion_lat": 0.0, "name": "42d0b1acd2691ffb7c8e287fc8924a6a"}, {"fusion_lon": 0.0, "rental_uris": {"ios": "https://dc.lft.to/lastmile_qr_scan", "android": "https://dc.lft.to/lastmile_qr_scan"}, "type": "electric_scooter", "is_reserved": 0, "is_disabled": 0, "bike_id": "420f466c6b90b19cc4cc2f64376e7b1b", "lat": 38.87381633333333, "lon": -77.0012565, "fusion_lat": 0.0, "name": "420f466c6b90b19cc4cc2f64376e7b1b"}, {"fusion_lon": 0.0, "rental_uris": {"ios": "https://dc.lft.to/lastmile_qr_scan", "android": "https://dc.lft.to/lastmile_qr_scan"}, "type": "electric_scooter", "is_reserved": 0, "is_disabled": 0, "bike_id": "84b92518e1058b2881e5f5e715e823a9", "lat": 38.8990945, "lon": -77.03921666666666, "fusion_lat": 0.0, "name": "84b92518e1058b2881e5f5e715e823a9"}, {"fusion_lon": 0.0, "rental_uris": {"ios": "https://dc.lft.to/lastmile_qr_scan", "android": "https://dc.lft.to/lastmile_qr_scan"}, "type": "electric_scooter", "is_reserved": 0, "is_disabled": 0, "bike_id": "7d3ecb8652c19a3a17cb7346b01892e3", "lat": 38.918943, "lon": -77.03834233333333, "fusion_lat": 0.0, "name": "7d3ecb8652c19a3a17cb7346b01892e3"}, {"fusion_lon": 0.0, "rental_uris": {"ios": "https://dc.lft.to/lastmile_qr_scan", "android": "https://dc.lft.to/lastmile_qr_scan"}, "type": "electric_bike", "is_reserved": 0, "is_disabled": 0, "bike_id": "49bad3d9660a18be2d3db9db6adbf3ec", "lat": 38.849145, "lon": -77.079306, "fusion_lat": 0.0, "name": "49bad3d9660a18be2d3db9db6adbf3ec"}, {"fusion_lon": 0.0, "rental_uris": {"ios": "https://dc.lft.to/lastmile_qr_scan", "android": "https://dc.lft.to/lastmile_qr_scan"}, "type": "electric_scooter", "is_reserved": 0, "is_disabled": 0, "bike_id": "628bb12d4c270f1d9dfef0ae64458a02", "lat": 38.905747833333336, "lon": -77.04184433333333, "fusion_lat": 0.0, "name": "628bb12d4c270f1d9dfef0ae64458a02"}, {"fusion_lon": 0.0, "rental_uris": {"ios": "https://dc.lft.to/lastmile_qr_scan", "android": "https://dc.lft.to/lastmile_qr_scan"}, "type": "electric_scooter", "is_reserved": 0, "is_disabled": 0, "bike_id": "3e39ebeb78b5df68aeaa36b7c870de71", "lat": 38.94352633333333, "lon": -77.029777, "fusion_lat": 0.0, "name": "3e39ebeb78b5df68aeaa36b7c870de71"}, {"fusion_lon": 0.0, "rental_uris": {"ios": "https://dc.lft.to/lastmile_qr_scan", "android": "https://dc.lft.to/lastmile_qr_scan"}, "type": "electric_scooter", "is_reserved": 0, "is_disabled": 0, "bike_id": "69ba19d22cbe95b5dbf985820b279b27", "lat": 38.91331733333333, "lon": -77.04528066666667, "fusion_lat": 0.0, "name": "69ba19d22cbe95b5dbf985820b279b27"}, {"fusion_lon": 0.0, "rental_uris": {"ios": "https://dc.lft.to/lastmile_qr_scan", "android": "https://dc.lft.to/lastmile_qr_scan"}, "type": "electric_scooter", "is_reserved": 0, "is_disabled": 0, "bike_id": "439c8cf870473ad9463fe99a59f14324", "lat": 38.913267166666664, "lon": -77.013637, "fusion_lat": 0.0, "name": "439c8cf870473ad9463fe99a59f14324"}, {"fusion_lon": 0.0, "rental_uris": {"ios": "https://dc.lft.to/lastmile_qr_scan", "android": "https://dc.lft.to/lastmile_qr_scan"}, "type": "electric_scooter", "is_reserved": 0, "is_disabled": 0, "bike_id": "4ee16a7de8519ea7466d624622989b14", "lat": 38.918466, "lon": -77.038804, "fusion_lat": 0.0, "name": "4ee16a7de8519ea7466d624622989b14"}, {"fusion_lon": 0.0, "rental_uris": {"ios": "https://dc.lft.to/lastmile_qr_scan", "android": "https://dc.lft.to/lastmile_qr_scan"}, "type": "electric_scooter", "is_reserved": 0, "is_disabled": 0, "bike_id": "e2a9e8527032f4c72a09ddd8d1423091", "lat": 38.87773166666667, "lon": -76.99619383333334, "fusion_lat": 0.0, "name": "e2a9e8527032f4c72a09ddd8d1423091"}, {"fusion_lon": 0.0, "rental_uris": {"ios": "https://dc.lft.to/lastmile_qr_scan", "android": "https://dc.lft.to/lastmile_qr_scan"}, "type": "electric_bike", "is_reserved": 0, "is_disabled": 0, "bike_id": "e9c9b9e34fc91a8755a955adaf996c23", "lat": 38.90547016666667, "lon": -77.0414865, "fusion_lat": 0.0, "name": "e9c9b9e34fc91a8755a955adaf996c23"}, {"fusion_lon": 0.0, "rental_uris": {"ios": "https://dc.lft.to/lastmile_qr_scan", "android": "https://dc.lft.to/lastmile_qr_scan"}, "type": "electric_scooter", "is_reserved": 0, "is_disabled": 0, "bike_id": "84f733fc86a06c0df7d6a909d5264d6d", "lat": 38.88706583333333, "lon": -77.01522133333333, "fusion_lat": 0.0, "name": "84f733fc86a06c0df7d6a909d5264d6d"}, {"fusion_lon": 0.0, "rental_uris": {"ios": "https://dc.lft.to/lastmile_qr_scan", "android": "https://dc.lft.to/lastmile_qr_scan"}, "type": "electric_scooter", "is_reserved": 0, "is_disabled": 0, "bike_id": "39bab4f72bb8135aef2b30af5bf13104", "lat": 38.921535666666664, "lon": -77.020888, "fusion_lat": 0.0, "name": "39bab4f72bb8135aef2b30af5bf13104"}, {"fusion_lon": 0.0, "rental_uris": {"ios": "https://dc.lft.to/lastmile_qr_scan", "android": "https://dc.lft.to/lastmile_qr_scan"}, "type": "electric_scooter", "is_reserved": 0, "is_disabled": 0, "bike_id": "91259d11c93faf98a1869d0d6c86bf29", "lat": 38.907278166666664, "lon": -77.04714966666667, "fusion_lat": 0.0, "name": "91259d11c93faf98a1869d0d6c86bf29"}, {"fusion_lon": 0.0, "rental_uris": {"ios": "https://dc.lft.to/lastmile_qr_scan", "android": "https://dc.lft.to/lastmile_qr_scan"}, "type": "electric_scooter", "is_reserved": 0, "is_disabled": 0, "bike_id": "d6c998095255acc17ceda185c5c3d1ef", "lat": 38.90066266666667, "lon": -77.00894966666667, "fusion_lat": 0.0, "name": "d6c998095255acc17ceda185c5c3d1ef"}, {"fusion_lon": 0.0, "rental_uris": {"ios": "https://dc.lft.to/lastmile_qr_scan", "android": "https://dc.lft.to/lastmile_qr_scan"}, "type": "electric_scooter", "is_reserved": 0, "is_disabled": 0, "bike_id": "70906a1fa763ab6a9ec2d153f06c367e", "lat": 38.89750216666667, "lon": -77.01884816666667, "fusion_lat": 0.0, "name": "70906a1fa763ab6a9ec2d153f06c367e"}, {"fusion_lon": 0.0, "rental_uris": {"ios": "https://dc.lft.to/lastmile_qr_scan", "android": "https://dc.lft.to/lastmile_qr_scan"}, "type": "electric_scooter", "is_reserved": 0, "is_disabled": 0, "bike_id": "3ce63f19a47a861fa5e485f50f174241", "lat": 38.91850183333333, "lon": -77.03186883333333, "fusion_lat": 0.0, "name": "3ce63f19a47a861fa5e485f50f174241"}, {"fusion_lon": 0.0, "rental_uris": {"ios": "https://dc.lft.to/lastmile_qr_scan", "android": "https://dc.lft.to/lastmile_qr_scan"}, "type": "electric_scooter", "is_reserved": 0, "is_disabled": 0, "bike_id": "cbdd4dbceeed15cfeedf3c9b9ae30abe", "lat": 38.90248833333333, "lon": -76.98970916666667, "fusion_lat": 0.0, "name": "cbdd4dbceeed15cfeedf3c9b9ae30abe"}, {"fusion_lon": 0.0, "rental_uris": {"ios": "https://dc.lft.to/lastmile_qr_scan", "android": "https://dc.lft.to/lastmile_qr_scan"}, "type": "electric_scooter", "is_reserved": 0, "is_disabled": 0, "bike_id": "9126540a2d22a13cd30a74825c399840", "lat": 38.92239583333333, "lon": -77.028176, "fusion_lat": 0.0, "name": "9126540a2d22a13cd30a74825c399840"}, {"fusion_lon": 0.0, "rental_uris": {"ios": "https://dc.lft.to/lastmile_qr_scan", "android": "https://dc.lft.to/lastmile_qr_scan"}, "type": "electric_scooter", "is_reserved": 0, "is_disabled": 0, "bike_id": "7b9c79f5068be19ac37356fbf79cdd19", "lat": 38.9080335, "lon": -77.08394783333334, "fusion_lat": 0.0, "name": "7b9c79f5068be19ac37356fbf79cdd19"}, {"fusion_lon": 0.0, "rental_uris": {"ios": "https://dc.lft.to/lastmile_qr_scan", "android": "https://dc.lft.to/lastmile_qr_scan"}, "type": "electric_scooter", "is_reserved": 0, "is_disabled": 0, "bike_id": "893584c0a9e75b11e1a9924ffce0f5a8", "lat": 38.924365, "lon": -77.0424475, "fusion_lat": 0.0, "name": "893584c0a9e75b11e1a9924ffce0f5a8"}, {"fusion_lon": 0.0, "rental_uris": {"ios": "https://dc.lft.to/lastmile_qr_scan", "android": "https://dc.lft.to/lastmile_qr_scan"}, "type": "electric_bike", "is_reserved": 0, "is_disabled": 0, "bike_id": "1e511fe87a4d67ae738b13458c7ccade", "lat": 38.8648365, "lon": -76.97749133333333, "fusion_lat": 0.0, "name": "1e511fe87a4d67ae738b13458c7ccade"}, {"fusion_lon": 0.0, "rental_uris": {"ios": "https://dc.lft.to/lastmile_qr_scan", "android": "https://dc.lft.to/lastmile_qr_scan"}, "type": "electric_scooter", "is_reserved": 0, "is_disabled": 0, "bike_id": "9fc0be71678cceac9b3d3678200f57d1", "lat": 38.907355833333334, "lon": -77.02802016666666, "fusion_lat": 0.0, "name": "9fc0be71678cceac9b3d3678200f57d1"}, {"fusion_lon": 0.0, "rental_uris": {"ios": "https://dc.lft.to/lastmile_qr_scan", "android": "https://dc.lft.to/lastmile_qr_scan"}, "type": "electric_scooter", "is_reserved": 0, "is_disabled": 0, "bike_id": "2dfa938f243d22c2bf5fbd4ca0bb5a37", "lat": 38.88488983333333, "lon": -77.03475366666666, "fusion_lat": 0.0, "name": "2dfa938f243d22c2bf5fbd4ca0bb5a37"}, {"fusion_lon": 0.0, "rental_uris": {"ios": "https://dc.lft.to/lastmile_qr_scan", "android": "https://dc.lft.to/lastmile_qr_scan"}, "type": "electric_scooter", "is_reserved": 0, "is_disabled": 0, "bike_id": "39644bc2c2b3dbe9d0b573a560dfca51", "lat": 38.88627, "lon": -77.0177315, "fusion_lat": 0.0, "name": "39644bc2c2b3dbe9d0b573a560dfca51"}, {"fusion_lon": 0.0, "rental_uris": {"ios": "https://dc.lft.to/lastmile_qr_scan", "android": "https://dc.lft.to/lastmile_qr_scan"}, "type": "electric_scooter", "is_reserved": 0, "is_disabled": 0, "bike_id": "e29c39337d70e7e539421fce889eb122", "lat": 38.8922415, "lon": -77.02537116666667, "fusion_lat": 0.0, "name": "e29c39337d70e7e539421fce889eb122"}, {"fusion_lon": 0.0, "rental_uris": {"ios": "https://dc.lft.to/lastmile_qr_scan", "android": "https://dc.lft.to/lastmile_qr_scan"}, "type": "electric_scooter", "is_reserved": 0, "is_disabled": 0, "bike_id": "dc7148f910b5d98b025f18bf51258159", "lat": 38.9443975, "lon": -77.02916683333333, "fusion_lat": 0.0, "name": "dc7148f910b5d98b025f18bf51258159"}, {"fusion_lon": 0.0, "rental_uris": {"ios": "https://dc.lft.to/lastmile_qr_scan", "android": "https://dc.lft.to/lastmile_qr_scan"}, "type": "electric_scooter", "is_reserved": 0, "is_disabled": 0, "bike_id": "ebb6954030078d035b0148741d8fbe5f", "lat": 38.901957, "lon": -77.05081866666667, "fusion_lat": 0.0, "name": "ebb6954030078d035b0148741d8fbe5f"}, {"fusion_lon": 0.0, "rental_uris": {"ios": "https://dc.lft.to/lastmile_qr_scan", "android": "https://dc.lft.to/lastmile_qr_scan"}, "type": "electric_scooter", "is_reserved": 0, "is_disabled": 0, "bike_id": "ee0fca4a714bc844649d83da1aa5aeb2", "lat": 38.924936833333334, "lon": -77.02171983333334, "fusion_lat": 0.0, "name": "ee0fca4a714bc844649d83da1aa5aeb2"}, {"fusion_lon": 0.0, "rental_uris": {"ios": "https://dc.lft.to/lastmile_qr_scan", "android": "https://dc.lft.to/lastmile_qr_scan"}, "type": "electric_bike", "is_reserved": 0, "is_disabled": 0, "bike_id": "7eec513268e771e34e4a5e9911f1abc9", "lat": 38.955415333333335, "lon": -76.968572, "fusion_lat": 0.0, "name": "7eec513268e771e34e4a5e9911f1abc9"}, {"fusion_lon": 0.0, "rental_uris": {"ios": "https://dc.lft.to/lastmile_qr_scan", "android": "https://dc.lft.to/lastmile_qr_scan"}, "type": "electric_scooter", "is_reserved": 0, "is_disabled": 0, "bike_id": "c3f93248e28a98e4d3116ca9215e5288", "lat": 38.89977016666667, "lon": -77.02192866666667, "fusion_lat": 0.0, "name": "c3f93248e28a98e4d3116ca9215e5288"}, {"fusion_lon": 0.0, "rental_uris": {"ios": "https://dc.lft.to/lastmile_qr_scan", "android": "https://dc.lft.to/lastmile_qr_scan"}, "type": "electric_scooter", "is_reserved": 0, "is_disabled": 0, "bike_id": "174a3de86e773eb24ae07d35bb20acac", "lat": 38.914042333333335, "lon": -77.01804766666666, "fusion_lat": 0.0, "name": "174a3de86e773eb24ae07d35bb20acac"}, {"fusion_lon": 0.0, "rental_uris": {"ios": "https://dc.lft.to/lastmile_qr_scan", "android": "https://dc.lft.to/lastmile_qr_scan"}, "type": "electric_scooter", "is_reserved": 0, "is_disabled": 0, "bike_id": "5fa321c48878fac36402d6e922bd6b31", "lat": 38.9224895, "lon": -77.03891733333333, "fusion_lat": 0.0, "name": "5fa321c48878fac36402d6e922bd6b31"}, {"fusion_lon": 0.0, "rental_uris": {"ios": "https://dc.lft.to/lastmile_qr_scan", "android": "https://dc.lft.to/lastmile_qr_scan"}, "type": "electric_scooter", "is_reserved": 0, "is_disabled": 0, "bike_id": "cef3a0f41793f02b9c6af89a998815cb", "lat": 38.93403283333333, "lon": -77.04122816666667, "fusion_lat": 0.0, "name": "cef3a0f41793f02b9c6af89a998815cb"}, {"fusion_lon": 0.0, "rental_uris": {"ios": "https://dc.lft.to/lastmile_qr_scan", "android": "https://dc.lft.to/lastmile_qr_scan"}, "type": "electric_bike", "is_reserved": 0, "is_disabled": 0, "bike_id": "75ddb43aaddf534092af7dc3b6803d4b", "lat": 38.83867883333333, "lon": -76.99697933333333, "fusion_lat": 0.0, "name": "75ddb43aaddf534092af7dc3b6803d4b"}, {"fusion_lon": 0.0, "rental_uris": {"ios": "https://dc.lft.to/lastmile_qr_scan", "android": "https://dc.lft.to/lastmile_qr_scan"}, "type": "electric_scooter", "is_reserved": 0, "is_disabled": 0, "bike_id": "2b095e37ba732ace915f761926e18d20", "lat": 38.899619666666666, "lon": -77.01623866666667, "fusion_lat": 0.0, "name": "2b095e37ba732ace915f761926e18d20"}, {"fusion_lon": 0.0, "rental_uris": {"ios": "https://dc.lft.to/lastmile_qr_scan", "android": "https://dc.lft.to/lastmile_qr_scan"}, "type": "electric_scooter", "is_reserved": 0, "is_disabled": 0, "bike_id": "b86b49df8a4aa464968f7a6e65251a49", "lat": 38.9232285, "lon": -77.03860616666667, "fusion_lat": 0.0, "name": "b86b49df8a4aa464968f7a6e65251a49"}, {"fusion_lon": 0.0, "rental_uris": {"ios": "https://dc.lft.to/lastmile_qr_scan", "android": "https://dc.lft.to/lastmile_qr_scan"}, "type": "electric_scooter", "is_reserved": 0, "is_disabled": 0, "bike_id": "827d6d68249bfe9fde39708acdf69131", "lat": 38.924327, "lon": -77.022473, "fusion_lat": 0.0, "name": "827d6d68249bfe9fde39708acdf69131"}, {"fusion_lon": 0.0, "rental_uris": {"ios": "https://dc.lft.to/lastmile_qr_scan", "android": "https://dc.lft.to/lastmile_qr_scan"}, "type": "electric_scooter", "is_reserved": 0, "is_disabled": 0, "bike_id": "c75338b5203c26783612a702bce8db66", "lat": 38.902706333333334, "lon": -77.02648216666667, "fusion_lat": 0.0, "name": "c75338b5203c26783612a702bce8db66"}, {"fusion_lon": 0.0, "rental_uris": {"ios": "https://dc.lft.to/lastmile_qr_scan", "android": "https://dc.lft.to/lastmile_qr_scan"}, "type": "electric_bike", "is_reserved": 0, "is_disabled": 0, "bike_id": "e9c0af9429ad0f58309e31165aebcd7f", "lat": 38.8984655, "lon": -77.04667866666666, "fusion_lat": 0.0, "name": "e9c0af9429ad0f58309e31165aebcd7f"}, {"fusion_lon": 0.0, "rental_uris": {"ios": "https://dc.lft.to/lastmile_qr_scan", "android": "https://dc.lft.to/lastmile_qr_scan"}, "type": "electric_scooter", "is_reserved": 0, "is_disabled": 0, "bike_id": "389a26df90ddb7d98709759b80f5d9d9", "lat": 38.90348816666667, "lon": -76.929442, "fusion_lat": 0.0, "name": "389a26df90ddb7d98709759b80f5d9d9"}, {"fusion_lon": 0.0, "rental_uris": {"ios": "https://dc.lft.to/lastmile_qr_scan", "android": "https://dc.lft.to/lastmile_qr_scan"}, "type": "electric_scooter", "is_reserved": 0, "is_disabled": 0, "bike_id": "889d47654ba98bf5fafca87961d07a80", "lat": 38.903966, "lon": -77.043635, "fusion_lat": 0.0, "name": "889d47654ba98bf5fafca87961d07a80"}, {"fusion_lon": 0.0, "rental_uris": {"ios": "https://dc.lft.to/lastmile_qr_scan", "android": "https://dc.lft.to/lastmile_qr_scan"}, "type": "electric_scooter", "is_reserved": 0, "is_disabled": 0, "bike_id": "a95e5d23e98a92b0496f176ac302b837", "lat": 38.905113, "lon": -77.041642, "fusion_lat": 0.0, "name": "a95e5d23e98a92b0496f176ac302b837"}, {"fusion_lon": 0.0, "rental_uris": {"ios": "https://dc.lft.to/lastmile_qr_scan", "android": "https://dc.lft.to/lastmile_qr_scan"}, "type": "electric_scooter", "is_reserved": 0, "is_disabled": 0, "bike_id": "a818143677fb8f96c8109b42073ccd89", "lat": 38.889711, "lon": -77.040198, "fusion_lat": 0.0, "name": "a818143677fb8f96c8109b42073ccd89"}, {"fusion_lon": 0.0, "rental_uris": {"ios": "https://dc.lft.to/lastmile_qr_scan", "android": "https://dc.lft.to/lastmile_qr_scan"}, "type": "electric_scooter", "is_reserved": 0, "is_disabled": 0, "bike_id": "bc254f4b451f171d38b23e89c9d40805", "lat": 38.905803666666664, "lon": -77.03451, "fusion_lat": 0.0, "name": "bc254f4b451f171d38b23e89c9d40805"}, {"fusion_lon": 0.0, "rental_uris": {"ios": "https://dc.lft.to/lastmile_qr_scan", "android": "https://dc.lft.to/lastmile_qr_scan"}, "type": "electric_scooter", "is_reserved": 0, "is_disabled": 0, "bike_id": "894282b65b3acbeba612735921f2872e", "lat": 38.920826, "lon": -77.02514433333333, "fusion_lat": 0.0, "name": "894282b65b3acbeba612735921f2872e"}, {"fusion_lon": 0.0, "rental_uris": {"ios": "https://dc.lft.to/lastmile_qr_scan", "android": "https://dc.lft.to/lastmile_qr_scan"}, "type": "electric_scooter", "is_reserved": 0, "is_disabled": 0, "bike_id": "dfc7227bcc078355466d70e8c2d0150d", "lat": 38.87785216666666, "lon": -76.994069, "fusion_lat": 0.0, "name": "dfc7227bcc078355466d70e8c2d0150d"}, {"fusion_lon": 0.0, "rental_uris": {"ios": "https://dc.lft.to/lastmile_qr_scan", "android": "https://dc.lft.to/lastmile_qr_scan"}, "type": "electric_scooter", "is_reserved": 0, "is_disabled": 0, "bike_id": "a5d5dd421a7d0e413edc81d6b41d48e6", "lat": 38.9098495, "lon": -77.0660095, "fusion_lat": 0.0, "name": "a5d5dd421a7d0e413edc81d6b41d48e6"}, {"fusion_lon": 0.0, "rental_uris": {"ios": "https://dc.lft.to/lastmile_qr_scan", "android": "https://dc.lft.to/lastmile_qr_scan"}, "type": "electric_scooter", "is_reserved": 0, "is_disabled": 0, "bike_id": "f40c516770017de830f317489a67bf7e", "lat": 38.9111925, "lon": -77.05034716666667, "fusion_lat": 0.0, "name": "f40c516770017de830f317489a67bf7e"}, {"fusion_lon": 0.0, "rental_uris": {"ios": "https://dc.lft.to/lastmile_qr_scan", "android": "https://dc.lft.to/lastmile_qr_scan"}, "type": "electric_scooter", "is_reserved": 0, "is_disabled": 0, "bike_id": "01ab1f48083418c2ab20d9cb973746d5", "lat": 38.9180615, "lon": -77.02431133333333, "fusion_lat": 0.0, "name": "01ab1f48083418c2ab20d9cb973746d5"}, {"fusion_lon": 0.0, "rental_uris": {"ios": "https://dc.lft.to/lastmile_qr_scan", "android": "https://dc.lft.to/lastmile_qr_scan"}, "type": "electric_scooter", "is_reserved": 0, "is_disabled": 0, "bike_id": "b92056684eb1f9ae3067fe7c3723efdc", "lat": 38.89634433333333, "lon": -76.92958966666667, "fusion_lat": 0.0, "name": "b92056684eb1f9ae3067fe7c3723efdc"}, {"fusion_lon": 0.0, "rental_uris": {"ios": "https://dc.lft.to/lastmile_qr_scan", "android": "https://dc.lft.to/lastmile_qr_scan"}, "type": "electric_scooter", "is_reserved": 0, "is_disabled": 0, "bike_id": "9040857f53d2899ae61a4d0c20e4741c", "lat": 38.903456, "lon": -76.98611233333334, "fusion_lat": 0.0, "name": "9040857f53d2899ae61a4d0c20e4741c"}, {"fusion_lon": 0.0, "rental_uris": {"ios": "https://dc.lft.to/lastmile_qr_scan", "android": "https://dc.lft.to/lastmile_qr_scan"}, "type": "electric_scooter", "is_reserved": 0, "is_disabled": 0, "bike_id": "1747b25f3b529a8e702a6766f8d51ba1", "lat": 38.892325166666666, "lon": -77.04994816666667, "fusion_lat": 0.0, "name": "1747b25f3b529a8e702a6766f8d51ba1"}, {"fusion_lon": 0.0, "rental_uris": {"ios": "https://dc.lft.to/lastmile_qr_scan", "android": "https://dc.lft.to/lastmile_qr_scan"}, "type": "electric_scooter", "is_reserved": 0, "is_disabled": 0, "bike_id": "30bcd7514389178403ea35e1c5587a4d", "lat": 38.88823466666667, "lon": -76.97718083333334, "fusion_lat": 0.0, "name": "30bcd7514389178403ea35e1c5587a4d"}, {"fusion_lon": 0.0, "rental_uris": {"ios": "https://dc.lft.to/lastmile_qr_scan", "android": "https://dc.lft.to/lastmile_qr_scan"}, "type": "electric_bike", "is_reserved": 0, "is_disabled": 0, "bike_id": "496cc4218c5ff66dea14d2daa8acbb62", "lat": 38.865799333333335, "lon": -77.129322, "fusion_lat": 0.0, "name": "496cc4218c5ff66dea14d2daa8acbb62"}, {"fusion_lon": 0.0, "rental_uris": {"ios": "https://dc.lft.to/lastmile_qr_scan", "android": "https://dc.lft.to/lastmile_qr_scan"}, "type": "electric_scooter", "is_reserved": 0, "is_disabled": 0, "bike_id": "b88532c116ed8d72bfd0db0ed95cf8f6", "lat": 38.892223, "lon": -77.02161516666666, "fusion_lat": 0.0, "name": "b88532c116ed8d72bfd0db0ed95cf8f6"}, {"fusion_lon": 0.0, "rental_uris": {"ios": "https://dc.lft.to/lastmile_qr_scan", "android": "https://dc.lft.to/lastmile_qr_scan"}, "type": "electric_bike", "is_reserved": 0, "is_disabled": 0, "bike_id": "59b0c996feb753a148e95ea67a7547e5", "lat": 38.86265233333334, "lon": -76.98350716666667, "fusion_lat": 0.0, "name": "59b0c996feb753a148e95ea67a7547e5"}, {"fusion_lon": 0.0, "rental_uris": {"ios": "https://dc.lft.to/lastmile_qr_scan", "android": "https://dc.lft.to/lastmile_qr_scan"}, "type": "electric_scooter", "is_reserved": 0, "is_disabled": 0, "bike_id": "a0fcc37ae9dae72b615c346c298d63d5", "lat": 38.92475133333333, "lon": -77.022151, "fusion_lat": 0.0, "name": "a0fcc37ae9dae72b615c346c298d63d5"}, {"fusion_lon": 0.0, "rental_uris": {"ios": "https://dc.lft.to/lastmile_qr_scan", "android": "https://dc.lft.to/lastmile_qr_scan"}, "type": "electric_scooter", "is_reserved": 0, "is_disabled": 0, "bike_id": "189fc8c874ede3d7d557a90e31d9cbb3", "lat": 38.898599, "lon": -77.0200565, "fusion_lat": 0.0, "name": "189fc8c874ede3d7d557a90e31d9cbb3"}, {"fusion_lon": 0.0, "rental_uris": {"ios": "https://dc.lft.to/lastmile_qr_scan", "android": "https://dc.lft.to/lastmile_qr_scan"}, "type": "electric_scooter", "is_reserved": 0, "is_disabled": 0, "bike_id": "af91e043213ce2d55685cf1ec5f0d133", "lat": 38.9198405, "lon": -77.03792816666666, "fusion_lat": 0.0, "name": "af91e043213ce2d55685cf1ec5f0d133"}, {"fusion_lon": 0.0, "rental_uris": {"ios": "https://dc.lft.to/lastmile_qr_scan", "android": "https://dc.lft.to/lastmile_qr_scan"}, "type": "electric_scooter", "is_reserved": 0, "is_disabled": 0, "bike_id": "a6da1ba32c7fc05731a38f9020e55ee3", "lat": 38.92676766666666, "lon": -77.01480116666667, "fusion_lat": 0.0, "name": "a6da1ba32c7fc05731a38f9020e55ee3"}, {"fusion_lon": 0.0, "rental_uris": {"ios": "https://dc.lft.to/lastmile_qr_scan", "android": "https://dc.lft.to/lastmile_qr_scan"}, "type": "electric_scooter", "is_reserved": 0, "is_disabled": 0, "bike_id": "e6938b8f927c65140538dd546fb44719", "lat": 38.89619966666667, "lon": -77.0225015, "fusion_lat": 0.0, "name": "e6938b8f927c65140538dd546fb44719"}, {"fusion_lon": 0.0, "rental_uris": {"ios": "https://dc.lft.to/lastmile_qr_scan", "android": "https://dc.lft.to/lastmile_qr_scan"}, "type": "electric_scooter", "is_reserved": 0, "is_disabled": 0, "bike_id": "8695fe1c406d09909d7f01bb849459c5", "lat": 38.88109083333333, "lon": -77.0265545, "fusion_lat": 0.0, "name": "8695fe1c406d09909d7f01bb849459c5"}, {"fusion_lon": 0.0, "rental_uris": {"ios": "https://dc.lft.to/lastmile_qr_scan", "android": "https://dc.lft.to/lastmile_qr_scan"}, "type": "electric_scooter", "is_reserved": 0, "is_disabled": 0, "bike_id": "5602b84b8adf94ccdfcaca6b6ec1b983", "lat": 38.92207966666667, "lon": -76.99433583333334, "fusion_lat": 0.0, "name": "5602b84b8adf94ccdfcaca6b6ec1b983"}, {"fusion_lon": 0.0, "rental_uris": {"ios": "https://dc.lft.to/lastmile_qr_scan", "android": "https://dc.lft.to/lastmile_qr_scan"}, "type": "electric_scooter", "is_reserved": 0, "is_disabled": 0, "bike_id": "0066c9cc8a67d210be63d005c5ec2a57", "lat": 38.92170933333333, "lon": -77.0267255, "fusion_lat": 0.0, "name": "0066c9cc8a67d210be63d005c5ec2a57"}, {"fusion_lon": 0.0, "rental_uris": {"ios": "https://dc.lft.to/lastmile_qr_scan", "android": "https://dc.lft.to/lastmile_qr_scan"}, "type": "electric_scooter", "is_reserved": 0, "is_disabled": 0, "bike_id": "8604ccfba9e12a054a65dd30fd89daa8", "lat": 38.934712, "lon": -76.98871283333334, "fusion_lat": 0.0, "name": "8604ccfba9e12a054a65dd30fd89daa8"}, {"fusion_lon": 0.0, "rental_uris": {"ios": "https://dc.lft.to/lastmile_qr_scan", "android": "https://dc.lft.to/lastmile_qr_scan"}, "type": "electric_scooter", "is_reserved": 0, "is_disabled": 0, "bike_id": "78438592397906444debf4bff9e62a3d", "lat": 38.89924366666666, "lon": -77.03917216666666, "fusion_lat": 0.0, "name": "78438592397906444debf4bff9e62a3d"}, {"fusion_lon": 0.0, "rental_uris": {"ios": "https://dc.lft.to/lastmile_qr_scan", "android": "https://dc.lft.to/lastmile_qr_scan"}, "type": "electric_scooter", "is_reserved": 0, "is_disabled": 0, "bike_id": "d36c60c269335d426695ab6099439e66", "lat": 38.90736483333333, "lon": -77.034489, "fusion_lat": 0.0, "name": "d36c60c269335d426695ab6099439e66"}, {"fusion_lon": 0.0, "rental_uris": {"ios": "https://dc.lft.to/lastmile_qr_scan", "android": "https://dc.lft.to/lastmile_qr_scan"}, "type": "electric_scooter", "is_reserved": 0, "is_disabled": 0, "bike_id": "e3cad56849abae60f8d54e1721fe50f3", "lat": 38.94500383333333, "lon": -77.02840016666667, "fusion_lat": 0.0, "name": "e3cad56849abae60f8d54e1721fe50f3"}, {"fusion_lon": 0.0, "rental_uris": {"ios": "https://dc.lft.to/lastmile_qr_scan", "android": "https://dc.lft.to/lastmile_qr_scan"}, "type": "electric_scooter", "is_reserved": 0, "is_disabled": 0, "bike_id": "a74ff1623b048bba16b98839fae2d17c", "lat": 38.892271, "lon": -77.02536066666667, "fusion_lat": 0.0, "name": "a74ff1623b048bba16b98839fae2d17c"}, {"fusion_lon": 0.0, "rental_uris": {"ios": "https://dc.lft.to/lastmile_qr_scan", "android": "https://dc.lft.to/lastmile_qr_scan"}, "type": "electric_scooter", "is_reserved": 0, "is_disabled": 0, "bike_id": "e82ddbbaa1bf5952b62f91c17086a289", "lat": 38.902553166666664, "lon": -77.03341316666666, "fusion_lat": 0.0, "name": "e82ddbbaa1bf5952b62f91c17086a289"}, {"fusion_lon": 0.0, "rental_uris": {"ios": "https://dc.lft.to/lastmile_qr_scan", "android": "https://dc.lft.to/lastmile_qr_scan"}, "type": "electric_scooter", "is_reserved": 0, "is_disabled": 0, "bike_id": "d37de400c30c8116062da784d8d47892", "lat": 38.92058983333333, "lon": -77.0230315, "fusion_lat": 0.0, "name": "d37de400c30c8116062da784d8d47892"}, {"fusion_lon": 0.0, "rental_uris": {"ios": "https://dc.lft.to/lastmile_qr_scan", "android": "https://dc.lft.to/lastmile_qr_scan"}, "type": "electric_scooter", "is_reserved": 0, "is_disabled": 0, "bike_id": "286070b2b0ede6636d7a7d87f6a7b192", "lat": 38.916613166666664, "lon": -77.02569583333333, "fusion_lat": 0.0, "name": "286070b2b0ede6636d7a7d87f6a7b192"}, {"fusion_lon": 0.0, "rental_uris": {"ios": "https://dc.lft.to/lastmile_qr_scan", "android": "https://dc.lft.to/lastmile_qr_scan"}, "type": "electric_scooter", "is_reserved": 0, "is_disabled": 0, "bike_id": "bed5a4cdb9a418617d40bbf153a10cd8", "lat": 38.9248025, "lon": -77.02223816666667, "fusion_lat": 0.0, "name": "bed5a4cdb9a418617d40bbf153a10cd8"}, {"fusion_lon": 0.0, "rental_uris": {"ios": "https://dc.lft.to/lastmile_qr_scan", "android": "https://dc.lft.to/lastmile_qr_scan"}, "type": "electric_scooter", "is_reserved": 0, "is_disabled": 0, "bike_id": "97d3369d81a4f4dc11b3e34675edbc5d", "lat": 38.91239266666667, "lon": -76.98672233333333, "fusion_lat": 0.0, "name": "97d3369d81a4f4dc11b3e34675edbc5d"}, {"fusion_lon": 0.0, "rental_uris": {"ios": "https://dc.lft.to/lastmile_qr_scan", "android": "https://dc.lft.to/lastmile_qr_scan"}, "type": "electric_bike", "is_reserved": 0, "is_disabled": 0, "bike_id": "65b79d8fe5503c946ed18e1506a6cb52", "lat": 39.01577483333333, "lon": -77.0430915, "fusion_lat": 0.0, "name": "65b79d8fe5503c946ed18e1506a6cb52"}, {"fusion_lon": 0.0, "rental_uris": {"ios": "https://dc.lft.to/lastmile_qr_scan", "android": "https://dc.lft.to/lastmile_qr_scan"}, "type": "electric_scooter", "is_reserved": 0, "is_disabled": 0, "bike_id": "37fc71087896a0adbd7950644cc27b6a", "lat": 38.903511333333334, "lon": -77.03440066666667, "fusion_lat": 0.0, "name": "37fc71087896a0adbd7950644cc27b6a"}, {"fusion_lon": 0.0, "rental_uris": {"ios": "https://dc.lft.to/lastmile_qr_scan", "android": "https://dc.lft.to/lastmile_qr_scan"}, "type": "electric_scooter", "is_reserved": 0, "is_disabled": 0, "bike_id": "47e430ed52e50a86f1029bc1164d560d", "lat": 38.899860833333335, "lon": -77.0066165, "fusion_lat": 0.0, "name": "47e430ed52e50a86f1029bc1164d560d"}, {"fusion_lon": 0.0, "rental_uris": {"ios": "https://dc.lft.to/lastmile_qr_scan", "android": "https://dc.lft.to/lastmile_qr_scan"}, "type": "electric_scooter", "is_reserved": 0, "is_disabled": 0, "bike_id": "2230ad472b2e659bd291ccd268bd3367", "lat": 38.905185333333336, "lon": -77.0637835, "fusion_lat": 0.0, "name": "2230ad472b2e659bd291ccd268bd3367"}, {"fusion_lon": 0.0, "rental_uris": {"ios": "https://dc.lft.to/lastmile_qr_scan", "android": "https://dc.lft.to/lastmile_qr_scan"}, "type": "electric_scooter", "is_reserved": 0, "is_disabled": 0, "bike_id": "9ce56b3d20ea1906df339d8bd6c1ff6b", "lat": 38.883839333333334, "lon": -77.03170216666666, "fusion_lat": 0.0, "name": "9ce56b3d20ea1906df339d8bd6c1ff6b"}, {"fusion_lon": 0.0, "rental_uris": {"ios": "https://dc.lft.to/lastmile_qr_scan", "android": "https://dc.lft.to/lastmile_qr_scan"}, "type": "electric_scooter", "is_reserved": 0, "is_disabled": 0, "bike_id": "a2d55b1b5fe34dc078bd1fadc8685e1f", "lat": 38.93251866666667, "lon": -77.02947716666667, "fusion_lat": 0.0, "name": "a2d55b1b5fe34dc078bd1fadc8685e1f"}, {"fusion_lon": 0.0, "rental_uris": {"ios": "https://dc.lft.to/lastmile_qr_scan", "android": "https://dc.lft.to/lastmile_qr_scan"}, "type": "electric_scooter", "is_reserved": 0, "is_disabled": 0, "bike_id": "36038b4ffa8b4a4e3991f10d8687ce71", "lat": 38.92890666666667, "lon": -77.032427, "fusion_lat": 0.0, "name": "36038b4ffa8b4a4e3991f10d8687ce71"}, {"fusion_lon": 0.0, "rental_uris": {"ios": "https://dc.lft.to/lastmile_qr_scan", "android": "https://dc.lft.to/lastmile_qr_scan"}, "type": "electric_scooter", "is_reserved": 0, "is_disabled": 0, "bike_id": "5c02ca955c7d8efa571893420ee29d3e", "lat": 38.876841666666664, "lon": -77.00354883333333, "fusion_lat": 0.0, "name": "5c02ca955c7d8efa571893420ee29d3e"}, {"fusion_lon": 0.0, "rental_uris": {"ios": "https://dc.lft.to/lastmile_qr_scan", "android": "https://dc.lft.to/lastmile_qr_scan"}, "type": "electric_scooter", "is_reserved": 0, "is_disabled": 0, "bike_id": "aa7259465280efdd7a0f09c8a14bfe10", "lat": 38.90384183333333, "lon": -77.03072966666667, "fusion_lat": 0.0, "name": "aa7259465280efdd7a0f09c8a14bfe10"}, {"fusion_lon": 0.0, "rental_uris": {"ios": "https://dc.lft.to/lastmile_qr_scan", "android": "https://dc.lft.to/lastmile_qr_scan"}, "type": "electric_scooter", "is_reserved": 0, "is_disabled": 0, "bike_id": "a745c1f1356c3d9d3d297eeff704f2ed", "lat": 38.90695, "lon": -77.04338716666666, "fusion_lat": 0.0, "name": "a745c1f1356c3d9d3d297eeff704f2ed"}, {"fusion_lon": 0.0, "rental_uris": {"ios": "https://dc.lft.to/lastmile_qr_scan", "android": "https://dc.lft.to/lastmile_qr_scan"}, "type": "electric_scooter", "is_reserved": 0, "is_disabled": 0, "bike_id": "6f958f9fc5e6c2d3fac828da23c90dc5", "lat": 38.90032083333333, "lon": -76.98859333333333, "fusion_lat": 0.0, "name": "6f958f9fc5e6c2d3fac828da23c90dc5"}, {"fusion_lon": 0.0, "rental_uris": {"ios": "https://dc.lft.to/lastmile_qr_scan", "android": "https://dc.lft.to/lastmile_qr_scan"}, "type": "electric_scooter", "is_reserved": 0, "is_disabled": 0, "bike_id": "766bd43314686e23aefd5d15aab5c517", "lat": 38.9233935, "lon": -77.04634733333333, "fusion_lat": 0.0, "name": "766bd43314686e23aefd5d15aab5c517"}, {"fusion_lon": 0.0, "rental_uris": {"ios": "https://dc.lft.to/lastmile_qr_scan", "android": "https://dc.lft.to/lastmile_qr_scan"}, "type": "electric_scooter", "is_reserved": 0, "is_disabled": 0, "bike_id": "096a9465289d0da177442af7ac15a885", "lat": 38.883551, "lon": -76.95768233333334, "fusion_lat": 0.0, "name": "096a9465289d0da177442af7ac15a885"}, {"fusion_lon": 0.0, "rental_uris": {"ios": "https://dc.lft.to/lastmile_qr_scan", "android": "https://dc.lft.to/lastmile_qr_scan"}, "type": "electric_scooter", "is_reserved": 0, "is_disabled": 0, "bike_id": "af0a83aa096a5e87a8e8fedf14355368", "lat": 38.902679166666665, "lon": -77.028256, "fusion_lat": 0.0, "name": "af0a83aa096a5e87a8e8fedf14355368"}, {"fusion_lon": 0.0, "rental_uris": {"ios": "https://dc.lft.to/lastmile_qr_scan", "android": "https://dc.lft.to/lastmile_qr_scan"}, "type": "electric_bike", "is_reserved": 0, "is_disabled": 0, "bike_id": "3e491a557d43947e151def9097d76cc5", "lat": 38.8306585, "lon": -77.04080433333333, "fusion_lat": 0.0, "name": "3e491a557d43947e151def9097d76cc5"}, {"fusion_lon": 0.0, "rental_uris": {"ios": "https://dc.lft.to/lastmile_qr_scan", "android": "https://dc.lft.to/lastmile_qr_scan"}, "type": "electric_bike", "is_reserved": 0, "is_disabled": 0, "bike_id": "059f0419e9323a6d0b781565feac3322", "lat": 38.92113366666667, "lon": -76.98879433333333, "fusion_lat": 0.0, "name": "059f0419e9323a6d0b781565feac3322"}, {"fusion_lon": 0.0, "rental_uris": {"ios": "https://dc.lft.to/lastmile_qr_scan", "android": "https://dc.lft.to/lastmile_qr_scan"}, "type": "electric_scooter", "is_reserved": 0, "is_disabled": 0, "bike_id": "3efddbc7dd5b6a92dcdc685d51f84cf8", "lat": 38.919298833333336, "lon": -77.0311725, "fusion_lat": 0.0, "name": "3efddbc7dd5b6a92dcdc685d51f84cf8"}, {"fusion_lon": 0.0, "rental_uris": {"ios": "https://dc.lft.to/lastmile_qr_scan", "android": "https://dc.lft.to/lastmile_qr_scan"}, "type": "electric_scooter", "is_reserved": 0, "is_disabled": 0, "bike_id": "80a5685bf5ca5ef28351e7cfe8f9798d", "lat": 38.93101133333333, "lon": -77.02664766666666, "fusion_lat": 0.0, "name": "80a5685bf5ca5ef28351e7cfe8f9798d"}, {"fusion_lon": 0.0, "rental_uris": {"ios": "https://dc.lft.to/lastmile_qr_scan", "android": "https://dc.lft.to/lastmile_qr_scan"}, "type": "electric_scooter", "is_reserved": 0, "is_disabled": 0, "bike_id": "752eb6debe32296216b065965941bf53", "lat": 38.903079, "lon": -77.03655983333333, "fusion_lat": 0.0, "name": "752eb6debe32296216b065965941bf53"}, {"fusion_lon": 0.0, "rental_uris": {"ios": "https://dc.lft.to/lastmile_qr_scan", "android": "https://dc.lft.to/lastmile_qr_scan"}, "type": "electric_scooter", "is_reserved": 0, "is_disabled": 0, "bike_id": "ab16d6ce6a81f361a72cc06800fdb048", "lat": 38.88729983333333, "lon": -77.0258075, "fusion_lat": 0.0, "name": "ab16d6ce6a81f361a72cc06800fdb048"}, {"fusion_lon": 0.0, "rental_uris": {"ios": "https://dc.lft.to/lastmile_qr_scan", "android": "https://dc.lft.to/lastmile_qr_scan"}, "type": "electric_scooter", "is_reserved": 0, "is_disabled": 0, "bike_id": "c4b90087328fccd074008ec90de62419", "lat": 38.90132916666666, "lon": -77.03862283333333, "fusion_lat": 0.0, "name": "c4b90087328fccd074008ec90de62419"}, {"fusion_lon": 0.0, "rental_uris": {"ios": "https://dc.lft.to/lastmile_qr_scan", "android": "https://dc.lft.to/lastmile_qr_scan"}, "type": "electric_scooter", "is_reserved": 0, "is_disabled": 0, "bike_id": "33ee0d7d01d1824ae9823d5d6018488d", "lat": 38.94005, "lon": -77.0274395, "fusion_lat": 0.0, "name": "33ee0d7d01d1824ae9823d5d6018488d"}, {"fusion_lon": 0.0, "rental_uris": {"ios": "https://dc.lft.to/lastmile_qr_scan", "android": "https://dc.lft.to/lastmile_qr_scan"}, "type": "electric_scooter", "is_reserved": 0, "is_disabled": 0, "bike_id": "ea937a6819624114f8dd76387ebe6a2d", "lat": 38.9060655, "lon": -77.0513425, "fusion_lat": 0.0, "name": "ea937a6819624114f8dd76387ebe6a2d"}, {"fusion_lon": 0.0, "rental_uris": {"ios": "https://dc.lft.to/lastmile_qr_scan", "android": "https://dc.lft.to/lastmile_qr_scan"}, "type": "electric_scooter", "is_reserved": 0, "is_disabled": 0, "bike_id": "b11bccaf2393b5f2844ba42fe1fa5ce7", "lat": 38.886106, "lon": -77.03106, "fusion_lat": 0.0, "name": "b11bccaf2393b5f2844ba42fe1fa5ce7"}, {"fusion_lon": 0.0, "rental_uris": {"ios": "https://dc.lft.to/lastmile_qr_scan", "android": "https://dc.lft.to/lastmile_qr_scan"}, "type": "electric_scooter", "is_reserved": 0, "is_disabled": 0, "bike_id": "cf5079c0d3b1b2548e27d53ae8649b93", "lat": 38.9389815, "lon": -77.03335083333333, "fusion_lat": 0.0, "name": "cf5079c0d3b1b2548e27d53ae8649b93"}, {"fusion_lon": 0.0, "rental_uris": {"ios": "https://dc.lft.to/lastmile_qr_scan", "android": "https://dc.lft.to/lastmile_qr_scan"}, "type": "electric_scooter", "is_reserved": 0, "is_disabled": 0, "bike_id": "30daef11ed217af71e40c750fea19173", "lat": 38.9043005, "lon": -77.0289605, "fusion_lat": 0.0, "name": "30daef11ed217af71e40c750fea19173"}, {"fusion_lon": 0.0, "rental_uris": {"ios": "https://dc.lft.to/lastmile_qr_scan", "android": "https://dc.lft.to/lastmile_qr_scan"}, "type": "electric_scooter", "is_reserved": 0, "is_disabled": 0, "bike_id": "283f3bc3f31a24d79b6281e9a7c4400e", "lat": 38.899687666666665, "lon": -77.01609883333333, "fusion_lat": 0.0, "name": "283f3bc3f31a24d79b6281e9a7c4400e"}, {"fusion_lon": 0.0, "rental_uris": {"ios": "https://dc.lft.to/lastmile_qr_scan", "android": "https://dc.lft.to/lastmile_qr_scan"}, "type": "electric_scooter", "is_reserved": 0, "is_disabled": 0, "bike_id": "500ac2cc02f10ce5dbeb64759c8dcee7", "lat": 38.898297666666664, "lon": -77.0424165, "fusion_lat": 0.0, "name": "500ac2cc02f10ce5dbeb64759c8dcee7"}, {"fusion_lon": 0.0, "rental_uris": {"ios": "https://dc.lft.to/lastmile_qr_scan", "android": "https://dc.lft.to/lastmile_qr_scan"}, "type": "electric_scooter", "is_reserved": 0, "is_disabled": 0, "bike_id": "2af8795607c3ecf9bb5cf94e264ce5e3", "lat": 38.910394833333335, "lon": -76.99744183333334, "fusion_lat": 0.0, "name": "2af8795607c3ecf9bb5cf94e264ce5e3"}, {"fusion_lon": 0.0, "rental_uris": {"ios": "https://dc.lft.to/lastmile_qr_scan", "android": "https://dc.lft.to/lastmile_qr_scan"}, "type": "electric_scooter", "is_reserved": 0, "is_disabled": 0, "bike_id": "9cc7e9e2111532bf7cbed0823c61152d", "lat": 38.90258716666666, "lon": -76.99514066666667, "fusion_lat": 0.0, "name": "9cc7e9e2111532bf7cbed0823c61152d"}, {"fusion_lon": 0.0, "rental_uris": {"ios": "https://dc.lft.to/lastmile_qr_scan", "android": "https://dc.lft.to/lastmile_qr_scan"}, "type": "electric_scooter", "is_reserved": 0, "is_disabled": 0, "bike_id": "240d1df8b5f0565fa74706f55f067093", "lat": 38.8994275, "lon": -77.043581, "fusion_lat": 0.0, "name": "240d1df8b5f0565fa74706f55f067093"}, {"fusion_lon": 0.0, "rental_uris": {"ios": "https://dc.lft.to/lastmile_qr_scan", "android": "https://dc.lft.to/lastmile_qr_scan"}, "type": "electric_scooter", "is_reserved": 0, "is_disabled": 0, "bike_id": "3ddaf518ef16dff4640e51d0137445df", "lat": 38.87684566666667, "lon": -77.0068465, "fusion_lat": 0.0, "name": "3ddaf518ef16dff4640e51d0137445df"}, {"fusion_lon": 0.0, "rental_uris": {"ios": "https://dc.lft.to/lastmile_qr_scan", "android": "https://dc.lft.to/lastmile_qr_scan"}, "type": "electric_scooter", "is_reserved": 0, "is_disabled": 0, "bike_id": "1da6493ac21970455727f263ea532086", "lat": 38.90686316666667, "lon": -77.0420465, "fusion_lat": 0.0, "name": "1da6493ac21970455727f263ea532086"}, {"fusion_lon": 0.0, "rental_uris": {"ios": "https://dc.lft.to/lastmile_qr_scan", "android": "https://dc.lft.to/lastmile_qr_scan"}, "type": "electric_scooter", "is_reserved": 0, "is_disabled": 0, "bike_id": "8907a83443af0fe98ad942a6cb6312c5", "lat": 38.86508166666667, "lon": -76.97341683333333, "fusion_lat": 0.0, "name": "8907a83443af0fe98ad942a6cb6312c5"}, {"fusion_lon": 0.0, "rental_uris": {"ios": "https://dc.lft.to/lastmile_qr_scan", "android": "https://dc.lft.to/lastmile_qr_scan"}, "type": "electric_scooter", "is_reserved": 0, "is_disabled": 0, "bike_id": "86a2be41db5ac3c0ad48c2904b182d09", "lat": 38.911347666666664, "lon": -77.022003, "fusion_lat": 0.0, "name": "86a2be41db5ac3c0ad48c2904b182d09"}, {"fusion_lon": 0.0, "rental_uris": {"ios": "https://dc.lft.to/lastmile_qr_scan", "android": "https://dc.lft.to/lastmile_qr_scan"}, "type": "electric_scooter", "is_reserved": 0, "is_disabled": 0, "bike_id": "ca151a9b3c815fba8715c24432612867", "lat": 38.90730466666667, "lon": -77.00703816666666, "fusion_lat": 0.0, "name": "ca151a9b3c815fba8715c24432612867"}, {"fusion_lon": 0.0, "rental_uris": {"ios": "https://dc.lft.to/lastmile_qr_scan", "android": "https://dc.lft.to/lastmile_qr_scan"}, "type": "electric_scooter", "is_reserved": 0, "is_disabled": 0, "bike_id": "08bfb475f5de624839719f64a8344255", "lat": 38.90732783333333, "lon": -77.02800683333334, "fusion_lat": 0.0, "name": "08bfb475f5de624839719f64a8344255"}, {"fusion_lon": 0.0, "rental_uris": {"ios": "https://dc.lft.to/lastmile_qr_scan", "android": "https://dc.lft.to/lastmile_qr_scan"}, "type": "electric_scooter", "is_reserved": 0, "is_disabled": 0, "bike_id": "d585a138a56c99ca8b17abafa8561c19", "lat": 38.9205915, "lon": -77.02545066666667, "fusion_lat": 0.0, "name": "d585a138a56c99ca8b17abafa8561c19"}, {"fusion_lon": 0.0, "rental_uris": {"ios": "https://dc.lft.to/lastmile_qr_scan", "android": "https://dc.lft.to/lastmile_qr_scan"}, "type": "electric_scooter", "is_reserved": 0, "is_disabled": 0, "bike_id": "6b096c2a56b146e78bd67351696d125b", "lat": 38.8952755, "lon": -77.02935016666666, "fusion_lat": 0.0, "name": "6b096c2a56b146e78bd67351696d125b"}, {"fusion_lon": 0.0, "rental_uris": {"ios": "https://dc.lft.to/lastmile_qr_scan", "android": "https://dc.lft.to/lastmile_qr_scan"}, "type": "electric_scooter", "is_reserved": 0, "is_disabled": 0, "bike_id": "898e7400547a6c1261b318f6edcf43d5", "lat": 38.92660716666666, "lon": -77.02287183333334, "fusion_lat": 0.0, "name": "898e7400547a6c1261b318f6edcf43d5"}, {"fusion_lon": 0.0, "rental_uris": {"ios": "https://dc.lft.to/lastmile_qr_scan", "android": "https://dc.lft.to/lastmile_qr_scan"}, "type": "electric_scooter", "is_reserved": 0, "is_disabled": 0, "bike_id": "ffea94d924c2772d79595e3e21a93a7f", "lat": 38.89223233333333, "lon": -77.02156966666666, "fusion_lat": 0.0, "name": "ffea94d924c2772d79595e3e21a93a7f"}, {"fusion_lon": 0.0, "rental_uris": {"ios": "https://dc.lft.to/lastmile_qr_scan", "android": "https://dc.lft.to/lastmile_qr_scan"}, "type": "electric_scooter", "is_reserved": 0, "is_disabled": 0, "bike_id": "f7b412d861df56fb4cf27fda3cc6c303", "lat": 38.916704333333335, "lon": -77.02199283333333, "fusion_lat": 0.0, "name": "f7b412d861df56fb4cf27fda3cc6c303"}, {"fusion_lon": 0.0, "rental_uris": {"ios": "https://dc.lft.to/lastmile_qr_scan", "android": "https://dc.lft.to/lastmile_qr_scan"}, "type": "electric_scooter", "is_reserved": 0, "is_disabled": 0, "bike_id": "b8047a95019a6de6e9d1250a2509c6ce", "lat": 38.922477, "lon": -77.0193875, "fusion_lat": 0.0, "name": "b8047a95019a6de6e9d1250a2509c6ce"}, {"fusion_lon": 0.0, "rental_uris": {"ios": "https://dc.lft.to/lastmile_qr_scan", "android": "https://dc.lft.to/lastmile_qr_scan"}, "type": "electric_bike", "is_reserved": 0, "is_disabled": 0, "bike_id": "6b0d9019874ac23a4e4253e8fe49c55a", "lat": 38.95884233333334, "lon": -77.01027316666666, "fusion_lat": 0.0, "name": "6b0d9019874ac23a4e4253e8fe49c55a"}, {"fusion_lon": 0.0, "rental_uris": {"ios": "https://dc.lft.to/lastmile_qr_scan", "android": "https://dc.lft.to/lastmile_qr_scan"}, "type": "electric_scooter", "is_reserved": 0, "is_disabled": 0, "bike_id": "dcc64e50612b7c6ca6c3dff5865d4b66", "lat": 38.8961695, "lon": -77.02235183333333, "fusion_lat": 0.0, "name": "dcc64e50612b7c6ca6c3dff5865d4b66"}, {"fusion_lon": 0.0, "rental_uris": {"ios": "https://dc.lft.to/lastmile_qr_scan", "android": "https://dc.lft.to/lastmile_qr_scan"}, "type": "electric_scooter", "is_reserved": 0, "is_disabled": 0, "bike_id": "61b9dd8f5e606e1cbeddef70497a18aa", "lat": 38.903653166666665, "lon": -77.02725166666667, "fusion_lat": 0.0, "name": "61b9dd8f5e606e1cbeddef70497a18aa"}, {"fusion_lon": 0.0, "rental_uris": {"ios": "https://dc.lft.to/lastmile_qr_scan", "android": "https://dc.lft.to/lastmile_qr_scan"}, "type": "electric_scooter", "is_reserved": 0, "is_disabled": 0, "bike_id": "63062469033f69d2f57f8e132035cf3d", "lat": 38.920465, "lon": -77.02445383333334, "fusion_lat": 0.0, "name": "63062469033f69d2f57f8e132035cf3d"}, {"fusion_lon": 0.0, "rental_uris": {"ios": "https://dc.lft.to/lastmile_qr_scan", "android": "https://dc.lft.to/lastmile_qr_scan"}, "type": "electric_scooter", "is_reserved": 0, "is_disabled": 0, "bike_id": "f22b423e1ad16cc869140f68cf7e2095", "lat": 38.92188633333333, "lon": -77.0401795, "fusion_lat": 0.0, "name": "f22b423e1ad16cc869140f68cf7e2095"}, {"fusion_lon": 0.0, "rental_uris": {"ios": "https://dc.lft.to/lastmile_qr_scan", "android": "https://dc.lft.to/lastmile_qr_scan"}, "type": "electric_scooter", "is_reserved": 0, "is_disabled": 0, "bike_id": "23042bd8898869549d000ef8845bdcc9", "lat": 38.948872333333334, "lon": -77.01850083333333, "fusion_lat": 0.0, "name": "23042bd8898869549d000ef8845bdcc9"}, {"fusion_lon": 0.0, "rental_uris": {"ios": "https://dc.lft.to/lastmile_qr_scan", "android": "https://dc.lft.to/lastmile_qr_scan"}, "type": "electric_scooter", "is_reserved": 0, "is_disabled": 0, "bike_id": "85e84a0e175a474f5192635a77c9a17b", "lat": 38.89357416666667, "lon": -76.94694383333334, "fusion_lat": 0.0, "name": "85e84a0e175a474f5192635a77c9a17b"}, {"fusion_lon": 0.0, "rental_uris": {"ios": "https://dc.lft.to/lastmile_qr_scan", "android": "https://dc.lft.to/lastmile_qr_scan"}, "type": "electric_scooter", "is_reserved": 0, "is_disabled": 0, "bike_id": "9f23a5b4ea82da8ea9affefefdb3d118", "lat": 38.9034445, "lon": -77.0384, "fusion_lat": 0.0, "name": "9f23a5b4ea82da8ea9affefefdb3d118"}, {"fusion_lon": 0.0, "rental_uris": {"ios": "https://dc.lft.to/lastmile_qr_scan", "android": "https://dc.lft.to/lastmile_qr_scan"}, "type": "electric_bike", "is_reserved": 0, "is_disabled": 0, "bike_id": "f01075df26bb6f7b68c1b403902bba18", "lat": 38.914176166666664, "lon": -77.05300583333333, "fusion_lat": 0.0, "name": "f01075df26bb6f7b68c1b403902bba18"}, {"fusion_lon": 0.0, "rental_uris": {"ios": "https://dc.lft.to/lastmile_qr_scan", "android": "https://dc.lft.to/lastmile_qr_scan"}, "type": "electric_bike", "is_reserved": 0, "is_disabled": 0, "bike_id": "5911028c0e4b4e8f9682196b1ada1f00", "lat": 38.8048195, "lon": -76.99094716666667, "fusion_lat": 0.0, "name": "5911028c0e4b4e8f9682196b1ada1f00"}, {"fusion_lon": 0.0, "rental_uris": {"ios": "https://dc.lft.to/lastmile_qr_scan", "android": "https://dc.lft.to/lastmile_qr_scan"}, "type": "electric_scooter", "is_reserved": 0, "is_disabled": 0, "bike_id": "e3e525205309562323c41c7e01eabec2", "lat": 38.92581583333333, "lon": -77.028844, "fusion_lat": 0.0, "name": "e3e525205309562323c41c7e01eabec2"}, {"fusion_lon": 0.0, "rental_uris": {"ios": "https://dc.lft.to/lastmile_qr_scan", "android": "https://dc.lft.to/lastmile_qr_scan"}, "type": "electric_bike", "is_reserved": 0, "is_disabled": 0, "bike_id": "8a5cfd96590cfd95ee74411f0b85dbfe", "lat": 38.9577535, "lon": -77.08021116666667, "fusion_lat": 0.0, "name": "8a5cfd96590cfd95ee74411f0b85dbfe"}, {"fusion_lon": 0.0, "rental_uris": {"ios": "https://dc.lft.to/lastmile_qr_scan", "android": "https://dc.lft.to/lastmile_qr_scan"}, "type": "electric_scooter", "is_reserved": 0, "is_disabled": 0, "bike_id": "ff652b6fbc280ca40a9e8ee68fcbeb02", "lat": 38.92460966666667, "lon": -77.03965816666667, "fusion_lat": 0.0, "name": "ff652b6fbc280ca40a9e8ee68fcbeb02"}, {"fusion_lon": 0.0, "rental_uris": {"ios": "https://dc.lft.to/lastmile_qr_scan", "android": "https://dc.lft.to/lastmile_qr_scan"}, "type": "electric_scooter", "is_reserved": 0, "is_disabled": 0, "bike_id": "314145415adae00705d52188c6b1a995", "lat": 38.985228, "lon": -77.05424733333334, "fusion_lat": 0.0, "name": "314145415adae00705d52188c6b1a995"}, {"fusion_lon": 0.0, "rental_uris": {"ios": "https://dc.lft.to/lastmile_qr_scan", "android": "https://dc.lft.to/lastmile_qr_scan"}, "type": "electric_scooter", "is_reserved": 0, "is_disabled": 0, "bike_id": "2f3ec81d343aff434812bb90cdcd5e74", "lat": 38.90624183333333, "lon": -77.02600916666667, "fusion_lat": 0.0, "name": "2f3ec81d343aff434812bb90cdcd5e74"}, {"fusion_lon": 0.0, "rental_uris": {"ios": "https://dc.lft.to/lastmile_qr_scan", "android": "https://dc.lft.to/lastmile_qr_scan"}, "type": "electric_scooter", "is_reserved": 0, "is_disabled": 0, "bike_id": "32db00cc1ed3426c7104f9f1e4c20ff4", "lat": 38.9322155, "lon": -77.04120916666666, "fusion_lat": 0.0, "name": "32db00cc1ed3426c7104f9f1e4c20ff4"}, {"fusion_lon": 0.0, "rental_uris": {"ios": "https://dc.lft.to/lastmile_qr_scan", "android": "https://dc.lft.to/lastmile_qr_scan"}, "type": "electric_scooter", "is_reserved": 0, "is_disabled": 0, "bike_id": "391a658c6c583f05462df583d010921d", "lat": 38.897464666666664, "lon": -77.01887033333334, "fusion_lat": 0.0, "name": "391a658c6c583f05462df583d010921d"}, {"fusion_lon": 0.0, "rental_uris": {"ios": "https://dc.lft.to/lastmile_qr_scan", "android": "https://dc.lft.to/lastmile_qr_scan"}, "type": "electric_scooter", "is_reserved": 0, "is_disabled": 0, "bike_id": "6cb4d3a1c7cc1a29ab2ffda8fb1c3d85", "lat": 38.898527333333334, "lon": -76.93187816666666, "fusion_lat": 0.0, "name": "6cb4d3a1c7cc1a29ab2ffda8fb1c3d85"}, {"fusion_lon": 0.0, "rental_uris": {"ios": "https://dc.lft.to/lastmile_qr_scan", "android": "https://dc.lft.to/lastmile_qr_scan"}, "type": "electric_scooter", "is_reserved": 0, "is_disabled": 0, "bike_id": "cc39ec667f7e2b7235b69b0f32e4e3b1", "lat": 38.9430165, "lon": -77.05935966666667, "fusion_lat": 0.0, "name": "cc39ec667f7e2b7235b69b0f32e4e3b1"}, {"fusion_lon": 0.0, "rental_uris": {"ios": "https://dc.lft.to/lastmile_qr_scan", "android": "https://dc.lft.to/lastmile_qr_scan"}, "type": "electric_scooter", "is_reserved": 0, "is_disabled": 0, "bike_id": "8e23dc010ec9c17a91fa09ce55a4e13e", "lat": 38.8993345, "lon": -77.02994466666667, "fusion_lat": 0.0, "name": "8e23dc010ec9c17a91fa09ce55a4e13e"}, {"fusion_lon": 0.0, "rental_uris": {"ios": "https://dc.lft.to/lastmile_qr_scan", "android": "https://dc.lft.to/lastmile_qr_scan"}, "type": "electric_scooter", "is_reserved": 0, "is_disabled": 0, "bike_id": "005e261eb3ce122dbc4bb4c664ff6c77", "lat": 38.900301166666665, "lon": -77.043699, "fusion_lat": 0.0, "name": "005e261eb3ce122dbc4bb4c664ff6c77"}, {"fusion_lon": 0.0, "rental_uris": {"ios": "https://dc.lft.to/lastmile_qr_scan", "android": "https://dc.lft.to/lastmile_qr_scan"}, "type": "electric_scooter", "is_reserved": 0, "is_disabled": 0, "bike_id": "0fa9b9f691717ed973ef6bddb46e01cd", "lat": 38.8901725, "lon": -76.93729983333333, "fusion_lat": 0.0, "name": "0fa9b9f691717ed973ef6bddb46e01cd"}, {"fusion_lon": 0.0, "rental_uris": {"ios": "https://dc.lft.to/lastmile_qr_scan", "android": "https://dc.lft.to/lastmile_qr_scan"}, "type": "electric_scooter", "is_reserved": 0, "is_disabled": 0, "bike_id": "1349a071eed0e6a97b91d7b416bfa3c0", "lat": 38.94822083333333, "lon": -77.06582916666666, "fusion_lat": 0.0, "name": "1349a071eed0e6a97b91d7b416bfa3c0"}, {"fusion_lon": 0.0, "rental_uris": {"ios": "https://dc.lft.to/lastmile_qr_scan", "android": "https://dc.lft.to/lastmile_qr_scan"}, "type": "electric_scooter", "is_reserved": 0, "is_disabled": 0, "bike_id": "d8dd1fd4a9ad3f19420a4474e923e1d0", "lat": 38.90592133333333, "lon": -76.98622683333333, "fusion_lat": 0.0, "name": "d8dd1fd4a9ad3f19420a4474e923e1d0"}, {"fusion_lon": 0.0, "rental_uris": {"ios": "https://dc.lft.to/lastmile_qr_scan", "android": "https://dc.lft.to/lastmile_qr_scan"}, "type": "electric_scooter", "is_reserved": 0, "is_disabled": 0, "bike_id": "7d08d96f0469e533aaca4187e4586c62", "lat": 38.918031166666665, "lon": -77.06825533333334, "fusion_lat": 0.0, "name": "7d08d96f0469e533aaca4187e4586c62"}, {"fusion_lon": 0.0, "rental_uris": {"ios": "https://dc.lft.to/lastmile_qr_scan", "android": "https://dc.lft.to/lastmile_qr_scan"}, "type": "electric_scooter", "is_reserved": 0, "is_disabled": 0, "bike_id": "d04312d1f80fabd381f901244f632e12", "lat": 38.91720733333333, "lon": -77.0417535, "fusion_lat": 0.0, "name": "d04312d1f80fabd381f901244f632e12"}, {"fusion_lon": 0.0, "rental_uris": {"ios": "https://dc.lft.to/lastmile_qr_scan", "android": "https://dc.lft.to/lastmile_qr_scan"}, "type": "electric_scooter", "is_reserved": 0, "is_disabled": 0, "bike_id": "6c2b416a59f72155b69b28e096ba05e5", "lat": 38.917069166666664, "lon": -77.00717033333333, "fusion_lat": 0.0, "name": "6c2b416a59f72155b69b28e096ba05e5"}, {"fusion_lon": 0.0, "rental_uris": {"ios": "https://dc.lft.to/lastmile_qr_scan", "android": "https://dc.lft.to/lastmile_qr_scan"}, "type": "electric_scooter", "is_reserved": 0, "is_disabled": 0, "bike_id": "119275c3afb7bbb73129aa28a42ce274", "lat": 38.901438666666664, "lon": -77.034871, "fusion_lat": 0.0, "name": "119275c3afb7bbb73129aa28a42ce274"}, {"fusion_lon": 0.0, "rental_uris": {"ios": "https://dc.lft.to/lastmile_qr_scan", "android": "https://dc.lft.to/lastmile_qr_scan"}, "type": "electric_bike", "is_reserved": 0, "is_disabled": 0, "bike_id": "15b89d9cf6ff3de944495fa05d66f764", "lat": 38.9296955, "lon": -77.22573, "fusion_lat": 0.0, "name": "15b89d9cf6ff3de944495fa05d66f764"}, {"fusion_lon": 0.0, "rental_uris": {"ios": "https://dc.lft.to/lastmile_qr_scan", "android": "https://dc.lft.to/lastmile_qr_scan"}, "type": "electric_scooter", "is_reserved": 0, "is_disabled": 0, "bike_id": "12e0719db88a32809a9e297ff6fdaaee", "lat": 38.89472216666667, "lon": -77.01121083333334, "fusion_lat": 0.0, "name": "12e0719db88a32809a9e297ff6fdaaee"}, {"fusion_lon": 0.0, "rental_uris": {"ios": "https://dc.lft.to/lastmile_qr_scan", "android": "https://dc.lft.to/lastmile_qr_scan"}, "type": "electric_bike", "is_reserved": 0, "is_disabled": 0, "bike_id": "f7d8dd2a72bcc0d0f5894a0bcbab665a", "lat": 38.9038465, "lon": -77.0627185, "fusion_lat": 0.0, "name": "f7d8dd2a72bcc0d0f5894a0bcbab665a"}, {"fusion_lon": 0.0, "rental_uris": {"ios": "https://dc.lft.to/lastmile_qr_scan", "android": "https://dc.lft.to/lastmile_qr_scan"}, "type": "electric_scooter", "is_reserved": 0, "is_disabled": 0, "bike_id": "504a252edb48f5291d7ee8d99fd80e63", "lat": 38.8995625, "lon": -77.04856833333334, "fusion_lat": 0.0, "name": "504a252edb48f5291d7ee8d99fd80e63"}, {"fusion_lon": 0.0, "rental_uris": {"ios": "https://dc.lft.to/lastmile_qr_scan", "android": "https://dc.lft.to/lastmile_qr_scan"}, "type": "electric_scooter", "is_reserved": 0, "is_disabled": 0, "bike_id": "932c0a381e893879d9855ff04c44ebd7", "lat": 38.876396666666665, "lon": -77.003711, "fusion_lat": 0.0, "name": "932c0a381e893879d9855ff04c44ebd7"}, {"fusion_lon": 0.0, "rental_uris": {"ios": "https://dc.lft.to/lastmile_qr_scan", "android": "https://dc.lft.to/lastmile_qr_scan"}, "type": "electric_scooter", "is_reserved": 0, "is_disabled": 0, "bike_id": "3a8f67f80af107c99f00806132334674", "lat": 38.89921433333333, "lon": -76.93378633333333, "fusion_lat": 0.0, "name": "3a8f67f80af107c99f00806132334674"}, {"fusion_lon": 0.0, "rental_uris": {"ios": "https://dc.lft.to/lastmile_qr_scan", "android": "https://dc.lft.to/lastmile_qr_scan"}, "type": "electric_scooter", "is_reserved": 0, "is_disabled": 0, "bike_id": "efa1f4d63a663a9c61bb3fd3d8a91803", "lat": 38.930195833333336, "lon": -77.01230816666667, "fusion_lat": 0.0, "name": "efa1f4d63a663a9c61bb3fd3d8a91803"}, {"fusion_lon": 0.0, "rental_uris": {"ios": "https://dc.lft.to/lastmile_qr_scan", "android": "https://dc.lft.to/lastmile_qr_scan"}, "type": "electric_scooter", "is_reserved": 0, "is_disabled": 0, "bike_id": "c6ab84e96236ed77247a7805b67b1283", "lat": 38.901737, "lon": -77.0509935, "fusion_lat": 0.0, "name": "c6ab84e96236ed77247a7805b67b1283"}, {"fusion_lon": 0.0, "rental_uris": {"ios": "https://dc.lft.to/lastmile_qr_scan", "android": "https://dc.lft.to/lastmile_qr_scan"}, "type": "electric_scooter", "is_reserved": 0, "is_disabled": 0, "bike_id": "ec4e140befa1b7f98f02ace3ef5421b4", "lat": 38.930896833333335, "lon": -77.02497816666667, "fusion_lat": 0.0, "name": "ec4e140befa1b7f98f02ace3ef5421b4"}, {"fusion_lon": 0.0, "rental_uris": {"ios": "https://dc.lft.to/lastmile_qr_scan", "android": "https://dc.lft.to/lastmile_qr_scan"}, "type": "electric_scooter", "is_reserved": 0, "is_disabled": 0, "bike_id": "4600bafaa25c4798f55a3f10c56db93f", "lat": 38.936077833333336, "lon": -77.05887283333334, "fusion_lat": 0.0, "name": "4600bafaa25c4798f55a3f10c56db93f"}, {"fusion_lon": 0.0, "rental_uris": {"ios": "https://dc.lft.to/lastmile_qr_scan", "android": "https://dc.lft.to/lastmile_qr_scan"}, "type": "electric_scooter", "is_reserved": 0, "is_disabled": 0, "bike_id": "3d08e4a7884af3adb21a843a05a838bb", "lat": 38.920552666666666, "lon": -77.02293333333333, "fusion_lat": 0.0, "name": "3d08e4a7884af3adb21a843a05a838bb"}, {"fusion_lon": 0.0, "rental_uris": {"ios": "https://dc.lft.to/lastmile_qr_scan", "android": "https://dc.lft.to/lastmile_qr_scan"}, "type": "electric_scooter", "is_reserved": 0, "is_disabled": 0, "bike_id": "6529c5e758e4e4dc12f570a8284b0cb1", "lat": 38.88645133333333, "lon": -77.000941, "fusion_lat": 0.0, "name": "6529c5e758e4e4dc12f570a8284b0cb1"}, {"fusion_lon": 0.0, "rental_uris": {"ios": "https://dc.lft.to/lastmile_qr_scan", "android": "https://dc.lft.to/lastmile_qr_scan"}, "type": "electric_scooter", "is_reserved": 0, "is_disabled": 0, "bike_id": "e72da06961747ed0b54ce8c496490ff0", "lat": 38.928918833333334, "lon": -77.03628083333334, "fusion_lat": 0.0, "name": "e72da06961747ed0b54ce8c496490ff0"}, {"fusion_lon": 0.0, "rental_uris": {"ios": "https://dc.lft.to/lastmile_qr_scan", "android": "https://dc.lft.to/lastmile_qr_scan"}, "type": "electric_scooter", "is_reserved": 0, "is_disabled": 0, "bike_id": "5d1cf0936a129dea9dfe657f1cf8e7aa", "lat": 38.91580233333333, "lon": -77.04525, "fusion_lat": 0.0, "name": "5d1cf0936a129dea9dfe657f1cf8e7aa"}, {"fusion_lon": 0.0, "rental_uris": {"ios": "https://dc.lft.to/lastmile_qr_scan", "android": "https://dc.lft.to/lastmile_qr_scan"}, "type": "electric_scooter", "is_reserved": 0, "is_disabled": 0, "bike_id": "c3b74840b588796ad2032b60dc88161e", "lat": 38.899050833333334, "lon": -77.0392545, "fusion_lat": 0.0, "name": "c3b74840b588796ad2032b60dc88161e"}, {"fusion_lon": 0.0, "rental_uris": {"ios": "https://dc.lft.to/lastmile_qr_scan", "android": "https://dc.lft.to/lastmile_qr_scan"}, "type": "electric_scooter", "is_reserved": 0, "is_disabled": 0, "bike_id": "3ec648d6a024d9fab02f2c2baa03d8bd", "lat": 38.958118666666664, "lon": -77.0145035, "fusion_lat": 0.0, "name": "3ec648d6a024d9fab02f2c2baa03d8bd"}, {"fusion_lon": 0.0, "rental_uris": {"ios": "https://dc.lft.to/lastmile_qr_scan", "android": "https://dc.lft.to/lastmile_qr_scan"}, "type": "electric_scooter", "is_reserved": 0, "is_disabled": 0, "bike_id": "661bcf182f620924263268d6311c8cda", "lat": 38.926560333333335, "lon": -77.03707466666667, "fusion_lat": 0.0, "name": "661bcf182f620924263268d6311c8cda"}, {"fusion_lon": 0.0, "rental_uris": {"ios": "https://dc.lft.to/lastmile_qr_scan", "android": "https://dc.lft.to/lastmile_qr_scan"}, "type": "electric_scooter", "is_reserved": 0, "is_disabled": 0, "bike_id": "dc51df26a6a1812a40ada78d2588a148", "lat": 38.91722816666667, "lon": -77.02967433333333, "fusion_lat": 0.0, "name": "dc51df26a6a1812a40ada78d2588a148"}, {"fusion_lon": 0.0, "rental_uris": {"ios": "https://dc.lft.to/lastmile_qr_scan", "android": "https://dc.lft.to/lastmile_qr_scan"}, "type": "electric_scooter", "is_reserved": 0, "is_disabled": 0, "bike_id": "54d0fa989320b3ccb0952c2735a938fb", "lat": 38.90120966666667, "lon": -77.04337166666667, "fusion_lat": 0.0, "name": "54d0fa989320b3ccb0952c2735a938fb"}, {"fusion_lon": 0.0, "rental_uris": {"ios": "https://dc.lft.to/lastmile_qr_scan", "android": "https://dc.lft.to/lastmile_qr_scan"}, "type": "electric_scooter", "is_reserved": 0, "is_disabled": 0, "bike_id": "ea7b096aa55e1805e2840cd30b79d6e9", "lat": 38.903395333333336, "lon": -77.05907133333334, "fusion_lat": 0.0, "name": "ea7b096aa55e1805e2840cd30b79d6e9"}, {"fusion_lon": 0.0, "rental_uris": {"ios": "https://dc.lft.to/lastmile_qr_scan", "android": "https://dc.lft.to/lastmile_qr_scan"}, "type": "electric_scooter", "is_reserved": 0, "is_disabled": 0, "bike_id": "3a7b385155493c53c272addf2fd22065", "lat": 38.920670333333334, "lon": -77.02210916666667, "fusion_lat": 0.0, "name": "3a7b385155493c53c272addf2fd22065"}, {"fusion_lon": 0.0, "rental_uris": {"ios": "https://dc.lft.to/lastmile_qr_scan", "android": "https://dc.lft.to/lastmile_qr_scan"}, "type": "electric_scooter", "is_reserved": 0, "is_disabled": 0, "bike_id": "a250c7b323e3da9df491d8bed42fdc4b", "lat": 38.94884166666667, "lon": -77.080567, "fusion_lat": 0.0, "name": "a250c7b323e3da9df491d8bed42fdc4b"}, {"fusion_lon": 0.0, "rental_uris": {"ios": "https://dc.lft.to/lastmile_qr_scan", "android": "https://dc.lft.to/lastmile_qr_scan"}, "type": "electric_bike", "is_reserved": 0, "is_disabled": 0, "bike_id": "4a68379cd8175dc03f1ea46b6cb380e5", "lat": 38.831398166666666, "lon": -77.11315533333334, "fusion_lat": 0.0, "name": "4a68379cd8175dc03f1ea46b6cb380e5"}, {"fusion_lon": 0.0, "rental_uris": {"ios": "https://dc.lft.to/lastmile_qr_scan", "android": "https://dc.lft.to/lastmile_qr_scan"}, "type": "electric_scooter", "is_reserved": 0, "is_disabled": 0, "bike_id": "95e58e937f9539205bb7892c944c1847", "lat": 38.9098155, "lon": -77.0091145, "fusion_lat": 0.0, "name": "95e58e937f9539205bb7892c944c1847"}, {"fusion_lon": 0.0, "rental_uris": {"ios": "https://dc.lft.to/lastmile_qr_scan", "android": "https://dc.lft.to/lastmile_qr_scan"}, "type": "electric_scooter", "is_reserved": 0, "is_disabled": 0, "bike_id": "febcf288ed4ebb1ad2b13729af97e6b7", "lat": 38.919801166666666, "lon": -77.02175083333333, "fusion_lat": 0.0, "name": "febcf288ed4ebb1ad2b13729af97e6b7"}, {"fusion_lon": 0.0, "rental_uris": {"ios": "https://dc.lft.to/lastmile_qr_scan", "android": "https://dc.lft.to/lastmile_qr_scan"}, "type": "electric_bike", "is_reserved": 0, "is_disabled": 0, "bike_id": "8446ce9333a9f50d641e844d3a535a29", "lat": 38.9289675, "lon": -77.231774, "fusion_lat": 0.0, "name": "8446ce9333a9f50d641e844d3a535a29"}, {"fusion_lon": 0.0, "rental_uris": {"ios": "https://dc.lft.to/lastmile_qr_scan", "android": "https://dc.lft.to/lastmile_qr_scan"}, "type": "electric_scooter", "is_reserved": 0, "is_disabled": 0, "bike_id": "e5e35907959ba1563b7bf5dd695a6eb5", "lat": 38.898406666666666, "lon": -77.02623333333334, "fusion_lat": 0.0, "name": "e5e35907959ba1563b7bf5dd695a6eb5"}, {"fusion_lon": 0.0, "rental_uris": {"ios": "https://dc.lft.to/lastmile_qr_scan", "android": "https://dc.lft.to/lastmile_qr_scan"}, "type": "electric_scooter", "is_reserved": 0, "is_disabled": 0, "bike_id": "9d5c54ccf7a3f63a4e75ccf587f9311b", "lat": 38.901226666666666, "lon": -77.03367883333334, "fusion_lat": 0.0, "name": "9d5c54ccf7a3f63a4e75ccf587f9311b"}, {"fusion_lon": 0.0, "rental_uris": {"ios": "https://dc.lft.to/lastmile_qr_scan", "android": "https://dc.lft.to/lastmile_qr_scan"}, "type": "electric_scooter", "is_reserved": 0, "is_disabled": 0, "bike_id": "397df1512571262c1d526204928a9619", "lat": 38.92058083333333, "lon": -77.02307833333333, "fusion_lat": 0.0, "name": "397df1512571262c1d526204928a9619"}, {"fusion_lon": 0.0, "rental_uris": {"ios": "https://dc.lft.to/lastmile_qr_scan", "android": "https://dc.lft.to/lastmile_qr_scan"}, "type": "electric_scooter", "is_reserved": 0, "is_disabled": 0, "bike_id": "5d7d041b5fa42e6551fa47f3392bbec8", "lat": 38.90032433333333, "lon": -77.0228205, "fusion_lat": 0.0, "name": "5d7d041b5fa42e6551fa47f3392bbec8"}, {"fusion_lon": 0.0, "rental_uris": {"ios": "https://dc.lft.to/lastmile_qr_scan", "android": "https://dc.lft.to/lastmile_qr_scan"}, "type": "electric_bike", "is_reserved": 0, "is_disabled": 0, "bike_id": "b33c7208b40915a5ede254b07488095f", "lat": 38.8382895, "lon": -77.07912466666667, "fusion_lat": 0.0, "name": "b33c7208b40915a5ede254b07488095f"}, {"fusion_lon": 0.0, "rental_uris": {"ios": "https://dc.lft.to/lastmile_qr_scan", "android": "https://dc.lft.to/lastmile_qr_scan"}, "type": "electric_scooter", "is_reserved": 0, "is_disabled": 0, "bike_id": "ac3c83edd64e3e9644d5e641f4070a4b", "lat": 38.93936516666667, "lon": -77.03269183333333, "fusion_lat": 0.0, "name": "ac3c83edd64e3e9644d5e641f4070a4b"}, {"fusion_lon": 0.0, "rental_uris": {"ios": "https://dc.lft.to/lastmile_qr_scan", "android": "https://dc.lft.to/lastmile_qr_scan"}, "type": "electric_scooter", "is_reserved": 0, "is_disabled": 0, "bike_id": "c87b65a8101da1aecd9da419b24af189", "lat": 38.92678033333333, "lon": -77.040532, "fusion_lat": 0.0, "name": "c87b65a8101da1aecd9da419b24af189"}, {"fusion_lon": 0.0, "rental_uris": {"ios": "https://dc.lft.to/lastmile_qr_scan", "android": "https://dc.lft.to/lastmile_qr_scan"}, "type": "electric_scooter", "is_reserved": 0, "is_disabled": 0, "bike_id": "bde2bc5fc1f195df272f1e090cfb3eea", "lat": 38.8992645, "lon": -77.04998916666666, "fusion_lat": 0.0, "name": "bde2bc5fc1f195df272f1e090cfb3eea"}, {"fusion_lon": 0.0, "rental_uris": {"ios": "https://dc.lft.to/lastmile_qr_scan", "android": "https://dc.lft.to/lastmile_qr_scan"}, "type": "electric_scooter", "is_reserved": 0, "is_disabled": 0, "bike_id": "6895389da466cb89e69a9e63c7a866e0", "lat": 38.902083833333336, "lon": -77.0382485, "fusion_lat": 0.0, "name": "6895389da466cb89e69a9e63c7a866e0"}, {"fusion_lon": 0.0, "rental_uris": {"ios": "https://dc.lft.to/lastmile_qr_scan", "android": "https://dc.lft.to/lastmile_qr_scan"}, "type": "electric_scooter", "is_reserved": 0, "is_disabled": 0, "bike_id": "a1511b3a4ab54c02c16884828ac94abc", "lat": 38.924208166666666, "lon": -77.02280033333334, "fusion_lat": 0.0, "name": "a1511b3a4ab54c02c16884828ac94abc"}, {"fusion_lon": 0.0, "rental_uris": {"ios": "https://dc.lft.to/lastmile_qr_scan", "android": "https://dc.lft.to/lastmile_qr_scan"}, "type": "electric_scooter", "is_reserved": 0, "is_disabled": 0, "bike_id": "dae150fd73fe8fa01e3243c37669e622", "lat": 38.92097916666667, "lon": -77.0250455, "fusion_lat": 0.0, "name": "dae150fd73fe8fa01e3243c37669e622"}, {"fusion_lon": 0.0, "rental_uris": {"ios": "https://dc.lft.to/lastmile_qr_scan", "android": "https://dc.lft.to/lastmile_qr_scan"}, "type": "electric_scooter", "is_reserved": 0, "is_disabled": 0, "bike_id": "2651d3760c1ebadb714b1125b2cb74b8", "lat": 38.93577766666667, "lon": -77.0212775, "fusion_lat": 0.0, "name": "2651d3760c1ebadb714b1125b2cb74b8"}, {"fusion_lon": 0.0, "rental_uris": {"ios": "https://dc.lft.to/lastmile_qr_scan", "android": "https://dc.lft.to/lastmile_qr_scan"}, "type": "electric_scooter", "is_reserved": 0, "is_disabled": 0, "bike_id": "0a68e140df518860795fcc02294732b2", "lat": 38.9306155, "lon": -77.03938283333333, "fusion_lat": 0.0, "name": "0a68e140df518860795fcc02294732b2"}, {"fusion_lon": 0.0, "rental_uris": {"ios": "https://dc.lft.to/lastmile_qr_scan", "android": "https://dc.lft.to/lastmile_qr_scan"}, "type": "electric_scooter", "is_reserved": 0, "is_disabled": 0, "bike_id": "e0a6b109c4a1c24b6852fa83e9f31310", "lat": 38.892696666666666, "lon": -76.98371683333333, "fusion_lat": 0.0, "name": "e0a6b109c4a1c24b6852fa83e9f31310"}, {"fusion_lon": 0.0, "rental_uris": {"ios": "https://dc.lft.to/lastmile_qr_scan", "android": "https://dc.lft.to/lastmile_qr_scan"}, "type": "electric_scooter", "is_reserved": 0, "is_disabled": 0, "bike_id": "ecc2101b56e0d2eefedc6c6226284a98", "lat": 38.89753, "lon": -77.03065, "fusion_lat": 0.0, "name": "ecc2101b56e0d2eefedc6c6226284a98"}, {"fusion_lon": 0.0, "rental_uris": {"ios": "https://dc.lft.to/lastmile_qr_scan", "android": "https://dc.lft.to/lastmile_qr_scan"}, "type": "electric_scooter", "is_reserved": 0, "is_disabled": 0, "bike_id": "8698ead2d448645987b3929af50ac781", "lat": 38.9163255, "lon": -77.03500283333334, "fusion_lat": 0.0, "name": "8698ead2d448645987b3929af50ac781"}, {"fusion_lon": 0.0, "rental_uris": {"ios": "https://dc.lft.to/lastmile_qr_scan", "android": "https://dc.lft.to/lastmile_qr_scan"}, "type": "electric_scooter", "is_reserved": 0, "is_disabled": 0, "bike_id": "63fcaf403db4f61c2837c313d4660a2b", "lat": 38.923378166666666, "lon": -77.05395583333333, "fusion_lat": 0.0, "name": "63fcaf403db4f61c2837c313d4660a2b"}, {"fusion_lon": 0.0, "rental_uris": {"ios": "https://dc.lft.to/lastmile_qr_scan", "android": "https://dc.lft.to/lastmile_qr_scan"}, "type": "electric_scooter", "is_reserved": 0, "is_disabled": 0, "bike_id": "d113f0a67a9bd35b4a2a408726a0956e", "lat": 38.886131666666664, "lon": -77.003314, "fusion_lat": 0.0, "name": "d113f0a67a9bd35b4a2a408726a0956e"}, {"fusion_lon": 0.0, "rental_uris": {"ios": "https://dc.lft.to/lastmile_qr_scan", "android": "https://dc.lft.to/lastmile_qr_scan"}, "type": "electric_scooter", "is_reserved": 0, "is_disabled": 0, "bike_id": "000242b54c488e6bad140e53518f1605", "lat": 38.8998895, "lon": -77.0218015, "fusion_lat": 0.0, "name": "000242b54c488e6bad140e53518f1605"}, {"fusion_lon": 0.0, "rental_uris": {"ios": "https://dc.lft.to/lastmile_qr_scan", "android": "https://dc.lft.to/lastmile_qr_scan"}, "type": "electric_scooter", "is_reserved": 0, "is_disabled": 0, "bike_id": "19825a34b259898a1ed99827dfbfed7d", "lat": 38.8886975, "lon": -77.03999283333333, "fusion_lat": 0.0, "name": "19825a34b259898a1ed99827dfbfed7d"}, {"fusion_lon": 0.0, "rental_uris": {"ios": "https://dc.lft.to/lastmile_qr_scan", "android": "https://dc.lft.to/lastmile_qr_scan"}, "type": "electric_scooter", "is_reserved": 0, "is_disabled": 0, "bike_id": "245d278a4e7222e587fd3532ed7d2d4d", "lat": 38.907857, "lon": -77.072554, "fusion_lat": 0.0, "name": "245d278a4e7222e587fd3532ed7d2d4d"}, {"fusion_lon": 0.0, "rental_uris": {"ios": "https://dc.lft.to/lastmile_qr_scan", "android": "https://dc.lft.to/lastmile_qr_scan"}, "type": "electric_scooter", "is_reserved": 0, "is_disabled": 0, "bike_id": "fb2613d10c4fcc4afb9274c8c3852b95", "lat": 38.898636833333335, "lon": -77.043263, "fusion_lat": 0.0, "name": "fb2613d10c4fcc4afb9274c8c3852b95"}, {"fusion_lon": 0.0, "rental_uris": {"ios": "https://dc.lft.to/lastmile_qr_scan", "android": "https://dc.lft.to/lastmile_qr_scan"}, "type": "electric_bike", "is_reserved": 0, "is_disabled": 0, "bike_id": "30754b11979d12e86282dd535118e6d5", "lat": 38.881403666666664, "lon": -76.98111416666667, "fusion_lat": 0.0, "name": "30754b11979d12e86282dd535118e6d5"}, {"fusion_lon": 0.0, "rental_uris": {"ios": "https://dc.lft.to/lastmile_qr_scan", "android": "https://dc.lft.to/lastmile_qr_scan"}, "type": "electric_scooter", "is_reserved": 0, "is_disabled": 0, "bike_id": "d67694ec9ef64d6dd73435207974f721", "lat": 38.9104985, "lon": -77.06461083333333, "fusion_lat": 0.0, "name": "d67694ec9ef64d6dd73435207974f721"}, {"fusion_lon": 0.0, "rental_uris": {"ios": "https://dc.lft.to/lastmile_qr_scan", "android": "https://dc.lft.to/lastmile_qr_scan"}, "type": "electric_scooter", "is_reserved": 0, "is_disabled": 0, "bike_id": "ab544d530bf25df313244623f412d8bf", "lat": 38.93033233333333, "lon": -77.02633883333333, "fusion_lat": 0.0, "name": "ab544d530bf25df313244623f412d8bf"}, {"fusion_lon": 0.0, "rental_uris": {"ios": "https://dc.lft.to/lastmile_qr_scan", "android": "https://dc.lft.to/lastmile_qr_scan"}, "type": "electric_scooter", "is_reserved": 0, "is_disabled": 0, "bike_id": "966bff70878e8988e074f466def946a2", "lat": 38.895735333333334, "lon": -77.02733266666667, "fusion_lat": 0.0, "name": "966bff70878e8988e074f466def946a2"}, {"fusion_lon": 0.0, "rental_uris": {"ios": "https://dc.lft.to/lastmile_qr_scan", "android": "https://dc.lft.to/lastmile_qr_scan"}, "type": "electric_scooter", "is_reserved": 0, "is_disabled": 0, "bike_id": "f72f494fb9cde7d652827799cc11e67b", "lat": 38.927619666666665, "lon": -77.03657266666667, "fusion_lat": 0.0, "name": "f72f494fb9cde7d652827799cc11e67b"}, {"fusion_lon": 0.0, "rental_uris": {"ios": "https://dc.lft.to/lastmile_qr_scan", "android": "https://dc.lft.to/lastmile_qr_scan"}, "type": "electric_scooter", "is_reserved": 0, "is_disabled": 0, "bike_id": "dbe732345fd719353e5584064d2ca4e5", "lat": 38.9032025, "lon": -77.04473433333334, "fusion_lat": 0.0, "name": "dbe732345fd719353e5584064d2ca4e5"}, {"fusion_lon": 0.0, "rental_uris": {"ios": "https://dc.lft.to/lastmile_qr_scan", "android": "https://dc.lft.to/lastmile_qr_scan"}, "type": "electric_scooter", "is_reserved": 0, "is_disabled": 0, "bike_id": "7682636f00d55e0db56cd71d8927e8e1", "lat": 38.9172165, "lon": -77.04155733333333, "fusion_lat": 0.0, "name": "7682636f00d55e0db56cd71d8927e8e1"}, {"fusion_lon": 0.0, "rental_uris": {"ios": "https://dc.lft.to/lastmile_qr_scan", "android": "https://dc.lft.to/lastmile_qr_scan"}, "type": "electric_scooter", "is_reserved": 0, "is_disabled": 0, "bike_id": "ef20b882588f177f3b86d35065acd308", "lat": 38.891964, "lon": -77.002251, "fusion_lat": 0.0, "name": "ef20b882588f177f3b86d35065acd308"}, {"fusion_lon": 0.0, "rental_uris": {"ios": "https://dc.lft.to/lastmile_qr_scan", "android": "https://dc.lft.to/lastmile_qr_scan"}, "type": "electric_scooter", "is_reserved": 0, "is_disabled": 0, "bike_id": "8b0c8d40d5edd96b46f9fb7ac8a816ed", "lat": 38.922437, "lon": -77.03898, "fusion_lat": 0.0, "name": "8b0c8d40d5edd96b46f9fb7ac8a816ed"}, {"fusion_lon": 0.0, "rental_uris": {"ios": "https://dc.lft.to/lastmile_qr_scan", "android": "https://dc.lft.to/lastmile_qr_scan"}, "type": "electric_bike", "is_reserved": 0, "is_disabled": 0, "bike_id": "43028fb49b37c11643f5b37fbf7666dc", "lat": 38.932628333333334, "lon": -77.0656595, "fusion_lat": 0.0, "name": "43028fb49b37c11643f5b37fbf7666dc"}, {"fusion_lon": 0.0, "rental_uris": {"ios": "https://dc.lft.to/lastmile_qr_scan", "android": "https://dc.lft.to/lastmile_qr_scan"}, "type": "electric_scooter", "is_reserved": 0, "is_disabled": 0, "bike_id": "abc53f02c25e5253b5b7e6b02c60db12", "lat": 38.913416166666664, "lon": -77.00932616666667, "fusion_lat": 0.0, "name": "abc53f02c25e5253b5b7e6b02c60db12"}, {"fusion_lon": 0.0, "rental_uris": {"ios": "https://dc.lft.to/lastmile_qr_scan", "android": "https://dc.lft.to/lastmile_qr_scan"}, "type": "electric_bike", "is_reserved": 0, "is_disabled": 0, "bike_id": "0b4d6fa3a2861bb8c9e776a89a0051b2", "lat": 38.99833566666667, "lon": -76.99789983333334, "fusion_lat": 0.0, "name": "0b4d6fa3a2861bb8c9e776a89a0051b2"}, {"fusion_lon": 0.0, "rental_uris": {"ios": "https://dc.lft.to/lastmile_qr_scan", "android": "https://dc.lft.to/lastmile_qr_scan"}, "type": "electric_scooter", "is_reserved": 0, "is_disabled": 0, "bike_id": "0d92aa7dedc96751a3291213e275b91e", "lat": 38.92612366666667, "lon": -77.02963083333333, "fusion_lat": 0.0, "name": "0d92aa7dedc96751a3291213e275b91e"}, {"fusion_lon": 0.0, "rental_uris": {"ios": "https://dc.lft.to/lastmile_qr_scan", "android": "https://dc.lft.to/lastmile_qr_scan"}, "type": "electric_scooter", "is_reserved": 0, "is_disabled": 0, "bike_id": "16955bcb1ae6aab4be178d23411d93fc", "lat": 38.91541266666667, "lon": -77.01220416666666, "fusion_lat": 0.0, "name": "16955bcb1ae6aab4be178d23411d93fc"}, {"fusion_lon": 0.0, "rental_uris": {"ios": "https://dc.lft.to/lastmile_qr_scan", "android": "https://dc.lft.to/lastmile_qr_scan"}, "type": "electric_scooter", "is_reserved": 0, "is_disabled": 0, "bike_id": "3a93aab53d0e6353da166e3b79048ad5", "lat": 38.9065955, "lon": -76.98596833333333, "fusion_lat": 0.0, "name": "3a93aab53d0e6353da166e3b79048ad5"}, {"fusion_lon": 0.0, "rental_uris": {"ios": "https://dc.lft.to/lastmile_qr_scan", "android": "https://dc.lft.to/lastmile_qr_scan"}, "type": "electric_scooter", "is_reserved": 0, "is_disabled": 0, "bike_id": "2e2a8a4a15636fe400e5980b2d96ffd3", "lat": 38.94059166666667, "lon": -77.03281616666666, "fusion_lat": 0.0, "name": "2e2a8a4a15636fe400e5980b2d96ffd3"}, {"fusion_lon": 0.0, "rental_uris": {"ios": "https://dc.lft.to/lastmile_qr_scan", "android": "https://dc.lft.to/lastmile_qr_scan"}, "type": "electric_scooter", "is_reserved": 0, "is_disabled": 0, "bike_id": "5838abdd610013e876a7f9a613304d96", "lat": 38.899196, "lon": -77.03295433333334, "fusion_lat": 0.0, "name": "5838abdd610013e876a7f9a613304d96"}, {"fusion_lon": 0.0, "rental_uris": {"ios": "https://dc.lft.to/lastmile_qr_scan", "android": "https://dc.lft.to/lastmile_qr_scan"}, "type": "electric_scooter", "is_reserved": 0, "is_disabled": 0, "bike_id": "614f09c3c5a90aa573bdaad0cee97f25", "lat": 38.92325966666667, "lon": -77.01946383333333, "fusion_lat": 0.0, "name": "614f09c3c5a90aa573bdaad0cee97f25"}, {"fusion_lon": 0.0, "rental_uris": {"ios": "https://dc.lft.to/lastmile_qr_scan", "android": "https://dc.lft.to/lastmile_qr_scan"}, "type": "electric_scooter", "is_reserved": 0, "is_disabled": 0, "bike_id": "492adb52fa6d031ee863f68b982daab9", "lat": 38.92494466666667, "lon": -77.021808, "fusion_lat": 0.0, "name": "492adb52fa6d031ee863f68b982daab9"}, {"fusion_lon": 0.0, "rental_uris": {"ios": "https://dc.lft.to/lastmile_qr_scan", "android": "https://dc.lft.to/lastmile_qr_scan"}, "type": "electric_bike", "is_reserved": 0, "is_disabled": 0, "bike_id": "7249cbbc2d61daf78f3963b07aa4a862", "lat": 38.8851125, "lon": -77.01901833333334, "fusion_lat": 0.0, "name": "7249cbbc2d61daf78f3963b07aa4a862"}, {"fusion_lon": 0.0, "rental_uris": {"ios": "https://dc.lft.to/lastmile_qr_scan", "android": "https://dc.lft.to/lastmile_qr_scan"}, "type": "electric_scooter", "is_reserved": 0, "is_disabled": 0, "bike_id": "170646a05d2887ed098db289afc34cb1", "lat": 38.9065015, "lon": -76.98379033333333, "fusion_lat": 0.0, "name": "170646a05d2887ed098db289afc34cb1"}, {"fusion_lon": 0.0, "rental_uris": {"ios": "https://dc.lft.to/lastmile_qr_scan", "android": "https://dc.lft.to/lastmile_qr_scan"}, "type": "electric_scooter", "is_reserved": 0, "is_disabled": 0, "bike_id": "b2aeb0e4ae0ded3b75743a66490811b8", "lat": 38.90127916666667, "lon": -77.02183916666667, "fusion_lat": 0.0, "name": "b2aeb0e4ae0ded3b75743a66490811b8"}, {"fusion_lon": 0.0, "rental_uris": {"ios": "https://dc.lft.to/lastmile_qr_scan", "android": "https://dc.lft.to/lastmile_qr_scan"}, "type": "electric_scooter", "is_reserved": 0, "is_disabled": 0, "bike_id": "1593821f20ab436a7cccc9e4ffe3cee8", "lat": 38.88823216666667, "lon": -76.97719633333334, "fusion_lat": 0.0, "name": "1593821f20ab436a7cccc9e4ffe3cee8"}, {"fusion_lon": 0.0, "rental_uris": {"ios": "https://dc.lft.to/lastmile_qr_scan", "android": "https://dc.lft.to/lastmile_qr_scan"}, "type": "electric_scooter", "is_reserved": 0, "is_disabled": 0, "bike_id": "abd6ebd0d273eb8f6932cb9b3dbf5243", "lat": 38.944704333333334, "lon": -77.02338983333334, "fusion_lat": 0.0, "name": "abd6ebd0d273eb8f6932cb9b3dbf5243"}, {"fusion_lon": 0.0, "rental_uris": {"ios": "https://dc.lft.to/lastmile_qr_scan", "android": "https://dc.lft.to/lastmile_qr_scan"}, "type": "electric_scooter", "is_reserved": 0, "is_disabled": 0, "bike_id": "7e7ab24f617b03ce9a602639cda5260a", "lat": 38.8756185, "lon": -77.00609533333333, "fusion_lat": 0.0, "name": "7e7ab24f617b03ce9a602639cda5260a"}, {"fusion_lon": 0.0, "rental_uris": {"ios": "https://dc.lft.to/lastmile_qr_scan", "android": "https://dc.lft.to/lastmile_qr_scan"}, "type": "electric_scooter", "is_reserved": 0, "is_disabled": 0, "bike_id": "3388940d4dde136475ef330ee48b1dc9", "lat": 38.9127335, "lon": -77.02223466666666, "fusion_lat": 0.0, "name": "3388940d4dde136475ef330ee48b1dc9"}, {"fusion_lon": 0.0, "rental_uris": {"ios": "https://dc.lft.to/lastmile_qr_scan", "android": "https://dc.lft.to/lastmile_qr_scan"}, "type": "electric_scooter", "is_reserved": 0, "is_disabled": 0, "bike_id": "4259d4475ac1ed257a3caa25a8512ae5", "lat": 38.8813555, "lon": -76.996175, "fusion_lat": 0.0, "name": "4259d4475ac1ed257a3caa25a8512ae5"}, {"fusion_lon": 0.0, "rental_uris": {"ios": "https://dc.lft.to/lastmile_qr_scan", "android": "https://dc.lft.to/lastmile_qr_scan"}, "type": "electric_scooter", "is_reserved": 0, "is_disabled": 0, "bike_id": "d8c8b4820e5bdc48583240955be87ce4", "lat": 38.903725, "lon": -77.041725, "fusion_lat": 0.0, "name": "d8c8b4820e5bdc48583240955be87ce4"}, {"fusion_lon": 0.0, "rental_uris": {"ios": "https://dc.lft.to/lastmile_qr_scan", "android": "https://dc.lft.to/lastmile_qr_scan"}, "type": "electric_scooter", "is_reserved": 0, "is_disabled": 0, "bike_id": "0914abc3b9b8abf7cd185c769db5070b", "lat": 38.92344516666667, "lon": -77.03536183333334, "fusion_lat": 0.0, "name": "0914abc3b9b8abf7cd185c769db5070b"}, {"fusion_lon": 0.0, "rental_uris": {"ios": "https://dc.lft.to/lastmile_qr_scan", "android": "https://dc.lft.to/lastmile_qr_scan"}, "type": "electric_scooter", "is_reserved": 0, "is_disabled": 0, "bike_id": "af81f1074128c16fac8826db53be440d", "lat": 38.94094666666667, "lon": -77.02323816666667, "fusion_lat": 0.0, "name": "af81f1074128c16fac8826db53be440d"}, {"fusion_lon": 0.0, "rental_uris": {"ios": "https://dc.lft.to/lastmile_qr_scan", "android": "https://dc.lft.to/lastmile_qr_scan"}, "type": "electric_scooter", "is_reserved": 0, "is_disabled": 0, "bike_id": "247dd6f2e3cd5b4ba57e6a2fd8b3118c", "lat": 38.92327433333333, "lon": -77.00050283333333, "fusion_lat": 0.0, "name": "247dd6f2e3cd5b4ba57e6a2fd8b3118c"}, {"fusion_lon": 0.0, "rental_uris": {"ios": "https://dc.lft.to/lastmile_qr_scan", "android": "https://dc.lft.to/lastmile_qr_scan"}, "type": "electric_scooter", "is_reserved": 0, "is_disabled": 0, "bike_id": "28798e3dd559f9196a4b9e415b617af0", "lat": 38.90466583333333, "lon": -77.02951566666667, "fusion_lat": 0.0, "name": "28798e3dd559f9196a4b9e415b617af0"}, {"fusion_lon": 0.0, "rental_uris": {"ios": "https://dc.lft.to/lastmile_qr_scan", "android": "https://dc.lft.to/lastmile_qr_scan"}, "type": "electric_scooter", "is_reserved": 0, "is_disabled": 0, "bike_id": "ef4ec5fa87782c5c948ed02155c80fa8", "lat": 38.92043266666667, "lon": -77.01734516666667, "fusion_lat": 0.0, "name": "ef4ec5fa87782c5c948ed02155c80fa8"}, {"fusion_lon": 0.0, "rental_uris": {"ios": "https://dc.lft.to/lastmile_qr_scan", "android": "https://dc.lft.to/lastmile_qr_scan"}, "type": "electric_scooter", "is_reserved": 0, "is_disabled": 0, "bike_id": "0dfaed9ca1d62077efa9bc5f5a1a4bbf", "lat": 38.91712016666666, "lon": -77.03495783333334, "fusion_lat": 0.0, "name": "0dfaed9ca1d62077efa9bc5f5a1a4bbf"}, {"fusion_lon": 0.0, "rental_uris": {"ios": "https://dc.lft.to/lastmile_qr_scan", "android": "https://dc.lft.to/lastmile_qr_scan"}, "type": "electric_scooter", "is_reserved": 0, "is_disabled": 0, "bike_id": "b9cfc8281f569d89fe9acd64db5ca4e2", "lat": 38.87730583333333, "lon": -77.00607733333334, "fusion_lat": 0.0, "name": "b9cfc8281f569d89fe9acd64db5ca4e2"}, {"fusion_lon": 0.0, "rental_uris": {"ios": "https://dc.lft.to/lastmile_qr_scan", "android": "https://dc.lft.to/lastmile_qr_scan"}, "type": "electric_scooter", "is_reserved": 0, "is_disabled": 0, "bike_id": "3b2af181c8303d2594a642ef5552ff21", "lat": 38.94202583333333, "lon": -77.02345433333333, "fusion_lat": 0.0, "name": "3b2af181c8303d2594a642ef5552ff21"}, {"fusion_lon": 0.0, "rental_uris": {"ios": "https://dc.lft.to/lastmile_qr_scan", "android": "https://dc.lft.to/lastmile_qr_scan"}, "type": "electric_scooter", "is_reserved": 0, "is_disabled": 0, "bike_id": "ca282a15d7a301cbe8976966b0082921", "lat": 38.92980816666667, "lon": -77.03182416666667, "fusion_lat": 0.0, "name": "ca282a15d7a301cbe8976966b0082921"}, {"fusion_lon": 0.0, "rental_uris": {"ios": "https://dc.lft.to/lastmile_qr_scan", "android": "https://dc.lft.to/lastmile_qr_scan"}, "type": "electric_scooter", "is_reserved": 0, "is_disabled": 0, "bike_id": "0d28dc1ac4e79b4884a95bbc479aa14f", "lat": 38.920215166666665, "lon": -77.06363816666666, "fusion_lat": 0.0, "name": "0d28dc1ac4e79b4884a95bbc479aa14f"}, {"fusion_lon": 0.0, "rental_uris": {"ios": "https://dc.lft.to/lastmile_qr_scan", "android": "https://dc.lft.to/lastmile_qr_scan"}, "type": "electric_scooter", "is_reserved": 0, "is_disabled": 0, "bike_id": "3e5d85ad4b0e4dcd5ee7458a6a991fca", "lat": 38.900032, "lon": -77.0273525, "fusion_lat": 0.0, "name": "3e5d85ad4b0e4dcd5ee7458a6a991fca"}, {"fusion_lon": 0.0, "rental_uris": {"ios": "https://dc.lft.to/lastmile_qr_scan", "android": "https://dc.lft.to/lastmile_qr_scan"}, "type": "electric_scooter", "is_reserved": 0, "is_disabled": 0, "bike_id": "f73017e4d1783818f4551593f0629398", "lat": 38.91420016666667, "lon": -77.0258535, "fusion_lat": 0.0, "name": "f73017e4d1783818f4551593f0629398"}, {"fusion_lon": 0.0, "rental_uris": {"ios": "https://dc.lft.to/lastmile_qr_scan", "android": "https://dc.lft.to/lastmile_qr_scan"}, "type": "electric_scooter", "is_reserved": 0, "is_disabled": 0, "bike_id": "1cb6c698b8c6933da762ed2d9355df17", "lat": 38.937742, "lon": -77.05966316666667, "fusion_lat": 0.0, "name": "1cb6c698b8c6933da762ed2d9355df17"}, {"fusion_lon": 0.0, "rental_uris": {"ios": "https://dc.lft.to/lastmile_qr_scan", "android": "https://dc.lft.to/lastmile_qr_scan"}, "type": "electric_scooter", "is_reserved": 0, "is_disabled": 0, "bike_id": "dff2bc0f373d04396faf769e0ba9c4a9", "lat": 38.8848195, "lon": -77.024917, "fusion_lat": 0.0, "name": "dff2bc0f373d04396faf769e0ba9c4a9"}, {"fusion_lon": 0.0, "rental_uris": {"ios": "https://dc.lft.to/lastmile_qr_scan", "android": "https://dc.lft.to/lastmile_qr_scan"}, "type": "electric_scooter", "is_reserved": 0, "is_disabled": 0, "bike_id": "b429e56e29c2fe702a19dc159ad724ad", "lat": 38.898315833333335, "lon": -77.04546816666667, "fusion_lat": 0.0, "name": "b429e56e29c2fe702a19dc159ad724ad"}, {"fusion_lon": 0.0, "rental_uris": {"ios": "https://dc.lft.to/lastmile_qr_scan", "android": "https://dc.lft.to/lastmile_qr_scan"}, "type": "electric_scooter", "is_reserved": 0, "is_disabled": 0, "bike_id": "3ec57a9db6832535abe5339db7d65db5", "lat": 38.906596, "lon": -77.05157116666666, "fusion_lat": 0.0, "name": "3ec57a9db6832535abe5339db7d65db5"}, {"fusion_lon": 0.0, "rental_uris": {"ios": "https://dc.lft.to/lastmile_qr_scan", "android": "https://dc.lft.to/lastmile_qr_scan"}, "type": "electric_scooter", "is_reserved": 0, "is_disabled": 0, "bike_id": "8ddde68b64d363f00c4271f44be7b837", "lat": 38.915409833333335, "lon": -77.04425966666666, "fusion_lat": 0.0, "name": "8ddde68b64d363f00c4271f44be7b837"}, {"fusion_lon": 0.0, "rental_uris": {"ios": "https://dc.lft.to/lastmile_qr_scan", "android": "https://dc.lft.to/lastmile_qr_scan"}, "type": "electric_scooter", "is_reserved": 0, "is_disabled": 0, "bike_id": "1d5d49aa2fa87e1d7721e5a017180245", "lat": 38.90041883333333, "lon": -76.991469, "fusion_lat": 0.0, "name": "1d5d49aa2fa87e1d7721e5a017180245"}, {"fusion_lon": 0.0, "rental_uris": {"ios": "https://dc.lft.to/lastmile_qr_scan", "android": "https://dc.lft.to/lastmile_qr_scan"}, "type": "electric_scooter", "is_reserved": 0, "is_disabled": 0, "bike_id": "4a0519769f0cb287133f67b7c8e1ba96", "lat": 38.877039, "lon": -77.00298066666667, "fusion_lat": 0.0, "name": "4a0519769f0cb287133f67b7c8e1ba96"}, {"fusion_lon": 0.0, "rental_uris": {"ios": "https://dc.lft.to/lastmile_qr_scan", "android": "https://dc.lft.to/lastmile_qr_scan"}, "type": "electric_scooter", "is_reserved": 0, "is_disabled": 0, "bike_id": "82bbb26151350d520146baddba729d72", "lat": 38.860363666666665, "lon": -76.98374583333333, "fusion_lat": 0.0, "name": "82bbb26151350d520146baddba729d72"}, {"fusion_lon": 0.0, "rental_uris": {"ios": "https://dc.lft.to/lastmile_qr_scan", "android": "https://dc.lft.to/lastmile_qr_scan"}, "type": "electric_scooter", "is_reserved": 0, "is_disabled": 0, "bike_id": "3e2f76db8b1d1970274e3f39ff3c93d1", "lat": 38.897235, "lon": -77.04492933333333, "fusion_lat": 0.0, "name": "3e2f76db8b1d1970274e3f39ff3c93d1"}, {"fusion_lon": 0.0, "rental_uris": {"ios": "https://dc.lft.to/lastmile_qr_scan", "android": "https://dc.lft.to/lastmile_qr_scan"}, "type": "electric_scooter", "is_reserved": 0, "is_disabled": 0, "bike_id": "cdb26f7665ab57f22370ebb6b94d6d7c", "lat": 38.92749033333333, "lon": -77.02961333333333, "fusion_lat": 0.0, "name": "cdb26f7665ab57f22370ebb6b94d6d7c"}, {"fusion_lon": 0.0, "rental_uris": {"ios": "https://dc.lft.to/lastmile_qr_scan", "android": "https://dc.lft.to/lastmile_qr_scan"}, "type": "electric_bike", "is_reserved": 0, "is_disabled": 0, "bike_id": "3e6c5009f2bacf6395fd194218a4189a", "lat": 38.94509883333333, "lon": -77.00674533333333, "fusion_lat": 0.0, "name": "3e6c5009f2bacf6395fd194218a4189a"}, {"fusion_lon": 0.0, "rental_uris": {"ios": "https://dc.lft.to/lastmile_qr_scan", "android": "https://dc.lft.to/lastmile_qr_scan"}, "type": "electric_scooter", "is_reserved": 0, "is_disabled": 0, "bike_id": "bbfa36d35c6ffa372f5d6fc1f809bf25", "lat": 38.896255, "lon": -76.997308, "fusion_lat": 0.0, "name": "bbfa36d35c6ffa372f5d6fc1f809bf25"}, {"fusion_lon": 0.0, "rental_uris": {"ios": "https://dc.lft.to/lastmile_qr_scan", "android": "https://dc.lft.to/lastmile_qr_scan"}, "type": "electric_scooter", "is_reserved": 0, "is_disabled": 0, "bike_id": "566892a38060ab20e19b7c56348ba9c0", "lat": 38.9385855, "lon": -77.02465066666667, "fusion_lat": 0.0, "name": "566892a38060ab20e19b7c56348ba9c0"}, {"fusion_lon": 0.0, "rental_uris": {"ios": "https://dc.lft.to/lastmile_qr_scan", "android": "https://dc.lft.to/lastmile_qr_scan"}, "type": "electric_scooter", "is_reserved": 0, "is_disabled": 0, "bike_id": "b24f34610f8f6c791bb16d4f841a85c2", "lat": 38.8999135, "lon": -77.030753, "fusion_lat": 0.0, "name": "b24f34610f8f6c791bb16d4f841a85c2"}, {"fusion_lon": 0.0, "rental_uris": {"ios": "https://dc.lft.to/lastmile_qr_scan", "android": "https://dc.lft.to/lastmile_qr_scan"}, "type": "electric_scooter", "is_reserved": 0, "is_disabled": 0, "bike_id": "f544ec349a67a84102b5d0c14449fb2d", "lat": 38.91816466666667, "lon": -77.0416865, "fusion_lat": 0.0, "name": "f544ec349a67a84102b5d0c14449fb2d"}, {"fusion_lon": 0.0, "rental_uris": {"ios": "https://dc.lft.to/lastmile_qr_scan", "android": "https://dc.lft.to/lastmile_qr_scan"}, "type": "electric_scooter", "is_reserved": 0, "is_disabled": 0, "bike_id": "4489ab15c5da938430f08f320ac4b9a1", "lat": 38.92708366666667, "lon": -77.020988, "fusion_lat": 0.0, "name": "4489ab15c5da938430f08f320ac4b9a1"}, {"fusion_lon": 0.0, "rental_uris": {"ios": "https://dc.lft.to/lastmile_qr_scan", "android": "https://dc.lft.to/lastmile_qr_scan"}, "type": "electric_scooter", "is_reserved": 0, "is_disabled": 0, "bike_id": "63793dee1ff65cbce2e3a095912727e5", "lat": 38.91327866666666, "lon": -77.04533116666667, "fusion_lat": 0.0, "name": "63793dee1ff65cbce2e3a095912727e5"}, {"fusion_lon": 0.0, "rental_uris": {"ios": "https://dc.lft.to/lastmile_qr_scan", "android": "https://dc.lft.to/lastmile_qr_scan"}, "type": "electric_scooter", "is_reserved": 0, "is_disabled": 0, "bike_id": "6129cf2e7c51ed5b53e586be5ddaa6a9", "lat": 38.90657183333333, "lon": -77.0432915, "fusion_lat": 0.0, "name": "6129cf2e7c51ed5b53e586be5ddaa6a9"}, {"fusion_lon": 0.0, "rental_uris": {"ios": "https://dc.lft.to/lastmile_qr_scan", "android": "https://dc.lft.to/lastmile_qr_scan"}, "type": "electric_scooter", "is_reserved": 0, "is_disabled": 0, "bike_id": "adf869e5c9adf70770a7bd0d2f3191ce", "lat": 38.91189833333333, "lon": -77.06086766666667, "fusion_lat": 0.0, "name": "adf869e5c9adf70770a7bd0d2f3191ce"}, {"fusion_lon": 0.0, "rental_uris": {"ios": "https://dc.lft.to/lastmile_qr_scan", "android": "https://dc.lft.to/lastmile_qr_scan"}, "type": "electric_scooter", "is_reserved": 0, "is_disabled": 0, "bike_id": "615d7a6464701e706975e57014422811", "lat": 38.906064666666666, "lon": -77.04041633333334, "fusion_lat": 0.0, "name": "615d7a6464701e706975e57014422811"}, {"fusion_lon": 0.0, "rental_uris": {"ios": "https://dc.lft.to/lastmile_qr_scan", "android": "https://dc.lft.to/lastmile_qr_scan"}, "type": "electric_scooter", "is_reserved": 0, "is_disabled": 0, "bike_id": "ef60062d97977c9c3b831a84c4a556d8", "lat": 38.896103, "lon": -77.0441045, "fusion_lat": 0.0, "name": "ef60062d97977c9c3b831a84c4a556d8"}, {"fusion_lon": 0.0, "rental_uris": {"ios": "https://dc.lft.to/lastmile_qr_scan", "android": "https://dc.lft.to/lastmile_qr_scan"}, "type": "electric_scooter", "is_reserved": 0, "is_disabled": 0, "bike_id": "1a9d7238d8d0d85bd4bb6862d94046ab", "lat": 38.90673983333333, "lon": -77.07318483333333, "fusion_lat": 0.0, "name": "1a9d7238d8d0d85bd4bb6862d94046ab"}, {"fusion_lon": 0.0, "rental_uris": {"ios": "https://dc.lft.to/lastmile_qr_scan", "android": "https://dc.lft.to/lastmile_qr_scan"}, "type": "electric_scooter", "is_reserved": 0, "is_disabled": 0, "bike_id": "1ee7a710c2313954bf06d40deb779ead", "lat": 38.909008666666665, "lon": -77.03172266666667, "fusion_lat": 0.0, "name": "1ee7a710c2313954bf06d40deb779ead"}, {"fusion_lon": 0.0, "rental_uris": {"ios": "https://dc.lft.to/lastmile_qr_scan", "android": "https://dc.lft.to/lastmile_qr_scan"}, "type": "electric_scooter", "is_reserved": 0, "is_disabled": 0, "bike_id": "75ff4c24ce72810b62769b52d919ecc1", "lat": 38.92390783333333, "lon": -77.04062783333333, "fusion_lat": 0.0, "name": "75ff4c24ce72810b62769b52d919ecc1"}, {"fusion_lon": 0.0, "rental_uris": {"ios": "https://dc.lft.to/lastmile_qr_scan", "android": "https://dc.lft.to/lastmile_qr_scan"}, "type": "electric_scooter", "is_reserved": 0, "is_disabled": 0, "bike_id": "b1bdfce250ea5801c80eac905c66bca9", "lat": 38.8937625, "lon": -77.04769166666667, "fusion_lat": 0.0, "name": "b1bdfce250ea5801c80eac905c66bca9"}, {"fusion_lon": 0.0, "rental_uris": {"ios": "https://dc.lft.to/lastmile_qr_scan", "android": "https://dc.lft.to/lastmile_qr_scan"}, "type": "electric_scooter", "is_reserved": 0, "is_disabled": 0, "bike_id": "2141e7ea14bc03208efcdcad19dbee00", "lat": 38.923330166666666, "lon": -77.02290066666667, "fusion_lat": 0.0, "name": "2141e7ea14bc03208efcdcad19dbee00"}, {"fusion_lon": 0.0, "rental_uris": {"ios": "https://dc.lft.to/lastmile_qr_scan", "android": "https://dc.lft.to/lastmile_qr_scan"}, "type": "electric_scooter", "is_reserved": 0, "is_disabled": 0, "bike_id": "70e50de9f62ac1778397997b8e09408f", "lat": 38.9003435, "lon": -77.03341166666667, "fusion_lat": 0.0, "name": "70e50de9f62ac1778397997b8e09408f"}, {"fusion_lon": 0.0, "rental_uris": {"ios": "https://dc.lft.to/lastmile_qr_scan", "android": "https://dc.lft.to/lastmile_qr_scan"}, "type": "electric_scooter", "is_reserved": 0, "is_disabled": 0, "bike_id": "f070888ec317f4bff7350945b47a1ee5", "lat": 38.895542166666665, "lon": -77.04672033333334, "fusion_lat": 0.0, "name": "f070888ec317f4bff7350945b47a1ee5"}, {"fusion_lon": 0.0, "rental_uris": {"ios": "https://dc.lft.to/lastmile_qr_scan", "android": "https://dc.lft.to/lastmile_qr_scan"}, "type": "electric_scooter", "is_reserved": 0, "is_disabled": 0, "bike_id": "a1de9e48d4a4a90fd5488546ab4412c2", "lat": 38.895627, "lon": -77.02737083333334, "fusion_lat": 0.0, "name": "a1de9e48d4a4a90fd5488546ab4412c2"}, {"fusion_lon": 0.0, "rental_uris": {"ios": "https://dc.lft.to/lastmile_qr_scan", "android": "https://dc.lft.to/lastmile_qr_scan"}, "type": "electric_scooter", "is_reserved": 0, "is_disabled": 0, "bike_id": "613736c862e412ac773952eaac5355a1", "lat": 38.91687833333334, "lon": -77.02931233333334, "fusion_lat": 0.0, "name": "613736c862e412ac773952eaac5355a1"}, {"fusion_lon": 0.0, "rental_uris": {"ios": "https://dc.lft.to/lastmile_qr_scan", "android": "https://dc.lft.to/lastmile_qr_scan"}, "type": "electric_scooter", "is_reserved": 0, "is_disabled": 0, "bike_id": "90036c147b5993d02b8b2c5be1eb2173", "lat": 38.9057665, "lon": -77.03822366666667, "fusion_lat": 0.0, "name": "90036c147b5993d02b8b2c5be1eb2173"}, {"fusion_lon": 0.0, "rental_uris": {"ios": "https://dc.lft.to/lastmile_qr_scan", "android": "https://dc.lft.to/lastmile_qr_scan"}, "type": "electric_scooter", "is_reserved": 0, "is_disabled": 0, "bike_id": "5b475095f242f3e029ce9cb47c67a628", "lat": 38.915699833333335, "lon": -77.0239025, "fusion_lat": 0.0, "name": "5b475095f242f3e029ce9cb47c67a628"}, {"fusion_lon": 0.0, "rental_uris": {"ios": "https://dc.lft.to/lastmile_qr_scan", "android": "https://dc.lft.to/lastmile_qr_scan"}, "type": "electric_scooter", "is_reserved": 0, "is_disabled": 0, "bike_id": "bf62fa5700d228dafe2fdd1a933c1001", "lat": 38.9202755, "lon": -77.07121933333333, "fusion_lat": 0.0, "name": "bf62fa5700d228dafe2fdd1a933c1001"}, {"fusion_lon": 0.0, "rental_uris": {"ios": "https://dc.lft.to/lastmile_qr_scan", "android": "https://dc.lft.to/lastmile_qr_scan"}, "type": "electric_bike", "is_reserved": 0, "is_disabled": 0, "bike_id": "55005511ad568a0854e5465fbaadf3d6", "lat": 38.90705833333333, "lon": -77.05131533333333, "fusion_lat": 0.0, "name": "55005511ad568a0854e5465fbaadf3d6"}, {"fusion_lon": 0.0, "rental_uris": {"ios": "https://dc.lft.to/lastmile_qr_scan", "android": "https://dc.lft.to/lastmile_qr_scan"}, "type": "electric_scooter", "is_reserved": 0, "is_disabled": 0, "bike_id": "fd1954b01fd232b2064f82c5035486df", "lat": 38.91971766666666, "lon": -77.0384785, "fusion_lat": 0.0, "name": "fd1954b01fd232b2064f82c5035486df"}, {"fusion_lon": 0.0, "rental_uris": {"ios": "https://dc.lft.to/lastmile_qr_scan", "android": "https://dc.lft.to/lastmile_qr_scan"}, "type": "electric_scooter", "is_reserved": 0, "is_disabled": 0, "bike_id": "cfffd654a0842c9fd9aae824a9815c62", "lat": 38.895646, "lon": -77.04156783333333, "fusion_lat": 0.0, "name": "cfffd654a0842c9fd9aae824a9815c62"}, {"fusion_lon": 0.0, "rental_uris": {"ios": "https://dc.lft.to/lastmile_qr_scan", "android": "https://dc.lft.to/lastmile_qr_scan"}, "type": "electric_scooter", "is_reserved": 0, "is_disabled": 0, "bike_id": "1f97857dcde227e386907a857882ee45", "lat": 38.89873083333333, "lon": -76.94663483333333, "fusion_lat": 0.0, "name": "1f97857dcde227e386907a857882ee45"}, {"fusion_lon": 0.0, "rental_uris": {"ios": "https://dc.lft.to/lastmile_qr_scan", "android": "https://dc.lft.to/lastmile_qr_scan"}, "type": "electric_bike", "is_reserved": 0, "is_disabled": 0, "bike_id": "1396a1a6f88de898ceb0080c29ac361f", "lat": 38.9090705, "lon": -77.08997183333334, "fusion_lat": 0.0, "name": "1396a1a6f88de898ceb0080c29ac361f"}, {"fusion_lon": 0.0, "rental_uris": {"ios": "https://dc.lft.to/lastmile_qr_scan", "android": "https://dc.lft.to/lastmile_qr_scan"}, "type": "electric_scooter", "is_reserved": 0, "is_disabled": 0, "bike_id": "7884ecbb3def8aacb47e7cd79086301f", "lat": 38.962183333333336, "lon": -77.0277675, "fusion_lat": 0.0, "name": "7884ecbb3def8aacb47e7cd79086301f"}, {"fusion_lon": 0.0, "rental_uris": {"ios": "https://dc.lft.to/lastmile_qr_scan", "android": "https://dc.lft.to/lastmile_qr_scan"}, "type": "electric_scooter", "is_reserved": 0, "is_disabled": 0, "bike_id": "65e0d50d36f0c6595520c2b49cd4223b", "lat": 38.90310016666667, "lon": -77.03651383333333, "fusion_lat": 0.0, "name": "65e0d50d36f0c6595520c2b49cd4223b"}, {"fusion_lon": 0.0, "rental_uris": {"ios": "https://dc.lft.to/lastmile_qr_scan", "android": "https://dc.lft.to/lastmile_qr_scan"}, "type": "electric_scooter", "is_reserved": 0, "is_disabled": 0, "bike_id": "3e18f498a853cbe6e86703657d843291", "lat": 38.90556266666667, "lon": -76.9965075, "fusion_lat": 0.0, "name": "3e18f498a853cbe6e86703657d843291"}, {"fusion_lon": 0.0, "rental_uris": {"ios": "https://dc.lft.to/lastmile_qr_scan", "android": "https://dc.lft.to/lastmile_qr_scan"}, "type": "electric_scooter", "is_reserved": 0, "is_disabled": 0, "bike_id": "7ad83faa995a617fa8420cc1a238f79a", "lat": 38.92982133333334, "lon": -77.0728555, "fusion_lat": 0.0, "name": "7ad83faa995a617fa8420cc1a238f79a"}, {"fusion_lon": 0.0, "rental_uris": {"ios": "https://dc.lft.to/lastmile_qr_scan", "android": "https://dc.lft.to/lastmile_qr_scan"}, "type": "electric_scooter", "is_reserved": 0, "is_disabled": 0, "bike_id": "8aadfaf60fef4e4ca9e895ba8b7b6031", "lat": 38.92678333333333, "lon": -77.02787683333334, "fusion_lat": 0.0, "name": "8aadfaf60fef4e4ca9e895ba8b7b6031"}, {"fusion_lon": 0.0, "rental_uris": {"ios": "https://dc.lft.to/lastmile_qr_scan", "android": "https://dc.lft.to/lastmile_qr_scan"}, "type": "electric_scooter", "is_reserved": 0, "is_disabled": 0, "bike_id": "27c7d35ac5d1b2be14777822d16128e5", "lat": 38.89398966666667, "lon": -76.97817983333333, "fusion_lat": 0.0, "name": "27c7d35ac5d1b2be14777822d16128e5"}, {"fusion_lon": 0.0, "rental_uris": {"ios": "https://dc.lft.to/lastmile_qr_scan", "android": "https://dc.lft.to/lastmile_qr_scan"}, "type": "electric_scooter", "is_reserved": 0, "is_disabled": 0, "bike_id": "38e7755381143fea9f8392cd520eb0c3", "lat": 38.899103, "lon": -77.04143183333333, "fusion_lat": 0.0, "name": "38e7755381143fea9f8392cd520eb0c3"}, {"fusion_lon": 0.0, "rental_uris": {"ios": "https://dc.lft.to/lastmile_qr_scan", "android": "https://dc.lft.to/lastmile_qr_scan"}, "type": "electric_scooter", "is_reserved": 0, "is_disabled": 0, "bike_id": "67153ce51888881682e2b8f390168197", "lat": 38.90456916666667, "lon": -77.0404745, "fusion_lat": 0.0, "name": "67153ce51888881682e2b8f390168197"}, {"fusion_lon": 0.0, "rental_uris": {"ios": "https://dc.lft.to/lastmile_qr_scan", "android": "https://dc.lft.to/lastmile_qr_scan"}, "type": "electric_scooter", "is_reserved": 0, "is_disabled": 0, "bike_id": "7c3f782d3b82befacc9c974c425231a2", "lat": 38.91929233333333, "lon": -77.019671, "fusion_lat": 0.0, "name": "7c3f782d3b82befacc9c974c425231a2"}, {"fusion_lon": 0.0, "rental_uris": {"ios": "https://dc.lft.to/lastmile_qr_scan", "android": "https://dc.lft.to/lastmile_qr_scan"},