{"data": {"bikes": [{"type": "electric_scooter", "name": "3dc858984bfd96edf153c0c3a675d22a", "rental_uris": {"ios": "https://dc.lft.to/lastmile_qr_scan", "android": "https://dc.lft.to/lastmile_qr_scan"}, "fusion_lon": 0.0, "lat": 38.930112333333334, "is_disabled": 0, "bike_id": "3dc858984bfd96edf153c0c3a675d22a", "fusion_lat": 0.0, "is_reserved": 0, "lon": -77.02095566666667}, {"type": "electric_scooter", "name": "f884e2a1b035141e04aa96adc5b4fe7e", "rental_uris": {"ios": "https://dc.lft.to/lastmile_qr_scan", "android": "https://dc.lft.to/lastmile_qr_scan"}, "fusion_lon": 0.0, "lat": 38.91817483333333, "is_disabled": 0, "bike_id": "f884e2a1b035141e04aa96adc5b4fe7e", "fusion_lat": 0.0, "is_reserved": 0, "lon": -77.02719416666666}, {"type": "electric_scooter", "name": "7149346edee7644948af71212530f8d2", "rental_uris": {"ios": "https://dc.lft.to/lastmile_qr_scan", "android": "https://dc.lft.to/lastmile_qr_scan"}, "fusion_lon": 0.0, "lat": 38.90570366666667, "is_disabled": 0, "bike_id": "7149346edee7644948af71212530f8d2", "fusion_lat": 0.0, "is_reserved": 0, "lon": -77.02203916666667}, {"type": "electric_scooter", "name": "6d9837e855e60d08e3d664a3adc75b04", "rental_uris": {"ios": "https://dc.lft.to/lastmile_qr_scan", "android": "https://dc.lft.to/lastmile_qr_scan"}, "fusion_lon": 0.0, "lat": 38.89544166666667, "is_disabled": 0, "bike_id": "6d9837e855e60d08e3d664a3adc75b04", "fusion_lat": 0.0, "is_reserved": 0, "lon": -77.04851966666666}, {"type": "electric_scooter", "name": "3b742d9404a5d7b2efbef012ec5974ef", "rental_uris": {"ios": "https://dc.lft.to/lastmile_qr_scan", "android": "https://dc.lft.to/lastmile_qr_scan"}, "fusion_lon": 0.0, "lat": 38.87720566666667, "is_disabled": 0, "bike_id": "3b742d9404a5d7b2efbef012ec5974ef", "fusion_lat": 0.0, "is_reserved": 0, "lon": -77.00432516666666}, {"type": "electric_scooter", "name": "e4fd1d23c848ef59c637aa7d66c3af48", "rental_uris": {"ios": "https://dc.lft.to/lastmile_qr_scan", "android": "https://dc.lft.to/lastmile_qr_scan"}, "fusion_lon": 0.0, "lat": 38.908714, "is_disabled": 0, "bike_id": "e4fd1d23c848ef59c637aa7d66c3af48", "fusion_lat": 0.0, "is_reserved": 0, "lon": -77.0269145}, {"type": "electric_scooter", "name": "1b483a99b53e4c1c682c902051f1438d", "rental_uris": {"ios": "https://dc.lft.to/lastmile_qr_scan", "android": "https://dc.lft.to/lastmile_qr_scan"}, "fusion_lon": 0.0, "lat": 38.887429166666664, "is_disabled": 0, "bike_id": "1b483a99b53e4c1c682c902051f1438d", "fusion_lat": 0.0, "is_reserved": 0, "lon": -77.028421}, {"type": "electric_scooter", "name": "38f4ce988982b1bf1b35e3269f5317f0", "rental_uris": {"ios": "https://dc.lft.to/lastmile_qr_scan", "android": "https://dc.lft.to/lastmile_qr_scan"}, "fusion_lon": 0.0, "lat": 38.9415755, "is_disabled": 0, "bike_id": "38f4ce988982b1bf1b35e3269f5317f0", "fusion_lat": 0.0, "is_reserved": 0, "lon": -77.09270883333333}, {"type": "electric_scooter", "name": "4702679e4e01a79a1554162954a529ca", "rental_uris": {"ios": "https://dc.lft.to/lastmile_qr_scan", "android": "https://dc.lft.to/lastmile_qr_scan"}, "fusion_lon": 0.0, "lat": 38.91921166666667, "is_disabled": 0, "bike_id": "4702679e4e01a79a1554162954a529ca", "fusion_lat": 0.0, "is_reserved": 0, "lon": -77.009834}, {"type": "electric_scooter", "name": "767711a327a49d84c690daeff50971b9", "rental_uris": {"ios": "https://dc.lft.to/lastmile_qr_scan", "android": "https://dc.lft.to/lastmile_qr_scan"}, "fusion_lon": 0.0, "lat": 38.920537333333336, "is_disabled": 0, "bike_id": "767711a327a49d84c690daeff50971b9", "fusion_lat": 0.0, "is_reserved": 0, "lon": -77.04187416666667}, {"type": "electric_scooter", "name": "f0d335efeac3127c8176f08f0b532718", "rental_uris": {"ios": "https://dc.lft.to/lastmile_qr_scan", "android": "https://dc.lft.to/lastmile_qr_scan"}, "fusion_lon": 0.0, "lat": 38.9285785, "is_disabled": 0, "bike_id": "f0d335efeac3127c8176f08f0b532718", "fusion_lat": 0.0, "is_reserved": 0, "lon": -77.0290185}, {"type": "electric_scooter", "name": "a1b98eec5b969c39a9ebc5c06a7ff78d", "rental_uris": {"ios": "https://dc.lft.to/lastmile_qr_scan", "android": "https://dc.lft.to/lastmile_qr_scan"}, "fusion_lon": 0.0, "lat": 38.87721833333333, "is_disabled": 0, "bike_id": "a1b98eec5b969c39a9ebc5c06a7ff78d", "fusion_lat": 0.0, "is_reserved": 0, "lon": -77.0042475}, {"type": "electric_scooter", "name": "f4abf8954eb0993dec37d1b7684f70ee", "rental_uris": {"ios": "https://dc.lft.to/lastmile_qr_scan", "android": "https://dc.lft.to/lastmile_qr_scan"}, "fusion_lon": 0.0, "lat": 38.906321, "is_disabled": 0, "bike_id": "f4abf8954eb0993dec37d1b7684f70ee", "fusion_lat": 0.0, "is_reserved": 0, "lon": -77.009707}, {"type": "electric_scooter", "name": "d57cb992e77bdd5bc22847b050311a4c", "rental_uris": {"ios": "https://dc.lft.to/lastmile_qr_scan", "android": "https://dc.lft.to/lastmile_qr_scan"}, "fusion_lon": 0.0, "lat": 38.939240166666664, "is_disabled": 0, "bike_id": "d57cb992e77bdd5bc22847b050311a4c", "fusion_lat": 0.0, "is_reserved": 0, "lon": -77.02787683333334}, {"type": "electric_bike", "name": "296282d787100a2034e7c857008ab765", "rental_uris": {"ios": "https://dc.lft.to/lastmile_qr_scan", "android": "https://dc.lft.to/lastmile_qr_scan"}, "fusion_lon": 0.0, "lat": 38.864505666666666, "is_disabled": 0, "bike_id": "296282d787100a2034e7c857008ab765", "fusion_lat": 0.0, "is_reserved": 0, "lon": -77.106859}, {"type": "electric_scooter", "name": "196771737fe799cee656da4eaa22fb0f", "rental_uris": {"ios": "https://dc.lft.to/lastmile_qr_scan", "android": "https://dc.lft.to/lastmile_qr_scan"}, "fusion_lon": 0.0, "lat": 38.934309, "is_disabled": 0, "bike_id": "196771737fe799cee656da4eaa22fb0f", "fusion_lat": 0.0, "is_reserved": 0, "lon": -77.05587416666667}, {"type": "electric_scooter", "name": "3bdfa9c282bb66a5902235b0f5798e53", "rental_uris": {"ios": "https://dc.lft.to/lastmile_qr_scan", "android": "https://dc.lft.to/lastmile_qr_scan"}, "fusion_lon": 0.0, "lat": 38.876167833333334, "is_disabled": 0, "bike_id": "3bdfa9c282bb66a5902235b0f5798e53", "fusion_lat": 0.0, "is_reserved": 0, "lon": -77.01587516666666}, {"type": "electric_scooter", "name": "8b056d0baf1127b087683beffe8fa367", "rental_uris": {"ios": "https://dc.lft.to/lastmile_qr_scan", "android": "https://dc.lft.to/lastmile_qr_scan"}, "fusion_lon": 0.0, "lat": 38.9037475, "is_disabled": 0, "bike_id": "8b056d0baf1127b087683beffe8fa367", "fusion_lat": 0.0, "is_reserved": 0, "lon": -77.01646883333333}, {"type": "electric_scooter", "name": "05c990e77469e301d64eec37a8c7a162", "rental_uris": {"ios": "https://dc.lft.to/lastmile_qr_scan", "android": "https://dc.lft.to/lastmile_qr_scan"}, "fusion_lon": 0.0, "lat": 38.9311835, "is_disabled": 0, "bike_id": "05c990e77469e301d64eec37a8c7a162", "fusion_lat": 0.0, "is_reserved": 0, "lon": -77.03809}, {"type": "electric_scooter", "name": "e18ade0b3b7e7dd02dbc0e9d715adb6a", "rental_uris": {"ios": "https://dc.lft.to/lastmile_qr_scan", "android": "https://dc.lft.to/lastmile_qr_scan"}, "fusion_lon": 0.0, "lat": 38.89685716666666, "is_disabled": 0, "bike_id": "e18ade0b3b7e7dd02dbc0e9d715adb6a", "fusion_lat": 0.0, "is_reserved": 0, "lon": -77.04659916666667}, {"type": "electric_scooter", "name": "937c50cdf485cd1c667976f8a6c74dd2", "rental_uris": {"ios": "https://dc.lft.to/lastmile_qr_scan", "android": "https://dc.lft.to/lastmile_qr_scan"}, "fusion_lon": 0.0, "lat": 38.905579833333334, "is_disabled": 0, "bike_id": "937c50cdf485cd1c667976f8a6c74dd2", "fusion_lat": 0.0, "is_reserved": 0, "lon": -77.0131315}, {"type": "electric_bike", "name": "b0ceabc7426e45b72e645a9b03e772a0", "rental_uris": {"ios": "https://dc.lft.to/lastmile_qr_scan", "android": "https://dc.lft.to/lastmile_qr_scan"}, "fusion_lon": 0.0, "lat": 38.89792666666666, "is_disabled": 0, "bike_id": "b0ceabc7426e45b72e645a9b03e772a0", "fusion_lat": 0.0, "is_reserved": 0, "lon": -77.00604983333334}, {"type": "electric_scooter", "name": "d146e216881ca8481a15ffedc1db6a9b", "rental_uris": {"ios": "https://dc.lft.to/lastmile_qr_scan", "android": "https://dc.lft.to/lastmile_qr_scan"}, "fusion_lon": 0.0, "lat": 38.91775783333333, "is_disabled": 0, "bike_id": "d146e216881ca8481a15ffedc1db6a9b", "fusion_lat": 0.0, "is_reserved": 0, "lon": -77.0229325}, {"type": "electric_scooter", "name": "4c9d3363026060fb869c6003bf8faddd", "rental_uris": {"ios": "https://dc.lft.to/lastmile_qr_scan", "android": "https://dc.lft.to/lastmile_qr_scan"}, "fusion_lon": 0.0, "lat": 38.93184433333333, "is_disabled": 0, "bike_id": "4c9d3363026060fb869c6003bf8faddd", "fusion_lat": 0.0, "is_reserved": 0, "lon": -77.0431355}, {"type": "electric_scooter", "name": "69b7993c669378a600354c2826fd3f69", "rental_uris": {"ios": "https://dc.lft.to/lastmile_qr_scan", "android": "https://dc.lft.to/lastmile_qr_scan"}, "fusion_lon": 0.0, "lat": 38.936784, "is_disabled": 0, "bike_id": "69b7993c669378a600354c2826fd3f69", "fusion_lat": 0.0, "is_reserved": 0, "lon": -77.03593183333334}, {"type": "electric_scooter", "name": "573735543f53503c082e96517e36bcb1", "rental_uris": {"ios": "https://dc.lft.to/lastmile_qr_scan", "android": "https://dc.lft.to/lastmile_qr_scan"}, "fusion_lon": 0.0, "lat": 38.89224766666667, "is_disabled": 0, "bike_id": "573735543f53503c082e96517e36bcb1", "fusion_lat": 0.0, "is_reserved": 0, "lon": -77.0432955}, {"type": "electric_scooter", "name": "1a1d679645903931fcd50fb40724d270", "rental_uris": {"ios": "https://dc.lft.to/lastmile_qr_scan", "android": "https://dc.lft.to/lastmile_qr_scan"}, "fusion_lon": 0.0, "lat": 38.965094, "is_disabled": 0, "bike_id": "1a1d679645903931fcd50fb40724d270", "fusion_lat": 0.0, "is_reserved": 0, "lon": -77.02595183333334}, {"type": "electric_scooter", "name": "d05e525eb67d1e4f3bd5202054b400c3", "rental_uris": {"ios": "https://dc.lft.to/lastmile_qr_scan", "android": "https://dc.lft.to/lastmile_qr_scan"}, "fusion_lon": 0.0, "lat": 38.90467066666667, "is_disabled": 0, "bike_id": "d05e525eb67d1e4f3bd5202054b400c3", "fusion_lat": 0.0, "is_reserved": 0, "lon": -77.043347}, {"type": "electric_scooter", "name": "ec32a8e14f6ac0aeb54e8625c185eb5e", "rental_uris": {"ios": "https://dc.lft.to/lastmile_qr_scan", "android": "https://dc.lft.to/lastmile_qr_scan"}, "fusion_lon": 0.0, "lat": 38.908197, "is_disabled": 0, "bike_id": "ec32a8e14f6ac0aeb54e8625c185eb5e", "fusion_lat": 0.0, "is_reserved": 0, "lon": -77.04342783333334}, {"type": "electric_scooter", "name": "d0f213fb45ac1bd9ffe9f4e04993f9b4", "rental_uris": {"ios": "https://dc.lft.to/lastmile_qr_scan", "android": "https://dc.lft.to/lastmile_qr_scan"}, "fusion_lon": 0.0, "lat": 38.88487383333333, "is_disabled": 0, "bike_id": "d0f213fb45ac1bd9ffe9f4e04993f9b4", "fusion_lat": 0.0, "is_reserved": 0, "lon": -77.0071005}, {"type": "electric_scooter", "name": "f2cc212672bff5756ef182abafc8d39c", "rental_uris": {"ios": "https://dc.lft.to/lastmile_qr_scan", "android": "https://dc.lft.to/lastmile_qr_scan"}, "fusion_lon": 0.0, "lat": 38.867578333333334, "is_disabled": 0, "bike_id": "f2cc212672bff5756ef182abafc8d39c", "fusion_lat": 0.0, "is_reserved": 0, "lon": -76.98282216666666}, {"type": "electric_scooter", "name": "95af156eb181fff9d49c0d0408e2183d", "rental_uris": {"ios": "https://dc.lft.to/lastmile_qr_scan", "android": "https://dc.lft.to/lastmile_qr_scan"}, "fusion_lon": 0.0, "lat": 38.9167815, "is_disabled": 0, "bike_id": "95af156eb181fff9d49c0d0408e2183d", "fusion_lat": 0.0, "is_reserved": 0, "lon": -77.00347983333333}, {"type": "electric_scooter", "name": "91f0b033c17dfd8fee43944ab7dc681b", "rental_uris": {"ios": "https://dc.lft.to/lastmile_qr_scan", "android": "https://dc.lft.to/lastmile_qr_scan"}, "fusion_lon": 0.0, "lat": 38.915606, "is_disabled": 0, "bike_id": "91f0b033c17dfd8fee43944ab7dc681b", "fusion_lat": 0.0, "is_reserved": 0, "lon": -77.03142616666666}, {"type": "electric_scooter", "name": "85ff290cb267041f376ef5147d9f6c37", "rental_uris": {"ios": "https://dc.lft.to/lastmile_qr_scan", "android": "https://dc.lft.to/lastmile_qr_scan"}, "fusion_lon": 0.0, "lat": 38.894410666666666, "is_disabled": 0, "bike_id": "85ff290cb267041f376ef5147d9f6c37", "fusion_lat": 0.0, "is_reserved": 0, "lon": -76.97721466666667}, {"type": "electric_scooter", "name": "96026bbbdf93e4fcc213741b6a368b29", "rental_uris": {"ios": "https://dc.lft.to/lastmile_qr_scan", "android": "https://dc.lft.to/lastmile_qr_scan"}, "fusion_lon": 0.0, "lat": 38.903417, "is_disabled": 0, "bike_id": "96026bbbdf93e4fcc213741b6a368b29", "fusion_lat": 0.0, "is_reserved": 0, "lon": -77.0433355}, {"type": "electric_scooter", "name": "68fb182672d6913f7df9b35fa5402964", "rental_uris": {"ios": "https://dc.lft.to/lastmile_qr_scan", "android": "https://dc.lft.to/lastmile_qr_scan"}, "fusion_lon": 0.0, "lat": 38.92490933333333, "is_disabled": 0, "bike_id": "68fb182672d6913f7df9b35fa5402964", "fusion_lat": 0.0, "is_reserved": 0, "lon": -77.02649066666666}, {"type": "electric_scooter", "name": "ba2e64916e752cf1ba43383399a24915", "rental_uris": {"ios": "https://dc.lft.to/lastmile_qr_scan", "android": "https://dc.lft.to/lastmile_qr_scan"}, "fusion_lon": 0.0, "lat": 38.921194166666666, "is_disabled": 0, "bike_id": "ba2e64916e752cf1ba43383399a24915", "fusion_lat": 0.0, "is_reserved": 0, "lon": -77.01211083333334}, {"type": "electric_scooter", "name": "83e09c00fc844d2719022203e86993a4", "rental_uris": {"ios": "https://dc.lft.to/lastmile_qr_scan", "android": "https://dc.lft.to/lastmile_qr_scan"}, "fusion_lon": 0.0, "lat": 38.91698016666667, "is_disabled": 0, "bike_id": "83e09c00fc844d2719022203e86993a4", "fusion_lat": 0.0, "is_reserved": 0, "lon": -77.041089}, {"type": "electric_scooter", "name": "3ef1160aade4bc92632cdf5e69e51b4b", "rental_uris": {"ios": "https://dc.lft.to/lastmile_qr_scan", "android": "https://dc.lft.to/lastmile_qr_scan"}, "fusion_lon": 0.0, "lat": 38.91703916666667, "is_disabled": 0, "bike_id": "3ef1160aade4bc92632cdf5e69e51b4b", "fusion_lat": 0.0, "is_reserved": 0, "lon": -77.04172283333334}, {"type": "electric_scooter", "name": "c27e2637d97a3ec8c0a8cf8c552e275a", "rental_uris": {"ios": "https://dc.lft.to/lastmile_qr_scan", "android": "https://dc.lft.to/lastmile_qr_scan"}, "fusion_lon": 0.0, "lat": 38.905635833333335, "is_disabled": 0, "bike_id": "c27e2637d97a3ec8c0a8cf8c552e275a", "fusion_lat": 0.0, "is_reserved": 0, "lon": -77.0240435}, {"type": "electric_scooter", "name": "bc5e1a01ec1fd4f32299527ee059ece5", "rental_uris": {"ios": "https://dc.lft.to/lastmile_qr_scan", "android": "https://dc.lft.to/lastmile_qr_scan"}, "fusion_lon": 0.0, "lat": 38.92947616666667, "is_disabled": 0, "bike_id": "bc5e1a01ec1fd4f32299527ee059ece5", "fusion_lat": 0.0, "is_reserved": 0, "lon": -77.0188865}, {"type": "electric_scooter", "name": "7da9b120c35a8c91df268ac9e0173a40", "rental_uris": {"ios": "https://dc.lft.to/lastmile_qr_scan", "android": "https://dc.lft.to/lastmile_qr_scan"}, "fusion_lon": 0.0, "lat": 38.905150666666664, "is_disabled": 0, "bike_id": "7da9b120c35a8c91df268ac9e0173a40", "fusion_lat": 0.0, "is_reserved": 0, "lon": -77.04335716666667}, {"type": "electric_scooter", "name": "e7ad734fc4b44b9cae32469da52a1a0f", "rental_uris": {"ios": "https://dc.lft.to/lastmile_qr_scan", "android": "https://dc.lft.to/lastmile_qr_scan"}, "fusion_lon": 0.0, "lat": 38.903813, "is_disabled": 0, "bike_id": "e7ad734fc4b44b9cae32469da52a1a0f", "fusion_lat": 0.0, "is_reserved": 0, "lon": -77.032032}, {"type": "electric_scooter", "name": "a8fecfcea26455b7f8be45b5a7be3a95", "rental_uris": {"ios": "https://dc.lft.to/lastmile_qr_scan", "android": "https://dc.lft.to/lastmile_qr_scan"}, "fusion_lon": 0.0, "lat": 38.900314, "is_disabled": 0, "bike_id": "a8fecfcea26455b7f8be45b5a7be3a95", "fusion_lat": 0.0, "is_reserved": 0, "lon": -77.04040716666667}, {"type": "electric_scooter", "name": "01fd858528e60b4840497b770ff4e696", "rental_uris": {"ios": "https://dc.lft.to/lastmile_qr_scan", "android": "https://dc.lft.to/lastmile_qr_scan"}, "fusion_lon": 0.0, "lat": 38.900292, "is_disabled": 0, "bike_id": "01fd858528e60b4840497b770ff4e696", "fusion_lat": 0.0, "is_reserved": 0, "lon": -76.9872505}, {"type": "electric_scooter", "name": "db6dd6a8038bbbac777db0b4532713c7", "rental_uris": {"ios": "https://dc.lft.to/lastmile_qr_scan", "android": "https://dc.lft.to/lastmile_qr_scan"}, "fusion_lon": 0.0, "lat": 38.926626666666664, "is_disabled": 0, "bike_id": "db6dd6a8038bbbac777db0b4532713c7", "fusion_lat": 0.0, "is_reserved": 0, "lon": -77.02306533333334}, {"type": "electric_scooter", "name": "535bace4c46950a7420fb1dba120a48f", "rental_uris": {"ios": "https://dc.lft.to/lastmile_qr_scan", "android": "https://dc.lft.to/lastmile_qr_scan"}, "fusion_lon": 0.0, "lat": 38.91037766666667, "is_disabled": 0, "bike_id": "535bace4c46950a7420fb1dba120a48f", "fusion_lat": 0.0, "is_reserved": 0, "lon": -77.01024283333334}, {"type": "electric_scooter", "name": "a82c8b11b2de4231f3cf1cf249dd3796", "rental_uris": {"ios": "https://dc.lft.to/lastmile_qr_scan", "android": "https://dc.lft.to/lastmile_qr_scan"}, "fusion_lon": 0.0, "lat": 38.9123295, "is_disabled": 0, "bike_id": "a82c8b11b2de4231f3cf1cf249dd3796", "fusion_lat": 0.0, "is_reserved": 0, "lon": -77.04876233333333}, {"type": "electric_scooter", "name": "4d61fadd68463329e1e055437836eab7", "rental_uris": {"ios": "https://dc.lft.to/lastmile_qr_scan", "android": "https://dc.lft.to/lastmile_qr_scan"}, "fusion_lon": 0.0, "lat": 38.92478066666666, "is_disabled": 0, "bike_id": "4d61fadd68463329e1e055437836eab7", "fusion_lat": 0.0, "is_reserved": 0, "lon": -77.02211633333333}, {"type": "electric_scooter", "name": "0564229468a0f5c85162d71961003a1e", "rental_uris": {"ios": "https://dc.lft.to/lastmile_qr_scan", "android": "https://dc.lft.to/lastmile_qr_scan"}, "fusion_lon": 0.0, "lat": 38.91684016666667, "is_disabled": 0, "bike_id": "0564229468a0f5c85162d71961003a1e", "fusion_lat": 0.0, "is_reserved": 0, "lon": -77.02949433333333}, {"type": "electric_scooter", "name": "7f4f7d7308fdb19870cbedfbe550cf2e", "rental_uris": {"ios": "https://dc.lft.to/lastmile_qr_scan", "android": "https://dc.lft.to/lastmile_qr_scan"}, "fusion_lon": 0.0, "lat": 38.930789, "is_disabled": 0, "bike_id": "7f4f7d7308fdb19870cbedfbe550cf2e", "fusion_lat": 0.0, "is_reserved": 0, "lon": -77.028052}, {"type": "electric_scooter", "name": "749248a066e2a29bd765d594926ae9db", "rental_uris": {"ios": "https://dc.lft.to/lastmile_qr_scan", "android": "https://dc.lft.to/lastmile_qr_scan"}, "fusion_lon": 0.0, "lat": 38.9104605, "is_disabled": 0, "bike_id": "749248a066e2a29bd765d594926ae9db", "fusion_lat": 0.0, "is_reserved": 0, "lon": -77.00408016666667}, {"type": "electric_bike", "name": "86b61323ab569d5fa5644d8fc43fc431", "rental_uris": {"ios": "https://dc.lft.to/lastmile_qr_scan", "android": "https://dc.lft.to/lastmile_qr_scan"}, "fusion_lon": 0.0, "lat": 38.85770133333333, "is_disabled": 0, "bike_id": "86b61323ab569d5fa5644d8fc43fc431", "fusion_lat": 0.0, "is_reserved": 0, "lon": -76.9876535}, {"type": "electric_bike", "name": "ae8f8bef96e85b29e96c0cc40ed412a6", "rental_uris": {"ios": "https://dc.lft.to/lastmile_qr_scan", "android": "https://dc.lft.to/lastmile_qr_scan"}, "fusion_lon": 0.0, "lat": 38.926678833333334, "is_disabled": 0, "bike_id": "ae8f8bef96e85b29e96c0cc40ed412a6", "fusion_lat": 0.0, "is_reserved": 0, "lon": -77.09850666666667}, {"type": "electric_scooter", "name": "f327c639e7d86014ca90a80ee2b41445", "rental_uris": {"ios": "https://dc.lft.to/lastmile_qr_scan", "android": "https://dc.lft.to/lastmile_qr_scan"}, "fusion_lon": 0.0, "lat": 38.93832783333333, "is_disabled": 0, "bike_id": "f327c639e7d86014ca90a80ee2b41445", "fusion_lat": 0.0, "is_reserved": 0, "lon": -77.08545483333333}, {"type": "electric_scooter", "name": "f7dd777852fa030691a98165792afb3e", "rental_uris": {"ios": "https://dc.lft.to/lastmile_qr_scan", "android": "https://dc.lft.to/lastmile_qr_scan"}, "fusion_lon": 0.0, "lat": 38.916954833333335, "is_disabled": 0, "bike_id": "f7dd777852fa030691a98165792afb3e", "fusion_lat": 0.0, "is_reserved": 0, "lon": -77.00744616666667}, {"type": "electric_scooter", "name": "6f285cb641f2bd8dee652390e1c17c00", "rental_uris": {"ios": "https://dc.lft.to/lastmile_qr_scan", "android": "https://dc.lft.to/lastmile_qr_scan"}, "fusion_lon": 0.0, "lat": 38.89447883333333, "is_disabled": 0, "bike_id": "6f285cb641f2bd8dee652390e1c17c00", "fusion_lat": 0.0, "is_reserved": 0, "lon": -77.026317}, {"type": "electric_bike", "name": "cb3f2f5244a99244ed479acfdd222132", "rental_uris": {"ios": "https://dc.lft.to/lastmile_qr_scan", "android": "https://dc.lft.to/lastmile_qr_scan"}, "fusion_lon": 0.0, "lat": 38.957413833333334, "is_disabled": 0, "bike_id": "cb3f2f5244a99244ed479acfdd222132", "fusion_lat": 0.0, "is_reserved": 0, "lon": -76.9725485}, {"type": "electric_scooter", "name": "ca09b473e059d0e3d8235614de9c4494", "rental_uris": {"ios": "https://dc.lft.to/lastmile_qr_scan", "android": "https://dc.lft.to/lastmile_qr_scan"}, "fusion_lon": 0.0, "lat": 38.897299833333335, "is_disabled": 0, "bike_id": "ca09b473e059d0e3d8235614de9c4494", "fusion_lat": 0.0, "is_reserved": 0, "lon": -77.02020216666666}, {"type": "electric_bike", "name": "6c4b2dd93e29be4d9c7600f33ccd8fa6", "rental_uris": {"ios": "https://dc.lft.to/lastmile_qr_scan", "android": "https://dc.lft.to/lastmile_qr_scan"}, "fusion_lon": 0.0, "lat": 38.95746466666667, "is_disabled": 0, "bike_id": "6c4b2dd93e29be4d9c7600f33ccd8fa6", "fusion_lat": 0.0, "is_reserved": 0, "lon": -76.97257083333334}, {"type": "electric_scooter", "name": "04f4ec7b9045129bc47e03b2a2812ff1", "rental_uris": {"ios": "https://dc.lft.to/lastmile_qr_scan", "android": "https://dc.lft.to/lastmile_qr_scan"}, "fusion_lon": 0.0, "lat": 38.906676166666664, "is_disabled": 0, "bike_id": "04f4ec7b9045129bc47e03b2a2812ff1", "fusion_lat": 0.0, "is_reserved": 0, "lon": -77.02585616666667}, {"type": "electric_scooter", "name": "7bd970f93b9b123bfbcd1eba5a1ab0ec", "rental_uris": {"ios": "https://dc.lft.to/lastmile_qr_scan", "android": "https://dc.lft.to/lastmile_qr_scan"}, "fusion_lon": 0.0, "lat": 38.93221316666666, "is_disabled": 0, "bike_id": "7bd970f93b9b123bfbcd1eba5a1ab0ec", "fusion_lat": 0.0, "is_reserved": 0, "lon": -77.0268235}, {"type": "electric_scooter", "name": "418a19645151870a072aca3d0c39c5d0", "rental_uris": {"ios": "https://dc.lft.to/lastmile_qr_scan", "android": "https://dc.lft.to/lastmile_qr_scan"}, "fusion_lon": 0.0, "lat": 38.90690633333333, "is_disabled": 0, "bike_id": "418a19645151870a072aca3d0c39c5d0", "fusion_lat": 0.0, "is_reserved": 0, "lon": -77.0614105}, {"type": "electric_scooter", "name": "a99f199421cc22101a8200fa061b5d5e", "rental_uris": {"ios": "https://dc.lft.to/lastmile_qr_scan", "android": "https://dc.lft.to/lastmile_qr_scan"}, "fusion_lon": 0.0, "lat": 38.900255666666666, "is_disabled": 0, "bike_id": "a99f199421cc22101a8200fa061b5d5e", "fusion_lat": 0.0, "is_reserved": 0, "lon": -77.00103083333333}, {"type": "electric_scooter", "name": "8ee84b0001417759c0090f2c9064776b", "rental_uris": {"ios": "https://dc.lft.to/lastmile_qr_scan", "android": "https://dc.lft.to/lastmile_qr_scan"}, "fusion_lon": 0.0, "lat": 38.91269233333333, "is_disabled": 0, "bike_id": "8ee84b0001417759c0090f2c9064776b", "fusion_lat": 0.0, "is_reserved": 0, "lon": -77.022132}, {"type": "electric_scooter", "name": "d9846c47e10fffda455ceb2200c47564", "rental_uris": {"ios": "https://dc.lft.to/lastmile_qr_scan", "android": "https://dc.lft.to/lastmile_qr_scan"}, "fusion_lon": 0.0, "lat": 38.92549233333333, "is_disabled": 0, "bike_id": "d9846c47e10fffda455ceb2200c47564", "fusion_lat": 0.0, "is_reserved": 0, "lon": -77.00072766666666}, {"type": "electric_scooter", "name": "28deab7fcdff637fae9c5ff9a4199e53", "rental_uris": {"ios": "https://dc.lft.to/lastmile_qr_scan", "android": "https://dc.lft.to/lastmile_qr_scan"}, "fusion_lon": 0.0, "lat": 38.898927, "is_disabled": 0, "bike_id": "28deab7fcdff637fae9c5ff9a4199e53", "fusion_lat": 0.0, "is_reserved": 0, "lon": -77.00736116666667}, {"type": "electric_scooter", "name": "d8dd58ff78a53a30fd5a2acdca592dd5", "rental_uris": {"ios": "https://dc.lft.to/lastmile_qr_scan", "android": "https://dc.lft.to/lastmile_qr_scan"}, "fusion_lon": 0.0, "lat": 38.90353133333333, "is_disabled": 0, "bike_id": "d8dd58ff78a53a30fd5a2acdca592dd5", "fusion_lat": 0.0, "is_reserved": 0, "lon": -76.97479083333333}, {"type": "electric_scooter", "name": "ab7e191d85a5c835568fc27924ee6478", "rental_uris": {"ios": "https://dc.lft.to/lastmile_qr_scan", "android": "https://dc.lft.to/lastmile_qr_scan"}, "fusion_lon": 0.0, "lat": 38.936746166666666, "is_disabled": 0, "bike_id": "ab7e191d85a5c835568fc27924ee6478", "fusion_lat": 0.0, "is_reserved": 0, "lon": -77.03588283333333}, {"type": "electric_scooter", "name": "5fa763e43e6ea63ddfe7246ea3900689", "rental_uris": {"ios": "https://dc.lft.to/lastmile_qr_scan", "android": "https://dc.lft.to/lastmile_qr_scan"}, "fusion_lon": 0.0, "lat": 38.916548666666664, "is_disabled": 0, "bike_id": "5fa763e43e6ea63ddfe7246ea3900689", "fusion_lat": 0.0, "is_reserved": 0, "lon": -77.0065155}, {"type": "electric_scooter", "name": "3ccabebff6b9efaf28b3c089072a3796", "rental_uris": {"ios": "https://dc.lft.to/lastmile_qr_scan", "android": "https://dc.lft.to/lastmile_qr_scan"}, "fusion_lon": 0.0, "lat": 38.89667583333333, "is_disabled": 0, "bike_id": "3ccabebff6b9efaf28b3c089072a3796", "fusion_lat": 0.0, "is_reserved": 0, "lon": -76.93208766666666}, {"type": "electric_scooter", "name": "8a019e198ce42386788ce94ce3c2b3d1", "rental_uris": {"ios": "https://dc.lft.to/lastmile_qr_scan", "android": "https://dc.lft.to/lastmile_qr_scan"}, "fusion_lon": 0.0, "lat": 38.930213, "is_disabled": 0, "bike_id": "8a019e198ce42386788ce94ce3c2b3d1", "fusion_lat": 0.0, "is_reserved": 0, "lon": -77.03800666666666}, {"type": "electric_scooter", "name": "8b6359e9fc319e87c00242ec74ae541b", "rental_uris": {"ios": "https://dc.lft.to/lastmile_qr_scan", "android": "https://dc.lft.to/lastmile_qr_scan"}, "fusion_lon": 0.0, "lat": 38.9170485, "is_disabled": 0, "bike_id": "8b6359e9fc319e87c00242ec74ae541b", "fusion_lat": 0.0, "is_reserved": 0, "lon": -77.02592716666666}, {"type": "electric_scooter", "name": "5c2853c1e4cfa2bb2f8aac3506ce507b", "rental_uris": {"ios": "https://dc.lft.to/lastmile_qr_scan", "android": "https://dc.lft.to/lastmile_qr_scan"}, "fusion_lon": 0.0, "lat": 38.8961805, "is_disabled": 0, "bike_id": "5c2853c1e4cfa2bb2f8aac3506ce507b", "fusion_lat": 0.0, "is_reserved": 0, "lon": -77.040771}, {"type": "electric_scooter", "name": "e4a46e3c4272703d2343d2fadbf12fce", "rental_uris": {"ios": "https://dc.lft.to/lastmile_qr_scan", "android": "https://dc.lft.to/lastmile_qr_scan"}, "fusion_lon": 0.0, "lat": 38.91631783333333, "is_disabled": 0, "bike_id": "e4a46e3c4272703d2343d2fadbf12fce", "fusion_lat": 0.0, "is_reserved": 0, "lon": -77.04121166666667}, {"type": "electric_scooter", "name": "d104f6ac7991c769bb00a81612fcaf02", "rental_uris": {"ios": "https://dc.lft.to/lastmile_qr_scan", "android": "https://dc.lft.to/lastmile_qr_scan"}, "fusion_lon": 0.0, "lat": 38.883210166666665, "is_disabled": 0, "bike_id": "d104f6ac7991c769bb00a81612fcaf02", "fusion_lat": 0.0, "is_reserved": 0, "lon": -77.01367683333334}, {"type": "electric_scooter", "name": "422a2e694b6e085648b604c18ca0754d", "rental_uris": {"ios": "https://dc.lft.to/lastmile_qr_scan", "android": "https://dc.lft.to/lastmile_qr_scan"}, "fusion_lon": 0.0, "lat": 38.9178155, "is_disabled": 0, "bike_id": "422a2e694b6e085648b604c18ca0754d", "fusion_lat": 0.0, "is_reserved": 0, "lon": -77.03222516666666}, {"type": "electric_scooter", "name": "b3c58f5580b40037720c0a65180e6ad8", "rental_uris": {"ios": "https://dc.lft.to/lastmile_qr_scan", "android": "https://dc.lft.to/lastmile_qr_scan"}, "fusion_lon": 0.0, "lat": 38.93052216666667, "is_disabled": 0, "bike_id": "b3c58f5580b40037720c0a65180e6ad8", "fusion_lat": 0.0, "is_reserved": 0, "lon": -77.01863083333333}, {"type": "electric_scooter", "name": "bf2b20040dd6852058289d5671e34541", "rental_uris": {"ios": "https://dc.lft.to/lastmile_qr_scan", "android": "https://dc.lft.to/lastmile_qr_scan"}, "fusion_lon": 0.0, "lat": 38.90141, "is_disabled": 0, "bike_id": "bf2b20040dd6852058289d5671e34541", "fusion_lat": 0.0, "is_reserved": 0, "lon": -77.06077783333333}, {"type": "electric_bike", "name": "fab2e69b74e4368565237ad8c0a4b1da", "rental_uris": {"ios": "https://dc.lft.to/lastmile_qr_scan", "android": "https://dc.lft.to/lastmile_qr_scan"}, "fusion_lon": 0.0, "lat": 39.03425333333333, "is_disabled": 0, "bike_id": "fab2e69b74e4368565237ad8c0a4b1da", "fusion_lat": 0.0, "is_reserved": 0, "lon": -77.04309216666667}, {"type": "electric_scooter", "name": "aa237ed51667d54cde781b7d703fe046", "rental_uris": {"ios": "https://dc.lft.to/lastmile_qr_scan", "android": "https://dc.lft.to/lastmile_qr_scan"}, "fusion_lon": 0.0, "lat": 38.923251666666665, "is_disabled": 0, "bike_id": "aa237ed51667d54cde781b7d703fe046", "fusion_lat": 0.0, "is_reserved": 0, "lon": -77.0296555}, {"type": "electric_scooter", "name": "3cc7c8049f23cf7fb89c797c7414545c", "rental_uris": {"ios": "https://dc.lft.to/lastmile_qr_scan", "android": "https://dc.lft.to/lastmile_qr_scan"}, "fusion_lon": 0.0, "lat": 38.925375333333335, "is_disabled": 0, "bike_id": "3cc7c8049f23cf7fb89c797c7414545c", "fusion_lat": 0.0, "is_reserved": 0, "lon": -77.03380166666666}, {"type": "electric_scooter", "name": "8f4b6b7a91a74d3ffd2674366077d466", "rental_uris": {"ios": "https://dc.lft.to/lastmile_qr_scan", "android": "https://dc.lft.to/lastmile_qr_scan"}, "fusion_lon": 0.0, "lat": 38.904053833333336, "is_disabled": 0, "bike_id": "8f4b6b7a91a74d3ffd2674366077d466", "fusion_lat": 0.0, "is_reserved": 0, "lon": -77.0651035}, {"type": "electric_scooter", "name": "35c42035990c138634a325f258374ae7", "rental_uris": {"ios": "https://dc.lft.to/lastmile_qr_scan", "android": "https://dc.lft.to/lastmile_qr_scan"}, "fusion_lon": 0.0, "lat": 38.9170125, "is_disabled": 0, "bike_id": "35c42035990c138634a325f258374ae7", "fusion_lat": 0.0, "is_reserved": 0, "lon": -77.040359}, {"type": "electric_scooter", "name": "c0e0e38a3ad16d0fd4bc8741cb1bb208", "rental_uris": {"ios": "https://dc.lft.to/lastmile_qr_scan", "android": "https://dc.lft.to/lastmile_qr_scan"}, "fusion_lon": 0.0, "lat": 38.912668, "is_disabled": 0, "bike_id": "c0e0e38a3ad16d0fd4bc8741cb1bb208", "fusion_lat": 0.0, "is_reserved": 0, "lon": -77.02215666666666}, {"type": "electric_scooter", "name": "54c0fc551e800537fce02162fcfc0219", "rental_uris": {"ios": "https://dc.lft.to/lastmile_qr_scan", "android": "https://dc.lft.to/lastmile_qr_scan"}, "fusion_lon": 0.0, "lat": 38.9052005, "is_disabled": 0, "bike_id": "54c0fc551e800537fce02162fcfc0219", "fusion_lat": 0.0, "is_reserved": 0, "lon": -77.0613935}, {"type": "electric_bike", "name": "45db8e39df28d99b2f8320f4ed235426", "rental_uris": {"ios": "https://dc.lft.to/lastmile_qr_scan", "android": "https://dc.lft.to/lastmile_qr_scan"}, "fusion_lon": 0.0, "lat": 38.97256566666667, "is_disabled": 0, "bike_id": "45db8e39df28d99b2f8320f4ed235426", "fusion_lat": 0.0, "is_reserved": 0, "lon": -76.99272083333334}, {"type": "electric_scooter", "name": "c5e08d7a178b487371850470fc3f6298", "rental_uris": {"ios": "https://dc.lft.to/lastmile_qr_scan", "android": "https://dc.lft.to/lastmile_qr_scan"}, "fusion_lon": 0.0, "lat": 38.90678183333333, "is_disabled": 0, "bike_id": "c5e08d7a178b487371850470fc3f6298", "fusion_lat": 0.0, "is_reserved": 0, "lon": -77.07133233333333}, {"type": "electric_scooter", "name": "0e8d425638a1b37937e3623f0a92651a", "rental_uris": {"ios": "https://dc.lft.to/lastmile_qr_scan", "android": "https://dc.lft.to/lastmile_qr_scan"}, "fusion_lon": 0.0, "lat": 38.88295166666666, "is_disabled": 0, "bike_id": "0e8d425638a1b37937e3623f0a92651a", "fusion_lat": 0.0, "is_reserved": 0, "lon": -77.01362333333333}, {"type": "electric_scooter", "name": "9d3546245ceb7fe8be65d5c50e699774", "rental_uris": {"ios": "https://dc.lft.to/lastmile_qr_scan", "android": "https://dc.lft.to/lastmile_qr_scan"}, "fusion_lon": 0.0, "lat": 38.9192085, "is_disabled": 0, "bike_id": "9d3546245ceb7fe8be65d5c50e699774", "fusion_lat": 0.0, "is_reserved": 0, "lon": -77.02414033333334}, {"type": "electric_scooter", "name": "d90b7b8efa14ef66089dec688a5409b1", "rental_uris": {"ios": "https://dc.lft.to/lastmile_qr_scan", "android": "https://dc.lft.to/lastmile_qr_scan"}, "fusion_lon": 0.0, "lat": 38.911199, "is_disabled": 0, "bike_id": "d90b7b8efa14ef66089dec688a5409b1", "fusion_lat": 0.0, "is_reserved": 0, "lon": -77.03735966666666}, {"type": "electric_scooter", "name": "1a64ec1aea25258a13ff17fe72c15ee5", "rental_uris": {"ios": "https://dc.lft.to/lastmile_qr_scan", "android": "https://dc.lft.to/lastmile_qr_scan"}, "fusion_lon": 0.0, "lat": 38.8983715, "is_disabled": 0, "bike_id": "1a64ec1aea25258a13ff17fe72c15ee5", "fusion_lat": 0.0, "is_reserved": 0, "lon": -77.03159816666667}, {"type": "electric_scooter", "name": "20a91a1f6a24fde1d50e941e7945ed97", "rental_uris": {"ios": "https://dc.lft.to/lastmile_qr_scan", "android": "https://dc.lft.to/lastmile_qr_scan"}, "fusion_lon": 0.0, "lat": 38.87864616666667, "is_disabled": 0, "bike_id": "20a91a1f6a24fde1d50e941e7945ed97", "fusion_lat": 0.0, "is_reserved": 0, "lon": -77.019232}, {"type": "electric_bike", "name": "3e5f6bbfb1265b0fd654473ca88b5774", "rental_uris": {"ios": "https://dc.lft.to/lastmile_qr_scan", "android": "https://dc.lft.to/lastmile_qr_scan"}, "fusion_lon": 0.0, "lat": 38.81986283333333, "is_disabled": 0, "bike_id": "3e5f6bbfb1265b0fd654473ca88b5774", "fusion_lat": 0.0, "is_reserved": 0, "lon": -76.9981305}, {"type": "electric_scooter", "name": "dba53c3e9d2e9853f1b694ed0418372f", "rental_uris": {"ios": "https://dc.lft.to/lastmile_qr_scan", "android": "https://dc.lft.to/lastmile_qr_scan"}, "fusion_lon": 0.0, "lat": 38.9052155, "is_disabled": 0, "bike_id": "dba53c3e9d2e9853f1b694ed0418372f", "fusion_lat": 0.0, "is_reserved": 0, "lon": -77.05766166666666}, {"type": "electric_scooter", "name": "9505220cd2ba1b80f4596365d80eb5c5", "rental_uris": {"ios": "https://dc.lft.to/lastmile_qr_scan", "android": "https://dc.lft.to/lastmile_qr_scan"}, "fusion_lon": 0.0, "lat": 38.917062, "is_disabled": 0, "bike_id": "9505220cd2ba1b80f4596365d80eb5c5", "fusion_lat": 0.0, "is_reserved": 0, "lon": -77.03218616666666}, {"type": "electric_scooter", "name": "f2d4c69e2c7d55b06b20abaf29d2b555", "rental_uris": {"ios": "https://dc.lft.to/lastmile_qr_scan", "android": "https://dc.lft.to/lastmile_qr_scan"}, "fusion_lon": 0.0, "lat": 38.930958333333336, "is_disabled": 0, "bike_id": "f2d4c69e2c7d55b06b20abaf29d2b555", "fusion_lat": 0.0, "is_reserved": 0, "lon": -77.0347555}, {"type": "electric_scooter", "name": "5289c4eadfd1811f6a7974d14cbe6fbc", "rental_uris": {"ios": "https://dc.lft.to/lastmile_qr_scan", "android": "https://dc.lft.to/lastmile_qr_scan"}, "fusion_lon": 0.0, "lat": 38.899973333333335, "is_disabled": 0, "bike_id": "5289c4eadfd1811f6a7974d14cbe6fbc", "fusion_lat": 0.0, "is_reserved": 0, "lon": -77.01962016666667}, {"type": "electric_bike", "name": "909ef767d1c4cedfbd4caadc23afc21e", "rental_uris": {"ios": "https://dc.lft.to/lastmile_qr_scan", "android": "https://dc.lft.to/lastmile_qr_scan"}, "fusion_lon": 0.0, "lat": 38.8903855, "is_disabled": 0, "bike_id": "909ef767d1c4cedfbd4caadc23afc21e", "fusion_lat": 0.0, "is_reserved": 0, "lon": -77.183957}, {"type": "electric_scooter", "name": "7a2b34af5709f78ae484b6c946f497d1", "rental_uris": {"ios": "https://dc.lft.to/lastmile_qr_scan", "android": "https://dc.lft.to/lastmile_qr_scan"}, "fusion_lon": 0.0, "lat": 38.9071805, "is_disabled": 0, "bike_id": "7a2b34af5709f78ae484b6c946f497d1", "fusion_lat": 0.0, "is_reserved": 0, "lon": -77.0296005}, {"type": "electric_scooter", "name": "6ccb5d61079950718bfba47f45ef6a2d", "rental_uris": {"ios": "https://dc.lft.to/lastmile_qr_scan", "android": "https://dc.lft.to/lastmile_qr_scan"}, "fusion_lon": 0.0, "lat": 38.873690833333335, "is_disabled": 0, "bike_id": "6ccb5d61079950718bfba47f45ef6a2d", "fusion_lat": 0.0, "is_reserved": 0, "lon": -77.00599333333334}, {"type": "electric_scooter", "name": "878f4405f27da0fd4e103a867268e998", "rental_uris": {"ios": "https://dc.lft.to/lastmile_qr_scan", "android": "https://dc.lft.to/lastmile_qr_scan"}, "fusion_lon": 0.0, "lat": 38.9141595, "is_disabled": 0, "bike_id": "878f4405f27da0fd4e103a867268e998", "fusion_lat": 0.0, "is_reserved": 0, "lon": -77.038705}, {"type": "electric_scooter", "name": "aed55d18f41d4feb771f4f859bb08817", "rental_uris": {"ios": "https://dc.lft.to/lastmile_qr_scan", "android": "https://dc.lft.to/lastmile_qr_scan"}, "fusion_lon": 0.0, "lat": 38.903027333333334, "is_disabled": 0, "bike_id": "aed55d18f41d4feb771f4f859bb08817", "fusion_lat": 0.0, "is_reserved": 0, "lon": -77.060133}, {"type": "electric_scooter", "name": "5ffea7e55ffa0f1273866411d2266814", "rental_uris": {"ios": "https://dc.lft.to/lastmile_qr_scan", "android": "https://dc.lft.to/lastmile_qr_scan"}, "fusion_lon": 0.0, "lat": 38.86629466666667, "is_disabled": 0, "bike_id": "5ffea7e55ffa0f1273866411d2266814", "fusion_lat": 0.0, "is_reserved": 0, "lon": -76.98711483333334}, {"type": "electric_scooter", "name": "0f2f95cf7e31f2561de9702797413d59", "rental_uris": {"ios": "https://dc.lft.to/lastmile_qr_scan", "android": "https://dc.lft.to/lastmile_qr_scan"}, "fusion_lon": 0.0, "lat": 38.867223, "is_disabled": 0, "bike_id": "0f2f95cf7e31f2561de9702797413d59", "fusion_lat": 0.0, "is_reserved": 0, "lon": -76.98698766666666}, {"type": "electric_scooter", "name": "a03a70d4ad943bb50adf3862df3efb23", "rental_uris": {"ios": "https://dc.lft.to/lastmile_qr_scan", "android": "https://dc.lft.to/lastmile_qr_scan"}, "fusion_lon": 0.0, "lat": 38.90124683333333, "is_disabled": 0, "bike_id": "a03a70d4ad943bb50adf3862df3efb23", "fusion_lat": 0.0, "is_reserved": 0, "lon": -77.01622966666666}, {"type": "electric_scooter", "name": "7dfed84f87bcbda1dd9b759d1e876c69", "rental_uris": {"ios": "https://dc.lft.to/lastmile_qr_scan", "android": "https://dc.lft.to/lastmile_qr_scan"}, "fusion_lon": 0.0, "lat": 38.92004033333333, "is_disabled": 0, "bike_id": "7dfed84f87bcbda1dd9b759d1e876c69", "fusion_lat": 0.0, "is_reserved": 0, "lon": -77.03222533333333}, {"type": "electric_scooter", "name": "ac59b890febdeabd121dc6d39c31f39e", "rental_uris": {"ios": "https://dc.lft.to/lastmile_qr_scan", "android": "https://dc.lft.to/lastmile_qr_scan"}, "fusion_lon": 0.0, "lat": 38.9261125, "is_disabled": 0, "bike_id": "ac59b890febdeabd121dc6d39c31f39e", "fusion_lat": 0.0, "is_reserved": 0, "lon": -77.022216}, {"type": "electric_scooter", "name": "3452aebfae3d7c54b22083bf0944f5b8", "rental_uris": {"ios": "https://dc.lft.to/lastmile_qr_scan", "android": "https://dc.lft.to/lastmile_qr_scan"}, "fusion_lon": 0.0, "lat": 38.91734983333333, "is_disabled": 0, "bike_id": "3452aebfae3d7c54b22083bf0944f5b8", "fusion_lat": 0.0, "is_reserved": 0, "lon": -77.03190633333334}, {"type": "electric_scooter", "name": "b853d8e31b3f2102404e8400ec5587cb", "rental_uris": {"ios": "https://dc.lft.to/lastmile_qr_scan", "android": "https://dc.lft.to/lastmile_qr_scan"}, "fusion_lon": 0.0, "lat": 38.902506, "is_disabled": 0, "bike_id": "b853d8e31b3f2102404e8400ec5587cb", "fusion_lat": 0.0, "is_reserved": 0, "lon": -77.03363216666666}, {"type": "electric_scooter", "name": "75125e647b6fed935c710014b0b30d98", "rental_uris": {"ios": "https://dc.lft.to/lastmile_qr_scan", "android": "https://dc.lft.to/lastmile_qr_scan"}, "fusion_lon": 0.0, "lat": 38.9212215, "is_disabled": 0, "bike_id": "75125e647b6fed935c710014b0b30d98", "fusion_lat": 0.0, "is_reserved": 0, "lon": -77.00920716666667}, {"type": "electric_scooter", "name": "5f55028c39372b2c0ab6ae117ab065ff", "rental_uris": {"ios": "https://dc.lft.to/lastmile_qr_scan", "android": "https://dc.lft.to/lastmile_qr_scan"}, "fusion_lon": 0.0, "lat": 38.9123855, "is_disabled": 0, "bike_id": "5f55028c39372b2c0ab6ae117ab065ff", "fusion_lat": 0.0, "is_reserved": 0, "lon": -77.045047}, {"type": "electric_scooter", "name": "ad49df30a68b9160a4fa49f7bf6c303b", "rental_uris": {"ios": "https://dc.lft.to/lastmile_qr_scan", "android": "https://dc.lft.to/lastmile_qr_scan"}, "fusion_lon": 0.0, "lat": 38.923179833333336, "is_disabled": 0, "bike_id": "ad49df30a68b9160a4fa49f7bf6c303b", "fusion_lat": 0.0, "is_reserved": 0, "lon": -77.04011816666667}, {"type": "electric_scooter", "name": "5a5753c146ef0d49a5eb23b53f81a035", "rental_uris": {"ios": "https://dc.lft.to/lastmile_qr_scan", "android": "https://dc.lft.to/lastmile_qr_scan"}, "fusion_lon": 0.0, "lat": 38.884892, "is_disabled": 0, "bike_id": "5a5753c146ef0d49a5eb23b53f81a035", "fusion_lat": 0.0, "is_reserved": 0, "lon": -77.00712566666667}, {"type": "electric_scooter", "name": "0ebc85a6a77212e1305bb6b5915658cf", "rental_uris": {"ios": "https://dc.lft.to/lastmile_qr_scan", "android": "https://dc.lft.to/lastmile_qr_scan"}, "fusion_lon": 0.0, "lat": 38.9245575, "is_disabled": 0, "bike_id": "0ebc85a6a77212e1305bb6b5915658cf", "fusion_lat": 0.0, "is_reserved": 0, "lon": -77.0215045}, {"type": "electric_scooter", "name": "951a90fce91e2931891a508838df571f", "rental_uris": {"ios": "https://dc.lft.to/lastmile_qr_scan", "android": "https://dc.lft.to/lastmile_qr_scan"}, "fusion_lon": 0.0, "lat": 38.934396166666666, "is_disabled": 0, "bike_id": "951a90fce91e2931891a508838df571f", "fusion_lat": 0.0, "is_reserved": 0, "lon": -77.03462983333333}, {"type": "electric_scooter", "name": "9478e9ad0e6c8323a4e14d8a8e005928", "rental_uris": {"ios": "https://dc.lft.to/lastmile_qr_scan", "android": "https://dc.lft.to/lastmile_qr_scan"}, "fusion_lon": 0.0, "lat": 38.92364966666667, "is_disabled": 0, "bike_id": "9478e9ad0e6c8323a4e14d8a8e005928", "fusion_lat": 0.0, "is_reserved": 0, "lon": -77.05024566666667}, {"type": "electric_scooter", "name": "166431a756be05a31492415b96a4020c", "rental_uris": {"ios": "https://dc.lft.to/lastmile_qr_scan", "android": "https://dc.lft.to/lastmile_qr_scan"}, "fusion_lon": 0.0, "lat": 38.89347333333333, "is_disabled": 0, "bike_id": "166431a756be05a31492415b96a4020c", "fusion_lat": 0.0, "is_reserved": 0, "lon": -77.01192966666666}, {"type": "electric_scooter", "name": "25ef803f3f497a09ca07c57200c511a0", "rental_uris": {"ios": "https://dc.lft.to/lastmile_qr_scan", "android": "https://dc.lft.to/lastmile_qr_scan"}, "fusion_lon": 0.0, "lat": 38.91914033333333, "is_disabled": 0, "bike_id": "25ef803f3f497a09ca07c57200c511a0", "fusion_lat": 0.0, "is_reserved": 0, "lon": -77.0446895}, {"type": "electric_scooter", "name": "ac7891744b35db92c9cbb5a19e741c61", "rental_uris": {"ios": "https://dc.lft.to/lastmile_qr_scan", "android": "https://dc.lft.to/lastmile_qr_scan"}, "fusion_lon": 0.0, "lat": 38.89701133333333, "is_disabled": 0, "bike_id": "ac7891744b35db92c9cbb5a19e741c61", "fusion_lat": 0.0, "is_reserved": 0, "lon": -77.022879}, {"type": "electric_scooter", "name": "601e87c6e6b6aa2ef441e6dc26d57111", "rental_uris": {"ios": "https://dc.lft.to/lastmile_qr_scan", "android": "https://dc.lft.to/lastmile_qr_scan"}, "fusion_lon": 0.0, "lat": 38.89922416666667, "is_disabled": 0, "bike_id": "601e87c6e6b6aa2ef441e6dc26d57111", "fusion_lat": 0.0, "is_reserved": 0, "lon": -76.98538366666666}, {"type": "electric_bike", "name": "cb23d9337bab322b607122fcc172678c", "rental_uris": {"ios": "https://dc.lft.to/lastmile_qr_scan", "android": "https://dc.lft.to/lastmile_qr_scan"}, "fusion_lon": 0.0, "lat": 38.948206666666664, "is_disabled": 0, "bike_id": "cb23d9337bab322b607122fcc172678c", "fusion_lat": 0.0, "is_reserved": 0, "lon": -77.0297995}, {"type": "electric_scooter", "name": "2c66a18438d13c56cd577b27f12fa15e", "rental_uris": {"ios": "https://dc.lft.to/lastmile_qr_scan", "android": "https://dc.lft.to/lastmile_qr_scan"}, "fusion_lon": 0.0, "lat": 38.90469783333333, "is_disabled": 0, "bike_id": "2c66a18438d13c56cd577b27f12fa15e", "fusion_lat": 0.0, "is_reserved": 0, "lon": -77.00728583333333}, {"type": "electric_scooter", "name": "c26aa6bd9e03e5878eca92fdac5b5587", "rental_uris": {"ios": "https://dc.lft.to/lastmile_qr_scan", "android": "https://dc.lft.to/lastmile_qr_scan"}, "fusion_lon": 0.0, "lat": 38.855807666666664, "is_disabled": 0, "bike_id": "c26aa6bd9e03e5878eca92fdac5b5587", "fusion_lat": 0.0, "is_reserved": 0, "lon": -76.966536}, {"type": "electric_scooter", "name": "b4f482d7d25904ab992ed4b9d5ad1a36", "rental_uris": {"ios": "https://dc.lft.to/lastmile_qr_scan", "android": "https://dc.lft.to/lastmile_qr_scan"}, "fusion_lon": 0.0, "lat": 38.898065833333334, "is_disabled": 0, "bike_id": "b4f482d7d25904ab992ed4b9d5ad1a36", "fusion_lat": 0.0, "is_reserved": 0, "lon": -77.02702516666666}, {"type": "electric_scooter", "name": "b6cef9f8f858e8ed43fb09cec7562fe5", "rental_uris": {"ios": "https://dc.lft.to/lastmile_qr_scan", "android": "https://dc.lft.to/lastmile_qr_scan"}, "fusion_lon": 0.0, "lat": 38.93176066666667, "is_disabled": 0, "bike_id": "b6cef9f8f858e8ed43fb09cec7562fe5", "fusion_lat": 0.0, "is_reserved": 0, "lon": -77.0430795}, {"type": "electric_scooter", "name": "fc0488eb2943565c2d6ef4b1836ab08d", "rental_uris": {"ios": "https://dc.lft.to/lastmile_qr_scan", "android": "https://dc.lft.to/lastmile_qr_scan"}, "fusion_lon": 0.0, "lat": 38.93610666666667, "is_disabled": 0, "bike_id": "fc0488eb2943565c2d6ef4b1836ab08d", "fusion_lat": 0.0, "is_reserved": 0, "lon": -77.03779916666667}, {"type": "electric_scooter", "name": "ac5562f8a82c61555a474d90970c6d4e", "rental_uris": {"ios": "https://dc.lft.to/lastmile_qr_scan", "android": "https://dc.lft.to/lastmile_qr_scan"}, "fusion_lon": 0.0, "lat": 38.919869166666665, "is_disabled": 0, "bike_id": "ac5562f8a82c61555a474d90970c6d4e", "fusion_lat": 0.0, "is_reserved": 0, "lon": -76.97308833333334}, {"type": "electric_scooter", "name": "7b51d266cadc158a26db4c70f81fac0a", "rental_uris": {"ios": "https://dc.lft.to/lastmile_qr_scan", "android": "https://dc.lft.to/lastmile_qr_scan"}, "fusion_lon": 0.0, "lat": 38.90396483333333, "is_disabled": 0, "bike_id": "7b51d266cadc158a26db4c70f81fac0a", "fusion_lat": 0.0, "is_reserved": 0, "lon": -76.98469216666666}, {"type": "electric_scooter", "name": "62db3229b969e60823849c25650d7db4", "rental_uris": {"ios": "https://dc.lft.to/lastmile_qr_scan", "android": "https://dc.lft.to/lastmile_qr_scan"}, "fusion_lon": 0.0, "lat": 38.92431233333333, "is_disabled": 0, "bike_id": "62db3229b969e60823849c25650d7db4", "fusion_lat": 0.0, "is_reserved": 0, "lon": -77.04250866666666}, {"type": "electric_scooter", "name": "31ed8ed676ef3099c153c49ed17256cf", "rental_uris": {"ios": "https://dc.lft.to/lastmile_qr_scan", "android": "https://dc.lft.to/lastmile_qr_scan"}, "fusion_lon": 0.0, "lat": 38.91708066666666, "is_disabled": 0, "bike_id": "31ed8ed676ef3099c153c49ed17256cf", "fusion_lat": 0.0, "is_reserved": 0, "lon": -77.0323375}, {"type": "electric_scooter", "name": "5fdfac8bbbb1d5b6b994391a8529a6e2", "rental_uris": {"ios": "https://dc.lft.to/lastmile_qr_scan", "android": "https://dc.lft.to/lastmile_qr_scan"}, "fusion_lon": 0.0, "lat": 38.92131883333333, "is_disabled": 0, "bike_id": "5fdfac8bbbb1d5b6b994391a8529a6e2", "fusion_lat": 0.0, "is_reserved": 0, "lon": -77.0193385}, {"type": "electric_scooter", "name": "1138764ee814f5de7e20f4607fe2c4c8", "rental_uris": {"ios": "https://dc.lft.to/lastmile_qr_scan", "android": "https://dc.lft.to/lastmile_qr_scan"}, "fusion_lon": 0.0, "lat": 38.904272666666664, "is_disabled": 0, "bike_id": "1138764ee814f5de7e20f4607fe2c4c8", "fusion_lat": 0.0, "is_reserved": 0, "lon": -77.04340466666666}, {"type": "electric_scooter", "name": "0c35945bab3608e1b3d8e9d688d0d801", "rental_uris": {"ios": "https://dc.lft.to/lastmile_qr_scan", "android": "https://dc.lft.to/lastmile_qr_scan"}, "fusion_lon": 0.0, "lat": 38.909714, "is_disabled": 0, "bike_id": "0c35945bab3608e1b3d8e9d688d0d801", "fusion_lat": 0.0, "is_reserved": 0, "lon": -77.0386835}, {"type": "electric_scooter", "name": "f00907f6084fd1db83fe3d6be1e2150a", "rental_uris": {"ios": "https://dc.lft.to/lastmile_qr_scan", "android": "https://dc.lft.to/lastmile_qr_scan"}, "fusion_lon": 0.0, "lat": 38.8817775, "is_disabled": 0, "bike_id": "f00907f6084fd1db83fe3d6be1e2150a", "fusion_lat": 0.0, "is_reserved": 0, "lon": -76.95901033333334}, {"type": "electric_scooter", "name": "bb1da9a737dee5c6ef75eca2cafe6ded", "rental_uris": {"ios": "https://dc.lft.to/lastmile_qr_scan", "android": "https://dc.lft.to/lastmile_qr_scan"}, "fusion_lon": 0.0, "lat": 38.91805316666667, "is_disabled": 0, "bike_id": "bb1da9a737dee5c6ef75eca2cafe6ded", "fusion_lat": 0.0, "is_reserved": 0, "lon": -77.0281385}, {"type": "electric_scooter", "name": "b95a8ba472079d6a4d7e5798d8098970", "rental_uris": {"ios": "https://dc.lft.to/lastmile_qr_scan", "android": "https://dc.lft.to/lastmile_qr_scan"}, "fusion_lon": 0.0, "lat": 38.92729333333333, "is_disabled": 0, "bike_id": "b95a8ba472079d6a4d7e5798d8098970", "fusion_lat": 0.0, "is_reserved": 0, "lon": -77.03679066666666}, {"type": "electric_scooter", "name": "6c97fabd8c90bd15c28a99348c980457", "rental_uris": {"ios": "https://dc.lft.to/lastmile_qr_scan", "android": "https://dc.lft.to/lastmile_qr_scan"}, "fusion_lon": 0.0, "lat": 38.90663416666666, "is_disabled": 0, "bike_id": "6c97fabd8c90bd15c28a99348c980457", "fusion_lat": 0.0, "is_reserved": 0, "lon": -77.02718583333333}, {"type": "electric_scooter", "name": "78f9a1454cde4221a6a15dfe420ea0d3", "rental_uris": {"ios": "https://dc.lft.to/lastmile_qr_scan", "android": "https://dc.lft.to/lastmile_qr_scan"}, "fusion_lon": 0.0, "lat": 38.9229025, "is_disabled": 0, "bike_id": "78f9a1454cde4221a6a15dfe420ea0d3", "fusion_lat": 0.0, "is_reserved": 0, "lon": -77.0319605}, {"type": "electric_scooter", "name": "72afbac79344d913efea311162924344", "rental_uris": {"ios": "https://dc.lft.to/lastmile_qr_scan", "android": "https://dc.lft.to/lastmile_qr_scan"}, "fusion_lon": 0.0, "lat": 38.91256533333333, "is_disabled": 0, "bike_id": "72afbac79344d913efea311162924344", "fusion_lat": 0.0, "is_reserved": 0, "lon": -77.03829916666666}, {"type": "electric_bike", "name": "c7bdc5bc675829b37293b259523f9fbe", "rental_uris": {"ios": "https://dc.lft.to/lastmile_qr_scan", "android": "https://dc.lft.to/lastmile_qr_scan"}, "fusion_lon": 0.0, "lat": 38.924599, "is_disabled": 0, "bike_id": "c7bdc5bc675829b37293b259523f9fbe", "fusion_lat": 0.0, "is_reserved": 0, "lon": -77.06738333333334}, {"type": "electric_scooter", "name": "ed079d62f672d37c484d86764a987cd5", "rental_uris": {"ios": "https://dc.lft.to/lastmile_qr_scan", "android": "https://dc.lft.to/lastmile_qr_scan"}, "fusion_lon": 0.0, "lat": 38.898330333333334, "is_disabled": 0, "bike_id": "ed079d62f672d37c484d86764a987cd5", "fusion_lat": 0.0, "is_reserved": 0, "lon": -77.03174166666666}, {"type": "electric_scooter", "name": "0eb7ae16196460c04309bccac8b0ede5", "rental_uris": {"ios": "https://dc.lft.to/lastmile_qr_scan", "android": "https://dc.lft.to/lastmile_qr_scan"}, "fusion_lon": 0.0, "lat": 38.8765645, "is_disabled": 0, "bike_id": "0eb7ae16196460c04309bccac8b0ede5", "fusion_lat": 0.0, "is_reserved": 0, "lon": -77.0171085}, {"type": "electric_scooter", "name": "5c66ba681d4eb8f5414851c29d8a210a", "rental_uris": {"ios": "https://dc.lft.to/lastmile_qr_scan", "android": "https://dc.lft.to/lastmile_qr_scan"}, "fusion_lon": 0.0, "lat": 38.91777, "is_disabled": 0, "bike_id": "5c66ba681d4eb8f5414851c29d8a210a", "fusion_lat": 0.0, "is_reserved": 0, "lon": -77.04110066666667}, {"type": "electric_bike", "name": "46b05ab5ab0569b1be230bec049dd526", "rental_uris": {"ios": "https://dc.lft.to/lastmile_qr_scan", "android": "https://dc.lft.to/lastmile_qr_scan"}, "fusion_lon": 0.0, "lat": 38.88005716666667, "is_disabled": 0, "bike_id": "46b05ab5ab0569b1be230bec049dd526", "fusion_lat": 0.0, "is_reserved": 0, "lon": -77.10750366666667}, {"type": "electric_scooter", "name": "dbc6207e1af3275a27801c546efb2145", "rental_uris": {"ios": "https://dc.lft.to/lastmile_qr_scan", "android": "https://dc.lft.to/lastmile_qr_scan"}, "fusion_lon": 0.0, "lat": 38.887325833333335, "is_disabled": 0, "bike_id": "dbc6207e1af3275a27801c546efb2145", "fusion_lat": 0.0, "is_reserved": 0, "lon": -77.02581933333333}, {"type": "electric_scooter", "name": "132d09f1d0952556c3f8960f511c4a0c", "rental_uris": {"ios": "https://dc.lft.to/lastmile_qr_scan", "android": "https://dc.lft.to/lastmile_qr_scan"}, "fusion_lon": 0.0, "lat": 38.905789166666665, "is_disabled": 0, "bike_id": "132d09f1d0952556c3f8960f511c4a0c", "fusion_lat": 0.0, "is_reserved": 0, "lon": -76.98434983333334}, {"type": "electric_scooter", "name": "4a2d95a9495fb53bf249ea94bab432ef", "rental_uris": {"ios": "https://dc.lft.to/lastmile_qr_scan", "android": "https://dc.lft.to/lastmile_qr_scan"}, "fusion_lon": 0.0, "lat": 38.8832935, "is_disabled": 0, "bike_id": "4a2d95a9495fb53bf249ea94bab432ef", "fusion_lat": 0.0, "is_reserved": 0, "lon": -77.01771066666667}, {"type": "electric_scooter", "name": "2f8aee1bc5014fca369848074903b8f1", "rental_uris": {"ios": "https://dc.lft.to/lastmile_qr_scan", "android": "https://dc.lft.to/lastmile_qr_scan"}, "fusion_lon": 0.0, "lat": 38.92794933333333, "is_disabled": 0, "bike_id": "2f8aee1bc5014fca369848074903b8f1", "fusion_lat": 0.0, "is_reserved": 0, "lon": -77.01421433333333}, {"type": "electric_scooter", "name": "8a94edf8d8741df41ab788abcc13b979", "rental_uris": {"ios": "https://dc.lft.to/lastmile_qr_scan", "android": "https://dc.lft.to/lastmile_qr_scan"}, "fusion_lon": 0.0, "lat": 38.89222766666666, "is_disabled": 0, "bike_id": "8a94edf8d8741df41ab788abcc13b979", "fusion_lat": 0.0, "is_reserved": 0, "lon": -77.0419505}, {"type": "electric_scooter", "name": "253fe207ae5c4e318dc32d1bb7aae90a", "rental_uris": {"ios": "https://dc.lft.to/lastmile_qr_scan", "android": "https://dc.lft.to/lastmile_qr_scan"}, "fusion_lon": 0.0, "lat": 38.902558166666665, "is_disabled": 0, "bike_id": "253fe207ae5c4e318dc32d1bb7aae90a", "fusion_lat": 0.0, "is_reserved": 0, "lon": -77.018645}, {"type": "electric_scooter", "name": "3df87ab19a980501b5dfd179316606db", "rental_uris": {"ios": "https://dc.lft.to/lastmile_qr_scan", "android": "https://dc.lft.to/lastmile_qr_scan"}, "fusion_lon": 0.0, "lat": 38.916213166666665, "is_disabled": 0, "bike_id": "3df87ab19a980501b5dfd179316606db", "fusion_lat": 0.0, "is_reserved": 0, "lon": -77.0400405}, {"type": "electric_scooter", "name": "7b79ad366412bbd57c2ded40f100476f", "rental_uris": {"ios": "https://dc.lft.to/lastmile_qr_scan", "android": "https://dc.lft.to/lastmile_qr_scan"}, "fusion_lon": 0.0, "lat": 38.954975833333336, "is_disabled": 0, "bike_id": "7b79ad366412bbd57c2ded40f100476f", "fusion_lat": 0.0, "is_reserved": 0, "lon": -77.01728616666666}, {"type": "electric_scooter", "name": "144000c64abad58791fdd9c78c428bb7", "rental_uris": {"ios": "https://dc.lft.to/lastmile_qr_scan", "android": "https://dc.lft.to/lastmile_qr_scan"}, "fusion_lon": 0.0, "lat": 38.927823, "is_disabled": 0, "bike_id": "144000c64abad58791fdd9c78c428bb7", "fusion_lat": 0.0, "is_reserved": 0, "lon": -77.03152783333333}, {"type": "electric_scooter", "name": "1078e36339fee7a277f003e642c1d22e", "rental_uris": {"ios": "https://dc.lft.to/lastmile_qr_scan", "android": "https://dc.lft.to/lastmile_qr_scan"}, "fusion_lon": 0.0, "lat": 38.92483266666667, "is_disabled": 0, "bike_id": "1078e36339fee7a277f003e642c1d22e", "fusion_lat": 0.0, "is_reserved": 0, "lon": -77.0382785}, {"type": "electric_bike", "name": "ec47f8eb549cb5c0acd4e2fc84cd30f9", "rental_uris": {"ios": "https://dc.lft.to/lastmile_qr_scan", "android": "https://dc.lft.to/lastmile_qr_scan"}, "fusion_lon": 0.0, "lat": 38.864623, "is_disabled": 0, "bike_id": "ec47f8eb549cb5c0acd4e2fc84cd30f9", "fusion_lat": 0.0, "is_reserved": 0, "lon": -76.94530316666666}, {"type": "electric_scooter", "name": "f3bcf461520298c5d0079d563010327d", "rental_uris": {"ios": "https://dc.lft.to/lastmile_qr_scan", "android": "https://dc.lft.to/lastmile_qr_scan"}, "fusion_lon": 0.0, "lat": 38.915723166666666, "is_disabled": 0, "bike_id": "f3bcf461520298c5d0079d563010327d", "fusion_lat": 0.0, "is_reserved": 0, "lon": -77.03853233333334}, {"type": "electric_scooter", "name": "e2f5b8c29849af43e3b3fd012a32b9b5", "rental_uris": {"ios": "https://dc.lft.to/lastmile_qr_scan", "android": "https://dc.lft.to/lastmile_qr_scan"}, "fusion_lon": 0.0, "lat": 38.9056845, "is_disabled": 0, "bike_id": "e2f5b8c29849af43e3b3fd012a32b9b5", "fusion_lat": 0.0, "is_reserved": 0, "lon": -77.02205116666667}, {"type": "electric_scooter", "name": "3ed4aa8ce23b95dd88a3cf9e9e304e89", "rental_uris": {"ios": "https://dc.lft.to/lastmile_qr_scan", "android": "https://dc.lft.to/lastmile_qr_scan"}, "fusion_lon": 0.0, "lat": 38.942680333333335, "is_disabled": 0, "bike_id": "3ed4aa8ce23b95dd88a3cf9e9e304e89", "fusion_lat": 0.0, "is_reserved": 0, "lon": -77.0325755}, {"type": "electric_scooter", "name": "31d9bec3b5e3dbf707c9264d9c24bc5a", "rental_uris": {"ios": "https://dc.lft.to/lastmile_qr_scan", "android": "https://dc.lft.to/lastmile_qr_scan"}, "fusion_lon": 0.0, "lat": 38.9207075, "is_disabled": 0, "bike_id": "31d9bec3b5e3dbf707c9264d9c24bc5a", "fusion_lat": 0.0, "is_reserved": 0, "lon": -77.03793183333333}, {"type": "electric_scooter", "name": "38d31af8640e9140244f1e2415ed822b", "rental_uris": {"ios": "https://dc.lft.to/lastmile_qr_scan", "android": "https://dc.lft.to/lastmile_qr_scan"}, "fusion_lon": 0.0, "lat": 38.90410966666666, "is_disabled": 0, "bike_id": "38d31af8640e9140244f1e2415ed822b", "fusion_lat": 0.0, "is_reserved": 0, "lon": -76.97330683333334}, {"type": "electric_scooter", "name": "c113ea9367661ff9f4c0b0f1f49699c7", "rental_uris": {"ios": "https://dc.lft.to/lastmile_qr_scan", "android": "https://dc.lft.to/lastmile_qr_scan"}, "fusion_lon": 0.0, "lat": 38.8724275, "is_disabled": 0, "bike_id": "c113ea9367661ff9f4c0b0f1f49699c7", "fusion_lat": 0.0, "is_reserved": 0, "lon": -76.97724766666667}, {"type": "electric_bike", "name": "48eae18d6773a34e7296f3b7c6482bfd", "rental_uris": {"ios": "https://dc.lft.to/lastmile_qr_scan", "android": "https://dc.lft.to/lastmile_qr_scan"}, "fusion_lon": 0.0, "lat": 38.92075466666667, "is_disabled": 0, "bike_id": "48eae18d6773a34e7296f3b7c6482bfd", "fusion_lat": 0.0, "is_reserved": 0, "lon": -77.02417233333334}, {"type": "electric_scooter", "name": "48e160d95a916608b0c0bf61b56fe7f5", "rental_uris": {"ios": "https://dc.lft.to/lastmile_qr_scan", "android": "https://dc.lft.to/lastmile_qr_scan"}, "fusion_lon": 0.0, "lat": 38.9050505, "is_disabled": 0, "bike_id": "48e160d95a916608b0c0bf61b56fe7f5", "fusion_lat": 0.0, "is_reserved": 0, "lon": -77.06319766666667}, {"type": "electric_scooter", "name": "5ae726cb94e0625ffc587b3d4c7b6a4f", "rental_uris": {"ios": "https://dc.lft.to/lastmile_qr_scan", "android": "https://dc.lft.to/lastmile_qr_scan"}, "fusion_lon": 0.0, "lat": 38.88487633333333, "is_disabled": 0, "bike_id": "5ae726cb94e0625ffc587b3d4c7b6a4f", "fusion_lat": 0.0, "is_reserved": 0, "lon": -77.00711016666666}, {"type": "electric_bike", "name": "20b94315bd8eb0b51d4e17a561c60759", "rental_uris": {"ios": "https://dc.lft.to/lastmile_qr_scan", "android": "https://dc.lft.to/lastmile_qr_scan"}, "fusion_lon": 0.0, "lat": 38.98766716666667, "is_disabled": 0, "bike_id": "20b94315bd8eb0b51d4e17a561c60759", "fusion_lat": 0.0, "is_reserved": 0, "lon": -77.1405425}, {"type": "electric_scooter", "name": "857a4c7ec1c6fc3c8ae1f68d021fab93", "rental_uris": {"ios": "https://dc.lft.to/lastmile_qr_scan", "android": "https://dc.lft.to/lastmile_qr_scan"}, "fusion_lon": 0.0, "lat": 38.90265433333333, "is_disabled": 0, "bike_id": "857a4c7ec1c6fc3c8ae1f68d021fab93", "fusion_lat": 0.0, "is_reserved": 0, "lon": -77.03531233333334}, {"type": "electric_scooter", "name": "298c8788f95d0b950299f4791d47c97e", "rental_uris": {"ios": "https://dc.lft.to/lastmile_qr_scan", "android": "https://dc.lft.to/lastmile_qr_scan"}, "fusion_lon": 0.0, "lat": 38.8973155, "is_disabled": 0, "bike_id": "298c8788f95d0b950299f4791d47c97e", "fusion_lat": 0.0, "is_reserved": 0, "lon": -77.04852433333333}, {"type": "electric_bike", "name": "144a8e45ac8aa609117636da0b446fd7", "rental_uris": {"ios": "https://dc.lft.to/lastmile_qr_scan", "android": "https://dc.lft.to/lastmile_qr_scan"}, "fusion_lon": 0.0, "lat": 38.852466666666665, "is_disabled": 0, "bike_id": "144a8e45ac8aa609117636da0b446fd7", "fusion_lat": 0.0, "is_reserved": 0, "lon": -77.1078525}, {"type": "electric_bike", "name": "072a77aef19a172ddc6244efef5d6cfb", "rental_uris": {"ios": "https://dc.lft.to/lastmile_qr_scan", "android": "https://dc.lft.to/lastmile_qr_scan"}, "fusion_lon": 0.0, "lat": 38.807072166666664, "is_disabled": 0, "bike_id": "072a77aef19a172ddc6244efef5d6cfb", "fusion_lat": 0.0, "is_reserved": 0, "lon": -77.06175883333333}, {"type": "electric_scooter", "name": "21f29e2bb341692c90191408cbd49c46", "rental_uris": {"ios": "https://dc.lft.to/lastmile_qr_scan", "android": "https://dc.lft.to/lastmile_qr_scan"}, "fusion_lon": 0.0, "lat": 38.88746733333333, "is_disabled": 0, "bike_id": "21f29e2bb341692c90191408cbd49c46", "fusion_lat": 0.0, "is_reserved": 0, "lon": -77.0316525}, {"type": "electric_scooter", "name": "74dbfd8e809a8d7664d5302a030a3bbf", "rental_uris": {"ios": "https://dc.lft.to/lastmile_qr_scan", "android": "https://dc.lft.to/lastmile_qr_scan"}, "fusion_lon": 0.0, "lat": 38.88710716666667, "is_disabled": 0, "bike_id": "74dbfd8e809a8d7664d5302a030a3bbf", "fusion_lat": 0.0, "is_reserved": 0, "lon": -77.00246633333333}, {"type": "electric_scooter", "name": "18d3a24c4e0b20d6fa9616e37782e383", "rental_uris": {"ios": "https://dc.lft.to/lastmile_qr_scan", "android": "https://dc.lft.to/lastmile_qr_scan"}, "fusion_lon": 0.0, "lat": 38.87954466666667, "is_disabled": 0, "bike_id": "18d3a24c4e0b20d6fa9616e37782e383", "fusion_lat": 0.0, "is_reserved": 0, "lon": -76.990176}, {"type": "electric_scooter", "name": "fd14550e898b27c0d15300cfe74e2f8e", "rental_uris": {"ios": "https://dc.lft.to/lastmile_qr_scan", "android": "https://dc.lft.to/lastmile_qr_scan"}, "fusion_lon": 0.0, "lat": 38.92604216666667, "is_disabled": 0, "bike_id": "fd14550e898b27c0d15300cfe74e2f8e", "fusion_lat": 0.0, "is_reserved": 0, "lon": -77.02156016666666}, {"type": "electric_scooter", "name": "02516ee8aa829946a9cf0d241c7e0b10", "rental_uris": {"ios": "https://dc.lft.to/lastmile_qr_scan", "android": "https://dc.lft.to/lastmile_qr_scan"}, "fusion_lon": 0.0, "lat": 38.90270616666667, "is_disabled": 0, "bike_id": "02516ee8aa829946a9cf0d241c7e0b10", "fusion_lat": 0.0, "is_reserved": 0, "lon": -77.0446855}, {"type": "electric_scooter", "name": "01186907fdba259b6876e6464f65c5c3", "rental_uris": {"ios": "https://dc.lft.to/lastmile_qr_scan", "android": "https://dc.lft.to/lastmile_qr_scan"}, "fusion_lon": 0.0, "lat": 38.91846016666667, "is_disabled": 0, "bike_id": "01186907fdba259b6876e6464f65c5c3", "fusion_lat": 0.0, "is_reserved": 0, "lon": -77.04833083333334}, {"type": "electric_scooter", "name": "817a161cb8e734b853d857d5b4197b8e", "rental_uris": {"ios": "https://dc.lft.to/lastmile_qr_scan", "android": "https://dc.lft.to/lastmile_qr_scan"}, "fusion_lon": 0.0, "lat": 38.903055, "is_disabled": 0, "bike_id": "817a161cb8e734b853d857d5b4197b8e", "fusion_lat": 0.0, "is_reserved": 0, "lon": -77.04329183333333}, {"type": "electric_scooter", "name": "faa4fa731523be4926cca0b23210a89a", "rental_uris": {"ios": "https://dc.lft.to/lastmile_qr_scan", "android": "https://dc.lft.to/lastmile_qr_scan"}, "fusion_lon": 0.0, "lat": 38.938737333333336, "is_disabled": 0, "bike_id": "faa4fa731523be4926cca0b23210a89a", "fusion_lat": 0.0, "is_reserved": 0, "lon": -77.02887433333333}, {"type": "electric_bike", "name": "541bf9ee16f90c71cbd3020676c8edbc", "rental_uris": {"ios": "https://dc.lft.to/lastmile_qr_scan", "android": "https://dc.lft.to/lastmile_qr_scan"}, "fusion_lon": 0.0, "lat": 38.82174366666667, "is_disabled": 0, "bike_id": "541bf9ee16f90c71cbd3020676c8edbc", "fusion_lat": 0.0, "is_reserved": 0, "lon": -76.99513816666666}, {"type": "electric_scooter", "name": "ada180fd8cbe1550352b12410462670d", "rental_uris": {"ios": "https://dc.lft.to/lastmile_qr_scan", "android": "https://dc.lft.to/lastmile_qr_scan"}, "fusion_lon": 0.0, "lat": 38.919164, "is_disabled": 0, "bike_id": "ada180fd8cbe1550352b12410462670d", "fusion_lat": 0.0, "is_reserved": 0, "lon": -77.02620966666667}, {"type": "electric_scooter", "name": "8fe4d717223b2de6c9648a5502488d63", "rental_uris": {"ios": "https://dc.lft.to/lastmile_qr_scan", "android": "https://dc.lft.to/lastmile_qr_scan"}, "fusion_lon": 0.0, "lat": 38.89833083333333, "is_disabled": 0, "bike_id": "8fe4d717223b2de6c9648a5502488d63", "fusion_lat": 0.0, "is_reserved": 0, "lon": -76.94632316666667}, {"type": "electric_scooter", "name": "73696f0c6c4cd3e926a0e83097137d41", "rental_uris": {"ios": "https://dc.lft.to/lastmile_qr_scan", "android": "https://dc.lft.to/lastmile_qr_scan"}, "fusion_lon": 0.0, "lat": 38.8832915, "is_disabled": 0, "bike_id": "73696f0c6c4cd3e926a0e83097137d41", "fusion_lat": 0.0, "is_reserved": 0, "lon": -77.017675}, {"type": "electric_scooter", "name": "86b3adc42d196ed9ae78ee658bff0324", "rental_uris": {"ios": "https://dc.lft.to/lastmile_qr_scan", "android": "https://dc.lft.to/lastmile_qr_scan"}, "fusion_lon": 0.0, "lat": 38.919177, "is_disabled": 0, "bike_id": "86b3adc42d196ed9ae78ee658bff0324", "fusion_lat": 0.0, "is_reserved": 0, "lon": -77.03178166666666}, {"type": "electric_scooter", "name": "f0e4fa69d51db0c45ffaf9933551f6fd", "rental_uris": {"ios": "https://dc.lft.to/lastmile_qr_scan", "android": "https://dc.lft.to/lastmile_qr_scan"}, "fusion_lon": 0.0, "lat": 38.924149, "is_disabled": 0, "bike_id": "f0e4fa69d51db0c45ffaf9933551f6fd", "fusion_lat": 0.0, "is_reserved": 0, "lon": -77.020137}, {"type": "electric_scooter", "name": "f0caf1db24331296f8b038da5e12d8af", "rental_uris": {"ios": "https://dc.lft.to/lastmile_qr_scan", "android": "https://dc.lft.to/lastmile_qr_scan"}, "fusion_lon": 0.0, "lat": 38.96084966666667, "is_disabled": 0, "bike_id": "f0caf1db24331296f8b038da5e12d8af", "fusion_lat": 0.0, "is_reserved": 0, "lon": -77.02890683333334}, {"type": "electric_scooter", "name": "738a277cb78962661bff5ed1d9c932a2", "rental_uris": {"ios": "https://dc.lft.to/lastmile_qr_scan", "android": "https://dc.lft.to/lastmile_qr_scan"}, "fusion_lon": 0.0, "lat": 38.91047733333333, "is_disabled": 0, "bike_id": "738a277cb78962661bff5ed1d9c932a2", "fusion_lat": 0.0, "is_reserved": 0, "lon": -76.997846}, {"type": "electric_scooter", "name": "e740a8908ff54c5be09532eeef647198", "rental_uris": {"ios": "https://dc.lft.to/lastmile_qr_scan", "android": "https://dc.lft.to/lastmile_qr_scan"}, "fusion_lon": 0.0, "lat": 38.879247, "is_disabled": 0, "bike_id": "e740a8908ff54c5be09532eeef647198", "fusion_lat": 0.0, "is_reserved": 0, "lon": -77.00393466666667}, {"type": "electric_scooter", "name": "b2820efb05e39b182bc4d616fa4c079d", "rental_uris": {"ios": "https://dc.lft.to/lastmile_qr_scan", "android": "https://dc.lft.to/lastmile_qr_scan"}, "fusion_lon": 0.0, "lat": 38.91036066666667, "is_disabled": 0, "bike_id": "b2820efb05e39b182bc4d616fa4c079d", "fusion_lat": 0.0, "is_reserved": 0, "lon": -77.07574683333333}, {"type": "electric_bike", "name": "462c6fddb3b6a611b86b4b8cd1dc1ac2", "rental_uris": {"ios": "https://dc.lft.to/lastmile_qr_scan", "android": "https://dc.lft.to/lastmile_qr_scan"}, "fusion_lon": 0.0, "lat": 38.884934, "is_disabled": 0, "bike_id": "462c6fddb3b6a611b86b4b8cd1dc1ac2", "fusion_lat": 0.0, "is_reserved": 0, "lon": -76.956653}, {"type": "electric_scooter", "name": "7da9d9c0b9f9d35f9a48f439b8ff3888", "rental_uris": {"ios": "https://dc.lft.to/lastmile_qr_scan", "android": "https://dc.lft.to/lastmile_qr_scan"}, "fusion_lon": 0.0, "lat": 38.88143866666667, "is_disabled": 0, "bike_id": "7da9d9c0b9f9d35f9a48f439b8ff3888", "fusion_lat": 0.0, "is_reserved": 0, "lon": -77.02740666666666}, {"type": "electric_scooter", "name": "783dfa996c43356842bb3031afc91e16", "rental_uris": {"ios": "https://dc.lft.to/lastmile_qr_scan", "android": "https://dc.lft.to/lastmile_qr_scan"}, "fusion_lon": 0.0, "lat": 38.914119666666664, "is_disabled": 0, "bike_id": "783dfa996c43356842bb3031afc91e16", "fusion_lat": 0.0, "is_reserved": 0, "lon": -77.01813116666666}, {"type": "electric_scooter", "name": "91409de2d8263458ddcbb29066e6e882", "rental_uris": {"ios": "https://dc.lft.to/lastmile_qr_scan", "android": "https://dc.lft.to/lastmile_qr_scan"}, "fusion_lon": 0.0, "lat": 38.93871566666667, "is_disabled": 0, "bike_id": "91409de2d8263458ddcbb29066e6e882", "fusion_lat": 0.0, "is_reserved": 0, "lon": -77.02466716666666}, {"type": "electric_scooter", "name": "7eca1064b46ae14daa90ac5611db2dbd", "rental_uris": {"ios": "https://dc.lft.to/lastmile_qr_scan", "android": "https://dc.lft.to/lastmile_qr_scan"}, "fusion_lon": 0.0, "lat": 38.90739816666667, "is_disabled": 0, "bike_id": "7eca1064b46ae14daa90ac5611db2dbd", "fusion_lat": 0.0, "is_reserved": 0, "lon": -77.007804}, {"type": "electric_scooter", "name": "4783490a6741d6b19fdab92143e44c3a", "rental_uris": {"ios": "https://dc.lft.to/lastmile_qr_scan", "android": "https://dc.lft.to/lastmile_qr_scan"}, "fusion_lon": 0.0, "lat": 38.88615766666667, "is_disabled": 0, "bike_id": "4783490a6741d6b19fdab92143e44c3a", "fusion_lat": 0.0, "is_reserved": 0, "lon": -77.0124875}, {"type": "electric_scooter", "name": "a20f5177a76f39ad1eb58270f4435120", "rental_uris": {"ios": "https://dc.lft.to/lastmile_qr_scan", "android": "https://dc.lft.to/lastmile_qr_scan"}, "fusion_lon": 0.0, "lat": 38.883054666666666, "is_disabled": 0, "bike_id": "a20f5177a76f39ad1eb58270f4435120", "fusion_lat": 0.0, "is_reserved": 0, "lon": -77.01747733333333}, {"type": "electric_scooter", "name": "58b4e181a866a3fbdb8d6127cfd2ab36", "rental_uris": {"ios": "https://dc.lft.to/lastmile_qr_scan", "android": "https://dc.lft.to/lastmile_qr_scan"}, "fusion_lon": 0.0, "lat": 38.92322683333333, "is_disabled": 0, "bike_id": "58b4e181a866a3fbdb8d6127cfd2ab36", "fusion_lat": 0.0, "is_reserved": 0, "lon": -77.02903683333334}, {"type": "electric_scooter", "name": "324c7f78156273657e6c9dda0a95a042", "rental_uris": {"ios": "https://dc.lft.to/lastmile_qr_scan", "android": "https://dc.lft.to/lastmile_qr_scan"}, "fusion_lon": 0.0, "lat": 38.90778366666667, "is_disabled": 0, "bike_id": "324c7f78156273657e6c9dda0a95a042", "fusion_lat": 0.0, "is_reserved": 0, "lon": -77.0716785}, {"type": "electric_scooter", "name": "5b530a20c7211f5287772b491c0c9bec", "rental_uris": {"ios": "https://dc.lft.to/lastmile_qr_scan", "android": "https://dc.lft.to/lastmile_qr_scan"}, "fusion_lon": 0.0, "lat": 38.88715533333333, "is_disabled": 0, "bike_id": "5b530a20c7211f5287772b491c0c9bec", "fusion_lat": 0.0, "is_reserved": 0, "lon": -76.98351466666666}, {"type": "electric_scooter", "name": "1e69011ec00566f54f0a7bc7d2012fb0", "rental_uris": {"ios": "https://dc.lft.to/lastmile_qr_scan", "android": "https://dc.lft.to/lastmile_qr_scan"}, "fusion_lon": 0.0, "lat": 38.89465883333333, "is_disabled": 0, "bike_id": "1e69011ec00566f54f0a7bc7d2012fb0", "fusion_lat": 0.0, "is_reserved": 0, "lon": -77.01660733333334}, {"type": "electric_scooter", "name": "6f674564b8bd4210b7b36d8cf089bae2", "rental_uris": {"ios": "https://dc.lft.to/lastmile_qr_scan", "android": "https://dc.lft.to/lastmile_qr_scan"}, "fusion_lon": 0.0, "lat": 38.905726666666666, "is_disabled": 0, "bike_id": "6f674564b8bd4210b7b36d8cf089bae2", "fusion_lat": 0.0, "is_reserved": 0, "lon": -77.0265665}, {"type": "electric_scooter", "name": "966addebc3b5107ea4d9789bb15832aa", "rental_uris": {"ios": "https://dc.lft.to/lastmile_qr_scan", "android": "https://dc.lft.to/lastmile_qr_scan"}, "fusion_lon": 0.0, "lat": 38.91534166666667, "is_disabled": 0, "bike_id": "966addebc3b5107ea4d9789bb15832aa", "fusion_lat": 0.0, "is_reserved": 0, "lon": -77.01218583333333}, {"type": "electric_scooter", "name": "eb80e6b029d180ae39ea80f7a481782e", "rental_uris": {"ios": "https://dc.lft.to/lastmile_qr_scan", "android": "https://dc.lft.to/lastmile_qr_scan"}, "fusion_lon": 0.0, "lat": 38.911814166666666, "is_disabled": 0, "bike_id": "eb80e6b029d180ae39ea80f7a481782e", "fusion_lat": 0.0, "is_reserved": 0, "lon": -77.0026245}, {"type": "electric_scooter", "name": "38260f0c221d8894886251aedbf71145", "rental_uris": {"ios": "https://dc.lft.to/lastmile_qr_scan", "android": "https://dc.lft.to/lastmile_qr_scan"}, "fusion_lon": 0.0, "lat": 38.920835333333336, "is_disabled": 0, "bike_id": "38260f0c221d8894886251aedbf71145", "fusion_lat": 0.0, "is_reserved": 0, "lon": -77.02471116666666}, {"type": "electric_scooter", "name": "7120b123070a22f0101c71bada9dd8f5", "rental_uris": {"ios": "https://dc.lft.to/lastmile_qr_scan", "android": "https://dc.lft.to/lastmile_qr_scan"}, "fusion_lon": 0.0, "lat": 38.900630166666666, "is_disabled": 0, "bike_id": "7120b123070a22f0101c71bada9dd8f5", "fusion_lat": 0.0, "is_reserved": 0, "lon": -77.0542045}, {"type": "electric_scooter", "name": "636b23540b1c91cedcf11bea0562fac0", "rental_uris": {"ios": "https://dc.lft.to/lastmile_qr_scan", "android": "https://dc.lft.to/lastmile_qr_scan"}, "fusion_lon": 0.0, "lat": 38.86678783333333, "is_disabled": 0, "bike_id": "636b23540b1c91cedcf11bea0562fac0", "fusion_lat": 0.0, "is_reserved": 0, "lon": -76.985621}, {"type": "electric_scooter", "name": "32a35de73f5c2b1c5e9ddacea4fcc474", "rental_uris": {"ios": "https://dc.lft.to/lastmile_qr_scan", "android": "https://dc.lft.to/lastmile_qr_scan"}, "fusion_lon": 0.0, "lat": 38.92160033333333, "is_disabled": 0, "bike_id": "32a35de73f5c2b1c5e9ddacea4fcc474", "fusion_lat": 0.0, "is_reserved": 0, "lon": -77.033271}, {"type": "electric_scooter", "name": "2cd33d4da3953c4c4c1f5d03f3102e3b", "rental_uris": {"ios": "https://dc.lft.to/lastmile_qr_scan", "android": "https://dc.lft.to/lastmile_qr_scan"}, "fusion_lon": 0.0, "lat": 38.93194233333333, "is_disabled": 0, "bike_id": "2cd33d4da3953c4c4c1f5d03f3102e3b", "fusion_lat": 0.0, "is_reserved": 0, "lon": -77.02352266666666}, {"type": "electric_scooter", "name": "d9a7c8dcbdda183da52668c7ad8b00c9", "rental_uris": {"ios": "https://dc.lft.to/lastmile_qr_scan", "android": "https://dc.lft.to/lastmile_qr_scan"}, "fusion_lon": 0.0, "lat": 38.90496666666667, "is_disabled": 0, "bike_id": "d9a7c8dcbdda183da52668c7ad8b00c9", "fusion_lat": 0.0, "is_reserved": 0, "lon": -77.04919433333333}, {"type": "electric_scooter", "name": "2f008cb855c9e688cb453215550565d1", "rental_uris": {"ios": "https://dc.lft.to/lastmile_qr_scan", "android": "https://dc.lft.to/lastmile_qr_scan"}, "fusion_lon": 0.0, "lat": 38.909630666666665, "is_disabled": 0, "bike_id": "2f008cb855c9e688cb453215550565d1", "fusion_lat": 0.0, "is_reserved": 0, "lon": -77.0227725}, {"type": "electric_scooter", "name": "bdc21a5ec955b4c7c2afe4bc15cf8edc", "rental_uris": {"ios": "https://dc.lft.to/lastmile_qr_scan", "android": "https://dc.lft.to/lastmile_qr_scan"}, "fusion_lon": 0.0, "lat": 38.8997815, "is_disabled": 0, "bike_id": "bdc21a5ec955b4c7c2afe4bc15cf8edc", "fusion_lat": 0.0, "is_reserved": 0, "lon": -77.00908466666667}, {"type": "electric_scooter", "name": "ea51efeb19a18c4d4f9cc9d1c491c91d", "rental_uris": {"ios": "https://dc.lft.to/lastmile_qr_scan", "android": "https://dc.lft.to/lastmile_qr_scan"}, "fusion_lon": 0.0, "lat": 38.89065383333333, "is_disabled": 0, "bike_id": "ea51efeb19a18c4d4f9cc9d1c491c91d", "fusion_lat": 0.0, "is_reserved": 0, "lon": -76.94458266666666}, {"type": "electric_scooter", "name": "5cb3194d507ac66503f6088a8ac23b20", "rental_uris": {"ios": "https://dc.lft.to/lastmile_qr_scan", "android": "https://dc.lft.to/lastmile_qr_scan"}, "fusion_lon": 0.0, "lat": 38.88149716666667, "is_disabled": 0, "bike_id": "5cb3194d507ac66503f6088a8ac23b20", "fusion_lat": 0.0, "is_reserved": 0, "lon": -77.02706333333333}, {"type": "electric_scooter", "name": "a0570cd14f0610db2905f23fd9f81a68", "rental_uris": {"ios": "https://dc.lft.to/lastmile_qr_scan", "android": "https://dc.lft.to/lastmile_qr_scan"}, "fusion_lon": 0.0, "lat": 38.9097555, "is_disabled": 0, "bike_id": "a0570cd14f0610db2905f23fd9f81a68", "fusion_lat": 0.0, "is_reserved": 0, "lon": -77.0344105}, {"type": "electric_scooter", "name": "970b1dbf710f6d2d968c0b32452bc8a7", "rental_uris": {"ios": "https://dc.lft.to/lastmile_qr_scan", "android": "https://dc.lft.to/lastmile_qr_scan"}, "fusion_lon": 0.0, "lat": 38.898752, "is_disabled": 0, "bike_id": "970b1dbf710f6d2d968c0b32452bc8a7", "fusion_lat": 0.0, "is_reserved": 0, "lon": -77.0205545}, {"type": "electric_scooter", "name": "3c047b3af913cc5017dd78b9bc9651cb", "rental_uris": {"ios": "https://dc.lft.to/lastmile_qr_scan", "android": "https://dc.lft.to/lastmile_qr_scan"}, "fusion_lon": 0.0, "lat": 38.907164, "is_disabled": 0, "bike_id": "3c047b3af913cc5017dd78b9bc9651cb", "fusion_lat": 0.0, "is_reserved": 0, "lon": -77.03443466666667}, {"type": "electric_scooter", "name": "92f71ad0a0a7e83e008f6a97f2896000", "rental_uris": {"ios": "https://dc.lft.to/lastmile_qr_scan", "android": "https://dc.lft.to/lastmile_qr_scan"}, "fusion_lon": 0.0, "lat": 38.921168, "is_disabled": 0, "bike_id": "92f71ad0a0a7e83e008f6a97f2896000", "fusion_lat": 0.0, "is_reserved": 0, "lon": -77.0366105}, {"type": "electric_scooter", "name": "e7378bb7a1ecea9165dc064c0b080253", "rental_uris": {"ios": "https://dc.lft.to/lastmile_qr_scan", "android": "https://dc.lft.to/lastmile_qr_scan"}, "fusion_lon": 0.0, "lat": 38.856028333333335, "is_disabled": 0, "bike_id": "e7378bb7a1ecea9165dc064c0b080253", "fusion_lat": 0.0, "is_reserved": 0, "lon": -76.97268366666667}, {"type": "electric_scooter", "name": "865bc464e70805f8266c9c6b4bda6f11", "rental_uris": {"ios": "https://dc.lft.to/lastmile_qr_scan", "android": "https://dc.lft.to/lastmile_qr_scan"}, "fusion_lon": 0.0, "lat": 38.909778, "is_disabled": 0, "bike_id": "865bc464e70805f8266c9c6b4bda6f11", "fusion_lat": 0.0, "is_reserved": 0, "lon": -77.03444466666667}, {"type": "electric_scooter", "name": "d0ebb51bc5df120ffaf99ddbf24db3b3", "rental_uris": {"ios": "https://dc.lft.to/lastmile_qr_scan", "android": "https://dc.lft.to/lastmile_qr_scan"}, "fusion_lon": 0.0, "lat": 38.92275016666667, "is_disabled": 0, "bike_id": "d0ebb51bc5df120ffaf99ddbf24db3b3", "fusion_lat": 0.0, "is_reserved": 0, "lon": -77.032734}, {"type": "electric_scooter", "name": "6992a73222d6edb691377d14e7b2b067", "rental_uris": {"ios": "https://dc.lft.to/lastmile_qr_scan", "android": "https://dc.lft.to/lastmile_qr_scan"}, "fusion_lon": 0.0, "lat": 38.90107366666667, "is_disabled": 0, "bike_id": "6992a73222d6edb691377d14e7b2b067", "fusion_lat": 0.0, "is_reserved": 0, "lon": -77.04660933333334}, {"type": "electric_scooter", "name": "f00a5f3d7784bb1a7a08ecb46af6937e", "rental_uris": {"ios": "https://dc.lft.to/lastmile_qr_scan", "android": "https://dc.lft.to/lastmile_qr_scan"}, "fusion_lon": 0.0, "lat": 38.892368, "is_disabled": 0, "bike_id": "f00a5f3d7784bb1a7a08ecb46af6937e", "fusion_lat": 0.0, "is_reserved": 0, "lon": -77.04876366666667}, {"type": "electric_scooter", "name": "2e56df884b10c9194c1a29880f8c8a8d", "rental_uris": {"ios": "https://dc.lft.to/lastmile_qr_scan", "android": "https://dc.lft.to/lastmile_qr_scan"}, "fusion_lon": 0.0, "lat": 38.89225483333333, "is_disabled": 0, "bike_id": "2e56df884b10c9194c1a29880f8c8a8d", "fusion_lat": 0.0, "is_reserved": 0, "lon": -77.04382716666667}, {"type": "electric_scooter", "name": "d3312697c2dc9c2cfda3f1c3a95fe175", "rental_uris": {"ios": "https://dc.lft.to/lastmile_qr_scan", "android": "https://dc.lft.to/lastmile_qr_scan"}, "fusion_lon": 0.0, "lat": 38.892232, "is_disabled": 0, "bike_id": "d3312697c2dc9c2cfda3f1c3a95fe175", "fusion_lat": 0.0, "is_reserved": 0, "lon": -77.033392}, {"type": "electric_scooter", "name": "6b049e12f7c8d60a79539c5c7a7ba34b", "rental_uris": {"ios": "https://dc.lft.to/lastmile_qr_scan", "android": "https://dc.lft.to/lastmile_qr_scan"}, "fusion_lon": 0.0, "lat": 38.913321, "is_disabled": 0, "bike_id": "6b049e12f7c8d60a79539c5c7a7ba34b", "fusion_lat": 0.0, "is_reserved": 0, "lon": -77.03168583333333}, {"type": "electric_scooter", "name": "b1f458f6258d05681ada4d93b423fc6a", "rental_uris": {"ios": "https://dc.lft.to/lastmile_qr_scan", "android": "https://dc.lft.to/lastmile_qr_scan"}, "fusion_lon": 0.0, "lat": 38.915551666666666, "is_disabled": 0, "bike_id": "b1f458f6258d05681ada4d93b423fc6a", "fusion_lat": 0.0, "is_reserved": 0, "lon": -77.023513}, {"type": "electric_scooter", "name": "23415be55a3a646dc3d723ebf79c0c4f", "rental_uris": {"ios": "https://dc.lft.to/lastmile_qr_scan", "android": "https://dc.lft.to/lastmile_qr_scan"}, "fusion_lon": 0.0, "lat": 38.8650415, "is_disabled": 0, "bike_id": "23415be55a3a646dc3d723ebf79c0c4f", "fusion_lat": 0.0, "is_reserved": 0, "lon": -76.99004433333333}, {"type": "electric_scooter", "name": "976f0ee3637e389dba22dda3533d481a", "rental_uris": {"ios": "https://dc.lft.to/lastmile_qr_scan", "android": "https://dc.lft.to/lastmile_qr_scan"}, "fusion_lon": 0.0, "lat": 38.897905, "is_disabled": 0, "bike_id": "976f0ee3637e389dba22dda3533d481a", "fusion_lat": 0.0, "is_reserved": 0, "lon": -76.93128033333333}, {"type": "electric_scooter", "name": "bb27501e75c38b36a40d7bad5b4c20a2", "rental_uris": {"ios": "https://dc.lft.to/lastmile_qr_scan", "android": "https://dc.lft.to/lastmile_qr_scan"}, "fusion_lon": 0.0, "lat": 38.936093, "is_disabled": 0, "bike_id": "bb27501e75c38b36a40d7bad5b4c20a2", "fusion_lat": 0.0, "is_reserved": 0, "lon": -77.05862016666667}, {"type": "electric_scooter", "name": "7687f32a548fffac4a43b112d4332dc8", "rental_uris": {"ios": "https://dc.lft.to/lastmile_qr_scan", "android": "https://dc.lft.to/lastmile_qr_scan"}, "fusion_lon": 0.0, "lat": 38.9038975, "is_disabled": 0, "bike_id": "7687f32a548fffac4a43b112d4332dc8", "fusion_lat": 0.0, "is_reserved": 0, "lon": -77.03194816666667}, {"type": "electric_scooter", "name": "15a3266359ed03b6883e6afb45a2f4e2", "rental_uris": {"ios": "https://dc.lft.to/lastmile_qr_scan", "android": "https://dc.lft.to/lastmile_qr_scan"}, "fusion_lon": 0.0, "lat": 38.90168116666667, "is_disabled": 0, "bike_id": "15a3266359ed03b6883e6afb45a2f4e2", "fusion_lat": 0.0, "is_reserved": 0, "lon": -76.98074683333333}, {"type": "electric_scooter", "name": "7ff97a594fca12a7e430907883b64710", "rental_uris": {"ios": "https://dc.lft.to/lastmile_qr_scan", "android": "https://dc.lft.to/lastmile_qr_scan"}, "fusion_lon": 0.0, "lat": 38.90451566666667, "is_disabled": 0, "bike_id": "7ff97a594fca12a7e430907883b64710", "fusion_lat": 0.0, "is_reserved": 0, "lon": -77.018922}, {"type": "electric_scooter", "name": "ccc9ecd5d021400c9b034ef5c6085a21", "rental_uris": {"ios": "https://dc.lft.to/lastmile_qr_scan", "android": "https://dc.lft.to/lastmile_qr_scan"}, "fusion_lon": 0.0, "lat": 38.9297685, "is_disabled": 0, "bike_id": "ccc9ecd5d021400c9b034ef5c6085a21", "fusion_lat": 0.0, "is_reserved": 0, "lon": -77.05499183333333}, {"type": "electric_scooter", "name": "8851498c4ed9cc39f9fcad78d789cdd6", "rental_uris": {"ios": "https://dc.lft.to/lastmile_qr_scan", "android": "https://dc.lft.to/lastmile_qr_scan"}, "fusion_lon": 0.0, "lat": 38.90271166666667, "is_disabled": 0, "bike_id": "8851498c4ed9cc39f9fcad78d789cdd6", "fusion_lat": 0.0, "is_reserved": 0, "lon": -77.03531633333333}, {"type": "electric_scooter", "name": "9a3fc86956e86d22b0ebb97da896731d", "rental_uris": {"ios": "https://dc.lft.to/lastmile_qr_scan", "android": "https://dc.lft.to/lastmile_qr_scan"}, "fusion_lon": 0.0, "lat": 38.901657, "is_disabled": 0, "bike_id": "9a3fc86956e86d22b0ebb97da896731d", "fusion_lat": 0.0, "is_reserved": 0, "lon": -77.01346733333334}, {"type": "electric_scooter", "name": "8eb6c6ec9f7884311b2764a8c850c9f0", "rental_uris": {"ios": "https://dc.lft.to/lastmile_qr_scan", "android": "https://dc.lft.to/lastmile_qr_scan"}, "fusion_lon": 0.0, "lat": 38.91222366666667, "is_disabled": 0, "bike_id": "8eb6c6ec9f7884311b2764a8c850c9f0", "fusion_lat": 0.0, "is_reserved": 0, "lon": -76.987881}, {"type": "electric_scooter", "name": "6df631199d0cd0a60f8f59bfe307d999", "rental_uris": {"ios": "https://dc.lft.to/lastmile_qr_scan", "android": "https://dc.lft.to/lastmile_qr_scan"}, "fusion_lon": 0.0, "lat": 38.9001775, "is_disabled": 0, "bike_id": "6df631199d0cd0a60f8f59bfe307d999", "fusion_lat": 0.0, "is_reserved": 0, "lon": -77.04117833333333}, {"type": "electric_scooter", "name": "589d329a79df0c397c2757564acb02ec", "rental_uris": {"ios": "https://dc.lft.to/lastmile_qr_scan", "android": "https://dc.lft.to/lastmile_qr_scan"}, "fusion_lon": 0.0, "lat": 38.9445755, "is_disabled": 0, "bike_id": "589d329a79df0c397c2757564acb02ec", "fusion_lat": 0.0, "is_reserved": 0, "lon": -77.02342233333333}, {"type": "electric_scooter", "name": "73d0c6628986fc0cb35be8ec9d3cf033", "rental_uris": {"ios": "https://dc.lft.to/lastmile_qr_scan", "android": "https://dc.lft.to/lastmile_qr_scan"}, "fusion_lon": 0.0, "lat": 38.921968166666666, "is_disabled": 0, "bike_id": "73d0c6628986fc0cb35be8ec9d3cf033", "fusion_lat": 0.0, "is_reserved": 0, "lon": -77.04145466666667}, {"type": "electric_scooter", "name": "8fd3a13765ae418f0ca59c784b02469b", "rental_uris": {"ios": "https://dc.lft.to/lastmile_qr_scan", "android": "https://dc.lft.to/lastmile_qr_scan"}, "fusion_lon": 0.0, "lat": 38.97635066666667, "is_disabled": 0, "bike_id": "8fd3a13765ae418f0ca59c784b02469b", "fusion_lat": 0.0, "is_reserved": 0, "lon": -77.01572083333333}, {"type": "electric_scooter", "name": "0eac99f21d6c0cf7ded44fa0bb9491a4", "rental_uris": {"ios": "https://dc.lft.to/lastmile_qr_scan", "android": "https://dc.lft.to/lastmile_qr_scan"}, "fusion_lon": 0.0, "lat": 38.897179666666666, "is_disabled": 0, "bike_id": "0eac99f21d6c0cf7ded44fa0bb9491a4", "fusion_lat": 0.0, "is_reserved": 0, "lon": -77.00798833333333}, {"type": "electric_bike", "name": "585d8cb8257ec4835ce22ab4585ff220", "rental_uris": {"ios": "https://dc.lft.to/lastmile_qr_scan", "android": "https://dc.lft.to/lastmile_qr_scan"}, "fusion_lon": 0.0, "lat": 38.94151733333333, "is_disabled": 0, "bike_id": "585d8cb8257ec4835ce22ab4585ff220", "fusion_lat": 0.0, "is_reserved": 0, "lon": -77.00191466666666}, {"type": "electric_scooter", "name": "014b6e92432fbb6e82b984f17edbad8a", "rental_uris": {"ios": "https://dc.lft.to/lastmile_qr_scan", "android": "https://dc.lft.to/lastmile_qr_scan"}, "fusion_lon": 0.0, "lat": 38.901367, "is_disabled": 0, "bike_id": "014b6e92432fbb6e82b984f17edbad8a", "fusion_lat": 0.0, "is_reserved": 0, "lon": -77.0372305}, {"type": "electric_scooter", "name": "824c7d1bb6c253c57a7a4fe2b9d3ef57", "rental_uris": {"ios": "https://dc.lft.to/lastmile_qr_scan", "android": "https://dc.lft.to/lastmile_qr_scan"}, "fusion_lon": 0.0, "lat": 38.91689066666667, "is_disabled": 0, "bike_id": "824c7d1bb6c253c57a7a4fe2b9d3ef57", "fusion_lat": 0.0, "is_reserved": 0, "lon": -77.04145966666667}, {"type": "electric_scooter", "name": "a19f82ef4a1d396e6aef9bbf845fd1ba", "rental_uris": {"ios": "https://dc.lft.to/lastmile_qr_scan", "android": "https://dc.lft.to/lastmile_qr_scan"}, "fusion_lon": 0.0, "lat": 38.90707616666667, "is_disabled": 0, "bike_id": "a19f82ef4a1d396e6aef9bbf845fd1ba", "fusion_lat": 0.0, "is_reserved": 0, "lon": -77.02952816666667}, {"type": "electric_scooter", "name": "d51ef53478f8aa01600b98bd2ea8106e", "rental_uris": {"ios": "https://dc.lft.to/lastmile_qr_scan", "android": "https://dc.lft.to/lastmile_qr_scan"}, "fusion_lon": 0.0, "lat": 38.926490333333334, "is_disabled": 0, "bike_id": "d51ef53478f8aa01600b98bd2ea8106e", "fusion_lat": 0.0, "is_reserved": 0, "lon": -77.03711783333334}, {"type": "electric_bike", "name": "e45aae305fe66bf8e8b543f4e9edcf89", "rental_uris": {"ios": "https://dc.lft.to/lastmile_qr_scan", "android": "https://dc.lft.to/lastmile_qr_scan"}, "fusion_lon": 0.0, "lat": 38.96532116666667, "is_disabled": 0, "bike_id": "e45aae305fe66bf8e8b543f4e9edcf89", "fusion_lat": 0.0, "is_reserved": 0, "lon": -77.028111}, {"type": "electric_scooter", "name": "4c8194773d36772cd2e8d23ad929820a", "rental_uris": {"ios": "https://dc.lft.to/lastmile_qr_scan", "android": "https://dc.lft.to/lastmile_qr_scan"}, "fusion_lon": 0.0, "lat": 38.92104416666667, "is_disabled": 0, "bike_id": "4c8194773d36772cd2e8d23ad929820a", "fusion_lat": 0.0, "is_reserved": 0, "lon": -77.07471233333334}, {"type": "electric_scooter", "name": "830db307969316c77b21d529201cc3d0", "rental_uris": {"ios": "https://dc.lft.to/lastmile_qr_scan", "android": "https://dc.lft.to/lastmile_qr_scan"}, "fusion_lon": 0.0, "lat": 38.90922116666667, "is_disabled": 0, "bike_id": "830db307969316c77b21d529201cc3d0", "fusion_lat": 0.0, "is_reserved": 0, "lon": -76.99914216666667}, {"type": "electric_scooter", "name": "95416e7a32cffeadd209f05bd7efda18", "rental_uris": {"ios": "https://dc.lft.to/lastmile_qr_scan", "android": "https://dc.lft.to/lastmile_qr_scan"}, "fusion_lon": 0.0, "lat": 38.865039333333335, "is_disabled": 0, "bike_id": "95416e7a32cffeadd209f05bd7efda18", "fusion_lat": 0.0, "is_reserved": 0, "lon": -76.9900725}, {"type": "electric_scooter", "name": "dc64aab6adb9968f3b69ca196aaa4b4c", "rental_uris": {"ios": "https://dc.lft.to/lastmile_qr_scan", "android": "https://dc.lft.to/lastmile_qr_scan"}, "fusion_lon": 0.0, "lat": 38.932718333333334, "is_disabled": 0, "bike_id": "dc64aab6adb9968f3b69ca196aaa4b4c", "fusion_lat": 0.0, "is_reserved": 0, "lon": -77.045379}, {"type": "electric_scooter", "name": "51acd02e51eab434ff323c6a2e6939bf", "rental_uris": {"ios": "https://dc.lft.to/lastmile_qr_scan", "android": "https://dc.lft.to/lastmile_qr_scan"}, "fusion_lon": 0.0, "lat": 38.88768066666667, "is_disabled": 0, "bike_id": "51acd02e51eab434ff323c6a2e6939bf", "fusion_lat": 0.0, "is_reserved": 0, "lon": -76.9775105}, {"type": "electric_scooter", "name": "cfc9f2d1d9c873f20755ec52a1fbecd1", "rental_uris": {"ios": "https://dc.lft.to/lastmile_qr_scan", "android": "https://dc.lft.to/lastmile_qr_scan"}, "fusion_lon": 0.0, "lat": 38.905742833333335, "is_disabled": 0, "bike_id": "cfc9f2d1d9c873f20755ec52a1fbecd1", "fusion_lat": 0.0, "is_reserved": 0, "lon": -77.02204833333333}, {"type": "electric_scooter", "name": "7e7995b069dd309cf6f877217a5e8efa", "rental_uris": {"ios": "https://dc.lft.to/lastmile_qr_scan", "android": "https://dc.lft.to/lastmile_qr_scan"}, "fusion_lon": 0.0, "lat": 38.87897183333333, "is_disabled": 0, "bike_id": "7e7995b069dd309cf6f877217a5e8efa", "fusion_lat": 0.0, "is_reserved": 0, "lon": -76.986985}, {"type": "electric_scooter", "name": "a01f4751592ed8cf0fcc853fcf84c6c7", "rental_uris": {"ios": "https://dc.lft.to/lastmile_qr_scan", "android": "https://dc.lft.to/lastmile_qr_scan"}, "fusion_lon": 0.0, "lat": 38.90560416666667, "is_disabled": 0, "bike_id": "a01f4751592ed8cf0fcc853fcf84c6c7", "fusion_lat": 0.0, "is_reserved": 0, "lon": -77.0220475}, {"type": "electric_scooter", "name": "47861c5c5545afcf76a603ebe4f3b0f2", "rental_uris": {"ios": "https://dc.lft.to/lastmile_qr_scan", "android": "https://dc.lft.to/lastmile_qr_scan"}, "fusion_lon": 0.0, "lat": 38.89576066666667, "is_disabled": 0, "bike_id": "47861c5c5545afcf76a603ebe4f3b0f2", "fusion_lat": 0.0, "is_reserved": 0, "lon": -77.02289}, {"type": "electric_scooter", "name": "0079f15b26553cf30a0b4ba0237d4974", "rental_uris": {"ios": "https://dc.lft.to/lastmile_qr_scan", "android": "https://dc.lft.to/lastmile_qr_scan"}, "fusion_lon": 0.0, "lat": 38.924220166666665, "is_disabled": 0, "bike_id": "0079f15b26553cf30a0b4ba0237d4974", "fusion_lat": 0.0, "is_reserved": 0, "lon": -77.020445}, {"type": "electric_scooter", "name": "d496f8f49874f4f33d7ab5272f49d5ea", "rental_uris": {"ios": "https://dc.lft.to/lastmile_qr_scan", "android": "https://dc.lft.to/lastmile_qr_scan"}, "fusion_lon": 0.0, "lat": 38.91786716666667, "is_disabled": 0, "bike_id": "d496f8f49874f4f33d7ab5272f49d5ea", "fusion_lat": 0.0, "is_reserved": 0, "lon": -77.02222783333333}, {"type": "electric_scooter", "name": "220b7f527a96a02ccb58b3ddb15116c9", "rental_uris": {"ios": "https://dc.lft.to/lastmile_qr_scan", "android": "https://dc.lft.to/lastmile_qr_scan"}, "fusion_lon": 0.0, "lat": 38.898993, "is_disabled": 0, "bike_id": "220b7f527a96a02ccb58b3ddb15116c9", "fusion_lat": 0.0, "is_reserved": 0, "lon": -77.002248}, {"type": "electric_scooter", "name": "2d0c951107b9265d986d8b99c42a4aee", "rental_uris": {"ios": "https://dc.lft.to/lastmile_qr_scan", "android": "https://dc.lft.to/lastmile_qr_scan"}, "fusion_lon": 0.0, "lat": 38.93608866666667, "is_disabled": 0, "bike_id": "2d0c951107b9265d986d8b99c42a4aee", "fusion_lat": 0.0, "is_reserved": 0, "lon": -77.05865533333333}, {"type": "electric_scooter", "name": "6885218648963d860f0fad8200aa2686", "rental_uris": {"ios": "https://dc.lft.to/lastmile_qr_scan", "android": "https://dc.lft.to/lastmile_qr_scan"}, "fusion_lon": 0.0, "lat": 38.90266716666667, "is_disabled": 0, "bike_id": "6885218648963d860f0fad8200aa2686", "fusion_lat": 0.0, "is_reserved": 0, "lon": -77.05321033333334}, {"type": "electric_bike", "name": "ad85ef865c7ea29fc1cee81694b784a1", "rental_uris": {"ios": "https://dc.lft.to/lastmile_qr_scan", "android": "https://dc.lft.to/lastmile_qr_scan"}, "fusion_lon": 0.0, "lat": 38.9355605, "is_disabled": 0, "bike_id": "ad85ef865c7ea29fc1cee81694b784a1", "fusion_lat": 0.0, "is_reserved": 0, "lon": -77.03705866666667}, {"type": "electric_scooter", "name": "08c48df18ed3d2d655a5737dcbfdeebd", "rental_uris": {"ios": "https://dc.lft.to/lastmile_qr_scan", "android": "https://dc.lft.to/lastmile_qr_scan"}, "fusion_lon": 0.0, "lat": 38.97238633333333, "is_disabled": 0, "bike_id": "08c48df18ed3d2d655a5737dcbfdeebd", "fusion_lat": 0.0, "is_reserved": 0, "lon": -77.02715416666666}, {"type": "electric_scooter", "name": "8300f43f8f277ebffbc875f3c0a2490c", "rental_uris": {"ios": "https://dc.lft.to/lastmile_qr_scan", "android": "https://dc.lft.to/lastmile_qr_scan"}, "fusion_lon": 0.0, "lat": 38.90281516666667, "is_disabled": 0, "bike_id": "8300f43f8f277ebffbc875f3c0a2490c", "fusion_lat": 0.0, "is_reserved": 0, "lon": -77.03842466666667}, {"type": "electric_scooter", "name": "77cf8f43e60f51f20759bd3de76e96ba", "rental_uris": {"ios": "https://dc.lft.to/lastmile_qr_scan", "android": "https://dc.lft.to/lastmile_qr_scan"}, "fusion_lon": 0.0, "lat": 38.91805566666667, "is_disabled": 0, "bike_id": "77cf8f43e60f51f20759bd3de76e96ba", "fusion_lat": 0.0, "is_reserved": 0, "lon": -77.03721216666666}, {"type": "electric_scooter", "name": "7b8f6f210b66ddde5d759b4123abd7d7", "rental_uris": {"ios": "https://dc.lft.to/lastmile_qr_scan", "android": "https://dc.lft.to/lastmile_qr_scan"}, "fusion_lon": 0.0, "lat": 38.87897433333333, "is_disabled": 0, "bike_id": "7b8f6f210b66ddde5d759b4123abd7d7", "fusion_lat": 0.0, "is_reserved": 0, "lon": -77.01361216666666}, {"type": "electric_scooter", "name": "08e52b32262775535b91ddb5bdc8a027", "rental_uris": {"ios": "https://dc.lft.to/lastmile_qr_scan", "android": "https://dc.lft.to/lastmile_qr_scan"}, "fusion_lon": 0.0, "lat": 38.93731733333333, "is_disabled": 0, "bike_id": "08e52b32262775535b91ddb5bdc8a027", "fusion_lat": 0.0, "is_reserved": 0, "lon": -77.03260783333333}, {"type": "electric_scooter", "name": "f5239911ff4bfefdea508b1d0cb0732e", "rental_uris": {"ios": "https://dc.lft.to/lastmile_qr_scan", "android": "https://dc.lft.to/lastmile_qr_scan"}, "fusion_lon": 0.0, "lat": 38.93538366666667, "is_disabled": 0, "bike_id": "f5239911ff4bfefdea508b1d0cb0732e", "fusion_lat": 0.0, "is_reserved": 0, "lon": -77.02350216666666}, {"type": "electric_scooter", "name": "e092d1a51944a74a3a56e470ef4f19e6", "rental_uris": {"ios": "https://dc.lft.to/lastmile_qr_scan", "android": "https://dc.lft.to/lastmile_qr_scan"}, "fusion_lon": 0.0, "lat": 38.929610833333335, "is_disabled": 0, "bike_id": "e092d1a51944a74a3a56e470ef4f19e6", "fusion_lat": 0.0, "is_reserved": 0, "lon": -77.0309585}, {"type": "electric_scooter", "name": "d329c58c7cca673cc2245590eb1468f3", "rental_uris": {"ios": "https://dc.lft.to/lastmile_qr_scan", "android": "https://dc.lft.to/lastmile_qr_scan"}, "fusion_lon": 0.0, "lat": 38.9017415, "is_disabled": 0, "bike_id": "d329c58c7cca673cc2245590eb1468f3", "fusion_lat": 0.0, "is_reserved": 0, "lon": -77.0248325}, {"type": "electric_scooter", "name": "334a66254d3740fbc590f9a14a660ee7", "rental_uris": {"ios": "https://dc.lft.to/lastmile_qr_scan", "android": "https://dc.lft.to/lastmile_qr_scan"}, "fusion_lon": 0.0, "lat": 38.902603166666665, "is_disabled": 0, "bike_id": "334a66254d3740fbc590f9a14a660ee7", "fusion_lat": 0.0, "is_reserved": 0, "lon": -77.0175945}, {"type": "electric_scooter", "name": "1cdf5966e10ef9d1d3bed3d6064a52a0", "rental_uris": {"ios": "https://dc.lft.to/lastmile_qr_scan", "android": "https://dc.lft.to/lastmile_qr_scan"}, "fusion_lon": 0.0, "lat": 38.913926833333335, "is_disabled": 0, "bike_id": "1cdf5966e10ef9d1d3bed3d6064a52a0", "fusion_lat": 0.0, "is_reserved": 0, "lon": -77.04172183333333}, {"type": "electric_scooter", "name": "8d405edad2770028f8d80abf18be6dff", "rental_uris": {"ios": "https://dc.lft.to/lastmile_qr_scan", "android": "https://dc.lft.to/lastmile_qr_scan"}, "fusion_lon": 0.0, "lat": 38.904711, "is_disabled": 0, "bike_id": "8d405edad2770028f8d80abf18be6dff", "fusion_lat": 0.0, "is_reserved": 0, "lon": -77.04849783333333}, {"type": "electric_scooter", "name": "5b64294fc737d982c684e23b2f3fd0ec", "rental_uris": {"ios": "https://dc.lft.to/lastmile_qr_scan", "android": "https://dc.lft.to/lastmile_qr_scan"}, "fusion_lon": 0.0, "lat": 38.92433416666667, "is_disabled": 0, "bike_id": "5b64294fc737d982c684e23b2f3fd0ec", "fusion_lat": 0.0, "is_reserved": 0, "lon": -77.05220466666667}, {"type": "electric_scooter", "name": "667584e2ffebe113eac3c1ec60643690", "rental_uris": {"ios": "https://dc.lft.to/lastmile_qr_scan", "android": "https://dc.lft.to/lastmile_qr_scan"}, "fusion_lon": 0.0, "lat": 38.920410333333336, "is_disabled": 0, "bike_id": "667584e2ffebe113eac3c1ec60643690", "fusion_lat": 0.0, "is_reserved": 0, "lon": -77.01678166666666}, {"type": "electric_scooter", "name": "eeb38b8a39be1a6fdb59c0cc45c63f46", "rental_uris": {"ios": "https://dc.lft.to/lastmile_qr_scan", "android": "https://dc.lft.to/lastmile_qr_scan"}, "fusion_lon": 0.0, "lat": 38.9163605, "is_disabled": 0, "bike_id": "eeb38b8a39be1a6fdb59c0cc45c63f46", "fusion_lat": 0.0, "is_reserved": 0, "lon": -77.047848}, {"type": "electric_scooter", "name": "929fc4eedd56ca414a2d20311ee28e18", "rental_uris": {"ios": "https://dc.lft.to/lastmile_qr_scan", "android": "https://dc.lft.to/lastmile_qr_scan"}, "fusion_lon": 0.0, "lat": 38.9170815, "is_disabled": 0, "bike_id": "929fc4eedd56ca414a2d20311ee28e18", "fusion_lat": 0.0, "is_reserved": 0, "lon": -77.03469766666667}, {"type": "electric_scooter", "name": "f8137ec7965b29910668e06d50c6eb1a", "rental_uris": {"ios": "https://dc.lft.to/lastmile_qr_scan", "android": "https://dc.lft.to/lastmile_qr_scan"}, "fusion_lon": 0.0, "lat": 38.90432366666667, "is_disabled": 0, "bike_id": "f8137ec7965b29910668e06d50c6eb1a", "fusion_lat": 0.0, "is_reserved": 0, "lon": -77.02594766666667}, {"type": "electric_scooter", "name": "f59c4c2bcd0505e3ea424ef3a63e515d", "rental_uris": {"ios": "https://dc.lft.to/lastmile_qr_scan", "android": "https://dc.lft.to/lastmile_qr_scan"}, "fusion_lon": 0.0, "lat": 38.921143, "is_disabled": 0, "bike_id": "f59c4c2bcd0505e3ea424ef3a63e515d", "fusion_lat": 0.0, "is_reserved": 0, "lon": -77.04393466666667}, {"type": "electric_scooter", "name": "a0be6cc44377f53170798ee31fa66258", "rental_uris": {"ios": "https://dc.lft.to/lastmile_qr_scan", "android": "https://dc.lft.to/lastmile_qr_scan"}, "fusion_lon": 0.0, "lat": 38.884678666666666, "is_disabled": 0, "bike_id": "a0be6cc44377f53170798ee31fa66258", "fusion_lat": 0.0, "is_reserved": 0, "lon": -76.949827}, {"type": "electric_scooter", "name": "19d8d0248fa224dba213fee90229e60c", "rental_uris": {"ios": "https://dc.lft.to/lastmile_qr_scan", "android": "https://dc.lft.to/lastmile_qr_scan"}, "fusion_lon": 0.0, "lat": 38.89671033333333, "is_disabled": 0, "bike_id": "19d8d0248fa224dba213fee90229e60c", "fusion_lat": 0.0, "is_reserved": 0, "lon": -77.0466455}, {"type": "electric_scooter", "name": "133e91afd2610f998de0cd708a17e5b1", "rental_uris": {"ios": "https://dc.lft.to/lastmile_qr_scan", "android": "https://dc.lft.to/lastmile_qr_scan"}, "fusion_lon": 0.0, "lat": 38.8832305, "is_disabled": 0, "bike_id": "133e91afd2610f998de0cd708a17e5b1", "fusion_lat": 0.0, "is_reserved": 0, "lon": -77.017659}, {"type": "electric_scooter", "name": "cdc057a04f6a5a11de122dd3774d2b7b", "rental_uris": {"ios": "https://dc.lft.to/lastmile_qr_scan", "android": "https://dc.lft.to/lastmile_qr_scan"}, "fusion_lon": 0.0, "lat": 38.9367495, "is_disabled": 0, "bike_id": "cdc057a04f6a5a11de122dd3774d2b7b", "fusion_lat": 0.0, "is_reserved": 0, "lon": -77.035922}, {"type": "electric_scooter", "name": "d9063e9f4164cfe88a2952bf3d04eb24", "rental_uris": {"ios": "https://dc.lft.to/lastmile_qr_scan", "android": "https://dc.lft.to/lastmile_qr_scan"},