{"data": {"bikes": [{"lat": 38.96603483333333, "is_disabled": 0, "type": "electric_bike", "lon": -76.9833305, "bike_id": "5b031d27511b6d525d6badafcd61d658", "fusion_lat": 0.0, "name": "5b031d27511b6d525d6badafcd61d658", "is_reserved": 0, "rental_uris": {"android": "https://dc.lft.to/lastmile_qr_scan", "ios": "https://dc.lft.to/lastmile_qr_scan"}, "fusion_lon": 0.0}, {"lat": 38.93092683333333, "is_disabled": 0, "type": "electric_scooter", "lon": -77.02556116666666, "bike_id": "e84c5b91a54721b41c4d3bee6fb7bb13", "fusion_lat": 0.0, "name": "e84c5b91a54721b41c4d3bee6fb7bb13", "is_reserved": 0, "rental_uris": {"android": "https://dc.lft.to/lastmile_qr_scan", "ios": "https://dc.lft.to/lastmile_qr_scan"}, "fusion_lon": 0.0}, {"lat": 38.904544, "is_disabled": 0, "type": "electric_scooter", "lon": -76.99460766666667, "bike_id": "b9abd0e64d076cefe66cdfef5d80c944", "fusion_lat": 0.0, "name": "b9abd0e64d076cefe66cdfef5d80c944", "is_reserved": 0, "rental_uris": {"android": "https://dc.lft.to/lastmile_qr_scan", "ios": "https://dc.lft.to/lastmile_qr_scan"}, "fusion_lon": 0.0}, {"lat": 38.93356766666667, "is_disabled": 0, "type": "electric_scooter", "lon": -77.07367766666667, "bike_id": "78c7d30722152f80e60dd8253c5e98b2", "fusion_lat": 0.0, "name": "78c7d30722152f80e60dd8253c5e98b2", "is_reserved": 0, "rental_uris": {"android": "https://dc.lft.to/lastmile_qr_scan", "ios": "https://dc.lft.to/lastmile_qr_scan"}, "fusion_lon": 0.0}, {"lat": 38.892441, "is_disabled": 0, "type": "electric_scooter", "lon": -77.04889533333333, "bike_id": "fa43504315889e8eedb659da79628d99", "fusion_lat": 0.0, "name": "fa43504315889e8eedb659da79628d99", "is_reserved": 0, "rental_uris": {"android": "https://dc.lft.to/lastmile_qr_scan", "ios": "https://dc.lft.to/lastmile_qr_scan"}, "fusion_lon": 0.0}, {"lat": 38.874544666666665, "is_disabled": 0, "type": "electric_scooter", "lon": -77.00926166666666, "bike_id": "c07a00a4c931bc766837591726fef3d4", "fusion_lat": 0.0, "name": "c07a00a4c931bc766837591726fef3d4", "is_reserved": 0, "rental_uris": {"android": "https://dc.lft.to/lastmile_qr_scan", "ios": "https://dc.lft.to/lastmile_qr_scan"}, "fusion_lon": 0.0}, {"lat": 38.898376, "is_disabled": 0, "type": "electric_scooter", "lon": -76.93102266666666, "bike_id": "89ca614ca965b77f42ea639f3a666ecb", "fusion_lat": 0.0, "name": "89ca614ca965b77f42ea639f3a666ecb", "is_reserved": 0, "rental_uris": {"android": "https://dc.lft.to/lastmile_qr_scan", "ios": "https://dc.lft.to/lastmile_qr_scan"}, "fusion_lon": 0.0}, {"lat": 38.904573666666664, "is_disabled": 0, "type": "electric_scooter", "lon": -77.0484745, "bike_id": "051e43f271b3e709ab0c8e0ccaee8486", "fusion_lat": 0.0, "name": "051e43f271b3e709ab0c8e0ccaee8486", "is_reserved": 0, "rental_uris": {"android": "https://dc.lft.to/lastmile_qr_scan", "ios": "https://dc.lft.to/lastmile_qr_scan"}, "fusion_lon": 0.0}, {"lat": 38.903131333333334, "is_disabled": 0, "type": "electric_scooter", "lon": -76.989923, "bike_id": "c2dd5e548a3b7af1b1ac9099bb12660d", "fusion_lat": 0.0, "name": "c2dd5e548a3b7af1b1ac9099bb12660d", "is_reserved": 0, "rental_uris": {"android": "https://dc.lft.to/lastmile_qr_scan", "ios": "https://dc.lft.to/lastmile_qr_scan"}, "fusion_lon": 0.0}, {"lat": 38.969278333333335, "is_disabled": 0, "type": "electric_bike", "lon": -77.02617466666666, "bike_id": "a2e798d31597c4735745b0f6d7f24df7", "fusion_lat": 0.0, "name": "a2e798d31597c4735745b0f6d7f24df7", "is_reserved": 0, "rental_uris": {"android": "https://dc.lft.to/lastmile_qr_scan", "ios": "https://dc.lft.to/lastmile_qr_scan"}, "fusion_lon": 0.0}, {"lat": 38.873749333333336, "is_disabled": 0, "type": "electric_bike", "lon": -77.117987, "bike_id": "acd1020604e9daa39d2ce500ebc8ede2", "fusion_lat": 0.0, "name": "acd1020604e9daa39d2ce500ebc8ede2", "is_reserved": 0, "rental_uris": {"android": "https://dc.lft.to/lastmile_qr_scan", "ios": "https://dc.lft.to/lastmile_qr_scan"}, "fusion_lon": 0.0}, {"lat": 38.920817166666666, "is_disabled": 0, "type": "electric_bike", "lon": -76.9918545, "bike_id": "5a379f7cf5c46d200498ac01a22419eb", "fusion_lat": 0.0, "name": "5a379f7cf5c46d200498ac01a22419eb", "is_reserved": 0, "rental_uris": {"android": "https://dc.lft.to/lastmile_qr_scan", "ios": "https://dc.lft.to/lastmile_qr_scan"}, "fusion_lon": 0.0}, {"lat": 38.916407, "is_disabled": 0, "type": "electric_scooter", "lon": -77.02386966666667, "bike_id": "2b399ac675651cfb5b569d66640addbd", "fusion_lat": 0.0, "name": "2b399ac675651cfb5b569d66640addbd", "is_reserved": 0, "rental_uris": {"android": "https://dc.lft.to/lastmile_qr_scan", "ios": "https://dc.lft.to/lastmile_qr_scan"}, "fusion_lon": 0.0}, {"lat": 38.925915833333335, "is_disabled": 0, "type": "electric_scooter", "lon": -77.02268416666666, "bike_id": "55a9a68d3b852ee0ac8db174e6da5ceb", "fusion_lat": 0.0, "name": "55a9a68d3b852ee0ac8db174e6da5ceb", "is_reserved": 0, "rental_uris": {"android": "https://dc.lft.to/lastmile_qr_scan", "ios": "https://dc.lft.to/lastmile_qr_scan"}, "fusion_lon": 0.0}, {"lat": 38.900695166666665, "is_disabled": 0, "type": "electric_scooter", "lon": -77.04918966666666, "bike_id": "dc83e07e9b4a08a5e338b4d71ada3067", "fusion_lat": 0.0, "name": "dc83e07e9b4a08a5e338b4d71ada3067", "is_reserved": 0, "rental_uris": {"android": "https://dc.lft.to/lastmile_qr_scan", "ios": "https://dc.lft.to/lastmile_qr_scan"}, "fusion_lon": 0.0}, {"lat": 38.920244833333335, "is_disabled": 0, "type": "electric_scooter", "lon": -77.03731266666666, "bike_id": "2561b9ac662a89a3a903ad570aec80e6", "fusion_lat": 0.0, "name": "2561b9ac662a89a3a903ad570aec80e6", "is_reserved": 0, "rental_uris": {"android": "https://dc.lft.to/lastmile_qr_scan", "ios": "https://dc.lft.to/lastmile_qr_scan"}, "fusion_lon": 0.0}, {"lat": 38.93978233333333, "is_disabled": 0, "type": "electric_scooter", "lon": -77.035868, "bike_id": "62b60a07b5656d4b5c9826286feaed2b", "fusion_lat": 0.0, "name": "62b60a07b5656d4b5c9826286feaed2b", "is_reserved": 0, "rental_uris": {"android": "https://dc.lft.to/lastmile_qr_scan", "ios": "https://dc.lft.to/lastmile_qr_scan"}, "fusion_lon": 0.0}, {"lat": 38.90775216666667, "is_disabled": 0, "type": "electric_scooter", "lon": -77.03857883333333, "bike_id": "66375914e113886bd7cef6a7b0e228b8", "fusion_lat": 0.0, "name": "66375914e113886bd7cef6a7b0e228b8", "is_reserved": 0, "rental_uris": {"android": "https://dc.lft.to/lastmile_qr_scan", "ios": "https://dc.lft.to/lastmile_qr_scan"}, "fusion_lon": 0.0}, {"lat": 38.93289683333333, "is_disabled": 0, "type": "electric_scooter", "lon": -77.0355455, "bike_id": "3cbd896093a65a9c2b5ba1dcb7b8e0a9", "fusion_lat": 0.0, "name": "3cbd896093a65a9c2b5ba1dcb7b8e0a9", "is_reserved": 0, "rental_uris": {"android": "https://dc.lft.to/lastmile_qr_scan", "ios": "https://dc.lft.to/lastmile_qr_scan"}, "fusion_lon": 0.0}, {"lat": 38.95779133333333, "is_disabled": 0, "type": "electric_scooter", "lon": -77.0274885, "bike_id": "029f845227a6f38937be248876e102c7", "fusion_lat": 0.0, "name": "029f845227a6f38937be248876e102c7", "is_reserved": 0, "rental_uris": {"android": "https://dc.lft.to/lastmile_qr_scan", "ios": "https://dc.lft.to/lastmile_qr_scan"}, "fusion_lon": 0.0}, {"lat": 38.9086565, "is_disabled": 0, "type": "electric_scooter", "lon": -77.03649666666666, "bike_id": "ae0a1562b4be717f33a7a9499d9cbd3e", "fusion_lat": 0.0, "name": "ae0a1562b4be717f33a7a9499d9cbd3e", "is_reserved": 0, "rental_uris": {"android": "https://dc.lft.to/lastmile_qr_scan", "ios": "https://dc.lft.to/lastmile_qr_scan"}, "fusion_lon": 0.0}, {"lat": 38.850458333333336, "is_disabled": 0, "type": "electric_bike", "lon": -76.9732155, "bike_id": "adcf0d900dc3641597cc92115e960711", "fusion_lat": 0.0, "name": "adcf0d900dc3641597cc92115e960711", "is_reserved": 0, "rental_uris": {"android": "https://dc.lft.to/lastmile_qr_scan", "ios": "https://dc.lft.to/lastmile_qr_scan"}, "fusion_lon": 0.0}, {"lat": 38.901840666666665, "is_disabled": 0, "type": "electric_scooter", "lon": -77.02491166666667, "bike_id": "27d454523dbeeac571e56134745f847f", "fusion_lat": 0.0, "name": "27d454523dbeeac571e56134745f847f", "is_reserved": 0, "rental_uris": {"android": "https://dc.lft.to/lastmile_qr_scan", "ios": "https://dc.lft.to/lastmile_qr_scan"}, "fusion_lon": 0.0}, {"lat": 38.933399666666666, "is_disabled": 0, "type": "electric_bike", "lon": -77.0420435, "bike_id": "cb16d4a1ac35a946e1ffc683d963d2b4", "fusion_lat": 0.0, "name": "cb16d4a1ac35a946e1ffc683d963d2b4", "is_reserved": 0, "rental_uris": {"android": "https://dc.lft.to/lastmile_qr_scan", "ios": "https://dc.lft.to/lastmile_qr_scan"}, "fusion_lon": 0.0}, {"lat": 38.913838, "is_disabled": 0, "type": "electric_scooter", "lon": -77.04163083333333, "bike_id": "50832cda7193dea231e93a0d7201cbfb", "fusion_lat": 0.0, "name": "50832cda7193dea231e93a0d7201cbfb", "is_reserved": 0, "rental_uris": {"android": "https://dc.lft.to/lastmile_qr_scan", "ios": "https://dc.lft.to/lastmile_qr_scan"}, "fusion_lon": 0.0}, {"lat": 38.93230116666667, "is_disabled": 0, "type": "electric_scooter", "lon": -76.9960105, "bike_id": "d3d79999f67afd77d3dcf8f57cfb2964", "fusion_lat": 0.0, "name": "d3d79999f67afd77d3dcf8f57cfb2964", "is_reserved": 0, "rental_uris": {"android": "https://dc.lft.to/lastmile_qr_scan", "ios": "https://dc.lft.to/lastmile_qr_scan"}, "fusion_lon": 0.0}, {"lat": 38.897360166666665, "is_disabled": 0, "type": "electric_scooter", "lon": -77.04762116666667, "bike_id": "be128080b4448d11e6407dfb2283d1f1", "fusion_lat": 0.0, "name": "be128080b4448d11e6407dfb2283d1f1", "is_reserved": 0, "rental_uris": {"android": "https://dc.lft.to/lastmile_qr_scan", "ios": "https://dc.lft.to/lastmile_qr_scan"}, "fusion_lon": 0.0}, {"lat": 38.90665, "is_disabled": 0, "type": "electric_scooter", "lon": -77.02701616666667, "bike_id": "3f5f2f2d36a2e27882969cd5f7c66766", "fusion_lat": 0.0, "name": "3f5f2f2d36a2e27882969cd5f7c66766", "is_reserved": 0, "rental_uris": {"android": "https://dc.lft.to/lastmile_qr_scan", "ios": "https://dc.lft.to/lastmile_qr_scan"}, "fusion_lon": 0.0}, {"lat": 38.91549716666667, "is_disabled": 0, "type": "electric_scooter", "lon": -77.032509, "bike_id": "935e4780d6af13f29a57cf4ac4bc221b", "fusion_lat": 0.0, "name": "935e4780d6af13f29a57cf4ac4bc221b", "is_reserved": 0, "rental_uris": {"android": "https://dc.lft.to/lastmile_qr_scan", "ios": "https://dc.lft.to/lastmile_qr_scan"}, "fusion_lon": 0.0}, {"lat": 38.9082075, "is_disabled": 0, "type": "electric_scooter", "lon": -77.063624, "bike_id": "c75f134106a08a49bcb0855a6400088f", "fusion_lat": 0.0, "name": "c75f134106a08a49bcb0855a6400088f", "is_reserved": 0, "rental_uris": {"android": "https://dc.lft.to/lastmile_qr_scan", "ios": "https://dc.lft.to/lastmile_qr_scan"}, "fusion_lon": 0.0}, {"lat": 38.89883233333333, "is_disabled": 0, "type": "electric_scooter", "lon": -76.93178116666667, "bike_id": "551808190c93c01006947994f1c040a1", "fusion_lat": 0.0, "name": "551808190c93c01006947994f1c040a1", "is_reserved": 0, "rental_uris": {"android": "https://dc.lft.to/lastmile_qr_scan", "ios": "https://dc.lft.to/lastmile_qr_scan"}, "fusion_lon": 0.0}, {"lat": 38.9167115, "is_disabled": 0, "type": "electric_scooter", "lon": -77.02405733333333, "bike_id": "154b8686687950602aafa1dd28cf3f6d", "fusion_lat": 0.0, "name": "154b8686687950602aafa1dd28cf3f6d", "is_reserved": 0, "rental_uris": {"android": "https://dc.lft.to/lastmile_qr_scan", "ios": "https://dc.lft.to/lastmile_qr_scan"}, "fusion_lon": 0.0}, {"lat": 38.92242916666667, "is_disabled": 0, "type": "electric_scooter", "lon": -77.04574366666667, "bike_id": "d04b943f59275371bbca43e95ba9d879", "fusion_lat": 0.0, "name": "d04b943f59275371bbca43e95ba9d879", "is_reserved": 0, "rental_uris": {"android": "https://dc.lft.to/lastmile_qr_scan", "ios": "https://dc.lft.to/lastmile_qr_scan"}, "fusion_lon": 0.0}, {"lat": 38.90666183333333, "is_disabled": 0, "type": "electric_scooter", "lon": -77.03744916666666, "bike_id": "16ed6b22dd7d898811cd17004ce66fe4", "fusion_lat": 0.0, "name": "16ed6b22dd7d898811cd17004ce66fe4", "is_reserved": 0, "rental_uris": {"android": "https://dc.lft.to/lastmile_qr_scan", "ios": "https://dc.lft.to/lastmile_qr_scan"}, "fusion_lon": 0.0}, {"lat": 38.90028683333333, "is_disabled": 0, "type": "electric_scooter", "lon": -77.02604666666667, "bike_id": "89e9ad1ecc8e05c3a7c046a59df58f65", "fusion_lat": 0.0, "name": "89e9ad1ecc8e05c3a7c046a59df58f65", "is_reserved": 0, "rental_uris": {"android": "https://dc.lft.to/lastmile_qr_scan", "ios": "https://dc.lft.to/lastmile_qr_scan"}, "fusion_lon": 0.0}, {"lat": 38.91775283333333, "is_disabled": 0, "type": "electric_scooter", "lon": -77.0366445, "bike_id": "75a3be83b7fa8f6307efebdb7992c965", "fusion_lat": 0.0, "name": "75a3be83b7fa8f6307efebdb7992c965", "is_reserved": 0, "rental_uris": {"android": "https://dc.lft.to/lastmile_qr_scan", "ios": "https://dc.lft.to/lastmile_qr_scan"}, "fusion_lon": 0.0}, {"lat": 38.905695, "is_disabled": 0, "type": "electric_scooter", "lon": -77.04152166666667, "bike_id": "332efa7765210b9665adb0fd08922420", "fusion_lat": 0.0, "name": "332efa7765210b9665adb0fd08922420", "is_reserved": 0, "rental_uris": {"android": "https://dc.lft.to/lastmile_qr_scan", "ios": "https://dc.lft.to/lastmile_qr_scan"}, "fusion_lon": 0.0}, {"lat": 38.904997333333334, "is_disabled": 0, "type": "electric_scooter", "lon": -77.006942, "bike_id": "3706fb67b23aa464204bc1da40c31c57", "fusion_lat": 0.0, "name": "3706fb67b23aa464204bc1da40c31c57", "is_reserved": 0, "rental_uris": {"android": "https://dc.lft.to/lastmile_qr_scan", "ios": "https://dc.lft.to/lastmile_qr_scan"}, "fusion_lon": 0.0}, {"lat": 38.828720833333335, "is_disabled": 0, "type": "electric_bike", "lon": -77.11219466666667, "bike_id": "efb08716db1aaf0e9954959b187fa853", "fusion_lat": 0.0, "name": "efb08716db1aaf0e9954959b187fa853", "is_reserved": 0, "rental_uris": {"android": "https://dc.lft.to/lastmile_qr_scan", "ios": "https://dc.lft.to/lastmile_qr_scan"}, "fusion_lon": 0.0}, {"lat": 38.932446666666664, "is_disabled": 0, "type": "electric_scooter", "lon": -77.029347, "bike_id": "a3e8bc763bfcda154f2c467e7e37995e", "fusion_lat": 0.0, "name": "a3e8bc763bfcda154f2c467e7e37995e", "is_reserved": 0, "rental_uris": {"android": "https://dc.lft.to/lastmile_qr_scan", "ios": "https://dc.lft.to/lastmile_qr_scan"}, "fusion_lon": 0.0}, {"lat": 38.92252116666667, "is_disabled": 0, "type": "electric_scooter", "lon": -77.04254366666666, "bike_id": "cb35c4a300e4473d073a27a177c0890b", "fusion_lat": 0.0, "name": "cb35c4a300e4473d073a27a177c0890b", "is_reserved": 0, "rental_uris": {"android": "https://dc.lft.to/lastmile_qr_scan", "ios": "https://dc.lft.to/lastmile_qr_scan"}, "fusion_lon": 0.0}, {"lat": 38.89393916666667, "is_disabled": 0, "type": "electric_scooter", "lon": -77.04996266666667, "bike_id": "c33947965e88800e6c12b4b2922c1f94", "fusion_lat": 0.0, "name": "c33947965e88800e6c12b4b2922c1f94", "is_reserved": 0, "rental_uris": {"android": "https://dc.lft.to/lastmile_qr_scan", "ios": "https://dc.lft.to/lastmile_qr_scan"}, "fusion_lon": 0.0}, {"lat": 38.909896, "is_disabled": 0, "type": "electric_scooter", "lon": -76.99738266666667, "bike_id": "1cf110290492833e63a60868995a7202", "fusion_lat": 0.0, "name": "1cf110290492833e63a60868995a7202", "is_reserved": 0, "rental_uris": {"android": "https://dc.lft.to/lastmile_qr_scan", "ios": "https://dc.lft.to/lastmile_qr_scan"}, "fusion_lon": 0.0}, {"lat": 38.923200333333334, "is_disabled": 0, "type": "electric_scooter", "lon": -77.02796783333334, "bike_id": "f6c8155ba73faca2405a27bd49464118", "fusion_lat": 0.0, "name": "f6c8155ba73faca2405a27bd49464118", "is_reserved": 0, "rental_uris": {"android": "https://dc.lft.to/lastmile_qr_scan", "ios": "https://dc.lft.to/lastmile_qr_scan"}, "fusion_lon": 0.0}, {"lat": 39.00476283333333, "is_disabled": 0, "type": "electric_bike", "lon": -76.90125133333333, "bike_id": "4a3eb9b53f6fd79a40c26fe8745d6cbc", "fusion_lat": 0.0, "name": "4a3eb9b53f6fd79a40c26fe8745d6cbc", "is_reserved": 0, "rental_uris": {"android": "https://dc.lft.to/lastmile_qr_scan", "ios": "https://dc.lft.to/lastmile_qr_scan"}, "fusion_lon": 0.0}, {"lat": 38.882907333333335, "is_disabled": 0, "type": "electric_scooter", "lon": -77.01758083333333, "bike_id": "6993c58f95326d9b0848014f92eaf7d5", "fusion_lat": 0.0, "name": "6993c58f95326d9b0848014f92eaf7d5", "is_reserved": 0, "rental_uris": {"android": "https://dc.lft.to/lastmile_qr_scan", "ios": "https://dc.lft.to/lastmile_qr_scan"}, "fusion_lon": 0.0}, {"lat": 38.90073866666667, "is_disabled": 0, "type": "electric_scooter", "lon": -77.001975, "bike_id": "efb99315f94c1f12371bc68890340714", "fusion_lat": 0.0, "name": "efb99315f94c1f12371bc68890340714", "is_reserved": 0, "rental_uris": {"android": "https://dc.lft.to/lastmile_qr_scan", "ios": "https://dc.lft.to/lastmile_qr_scan"}, "fusion_lon": 0.0}, {"lat": 38.92761766666667, "is_disabled": 0, "type": "electric_scooter", "lon": -77.03241683333333, "bike_id": "610d3910781a7370a037eadc9513089c", "fusion_lat": 0.0, "name": "610d3910781a7370a037eadc9513089c", "is_reserved": 0, "rental_uris": {"android": "https://dc.lft.to/lastmile_qr_scan", "ios": "https://dc.lft.to/lastmile_qr_scan"}, "fusion_lon": 0.0}, {"lat": 38.91713133333333, "is_disabled": 0, "type": "electric_scooter", "lon": -77.03865383333333, "bike_id": "1260e40cc48d81f8b3c1d03b12e9ca4a", "fusion_lat": 0.0, "name": "1260e40cc48d81f8b3c1d03b12e9ca4a", "is_reserved": 0, "rental_uris": {"android": "https://dc.lft.to/lastmile_qr_scan", "ios": "https://dc.lft.to/lastmile_qr_scan"}, "fusion_lon": 0.0}, {"lat": 38.89545283333333, "is_disabled": 0, "type": "electric_scooter", "lon": -77.0044035, "bike_id": "f9bd098a54417225c65dee169f425b77", "fusion_lat": 0.0, "name": "f9bd098a54417225c65dee169f425b77", "is_reserved": 0, "rental_uris": {"android": "https://dc.lft.to/lastmile_qr_scan", "ios": "https://dc.lft.to/lastmile_qr_scan"}, "fusion_lon": 0.0}, {"lat": 38.8427145, "is_disabled": 0, "type": "electric_bike", "lon": -76.98843883333333, "bike_id": "a60c7a27c2d18fff3f83af3d9693f8b7", "fusion_lat": 0.0, "name": "a60c7a27c2d18fff3f83af3d9693f8b7", "is_reserved": 0, "rental_uris": {"android": "https://dc.lft.to/lastmile_qr_scan", "ios": "https://dc.lft.to/lastmile_qr_scan"}, "fusion_lon": 0.0}, {"lat": 38.9827675, "is_disabled": 0, "type": "electric_bike", "lon": -77.025414, "bike_id": "58c6c17191c17e51b049fbd3e744c4c7", "fusion_lat": 0.0, "name": "58c6c17191c17e51b049fbd3e744c4c7", "is_reserved": 0, "rental_uris": {"android": "https://dc.lft.to/lastmile_qr_scan", "ios": "https://dc.lft.to/lastmile_qr_scan"}, "fusion_lon": 0.0}, {"lat": 38.9013275, "is_disabled": 0, "type": "electric_scooter", "lon": -77.02940266666667, "bike_id": "25e981d7a267939af373093e17149e74", "fusion_lat": 0.0, "name": "25e981d7a267939af373093e17149e74", "is_reserved": 0, "rental_uris": {"android": "https://dc.lft.to/lastmile_qr_scan", "ios": "https://dc.lft.to/lastmile_qr_scan"}, "fusion_lon": 0.0}, {"lat": 38.837241, "is_disabled": 0, "type": "electric_bike", "lon": -76.9976195, "bike_id": "65763cf2fc3c986d3f522a0278494b04", "fusion_lat": 0.0, "name": "65763cf2fc3c986d3f522a0278494b04", "is_reserved": 0, "rental_uris": {"android": "https://dc.lft.to/lastmile_qr_scan", "ios": "https://dc.lft.to/lastmile_qr_scan"}, "fusion_lon": 0.0}, {"lat": 38.88486916666667, "is_disabled": 0, "type": "electric_scooter", "lon": -77.03470566666667, "bike_id": "fbffbee74391969be6990cc6ce54363a", "fusion_lat": 0.0, "name": "fbffbee74391969be6990cc6ce54363a", "is_reserved": 0, "rental_uris": {"android": "https://dc.lft.to/lastmile_qr_scan", "ios": "https://dc.lft.to/lastmile_qr_scan"}, "fusion_lon": 0.0}, {"lat": 38.92653516666667, "is_disabled": 0, "type": "electric_scooter", "lon": -76.99748383333333, "bike_id": "d7becce75c81061a01f20e27d5612352", "fusion_lat": 0.0, "name": "d7becce75c81061a01f20e27d5612352", "is_reserved": 0, "rental_uris": {"android": "https://dc.lft.to/lastmile_qr_scan", "ios": "https://dc.lft.to/lastmile_qr_scan"}, "fusion_lon": 0.0}, {"lat": 38.865075833333336, "is_disabled": 0, "type": "electric_scooter", "lon": -76.9900485, "bike_id": "f24977cea267ef422d2da1b499492d64", "fusion_lat": 0.0, "name": "f24977cea267ef422d2da1b499492d64", "is_reserved": 0, "rental_uris": {"android": "https://dc.lft.to/lastmile_qr_scan", "ios": "https://dc.lft.to/lastmile_qr_scan"}, "fusion_lon": 0.0}, {"lat": 38.896356, "is_disabled": 0, "type": "electric_scooter", "lon": -77.02139916666667, "bike_id": "66d2164ccc8e59e00b5b932deb6805b1", "fusion_lat": 0.0, "name": "66d2164ccc8e59e00b5b932deb6805b1", "is_reserved": 0, "rental_uris": {"android": "https://dc.lft.to/lastmile_qr_scan", "ios": "https://dc.lft.to/lastmile_qr_scan"}, "fusion_lon": 0.0}, {"lat": 38.92254116666667, "is_disabled": 0, "type": "electric_scooter", "lon": -77.0424775, "bike_id": "aa28d42fc35927fc1cb62d3e95545fc7", "fusion_lat": 0.0, "name": "aa28d42fc35927fc1cb62d3e95545fc7", "is_reserved": 0, "rental_uris": {"android": "https://dc.lft.to/lastmile_qr_scan", "ios": "https://dc.lft.to/lastmile_qr_scan"}, "fusion_lon": 0.0}, {"lat": 38.91647, "is_disabled": 0, "type": "electric_scooter", "lon": -77.047104, "bike_id": "c86ee8c9e93f31a56c0098e7d8801ef2", "fusion_lat": 0.0, "name": "c86ee8c9e93f31a56c0098e7d8801ef2", "is_reserved": 0, "rental_uris": {"android": "https://dc.lft.to/lastmile_qr_scan", "ios": "https://dc.lft.to/lastmile_qr_scan"}, "fusion_lon": 0.0}, {"lat": 38.93406516666667, "is_disabled": 0, "type": "electric_scooter", "lon": -77.024581, "bike_id": "52e0e20cc19b0b347556d5baf09e9dc2", "fusion_lat": 0.0, "name": "52e0e20cc19b0b347556d5baf09e9dc2", "is_reserved": 0, "rental_uris": {"android": "https://dc.lft.to/lastmile_qr_scan", "ios": "https://dc.lft.to/lastmile_qr_scan"}, "fusion_lon": 0.0}, {"lat": 38.856673666666666, "is_disabled": 0, "type": "electric_scooter", "lon": -76.9817705, "bike_id": "d431513957017f30105b06eeb925eeeb", "fusion_lat": 0.0, "name": "d431513957017f30105b06eeb925eeeb", "is_reserved": 0, "rental_uris": {"android": "https://dc.lft.to/lastmile_qr_scan", "ios": "https://dc.lft.to/lastmile_qr_scan"}, "fusion_lon": 0.0}, {"lat": 38.91535283333333, "is_disabled": 0, "type": "electric_scooter", "lon": -77.03209633333333, "bike_id": "315cd9b569b516a8014f04627b80a01c", "fusion_lat": 0.0, "name": "315cd9b569b516a8014f04627b80a01c", "is_reserved": 0, "rental_uris": {"android": "https://dc.lft.to/lastmile_qr_scan", "ios": "https://dc.lft.to/lastmile_qr_scan"}, "fusion_lon": 0.0}, {"lat": 38.89989083333333, "is_disabled": 0, "type": "electric_scooter", "lon": -77.04221183333334, "bike_id": "a567eadb41569657e68bd3da156ddb7e", "fusion_lat": 0.0, "name": "a567eadb41569657e68bd3da156ddb7e", "is_reserved": 0, "rental_uris": {"android": "https://dc.lft.to/lastmile_qr_scan", "ios": "https://dc.lft.to/lastmile_qr_scan"}, "fusion_lon": 0.0}, {"lat": 38.934330333333335, "is_disabled": 0, "type": "electric_scooter", "lon": -76.96509066666667, "bike_id": "60c32e82ac454eb6e2c4abe921fb0f25", "fusion_lat": 0.0, "name": "60c32e82ac454eb6e2c4abe921fb0f25", "is_reserved": 0, "rental_uris": {"android": "https://dc.lft.to/lastmile_qr_scan", "ios": "https://dc.lft.to/lastmile_qr_scan"}, "fusion_lon": 0.0}, {"lat": 38.885485333333335, "is_disabled": 0, "type": "electric_bike", "lon": -77.1178755, "bike_id": "82cf46b9d142accc4f7d342284cc53b7", "fusion_lat": 0.0, "name": "82cf46b9d142accc4f7d342284cc53b7", "is_reserved": 0, "rental_uris": {"android": "https://dc.lft.to/lastmile_qr_scan", "ios": "https://dc.lft.to/lastmile_qr_scan"}, "fusion_lon": 0.0}, {"lat": 38.9056515, "is_disabled": 0, "type": "electric_scooter", "lon": -77.005121, "bike_id": "c1d693d7209b0353c09608ff2ca5a464", "fusion_lat": 0.0, "name": "c1d693d7209b0353c09608ff2ca5a464", "is_reserved": 0, "rental_uris": {"android": "https://dc.lft.to/lastmile_qr_scan", "ios": "https://dc.lft.to/lastmile_qr_scan"}, "fusion_lon": 0.0}, {"lat": 38.9482265, "is_disabled": 0, "type": "electric_scooter", "lon": -76.99901866666667, "bike_id": "c104b709e05caeb01ea3428620251a52", "fusion_lat": 0.0, "name": "c104b709e05caeb01ea3428620251a52", "is_reserved": 0, "rental_uris": {"android": "https://dc.lft.to/lastmile_qr_scan", "ios": "https://dc.lft.to/lastmile_qr_scan"}, "fusion_lon": 0.0}, {"lat": 38.8843695, "is_disabled": 0, "type": "electric_scooter", "lon": -76.92956066666666, "bike_id": "9da98be6ae05094f64326f8a8ebeca3b", "fusion_lat": 0.0, "name": "9da98be6ae05094f64326f8a8ebeca3b", "is_reserved": 0, "rental_uris": {"android": "https://dc.lft.to/lastmile_qr_scan", "ios": "https://dc.lft.to/lastmile_qr_scan"}, "fusion_lon": 0.0}, {"lat": 38.90672633333333, "is_disabled": 0, "type": "electric_scooter", "lon": -77.00821033333334, "bike_id": "b138b7e5c98d59ed223cbe7ccbd3c0de", "fusion_lat": 0.0, "name": "b138b7e5c98d59ed223cbe7ccbd3c0de", "is_reserved": 0, "rental_uris": {"android": "https://dc.lft.to/lastmile_qr_scan", "ios": "https://dc.lft.to/lastmile_qr_scan"}, "fusion_lon": 0.0}, {"lat": 38.88678933333333, "is_disabled": 0, "type": "electric_bike", "lon": -77.16231316666666, "bike_id": "644133650bed7880e3463b59cb896ddb", "fusion_lat": 0.0, "name": "644133650bed7880e3463b59cb896ddb", "is_reserved": 0, "rental_uris": {"android": "https://dc.lft.to/lastmile_qr_scan", "ios": "https://dc.lft.to/lastmile_qr_scan"}, "fusion_lon": 0.0}, {"lat": 38.93378366666666, "is_disabled": 0, "type": "electric_scooter", "lon": -77.0355405, "bike_id": "7c5120a04a6b524afc059c2ca66128d6", "fusion_lat": 0.0, "name": "7c5120a04a6b524afc059c2ca66128d6", "is_reserved": 0, "rental_uris": {"android": "https://dc.lft.to/lastmile_qr_scan", "ios": "https://dc.lft.to/lastmile_qr_scan"}, "fusion_lon": 0.0}, {"lat": 38.903936, "is_disabled": 0, "type": "electric_scooter", "lon": -76.99003833333333, "bike_id": "98c0845d81392a1d9892692d36e964de", "fusion_lat": 0.0, "name": "98c0845d81392a1d9892692d36e964de", "is_reserved": 0, "rental_uris": {"android": "https://dc.lft.to/lastmile_qr_scan", "ios": "https://dc.lft.to/lastmile_qr_scan"}, "fusion_lon": 0.0}, {"lat": 38.88634166666667, "is_disabled": 0, "type": "electric_scooter", "lon": -77.0187845, "bike_id": "c15763da852e7b248f01979770dd747a", "fusion_lat": 0.0, "name": "c15763da852e7b248f01979770dd747a", "is_reserved": 0, "rental_uris": {"android": "https://dc.lft.to/lastmile_qr_scan", "ios": "https://dc.lft.to/lastmile_qr_scan"}, "fusion_lon": 0.0}, {"lat": 38.919633833333336, "is_disabled": 0, "type": "electric_scooter", "lon": -77.0143615, "bike_id": "adccec1fe594e091fa7d880addcfa0d3", "fusion_lat": 0.0, "name": "adccec1fe594e091fa7d880addcfa0d3", "is_reserved": 0, "rental_uris": {"android": "https://dc.lft.to/lastmile_qr_scan", "ios": "https://dc.lft.to/lastmile_qr_scan"}, "fusion_lon": 0.0}, {"lat": 38.9571005, "is_disabled": 0, "type": "electric_scooter", "lon": -77.02399683333333, "bike_id": "863ea2cc4456ddee1d199fcfb5b4f88c", "fusion_lat": 0.0, "name": "863ea2cc4456ddee1d199fcfb5b4f88c", "is_reserved": 0, "rental_uris": {"android": "https://dc.lft.to/lastmile_qr_scan", "ios": "https://dc.lft.to/lastmile_qr_scan"}, "fusion_lon": 0.0}, {"lat": 38.912031666666664, "is_disabled": 0, "type": "electric_scooter", "lon": -77.00220783333333, "bike_id": "a54f8fcac9757131540bf58993032cbc", "fusion_lat": 0.0, "name": "a54f8fcac9757131540bf58993032cbc", "is_reserved": 0, "rental_uris": {"android": "https://dc.lft.to/lastmile_qr_scan", "ios": "https://dc.lft.to/lastmile_qr_scan"}, "fusion_lon": 0.0}, {"lat": 38.90959816666667, "is_disabled": 0, "type": "electric_scooter", "lon": -77.022786, "bike_id": "37120e13412a40a329b719a3e8ab89ae", "fusion_lat": 0.0, "name": "37120e13412a40a329b719a3e8ab89ae", "is_reserved": 0, "rental_uris": {"android": "https://dc.lft.to/lastmile_qr_scan", "ios": "https://dc.lft.to/lastmile_qr_scan"}, "fusion_lon": 0.0}, {"lat": 38.88487633333333, "is_disabled": 0, "type": "electric_scooter", "lon": -77.0071, "bike_id": "7fa36bd6e78cb9dbc0bbc5744a2dd97d", "fusion_lat": 0.0, "name": "7fa36bd6e78cb9dbc0bbc5744a2dd97d", "is_reserved": 0, "rental_uris": {"android": "https://dc.lft.to/lastmile_qr_scan", "ios": "https://dc.lft.to/lastmile_qr_scan"}, "fusion_lon": 0.0}, {"lat": 38.86621066666667, "is_disabled": 0, "type": "electric_scooter", "lon": -76.98699783333333, "bike_id": "0be91d80b175a1623c9ad9ca89cfcc6e", "fusion_lat": 0.0, "name": "0be91d80b175a1623c9ad9ca89cfcc6e", "is_reserved": 0, "rental_uris": {"android": "https://dc.lft.to/lastmile_qr_scan", "ios": "https://dc.lft.to/lastmile_qr_scan"}, "fusion_lon": 0.0}, {"lat": 38.88763383333333, "is_disabled": 0, "type": "electric_scooter", "lon": -76.95598633333333, "bike_id": "99b0d68276db6cc988ce783911f26ae3", "fusion_lat": 0.0, "name": "99b0d68276db6cc988ce783911f26ae3", "is_reserved": 0, "rental_uris": {"android": "https://dc.lft.to/lastmile_qr_scan", "ios": "https://dc.lft.to/lastmile_qr_scan"}, "fusion_lon": 0.0}, {"lat": 38.84270033333333, "is_disabled": 0, "type": "electric_bike", "lon": -76.98843266666667, "bike_id": "576babc79357fab2eb085f1366f81e52", "fusion_lat": 0.0, "name": "576babc79357fab2eb085f1366f81e52", "is_reserved": 0, "rental_uris": {"android": "https://dc.lft.to/lastmile_qr_scan", "ios": "https://dc.lft.to/lastmile_qr_scan"}, "fusion_lon": 0.0}, {"lat": 38.875764833333335, "is_disabled": 0, "type": "electric_bike", "lon": -77.10563, "bike_id": "feec1195e1a843fe4227d3fb01c436a8", "fusion_lat": 0.0, "name": "feec1195e1a843fe4227d3fb01c436a8", "is_reserved": 0, "rental_uris": {"android": "https://dc.lft.to/lastmile_qr_scan", "ios": "https://dc.lft.to/lastmile_qr_scan"}, "fusion_lon": 0.0}, {"lat": 38.91736066666667, "is_disabled": 0, "type": "electric_scooter", "lon": -77.0227805, "bike_id": "6e9be04532731ce5bb9a406b06ce0240", "fusion_lat": 0.0, "name": "6e9be04532731ce5bb9a406b06ce0240", "is_reserved": 0, "rental_uris": {"android": "https://dc.lft.to/lastmile_qr_scan", "ios": "https://dc.lft.to/lastmile_qr_scan"}, "fusion_lon": 0.0}, {"lat": 38.84294533333333, "is_disabled": 0, "type": "electric_scooter", "lon": -76.99937066666666, "bike_id": "4d3da9df4c446396e681904b59ee15d7", "fusion_lat": 0.0, "name": "4d3da9df4c446396e681904b59ee15d7", "is_reserved": 0, "rental_uris": {"android": "https://dc.lft.to/lastmile_qr_scan", "ios": "https://dc.lft.to/lastmile_qr_scan"}, "fusion_lon": 0.0}, {"lat": 38.942881166666666, "is_disabled": 0, "type": "electric_scooter", "lon": -77.02173383333333, "bike_id": "ec6c64f81966e78048d40ea5c8c1844c", "fusion_lat": 0.0, "name": "ec6c64f81966e78048d40ea5c8c1844c", "is_reserved": 0, "rental_uris": {"android": "https://dc.lft.to/lastmile_qr_scan", "ios": "https://dc.lft.to/lastmile_qr_scan"}, "fusion_lon": 0.0}, {"lat": 38.93230233333333, "is_disabled": 0, "type": "electric_scooter", "lon": -76.9960215, "bike_id": "b0d6065ce64a610620fa28c5f1402c1b", "fusion_lat": 0.0, "name": "b0d6065ce64a610620fa28c5f1402c1b", "is_reserved": 0, "rental_uris": {"android": "https://dc.lft.to/lastmile_qr_scan", "ios": "https://dc.lft.to/lastmile_qr_scan"}, "fusion_lon": 0.0}, {"lat": 38.90383633333333, "is_disabled": 0, "type": "electric_scooter", "lon": -77.04341883333333, "bike_id": "3dc45a8547eaa87e890d248c60e1c014", "fusion_lat": 0.0, "name": "3dc45a8547eaa87e890d248c60e1c014", "is_reserved": 0, "rental_uris": {"android": "https://dc.lft.to/lastmile_qr_scan", "ios": "https://dc.lft.to/lastmile_qr_scan"}, "fusion_lon": 0.0}, {"lat": 38.900081666666665, "is_disabled": 0, "type": "electric_scooter", "lon": -77.0442205, "bike_id": "4b03ff417120dba9d3f6654267670166", "fusion_lat": 0.0, "name": "4b03ff417120dba9d3f6654267670166", "is_reserved": 0, "rental_uris": {"android": "https://dc.lft.to/lastmile_qr_scan", "ios": "https://dc.lft.to/lastmile_qr_scan"}, "fusion_lon": 0.0}, {"lat": 38.907290833333334, "is_disabled": 0, "type": "electric_scooter", "lon": -77.04777766666666, "bike_id": "1cc9ef14da9e85aa4ef1e7fc6a4fe3a0", "fusion_lat": 0.0, "name": "1cc9ef14da9e85aa4ef1e7fc6a4fe3a0", "is_reserved": 0, "rental_uris": {"android": "https://dc.lft.to/lastmile_qr_scan", "ios": "https://dc.lft.to/lastmile_qr_scan"}, "fusion_lon": 0.0}, {"lat": 38.91122216666667, "is_disabled": 0, "type": "electric_scooter", "lon": -77.04221366666667, "bike_id": "fba2e34a9039e2bab82d50cbdff6c04f", "fusion_lat": 0.0, "name": "fba2e34a9039e2bab82d50cbdff6c04f", "is_reserved": 0, "rental_uris": {"android": "https://dc.lft.to/lastmile_qr_scan", "ios": "https://dc.lft.to/lastmile_qr_scan"}, "fusion_lon": 0.0}, {"lat": 38.92254066666667, "is_disabled": 0, "type": "electric_scooter", "lon": -77.03082933333333, "bike_id": "0e9f87d7aaf977bbad8405932b00d983", "fusion_lat": 0.0, "name": "0e9f87d7aaf977bbad8405932b00d983", "is_reserved": 0, "rental_uris": {"android": "https://dc.lft.to/lastmile_qr_scan", "ios": "https://dc.lft.to/lastmile_qr_scan"}, "fusion_lon": 0.0}, {"lat": 38.941705, "is_disabled": 0, "type": "electric_scooter", "lon": -77.0328425, "bike_id": "bc9a6bb7455f6bf353334066890fba04", "fusion_lat": 0.0, "name": "bc9a6bb7455f6bf353334066890fba04", "is_reserved": 0, "rental_uris": {"android": "https://dc.lft.to/lastmile_qr_scan", "ios": "https://dc.lft.to/lastmile_qr_scan"}, "fusion_lon": 0.0}, {"lat": 38.919475166666665, "is_disabled": 0, "type": "electric_scooter", "lon": -77.04879383333333, "bike_id": "d6c042bb76d6328b3f4d1b07bd76b00b", "fusion_lat": 0.0, "name": "d6c042bb76d6328b3f4d1b07bd76b00b", "is_reserved": 0, "rental_uris": {"android": "https://dc.lft.to/lastmile_qr_scan", "ios": "https://dc.lft.to/lastmile_qr_scan"}, "fusion_lon": 0.0}, {"lat": 38.941544, "is_disabled": 0, "type": "electric_scooter", "lon": -77.032865, "bike_id": "6edd07df40c62cdb09a82930a8f853a8", "fusion_lat": 0.0, "name": "6edd07df40c62cdb09a82930a8f853a8", "is_reserved": 0, "rental_uris": {"android": "https://dc.lft.to/lastmile_qr_scan", "ios": "https://dc.lft.to/lastmile_qr_scan"}, "fusion_lon": 0.0}, {"lat": 38.8733935, "is_disabled": 0, "type": "electric_scooter", "lon": -76.9916225, "bike_id": "6cfd048e4ce041a64b647775d6ebeffe", "fusion_lat": 0.0, "name": "6cfd048e4ce041a64b647775d6ebeffe", "is_reserved": 0, "rental_uris": {"android": "https://dc.lft.to/lastmile_qr_scan", "ios": "https://dc.lft.to/lastmile_qr_scan"}, "fusion_lon": 0.0}, {"lat": 38.90243816666667, "is_disabled": 0, "type": "electric_scooter", "lon": -77.02601933333334, "bike_id": "b7b37ff63ec59695fb54dce3c84a7b3f", "fusion_lat": 0.0, "name": "b7b37ff63ec59695fb54dce3c84a7b3f", "is_reserved": 0, "rental_uris": {"android": "https://dc.lft.to/lastmile_qr_scan", "ios": "https://dc.lft.to/lastmile_qr_scan"}, "fusion_lon": 0.0}, {"lat": 38.90119883333333, "is_disabled": 0, "type": "electric_scooter", "lon": -77.03303116666666, "bike_id": "8f18abe9db7b74934b5bdc3e940065c5", "fusion_lat": 0.0, "name": "8f18abe9db7b74934b5bdc3e940065c5", "is_reserved": 0, "rental_uris": {"android": "https://dc.lft.to/lastmile_qr_scan", "ios": "https://dc.lft.to/lastmile_qr_scan"}, "fusion_lon": 0.0}, {"lat": 38.87626683333333, "is_disabled": 0, "type": "electric_scooter", "lon": -76.96521283333334, "bike_id": "744abefab8e43d22ace9424e88cdc51a", "fusion_lat": 0.0, "name": "744abefab8e43d22ace9424e88cdc51a", "is_reserved": 0, "rental_uris": {"android": "https://dc.lft.to/lastmile_qr_scan", "ios": "https://dc.lft.to/lastmile_qr_scan"}, "fusion_lon": 0.0}, {"lat": 38.95075583333333, "is_disabled": 0, "type": "electric_scooter", "lon": -77.06651983333333, "bike_id": "1a9dab64ace94355ab81a13accbe1964", "fusion_lat": 0.0, "name": "1a9dab64ace94355ab81a13accbe1964", "is_reserved": 0, "rental_uris": {"android": "https://dc.lft.to/lastmile_qr_scan", "ios": "https://dc.lft.to/lastmile_qr_scan"}, "fusion_lon": 0.0}, {"lat": 39.015908833333334, "is_disabled": 0, "type": "electric_bike", "lon": -77.044292, "bike_id": "fc174b1d15fe8e89f8615b80abb03453", "fusion_lat": 0.0, "name": "fc174b1d15fe8e89f8615b80abb03453", "is_reserved": 0, "rental_uris": {"android": "https://dc.lft.to/lastmile_qr_scan", "ios": "https://dc.lft.to/lastmile_qr_scan"}, "fusion_lon": 0.0}, {"lat": 38.89999683333333, "is_disabled": 0, "type": "electric_scooter", "lon": -76.99845783333333, "bike_id": "2576297bf822b67c58d0c2a037092687", "fusion_lat": 0.0, "name": "2576297bf822b67c58d0c2a037092687", "is_reserved": 0, "rental_uris": {"android": "https://dc.lft.to/lastmile_qr_scan", "ios": "https://dc.lft.to/lastmile_qr_scan"}, "fusion_lon": 0.0}, {"lat": 38.92212816666667, "is_disabled": 0, "type": "electric_scooter", "lon": -77.03288933333333, "bike_id": "7e84a4a084664b9018653ba19cf390a4", "fusion_lat": 0.0, "name": "7e84a4a084664b9018653ba19cf390a4", "is_reserved": 0, "rental_uris": {"android": "https://dc.lft.to/lastmile_qr_scan", "ios": "https://dc.lft.to/lastmile_qr_scan"}, "fusion_lon": 0.0}, {"lat": 38.9027665, "is_disabled": 0, "type": "electric_scooter", "lon": -77.01903816666666, "bike_id": "e1f292ced3cf71ef966f9f967974afce", "fusion_lat": 0.0, "name": "e1f292ced3cf71ef966f9f967974afce", "is_reserved": 0, "rental_uris": {"android": "https://dc.lft.to/lastmile_qr_scan", "ios": "https://dc.lft.to/lastmile_qr_scan"}, "fusion_lon": 0.0}, {"lat": 38.936544833333336, "is_disabled": 0, "type": "electric_bike", "lon": -77.05590683333334, "bike_id": "45a0f40d109b7fc77770b79271acbcc4", "fusion_lat": 0.0, "name": "45a0f40d109b7fc77770b79271acbcc4", "is_reserved": 0, "rental_uris": {"android": "https://dc.lft.to/lastmile_qr_scan", "ios": "https://dc.lft.to/lastmile_qr_scan"}, "fusion_lon": 0.0}, {"lat": 38.8912205, "is_disabled": 0, "type": "electric_scooter", "lon": -76.94092433333333, "bike_id": "6c98a7fbd1812918152e00d94c888537", "fusion_lat": 0.0, "name": "6c98a7fbd1812918152e00d94c888537", "is_reserved": 0, "rental_uris": {"android": "https://dc.lft.to/lastmile_qr_scan", "ios": "https://dc.lft.to/lastmile_qr_scan"}, "fusion_lon": 0.0}, {"lat": 38.90510883333334, "is_disabled": 0, "type": "electric_scooter", "lon": -77.02715883333333, "bike_id": "526388cfa4d918d09ab04040d21e7897", "fusion_lat": 0.0, "name": "526388cfa4d918d09ab04040d21e7897", "is_reserved": 0, "rental_uris": {"android": "https://dc.lft.to/lastmile_qr_scan", "ios": "https://dc.lft.to/lastmile_qr_scan"}, "fusion_lon": 0.0}, {"lat": 38.96092616666667, "is_disabled": 0, "type": "electric_scooter", "lon": -77.082869, "bike_id": "f0566be41eaba4d506d06a1239c473fa", "fusion_lat": 0.0, "name": "f0566be41eaba4d506d06a1239c473fa", "is_reserved": 0, "rental_uris": {"android": "https://dc.lft.to/lastmile_qr_scan", "ios": "https://dc.lft.to/lastmile_qr_scan"}, "fusion_lon": 0.0}, {"lat": 38.919656833333335, "is_disabled": 0, "type": "electric_scooter", "lon": -77.04315866666667, "bike_id": "c1a1f8c323f68e051a2434667ceafb77", "fusion_lat": 0.0, "name": "c1a1f8c323f68e051a2434667ceafb77", "is_reserved": 0, "rental_uris": {"android": "https://dc.lft.to/lastmile_qr_scan", "ios": "https://dc.lft.to/lastmile_qr_scan"}, "fusion_lon": 0.0}, {"lat": 38.92445683333333, "is_disabled": 0, "type": "electric_scooter", "lon": -77.041988, "bike_id": "0a415a493a1301b6a1583eeeeffb4c65", "fusion_lat": 0.0, "name": "0a415a493a1301b6a1583eeeeffb4c65", "is_reserved": 0, "rental_uris": {"android": "https://dc.lft.to/lastmile_qr_scan", "ios": "https://dc.lft.to/lastmile_qr_scan"}, "fusion_lon": 0.0}, {"lat": 38.901361666666666, "is_disabled": 0, "type": "electric_scooter", "lon": -77.00069716666667, "bike_id": "7320d4718bc0bf0a0c453a10d96cd4a5", "fusion_lat": 0.0, "name": "7320d4718bc0bf0a0c453a10d96cd4a5", "is_reserved": 0, "rental_uris": {"android": "https://dc.lft.to/lastmile_qr_scan", "ios": "https://dc.lft.to/lastmile_qr_scan"}, "fusion_lon": 0.0}, {"lat": 38.920386, "is_disabled": 0, "type": "electric_scooter", "lon": -77.01776533333333, "bike_id": "0e917b9c14b2aa6337acb96ed4a50a53", "fusion_lat": 0.0, "name": "0e917b9c14b2aa6337acb96ed4a50a53", "is_reserved": 0, "rental_uris": {"android": "https://dc.lft.to/lastmile_qr_scan", "ios": "https://dc.lft.to/lastmile_qr_scan"}, "fusion_lon": 0.0}, {"lat": 38.84430033333334, "is_disabled": 0, "type": "electric_scooter", "lon": -76.998116, "bike_id": "643f00bfa075aad28b82d34edd7b8117", "fusion_lat": 0.0, "name": "643f00bfa075aad28b82d34edd7b8117", "is_reserved": 0, "rental_uris": {"android": "https://dc.lft.to/lastmile_qr_scan", "ios": "https://dc.lft.to/lastmile_qr_scan"}, "fusion_lon": 0.0}, {"lat": 38.934190666666666, "is_disabled": 0, "type": "electric_scooter", "lon": -77.0283975, "bike_id": "b80acc20ea51a25ac51596c783da4d3f", "fusion_lat": 0.0, "name": "b80acc20ea51a25ac51596c783da4d3f", "is_reserved": 0, "rental_uris": {"android": "https://dc.lft.to/lastmile_qr_scan", "ios": "https://dc.lft.to/lastmile_qr_scan"}, "fusion_lon": 0.0}, {"lat": 38.9318585, "is_disabled": 0, "type": "electric_scooter", "lon": -77.03864983333334, "bike_id": "d2eaff679d1e84bbdd05307e06082b1c", "fusion_lat": 0.0, "name": "d2eaff679d1e84bbdd05307e06082b1c", "is_reserved": 0, "rental_uris": {"android": "https://dc.lft.to/lastmile_qr_scan", "ios": "https://dc.lft.to/lastmile_qr_scan"}, "fusion_lon": 0.0}, {"lat": 38.917745, "is_disabled": 0, "type": "electric_scooter", "lon": -77.02260966666667, "bike_id": "ac6795992bdca35b6ce2afff92441e62", "fusion_lat": 0.0, "name": "ac6795992bdca35b6ce2afff92441e62", "is_reserved": 0, "rental_uris": {"android": "https://dc.lft.to/lastmile_qr_scan", "ios": "https://dc.lft.to/lastmile_qr_scan"}, "fusion_lon": 0.0}, {"lat": 38.85449233333333, "is_disabled": 0, "type": "electric_bike", "lon": -76.909818, "bike_id": "492da976f278462fb7046a4614e7b8c2", "fusion_lat": 0.0, "name": "492da976f278462fb7046a4614e7b8c2", "is_reserved": 0, "rental_uris": {"android": "https://dc.lft.to/lastmile_qr_scan", "ios": "https://dc.lft.to/lastmile_qr_scan"}, "fusion_lon": 0.0}, {"lat": 38.9211235, "is_disabled": 0, "type": "electric_scooter", "lon": -77.04211416666666, "bike_id": "ff67ac35031ee8e518bddd17e7d14126", "fusion_lat": 0.0, "name": "ff67ac35031ee8e518bddd17e7d14126", "is_reserved": 0, "rental_uris": {"android": "https://dc.lft.to/lastmile_qr_scan", "ios": "https://dc.lft.to/lastmile_qr_scan"}, "fusion_lon": 0.0}, {"lat": 38.81052566666666, "is_disabled": 0, "type": "electric_bike", "lon": -77.08509883333333, "bike_id": "098fcf32118f7c7af30ae0eed977c2ff", "fusion_lat": 0.0, "name": "098fcf32118f7c7af30ae0eed977c2ff", "is_reserved": 0, "rental_uris": {"android": "https://dc.lft.to/lastmile_qr_scan", "ios": "https://dc.lft.to/lastmile_qr_scan"}, "fusion_lon": 0.0}, {"lat": 38.904847333333336, "is_disabled": 0, "type": "electric_scooter", "lon": -76.99543216666666, "bike_id": "95b3c830683f5708a01ce89bbb3668a8", "fusion_lat": 0.0, "name": "95b3c830683f5708a01ce89bbb3668a8", "is_reserved": 0, "rental_uris": {"android": "https://dc.lft.to/lastmile_qr_scan", "ios": "https://dc.lft.to/lastmile_qr_scan"}, "fusion_lon": 0.0}, {"lat": 38.9385855, "is_disabled": 0, "type": "electric_scooter", "lon": -77.0259225, "bike_id": "d1f3d0aa1e45d6d7c9e125058eb52ed9", "fusion_lat": 0.0, "name": "d1f3d0aa1e45d6d7c9e125058eb52ed9", "is_reserved": 0, "rental_uris": {"android": "https://dc.lft.to/lastmile_qr_scan", "ios": "https://dc.lft.to/lastmile_qr_scan"}, "fusion_lon": 0.0}, {"lat": 38.91271066666667, "is_disabled": 0, "type": "electric_scooter", "lon": -77.03033433333333, "bike_id": "01bea414bf16572fe79450a352bc1987", "fusion_lat": 0.0, "name": "01bea414bf16572fe79450a352bc1987", "is_reserved": 0, "rental_uris": {"android": "https://dc.lft.to/lastmile_qr_scan", "ios": "https://dc.lft.to/lastmile_qr_scan"}, "fusion_lon": 0.0}, {"lat": 38.934244166666666, "is_disabled": 0, "type": "electric_scooter", "lon": -77.02843433333334, "bike_id": "1af7f4268a25e8c73365f2dc3aa2c9de", "fusion_lat": 0.0, "name": "1af7f4268a25e8c73365f2dc3aa2c9de", "is_reserved": 0, "rental_uris": {"android": "https://dc.lft.to/lastmile_qr_scan", "ios": "https://dc.lft.to/lastmile_qr_scan"}, "fusion_lon": 0.0}, {"lat": 38.9038885, "is_disabled": 0, "type": "electric_scooter", "lon": -76.98493316666666, "bike_id": "d786ae83549ef6ca72a3b509900d318e", "fusion_lat": 0.0, "name": "d786ae83549ef6ca72a3b509900d318e", "is_reserved": 0, "rental_uris": {"android": "https://dc.lft.to/lastmile_qr_scan", "ios": "https://dc.lft.to/lastmile_qr_scan"}, "fusion_lon": 0.0}, {"lat": 38.945981, "is_disabled": 0, "type": "electric_scooter", "lon": -77.0703445, "bike_id": "3cbaf65ff365ba1753b7553741dcd5b1", "fusion_lat": 0.0, "name": "3cbaf65ff365ba1753b7553741dcd5b1", "is_reserved": 0, "rental_uris": {"android": "https://dc.lft.to/lastmile_qr_scan", "ios": "https://dc.lft.to/lastmile_qr_scan"}, "fusion_lon": 0.0}, {"lat": 38.92383783333333, "is_disabled": 0, "type": "electric_scooter", "lon": -77.02762566666667, "bike_id": "759b793682ff77e858de246283e0cc1e", "fusion_lat": 0.0, "name": "759b793682ff77e858de246283e0cc1e", "is_reserved": 0, "rental_uris": {"android": "https://dc.lft.to/lastmile_qr_scan", "ios": "https://dc.lft.to/lastmile_qr_scan"}, "fusion_lon": 0.0}, {"lat": 38.915487, "is_disabled": 0, "type": "electric_scooter", "lon": -77.009762, "bike_id": "6f642ba24a633b7053d1aca574350c09", "fusion_lat": 0.0, "name": "6f642ba24a633b7053d1aca574350c09", "is_reserved": 0, "rental_uris": {"android": "https://dc.lft.to/lastmile_qr_scan", "ios": "https://dc.lft.to/lastmile_qr_scan"}, "fusion_lon": 0.0}, {"lat": 38.866452833333334, "is_disabled": 0, "type": "electric_scooter", "lon": -76.98883633333334, "bike_id": "adbcb3286549ac8052241de264433f86", "fusion_lat": 0.0, "name": "adbcb3286549ac8052241de264433f86", "is_reserved": 0, "rental_uris": {"android": "https://dc.lft.to/lastmile_qr_scan", "ios": "https://dc.lft.to/lastmile_qr_scan"}, "fusion_lon": 0.0}, {"lat": 38.92063183333333, "is_disabled": 0, "type": "electric_scooter", "lon": -77.04373216666667, "bike_id": "2364ce2110197e3a7908fbd44a2aedf0", "fusion_lat": 0.0, "name": "2364ce2110197e3a7908fbd44a2aedf0", "is_reserved": 0, "rental_uris": {"android": "https://dc.lft.to/lastmile_qr_scan", "ios": "https://dc.lft.to/lastmile_qr_scan"}, "fusion_lon": 0.0}, {"lat": 38.92309566666667, "is_disabled": 0, "type": "electric_bike", "lon": -77.035419, "bike_id": "756000f36c2993c0cfca1d9c102c73cd", "fusion_lat": 0.0, "name": "756000f36c2993c0cfca1d9c102c73cd", "is_reserved": 0, "rental_uris": {"android": "https://dc.lft.to/lastmile_qr_scan", "ios": "https://dc.lft.to/lastmile_qr_scan"}, "fusion_lon": 0.0}, {"lat": 38.93871633333333, "is_disabled": 0, "type": "electric_scooter", "lon": -77.0312215, "bike_id": "b346c62deae378ca68c3594d334cfa10", "fusion_lat": 0.0, "name": "b346c62deae378ca68c3594d334cfa10", "is_reserved": 0, "rental_uris": {"android": "https://dc.lft.to/lastmile_qr_scan", "ios": "https://dc.lft.to/lastmile_qr_scan"}, "fusion_lon": 0.0}, {"lat": 38.90418733333333, "is_disabled": 0, "type": "electric_scooter", "lon": -77.0218355, "bike_id": "05deabb2a6dbe9e1fdb624335dfb6684", "fusion_lat": 0.0, "name": "05deabb2a6dbe9e1fdb624335dfb6684", "is_reserved": 0, "rental_uris": {"android": "https://dc.lft.to/lastmile_qr_scan", "ios": "https://dc.lft.to/lastmile_qr_scan"}, "fusion_lon": 0.0}, {"lat": 38.89964333333333, "is_disabled": 0, "type": "electric_bike", "lon": -77.02096416666667, "bike_id": "f0f2e3141a054b6356b18bf413469e2e", "fusion_lat": 0.0, "name": "f0f2e3141a054b6356b18bf413469e2e", "is_reserved": 0, "rental_uris": {"android": "https://dc.lft.to/lastmile_qr_scan", "ios": "https://dc.lft.to/lastmile_qr_scan"}, "fusion_lon": 0.0}, {"lat": 38.8977555, "is_disabled": 0, "type": "electric_scooter", "lon": -77.009133, "bike_id": "308abeb1577130a188c35afe67a84737", "fusion_lat": 0.0, "name": "308abeb1577130a188c35afe67a84737", "is_reserved": 0, "rental_uris": {"android": "https://dc.lft.to/lastmile_qr_scan", "ios": "https://dc.lft.to/lastmile_qr_scan"}, "fusion_lon": 0.0}, {"lat": 38.8876005, "is_disabled": 0, "type": "electric_scooter", "lon": -76.95596083333334, "bike_id": "d3a21aea7f0a1fdbd865820d391f46fd", "fusion_lat": 0.0, "name": "d3a21aea7f0a1fdbd865820d391f46fd", "is_reserved": 0, "rental_uris": {"android": "https://dc.lft.to/lastmile_qr_scan", "ios": "https://dc.lft.to/lastmile_qr_scan"}, "fusion_lon": 0.0}, {"lat": 38.95292333333333, "is_disabled": 0, "type": "electric_scooter", "lon": -77.08154466666667, "bike_id": "82db04d35bd23df202f31aed2c6113da", "fusion_lat": 0.0, "name": "82db04d35bd23df202f31aed2c6113da", "is_reserved": 0, "rental_uris": {"android": "https://dc.lft.to/lastmile_qr_scan", "ios": "https://dc.lft.to/lastmile_qr_scan"}, "fusion_lon": 0.0}, {"lat": 38.971949333333335, "is_disabled": 0, "type": "electric_bike", "lon": -77.0271575, "bike_id": "203622a305ffd6c9c0939cab65f3e3f1", "fusion_lat": 0.0, "name": "203622a305ffd6c9c0939cab65f3e3f1", "is_reserved": 0, "rental_uris": {"android": "https://dc.lft.to/lastmile_qr_scan", "ios": "https://dc.lft.to/lastmile_qr_scan"}, "fusion_lon": 0.0}, {"lat": 38.925614, "is_disabled": 0, "type": "electric_scooter", "lon": -77.0353705, "bike_id": "55c1646821de44d347f875940e5ffd9a", "fusion_lat": 0.0, "name": "55c1646821de44d347f875940e5ffd9a", "is_reserved": 0, "rental_uris": {"android": "https://dc.lft.to/lastmile_qr_scan", "ios": "https://dc.lft.to/lastmile_qr_scan"}, "fusion_lon": 0.0}, {"lat": 38.903557, "is_disabled": 0, "type": "electric_scooter", "lon": -77.0534045, "bike_id": "90290b902ae427af77401db8887c1254", "fusion_lat": 0.0, "name": "90290b902ae427af77401db8887c1254", "is_reserved": 0, "rental_uris": {"android": "https://dc.lft.to/lastmile_qr_scan", "ios": "https://dc.lft.to/lastmile_qr_scan"}, "fusion_lon": 0.0}, {"lat": 38.909772, "is_disabled": 0, "type": "electric_bike", "lon": -76.985176, "bike_id": "0cd61020aecb8f01d9dccf2a45eb8b46", "fusion_lat": 0.0, "name": "0cd61020aecb8f01d9dccf2a45eb8b46", "is_reserved": 0, "rental_uris": {"android": "https://dc.lft.to/lastmile_qr_scan", "ios": "https://dc.lft.to/lastmile_qr_scan"}, "fusion_lon": 0.0}, {"lat": 38.908057, "is_disabled": 0, "type": "electric_scooter", "lon": -76.98277366666667, "bike_id": "44bfa38274d62ca78d92fb6c0683ef3b", "fusion_lat": 0.0, "name": "44bfa38274d62ca78d92fb6c0683ef3b", "is_reserved": 0, "rental_uris": {"android": "https://dc.lft.to/lastmile_qr_scan", "ios": "https://dc.lft.to/lastmile_qr_scan"}, "fusion_lon": 0.0}, {"lat": 38.905391, "is_disabled": 0, "type": "electric_scooter", "lon": -77.03402333333334, "bike_id": "0e8b0ad955ce2bc261fd1ec30dfe36e2", "fusion_lat": 0.0, "name": "0e8b0ad955ce2bc261fd1ec30dfe36e2", "is_reserved": 0, "rental_uris": {"android": "https://dc.lft.to/lastmile_qr_scan", "ios": "https://dc.lft.to/lastmile_qr_scan"}, "fusion_lon": 0.0}, {"lat": 38.880654, "is_disabled": 0, "type": "electric_bike", "lon": -77.10958233333334, "bike_id": "8b25ae31c295801a958af03daa2dd132", "fusion_lat": 0.0, "name": "8b25ae31c295801a958af03daa2dd132", "is_reserved": 0, "rental_uris": {"android": "https://dc.lft.to/lastmile_qr_scan", "ios": "https://dc.lft.to/lastmile_qr_scan"}, "fusion_lon": 0.0}, {"lat": 38.89454416666667, "is_disabled": 0, "type": "electric_scooter", "lon": -77.02129416666666, "bike_id": "b4caa06141381fa07b7274721a130149", "fusion_lat": 0.0, "name": "b4caa06141381fa07b7274721a130149", "is_reserved": 0, "rental_uris": {"android": "https://dc.lft.to/lastmile_qr_scan", "ios": "https://dc.lft.to/lastmile_qr_scan"}, "fusion_lon": 0.0}, {"lat": 38.92331266666667, "is_disabled": 0, "type": "electric_scooter", "lon": -77.04181083333333, "bike_id": "fc3e225e0b3220f8eec4dd417a7f2983", "fusion_lat": 0.0, "name": "fc3e225e0b3220f8eec4dd417a7f2983", "is_reserved": 0, "rental_uris": {"android": "https://dc.lft.to/lastmile_qr_scan", "ios": "https://dc.lft.to/lastmile_qr_scan"}, "fusion_lon": 0.0}, {"lat": 38.90361766666667, "is_disabled": 0, "type": "electric_scooter", "lon": -77.04275716666666, "bike_id": "fdcaa7f5afa458100061b83871b5a612", "fusion_lat": 0.0, "name": "fdcaa7f5afa458100061b83871b5a612", "is_reserved": 0, "rental_uris": {"android": "https://dc.lft.to/lastmile_qr_scan", "ios": "https://dc.lft.to/lastmile_qr_scan"}, "fusion_lon": 0.0}, {"lat": 38.89345183333333, "is_disabled": 0, "type": "electric_scooter", "lon": -76.949355, "bike_id": "26c01386fcc60ba7ee3259aafdafdfc6", "fusion_lat": 0.0, "name": "26c01386fcc60ba7ee3259aafdafdfc6", "is_reserved": 0, "rental_uris": {"android": "https://dc.lft.to/lastmile_qr_scan", "ios": "https://dc.lft.to/lastmile_qr_scan"}, "fusion_lon": 0.0}, {"lat": 38.918166166666666, "is_disabled": 0, "type": "electric_scooter", "lon": -77.03911166666667, "bike_id": "b92f92150970cb0610e85ec680beaa96", "fusion_lat": 0.0, "name": "b92f92150970cb0610e85ec680beaa96", "is_reserved": 0, "rental_uris": {"android": "https://dc.lft.to/lastmile_qr_scan", "ios": "https://dc.lft.to/lastmile_qr_scan"}, "fusion_lon": 0.0}, {"lat": 38.90777166666667, "is_disabled": 0, "type": "electric_scooter", "lon": -77.04344466666667, "bike_id": "842192a745b52ffc7f075c3816685d49", "fusion_lat": 0.0, "name": "842192a745b52ffc7f075c3816685d49", "is_reserved": 0, "rental_uris": {"android": "https://dc.lft.to/lastmile_qr_scan", "ios": "https://dc.lft.to/lastmile_qr_scan"}, "fusion_lon": 0.0}, {"lat": 38.90342183333333, "is_disabled": 0, "type": "electric_scooter", "lon": -76.9705685, "bike_id": "5993f4e073c7910cf20cec4fdec92f12", "fusion_lat": 0.0, "name": "5993f4e073c7910cf20cec4fdec92f12", "is_reserved": 0, "rental_uris": {"android": "https://dc.lft.to/lastmile_qr_scan", "ios": "https://dc.lft.to/lastmile_qr_scan"}, "fusion_lon": 0.0}, {"lat": 38.90752783333333, "is_disabled": 0, "type": "electric_scooter", "lon": -77.0416265, "bike_id": "3e3b5f09249baa80a177111a49ac84aa", "fusion_lat": 0.0, "name": "3e3b5f09249baa80a177111a49ac84aa", "is_reserved": 0, "rental_uris": {"android": "https://dc.lft.to/lastmile_qr_scan", "ios": "https://dc.lft.to/lastmile_qr_scan"}, "fusion_lon": 0.0}, {"lat": 38.95079633333334, "is_disabled": 0, "type": "electric_bike", "lon": -77.01190933333334, "bike_id": "2d41c90fcf1432036163011a81ed96c3", "fusion_lat": 0.0, "name": "2d41c90fcf1432036163011a81ed96c3", "is_reserved": 0, "rental_uris": {"android": "https://dc.lft.to/lastmile_qr_scan", "ios": "https://dc.lft.to/lastmile_qr_scan"}, "fusion_lon": 0.0}, {"lat": 38.911972666666664, "is_disabled": 0, "type": "electric_scooter", "lon": -77.0446765, "bike_id": "0011f1ff5550460045f01eb6ca8c2218", "fusion_lat": 0.0, "name": "0011f1ff5550460045f01eb6ca8c2218", "is_reserved": 0, "rental_uris": {"android": "https://dc.lft.to/lastmile_qr_scan", "ios": "https://dc.lft.to/lastmile_qr_scan"}, "fusion_lon": 0.0}, {"lat": 38.90081166666667, "is_disabled": 0, "type": "electric_scooter", "lon": -77.050627, "bike_id": "a7cd550d0a1aa4efd5c433eecec79498", "fusion_lat": 0.0, "name": "a7cd550d0a1aa4efd5c433eecec79498", "is_reserved": 0, "rental_uris": {"android": "https://dc.lft.to/lastmile_qr_scan", "ios": "https://dc.lft.to/lastmile_qr_scan"}, "fusion_lon": 0.0}, {"lat": 38.866174, "is_disabled": 0, "type": "electric_scooter", "lon": -76.98661116666666, "bike_id": "0f58d52c648f40db964976fbc351e4dc", "fusion_lat": 0.0, "name": "0f58d52c648f40db964976fbc351e4dc", "is_reserved": 0, "rental_uris": {"android": "https://dc.lft.to/lastmile_qr_scan", "ios": "https://dc.lft.to/lastmile_qr_scan"}, "fusion_lon": 0.0}, {"lat": 38.90851033333333, "is_disabled": 0, "type": "electric_scooter", "lon": -77.0102005, "bike_id": "7f0c156521bb4f6dd309605263ad6781", "fusion_lat": 0.0, "name": "7f0c156521bb4f6dd309605263ad6781", "is_reserved": 0, "rental_uris": {"android": "https://dc.lft.to/lastmile_qr_scan", "ios": "https://dc.lft.to/lastmile_qr_scan"}, "fusion_lon": 0.0}, {"lat": 38.9156485, "is_disabled": 0, "type": "electric_scooter", "lon": -77.009744, "bike_id": "fc87cb29bcae4a9c4473d5033509ccea", "fusion_lat": 0.0, "name": "fc87cb29bcae4a9c4473d5033509ccea", "is_reserved": 0, "rental_uris": {"android": "https://dc.lft.to/lastmile_qr_scan", "ios": "https://dc.lft.to/lastmile_qr_scan"}, "fusion_lon": 0.0}, {"lat": 38.908827, "is_disabled": 0, "type": "electric_scooter", "lon": -77.03662133333333, "bike_id": "880cf5e533e8e34338a2c9bdca971946", "fusion_lat": 0.0, "name": "880cf5e533e8e34338a2c9bdca971946", "is_reserved": 0, "rental_uris": {"android": "https://dc.lft.to/lastmile_qr_scan", "ios": "https://dc.lft.to/lastmile_qr_scan"}, "fusion_lon": 0.0}, {"lat": 38.915002666666666, "is_disabled": 0, "type": "electric_scooter", "lon": -76.98377616666667, "bike_id": "a46aad4f5de7f09ebdced422ce59dc1b", "fusion_lat": 0.0, "name": "a46aad4f5de7f09ebdced422ce59dc1b", "is_reserved": 0, "rental_uris": {"android": "https://dc.lft.to/lastmile_qr_scan", "ios": "https://dc.lft.to/lastmile_qr_scan"}, "fusion_lon": 0.0}, {"lat": 38.8942245, "is_disabled": 0, "type": "electric_scooter", "lon": -77.02086633333333, "bike_id": "6cd2ef665ffcebf4e68c7110c94858a2", "fusion_lat": 0.0, "name": "6cd2ef665ffcebf4e68c7110c94858a2", "is_reserved": 0, "rental_uris": {"android": "https://dc.lft.to/lastmile_qr_scan", "ios": "https://dc.lft.to/lastmile_qr_scan"}, "fusion_lon": 0.0}, {"lat": 38.95746583333333, "is_disabled": 0, "type": "electric_scooter", "lon": -77.02376733333334, "bike_id": "75211ebc2952dde6f108d77af7122dae", "fusion_lat": 0.0, "name": "75211ebc2952dde6f108d77af7122dae", "is_reserved": 0, "rental_uris": {"android": "https://dc.lft.to/lastmile_qr_scan", "ios": "https://dc.lft.to/lastmile_qr_scan"}, "fusion_lon": 0.0}, {"lat": 38.882726, "is_disabled": 0, "type": "electric_bike", "lon": -76.93234216666667, "bike_id": "207816481652559ac3b9a00530478f7d", "fusion_lat": 0.0, "name": "207816481652559ac3b9a00530478f7d", "is_reserved": 0, "rental_uris": {"android": "https://dc.lft.to/lastmile_qr_scan", "ios": "https://dc.lft.to/lastmile_qr_scan"}, "fusion_lon": 0.0}, {"lat": 38.862246999999996, "is_disabled": 0, "type": "electric_scooter", "lon": -76.98365183333334, "bike_id": "6466ade0b8d581f51ad20c3d7a866596", "fusion_lat": 0.0, "name": "6466ade0b8d581f51ad20c3d7a866596", "is_reserved": 0, "rental_uris": {"android": "https://dc.lft.to/lastmile_qr_scan", "ios": "https://dc.lft.to/lastmile_qr_scan"}, "fusion_lon": 0.0}, {"lat": 38.887669833333334, "is_disabled": 0, "type": "electric_scooter", "lon": -76.98352566666667, "bike_id": "9cde13260838574a13c4423211259742", "fusion_lat": 0.0, "name": "9cde13260838574a13c4423211259742", "is_reserved": 0, "rental_uris": {"android": "https://dc.lft.to/lastmile_qr_scan", "ios": "https://dc.lft.to/lastmile_qr_scan"}, "fusion_lon": 0.0}, {"lat": 38.935759166666664, "is_disabled": 0, "type": "electric_scooter", "lon": -77.03753616666667, "bike_id": "e2613514fc40d2d512b2276c6d3a7f43", "fusion_lat": 0.0, "name": "e2613514fc40d2d512b2276c6d3a7f43", "is_reserved": 0, "rental_uris": {"android": "https://dc.lft.to/lastmile_qr_scan", "ios": "https://dc.lft.to/lastmile_qr_scan"}, "fusion_lon": 0.0}, {"lat": 38.915495166666666, "is_disabled": 0, "type": "electric_scooter", "lon": -77.02428483333334, "bike_id": "a84907ed24125f7c0ba2385e0507c792", "fusion_lat": 0.0, "name": "a84907ed24125f7c0ba2385e0507c792", "is_reserved": 0, "rental_uris": {"android": "https://dc.lft.to/lastmile_qr_scan", "ios": "https://dc.lft.to/lastmile_qr_scan"}, "fusion_lon": 0.0}, {"lat": 38.92755116666667, "is_disabled": 0, "type": "electric_scooter", "lon": -77.00592116666667, "bike_id": "71dc10bc62f6ceef28f9d03d2aca1706", "fusion_lat": 0.0, "name": "71dc10bc62f6ceef28f9d03d2aca1706", "is_reserved": 0, "rental_uris": {"android": "https://dc.lft.to/lastmile_qr_scan", "ios": "https://dc.lft.to/lastmile_qr_scan"}, "fusion_lon": 0.0}, {"lat": 38.884908, "is_disabled": 0, "type": "electric_scooter", "lon": -77.007245, "bike_id": "2837ba08ce1e1311f8dd7987155cb630", "fusion_lat": 0.0, "name": "2837ba08ce1e1311f8dd7987155cb630", "is_reserved": 0, "rental_uris": {"android": "https://dc.lft.to/lastmile_qr_scan", "ios": "https://dc.lft.to/lastmile_qr_scan"}, "fusion_lon": 0.0}, {"lat": 38.939578166666664, "is_disabled": 0, "type": "electric_scooter", "lon": -77.02748833333334, "bike_id": "0017bad7c46951c8751b1ee7d0339f6b", "fusion_lat": 0.0, "name": "0017bad7c46951c8751b1ee7d0339f6b", "is_reserved": 0, "rental_uris": {"android": "https://dc.lft.to/lastmile_qr_scan", "ios": "https://dc.lft.to/lastmile_qr_scan"}, "fusion_lon": 0.0}, {"lat": 38.9010635, "is_disabled": 0, "type": "electric_scooter", "lon": -76.98638, "bike_id": "134148f08789e146e4469f59ea4c63d6", "fusion_lat": 0.0, "name": "134148f08789e146e4469f59ea4c63d6", "is_reserved": 0, "rental_uris": {"android": "https://dc.lft.to/lastmile_qr_scan", "ios": "https://dc.lft.to/lastmile_qr_scan"}, "fusion_lon": 0.0}, {"lat": 38.933398833333335, "is_disabled": 0, "type": "electric_scooter", "lon": -76.99306683333333, "bike_id": "28dd83b11e38135914a7862cf9a5deb2", "fusion_lat": 0.0, "name": "28dd83b11e38135914a7862cf9a5deb2", "is_reserved": 0, "rental_uris": {"android": "https://dc.lft.to/lastmile_qr_scan", "ios": "https://dc.lft.to/lastmile_qr_scan"}, "fusion_lon": 0.0}, {"lat": 38.9144835, "is_disabled": 0, "type": "electric_scooter", "lon": -77.02969366666666, "bike_id": "06c6137f7a14f631ed57c774712b4fb0", "fusion_lat": 0.0, "name": "06c6137f7a14f631ed57c774712b4fb0", "is_reserved": 0, "rental_uris": {"android": "https://dc.lft.to/lastmile_qr_scan", "ios": "https://dc.lft.to/lastmile_qr_scan"}, "fusion_lon": 0.0}, {"lat": 38.900081166666666, "is_disabled": 0, "type": "electric_scooter", "lon": -76.9223175, "bike_id": "d7c16fa7b8a27e59abfefa2913a8c8c0", "fusion_lat": 0.0, "name": "d7c16fa7b8a27e59abfefa2913a8c8c0", "is_reserved": 0, "rental_uris": {"android": "https://dc.lft.to/lastmile_qr_scan", "ios": "https://dc.lft.to/lastmile_qr_scan"}, "fusion_lon": 0.0}, {"lat": 38.9309575, "is_disabled": 0, "type": "electric_scooter", "lon": -77.02667016666666, "bike_id": "c09f498f16c989a585a86bbd16a60e03", "fusion_lat": 0.0, "name": "c09f498f16c989a585a86bbd16a60e03", "is_reserved": 0, "rental_uris": {"android": "https://dc.lft.to/lastmile_qr_scan", "ios": "https://dc.lft.to/lastmile_qr_scan"}, "fusion_lon": 0.0}, {"lat": 38.92749033333333, "is_disabled": 0, "type": "electric_scooter", "lon": -77.02959233333333, "bike_id": "f68ac12af96c5feae6222b15bcb91878", "fusion_lat": 0.0, "name": "f68ac12af96c5feae6222b15bcb91878", "is_reserved": 0, "rental_uris": {"android": "https://dc.lft.to/lastmile_qr_scan", "ios": "https://dc.lft.to/lastmile_qr_scan"}, "fusion_lon": 0.0}, {"lat": 38.900755833333335, "is_disabled": 0, "type": "electric_scooter", "lon": -77.02592933333334, "bike_id": "7cee5eb80359a4ad087b4df1b0c4b137", "fusion_lat": 0.0, "name": "7cee5eb80359a4ad087b4df1b0c4b137", "is_reserved": 0, "rental_uris": {"android": "https://dc.lft.to/lastmile_qr_scan", "ios": "https://dc.lft.to/lastmile_qr_scan"}, "fusion_lon": 0.0}, {"lat": 38.931424, "is_disabled": 0, "type": "electric_scooter", "lon": -77.0215445, "bike_id": "ad3fbfecd4bcbcbcbce968d9033c25a7", "fusion_lat": 0.0, "name": "ad3fbfecd4bcbcbcbce968d9033c25a7", "is_reserved": 0, "rental_uris": {"android": "https://dc.lft.to/lastmile_qr_scan", "ios": "https://dc.lft.to/lastmile_qr_scan"}, "fusion_lon": 0.0}, {"lat": 38.94432616666667, "is_disabled": 0, "type": "electric_scooter", "lon": -77.01508433333333, "bike_id": "816324bb01856df82522054a69ac811d", "fusion_lat": 0.0, "name": "816324bb01856df82522054a69ac811d", "is_reserved": 0, "rental_uris": {"android": "https://dc.lft.to/lastmile_qr_scan", "ios": "https://dc.lft.to/lastmile_qr_scan"}, "fusion_lon": 0.0}, {"lat": 38.9900575, "is_disabled": 0, "type": "electric_bike", "lon": -77.0044025, "bike_id": "f96d07c4e1fa701e169d9d7d0da9101a", "fusion_lat": 0.0, "name": "f96d07c4e1fa701e169d9d7d0da9101a", "is_reserved": 0, "rental_uris": {"android": "https://dc.lft.to/lastmile_qr_scan", "ios": "https://dc.lft.to/lastmile_qr_scan"}, "fusion_lon": 0.0}, {"lat": 38.8551455, "is_disabled": 0, "type": "electric_bike", "lon": -77.12017183333333, "bike_id": "48447919665bf1b1c0beadcc224d9d03", "fusion_lat": 0.0, "name": "48447919665bf1b1c0beadcc224d9d03", "is_reserved": 0, "rental_uris": {"android": "https://dc.lft.to/lastmile_qr_scan", "ios": "https://dc.lft.to/lastmile_qr_scan"}, "fusion_lon": 0.0}, {"lat": 38.9009105, "is_disabled": 0, "type": "electric_scooter", "lon": -77.0249875, "bike_id": "2bfe2c99d8939d9e70ba731d6c1ae16f", "fusion_lat": 0.0, "name": "2bfe2c99d8939d9e70ba731d6c1ae16f", "is_reserved": 0, "rental_uris": {"android": "https://dc.lft.to/lastmile_qr_scan", "ios": "https://dc.lft.to/lastmile_qr_scan"}, "fusion_lon": 0.0}, {"lat": 38.93187183333333, "is_disabled": 0, "type": "electric_scooter", "lon": -77.03659766666667, "bike_id": "2b3ad203cbecf9d489b17a4132310c17", "fusion_lat": 0.0, "name": "2b3ad203cbecf9d489b17a4132310c17", "is_reserved": 0, "rental_uris": {"android": "https://dc.lft.to/lastmile_qr_scan", "ios": "https://dc.lft.to/lastmile_qr_scan"}, "fusion_lon": 0.0}, {"lat": 38.91886233333334, "is_disabled": 0, "type": "electric_scooter", "lon": -77.0349445, "bike_id": "efa1e2a6dcb4dc392b470e999557a4c8", "fusion_lat": 0.0, "name": "efa1e2a6dcb4dc392b470e999557a4c8", "is_reserved": 0, "rental_uris": {"android": "https://dc.lft.to/lastmile_qr_scan", "ios": "https://dc.lft.to/lastmile_qr_scan"}, "fusion_lon": 0.0}, {"lat": 38.8519215, "is_disabled": 0, "type": "electric_bike", "lon": -76.96110166666666, "bike_id": "87c7e5ad9088a83832c946067bcc27a4", "fusion_lat": 0.0, "name": "87c7e5ad9088a83832c946067bcc27a4", "is_reserved": 0, "rental_uris": {"android": "https://dc.lft.to/lastmile_qr_scan", "ios": "https://dc.lft.to/lastmile_qr_scan"}, "fusion_lon": 0.0}, {"lat": 38.923495, "is_disabled": 0, "type": "electric_scooter", "lon": -77.033985, "bike_id": "5daeffd3e85d94c9c8fa28d8bf92f8cd", "fusion_lat": 0.0, "name": "5daeffd3e85d94c9c8fa28d8bf92f8cd", "is_reserved": 0, "rental_uris": {"android": "https://dc.lft.to/lastmile_qr_scan", "ios": "https://dc.lft.to/lastmile_qr_scan"}, "fusion_lon": 0.0}, {"lat": 38.9332155, "is_disabled": 0, "type": "electric_scooter", "lon": -77.04361283333333, "bike_id": "0907ae74145796f0a91eb1ae437c15c9", "fusion_lat": 0.0, "name": "0907ae74145796f0a91eb1ae437c15c9", "is_reserved": 0, "rental_uris": {"android": "https://dc.lft.to/lastmile_qr_scan", "ios": "https://dc.lft.to/lastmile_qr_scan"}, "fusion_lon": 0.0}, {"lat": 38.896815833333335, "is_disabled": 0, "type": "electric_bike", "lon": -77.02417533333333, "bike_id": "b590c65b3fe0c089b8b21512e4658c5d", "fusion_lat": 0.0, "name": "b590c65b3fe0c089b8b21512e4658c5d", "is_reserved": 0, "rental_uris": {"android": "https://dc.lft.to/lastmile_qr_scan", "ios": "https://dc.lft.to/lastmile_qr_scan"}, "fusion_lon": 0.0}, {"lat": 38.917292833333335, "is_disabled": 0, "type": "electric_scooter", "lon": -77.04590183333333, "bike_id": "6099c9527c2c5c61e44f3e5a509fec77", "fusion_lat": 0.0, "name": "6099c9527c2c5c61e44f3e5a509fec77", "is_reserved": 0, "rental_uris": {"android": "https://dc.lft.to/lastmile_qr_scan", "ios": "https://dc.lft.to/lastmile_qr_scan"}, "fusion_lon": 0.0}, {"lat": 38.855743, "is_disabled": 0, "type": "electric_bike", "lon": -77.111401, "bike_id": "3a3e0173895c5d7d51ce98c4951a841f", "fusion_lat": 0.0, "name": "3a3e0173895c5d7d51ce98c4951a841f", "is_reserved": 0, "rental_uris": {"android": "https://dc.lft.to/lastmile_qr_scan", "ios": "https://dc.lft.to/lastmile_qr_scan"}, "fusion_lon": 0.0}, {"lat": 38.89813766666666, "is_disabled": 0, "type": "electric_scooter", "lon": -77.03012683333333, "bike_id": "e5fb2195995caa292b04399cf537bc7b", "fusion_lat": 0.0, "name": "e5fb2195995caa292b04399cf537bc7b", "is_reserved": 0, "rental_uris": {"android": "https://dc.lft.to/lastmile_qr_scan", "ios": "https://dc.lft.to/lastmile_qr_scan"}, "fusion_lon": 0.0}, {"lat": 38.919519333333334, "is_disabled": 0, "type": "electric_scooter", "lon": -76.9807885, "bike_id": "43a9c13e98327fa005e93f5f2606bb9f", "fusion_lat": 0.0, "name": "43a9c13e98327fa005e93f5f2606bb9f", "is_reserved": 0, "rental_uris": {"android": "https://dc.lft.to/lastmile_qr_scan", "ios": "https://dc.lft.to/lastmile_qr_scan"}, "fusion_lon": 0.0}, {"lat": 38.9024885, "is_disabled": 0, "type": "electric_scooter", "lon": -77.0280105, "bike_id": "b4f650cb8971b914275cf2b0be81d263", "fusion_lat": 0.0, "name": "b4f650cb8971b914275cf2b0be81d263", "is_reserved": 0, "rental_uris": {"android": "https://dc.lft.to/lastmile_qr_scan", "ios": "https://dc.lft.to/lastmile_qr_scan"}, "fusion_lon": 0.0}, {"lat": 38.94116116666667, "is_disabled": 0, "type": "electric_scooter", "lon": -77.00058216666666, "bike_id": "e18e381322ff48e7075ac225ed568fc0", "fusion_lat": 0.0, "name": "e18e381322ff48e7075ac225ed568fc0", "is_reserved": 0, "rental_uris": {"android": "https://dc.lft.to/lastmile_qr_scan", "ios": "https://dc.lft.to/lastmile_qr_scan"}, "fusion_lon": 0.0}, {"lat": 38.932507666666666, "is_disabled": 0, "type": "electric_scooter", "lon": -77.032657, "bike_id": "a4d1b18a67672863254269880e184f14", "fusion_lat": 0.0, "name": "a4d1b18a67672863254269880e184f14", "is_reserved": 0, "rental_uris": {"android": "https://dc.lft.to/lastmile_qr_scan", "ios": "https://dc.lft.to/lastmile_qr_scan"}, "fusion_lon": 0.0}, {"lat": 38.90623766666667, "is_disabled": 0, "type": "electric_scooter", "lon": -77.062699, "bike_id": "589904ff6569a3c7c3ed6d19274993f1", "fusion_lat": 0.0, "name": "589904ff6569a3c7c3ed6d19274993f1", "is_reserved": 0, "rental_uris": {"android": "https://dc.lft.to/lastmile_qr_scan", "ios": "https://dc.lft.to/lastmile_qr_scan"}, "fusion_lon": 0.0}, {"lat": 38.98828683333333, "is_disabled": 0, "type": "electric_bike", "lon": -76.99649066666667, "bike_id": "ff116f3abd406a5d97b922f6a1fbd65f", "fusion_lat": 0.0, "name": "ff116f3abd406a5d97b922f6a1fbd65f", "is_reserved": 0, "rental_uris": {"android": "https://dc.lft.to/lastmile_qr_scan", "ios": "https://dc.lft.to/lastmile_qr_scan"}, "fusion_lon": 0.0}, {"lat": 38.915118166666666, "is_disabled": 0, "type": "electric_scooter", "lon": -77.02962033333333, "bike_id": "40a0aeb9397c8601f633fecd30a843c7", "fusion_lat": 0.0, "name": "40a0aeb9397c8601f633fecd30a843c7", "is_reserved": 0, "rental_uris": {"android": "https://dc.lft.to/lastmile_qr_scan", "ios": "https://dc.lft.to/lastmile_qr_scan"}, "fusion_lon": 0.0}, {"lat": 38.88362983333333, "is_disabled": 0, "type": "electric_scooter", "lon": -76.94153116666666, "bike_id": "ada2decebf4e4671884e5cf45b9888b7", "fusion_lat": 0.0, "name": "ada2decebf4e4671884e5cf45b9888b7", "is_reserved": 0, "rental_uris": {"android": "https://dc.lft.to/lastmile_qr_scan", "ios": "https://dc.lft.to/lastmile_qr_scan"}, "fusion_lon": 0.0}, {"lat": 38.9048, "is_disabled": 0, "type": "electric_scooter", "lon": -77.00216716666667, "bike_id": "7f3a5615aa3a5d10c7ca7f7474942a84", "fusion_lat": 0.0, "name": "7f3a5615aa3a5d10c7ca7f7474942a84", "is_reserved": 0, "rental_uris": {"android": "https://dc.lft.to/lastmile_qr_scan", "ios": "https://dc.lft.to/lastmile_qr_scan"}, "fusion_lon": 0.0}, {"lat": 38.95877933333333, "is_disabled": 0, "type": "electric_bike", "lon": -76.92481366666667, "bike_id": "a151d9a971fdd0e7b40a001b7deb808a", "fusion_lat": 0.0, "name": "a151d9a971fdd0e7b40a001b7deb808a", "is_reserved": 0, "rental_uris": {"android": "https://dc.lft.to/lastmile_qr_scan", "ios": "https://dc.lft.to/lastmile_qr_scan"}, "fusion_lon": 0.0}, {"lat": 38.917643, "is_disabled": 0, "type": "electric_scooter", "lon": -76.9762825, "bike_id": "a9d9b1bb318ee34477536286e615e143", "fusion_lat": 0.0, "name": "a9d9b1bb318ee34477536286e615e143", "is_reserved": 0, "rental_uris": {"android": "https://dc.lft.to/lastmile_qr_scan", "ios": "https://dc.lft.to/lastmile_qr_scan"}, "fusion_lon": 0.0}, {"lat": 38.9192605, "is_disabled": 0, "type": "electric_scooter", "lon": -77.03187133333333, "bike_id": "30f72e96a22f63616e94dc904815f001", "fusion_lat": 0.0, "name": "30f72e96a22f63616e94dc904815f001", "is_reserved": 0, "rental_uris": {"android": "https://dc.lft.to/lastmile_qr_scan", "ios": "https://dc.lft.to/lastmile_qr_scan"}, "fusion_lon": 0.0}, {"lat": 38.9167825, "is_disabled": 0, "type": "electric_scooter", "lon": -77.00201383333334, "bike_id": "aed56f6517603b305d7fe98797cc4ec5", "fusion_lat": 0.0, "name": "aed56f6517603b305d7fe98797cc4ec5", "is_reserved": 0, "rental_uris": {"android": "https://dc.lft.to/lastmile_qr_scan", "ios": "https://dc.lft.to/lastmile_qr_scan"}, "fusion_lon": 0.0}, {"lat": 38.91538533333333, "is_disabled": 0, "type": "electric_scooter", "lon": -77.038373, "bike_id": "f89d542545e2f38ba4d396914f873d8c", "fusion_lat": 0.0, "name": "f89d542545e2f38ba4d396914f873d8c", "is_reserved": 0, "rental_uris": {"android": "https://dc.lft.to/lastmile_qr_scan", "ios": "https://dc.lft.to/lastmile_qr_scan"}, "fusion_lon": 0.0}, {"lat": 38.89493483333333, "is_disabled": 0, "type": "electric_scooter", "lon": -77.01101316666667, "bike_id": "5a3e52a287d4e7bba12c9c0c786ca4f7", "fusion_lat": 0.0, "name": "5a3e52a287d4e7bba12c9c0c786ca4f7", "is_reserved": 0, "rental_uris": {"android": "https://dc.lft.to/lastmile_qr_scan", "ios": "https://dc.lft.to/lastmile_qr_scan"}, "fusion_lon": 0.0}, {"lat": 38.9238365, "is_disabled": 0, "type": "electric_scooter", "lon": -77.036506, "bike_id": "66a44d0165ff470f33d5801e551348d0", "fusion_lat": 0.0, "name": "66a44d0165ff470f33d5801e551348d0", "is_reserved": 0, "rental_uris": {"android": "https://dc.lft.to/lastmile_qr_scan", "ios": "https://dc.lft.to/lastmile_qr_scan"}, "fusion_lon": 0.0}, {"lat": 38.91749033333333, "is_disabled": 0, "type": "electric_scooter", "lon": -77.03661033333333, "bike_id": "af97dd6416de0f00ff90080235a37b0f", "fusion_lat": 0.0, "name": "af97dd6416de0f00ff90080235a37b0f", "is_reserved": 0, "rental_uris": {"android": "https://dc.lft.to/lastmile_qr_scan", "ios": "https://dc.lft.to/lastmile_qr_scan"}, "fusion_lon": 0.0}, {"lat": 38.918684666666664, "is_disabled": 0, "type": "electric_scooter", "lon": -77.04027066666667, "bike_id": "a053827efb21c3b3b4798f9bdf167695", "fusion_lat": 0.0, "name": "a053827efb21c3b3b4798f9bdf167695", "is_reserved": 0, "rental_uris": {"android": "https://dc.lft.to/lastmile_qr_scan", "ios": "https://dc.lft.to/lastmile_qr_scan"}, "fusion_lon": 0.0}, {"lat": 38.919895, "is_disabled": 0, "type": "electric_scooter", "lon": -77.03973933333333, "bike_id": "729b3511d6039873aa8fe744744caf70", "fusion_lat": 0.0, "name": "729b3511d6039873aa8fe744744caf70", "is_reserved": 0, "rental_uris": {"android": "https://dc.lft.to/lastmile_qr_scan", "ios": "https://dc.lft.to/lastmile_qr_scan"}, "fusion_lon": 0.0}, {"lat": 38.9079295, "is_disabled": 0, "type": "electric_scooter", "lon": -76.996941, "bike_id": "83e64eb2222bfa7fb96f0592c03c4bb8", "fusion_lat": 0.0, "name": "83e64eb2222bfa7fb96f0592c03c4bb8", "is_reserved": 0, "rental_uris": {"android": "https://dc.lft.to/lastmile_qr_scan", "ios": "https://dc.lft.to/lastmile_qr_scan"}, "fusion_lon": 0.0}, {"lat": 38.93698166666667, "is_disabled": 0, "type": "electric_bike", "lon": -77.029776, "bike_id": "d2f0815f278eb4ffe8bdaa6e5a7c693c", "fusion_lat": 0.0, "name": "d2f0815f278eb4ffe8bdaa6e5a7c693c", "is_reserved": 0, "rental_uris": {"android": "https://dc.lft.to/lastmile_qr_scan", "ios": "https://dc.lft.to/lastmile_qr_scan"}, "fusion_lon": 0.0}, {"lat": 38.901445333333335, "is_disabled": 0, "type": "electric_scooter", "lon": -77.041294, "bike_id": "9ae52ce911921728efd70775586aa1fd", "fusion_lat": 0.0, "name": "9ae52ce911921728efd70775586aa1fd", "is_reserved": 0, "rental_uris": {"android": "https://dc.lft.to/lastmile_qr_scan", "ios": "https://dc.lft.to/lastmile_qr_scan"}, "fusion_lon": 0.0}, {"lat": 38.901837666666665, "is_disabled": 0, "type": "electric_scooter", "lon": -77.0247965, "bike_id": "e0bbfde6d7d9cad84684e2d23028d82d", "fusion_lat": 0.0, "name": "e0bbfde6d7d9cad84684e2d23028d82d", "is_reserved": 0, "rental_uris": {"android": "https://dc.lft.to/lastmile_qr_scan", "ios": "https://dc.lft.to/lastmile_qr_scan"}, "fusion_lon": 0.0}, {"lat": 38.908508166666664, "is_disabled": 0, "type": "electric_bike", "lon": -77.00170716666666, "bike_id": "d8425472a56affb77e3609eabf36c047", "fusion_lat": 0.0, "name": "d8425472a56affb77e3609eabf36c047", "is_reserved": 0, "rental_uris": {"android": "https://dc.lft.to/lastmile_qr_scan", "ios": "https://dc.lft.to/lastmile_qr_scan"}, "fusion_lon": 0.0}, {"lat": 38.857315666666665, "is_disabled": 0, "type": "electric_scooter", "lon": -76.99439416666667, "bike_id": "9757ad2ed252d7fac87db27894e338bd", "fusion_lat": 0.0, "name": "9757ad2ed252d7fac87db27894e338bd", "is_reserved": 0, "rental_uris": {"android": "https://dc.lft.to/lastmile_qr_scan", "ios": "https://dc.lft.to/lastmile_qr_scan"}, "fusion_lon": 0.0}, {"lat": 38.94439116666667, "is_disabled": 0, "type": "electric_scooter", "lon": -77.02337516666667, "bike_id": "affdba651f93e1a0ffb4b7ab4a6e40ed", "fusion_lat": 0.0, "name": "affdba651f93e1a0ffb4b7ab4a6e40ed", "is_reserved": 0, "rental_uris": {"android": "https://dc.lft.to/lastmile_qr_scan", "ios": "https://dc.lft.to/lastmile_qr_scan"}, "fusion_lon": 0.0}, {"lat": 38.92069166666667, "is_disabled": 0, "type": "electric_scooter", "lon": -77.04235716666666, "bike_id": "cb5ba6a85a3567640f93e242d7da31ed", "fusion_lat": 0.0, "name": "cb5ba6a85a3567640f93e242d7da31ed", "is_reserved": 0, "rental_uris": {"android": "https://dc.lft.to/lastmile_qr_scan", "ios": "https://dc.lft.to/lastmile_qr_scan"}, "fusion_lon": 0.0}, {"lat": 38.91676283333334, "is_disabled": 0, "type": "electric_scooter", "lon": -77.03052883333334, "bike_id": "c9297b000401327fff9f4b1bbea40d69", "fusion_lat": 0.0, "name": "c9297b000401327fff9f4b1bbea40d69", "is_reserved": 0, "rental_uris": {"android": "https://dc.lft.to/lastmile_qr_scan", "ios": "https://dc.lft.to/lastmile_qr_scan"}, "fusion_lon": 0.0}, {"lat": 38.866159, "is_disabled": 0, "type": "electric_bike", "lon": -76.94568816666667, "bike_id": "486304adc96b75f3e821907c29d86531", "fusion_lat": 0.0, "name": "486304adc96b75f3e821907c29d86531", "is_reserved": 0, "rental_uris": {"android": "https://dc.lft.to/lastmile_qr_scan", "ios": "https://dc.lft.to/lastmile_qr_scan"}, "fusion_lon": 0.0}, {"lat": 38.9309935, "is_disabled": 0, "type": "electric_scooter", "lon": -77.03264733333333, "bike_id": "c69018aeac07f04c6c403b7bd4494e40", "fusion_lat": 0.0, "name": "c69018aeac07f04c6c403b7bd4494e40", "is_reserved": 0, "rental_uris": {"android": "https://dc.lft.to/lastmile_qr_scan", "ios": "https://dc.lft.to/lastmile_qr_scan"}, "fusion_lon": 0.0}, {"lat": 38.9595585, "is_disabled": 0, "type": "electric_bike", "lon": -77.10089633333334, "bike_id": "59ea7327f2678066b79aa9fb5254dce0", "fusion_lat": 0.0, "name": "59ea7327f2678066b79aa9fb5254dce0", "is_reserved": 0, "rental_uris": {"android": "https://dc.lft.to/lastmile_qr_scan", "ios": "https://dc.lft.to/lastmile_qr_scan"}, "fusion_lon": 0.0}, {"lat": 38.91918016666666, "is_disabled": 0, "type": "electric_scooter", "lon": -77.04794133333333, "bike_id": "c03ff0c8286f663ab16c3812c373e9ba", "fusion_lat": 0.0, "name": "c03ff0c8286f663ab16c3812c373e9ba", "is_reserved": 0, "rental_uris": {"android": "https://dc.lft.to/lastmile_qr_scan", "ios": "https://dc.lft.to/lastmile_qr_scan"}, "fusion_lon": 0.0}, {"lat": 38.917829166666664, "is_disabled": 0, "type": "electric_scooter", "lon": -77.0429305, "bike_id": "246177a6f5930d2824b90c282439e210", "fusion_lat": 0.0, "name": "246177a6f5930d2824b90c282439e210", "is_reserved": 0, "rental_uris": {"android": "https://dc.lft.to/lastmile_qr_scan", "ios": "https://dc.lft.to/lastmile_qr_scan"}, "fusion_lon": 0.0}, {"lat": 38.89886966666667, "is_disabled": 0, "type": "electric_scooter", "lon": -77.0320785, "bike_id": "02820c4282a5b6714af0c77d5205f409", "fusion_lat": 0.0, "name": "02820c4282a5b6714af0c77d5205f409", "is_reserved": 0, "rental_uris": {"android": "https://dc.lft.to/lastmile_qr_scan", "ios": "https://dc.lft.to/lastmile_qr_scan"}, "fusion_lon": 0.0}, {"lat": 38.89230366666666, "is_disabled": 0, "type": "electric_scooter", "lon": -77.050049, "bike_id": "5080b513cab61cb2067e639418bf9010", "fusion_lat": 0.0, "name": "5080b513cab61cb2067e639418bf9010", "is_reserved": 0, "rental_uris": {"android": "https://dc.lft.to/lastmile_qr_scan", "ios": "https://dc.lft.to/lastmile_qr_scan"}, "fusion_lon": 0.0}, {"lat": 38.89684416666667, "is_disabled": 0, "type": "electric_scooter", "lon": -76.9353755, "bike_id": "f1912dd39d7d0c4eddb7d48bc25b8dca", "fusion_lat": 0.0, "name": "f1912dd39d7d0c4eddb7d48bc25b8dca", "is_reserved": 0, "rental_uris": {"android": "https://dc.lft.to/lastmile_qr_scan", "ios": "https://dc.lft.to/lastmile_qr_scan"}, "fusion_lon": 0.0}, {"lat": 38.90044783333333, "is_disabled": 0, "type": "electric_scooter", "lon": -77.00217466666666, "bike_id": "57deb87ea37fae803def199b2c06f70c", "fusion_lat": 0.0, "name": "57deb87ea37fae803def199b2c06f70c", "is_reserved": 0, "rental_uris": {"android": "https://dc.lft.to/lastmile_qr_scan", "ios": "https://dc.lft.to/lastmile_qr_scan"}, "fusion_lon": 0.0}, {"lat": 38.89222516666667, "is_disabled": 0, "type": "electric_scooter", "lon": -77.04876883333333, "bike_id": "afc539c905fc782644ed8af29ba267ab", "fusion_lat": 0.0, "name": "afc539c905fc782644ed8af29ba267ab", "is_reserved": 0, "rental_uris": {"android": "https://dc.lft.to/lastmile_qr_scan", "ios": "https://dc.lft.to/lastmile_qr_scan"}, "fusion_lon": 0.0}, {"lat": 38.9186125, "is_disabled": 0, "type": "electric_scooter", "lon": -77.045912, "bike_id": "c6802a4318b9098b3134377a24714483", "fusion_lat": 0.0, "name": "c6802a4318b9098b3134377a24714483", "is_reserved": 0, "rental_uris": {"android": "https://dc.lft.to/lastmile_qr_scan", "ios": "https://dc.lft.to/lastmile_qr_scan"}, "fusion_lon": 0.0}, {"lat": 38.9615415, "is_disabled": 0, "type": "electric_scooter", "lon": -77.0278415, "bike_id": "01ea2797543939d6dc4933eff194464b", "fusion_lat": 0.0, "name": "01ea2797543939d6dc4933eff194464b", "is_reserved": 0, "rental_uris": {"android": "https://dc.lft.to/lastmile_qr_scan", "ios": "https://dc.lft.to/lastmile_qr_scan"}, "fusion_lon": 0.0}, {"lat": 38.91492866666667, "is_disabled": 0, "type": "electric_scooter", "lon": -77.032609, "bike_id": "d5193d288222f750b24139758dd5bef3", "fusion_lat": 0.0, "name": "d5193d288222f750b24139758dd5bef3", "is_reserved": 0, "rental_uris": {"android": "https://dc.lft.to/lastmile_qr_scan", "ios": "https://dc.lft.to/lastmile_qr_scan"}, "fusion_lon": 0.0}, {"lat": 38.908788, "is_disabled": 0, "type": "electric_scooter", "lon": -77.04397633333333, "bike_id": "cadfffbeb3f586244e661d4b98cbd306", "fusion_lat": 0.0, "name": "cadfffbeb3f586244e661d4b98cbd306", "is_reserved": 0, "rental_uris": {"android": "https://dc.lft.to/lastmile_qr_scan", "ios": "https://dc.lft.to/lastmile_qr_scan"}, "fusion_lon": 0.0}, {"lat": 38.920644, "is_disabled": 0, "type": "electric_scooter", "lon": -77.04337683333334, "bike_id": "b57c27cf8d937bf01120c55124f87784", "fusion_lat": 0.0, "name": "b57c27cf8d937bf01120c55124f87784", "is_reserved": 0, "rental_uris": {"android": "https://dc.lft.to/lastmile_qr_scan", "ios": "https://dc.lft.to/lastmile_qr_scan"}, "fusion_lon": 0.0}, {"lat": 38.91326383333333, "is_disabled": 0, "type": "electric_scooter", "lon": -77.03272383333334, "bike_id": "d962d98448bb7bc50786617591829c0c", "fusion_lat": 0.0, "name": "d962d98448bb7bc50786617591829c0c", "is_reserved": 0, "rental_uris": {"android": "https://dc.lft.to/lastmile_qr_scan", "ios": "https://dc.lft.to/lastmile_qr_scan"}, "fusion_lon": 0.0}, {"lat": 38.87231333333333, "is_disabled": 0, "type": "electric_bike", "lon": -77.01171766666667, "bike_id": "d9b7d20a5c162b6bcc7b1f3d04fcf6bd", "fusion_lat": 0.0, "name": "d9b7d20a5c162b6bcc7b1f3d04fcf6bd", "is_reserved": 0, "rental_uris": {"android": "https://dc.lft.to/lastmile_qr_scan", "ios": "https://dc.lft.to/lastmile_qr_scan"}, "fusion_lon": 0.0}, {"lat": 38.91673316666667, "is_disabled": 0, "type": "electric_scooter", "lon": -77.03334066666666, "bike_id": "f47891a651bfbcc36063efe40da96efc", "fusion_lat": 0.0, "name": "f47891a651bfbcc36063efe40da96efc", "is_reserved": 0, "rental_uris": {"android": "https://dc.lft.to/lastmile_qr_scan", "ios": "https://dc.lft.to/lastmile_qr_scan"}, "fusion_lon": 0.0}, {"lat": 38.890419333333334, "is_disabled": 0, "type": "electric_scooter", "lon": -76.95245666666666, "bike_id": "72e08034888f8e2a871bc9b94badfde5", "fusion_lat": 0.0, "name": "72e08034888f8e2a871bc9b94badfde5", "is_reserved": 0, "rental_uris": {"android": "https://dc.lft.to/lastmile_qr_scan", "ios": "https://dc.lft.to/lastmile_qr_scan"}, "fusion_lon": 0.0}, {"lat": 38.93207966666667, "is_disabled": 0, "type": "electric_scooter", "lon": -77.02244766666666, "bike_id": "3175ebc9d6126da5b004db2bf5ebdead", "fusion_lat": 0.0, "name": "3175ebc9d6126da5b004db2bf5ebdead", "is_reserved": 0, "rental_uris": {"android": "https://dc.lft.to/lastmile_qr_scan", "ios": "https://dc.lft.to/lastmile_qr_scan"}, "fusion_lon": 0.0}, {"lat": 38.90839533333333, "is_disabled": 0, "type": "electric_scooter", "lon": -77.00249283333333, "bike_id": "db9a79b8157c2969ec821f577b4e09f3", "fusion_lat": 0.0, "name": "db9a79b8157c2969ec821f577b4e09f3", "is_reserved": 0, "rental_uris": {"android": "https://dc.lft.to/lastmile_qr_scan", "ios": "https://dc.lft.to/lastmile_qr_scan"}, "fusion_lon": 0.0}, {"lat": 38.92554583333333, "is_disabled": 0, "type": "electric_scooter", "lon": -77.03342133333334, "bike_id": "13ca226cd518d8e5b09b9b707ceb02dc", "fusion_lat": 0.0, "name": "13ca226cd518d8e5b09b9b707ceb02dc", "is_reserved": 0, "rental_uris": {"android": "https://dc.lft.to/lastmile_qr_scan", "ios": "https://dc.lft.to/lastmile_qr_scan"}, "fusion_lon": 0.0}, {"lat": 38.8981445, "is_disabled": 0, "type": "electric_scooter", "lon": -76.99690783333334, "bike_id": "79f6d2aa77bb465a87f8884715c6c1b2", "fusion_lat": 0.0, "name": "79f6d2aa77bb465a87f8884715c6c1b2", "is_reserved": 0, "rental_uris": {"android": "https://dc.lft.to/lastmile_qr_scan", "ios": "https://dc.lft.to/lastmile_qr_scan"}, "fusion_lon": 0.0}, {"lat": 38.924789, "is_disabled": 0, "type": "electric_scooter", "lon": -77.02838333333334, "bike_id": "0324ed9c84807eba2fa52f0fcfb4636a", "fusion_lat": 0.0, "name": "0324ed9c84807eba2fa52f0fcfb4636a", "is_reserved": 0, "rental_uris": {"android": "https://dc.lft.to/lastmile_qr_scan", "ios": "https://dc.lft.to/lastmile_qr_scan"}, "fusion_lon": 0.0}, {"lat": 38.884035, "is_disabled": 0, "type": "electric_bike", "lon": -76.95417533333334, "bike_id": "d8fcf5436a1cec1e8a65abee08b1f502", "fusion_lat": 0.0, "name": "d8fcf5436a1cec1e8a65abee08b1f502", "is_reserved": 0, "rental_uris": {"android": "https://dc.lft.to/lastmile_qr_scan", "ios": "https://dc.lft.to/lastmile_qr_scan"}, "fusion_lon": 0.0}, {"lat": 38.919622333333336, "is_disabled": 0, "type": "electric_scooter", "lon": -77.01209966666667, "bike_id": "55c60996085ef2685799742d2568ad6f", "fusion_lat": 0.0, "name": "55c60996085ef2685799742d2568ad6f", "is_reserved": 0, "rental_uris": {"android": "https://dc.lft.to/lastmile_qr_scan", "ios": "https://dc.lft.to/lastmile_qr_scan"}, "fusion_lon": 0.0}, {"lat": 38.88737233333333, "is_disabled": 0, "type": "electric_scooter", "lon": -77.01535366666667, "bike_id": "d1206d91d50f58a05ef5a176492abff7", "fusion_lat": 0.0, "name": "d1206d91d50f58a05ef5a176492abff7", "is_reserved": 0, "rental_uris": {"android": "https://dc.lft.to/lastmile_qr_scan", "ios": "https://dc.lft.to/lastmile_qr_scan"}, "fusion_lon": 0.0}, {"lat": 38.8888825, "is_disabled": 0, "type": "electric_scooter", "lon": -76.93153033333333, "bike_id": "94a4ebfa22693cb9f8fd825102b4f908", "fusion_lat": 0.0, "name": "94a4ebfa22693cb9f8fd825102b4f908", "is_reserved": 0, "rental_uris": {"android": "https://dc.lft.to/lastmile_qr_scan", "ios": "https://dc.lft.to/lastmile_qr_scan"}, "fusion_lon": 0.0}, {"lat": 38.931737166666665, "is_disabled": 0, "type": "electric_scooter", "lon": -77.0281535, "bike_id": "2f24ef8af78c7b4528e8d9e3ea69357e", "fusion_lat": 0.0, "name": "2f24ef8af78c7b4528e8d9e3ea69357e", "is_reserved": 0, "rental_uris": {"android": "https://dc.lft.to/lastmile_qr_scan", "ios": "https://dc.lft.to/lastmile_qr_scan"}, "fusion_lon": 0.0}, {"lat": 38.9615235, "is_disabled": 0, "type": "electric_scooter", "lon": -77.02772816666666, "bike_id": "2c93e6d5f7beb0f0cb77651d8a871249", "fusion_lat": 0.0, "name": "2c93e6d5f7beb0f0cb77651d8a871249", "is_reserved": 0, "rental_uris": {"android": "https://dc.lft.to/lastmile_qr_scan", "ios": "https://dc.lft.to/lastmile_qr_scan"}, "fusion_lon": 0.0}, {"lat": 39.0563605, "is_disabled": 0, "type": "electric_bike", "lon": -77.12531, "bike_id": "2248a895ff8d2ab0e216092f0deaf7c9", "fusion_lat": 0.0, "name": "2248a895ff8d2ab0e216092f0deaf7c9", "is_reserved": 0, "rental_uris": {"android": "https://dc.lft.to/lastmile_qr_scan", "ios": "https://dc.lft.to/lastmile_qr_scan"}, "fusion_lon": 0.0}, {"lat": 38.907206, "is_disabled": 0, "type": "electric_scooter", "lon": -77.04644716666667, "bike_id": "dc81033410c98bf20e0d70fbefd5a7d1", "fusion_lat": 0.0, "name": "dc81033410c98bf20e0d70fbefd5a7d1", "is_reserved": 0, "rental_uris": {"android": "https://dc.lft.to/lastmile_qr_scan", "ios": "https://dc.lft.to/lastmile_qr_scan"}, "fusion_lon": 0.0}, {"lat": 38.911817666666664, "is_disabled": 0, "type": "electric_scooter", "lon": -77.0429455, "bike_id": "c4332f226ab3ed275e3eafced50953c6", "fusion_lat": 0.0, "name": "c4332f226ab3ed275e3eafced50953c6", "is_reserved": 0, "rental_uris": {"android": "https://dc.lft.to/lastmile_qr_scan", "ios": "https://dc.lft.to/lastmile_qr_scan"}, "fusion_lon": 0.0}, {"lat": 38.936577166666666, "is_disabled": 0, "type": "electric_bike", "lon": -76.95220616666667, "bike_id": "e419451594bac20bfe57d67e52b42941", "fusion_lat": 0.0, "name": "e419451594bac20bfe57d67e52b42941", "is_reserved": 0, "rental_uris": {"android": "https://dc.lft.to/lastmile_qr_scan", "ios": "https://dc.lft.to/lastmile_qr_scan"}, "fusion_lon": 0.0}, {"lat": 38.916636, "is_disabled": 0, "type": "electric_scooter", "lon": -76.9822475, "bike_id": "405568bf85ed7cbbf74f1f73a448ac83", "fusion_lat": 0.0, "name": "405568bf85ed7cbbf74f1f73a448ac83", "is_reserved": 0, "rental_uris": {"android": "https://dc.lft.to/lastmile_qr_scan", "ios": "https://dc.lft.to/lastmile_qr_scan"}, "fusion_lon": 0.0}, {"lat": 38.91757333333334, "is_disabled": 0, "type": "electric_scooter", "lon": -77.01473566666667, "bike_id": "3b0270b5d02c5330d5fd964816fcdc9c", "fusion_lat": 0.0, "name": "3b0270b5d02c5330d5fd964816fcdc9c", "is_reserved": 0, "rental_uris": {"android": "https://dc.lft.to/lastmile_qr_scan", "ios": "https://dc.lft.to/lastmile_qr_scan"}, "fusion_lon": 0.0}, {"lat": 38.90817416666667, "is_disabled": 0, "type": "electric_scooter", "lon": -77.04334966666667, "bike_id": "42394f37e662f9bf0635f35cd88aa184", "fusion_lat": 0.0, "name": "42394f37e662f9bf0635f35cd88aa184", "is_reserved": 0, "rental_uris": {"android": "https://dc.lft.to/lastmile_qr_scan", "ios": "https://dc.lft.to/lastmile_qr_scan"}, "fusion_lon": 0.0}, {"lat": 39.03424733333333, "is_disabled": 0, "type": "electric_bike", "lon": -77.04308083333333, "bike_id": "6eb535b0add1c310ab5419b49bcbeee0", "fusion_lat": 0.0, "name": "6eb535b0add1c310ab5419b49bcbeee0", "is_reserved": 0, "rental_uris": {"android": "https://dc.lft.to/lastmile_qr_scan", "ios": "https://dc.lft.to/lastmile_qr_scan"}, "fusion_lon": 0.0}, {"lat": 38.920313666666665, "is_disabled": 0, "type": "electric_scooter", "lon": -77.041867, "bike_id": "64c24058827d06fe6a3519bb78dad3bb", "fusion_lat": 0.0, "name": "64c24058827d06fe6a3519bb78dad3bb", "is_reserved": 0, "rental_uris": {"android": "https://dc.lft.to/lastmile_qr_scan", "ios": "https://dc.lft.to/lastmile_qr_scan"}, "fusion_lon": 0.0}, {"lat": 38.9091075, "is_disabled": 0, "type": "electric_scooter", "lon": -77.044711, "bike_id": "9c6eb1711743fa00fe4158a157dc10d2", "fusion_lat": 0.0, "name": "9c6eb1711743fa00fe4158a157dc10d2", "is_reserved": 0, "rental_uris": {"android": "https://dc.lft.to/lastmile_qr_scan", "ios": "https://dc.lft.to/lastmile_qr_scan"}, "fusion_lon": 0.0}, {"lat": 38.84430733333333, "is_disabled": 0, "type": "electric_scooter", "lon": -76.99665116666667, "bike_id": "2afa39d6ec33b61dfaa6a01ba11a9cf7", "fusion_lat": 0.0, "name": "2afa39d6ec33b61dfaa6a01ba11a9cf7", "is_reserved": 0, "rental_uris": {"android": "https://dc.lft.to/lastmile_qr_scan", "ios": "https://dc.lft.to/lastmile_qr_scan"}, "fusion_lon": 0.0}, {"lat": 38.93736766666667, "is_disabled": 0, "type": "electric_scooter", "lon": -77.03621066666666, "bike_id": "23a4043d0848fac18f0e194f5d2b3eb6", "fusion_lat": 0.0, "name": "23a4043d0848fac18f0e194f5d2b3eb6", "is_reserved": 0, "rental_uris": {"android": "https://dc.lft.to/lastmile_qr_scan", "ios": "https://dc.lft.to/lastmile_qr_scan"}, "fusion_lon": 0.0}, {"lat": 38.8518875, "is_disabled": 0, "type": "electric_scooter", "lon": -76.97619983333334, "bike_id": "5b0c77daf9c72fa122eaeab34fa707d2", "fusion_lat": 0.0, "name": "5b0c77daf9c72fa122eaeab34fa707d2", "is_reserved": 0, "rental_uris": {"android": "https://dc.lft.to/lastmile_qr_scan", "ios": "https://dc.lft.to/lastmile_qr_scan"}, "fusion_lon": 0.0}, {"lat": 38.89244583333333, "is_disabled": 0, "type": "electric_scooter", "lon": -77.033519, "bike_id": "d6ef607fad44d5ec2001dda3075874dc", "fusion_lat": 0.0, "name": "d6ef607fad44d5ec2001dda3075874dc", "is_reserved": 0, "rental_uris": {"android": "https://dc.lft.to/lastmile_qr_scan", "ios": "https://dc.lft.to/lastmile_qr_scan"}, "fusion_lon": 0.0}, {"lat": 38.92597266666667, "is_disabled": 0, "type": "electric_scooter", "lon": -77.04391166666667, "bike_id": "a381f6015d6e740779f90ff89259a964", "fusion_lat": 0.0, "name": "a381f6015d6e740779f90ff89259a964", "is_reserved": 0, "rental_uris": {"android": "https://dc.lft.to/lastmile_qr_scan", "ios": "https://dc.lft.to/lastmile_qr_scan"}, "fusion_lon": 0.0}, {"lat": 38.862569, "is_disabled": 0, "type": "electric_scooter", "lon": -76.99515916666667, "bike_id": "eae4518c919a0267f7e3557e71e66bbf", "fusion_lat": 0.0, "name": "eae4518c919a0267f7e3557e71e66bbf", "is_reserved": 0, "rental_uris": {"android": "https://dc.lft.to/lastmile_qr_scan", "ios": "https://dc.lft.to/lastmile_qr_scan"}, "fusion_lon": 0.0}, {"lat": 38.96434383333333, "is_disabled": 0, "type": "electric_bike", "lon": -77.02153, "bike_id": "83291b2f2994085659f733130666528f", "fusion_lat": 0.0, "name": "83291b2f2994085659f733130666528f", "is_reserved": 0, "rental_uris": {"android": "https://dc.lft.to/lastmile_qr_scan", "ios": "https://dc.lft.to/lastmile_qr_scan"}, "fusion_lon": 0.0}, {"lat": 38.89726533333334, "is_disabled": 0, "type": "electric_scooter", "lon": -77.0498565, "bike_id": "cbfd2891204248317ddb9eace23cd58b", "fusion_lat": 0.0, "name": "cbfd2891204248317ddb9eace23cd58b", "is_reserved": 0, "rental_uris": {"android": "https://dc.lft.to/lastmile_qr_scan", "ios": "https://dc.lft.to/lastmile_qr_scan"}, "fusion_lon": 0.0}, {"lat": 38.89851616666667, "is_disabled": 0, "type": "electric_scooter", "lon": -76.99032866666667, "bike_id": "88c1ef7cd63af9da491df32abb4a0a28", "fusion_lat": 0.0, "name": "88c1ef7cd63af9da491df32abb4a0a28", "is_reserved": 0, "rental_uris": {"android": "https://dc.lft.to/lastmile_qr_scan", "ios": "https://dc.lft.to/lastmile_qr_scan"}, "fusion_lon": 0.0}, {"lat": 38.90029216666667, "is_disabled": 0, "type": "electric_scooter", "lon": -76.99625583333334, "bike_id": "46a4e31fce008f1a84a91f38d4d7adea", "fusion_lat": 0.0, "name": "46a4e31fce008f1a84a91f38d4d7adea", "is_reserved": 0, "rental_uris": {"android": "https://dc.lft.to/lastmile_qr_scan", "ios": "https://dc.lft.to/lastmile_qr_scan"}, "fusion_lon": 0.0}, {"lat": 38.9455115, "is_disabled": 0, "type": "electric_bike", "lon": -76.89536433333333, "bike_id": "901bc6e315742dbb56f8317af7fa4a50", "fusion_lat": 0.0, "name": "901bc6e315742dbb56f8317af7fa4a50", "is_reserved": 0, "rental_uris": {"android": "https://dc.lft.to/lastmile_qr_scan", "ios": "https://dc.lft.to/lastmile_qr_scan"}, "fusion_lon": 0.0}, {"lat": 38.902607, "is_disabled": 0, "type": "electric_scooter", "lon": -77.01751066666667, "bike_id": "93766323181538b0dc5110dd0f969176", "fusion_lat": 0.0, "name": "93766323181538b0dc5110dd0f969176", "is_reserved": 0, "rental_uris": {"android": "https://dc.lft.to/lastmile_qr_scan", "ios": "https://dc.lft.to/lastmile_qr_scan"}, "fusion_lon": 0.0}, {"lat": 38.908463, "is_disabled": 0, "type": "electric_scooter", "lon": -77.04010316666667, "bike_id": "24c30b16f10cd484ad562d21f3f0b717", "fusion_lat": 0.0, "name": "24c30b16f10cd484ad562d21f3f0b717", "is_reserved": 0, "rental_uris": {"android": "https://dc.lft.to/lastmile_qr_scan", "ios": "https://dc.lft.to/lastmile_qr_scan"}, "fusion_lon": 0.0}, {"lat": 38.866572833333336, "is_disabled": 0, "type": "electric_scooter", "lon": -76.9890055, "bike_id": "6fb9d3fa41906c8800186af885e5741d", "fusion_lat": 0.0, "name": "6fb9d3fa41906c8800186af885e5741d", "is_reserved": 0, "rental_uris": {"android": "https://dc.lft.to/lastmile_qr_scan", "ios": "https://dc.lft.to/lastmile_qr_scan"}, "fusion_lon": 0.0}, {"lat": 38.92443033333333, "is_disabled": 0, "type": "electric_scooter", "lon": -77.03359433333334, "bike_id": "d06e2fb34e149492313bd8f34cfd7455", "fusion_lat": 0.0, "name": "d06e2fb34e149492313bd8f34cfd7455", "is_reserved": 0, "rental_uris": {"android": "https://dc.lft.to/lastmile_qr_scan", "ios": "https://dc.lft.to/lastmile_qr_scan"}, "fusion_lon": 0.0}, {"lat": 38.92428666666667, "is_disabled": 0, "type": "electric_scooter", "lon": -77.03422933333333, "bike_id": "f8403158cecac9a84771d97db92835da", "fusion_lat": 0.0, "name": "f8403158cecac9a84771d97db92835da", "is_reserved": 0, "rental_uris": {"android": "https://dc.lft.to/lastmile_qr_scan", "ios": "https://dc.lft.to/lastmile_qr_scan"}, "fusion_lon": 0.0}, {"lat": 38.914638833333335, "is_disabled": 0, "type": "electric_scooter", "lon": -77.0668635, "bike_id": "73049d9d79adaae47fcb29ba0fa77c32", "fusion_lat": 0.0, "name": "73049d9d79adaae47fcb29ba0fa77c32", "is_reserved": 0, "rental_uris": {"android": "https://dc.lft.to/lastmile_qr_scan", "ios": "https://dc.lft.to/lastmile_qr_scan"}, "fusion_lon": 0.0}, {"lat": 38.909909166666665, "is_disabled": 0, "type": "electric_scooter", "lon": -76.99739333333333, "bike_id": "3abdea18f5c5d24f976453e1cb813ba1", "fusion_lat": 0.0, "name": "3abdea18f5c5d24f976453e1cb813ba1", "is_reserved": 0, "rental_uris": {"android": "https://dc.lft.to/lastmile_qr_scan", "ios": "https://dc.lft.to/lastmile_qr_scan"}, "fusion_lon": 0.0}, {"lat": 38.92406666666667, "is_disabled": 0, "type": "electric_scooter", "lon": -77.03417883333333, "bike_id": "bb6a49ce9ef6590929c81764ee55116f", "fusion_lat": 0.0, "name": "bb6a49ce9ef6590929c81764ee55116f", "is_reserved": 0, "rental_uris": {"android": "https://dc.lft.to/lastmile_qr_scan", "ios": "https://dc.lft.to/lastmile_qr_scan"}, "fusion_lon": 0.0}, {"lat": 38.92656066666667, "is_disabled": 0, "type": "electric_scooter", "lon": -77.02423566666667, "bike_id": "31d572bc1e848312bb758bd52ed6a5ad", "fusion_lat": 0.0, "name": "31d572bc1e848312bb758bd52ed6a5ad", "is_reserved": 0, "rental_uris": {"android": "https://dc.lft.to/lastmile_qr_scan", "ios": "https://dc.lft.to/lastmile_qr_scan"}, "fusion_lon": 0.0}, {"lat": 38.93024466666667, "is_disabled": 0, "type": "electric_scooter", "lon": -77.02038616666667, "bike_id": "d20f8da36cb38efaec80c0aa2aa47589", "fusion_lat": 0.0, "name": "d20f8da36cb38efaec80c0aa2aa47589", "is_reserved": 0, "rental_uris": {"android": "https://dc.lft.to/lastmile_qr_scan", "ios": "https://dc.lft.to/lastmile_qr_scan"}, "fusion_lon": 0.0}, {"lat": 38.929919166666664, "is_disabled": 0, "type": "electric_scooter", "lon": -77.03199733333334, "bike_id": "42b0152efa89ded24896ffdc1b2b365b", "fusion_lat": 0.0, "name": "42b0152efa89ded24896ffdc1b2b365b", "is_reserved": 0, "rental_uris": {"android": "https://dc.lft.to/lastmile_qr_scan", "ios": "https://dc.lft.to/lastmile_qr_scan"}, "fusion_lon": 0.0}, {"lat": 38.90297316666667, "is_disabled": 0, "type": "electric_scooter", "lon": -77.00044533333333, "bike_id": "fb09a0bf08870a31c15712488d6c70fc", "fusion_lat": 0.0, "name": "fb09a0bf08870a31c15712488d6c70fc", "is_reserved": 0, "rental_uris": {"android": "https://dc.lft.to/lastmile_qr_scan", "ios": "https://dc.lft.to/lastmile_qr_scan"}, "fusion_lon": 0.0}, {"lat": 38.921995, "is_disabled": 0, "type": "electric_scooter", "lon": -77.03975766666667, "bike_id": "66e42350d3f947fb8c368014a997b137", "fusion_lat": 0.0, "name": "66e42350d3f947fb8c368014a997b137", "is_reserved": 0, "rental_uris": {"android": "https://dc.lft.to/lastmile_qr_scan", "ios": "https://dc.lft.to/lastmile_qr_scan"}, "fusion_lon": 0.0},