{"data": {"bikes": [{"name": "c14bfbf261436ce734afb39e50bfcfc0", "type": "electric_scooter", "lat": 38.89634066666667, "is_reserved": 0, "lon": -77.00940533333333, "fusion_lon": 0.0, "is_disabled": 0, "fusion_lat": 0.0, "bike_id": "c14bfbf261436ce734afb39e50bfcfc0", "rental_uris": {"ios": "https://dc.lft.to/lastmile_qr_scan", "android": "https://dc.lft.to/lastmile_qr_scan"}}, {"name": "07ad8a27eb0b6433c9b05d65e59ce562", "type": "electric_scooter", "lat": 38.92362983333334, "is_reserved": 0, "lon": -77.05844733333333, "fusion_lon": 0.0, "is_disabled": 0, "fusion_lat": 0.0, "bike_id": "07ad8a27eb0b6433c9b05d65e59ce562", "rental_uris": {"ios": "https://dc.lft.to/lastmile_qr_scan", "android": "https://dc.lft.to/lastmile_qr_scan"}}, {"name": "e00ba9668e390707f44f100c363fac7a", "type": "electric_bike", "lat": 38.90863, "is_reserved": 0, "lon": -77.08078783333333, "fusion_lon": 0.0, "is_disabled": 0, "fusion_lat": 0.0, "bike_id": "e00ba9668e390707f44f100c363fac7a", "rental_uris": {"ios": "https://dc.lft.to/lastmile_qr_scan", "android": "https://dc.lft.to/lastmile_qr_scan"}}, {"name": "c7a0735cd823891382bbb758bd84a7aa", "type": "electric_scooter", "lat": 38.919667833333335, "is_reserved": 0, "lon": -77.03381833333333, "fusion_lon": 0.0, "is_disabled": 0, "fusion_lat": 0.0, "bike_id": "c7a0735cd823891382bbb758bd84a7aa", "rental_uris": {"ios": "https://dc.lft.to/lastmile_qr_scan", "android": "https://dc.lft.to/lastmile_qr_scan"}}, {"name": "9ad2df418d1ee6cea04eb106b73021ee", "type": "electric_scooter", "lat": 38.925230166666665, "is_reserved": 0, "lon": -77.03331016666667, "fusion_lon": 0.0, "is_disabled": 0, "fusion_lat": 0.0, "bike_id": "9ad2df418d1ee6cea04eb106b73021ee", "rental_uris": {"ios": "https://dc.lft.to/lastmile_qr_scan", "android": "https://dc.lft.to/lastmile_qr_scan"}}, {"name": "d9513ffe059d36cb6ee64b7e5c142666", "type": "electric_scooter", "lat": 38.912628166666664, "is_reserved": 0, "lon": -77.0372985, "fusion_lon": 0.0, "is_disabled": 0, "fusion_lat": 0.0, "bike_id": "d9513ffe059d36cb6ee64b7e5c142666", "rental_uris": {"ios": "https://dc.lft.to/lastmile_qr_scan", "android": "https://dc.lft.to/lastmile_qr_scan"}}, {"name": "2e86e73d8ddd8df93b9494662ca23ed4", "type": "electric_scooter", "lat": 38.90580666666666, "is_reserved": 0, "lon": -77.04142183333333, "fusion_lon": 0.0, "is_disabled": 0, "fusion_lat": 0.0, "bike_id": "2e86e73d8ddd8df93b9494662ca23ed4", "rental_uris": {"ios": "https://dc.lft.to/lastmile_qr_scan", "android": "https://dc.lft.to/lastmile_qr_scan"}}, {"name": "e454829342009e0f89cc4cc8cb3988cb", "type": "electric_scooter", "lat": 38.892237333333334, "is_reserved": 0, "lon": -77.04334916666667, "fusion_lon": 0.0, "is_disabled": 0, "fusion_lat": 0.0, "bike_id": "e454829342009e0f89cc4cc8cb3988cb", "rental_uris": {"ios": "https://dc.lft.to/lastmile_qr_scan", "android": "https://dc.lft.to/lastmile_qr_scan"}}, {"name": "647dfe5bb506976bde92412341129865", "type": "electric_scooter", "lat": 38.92743083333333, "is_reserved": 0, "lon": -77.02267616666667, "fusion_lon": 0.0, "is_disabled": 0, "fusion_lat": 0.0, "bike_id": "647dfe5bb506976bde92412341129865", "rental_uris": {"ios": "https://dc.lft.to/lastmile_qr_scan", "android": "https://dc.lft.to/lastmile_qr_scan"}}, {"name": "4c9ef2260c727d4ae9f785d94e065640", "type": "electric_scooter", "lat": 38.90613116666667, "is_reserved": 0, "lon": -77.07490283333334, "fusion_lon": 0.0, "is_disabled": 0, "fusion_lat": 0.0, "bike_id": "4c9ef2260c727d4ae9f785d94e065640", "rental_uris": {"ios": "https://dc.lft.to/lastmile_qr_scan", "android": "https://dc.lft.to/lastmile_qr_scan"}}, {"name": "60815d965b10c9618dc52a1293fac15a", "type": "electric_scooter", "lat": 38.86657616666667, "is_reserved": 0, "lon": -76.98888933333333, "fusion_lon": 0.0, "is_disabled": 0, "fusion_lat": 0.0, "bike_id": "60815d965b10c9618dc52a1293fac15a", "rental_uris": {"ios": "https://dc.lft.to/lastmile_qr_scan", "android": "https://dc.lft.to/lastmile_qr_scan"}}, {"name": "46e08e486a8e4f4d233f2a10a779346b", "type": "electric_scooter", "lat": 38.92517333333333, "is_reserved": 0, "lon": -77.001776, "fusion_lon": 0.0, "is_disabled": 0, "fusion_lat": 0.0, "bike_id": "46e08e486a8e4f4d233f2a10a779346b", "rental_uris": {"ios": "https://dc.lft.to/lastmile_qr_scan", "android": "https://dc.lft.to/lastmile_qr_scan"}}, {"name": "6029b7b93d565017242f350985551d8c", "type": "electric_scooter", "lat": 38.921163, "is_reserved": 0, "lon": -77.03658766666666, "fusion_lon": 0.0, "is_disabled": 0, "fusion_lat": 0.0, "bike_id": "6029b7b93d565017242f350985551d8c", "rental_uris": {"ios": "https://dc.lft.to/lastmile_qr_scan", "android": "https://dc.lft.to/lastmile_qr_scan"}}, {"name": "797dfeba360a3220c84c30435d46c64b", "type": "electric_scooter", "lat": 38.8837475, "is_reserved": 0, "lon": -76.92372483333334, "fusion_lon": 0.0, "is_disabled": 0, "fusion_lat": 0.0, "bike_id": "797dfeba360a3220c84c30435d46c64b", "rental_uris": {"ios": "https://dc.lft.to/lastmile_qr_scan", "android": "https://dc.lft.to/lastmile_qr_scan"}}, {"name": "64b5a0583ea41b0447fb86666abb572c", "type": "electric_scooter", "lat": 38.86356683333333, "is_reserved": 0, "lon": -76.990689, "fusion_lon": 0.0, "is_disabled": 0, "fusion_lat": 0.0, "bike_id": "64b5a0583ea41b0447fb86666abb572c", "rental_uris": {"ios": "https://dc.lft.to/lastmile_qr_scan", "android": "https://dc.lft.to/lastmile_qr_scan"}}, {"name": "0772cc4e4fcfe4120caa2e2d7e2651f1", "type": "electric_scooter", "lat": 38.90864, "is_reserved": 0, "lon": -76.98618366666666, "fusion_lon": 0.0, "is_disabled": 0, "fusion_lat": 0.0, "bike_id": "0772cc4e4fcfe4120caa2e2d7e2651f1", "rental_uris": {"ios": "https://dc.lft.to/lastmile_qr_scan", "android": "https://dc.lft.to/lastmile_qr_scan"}}, {"name": "d289725b9a9fb1efd3cfc50dffb01540", "type": "electric_scooter", "lat": 38.90554233333334, "is_reserved": 0, "lon": -77.0465845, "fusion_lon": 0.0, "is_disabled": 0, "fusion_lat": 0.0, "bike_id": "d289725b9a9fb1efd3cfc50dffb01540", "rental_uris": {"ios": "https://dc.lft.to/lastmile_qr_scan", "android": "https://dc.lft.to/lastmile_qr_scan"}}, {"name": "ef5b89d052271a5fafdf5430ebda0d76", "type": "electric_scooter", "lat": 38.901742666666664, "is_reserved": 0, "lon": -77.00001233333333, "fusion_lon": 0.0, "is_disabled": 0, "fusion_lat": 0.0, "bike_id": "ef5b89d052271a5fafdf5430ebda0d76", "rental_uris": {"ios": "https://dc.lft.to/lastmile_qr_scan", "android": "https://dc.lft.to/lastmile_qr_scan"}}, {"name": "0e8dc6e2b8b4e65ea65108b539b242fe", "type": "electric_scooter", "lat": 38.903706, "is_reserved": 0, "lon": -77.04470033333334, "fusion_lon": 0.0, "is_disabled": 0, "fusion_lat": 0.0, "bike_id": "0e8dc6e2b8b4e65ea65108b539b242fe", "rental_uris": {"ios": "https://dc.lft.to/lastmile_qr_scan", "android": "https://dc.lft.to/lastmile_qr_scan"}}, {"name": "a93021ab611fd919181d7fd637ebb768", "type": "electric_scooter", "lat": 38.94121116666667, "is_reserved": 0, "lon": -77.02657433333333, "fusion_lon": 0.0, "is_disabled": 0, "fusion_lat": 0.0, "bike_id": "a93021ab611fd919181d7fd637ebb768", "rental_uris": {"ios": "https://dc.lft.to/lastmile_qr_scan", "android": "https://dc.lft.to/lastmile_qr_scan"}}, {"name": "1d4b38575c136d866edae96c7b2b6a7f", "type": "electric_scooter", "lat": 38.8849115, "is_reserved": 0, "lon": -77.028587, "fusion_lon": 0.0, "is_disabled": 0, "fusion_lat": 0.0, "bike_id": "1d4b38575c136d866edae96c7b2b6a7f", "rental_uris": {"ios": "https://dc.lft.to/lastmile_qr_scan", "android": "https://dc.lft.to/lastmile_qr_scan"}}, {"name": "6091e7400c367fd4ea188ecc1271f4d4", "type": "electric_scooter", "lat": 38.900351, "is_reserved": 0, "lon": -76.98837833333333, "fusion_lon": 0.0, "is_disabled": 0, "fusion_lat": 0.0, "bike_id": "6091e7400c367fd4ea188ecc1271f4d4", "rental_uris": {"ios": "https://dc.lft.to/lastmile_qr_scan", "android": "https://dc.lft.to/lastmile_qr_scan"}}, {"name": "57f8307ddb158364ea8b10e61fd810c7", "type": "electric_bike", "lat": 38.9036445, "is_reserved": 0, "lon": -76.98327283333333, "fusion_lon": 0.0, "is_disabled": 0, "fusion_lat": 0.0, "bike_id": "57f8307ddb158364ea8b10e61fd810c7", "rental_uris": {"ios": "https://dc.lft.to/lastmile_qr_scan", "android": "https://dc.lft.to/lastmile_qr_scan"}}, {"name": "e3e9178f0222243bf06003a01f1d72f2", "type": "electric_scooter", "lat": 38.905214, "is_reserved": 0, "lon": -77.06588966666666, "fusion_lon": 0.0, "is_disabled": 0, "fusion_lat": 0.0, "bike_id": "e3e9178f0222243bf06003a01f1d72f2", "rental_uris": {"ios": "https://dc.lft.to/lastmile_qr_scan", "android": "https://dc.lft.to/lastmile_qr_scan"}}, {"name": "6015b912c820755d2a928e3bfba36acd", "type": "electric_scooter", "lat": 38.91609033333334, "is_reserved": 0, "lon": -77.04602183333333, "fusion_lon": 0.0, "is_disabled": 0, "fusion_lat": 0.0, "bike_id": "6015b912c820755d2a928e3bfba36acd", "rental_uris": {"ios": "https://dc.lft.to/lastmile_qr_scan", "android": "https://dc.lft.to/lastmile_qr_scan"}}, {"name": "d65adf862941a585fad00f1020a98aa5", "type": "electric_scooter", "lat": 38.9129365, "is_reserved": 0, "lon": -77.06116083333333, "fusion_lon": 0.0, "is_disabled": 0, "fusion_lat": 0.0, "bike_id": "d65adf862941a585fad00f1020a98aa5", "rental_uris": {"ios": "https://dc.lft.to/lastmile_qr_scan", "android": "https://dc.lft.to/lastmile_qr_scan"}}, {"name": "182adc561f4ad33b347abd54d9f194d8", "type": "electric_scooter", "lat": 38.92094483333333, "is_reserved": 0, "lon": -77.02596233333334, "fusion_lon": 0.0, "is_disabled": 0, "fusion_lat": 0.0, "bike_id": "182adc561f4ad33b347abd54d9f194d8", "rental_uris": {"ios": "https://dc.lft.to/lastmile_qr_scan", "android": "https://dc.lft.to/lastmile_qr_scan"}}, {"name": "13cff2337f3e7d73a72903c0c89b72c2", "type": "electric_scooter", "lat": 38.864315, "is_reserved": 0, "lon": -76.98000133333333, "fusion_lon": 0.0, "is_disabled": 0, "fusion_lat": 0.0, "bike_id": "13cff2337f3e7d73a72903c0c89b72c2", "rental_uris": {"ios": "https://dc.lft.to/lastmile_qr_scan", "android": "https://dc.lft.to/lastmile_qr_scan"}}, {"name": "8942be213b6e6299e3afb4cb1df6be94", "type": "electric_scooter", "lat": 38.936173, "is_reserved": 0, "lon": -77.032211, "fusion_lon": 0.0, "is_disabled": 0, "fusion_lat": 0.0, "bike_id": "8942be213b6e6299e3afb4cb1df6be94", "rental_uris": {"ios": "https://dc.lft.to/lastmile_qr_scan", "android": "https://dc.lft.to/lastmile_qr_scan"}}, {"name": "2cb31eee32b2ad25e6aff426a75c55a3", "type": "electric_scooter", "lat": 38.919190666666665, "is_reserved": 0, "lon": -77.03423333333333, "fusion_lon": 0.0, "is_disabled": 0, "fusion_lat": 0.0, "bike_id": "2cb31eee32b2ad25e6aff426a75c55a3", "rental_uris": {"ios": "https://dc.lft.to/lastmile_qr_scan", "android": "https://dc.lft.to/lastmile_qr_scan"}}, {"name": "7b24278f931769d6167b41dc247e0d7c", "type": "electric_scooter", "lat": 38.9030455, "is_reserved": 0, "lon": -77.039909, "fusion_lon": 0.0, "is_disabled": 0, "fusion_lat": 0.0, "bike_id": "7b24278f931769d6167b41dc247e0d7c", "rental_uris": {"ios": "https://dc.lft.to/lastmile_qr_scan", "android": "https://dc.lft.to/lastmile_qr_scan"}}, {"name": "691e2453d89724a4ea6b5860cd29370d", "type": "electric_scooter", "lat": 38.93348433333333, "is_reserved": 0, "lon": -77.05864983333333, "fusion_lon": 0.0, "is_disabled": 0, "fusion_lat": 0.0, "bike_id": "691e2453d89724a4ea6b5860cd29370d", "rental_uris": {"ios": "https://dc.lft.to/lastmile_qr_scan", "android": "https://dc.lft.to/lastmile_qr_scan"}}, {"name": "11bf538a4efca4b76786a75da00d2794", "type": "electric_scooter", "lat": 38.90313116666667, "is_reserved": 0, "lon": -77.033189, "fusion_lon": 0.0, "is_disabled": 0, "fusion_lat": 0.0, "bike_id": "11bf538a4efca4b76786a75da00d2794", "rental_uris": {"ios": "https://dc.lft.to/lastmile_qr_scan", "android": "https://dc.lft.to/lastmile_qr_scan"}}, {"name": "c8b21d23c2b897b53062f2e1d6cf98d9", "type": "electric_scooter", "lat": 38.9323765, "is_reserved": 0, "lon": -77.03813333333333, "fusion_lon": 0.0, "is_disabled": 0, "fusion_lat": 0.0, "bike_id": "c8b21d23c2b897b53062f2e1d6cf98d9", "rental_uris": {"ios": "https://dc.lft.to/lastmile_qr_scan", "android": "https://dc.lft.to/lastmile_qr_scan"}}, {"name": "d40dfefc0d942af33aa4273a7b642fba", "type": "electric_bike", "lat": 38.8427675, "is_reserved": 0, "lon": -76.98846033333334, "fusion_lon": 0.0, "is_disabled": 0, "fusion_lat": 0.0, "bike_id": "d40dfefc0d942af33aa4273a7b642fba", "rental_uris": {"ios": "https://dc.lft.to/lastmile_qr_scan", "android": "https://dc.lft.to/lastmile_qr_scan"}}, {"name": "ff96e9d50d47b86a4c1d369aece14e9d", "type": "electric_scooter", "lat": 38.93980833333333, "is_reserved": 0, "lon": -77.02594183333333, "fusion_lon": 0.0, "is_disabled": 0, "fusion_lat": 0.0, "bike_id": "ff96e9d50d47b86a4c1d369aece14e9d", "rental_uris": {"ios": "https://dc.lft.to/lastmile_qr_scan", "android": "https://dc.lft.to/lastmile_qr_scan"}}, {"name": "5418c03e4cb3826d04c94db6ceec6b4f", "type": "electric_scooter", "lat": 38.911136666666664, "is_reserved": 0, "lon": -77.03482666666666, "fusion_lon": 0.0, "is_disabled": 0, "fusion_lat": 0.0, "bike_id": "5418c03e4cb3826d04c94db6ceec6b4f", "rental_uris": {"ios": "https://dc.lft.to/lastmile_qr_scan", "android": "https://dc.lft.to/lastmile_qr_scan"}}, {"name": "7751e902fa4de0ceec0976013a2f547e", "type": "electric_scooter", "lat": 38.9146425, "is_reserved": 0, "lon": -77.03918966666667, "fusion_lon": 0.0, "is_disabled": 0, "fusion_lat": 0.0, "bike_id": "7751e902fa4de0ceec0976013a2f547e", "rental_uris": {"ios": "https://dc.lft.to/lastmile_qr_scan", "android": "https://dc.lft.to/lastmile_qr_scan"}}, {"name": "6c74ac58e3dbdb2ea95ecaa7ec964eef", "type": "electric_scooter", "lat": 38.91581583333333, "is_reserved": 0, "lon": -77.0220725, "fusion_lon": 0.0, "is_disabled": 0, "fusion_lat": 0.0, "bike_id": "6c74ac58e3dbdb2ea95ecaa7ec964eef", "rental_uris": {"ios": "https://dc.lft.to/lastmile_qr_scan", "android": "https://dc.lft.to/lastmile_qr_scan"}}, {"name": "f9034b5b8d5032b60cd3d741531d68a0", "type": "electric_scooter", "lat": 38.905925833333335, "is_reserved": 0, "lon": -77.01610483333333, "fusion_lon": 0.0, "is_disabled": 0, "fusion_lat": 0.0, "bike_id": "f9034b5b8d5032b60cd3d741531d68a0", "rental_uris": {"ios": "https://dc.lft.to/lastmile_qr_scan", "android": "https://dc.lft.to/lastmile_qr_scan"}}, {"name": "bc48f3393cbb4b86780ca6fa8063d884", "type": "electric_bike", "lat": 38.880417333333334, "is_reserved": 0, "lon": -77.01327866666666, "fusion_lon": 0.0, "is_disabled": 0, "fusion_lat": 0.0, "bike_id": "bc48f3393cbb4b86780ca6fa8063d884", "rental_uris": {"ios": "https://dc.lft.to/lastmile_qr_scan", "android": "https://dc.lft.to/lastmile_qr_scan"}}, {"name": "179b915402c240759f084c2c1ff5fb43", "type": "electric_scooter", "lat": 38.914639, "is_reserved": 0, "lon": -77.03823333333334, "fusion_lon": 0.0, "is_disabled": 0, "fusion_lat": 0.0, "bike_id": "179b915402c240759f084c2c1ff5fb43", "rental_uris": {"ios": "https://dc.lft.to/lastmile_qr_scan", "android": "https://dc.lft.to/lastmile_qr_scan"}}, {"name": "68f4914d456e3833811b104ebbc215ab", "type": "electric_scooter", "lat": 38.900298166666666, "is_reserved": 0, "lon": -77.01163833333334, "fusion_lon": 0.0, "is_disabled": 0, "fusion_lat": 0.0, "bike_id": "68f4914d456e3833811b104ebbc215ab", "rental_uris": {"ios": "https://dc.lft.to/lastmile_qr_scan", "android": "https://dc.lft.to/lastmile_qr_scan"}}, {"name": "b500cf181dbfd8a6c0f799e0db171c81", "type": "electric_scooter", "lat": 38.898458, "is_reserved": 0, "lon": -77.03310283333333, "fusion_lon": 0.0, "is_disabled": 0, "fusion_lat": 0.0, "bike_id": "b500cf181dbfd8a6c0f799e0db171c81", "rental_uris": {"ios": "https://dc.lft.to/lastmile_qr_scan", "android": "https://dc.lft.to/lastmile_qr_scan"}}, {"name": "c05ab202fd2c37ff33a3079111cdc96d", "type": "electric_bike", "lat": 38.839358, "is_reserved": 0, "lon": -77.07905166666667, "fusion_lon": 0.0, "is_disabled": 0, "fusion_lat": 0.0, "bike_id": "c05ab202fd2c37ff33a3079111cdc96d", "rental_uris": {"ios": "https://dc.lft.to/lastmile_qr_scan", "android": "https://dc.lft.to/lastmile_qr_scan"}}, {"name": "a2e4041ca04f26e2cfff423b23799aaa", "type": "electric_scooter", "lat": 38.903682333333336, "is_reserved": 0, "lon": -77.04472666666666, "fusion_lon": 0.0, "is_disabled": 0, "fusion_lat": 0.0, "bike_id": "a2e4041ca04f26e2cfff423b23799aaa", "rental_uris": {"ios": "https://dc.lft.to/lastmile_qr_scan", "android": "https://dc.lft.to/lastmile_qr_scan"}}, {"name": "848f7dad7160f275bd0a6dd1cb280270", "type": "electric_scooter", "lat": 38.878928333333334, "is_reserved": 0, "lon": -77.02305733333333, "fusion_lon": 0.0, "is_disabled": 0, "fusion_lat": 0.0, "bike_id": "848f7dad7160f275bd0a6dd1cb280270", "rental_uris": {"ios": "https://dc.lft.to/lastmile_qr_scan", "android": "https://dc.lft.to/lastmile_qr_scan"}}, {"name": "7272842ae02fdb30fa093f17112187c5", "type": "electric_scooter", "lat": 38.914819666666666, "is_reserved": 0, "lon": -77.02445583333333, "fusion_lon": 0.0, "is_disabled": 0, "fusion_lat": 0.0, "bike_id": "7272842ae02fdb30fa093f17112187c5", "rental_uris": {"ios": "https://dc.lft.to/lastmile_qr_scan", "android": "https://dc.lft.to/lastmile_qr_scan"}}, {"name": "fad7f16d106fee88cfa67648d90ce6b7", "type": "electric_scooter", "lat": 38.89677116666667, "is_reserved": 0, "lon": -76.94726166666666, "fusion_lon": 0.0, "is_disabled": 0, "fusion_lat": 0.0, "bike_id": "fad7f16d106fee88cfa67648d90ce6b7", "rental_uris": {"ios": "https://dc.lft.to/lastmile_qr_scan", "android": "https://dc.lft.to/lastmile_qr_scan"}}, {"name": "b75396496b6d1a6acf9d57d84e579591", "type": "electric_scooter", "lat": 38.91340733333333, "is_reserved": 0, "lon": -77.031837, "fusion_lon": 0.0, "is_disabled": 0, "fusion_lat": 0.0, "bike_id": "b75396496b6d1a6acf9d57d84e579591", "rental_uris": {"ios": "https://dc.lft.to/lastmile_qr_scan", "android": "https://dc.lft.to/lastmile_qr_scan"}}, {"name": "5611306610202aa66838b656463e57dd", "type": "electric_scooter", "lat": 38.907190666666665, "is_reserved": 0, "lon": -77.0434735, "fusion_lon": 0.0, "is_disabled": 0, "fusion_lat": 0.0, "bike_id": "5611306610202aa66838b656463e57dd", "rental_uris": {"ios": "https://dc.lft.to/lastmile_qr_scan", "android": "https://dc.lft.to/lastmile_qr_scan"}}, {"name": "22d29a21e9c07903dbac2848e34565af", "type": "electric_scooter", "lat": 38.91664216666667, "is_reserved": 0, "lon": -77.00509033333333, "fusion_lon": 0.0, "is_disabled": 0, "fusion_lat": 0.0, "bike_id": "22d29a21e9c07903dbac2848e34565af", "rental_uris": {"ios": "https://dc.lft.to/lastmile_qr_scan", "android": "https://dc.lft.to/lastmile_qr_scan"}}, {"name": "8f2e5bda83fd05d8eeb823cd48ba5991", "type": "electric_scooter", "lat": 38.920814666666665, "is_reserved": 0, "lon": -77.022082, "fusion_lon": 0.0, "is_disabled": 0, "fusion_lat": 0.0, "bike_id": "8f2e5bda83fd05d8eeb823cd48ba5991", "rental_uris": {"ios": "https://dc.lft.to/lastmile_qr_scan", "android": "https://dc.lft.to/lastmile_qr_scan"}}, {"name": "283b34772065c8a3800316d1d73aedcd", "type": "electric_scooter", "lat": 38.91660866666667, "is_reserved": 0, "lon": -77.02698683333334, "fusion_lon": 0.0, "is_disabled": 0, "fusion_lat": 0.0, "bike_id": "283b34772065c8a3800316d1d73aedcd", "rental_uris": {"ios": "https://dc.lft.to/lastmile_qr_scan", "android": "https://dc.lft.to/lastmile_qr_scan"}}, {"name": "90148e99013a77d94d7bdf4d3cfb6059", "type": "electric_scooter", "lat": 38.9141475, "is_reserved": 0, "lon": -77.0097705, "fusion_lon": 0.0, "is_disabled": 0, "fusion_lat": 0.0, "bike_id": "90148e99013a77d94d7bdf4d3cfb6059", "rental_uris": {"ios": "https://dc.lft.to/lastmile_qr_scan", "android": "https://dc.lft.to/lastmile_qr_scan"}}, {"name": "190534ecbdbf42a6138b92dc1e3c9f54", "type": "electric_bike", "lat": 38.85157616666667, "is_reserved": 0, "lon": -77.12877683333333, "fusion_lon": 0.0, "is_disabled": 0, "fusion_lat": 0.0, "bike_id": "190534ecbdbf42a6138b92dc1e3c9f54", "rental_uris": {"ios": "https://dc.lft.to/lastmile_qr_scan", "android": "https://dc.lft.to/lastmile_qr_scan"}}, {"name": "bae61f3436779d3d8a5d708283b0536f", "type": "electric_scooter", "lat": 38.8991685, "is_reserved": 0, "lon": -76.93383416666667, "fusion_lon": 0.0, "is_disabled": 0, "fusion_lat": 0.0, "bike_id": "bae61f3436779d3d8a5d708283b0536f", "rental_uris": {"ios": "https://dc.lft.to/lastmile_qr_scan", "android": "https://dc.lft.to/lastmile_qr_scan"}}, {"name": "139bbc420a55c1b34a03e2fc31f63769", "type": "electric_scooter", "lat": 38.92486133333333, "is_reserved": 0, "lon": -77.02714716666667, "fusion_lon": 0.0, "is_disabled": 0, "fusion_lat": 0.0, "bike_id": "139bbc420a55c1b34a03e2fc31f63769", "rental_uris": {"ios": "https://dc.lft.to/lastmile_qr_scan", "android": "https://dc.lft.to/lastmile_qr_scan"}}, {"name": "85f2343bb8f7da07c78bd8413e3c29f1", "type": "electric_scooter", "lat": 38.93087166666667, "is_reserved": 0, "lon": -77.03665533333333, "fusion_lon": 0.0, "is_disabled": 0, "fusion_lat": 0.0, "bike_id": "85f2343bb8f7da07c78bd8413e3c29f1", "rental_uris": {"ios": "https://dc.lft.to/lastmile_qr_scan", "android": "https://dc.lft.to/lastmile_qr_scan"}}, {"name": "d85cc690612236fe9375d5b4c44d9db3", "type": "electric_scooter", "lat": 38.95730416666667, "is_reserved": 0, "lon": -77.02406183333333, "fusion_lon": 0.0, "is_disabled": 0, "fusion_lat": 0.0, "bike_id": "d85cc690612236fe9375d5b4c44d9db3", "rental_uris": {"ios": "https://dc.lft.to/lastmile_qr_scan", "android": "https://dc.lft.to/lastmile_qr_scan"}}, {"name": "623a52afb2ec670ddeb0e5f37518bec9", "type": "electric_scooter", "lat": 38.9222885, "is_reserved": 0, "lon": -77.04620566666667, "fusion_lon": 0.0, "is_disabled": 0, "fusion_lat": 0.0, "bike_id": "623a52afb2ec670ddeb0e5f37518bec9", "rental_uris": {"ios": "https://dc.lft.to/lastmile_qr_scan", "android": "https://dc.lft.to/lastmile_qr_scan"}}, {"name": "0e2bbd9004fdc0b558ff7178ccb1b29c", "type": "electric_scooter", "lat": 38.9024225, "is_reserved": 0, "lon": -76.979348, "fusion_lon": 0.0, "is_disabled": 0, "fusion_lat": 0.0, "bike_id": "0e2bbd9004fdc0b558ff7178ccb1b29c", "rental_uris": {"ios": "https://dc.lft.to/lastmile_qr_scan", "android": "https://dc.lft.to/lastmile_qr_scan"}}, {"name": "bbed913c8691477da06f5d3afd8070cd", "type": "electric_scooter", "lat": 38.90132666666667, "is_reserved": 0, "lon": -77.04474616666667, "fusion_lon": 0.0, "is_disabled": 0, "fusion_lat": 0.0, "bike_id": "bbed913c8691477da06f5d3afd8070cd", "rental_uris": {"ios": "https://dc.lft.to/lastmile_qr_scan", "android": "https://dc.lft.to/lastmile_qr_scan"}}, {"name": "d37f44cc5cb009f21a80af5436274c95", "type": "electric_scooter", "lat": 38.90663383333333, "is_reserved": 0, "lon": -77.04298483333334, "fusion_lon": 0.0, "is_disabled": 0, "fusion_lat": 0.0, "bike_id": "d37f44cc5cb009f21a80af5436274c95", "rental_uris": {"ios": "https://dc.lft.to/lastmile_qr_scan", "android": "https://dc.lft.to/lastmile_qr_scan"}}, {"name": "1ec5a88a493fb8af255b5933799ce4bb", "type": "electric_scooter", "lat": 38.894753333333334, "is_reserved": 0, "lon": -76.98403033333334, "fusion_lon": 0.0, "is_disabled": 0, "fusion_lat": 0.0, "bike_id": "1ec5a88a493fb8af255b5933799ce4bb", "rental_uris": {"ios": "https://dc.lft.to/lastmile_qr_scan", "android": "https://dc.lft.to/lastmile_qr_scan"}}, {"name": "1907fbad1988ec88cce41e007216d8e9", "type": "electric_bike", "lat": 38.9118095, "is_reserved": 0, "lon": -77.0027305, "fusion_lon": 0.0, "is_disabled": 0, "fusion_lat": 0.0, "bike_id": "1907fbad1988ec88cce41e007216d8e9", "rental_uris": {"ios": "https://dc.lft.to/lastmile_qr_scan", "android": "https://dc.lft.to/lastmile_qr_scan"}}, {"name": "e1fffbec26f172a40f75891f5999a6a3", "type": "electric_scooter", "lat": 38.94316633333333, "is_reserved": 0, "lon": -77.05922666666666, "fusion_lon": 0.0, "is_disabled": 0, "fusion_lat": 0.0, "bike_id": "e1fffbec26f172a40f75891f5999a6a3", "rental_uris": {"ios": "https://dc.lft.to/lastmile_qr_scan", "android": "https://dc.lft.to/lastmile_qr_scan"}}, {"name": "299f03b6b28df2c6ccc2b3faa900caf3", "type": "electric_scooter", "lat": 38.865706, "is_reserved": 0, "lon": -76.989532, "fusion_lon": 0.0, "is_disabled": 0, "fusion_lat": 0.0, "bike_id": "299f03b6b28df2c6ccc2b3faa900caf3", "rental_uris": {"ios": "https://dc.lft.to/lastmile_qr_scan", "android": "https://dc.lft.to/lastmile_qr_scan"}}, {"name": "bb26708b95887e60fcb9451f18fcc4a2", "type": "electric_scooter", "lat": 38.930629, "is_reserved": 0, "lon": -77.03946916666666, "fusion_lon": 0.0, "is_disabled": 0, "fusion_lat": 0.0, "bike_id": "bb26708b95887e60fcb9451f18fcc4a2", "rental_uris": {"ios": "https://dc.lft.to/lastmile_qr_scan", "android": "https://dc.lft.to/lastmile_qr_scan"}}, {"name": "e4e6c25a6348c2007dee422ac2bc4a4c", "type": "electric_scooter", "lat": 38.92067516666667, "is_reserved": 0, "lon": -77.03466416666667, "fusion_lon": 0.0, "is_disabled": 0, "fusion_lat": 0.0, "bike_id": "e4e6c25a6348c2007dee422ac2bc4a4c", "rental_uris": {"ios": "https://dc.lft.to/lastmile_qr_scan", "android": "https://dc.lft.to/lastmile_qr_scan"}}, {"name": "65b5163673eb820eed1e18035fc97777", "type": "electric_scooter", "lat": 38.86702016666667, "is_reserved": 0, "lon": -76.98717833333333, "fusion_lon": 0.0, "is_disabled": 0, "fusion_lat": 0.0, "bike_id": "65b5163673eb820eed1e18035fc97777", "rental_uris": {"ios": "https://dc.lft.to/lastmile_qr_scan", "android": "https://dc.lft.to/lastmile_qr_scan"}}, {"name": "e1d837d2c8bb21e16b16effd0a38add9", "type": "electric_scooter", "lat": 38.9001015, "is_reserved": 0, "lon": -76.991634, "fusion_lon": 0.0, "is_disabled": 0, "fusion_lat": 0.0, "bike_id": "e1d837d2c8bb21e16b16effd0a38add9", "rental_uris": {"ios": "https://dc.lft.to/lastmile_qr_scan", "android": "https://dc.lft.to/lastmile_qr_scan"}}, {"name": "2a21679c29f1784ee1956935d28f3cdd", "type": "electric_bike", "lat": 38.99938616666667, "is_reserved": 0, "lon": -77.01768966666667, "fusion_lon": 0.0, "is_disabled": 0, "fusion_lat": 0.0, "bike_id": "2a21679c29f1784ee1956935d28f3cdd", "rental_uris": {"ios": "https://dc.lft.to/lastmile_qr_scan", "android": "https://dc.lft.to/lastmile_qr_scan"}}, {"name": "222d28c1c0b6ec2d50d4a0a5cf780cc4", "type": "electric_scooter", "lat": 38.93385833333333, "is_reserved": 0, "lon": -77.02971583333333, "fusion_lon": 0.0, "is_disabled": 0, "fusion_lat": 0.0, "bike_id": "222d28c1c0b6ec2d50d4a0a5cf780cc4", "rental_uris": {"ios": "https://dc.lft.to/lastmile_qr_scan", "android": "https://dc.lft.to/lastmile_qr_scan"}}, {"name": "82180640aab89ee6609885c46b999850", "type": "electric_bike", "lat": 38.96624466666667, "is_reserved": 0, "lon": -76.97671416666667, "fusion_lon": 0.0, "is_disabled": 0, "fusion_lat": 0.0, "bike_id": "82180640aab89ee6609885c46b999850", "rental_uris": {"ios": "https://dc.lft.to/lastmile_qr_scan", "android": "https://dc.lft.to/lastmile_qr_scan"}}, {"name": "f89f3c28ef466860dc0165626e4472cd", "type": "electric_scooter", "lat": 38.93975916666667, "is_reserved": 0, "lon": -77.02906083333333, "fusion_lon": 0.0, "is_disabled": 0, "fusion_lat": 0.0, "bike_id": "f89f3c28ef466860dc0165626e4472cd", "rental_uris": {"ios": "https://dc.lft.to/lastmile_qr_scan", "android": "https://dc.lft.to/lastmile_qr_scan"}}, {"name": "7c149ae763a9c9db55ddfab28dd295f9", "type": "electric_scooter", "lat": 38.92185583333333, "is_reserved": 0, "lon": -77.0266685, "fusion_lon": 0.0, "is_disabled": 0, "fusion_lat": 0.0, "bike_id": "7c149ae763a9c9db55ddfab28dd295f9", "rental_uris": {"ios": "https://dc.lft.to/lastmile_qr_scan", "android": "https://dc.lft.to/lastmile_qr_scan"}}, {"name": "7f834e6f4bed6a7de2da37ccc461b299", "type": "electric_scooter", "lat": 38.92357666666667, "is_reserved": 0, "lon": -77.04145066666666, "fusion_lon": 0.0, "is_disabled": 0, "fusion_lat": 0.0, "bike_id": "7f834e6f4bed6a7de2da37ccc461b299", "rental_uris": {"ios": "https://dc.lft.to/lastmile_qr_scan", "android": "https://dc.lft.to/lastmile_qr_scan"}}, {"name": "25e1ca0af2a1f4068a26e8ac5dc42679", "type": "electric_scooter", "lat": 38.92058816666667, "is_reserved": 0, "lon": -77.03350016666667, "fusion_lon": 0.0, "is_disabled": 0, "fusion_lat": 0.0, "bike_id": "25e1ca0af2a1f4068a26e8ac5dc42679", "rental_uris": {"ios": "https://dc.lft.to/lastmile_qr_scan", "android": "https://dc.lft.to/lastmile_qr_scan"}}, {"name": "913a5ee2ac7fea5b4398bd9c1b3b051f", "type": "electric_bike", "lat": 38.85855183333334, "is_reserved": 0, "lon": -77.09754116666667, "fusion_lon": 0.0, "is_disabled": 0, "fusion_lat": 0.0, "bike_id": "913a5ee2ac7fea5b4398bd9c1b3b051f", "rental_uris": {"ios": "https://dc.lft.to/lastmile_qr_scan", "android": "https://dc.lft.to/lastmile_qr_scan"}}, {"name": "2533950d043d42dbcd5a358c56267151", "type": "electric_scooter", "lat": 38.9224685, "is_reserved": 0, "lon": -77.03473266666667, "fusion_lon": 0.0, "is_disabled": 0, "fusion_lat": 0.0, "bike_id": "2533950d043d42dbcd5a358c56267151", "rental_uris": {"ios": "https://dc.lft.to/lastmile_qr_scan", "android": "https://dc.lft.to/lastmile_qr_scan"}}, {"name": "652d085945888ab6e21502b4ee297595", "type": "electric_scooter", "lat": 38.894846666666666, "is_reserved": 0, "lon": -77.021184, "fusion_lon": 0.0, "is_disabled": 0, "fusion_lat": 0.0, "bike_id": "652d085945888ab6e21502b4ee297595", "rental_uris": {"ios": "https://dc.lft.to/lastmile_qr_scan", "android": "https://dc.lft.to/lastmile_qr_scan"}}, {"name": "5dba87bdfcac87301db3b95049090bfd", "type": "electric_scooter", "lat": 38.92968916666667, "is_reserved": 0, "lon": -77.005359, "fusion_lon": 0.0, "is_disabled": 0, "fusion_lat": 0.0, "bike_id": "5dba87bdfcac87301db3b95049090bfd", "rental_uris": {"ios": "https://dc.lft.to/lastmile_qr_scan", "android": "https://dc.lft.to/lastmile_qr_scan"}}, {"name": "693b6cf23cd8860e3451b06b3d4bdc56", "type": "electric_scooter", "lat": 38.938654166666666, "is_reserved": 0, "lon": -77.02673283333333, "fusion_lon": 0.0, "is_disabled": 0, "fusion_lat": 0.0, "bike_id": "693b6cf23cd8860e3451b06b3d4bdc56", "rental_uris": {"ios": "https://dc.lft.to/lastmile_qr_scan", "android": "https://dc.lft.to/lastmile_qr_scan"}}, {"name": "a27af50dd1c772b0c1d33620b7ea2f20", "type": "electric_scooter", "lat": 38.926415, "is_reserved": 0, "lon": -77.03467616666667, "fusion_lon": 0.0, "is_disabled": 0, "fusion_lat": 0.0, "bike_id": "a27af50dd1c772b0c1d33620b7ea2f20", "rental_uris": {"ios": "https://dc.lft.to/lastmile_qr_scan", "android": "https://dc.lft.to/lastmile_qr_scan"}}, {"name": "1f8d42e46f661931044fe8bf07687d6d", "type": "electric_scooter", "lat": 38.89677116666667, "is_reserved": 0, "lon": -77.02604133333334, "fusion_lon": 0.0, "is_disabled": 0, "fusion_lat": 0.0, "bike_id": "1f8d42e46f661931044fe8bf07687d6d", "rental_uris": {"ios": "https://dc.lft.to/lastmile_qr_scan", "android": "https://dc.lft.to/lastmile_qr_scan"}}, {"name": "d5cd26eb6c5efe2d9540449957f87184", "type": "electric_scooter", "lat": 38.9067825, "is_reserved": 0, "lon": -77.03827983333333, "fusion_lon": 0.0, "is_disabled": 0, "fusion_lat": 0.0, "bike_id": "d5cd26eb6c5efe2d9540449957f87184", "rental_uris": {"ios": "https://dc.lft.to/lastmile_qr_scan", "android": "https://dc.lft.to/lastmile_qr_scan"}}, {"name": "51342f5be40074ad207aeaa3267be890", "type": "electric_bike", "lat": 38.9568585, "is_reserved": 0, "lon": -77.02229616666666, "fusion_lon": 0.0, "is_disabled": 0, "fusion_lat": 0.0, "bike_id": "51342f5be40074ad207aeaa3267be890", "rental_uris": {"ios": "https://dc.lft.to/lastmile_qr_scan", "android": "https://dc.lft.to/lastmile_qr_scan"}}, {"name": "aadad7abb49849ca228c95eb512ce949", "type": "electric_scooter", "lat": 38.90541966666667, "is_reserved": 0, "lon": -77.05028883333334, "fusion_lon": 0.0, "is_disabled": 0, "fusion_lat": 0.0, "bike_id": "aadad7abb49849ca228c95eb512ce949", "rental_uris": {"ios": "https://dc.lft.to/lastmile_qr_scan", "android": "https://dc.lft.to/lastmile_qr_scan"}}, {"name": "3cf1db3e7b2eabf88bcea503d47b5d5e", "type": "electric_scooter", "lat": 38.9154785, "is_reserved": 0, "lon": -77.038564, "fusion_lon": 0.0, "is_disabled": 0, "fusion_lat": 0.0, "bike_id": "3cf1db3e7b2eabf88bcea503d47b5d5e", "rental_uris": {"ios": "https://dc.lft.to/lastmile_qr_scan", "android": "https://dc.lft.to/lastmile_qr_scan"}}, {"name": "f4cc82e628eaf7b4d615c491d321042e", "type": "electric_scooter", "lat": 38.8877345, "is_reserved": 0, "lon": -76.9326575, "fusion_lon": 0.0, "is_disabled": 0, "fusion_lat": 0.0, "bike_id": "f4cc82e628eaf7b4d615c491d321042e", "rental_uris": {"ios": "https://dc.lft.to/lastmile_qr_scan", "android": "https://dc.lft.to/lastmile_qr_scan"}}, {"name": "98507cac53c86d5e897136543acf4227", "type": "electric_scooter", "lat": 38.8982885, "is_reserved": 0, "lon": -76.94652116666667, "fusion_lon": 0.0, "is_disabled": 0, "fusion_lat": 0.0, "bike_id": "98507cac53c86d5e897136543acf4227", "rental_uris": {"ios": "https://dc.lft.to/lastmile_qr_scan", "android": "https://dc.lft.to/lastmile_qr_scan"}}, {"name": "198249aeaeef42477935430b481538ca", "type": "electric_scooter", "lat": 38.89829533333333, "is_reserved": 0, "lon": -76.94655533333334, "fusion_lon": 0.0, "is_disabled": 0, "fusion_lat": 0.0, "bike_id": "198249aeaeef42477935430b481538ca", "rental_uris": {"ios": "https://dc.lft.to/lastmile_qr_scan", "android": "https://dc.lft.to/lastmile_qr_scan"}}, {"name": "e74401e850be3da1b24540fd3a916ab3", "type": "electric_scooter", "lat": 38.92051766666667, "is_reserved": 0, "lon": -77.033992, "fusion_lon": 0.0, "is_disabled": 0, "fusion_lat": 0.0, "bike_id": "e74401e850be3da1b24540fd3a916ab3", "rental_uris": {"ios": "https://dc.lft.to/lastmile_qr_scan", "android": "https://dc.lft.to/lastmile_qr_scan"}}, {"name": "dd5beaac58fa19358b953daf18cbcdd1", "type": "electric_scooter", "lat": 38.93634683333333, "is_reserved": 0, "lon": -77.03672683333333, "fusion_lon": 0.0, "is_disabled": 0, "fusion_lat": 0.0, "bike_id": "dd5beaac58fa19358b953daf18cbcdd1", "rental_uris": {"ios": "https://dc.lft.to/lastmile_qr_scan", "android": "https://dc.lft.to/lastmile_qr_scan"}}, {"name": "ae2b3d071afe0371de8b41c4f0b55211", "type": "electric_scooter", "lat": 38.90028816666667, "is_reserved": 0, "lon": -77.01163616666666, "fusion_lon": 0.0, "is_disabled": 0, "fusion_lat": 0.0, "bike_id": "ae2b3d071afe0371de8b41c4f0b55211", "rental_uris": {"ios": "https://dc.lft.to/lastmile_qr_scan", "android": "https://dc.lft.to/lastmile_qr_scan"}}, {"name": "2a9fd9f8282062a5a5e81b26bf257a8b", "type": "electric_scooter", "lat": 38.8773335, "is_reserved": 0, "lon": -76.972869, "fusion_lon": 0.0, "is_disabled": 0, "fusion_lat": 0.0, "bike_id": "2a9fd9f8282062a5a5e81b26bf257a8b", "rental_uris": {"ios": "https://dc.lft.to/lastmile_qr_scan", "android": "https://dc.lft.to/lastmile_qr_scan"}}, {"name": "44f33b7285a84a03d98a025cc51850c9", "type": "electric_scooter", "lat": 38.948369666666665, "is_reserved": 0, "lon": -77.0255175, "fusion_lon": 0.0, "is_disabled": 0, "fusion_lat": 0.0, "bike_id": "44f33b7285a84a03d98a025cc51850c9", "rental_uris": {"ios": "https://dc.lft.to/lastmile_qr_scan", "android": "https://dc.lft.to/lastmile_qr_scan"}}, {"name": "2381b43338a31e4a77a2af404fa80cb4", "type": "electric_scooter", "lat": 38.862043666666665, "is_reserved": 0, "lon": -76.99464733333333, "fusion_lon": 0.0, "is_disabled": 0, "fusion_lat": 0.0, "bike_id": "2381b43338a31e4a77a2af404fa80cb4", "rental_uris": {"ios": "https://dc.lft.to/lastmile_qr_scan", "android": "https://dc.lft.to/lastmile_qr_scan"}}, {"name": "319c44ab6fde5ade069d44b5edc73be7", "type": "electric_scooter", "lat": 38.9111215, "is_reserved": 0, "lon": -77.04231066666667, "fusion_lon": 0.0, "is_disabled": 0, "fusion_lat": 0.0, "bike_id": "319c44ab6fde5ade069d44b5edc73be7", "rental_uris": {"ios": "https://dc.lft.to/lastmile_qr_scan", "android": "https://dc.lft.to/lastmile_qr_scan"}}, {"name": "7540d47f45e9f3ec24b9af3f61f9c3c3", "type": "electric_scooter", "lat": 38.93257833333333, "is_reserved": 0, "lon": -77.0327925, "fusion_lon": 0.0, "is_disabled": 0, "fusion_lat": 0.0, "bike_id": "7540d47f45e9f3ec24b9af3f61f9c3c3", "rental_uris": {"ios": "https://dc.lft.to/lastmile_qr_scan", "android": "https://dc.lft.to/lastmile_qr_scan"}}, {"name": "13187fd7a629caf59d4ea059054d665a", "type": "electric_scooter", "lat": 38.93498916666667, "is_reserved": 0, "lon": -77.02723483333334, "fusion_lon": 0.0, "is_disabled": 0, "fusion_lat": 0.0, "bike_id": "13187fd7a629caf59d4ea059054d665a", "rental_uris": {"ios": "https://dc.lft.to/lastmile_qr_scan", "android": "https://dc.lft.to/lastmile_qr_scan"}}, {"name": "9d7efcb1d46fd472ae8efa272582446b", "type": "electric_scooter", "lat": 38.90344316666667, "is_reserved": 0, "lon": -77.02540516666667, "fusion_lon": 0.0, "is_disabled": 0, "fusion_lat": 0.0, "bike_id": "9d7efcb1d46fd472ae8efa272582446b", "rental_uris": {"ios": "https://dc.lft.to/lastmile_qr_scan", "android": "https://dc.lft.to/lastmile_qr_scan"}}, {"name": "fd334aa2b88f319a2402080bf055f23c", "type": "electric_scooter", "lat": 38.9290065, "is_reserved": 0, "lon": -77.02505983333333, "fusion_lon": 0.0, "is_disabled": 0, "fusion_lat": 0.0, "bike_id": "fd334aa2b88f319a2402080bf055f23c", "rental_uris": {"ios": "https://dc.lft.to/lastmile_qr_scan", "android": "https://dc.lft.to/lastmile_qr_scan"}}, {"name": "7c9aca685b4e44c972ce953b258ec83b", "type": "electric_bike", "lat": 38.922804666666664, "is_reserved": 0, "lon": -77.03665416666666, "fusion_lon": 0.0, "is_disabled": 0, "fusion_lat": 0.0, "bike_id": "7c9aca685b4e44c972ce953b258ec83b", "rental_uris": {"ios": "https://dc.lft.to/lastmile_qr_scan", "android": "https://dc.lft.to/lastmile_qr_scan"}}, {"name": "f99ea225eaf7af38b2432bda2c2c3284", "type": "electric_scooter", "lat": 38.89508433333334, "is_reserved": 0, "lon": -77.0033825, "fusion_lon": 0.0, "is_disabled": 0, "fusion_lat": 0.0, "bike_id": "f99ea225eaf7af38b2432bda2c2c3284", "rental_uris": {"ios": "https://dc.lft.to/lastmile_qr_scan", "android": "https://dc.lft.to/lastmile_qr_scan"}}, {"name": "e436dee2db0ae922b807218e75b6786e", "type": "electric_scooter", "lat": 38.92959666666667, "is_reserved": 0, "lon": -77.0234265, "fusion_lon": 0.0, "is_disabled": 0, "fusion_lat": 0.0, "bike_id": "e436dee2db0ae922b807218e75b6786e", "rental_uris": {"ios": "https://dc.lft.to/lastmile_qr_scan", "android": "https://dc.lft.to/lastmile_qr_scan"}}, {"name": "96886a3c96e6081f8bad9aff171e2f9c", "type": "electric_bike", "lat": 38.959600333333334, "is_reserved": 0, "lon": -77.10091283333334, "fusion_lon": 0.0, "is_disabled": 0, "fusion_lat": 0.0, "bike_id": "96886a3c96e6081f8bad9aff171e2f9c", "rental_uris": {"ios": "https://dc.lft.to/lastmile_qr_scan", "android": "https://dc.lft.to/lastmile_qr_scan"}}, {"name": "1ffd57a1e02c42b6699d6e2a88fde4c9", "type": "electric_scooter", "lat": 38.88496383333333, "is_reserved": 0, "lon": -77.0072935, "fusion_lon": 0.0, "is_disabled": 0, "fusion_lat": 0.0, "bike_id": "1ffd57a1e02c42b6699d6e2a88fde4c9", "rental_uris": {"ios": "https://dc.lft.to/lastmile_qr_scan", "android": "https://dc.lft.to/lastmile_qr_scan"}}, {"name": "fd76008221b68c36617bb2210e8c7f47", "type": "electric_scooter", "lat": 38.907880166666665, "is_reserved": 0, "lon": -77.00961766666667, "fusion_lon": 0.0, "is_disabled": 0, "fusion_lat": 0.0, "bike_id": "fd76008221b68c36617bb2210e8c7f47", "rental_uris": {"ios": "https://dc.lft.to/lastmile_qr_scan", "android": "https://dc.lft.to/lastmile_qr_scan"}}, {"name": "4d5ca65f44a93cacbac61aa15d96fc5f", "type": "electric_scooter", "lat": 38.906415333333335, "is_reserved": 0, "lon": -77.00881833333334, "fusion_lon": 0.0, "is_disabled": 0, "fusion_lat": 0.0, "bike_id": "4d5ca65f44a93cacbac61aa15d96fc5f", "rental_uris": {"ios": "https://dc.lft.to/lastmile_qr_scan", "android": "https://dc.lft.to/lastmile_qr_scan"}}, {"name": "c1d997e62d20c6e50f781d6b214ddd13", "type": "electric_scooter", "lat": 38.9279105, "is_reserved": 0, "lon": -77.03981766666666, "fusion_lon": 0.0, "is_disabled": 0, "fusion_lat": 0.0, "bike_id": "c1d997e62d20c6e50f781d6b214ddd13", "rental_uris": {"ios": "https://dc.lft.to/lastmile_qr_scan", "android": "https://dc.lft.to/lastmile_qr_scan"}}, {"name": "c3738e83aa727a94dece588d0c1ebb37", "type": "electric_scooter", "lat": 38.9027425, "is_reserved": 0, "lon": -77.05963416666667, "fusion_lon": 0.0, "is_disabled": 0, "fusion_lat": 0.0, "bike_id": "c3738e83aa727a94dece588d0c1ebb37", "rental_uris": {"ios": "https://dc.lft.to/lastmile_qr_scan", "android": "https://dc.lft.to/lastmile_qr_scan"}}, {"name": "6252b0d10c3fed2db36ad77d6fb97db7", "type": "electric_scooter", "lat": 38.92991033333333, "is_reserved": 0, "lon": -77.0248815, "fusion_lon": 0.0, "is_disabled": 0, "fusion_lat": 0.0, "bike_id": "6252b0d10c3fed2db36ad77d6fb97db7", "rental_uris": {"ios": "https://dc.lft.to/lastmile_qr_scan", "android": "https://dc.lft.to/lastmile_qr_scan"}}, {"name": "c2705bd3eb784ffe83a1a51ebd8881ab", "type": "electric_scooter", "lat": 38.90407116666667, "is_reserved": 0, "lon": -77.04360083333333, "fusion_lon": 0.0, "is_disabled": 0, "fusion_lat": 0.0, "bike_id": "c2705bd3eb784ffe83a1a51ebd8881ab", "rental_uris": {"ios": "https://dc.lft.to/lastmile_qr_scan", "android": "https://dc.lft.to/lastmile_qr_scan"}}, {"name": "e0f0c71944790cbbe7e6d61bb359b885", "type": "electric_scooter", "lat": 38.911967833333335, "is_reserved": 0, "lon": -77.06094533333334, "fusion_lon": 0.0, "is_disabled": 0, "fusion_lat": 0.0, "bike_id": "e0f0c71944790cbbe7e6d61bb359b885", "rental_uris": {"ios": "https://dc.lft.to/lastmile_qr_scan", "android": "https://dc.lft.to/lastmile_qr_scan"}}, {"name": "b83f414a1a4d29c66663f44f3f528dfa", "type": "electric_scooter", "lat": 38.904618666666664, "is_reserved": 0, "lon": -77.01427383333333, "fusion_lon": 0.0, "is_disabled": 0, "fusion_lat": 0.0, "bike_id": "b83f414a1a4d29c66663f44f3f528dfa", "rental_uris": {"ios": "https://dc.lft.to/lastmile_qr_scan", "android": "https://dc.lft.to/lastmile_qr_scan"}}, {"name": "c0869fb0a03f15d9ddf3c77eb5c0b448", "type": "electric_scooter", "lat": 38.915694, "is_reserved": 0, "lon": -77.0394735, "fusion_lon": 0.0, "is_disabled": 0, "fusion_lat": 0.0, "bike_id": "c0869fb0a03f15d9ddf3c77eb5c0b448", "rental_uris": {"ios": "https://dc.lft.to/lastmile_qr_scan", "android": "https://dc.lft.to/lastmile_qr_scan"}}, {"name": "c9a3e4b8177dad260af390f4d24b1f30", "type": "electric_scooter", "lat": 38.928521833333335, "is_reserved": 0, "lon": -77.0541755, "fusion_lon": 0.0, "is_disabled": 0, "fusion_lat": 0.0, "bike_id": "c9a3e4b8177dad260af390f4d24b1f30", "rental_uris": {"ios": "https://dc.lft.to/lastmile_qr_scan", "android": "https://dc.lft.to/lastmile_qr_scan"}}, {"name": "ca55ec0bc10c65d4e08674b96a7d3309", "type": "electric_bike", "lat": 38.92904983333333, "is_reserved": 0, "lon": -77.065031, "fusion_lon": 0.0, "is_disabled": 0, "fusion_lat": 0.0, "bike_id": "ca55ec0bc10c65d4e08674b96a7d3309", "rental_uris": {"ios": "https://dc.lft.to/lastmile_qr_scan", "android": "https://dc.lft.to/lastmile_qr_scan"}}, {"name": "fac2c1a9d51b89640ea233cbe454a287", "type": "electric_scooter", "lat": 38.89549916666667, "is_reserved": 0, "lon": -77.00920333333333, "fusion_lon": 0.0, "is_disabled": 0, "fusion_lat": 0.0, "bike_id": "fac2c1a9d51b89640ea233cbe454a287", "rental_uris": {"ios": "https://dc.lft.to/lastmile_qr_scan", "android": "https://dc.lft.to/lastmile_qr_scan"}}, {"name": "3635f604d41315a164ca0cb3948dc4df", "type": "electric_scooter", "lat": 38.910615666666665, "is_reserved": 0, "lon": -77.0304125, "fusion_lon": 0.0, "is_disabled": 0, "fusion_lat": 0.0, "bike_id": "3635f604d41315a164ca0cb3948dc4df", "rental_uris": {"ios": "https://dc.lft.to/lastmile_qr_scan", "android": "https://dc.lft.to/lastmile_qr_scan"}}, {"name": "9a0b1232914957251522f6e401701537", "type": "electric_scooter", "lat": 38.89526083333333, "is_reserved": 0, "lon": -77.01614033333334, "fusion_lon": 0.0, "is_disabled": 0, "fusion_lat": 0.0, "bike_id": "9a0b1232914957251522f6e401701537", "rental_uris": {"ios": "https://dc.lft.to/lastmile_qr_scan", "android": "https://dc.lft.to/lastmile_qr_scan"}}, {"name": "4802d8d7c2fbe6aff58f690410339c87", "type": "electric_scooter", "lat": 38.935056, "is_reserved": 0, "lon": -77.02852933333334, "fusion_lon": 0.0, "is_disabled": 0, "fusion_lat": 0.0, "bike_id": "4802d8d7c2fbe6aff58f690410339c87", "rental_uris": {"ios": "https://dc.lft.to/lastmile_qr_scan", "android": "https://dc.lft.to/lastmile_qr_scan"}}, {"name": "fea0d6570380c9a5b5bc783ae23f2e5a", "type": "electric_scooter", "lat": 38.92073383333334, "is_reserved": 0, "lon": -77.03216416666666, "fusion_lon": 0.0, "is_disabled": 0, "fusion_lat": 0.0, "bike_id": "fea0d6570380c9a5b5bc783ae23f2e5a", "rental_uris": {"ios": "https://dc.lft.to/lastmile_qr_scan", "android": "https://dc.lft.to/lastmile_qr_scan"}}, {"name": "622d52a79ae9e5018a005e7afc488d11", "type": "electric_scooter", "lat": 38.941844333333336, "is_reserved": 0, "lon": -77.03096, "fusion_lon": 0.0, "is_disabled": 0, "fusion_lat": 0.0, "bike_id": "622d52a79ae9e5018a005e7afc488d11", "rental_uris": {"ios": "https://dc.lft.to/lastmile_qr_scan", "android": "https://dc.lft.to/lastmile_qr_scan"}}, {"name": "7f3b424bf9aeda7e531afe6404fcd0d1", "type": "electric_scooter", "lat": 38.90608616666667, "is_reserved": 0, "lon": -77.01325083333333, "fusion_lon": 0.0, "is_disabled": 0, "fusion_lat": 0.0, "bike_id": "7f3b424bf9aeda7e531afe6404fcd0d1", "rental_uris": {"ios": "https://dc.lft.to/lastmile_qr_scan", "android": "https://dc.lft.to/lastmile_qr_scan"}}, {"name": "f81a00384fd7b5192dfc9e092a882fe8", "type": "electric_bike", "lat": 38.85436683333333, "is_reserved": 0, "lon": -77.11705783333333, "fusion_lon": 0.0, "is_disabled": 0, "fusion_lat": 0.0, "bike_id": "f81a00384fd7b5192dfc9e092a882fe8", "rental_uris": {"ios": "https://dc.lft.to/lastmile_qr_scan", "android": "https://dc.lft.to/lastmile_qr_scan"}}, {"name": "3111d06601d4bb82f033ae334b3f597b", "type": "electric_scooter", "lat": 38.92683183333333, "is_reserved": 0, "lon": -77.0215945, "fusion_lon": 0.0, "is_disabled": 0, "fusion_lat": 0.0, "bike_id": "3111d06601d4bb82f033ae334b3f597b", "rental_uris": {"ios": "https://dc.lft.to/lastmile_qr_scan", "android": "https://dc.lft.to/lastmile_qr_scan"}}, {"name": "5fb049937827238b74840e9bb5c89ca6", "type": "electric_scooter", "lat": 38.907202833333336, "is_reserved": 0, "lon": -77.02507733333333, "fusion_lon": 0.0, "is_disabled": 0, "fusion_lat": 0.0, "bike_id": "5fb049937827238b74840e9bb5c89ca6", "rental_uris": {"ios": "https://dc.lft.to/lastmile_qr_scan", "android": "https://dc.lft.to/lastmile_qr_scan"}}, {"name": "f5f5e9b13056e18ee1636d106726bdf4", "type": "electric_scooter", "lat": 38.8789035, "is_reserved": 0, "lon": -77.022094, "fusion_lon": 0.0, "is_disabled": 0, "fusion_lat": 0.0, "bike_id": "f5f5e9b13056e18ee1636d106726bdf4", "rental_uris": {"ios": "https://dc.lft.to/lastmile_qr_scan", "android": "https://dc.lft.to/lastmile_qr_scan"}}, {"name": "803f41b98c326a9ef5b3779ccc37976e", "type": "electric_bike", "lat": 38.9118115, "is_reserved": 0, "lon": -77.011486, "fusion_lon": 0.0, "is_disabled": 0, "fusion_lat": 0.0, "bike_id": "803f41b98c326a9ef5b3779ccc37976e", "rental_uris": {"ios": "https://dc.lft.to/lastmile_qr_scan", "android": "https://dc.lft.to/lastmile_qr_scan"}}, {"name": "7a11a6bd47ecc6bdf105a994ec55e52d", "type": "electric_scooter", "lat": 38.93530533333333, "is_reserved": 0, "lon": -77.028558, "fusion_lon": 0.0, "is_disabled": 0, "fusion_lat": 0.0, "bike_id": "7a11a6bd47ecc6bdf105a994ec55e52d", "rental_uris": {"ios": "https://dc.lft.to/lastmile_qr_scan", "android": "https://dc.lft.to/lastmile_qr_scan"}}, {"name": "4ddc5f1dca074989a75dcb3bea2247e8", "type": "electric_bike", "lat": 38.948904666666664, "is_reserved": 0, "lon": -77.01927716666667, "fusion_lon": 0.0, "is_disabled": 0, "fusion_lat": 0.0, "bike_id": "4ddc5f1dca074989a75dcb3bea2247e8", "rental_uris": {"ios": "https://dc.lft.to/lastmile_qr_scan", "android": "https://dc.lft.to/lastmile_qr_scan"}}, {"name": "007860af9a08fe3a1dabea78df675418", "type": "electric_scooter", "lat": 38.90797366666666, "is_reserved": 0, "lon": -76.99702916666666, "fusion_lon": 0.0, "is_disabled": 0, "fusion_lat": 0.0, "bike_id": "007860af9a08fe3a1dabea78df675418", "rental_uris": {"ios": "https://dc.lft.to/lastmile_qr_scan", "android": "https://dc.lft.to/lastmile_qr_scan"}}, {"name": "3561c77fd95c35b2ed3624f3a4d91dd3", "type": "electric_scooter", "lat": 38.911070333333335, "is_reserved": 0, "lon": -77.002217, "fusion_lon": 0.0, "is_disabled": 0, "fusion_lat": 0.0, "bike_id": "3561c77fd95c35b2ed3624f3a4d91dd3", "rental_uris": {"ios": "https://dc.lft.to/lastmile_qr_scan", "android": "https://dc.lft.to/lastmile_qr_scan"}}, {"name": "514c8cd78e8bf10315e2e8a9b2d537da", "type": "electric_scooter", "lat": 38.941748833333335, "is_reserved": 0, "lon": -77.04134366666666, "fusion_lon": 0.0, "is_disabled": 0, "fusion_lat": 0.0, "bike_id": "514c8cd78e8bf10315e2e8a9b2d537da", "rental_uris": {"ios": "https://dc.lft.to/lastmile_qr_scan", "android": "https://dc.lft.to/lastmile_qr_scan"}}, {"name": "1b34ba5fcb822a30b3286a7c409e6525", "type": "electric_bike", "lat": 38.881843, "is_reserved": 0, "lon": -76.9995395, "fusion_lon": 0.0, "is_disabled": 0, "fusion_lat": 0.0, "bike_id": "1b34ba5fcb822a30b3286a7c409e6525", "rental_uris": {"ios": "https://dc.lft.to/lastmile_qr_scan", "android": "https://dc.lft.to/lastmile_qr_scan"}}, {"name": "e6f3bcaa6811fc331c04dde1b08e08cd", "type": "electric_scooter", "lat": 38.903590333333334, "is_reserved": 0, "lon": -77.01107883333333, "fusion_lon": 0.0, "is_disabled": 0, "fusion_lat": 0.0, "bike_id": "e6f3bcaa6811fc331c04dde1b08e08cd", "rental_uris": {"ios": "https://dc.lft.to/lastmile_qr_scan", "android": "https://dc.lft.to/lastmile_qr_scan"}}, {"name": "2a5017e1896d7b9f2d5abbfec244e39d", "type": "electric_scooter", "lat": 38.92897133333334, "is_reserved": 0, "lon": -77.0545625, "fusion_lon": 0.0, "is_disabled": 0, "fusion_lat": 0.0, "bike_id": "2a5017e1896d7b9f2d5abbfec244e39d", "rental_uris": {"ios": "https://dc.lft.to/lastmile_qr_scan", "android": "https://dc.lft.to/lastmile_qr_scan"}}, {"name": "6a8c3ef52626ed778069c796ef42a55e", "type": "electric_scooter", "lat": 38.91999966666667, "is_reserved": 0, "lon": -77.03974733333334, "fusion_lon": 0.0, "is_disabled": 0, "fusion_lat": 0.0, "bike_id": "6a8c3ef52626ed778069c796ef42a55e", "rental_uris": {"ios": "https://dc.lft.to/lastmile_qr_scan", "android": "https://dc.lft.to/lastmile_qr_scan"}}, {"name": "11dc46170806a80ed6f78a01d50dde1d", "type": "electric_scooter", "lat": 38.903393, "is_reserved": 0, "lon": -77.06661966666667, "fusion_lon": 0.0, "is_disabled": 0, "fusion_lat": 0.0, "bike_id": "11dc46170806a80ed6f78a01d50dde1d", "rental_uris": {"ios": "https://dc.lft.to/lastmile_qr_scan", "android": "https://dc.lft.to/lastmile_qr_scan"}}, {"name": "de7bd6b7bce6680dd5b19e3abca71432", "type": "electric_bike", "lat": 38.949023, "is_reserved": 0, "lon": -76.9637585, "fusion_lon": 0.0, "is_disabled": 0, "fusion_lat": 0.0, "bike_id": "de7bd6b7bce6680dd5b19e3abca71432", "rental_uris": {"ios": "https://dc.lft.to/lastmile_qr_scan", "android": "https://dc.lft.to/lastmile_qr_scan"}}, {"name": "1e44c2b4ceb25e2c860d06a27582074b", "type": "electric_scooter", "lat": 38.9102935, "is_reserved": 0, "lon": -77.0482065, "fusion_lon": 0.0, "is_disabled": 0, "fusion_lat": 0.0, "bike_id": "1e44c2b4ceb25e2c860d06a27582074b", "rental_uris": {"ios": "https://dc.lft.to/lastmile_qr_scan", "android": "https://dc.lft.to/lastmile_qr_scan"}}, {"name": "bebdbae2b0435cab07c84bf015262a5e", "type": "electric_scooter", "lat": 38.9263885, "is_reserved": 0, "lon": -77.03400633333334, "fusion_lon": 0.0, "is_disabled": 0, "fusion_lat": 0.0, "bike_id": "bebdbae2b0435cab07c84bf015262a5e", "rental_uris": {"ios": "https://dc.lft.to/lastmile_qr_scan", "android": "https://dc.lft.to/lastmile_qr_scan"}}, {"name": "cb632c56c7fdf3288a01ea45ddecda9b", "type": "electric_scooter", "lat": 38.856366, "is_reserved": 0, "lon": -76.9745655, "fusion_lon": 0.0, "is_disabled": 0, "fusion_lat": 0.0, "bike_id": "cb632c56c7fdf3288a01ea45ddecda9b", "rental_uris": {"ios": "https://dc.lft.to/lastmile_qr_scan", "android": "https://dc.lft.to/lastmile_qr_scan"}}, {"name": "af97727c1c865a013995bcff59327ce8", "type": "electric_scooter", "lat": 38.89878933333333, "is_reserved": 0, "lon": -76.93160083333333, "fusion_lon": 0.0, "is_disabled": 0, "fusion_lat": 0.0, "bike_id": "af97727c1c865a013995bcff59327ce8", "rental_uris": {"ios": "https://dc.lft.to/lastmile_qr_scan", "android": "https://dc.lft.to/lastmile_qr_scan"}}, {"name": "c70f329058d5b07c024706dcf694b18d", "type": "electric_scooter", "lat": 38.92346, "is_reserved": 0, "lon": -77.0190875, "fusion_lon": 0.0, "is_disabled": 0, "fusion_lat": 0.0, "bike_id": "c70f329058d5b07c024706dcf694b18d", "rental_uris": {"ios": "https://dc.lft.to/lastmile_qr_scan", "android": "https://dc.lft.to/lastmile_qr_scan"}}, {"name": "1ba56697c032d1ad302d6a3c9db2e966", "type": "electric_scooter", "lat": 38.90509633333333, "is_reserved": 0, "lon": -77.06385683333333, "fusion_lon": 0.0, "is_disabled": 0, "fusion_lat": 0.0, "bike_id": "1ba56697c032d1ad302d6a3c9db2e966", "rental_uris": {"ios": "https://dc.lft.to/lastmile_qr_scan", "android": "https://dc.lft.to/lastmile_qr_scan"}}, {"name": "e0cc1b46f6427ec14e54ebf6dede52d6", "type": "electric_bike", "lat": 38.88840033333334, "is_reserved": 0, "lon": -76.9936715, "fusion_lon": 0.0, "is_disabled": 0, "fusion_lat": 0.0, "bike_id": "e0cc1b46f6427ec14e54ebf6dede52d6", "rental_uris": {"ios": "https://dc.lft.to/lastmile_qr_scan", "android": "https://dc.lft.to/lastmile_qr_scan"}}, {"name": "b2d291a9eda8483fdb7a75c91573562a", "type": "electric_scooter", "lat": 38.90973833333334, "is_reserved": 0, "lon": -77.01126466666666, "fusion_lon": 0.0, "is_disabled": 0, "fusion_lat": 0.0, "bike_id": "b2d291a9eda8483fdb7a75c91573562a", "rental_uris": {"ios": "https://dc.lft.to/lastmile_qr_scan", "android": "https://dc.lft.to/lastmile_qr_scan"}}, {"name": "20cedbcd731b1ceccdcd22a2954b23fc", "type": "electric_scooter", "lat": 38.9058805, "is_reserved": 0, "lon": -77.06517883333333, "fusion_lon": 0.0, "is_disabled": 0, "fusion_lat": 0.0, "bike_id": "20cedbcd731b1ceccdcd22a2954b23fc", "rental_uris": {"ios": "https://dc.lft.to/lastmile_qr_scan", "android": "https://dc.lft.to/lastmile_qr_scan"}}, {"name": "9efa35f7901a3584b2faf64e967d6eed", "type": "electric_scooter", "lat": 38.905655333333335, "is_reserved": 0, "lon": -77.00600333333334, "fusion_lon": 0.0, "is_disabled": 0, "fusion_lat": 0.0, "bike_id": "9efa35f7901a3584b2faf64e967d6eed", "rental_uris": {"ios": "https://dc.lft.to/lastmile_qr_scan", "android": "https://dc.lft.to/lastmile_qr_scan"}}, {"name": "cce05e6ec03cd0cb82bc763464f0ecd9", "type": "electric_scooter", "lat": 38.9186065, "is_reserved": 0, "lon": -76.9655395, "fusion_lon": 0.0, "is_disabled": 0, "fusion_lat": 0.0, "bike_id": "cce05e6ec03cd0cb82bc763464f0ecd9", "rental_uris": {"ios": "https://dc.lft.to/lastmile_qr_scan", "android": "https://dc.lft.to/lastmile_qr_scan"}}, {"name": "e2ca50e2fbc5689231ec7cb545be9e93", "type": "electric_bike", "lat": 38.9554415, "is_reserved": 0, "lon": -77.02300333333334, "fusion_lon": 0.0, "is_disabled": 0, "fusion_lat": 0.0, "bike_id": "e2ca50e2fbc5689231ec7cb545be9e93", "rental_uris": {"ios": "https://dc.lft.to/lastmile_qr_scan", "android": "https://dc.lft.to/lastmile_qr_scan"}}, {"name": "f09b3c37d33cc1e241a098e034c85f9b", "type": "electric_scooter", "lat": 38.920585833333334, "is_reserved": 0, "lon": -77.029818, "fusion_lon": 0.0, "is_disabled": 0, "fusion_lat": 0.0, "bike_id": "f09b3c37d33cc1e241a098e034c85f9b", "rental_uris": {"ios": "https://dc.lft.to/lastmile_qr_scan", "android": "https://dc.lft.to/lastmile_qr_scan"}}, {"name": "d918a023ea9c8f1f9dc22b8f2e1923a2", "type": "electric_scooter", "lat": 38.926326333333336, "is_reserved": 0, "lon": -77.035086, "fusion_lon": 0.0, "is_disabled": 0, "fusion_lat": 0.0, "bike_id": "d918a023ea9c8f1f9dc22b8f2e1923a2", "rental_uris": {"ios": "https://dc.lft.to/lastmile_qr_scan", "android": "https://dc.lft.to/lastmile_qr_scan"}}, {"name": "fb61754c0ac7a601942c76d1963765cd", "type": "electric_scooter", "lat": 38.90972683333333, "is_reserved": 0, "lon": -77.01718983333333, "fusion_lon": 0.0, "is_disabled": 0, "fusion_lat": 0.0, "bike_id": "fb61754c0ac7a601942c76d1963765cd", "rental_uris": {"ios": "https://dc.lft.to/lastmile_qr_scan", "android": "https://dc.lft.to/lastmile_qr_scan"}}, {"name": "136d9966858160eea36942dc770aada3", "type": "electric_scooter", "lat": 38.905877333333336, "is_reserved": 0, "lon": -77.06522683333333, "fusion_lon": 0.0, "is_disabled": 0, "fusion_lat": 0.0, "bike_id": "136d9966858160eea36942dc770aada3", "rental_uris": {"ios": "https://dc.lft.to/lastmile_qr_scan", "android": "https://dc.lft.to/lastmile_qr_scan"}}, {"name": "a30fe8977256011a1ce8e1263917e1fb", "type": "electric_scooter", "lat": 38.91972616666666, "is_reserved": 0, "lon": -77.00107833333334, "fusion_lon": 0.0, "is_disabled": 0, "fusion_lat": 0.0, "bike_id": "a30fe8977256011a1ce8e1263917e1fb", "rental_uris": {"ios": "https://dc.lft.to/lastmile_qr_scan", "android": "https://dc.lft.to/lastmile_qr_scan"}}, {"name": "3d0d4e97342854cd14d62dd5964b68c0", "type": "electric_scooter", "lat": 38.900757, "is_reserved": 0, "lon": -77.0506655, "fusion_lon": 0.0, "is_disabled": 0, "fusion_lat": 0.0, "bike_id": "3d0d4e97342854cd14d62dd5964b68c0", "rental_uris": {"ios": "https://dc.lft.to/lastmile_qr_scan", "android": "https://dc.lft.to/lastmile_qr_scan"}}, {"name": "46795a1bbfcb4f84ea0fd5c301ed3de6", "type": "electric_scooter", "lat": 38.897396666666666, "is_reserved": 0, "lon": -77.01312716666666, "fusion_lon": 0.0, "is_disabled": 0, "fusion_lat": 0.0, "bike_id": "46795a1bbfcb4f84ea0fd5c301ed3de6", "rental_uris": {"ios": "https://dc.lft.to/lastmile_qr_scan", "android": "https://dc.lft.to/lastmile_qr_scan"}}, {"name": "49ac7275eef27714ac088e45e4402306", "type": "electric_scooter", "lat": 38.91480516666667, "is_reserved": 0, "lon": -77.03209933333333, "fusion_lon": 0.0, "is_disabled": 0, "fusion_lat": 0.0, "bike_id": "49ac7275eef27714ac088e45e4402306", "rental_uris": {"ios": "https://dc.lft.to/lastmile_qr_scan", "android": "https://dc.lft.to/lastmile_qr_scan"}}, {"name": "790a5344ea60cf582b532f6aeb269ac7", "type": "electric_scooter", "lat": 38.913491, "is_reserved": 0, "lon": -77.031183, "fusion_lon": 0.0, "is_disabled": 0, "fusion_lat": 0.0, "bike_id": "790a5344ea60cf582b532f6aeb269ac7", "rental_uris": {"ios": "https://dc.lft.to/lastmile_qr_scan", "android": "https://dc.lft.to/lastmile_qr_scan"}}, {"name": "dfea44ce6c2fc9e4c32df61c41a34c18", "type": "electric_scooter", "lat": 38.909538166666664, "is_reserved": 0, "lon": -76.9853745, "fusion_lon": 0.0, "is_disabled": 0, "fusion_lat": 0.0, "bike_id": "dfea44ce6c2fc9e4c32df61c41a34c18", "rental_uris": {"ios": "https://dc.lft.to/lastmile_qr_scan", "android": "https://dc.lft.to/lastmile_qr_scan"}}, {"name": "529d091553d02ebd801ace28d468a5e3", "type": "electric_scooter", "lat": 38.884187, "is_reserved": 0, "lon": -76.97604566666666, "fusion_lon": 0.0, "is_disabled": 0, "fusion_lat": 0.0, "bike_id": "529d091553d02ebd801ace28d468a5e3", "rental_uris": {"ios": "https://dc.lft.to/lastmile_qr_scan", "android": "https://dc.lft.to/lastmile_qr_scan"}}, {"name": "c47ba79ec22f98373be2f95ded77de6a", "type": "electric_scooter", "lat": 38.90324233333333, "is_reserved": 0, "lon": -77.0382955, "fusion_lon": 0.0, "is_disabled": 0, "fusion_lat": 0.0, "bike_id": "c47ba79ec22f98373be2f95ded77de6a", "rental_uris": {"ios": "https://dc.lft.to/lastmile_qr_scan", "android": "https://dc.lft.to/lastmile_qr_scan"}}, {"name": "9e0b1e79f7a5b6efac07bcb6a0b99309", "type": "electric_bike", "lat": 38.96537083333333, "is_reserved": 0, "lon": -77.03518233333334, "fusion_lon": 0.0, "is_disabled": 0, "fusion_lat": 0.0, "bike_id": "9e0b1e79f7a5b6efac07bcb6a0b99309", "rental_uris": {"ios": "https://dc.lft.to/lastmile_qr_scan", "android": "https://dc.lft.to/lastmile_qr_scan"}}, {"name": "1fc02f0be4f7f6d0586e16d376d1a3ae", "type": "electric_scooter", "lat": 38.9229225, "is_reserved": 0, "lon": -76.99363616666666, "fusion_lon": 0.0, "is_disabled": 0, "fusion_lat": 0.0, "bike_id": "1fc02f0be4f7f6d0586e16d376d1a3ae", "rental_uris": {"ios": "https://dc.lft.to/lastmile_qr_scan", "android": "https://dc.lft.to/lastmile_qr_scan"}}, {"name": "e32f89f49c08bf0c557a5cc398859ce6", "type": "electric_scooter", "lat": 38.92027316666667, "is_reserved": 0, "lon": -77.02607266666666, "fusion_lon": 0.0, "is_disabled": 0, "fusion_lat": 0.0, "bike_id": "e32f89f49c08bf0c557a5cc398859ce6", "rental_uris": {"ios": "https://dc.lft.to/lastmile_qr_scan", "android": "https://dc.lft.to/lastmile_qr_scan"}}, {"name": "4f6b52c26d2c072571164fe9e8d4289f", "type": "electric_scooter", "lat": 38.969825, "is_reserved": 0, "lon": -77.02714616666667, "fusion_lon": 0.0, "is_disabled": 0, "fusion_lat": 0.0, "bike_id": "4f6b52c26d2c072571164fe9e8d4289f", "rental_uris": {"ios": "https://dc.lft.to/lastmile_qr_scan", "android": "https://dc.lft.to/lastmile_qr_scan"}}, {"name": "48544a11de2d952f43e0914089f1a2fc", "type": "electric_scooter", "lat": 38.949657333333334, "is_reserved": 0, "lon": -77.07935883333333, "fusion_lon": 0.0, "is_disabled": 0, "fusion_lat": 0.0, "bike_id": "48544a11de2d952f43e0914089f1a2fc", "rental_uris": {"ios": "https://dc.lft.to/lastmile_qr_scan", "android": "https://dc.lft.to/lastmile_qr_scan"}}, {"name": "c926f0669897ee210b8509eb6878793c", "type": "electric_scooter", "lat": 38.87688933333333, "is_reserved": 0, "lon": -77.00080766666666, "fusion_lon": 0.0, "is_disabled": 0, "fusion_lat": 0.0, "bike_id": "c926f0669897ee210b8509eb6878793c", "rental_uris": {"ios": "https://dc.lft.to/lastmile_qr_scan", "android": "https://dc.lft.to/lastmile_qr_scan"}}, {"name": "0dc43118e66b1843a5e5a1f61247084b", "type": "electric_scooter", "lat": 38.920115833333334, "is_reserved": 0, "lon": -77.03888033333334, "fusion_lon": 0.0, "is_disabled": 0, "fusion_lat": 0.0, "bike_id": "0dc43118e66b1843a5e5a1f61247084b", "rental_uris": {"ios": "https://dc.lft.to/lastmile_qr_scan", "android": "https://dc.lft.to/lastmile_qr_scan"}}, {"name": "29647da7dcf3b4a896e8335909abf5a4", "type": "electric_scooter", "lat": 38.842924333333336, "is_reserved": 0, "lon": -76.99948633333334, "fusion_lon": 0.0, "is_disabled": 0, "fusion_lat": 0.0, "bike_id": "29647da7dcf3b4a896e8335909abf5a4", "rental_uris": {"ios": "https://dc.lft.to/lastmile_qr_scan", "android": "https://dc.lft.to/lastmile_qr_scan"}}, {"name": "a5df0e4bbeccc922f9b3fa64a5637d5b", "type": "electric_scooter", "lat": 38.86701016666667, "is_reserved": 0, "lon": -76.98716083333333, "fusion_lon": 0.0, "is_disabled": 0, "fusion_lat": 0.0, "bike_id": "a5df0e4bbeccc922f9b3fa64a5637d5b", "rental_uris": {"ios": "https://dc.lft.to/lastmile_qr_scan", "android": "https://dc.lft.to/lastmile_qr_scan"}}, {"name": "15ea4ca891e2be8709680bdd3cb57bdb", "type": "electric_scooter", "lat": 38.906096833333336, "is_reserved": 0, "lon": -77.012866, "fusion_lon": 0.0, "is_disabled": 0, "fusion_lat": 0.0, "bike_id": "15ea4ca891e2be8709680bdd3cb57bdb", "rental_uris": {"ios": "https://dc.lft.to/lastmile_qr_scan", "android": "https://dc.lft.to/lastmile_qr_scan"}}, {"name": "d9b32a108178d2d6cb7f38082509f2d1", "type": "electric_scooter", "lat": 38.9242325, "is_reserved": 0, "lon": -77.01951916666667, "fusion_lon": 0.0, "is_disabled": 0, "fusion_lat": 0.0, "bike_id": "d9b32a108178d2d6cb7f38082509f2d1", "rental_uris": {"ios": "https://dc.lft.to/lastmile_qr_scan", "android": "https://dc.lft.to/lastmile_qr_scan"}}, {"name": "b159767f4a76750207358f98f8f09c83", "type": "electric_scooter", "lat": 38.917049, "is_reserved": 0, "lon": -77.02677866666667, "fusion_lon": 0.0, "is_disabled": 0, "fusion_lat": 0.0, "bike_id": "b159767f4a76750207358f98f8f09c83", "rental_uris": {"ios": "https://dc.lft.to/lastmile_qr_scan", "android": "https://dc.lft.to/lastmile_qr_scan"}}, {"name": "975ad5f18e41e282177e1feee9fb751e", "type": "electric_scooter", "lat": 38.9277175, "is_reserved": 0, "lon": -77.02655533333333, "fusion_lon": 0.0, "is_disabled": 0, "fusion_lat": 0.0, "bike_id": "975ad5f18e41e282177e1feee9fb751e", "rental_uris": {"ios": "https://dc.lft.to/lastmile_qr_scan", "android": "https://dc.lft.to/lastmile_qr_scan"}}, {"name": "a284cc1dc6aea09b496d6a2206aee252", "type": "electric_bike", "lat": 38.95479, "is_reserved": 0, "lon": -77.08242, "fusion_lon": 0.0, "is_disabled": 0, "fusion_lat": 0.0, "bike_id": "a284cc1dc6aea09b496d6a2206aee252", "rental_uris": {"ios": "https://dc.lft.to/lastmile_qr_scan", "android": "https://dc.lft.to/lastmile_qr_scan"}}, {"name": "eb62d3a4c7b7589aa69fa21a37d310d6", "type": "electric_scooter", "lat": 38.903716333333335, "is_reserved": 0, "lon": -77.06285583333333, "fusion_lon": 0.0, "is_disabled": 0, "fusion_lat": 0.0, "bike_id": "eb62d3a4c7b7589aa69fa21a37d310d6", "rental_uris": {"ios": "https://dc.lft.to/lastmile_qr_scan", "android": "https://dc.lft.to/lastmile_qr_scan"}}, {"name": "5370739f1bb95576189fae2823dad01e", "type": "electric_scooter", "lat": 38.9203675, "is_reserved": 0, "lon": -77.04189916666667, "fusion_lon": 0.0, "is_disabled": 0, "fusion_lat": 0.0, "bike_id": "5370739f1bb95576189fae2823dad01e", "rental_uris": {"ios": "https://dc.lft.to/lastmile_qr_scan", "android": "https://dc.lft.to/lastmile_qr_scan"}}, {"name": "99b0dd42f201b0df70bc49bb1468393f", "type": "electric_scooter", "lat": 38.913429666666666, "is_reserved": 0, "lon": -77.00226583333334, "fusion_lon": 0.0, "is_disabled": 0, "fusion_lat": 0.0, "bike_id": "99b0dd42f201b0df70bc49bb1468393f", "rental_uris": {"ios": "https://dc.lft.to/lastmile_qr_scan", "android": "https://dc.lft.to/lastmile_qr_scan"}}, {"name": "90331dd62d826af7a3c8e261d4aba5c0", "type": "electric_scooter", "lat": 38.928758333333334, "is_reserved": 0, "lon": -77.0412855, "fusion_lon": 0.0, "is_disabled": 0, "fusion_lat": 0.0, "bike_id": "90331dd62d826af7a3c8e261d4aba5c0", "rental_uris": {"ios": "https://dc.lft.to/lastmile_qr_scan", "android": "https://dc.lft.to/lastmile_qr_scan"}}, {"name": "84acb135d465c26603f0ab3e44b7dcab", "type": "electric_scooter", "lat": 38.8635995, "is_reserved": 0, "lon": -76.99068366666667, "fusion_lon": 0.0, "is_disabled": 0, "fusion_lat": 0.0, "bike_id": "84acb135d465c26603f0ab3e44b7dcab", "rental_uris": {"ios": "https://dc.lft.to/lastmile_qr_scan", "android": "https://dc.lft.to/lastmile_qr_scan"}}, {"name": "4322440710a36e48478a2225f1ead571", "type": "electric_scooter", "lat": 38.92072233333333, "is_reserved": 0, "lon": -77.04259016666667, "fusion_lon": 0.0, "is_disabled": 0, "fusion_lat": 0.0, "bike_id": "4322440710a36e48478a2225f1ead571", "rental_uris": {"ios": "https://dc.lft.to/lastmile_qr_scan", "android": "https://dc.lft.to/lastmile_qr_scan"}}, {"name": "39d81a135653f1fd23587851a9f95d9e", "type": "electric_scooter", "lat": 38.89486466666666, "is_reserved": 0, "lon": -77.0112325, "fusion_lon": 0.0, "is_disabled": 0, "fusion_lat": 0.0, "bike_id": "39d81a135653f1fd23587851a9f95d9e", "rental_uris": {"ios": "https://dc.lft.to/lastmile_qr_scan", "android": "https://dc.lft.to/lastmile_qr_scan"}}, {"name": "1b02f5ecd0e1d5b8f9132a2560c2724c", "type": "electric_scooter", "lat": 38.89834583333333, "is_reserved": 0, "lon": -76.94636666666666, "fusion_lon": 0.0, "is_disabled": 0, "fusion_lat": 0.0, "bike_id": "1b02f5ecd0e1d5b8f9132a2560c2724c", "rental_uris": {"ios": "https://dc.lft.to/lastmile_qr_scan", "android": "https://dc.lft.to/lastmile_qr_scan"}}, {"name": "48e7ae93d5bac1b13833a57c2f2eda34", "type": "electric_scooter", "lat": 38.91797366666667, "is_reserved": 0, "lon": -77.02712083333333, "fusion_lon": 0.0, "is_disabled": 0, "fusion_lat": 0.0, "bike_id": "48e7ae93d5bac1b13833a57c2f2eda34", "rental_uris": {"ios": "https://dc.lft.to/lastmile_qr_scan", "android": "https://dc.lft.to/lastmile_qr_scan"}}, {"name": "12eee260d9d08b60657effaad9947fdb", "type": "electric_scooter", "lat": 38.9295055, "is_reserved": 0, "lon": -77.0346725, "fusion_lon": 0.0, "is_disabled": 0, "fusion_lat": 0.0, "bike_id": "12eee260d9d08b60657effaad9947fdb", "rental_uris": {"ios": "https://dc.lft.to/lastmile_qr_scan", "android": "https://dc.lft.to/lastmile_qr_scan"}}, {"name": "30edbaac1a11c62f50622b2046cb9ce1", "type": "electric_scooter", "lat": 38.92330283333333, "is_reserved": 0, "lon": -77.03508283333333, "fusion_lon": 0.0, "is_disabled": 0, "fusion_lat": 0.0, "bike_id": "30edbaac1a11c62f50622b2046cb9ce1", "rental_uris": {"ios": "https://dc.lft.to/lastmile_qr_scan", "android": "https://dc.lft.to/lastmile_qr_scan"}}, {"name": "9680023ce8fddb83ee1ec1155aab4796", "type": "electric_bike", "lat": 38.990664333333335, "is_reserved": 0, "lon": -77.100298, "fusion_lon": 0.0, "is_disabled": 0, "fusion_lat": 0.0, "bike_id": "9680023ce8fddb83ee1ec1155aab4796", "rental_uris": {"ios": "https://dc.lft.to/lastmile_qr_scan", "android": "https://dc.lft.to/lastmile_qr_scan"}}, {"name": "aa69040a35bb537d4c8160e37df00dcc", "type": "electric_scooter", "lat": 38.88327, "is_reserved": 0, "lon": -77.017771, "fusion_lon": 0.0, "is_disabled": 0, "fusion_lat": 0.0, "bike_id": "aa69040a35bb537d4c8160e37df00dcc", "rental_uris": {"ios": "https://dc.lft.to/lastmile_qr_scan", "android": "https://dc.lft.to/lastmile_qr_scan"}}, {"name": "294dc3cc982ec0e55011c59d65d75f31", "type": "electric_scooter", "lat": 38.93836783333333, "is_reserved": 0, "lon": -77.0248105, "fusion_lon": 0.0, "is_disabled": 0, "fusion_lat": 0.0, "bike_id": "294dc3cc982ec0e55011c59d65d75f31", "rental_uris": {"ios": "https://dc.lft.to/lastmile_qr_scan", "android": "https://dc.lft.to/lastmile_qr_scan"}}, {"name": "b65c85ac4b3a4cd57599db6c06b1aaa3", "type": "electric_scooter", "lat": 38.913113, "is_reserved": 0, "lon": -77.04484283333333, "fusion_lon": 0.0, "is_disabled": 0, "fusion_lat": 0.0, "bike_id": "b65c85ac4b3a4cd57599db6c06b1aaa3", "rental_uris": {"ios": "https://dc.lft.to/lastmile_qr_scan", "android": "https://dc.lft.to/lastmile_qr_scan"}}, {"name": "df522706b2a854815053632839489e33", "type": "electric_scooter", "lat": 38.9071725, "is_reserved": 0, "lon": -77.03065366666667, "fusion_lon": 0.0, "is_disabled": 0, "fusion_lat": 0.0, "bike_id": "df522706b2a854815053632839489e33", "rental_uris": {"ios": "https://dc.lft.to/lastmile_qr_scan", "android": "https://dc.lft.to/lastmile_qr_scan"}}, {"name": "a70a92677bc50dc282e62328a74d5882", "type": "electric_scooter", "lat": 38.94773966666666, "is_reserved": 0, "lon": -77.065434, "fusion_lon": 0.0, "is_disabled": 0, "fusion_lat": 0.0, "bike_id": "a70a92677bc50dc282e62328a74d5882", "rental_uris": {"ios": "https://dc.lft.to/lastmile_qr_scan", "android": "https://dc.lft.to/lastmile_qr_scan"}}, {"name": "d53543e8f75545b17bdcca5cd60bbf89", "type": "electric_scooter", "lat": 38.9118205, "is_reserved": 0, "lon": -77.005563, "fusion_lon": 0.0, "is_disabled": 0, "fusion_lat": 0.0, "bike_id": "d53543e8f75545b17bdcca5cd60bbf89", "rental_uris": {"ios": "https://dc.lft.to/lastmile_qr_scan", "android": "https://dc.lft.to/lastmile_qr_scan"}}, {"name": "8f919ce2652c328e45633c6055a2c541", "type": "electric_scooter", "lat": 38.9397025, "is_reserved": 0, "lon": -77.03259866666667, "fusion_lon": 0.0, "is_disabled": 0, "fusion_lat": 0.0, "bike_id": "8f919ce2652c328e45633c6055a2c541", "rental_uris": {"ios": "https://dc.lft.to/lastmile_qr_scan", "android": "https://dc.lft.to/lastmile_qr_scan"}}, {"name": "46fc778e70b85d9dfd4239d0e328f729", "type": "electric_scooter", "lat": 38.876499333333335, "is_reserved": 0, "lon": -76.96509316666666, "fusion_lon": 0.0, "is_disabled": 0, "fusion_lat": 0.0, "bike_id": "46fc778e70b85d9dfd4239d0e328f729", "rental_uris": {"ios": "https://dc.lft.to/lastmile_qr_scan", "android": "https://dc.lft.to/lastmile_qr_scan"}}, {"name": "5dd6b5757397cea2ff8d1ddd573ca276", "type": "electric_scooter", "lat": 38.881123, "is_reserved": 0, "lon": -76.99946216666666, "fusion_lon": 0.0, "is_disabled": 0, "fusion_lat": 0.0, "bike_id": "5dd6b5757397cea2ff8d1ddd573ca276", "rental_uris": {"ios": "https://dc.lft.to/lastmile_qr_scan", "android": "https://dc.lft.to/lastmile_qr_scan"}}, {"name": "7699f9404e199c64a1bcb064448d8655", "type": "electric_scooter", "lat": 38.9394685, "is_reserved": 0, "lon": -77.0326795, "fusion_lon": 0.0, "is_disabled": 0, "fusion_lat": 0.0, "bike_id": "7699f9404e199c64a1bcb064448d8655", "rental_uris": {"ios": "https://dc.lft.to/lastmile_qr_scan", "android": "https://dc.lft.to/lastmile_qr_scan"}}, {"name": "58bb04aaff4bc36d1c562b3e7f7c8255", "type": "electric_scooter", "lat": 38.9407925, "is_reserved": 0, "lon": -77.02704633333333, "fusion_lon": 0.0, "is_disabled": 0, "fusion_lat": 0.0, "bike_id": "58bb04aaff4bc36d1c562b3e7f7c8255", "rental_uris": {"ios": "https://dc.lft.to/lastmile_qr_scan", "android": "https://dc.lft.to/lastmile_qr_scan"}}, {"name": "7c0602851d98913a98625342eb783506", "type": "electric_scooter", "lat": 38.89729633333334, "is_reserved": 0, "lon": -77.05571333333333, "fusion_lon": 0.0, "is_disabled": 0, "fusion_lat": 0.0, "bike_id": "7c0602851d98913a98625342eb783506", "rental_uris": {"ios": "https://dc.lft.to/lastmile_qr_scan", "android": "https://dc.lft.to/lastmile_qr_scan"}}, {"name": "68284c82fda703da0d9cb740c683ed4c", "type": "electric_scooter", "lat": 38.89480733333333, "is_reserved": 0, "lon": -76.94872066666667, "fusion_lon": 0.0, "is_disabled": 0, "fusion_lat": 0.0, "bike_id": "68284c82fda703da0d9cb740c683ed4c", "rental_uris": {"ios": "https://dc.lft.to/lastmile_qr_scan", "android": "https://dc.lft.to/lastmile_qr_scan"}}, {"name": "9c3c5fdb2e24dd2aa4d5e71dde89d553", "type": "electric_scooter", "lat": 38.907887833333334, "is_reserved": 0, "lon": -76.99700416666667, "fusion_lon": 0.0, "is_disabled": 0, "fusion_lat": 0.0, "bike_id": "9c3c5fdb2e24dd2aa4d5e71dde89d553", "rental_uris": {"ios": "https://dc.lft.to/lastmile_qr_scan", "android": "https://dc.lft.to/lastmile_qr_scan"}}, {"name": "9b840930506511a29220088854b14388", "type": "electric_scooter", "lat": 38.91687183333333, "is_reserved": 0, "lon": -77.01224816666667, "fusion_lon": 0.0, "is_disabled": 0, "fusion_lat": 0.0, "bike_id": "9b840930506511a29220088854b14388", "rental_uris": {"ios": "https://dc.lft.to/lastmile_qr_scan", "android": "https://dc.lft.to/lastmile_qr_scan"}}, {"name": "9c51d8a925f89441ababc62f9c911a6c", "type": "electric_scooter", "lat": 38.934416166666665, "is_reserved": 0, "lon": -77.072528, "fusion_lon": 0.0, "is_disabled": 0, "fusion_lat": 0.0, "bike_id": "9c51d8a925f89441ababc62f9c911a6c", "rental_uris": {"ios": "https://dc.lft.to/lastmile_qr_scan", "android": "https://dc.lft.to/lastmile_qr_scan"}}, {"name": "ac597700bcceed2e5d254193cc7f8bbd", "type": "electric_scooter", "lat": 38.896810333333335, "is_reserved": 0, "lon": -76.9962535, "fusion_lon": 0.0, "is_disabled": 0, "fusion_lat": 0.0, "bike_id": "ac597700bcceed2e5d254193cc7f8bbd", "rental_uris": {"ios": "https://dc.lft.to/lastmile_qr_scan", "android": "https://dc.lft.to/lastmile_qr_scan"}}, {"name": "3a9542355adc6deff52955b3cfe72f92", "type": "electric_scooter", "lat": 38.900567833333334, "is_reserved": 0, "lon": -77.0258065, "fusion_lon": 0.0, "is_disabled": 0, "fusion_lat": 0.0, "bike_id": "3a9542355adc6deff52955b3cfe72f92", "rental_uris": {"ios": "https://dc.lft.to/lastmile_qr_scan", "android": "https://dc.lft.to/lastmile_qr_scan"}}, {"name": "409020a8f632fe1d5e8388ad41546d86", "type": "electric_bike", "lat": 38.91487433333333, "is_reserved": 0, "lon": -77.0339235, "fusion_lon": 0.0, "is_disabled": 0, "fusion_lat": 0.0, "bike_id": "409020a8f632fe1d5e8388ad41546d86", "rental_uris": {"ios": "https://dc.lft.to/lastmile_qr_scan", "android": "https://dc.lft.to/lastmile_qr_scan"}}, {"name": "c0b9cd15269f13bc580d9383f4dcc83e", "type": "electric_scooter", "lat": 38.90319233333334, "is_reserved": 0, "lon": -77.0382855, "fusion_lon": 0.0, "is_disabled": 0, "fusion_lat": 0.0, "bike_id": "c0b9cd15269f13bc580d9383f4dcc83e", "rental_uris": {"ios": "https://dc.lft.to/lastmile_qr_scan", "android": "https://dc.lft.to/lastmile_qr_scan"}}, {"name": "b787dc2f2d6a263d39800891f4221f3f", "type": "electric_scooter", "lat": 38.91559816666667, "is_reserved": 0, "lon": -77.0466025, "fusion_lon": 0.0, "is_disabled": 0, "fusion_lat": 0.0, "bike_id": "b787dc2f2d6a263d39800891f4221f3f", "rental_uris": {"ios": "https://dc.lft.to/lastmile_qr_scan", "android": "https://dc.lft.to/lastmile_qr_scan"}}, {"name": "1cc3f8181da68b1e8e5228c71ecfc4ef", "type": "electric_scooter", "lat": 38.927982166666666, "is_reserved": 0, "lon": -77.04362516666667, "fusion_lon": 0.0, "is_disabled": 0, "fusion_lat": 0.0, "bike_id": "1cc3f8181da68b1e8e5228c71ecfc4ef", "rental_uris": {"ios": "https://dc.lft.to/lastmile_qr_scan", "android": "https://dc.lft.to/lastmile_qr_scan"}}, {"name": "20ada934e1a5e6705e08c5512e6c3cdf", "type": "electric_scooter", "lat": 38.949489, "is_reserved": 0, "lon": -77.01614583333334, "fusion_lon": 0.0, "is_disabled": 0, "fusion_lat": 0.0, "bike_id": "20ada934e1a5e6705e08c5512e6c3cdf", "rental_uris": {"ios": "https://dc.lft.to/lastmile_qr_scan", "android": "https://dc.lft.to/lastmile_qr_scan"}}, {"name": "f1f9972ad359825479c9247d10566108", "type": "electric_scooter", "lat": 38.91102216666667, "is_reserved": 0, "lon": -77.04669466666667, "fusion_lon": 0.0, "is_disabled": 0, "fusion_lat": 0.0, "bike_id": "f1f9972ad359825479c9247d10566108", "rental_uris": {"ios": "https://dc.lft.to/lastmile_qr_scan", "android": "https://dc.lft.to/lastmile_qr_scan"}}, {"name": "21dccc5a6053fc6c2e5b2bf3a9059101", "type": "electric_bike", "lat": 38.92466666666667, "is_reserved": 0, "lon": -77.2083755, "fusion_lon": 0.0, "is_disabled": 0, "fusion_lat": 0.0, "bike_id": "21dccc5a6053fc6c2e5b2bf3a9059101", "rental_uris": {"ios": "https://dc.lft.to/lastmile_qr_scan", "android": "https://dc.lft.to/lastmile_qr_scan"}}, {"name": "b5789225c908259df757df46f4531dfe", "type": "electric_bike", "lat": 38.9254935, "is_reserved": 0, "lon": -77.0013725, "fusion_lon": 0.0, "is_disabled": 0, "fusion_lat": 0.0, "bike_id": "b5789225c908259df757df46f4531dfe", "rental_uris": {"ios": "https://dc.lft.to/lastmile_qr_scan", "android": "https://dc.lft.to/lastmile_qr_scan"}}, {"name": "ea8e391cdbfec1669627a208f7e26ed2", "type": "electric_bike", "lat": 38.89189283333333, "is_reserved": 0, "lon": -77.12262283333334, "fusion_lon": 0.0, "is_disabled": 0, "fusion_lat": 0.0, "bike_id": "ea8e391cdbfec1669627a208f7e26ed2", "rental_uris": {"ios": "https://dc.lft.to/lastmile_qr_scan", "android": "https://dc.lft.to/lastmile_qr_scan"}}, {"name": "e4a340c7feae29a7daa981b3c2f883f9", "type": "electric_scooter", "lat": 38.909162333333335, "is_reserved": 0, "lon": -76.99268783333333, "fusion_lon": 0.0, "is_disabled": 0, "fusion_lat": 0.0, "bike_id": "e4a340c7feae29a7daa981b3c2f883f9", "rental_uris": {"ios": "https://dc.lft.to/lastmile_qr_scan", "android": "https://dc.lft.to/lastmile_qr_scan"}}, {"name": "d60a9b137182c08e9f6a42876aac6225", "type": "electric_scooter", "lat": 38.91915683333333, "is_reserved": 0, "lon": -77.04638016666667, "fusion_lon": 0.0, "is_disabled": 0, "fusion_lat": 0.0, "bike_id": "d60a9b137182c08e9f6a42876aac6225", "rental_uris": {"ios": "https://dc.lft.to/lastmile_qr_scan", "android": "https://dc.lft.to/lastmile_qr_scan"}}, {"name": "5547fa17ca0cb4f9b767188e9ac163f5", "type": "electric_scooter", "lat": 38.90543066666667, "is_reserved": 0, "lon": -77.05050883333334, "fusion_lon": 0.0, "is_disabled": 0, "fusion_lat": 0.0, "bike_id": "5547fa17ca0cb4f9b767188e9ac163f5", "rental_uris": {"ios": "https://dc.lft.to/lastmile_qr_scan", "android": "https://dc.lft.to/lastmile_qr_scan"}}, {"name": "19cd748eee89d9d9c919b829c8f34297", "type": "electric_bike", "lat": 38.9556245, "is_reserved": 0, "lon": -76.9355075, "fusion_lon": 0.0, "is_disabled": 0, "fusion_lat": 0.0, "bike_id": "19cd748eee89d9d9c919b829c8f34297", "rental_uris": {"ios": "https://dc.lft.to/lastmile_qr_scan", "android": "https://dc.lft.to/lastmile_qr_scan"}}, {"name": "d04f3b7463e872b3299e728d762f5eb9", "type": "electric_scooter", "lat": 38.903737666666665, "is_reserved": 0, "lon": -77.0074465, "fusion_lon": 0.0, "is_disabled": 0, "fusion_lat": 0.0, "bike_id": "d04f3b7463e872b3299e728d762f5eb9", "rental_uris": {"ios": "https://dc.lft.to/lastmile_qr_scan", "android": "https://dc.lft.to/lastmile_qr_scan"}}, {"name": "3e587a0880119bf0740df20f95a212c6", "type": "electric_scooter", "lat": 38.906773333333334, "is_reserved": 0, "lon": -76.97809166666667, "fusion_lon": 0.0, "is_disabled": 0, "fusion_lat": 0.0, "bike_id": "3e587a0880119bf0740df20f95a212c6", "rental_uris": {"ios": "https://dc.lft.to/lastmile_qr_scan", "android": "https://dc.lft.to/lastmile_qr_scan"}}, {"name": "3cf114a2abbfa998cd5b91cb3afd4022", "type": "electric_scooter", "lat": 38.911161666666665, "is_reserved": 0, "lon": -77.04929183333333, "fusion_lon": 0.0, "is_disabled": 0, "fusion_lat": 0.0, "bike_id": "3cf114a2abbfa998cd5b91cb3afd4022", "rental_uris": {"ios": "https://dc.lft.to/lastmile_qr_scan", "android": "https://dc.lft.to/lastmile_qr_scan"}}, {"name": "a30c4e4a638f637bf77f67e273f9ae98", "type": "electric_scooter", "lat": 38.90564116666667, "is_reserved": 0, "lon": -77.00589133333334, "fusion_lon": 0.0, "is_disabled": 0, "fusion_lat": 0.0, "bike_id": "a30c4e4a638f637bf77f67e273f9ae98", "rental_uris": {"ios": "https://dc.lft.to/lastmile_qr_scan", "android": "https://dc.lft.to/lastmile_qr_scan"}}, {"name": "8a48fc4fe9dbdaaa95e6bb21fac9bdcf", "type": "electric_scooter", "lat": 38.924410333333334, "is_reserved": 0, "lon": -77.0756715, "fusion_lon": 0.0, "is_disabled": 0, "fusion_lat": 0.0, "bike_id": "8a48fc4fe9dbdaaa95e6bb21fac9bdcf", "rental_uris": {"ios": "https://dc.lft.to/lastmile_qr_scan", "android": "https://dc.lft.to/lastmile_qr_scan"}}, {"name": "a59cf3b8e98c456ed24724b4446a9966", "type": "electric_scooter", "lat": 38.92185466666667, "is_reserved": 0, "lon": -77.04256883333333, "fusion_lon": 0.0, "is_disabled": 0, "fusion_lat": 0.0, "bike_id": "a59cf3b8e98c456ed24724b4446a9966", "rental_uris": {"ios": "https://dc.lft.to/lastmile_qr_scan", "android": "https://dc.lft.to/lastmile_qr_scan"}}, {"name": "689cd793d8931845e0ab1728dff93610", "type": "electric_scooter", "lat": 38.91020183333333, "is_reserved": 0, "lon": -77.05287283333334, "fusion_lon": 0.0, "is_disabled": 0, "fusion_lat": 0.0, "bike_id": "689cd793d8931845e0ab1728dff93610", "rental_uris": {"ios": "https://dc.lft.to/lastmile_qr_scan", "android": "https://dc.lft.to/lastmile_qr_scan"}}, {"name": "1a81e0c5ea7433d6011da28d88461486", "type": "electric_scooter", "lat": 38.93430466666667, "is_reserved": 0, "lon": -77.034094, "fusion_lon": 0.0, "is_disabled": 0, "fusion_lat": 0.0, "bike_id": "1a81e0c5ea7433d6011da28d88461486", "rental_uris": {"ios": "https://dc.lft.to/lastmile_qr_scan", "android": "https://dc.lft.to/lastmile_qr_scan"}}, {"name": "1720909ee502e8c22afe8f88e3d1c750", "type": "electric_scooter", "lat": 38.880398, "is_reserved": 0, "lon": -76.927264, "fusion_lon": 0.0, "is_disabled": 0, "fusion_lat": 0.0, "bike_id": "1720909ee502e8c22afe8f88e3d1c750", "rental_uris": {"ios": "https://dc.lft.to/lastmile_qr_scan", "android": "https://dc.lft.to/lastmile_qr_scan"}}, {"name": "2d6a792d6fb5944cd88fccd7d8ff9b91", "type": "electric_scooter", "lat": 38.94271066666667, "is_reserved": 0, "lon": -77.02503233333333, "fusion_lon": 0.0, "is_disabled": 0, "fusion_lat": 0.0, "bike_id": "2d6a792d6fb5944cd88fccd7d8ff9b91", "rental_uris": {"ios": "https://dc.lft.to/lastmile_qr_scan", "android": "https://dc.lft.to/lastmile_qr_scan"}}, {"name": "5750b762355dc19324a6d616ce80ccab", "type": "electric_bike", "lat": 38.83192533333333, "is_reserved": 0, "lon": -77.07683683333333, "fusion_lon": 0.0, "is_disabled": 0, "fusion_lat": 0.0, "bike_id": "5750b762355dc19324a6d616ce80ccab", "rental_uris": {"ios": "https://dc.lft.to/lastmile_qr_scan", "android": "https://dc.lft.to/lastmile_qr_scan"}}, {"name": "8277ccdd254920930128c6e259f5719c", "type": "electric_scooter", "lat": 38.9053835, "is_reserved": 0, "lon": -77.02978033333333, "fusion_lon": 0.0, "is_disabled": 0, "fusion_lat": 0.0, "bike_id": "8277ccdd254920930128c6e259f5719c", "rental_uris": {"ios": "https://dc.lft.to/lastmile_qr_scan", "android": "https://dc.lft.to/lastmile_qr_scan"}}, {"name": "9a95cac40580859def7c4e2233fb1400", "type": "electric_scooter", "lat": 38.910295166666664, "is_reserved": 0, "lon": -77.03088916666667, "fusion_lon": 0.0, "is_disabled": 0, "fusion_lat": 0.0, "bike_id": "9a95cac40580859def7c4e2233fb1400", "rental_uris": {"ios": "https://dc.lft.to/lastmile_qr_scan", "android": "https://dc.lft.to/lastmile_qr_scan"}}, {"name": "d48a90f66f3ec90f9e0f54d9df6324b3", "type": "electric_scooter", "lat": 38.883130666666666, "is_reserved": 0, "lon": -77.0177185, "fusion_lon": 0.0, "is_disabled": 0, "fusion_lat": 0.0, "bike_id": "d48a90f66f3ec90f9e0f54d9df6324b3", "rental_uris": {"ios": "https://dc.lft.to/lastmile_qr_scan", "android": "https://dc.lft.to/lastmile_qr_scan"}}, {"name": "e81f40f4b27b9e7b91b07cb4db5ea912", "type": "electric_scooter", "lat": 38.864244, "is_reserved": 0, "lon": -76.985764, "fusion_lon": 0.0, "is_disabled": 0, "fusion_lat": 0.0, "bike_id": "e81f40f4b27b9e7b91b07cb4db5ea912", "rental_uris": {"ios": "https://dc.lft.to/lastmile_qr_scan", "android": "https://dc.lft.to/lastmile_qr_scan"}}, {"name": "5b77193d648603ca321a7bfae90ddd5d", "type": "electric_scooter", "lat": 38.933616, "is_reserved": 0, "lon": -77.03428966666667, "fusion_lon": 0.0, "is_disabled": 0, "fusion_lat": 0.0, "bike_id": "5b77193d648603ca321a7bfae90ddd5d", "rental_uris": {"ios": "https://dc.lft.to/lastmile_qr_scan", "android": "https://dc.lft.to/lastmile_qr_scan"}}, {"name": "bfaceac0c90a7ffb582c889126f2d3b0", "type": "electric_scooter", "lat": 38.892324333333335, "is_reserved": 0, "lon": -77.0500075, "fusion_lon": 0.0, "is_disabled": 0, "fusion_lat": 0.0, "bike_id": "bfaceac0c90a7ffb582c889126f2d3b0", "rental_uris": {"ios": "https://dc.lft.to/lastmile_qr_scan", "android": "https://dc.lft.to/lastmile_qr_scan"}}, {"name": "954ca75853ebb5b8e3caa6eeefed681b", "type": "electric_scooter", "lat": 38.90551683333333, "is_reserved": 0, "lon": -77.04651983333333, "fusion_lon": 0.0, "is_disabled": 0, "fusion_lat": 0.0, "bike_id": "954ca75853ebb5b8e3caa6eeefed681b", "rental_uris": {"ios": "https://dc.lft.to/lastmile_qr_scan", "android": "https://dc.lft.to/lastmile_qr_scan"}}, {"name": "4682b9cee48a88ea7362c945fa6c1851", "type": "electric_scooter", "lat": 38.925986, "is_reserved": 0, "lon": -77.0212005, "fusion_lon": 0.0, "is_disabled": 0, "fusion_lat": 0.0, "bike_id": "4682b9cee48a88ea7362c945fa6c1851", "rental_uris": {"ios": "https://dc.lft.to/lastmile_qr_scan", "android": "https://dc.lft.to/lastmile_qr_scan"}}, {"name": "3df3311364eaf7a4f41b904f9aa36400", "type": "electric_scooter", "lat": 38.9071805, "is_reserved": 0, "lon": -77.02505183333334, "fusion_lon": 0.0, "is_disabled": 0, "fusion_lat": 0.0, "bike_id": "3df3311364eaf7a4f41b904f9aa36400", "rental_uris": {"ios": "https://dc.lft.to/lastmile_qr_scan", "android": "https://dc.lft.to/lastmile_qr_scan"}}, {"name": "452d3ce6457a6eb59136b9fe47ecfeff", "type": "electric_bike", "lat": 38.894565, "is_reserved": 0, "lon": -76.970363, "fusion_lon": 0.0, "is_disabled": 0, "fusion_lat": 0.0, "bike_id": "452d3ce6457a6eb59136b9fe47ecfeff", "rental_uris": {"ios": "https://dc.lft.to/lastmile_qr_scan", "android": "https://dc.lft.to/lastmile_qr_scan"}}, {"name": "7b26a282b6881d9f9c0a17b0301714b1", "type": "electric_scooter", "lat": 38.933656, "is_reserved": 0, "lon": -77.0573235, "fusion_lon": 0.0, "is_disabled": 0, "fusion_lat": 0.0, "bike_id": "7b26a282b6881d9f9c0a17b0301714b1", "rental_uris": {"ios": "https://dc.lft.to/lastmile_qr_scan", "android": "https://dc.lft.to/lastmile_qr_scan"}}, {"name": "65b653c06a215cd4e8ebdad6e957527a", "type": "electric_scooter", "lat": 38.917653, "is_reserved": 0, "lon": -77.02712816666667, "fusion_lon": 0.0, "is_disabled": 0, "fusion_lat": 0.0, "bike_id": "65b653c06a215cd4e8ebdad6e957527a", "rental_uris": {"ios": "https://dc.lft.to/lastmile_qr_scan", "android": "https://dc.lft.to/lastmile_qr_scan"}}, {"name": "4dabbb14a87ee9de67b554e93b7fd4e1", "type": "electric_scooter", "lat": 38.9103915, "is_reserved": 0, "lon": -77.02809883333333, "fusion_lon": 0.0, "is_disabled": 0, "fusion_lat": 0.0, "bike_id": "4dabbb14a87ee9de67b554e93b7fd4e1", "rental_uris": {"ios": "https://dc.lft.to/lastmile_qr_scan", "android": "https://dc.lft.to/lastmile_qr_scan"}}, {"name": "9196a26fef92e4803adedd558ddfd6e3", "type": "electric_scooter", "lat": 38.93754666666667, "is_reserved": 0, "lon": -77.0248925, "fusion_lon": 0.0, "is_disabled": 0, "fusion_lat": 0.0, "bike_id": "9196a26fef92e4803adedd558ddfd6e3", "rental_uris": {"ios": "https://dc.lft.to/lastmile_qr_scan", "android": "https://dc.lft.to/lastmile_qr_scan"}}, {"name": "7fc45a035a61bd9242a51a5d1f9a1642", "type": "electric_scooter", "lat": 38.956361, "is_reserved": 0, "lon": -77.02545833333333, "fusion_lon": 0.0, "is_disabled": 0, "fusion_lat": 0.0, "bike_id": "7fc45a035a61bd9242a51a5d1f9a1642", "rental_uris": {"ios": "https://dc.lft.to/lastmile_qr_scan", "android": "https://dc.lft.to/lastmile_qr_scan"}}, {"name": "415a4d424367b8eafe76bb71ea38db20", "type": "electric_bike", "lat": 38.896881666666665, "is_reserved": 0, "lon": -76.94070733333334, "fusion_lon": 0.0, "is_disabled": 0, "fusion_lat": 0.0, "bike_id": "415a4d424367b8eafe76bb71ea38db20", "rental_uris": {"ios": "https://dc.lft.to/lastmile_qr_scan", "android": "https://dc.lft.to/lastmile_qr_scan"}}, {"name": "946f8156f433a60fe8fa5c60f238350f", "type": "electric_bike", "lat": 38.886419833333335, "is_reserved": 0, "lon": -76.95471266666667, "fusion_lon": 0.0, "is_disabled": 0, "fusion_lat": 0.0, "bike_id": "946f8156f433a60fe8fa5c60f238350f", "rental_uris": {"ios": "https://dc.lft.to/lastmile_qr_scan", "android": "https://dc.lft.to/lastmile_qr_scan"}}, {"name": "294cdb148f7cbada1e8bcbd697b0dcc6", "type": "electric_scooter", "lat": 38.9083525, "is_reserved": 0, "lon": -76.999597, "fusion_lon": 0.0, "is_disabled": 0, "fusion_lat": 0.0, "bike_id": "294cdb148f7cbada1e8bcbd697b0dcc6", "rental_uris": {"ios": "https://dc.lft.to/lastmile_qr_scan", "android": "https://dc.lft.to/lastmile_qr_scan"}}, {"name": "f7f8e8e55e2273256d521a49e708a6cf", "type": "electric_scooter", "lat": 38.89804183333333, "is_reserved": 0, "lon": -76.9950465, "fusion_lon": 0.0, "is_disabled": 0, "fusion_lat": 0.0, "bike_id": "f7f8e8e55e2273256d521a49e708a6cf", "rental_uris": {"ios": "https://dc.lft.to/lastmile_qr_scan", "android": "https://dc.lft.to/lastmile_qr_scan"}}, {"name": "a9b9ac410f17aabccfa97cd95a22be1d", "type": "electric_scooter", "lat": 38.92342433333334, "is_reserved": 0, "lon": -77.05045683333333, "fusion_lon": 0.0, "is_disabled": 0, "fusion_lat": 0.0, "bike_id": "a9b9ac410f17aabccfa97cd95a22be1d", "rental_uris": {"ios": "https://dc.lft.to/lastmile_qr_scan", "android": "https://dc.lft.to/lastmile_qr_scan"}}, {"name": "d42b45269e593b6df74122c84c4d0c6d", "type": "electric_scooter", "lat": 38.900918833333336, "is_reserved": 0, "lon": -77.05140933333334, "fusion_lon": 0.0, "is_disabled": 0, "fusion_lat": 0.0, "bike_id": "d42b45269e593b6df74122c84c4d0c6d", "rental_uris": {"ios": "https://dc.lft.to/lastmile_qr_scan", "android": "https://dc.lft.to/lastmile_qr_scan"}}, {"name": "303bc1658605912f6a5e98b4b3c34a40", "type": "electric_scooter", "lat": 38.90409316666667, "is_reserved": 0, "lon": -77.02097583333334, "fusion_lon": 0.0, "is_disabled": 0, "fusion_lat": 0.0, "bike_id": "303bc1658605912f6a5e98b4b3c34a40", "rental_uris": {"ios": "https://dc.lft.to/lastmile_qr_scan", "android": "https://dc.lft.to/lastmile_qr_scan"}}, {"name": "624a21bd93ed4c19fde195ae7c45f56a", "type": "electric_bike", "lat": 38.929128666666664, "is_reserved": 0, "lon": -77.023826, "fusion_lon": 0.0, "is_disabled": 0, "fusion_lat": 0.0, "bike_id": "624a21bd93ed4c19fde195ae7c45f56a", "rental_uris": {"ios": "https://dc.lft.to/lastmile_qr_scan", "android": "https://dc.lft.to/lastmile_qr_scan"}}, {"name": "ca1a7c9eacd571373c9e880f13d6e2d2", "type": "electric_scooter", "lat": 38.90345516666667, "is_reserved": 0, "lon": -77.03831833333334, "fusion_lon": 0.0, "is_disabled": 0, "fusion_lat": 0.0, "bike_id": "ca1a7c9eacd571373c9e880f13d6e2d2", "rental_uris": {"ios": "https://dc.lft.to/lastmile_qr_scan", "android": "https://dc.lft.to/lastmile_qr_scan"}}, {"name": "1e6e1dcbac2d849994518777f5e4de37", "type": "electric_scooter", "lat": 38.86193983333333, "is_reserved": 0, "lon": -76.994635, "fusion_lon": 0.0, "is_disabled": 0, "fusion_lat": 0.0, "bike_id": "1e6e1dcbac2d849994518777f5e4de37", "rental_uris": {"ios": "https://dc.lft.to/lastmile_qr_scan", "android": "https://dc.lft.to/lastmile_qr_scan"}}, {"name": "0da45cd134c4de52b992241a80142861", "type": "electric_scooter", "lat": 38.95925583333333, "is_reserved": 0, "lon": -77.0332575, "fusion_lon": 0.0, "is_disabled": 0, "fusion_lat": 0.0, "bike_id": "0da45cd134c4de52b992241a80142861", "rental_uris": {"ios": "https://dc.lft.to/lastmile_qr_scan", "android": "https://dc.lft.to/lastmile_qr_scan"}}, {"name": "3af8718524ed64fae208a979270d6951", "type": "electric_scooter", "lat": 38.928647, "is_reserved": 0, "lon": -77.02616516666667, "fusion_lon": 0.0, "is_disabled": 0, "fusion_lat": 0.0, "bike_id": "3af8718524ed64fae208a979270d6951", "rental_uris": {"ios": "https://dc.lft.to/lastmile_qr_scan", "android": "https://dc.lft.to/lastmile_qr_scan"}}, {"name": "d6aade567fa3ca7317eecf947261c2be", "type": "electric_scooter", "lat": 38.902885, "is_reserved": 0, "lon": -77.03838316666666, "fusion_lon": 0.0, "is_disabled": 0, "fusion_lat": 0.0, "bike_id": "d6aade567fa3ca7317eecf947261c2be", "rental_uris": {"ios": "https://dc.lft.to/lastmile_qr_scan", "android": "https://dc.lft.to/lastmile_qr_scan"}}, {"name": "92a0a45f43cceae92a92a72eeea23aec", "type": "electric_scooter", "lat": 38.935496, "is_reserved": 0, "lon": -77.03312266666667, "fusion_lon": 0.0, "is_disabled": 0, "fusion_lat": 0.0, "bike_id": "92a0a45f43cceae92a92a72eeea23aec", "rental_uris": {"ios": "https://dc.lft.to/lastmile_qr_scan", "android": "https://dc.lft.to/lastmile_qr_scan"}}, {"name": "d67af50c5ee0c20f8ed83aed6baa4ad6", "type": "electric_scooter", "lat": 38.9009635, "is_reserved": 0, "lon": -77.049769, "fusion_lon": 0.0, "is_disabled": 0, "fusion_lat": 0.0, "bike_id": "d67af50c5ee0c20f8ed83aed6baa4ad6", "rental_uris": {"ios": "https://dc.lft.to/lastmile_qr_scan", "android": "https://dc.lft.to/lastmile_qr_scan"}}, {"name": "02eaa7daec2d228c794ef40dc61ade70", "type": "electric_scooter", "lat": 38.883854666666664, "is_reserved": 0, "lon": -77.01975416666667, "fusion_lon": 0.0, "is_disabled": 0, "fusion_lat": 0.0, "bike_id": "02eaa7daec2d228c794ef40dc61ade70", "rental_uris": {"ios": "https://dc.lft.to/lastmile_qr_scan", "android": "https://dc.lft.to/lastmile_qr_scan"}}, {"name": "45b686eadb9b81205370862ae0571199", "type": "electric_scooter", "lat": 38.92119, "is_reserved": 0, "lon": -77.03654833333333, "fusion_lon": 0.0, "is_disabled": 0, "fusion_lat": 0.0, "bike_id": "45b686eadb9b81205370862ae0571199", "rental_uris": {"ios": "https://dc.lft.to/lastmile_qr_scan", "android": "https://dc.lft.to/lastmile_qr_scan"}}, {"name": "ac148f75afcb85ed48d11704e9d4f0c6", "type": "electric_bike", "lat": 38.852464, "is_reserved": 0, "lon": -77.11431316666666, "fusion_lon": 0.0, "is_disabled": 0, "fusion_lat": 0.0, "bike_id": "ac148f75afcb85ed48d11704e9d4f0c6", "rental_uris": {"ios": "https://dc.lft.to/lastmile_qr_scan", "android": "https://dc.lft.to/lastmile_qr_scan"}}, {"name": "1fe75bfb6f5652ad8114f82b9d65b8b6", "type": "electric_scooter", "lat": 38.899508833333336, "is_reserved": 0, "lon": -77.0298965, "fusion_lon": 0.0, "is_disabled": 0, "fusion_lat": 0.0, "bike_id": "1fe75bfb6f5652ad8114f82b9d65b8b6", "rental_uris": {"ios": "https://dc.lft.to/lastmile_qr_scan", "android": "https://dc.lft.to/lastmile_qr_scan"}}, {"name": "aaed7101dbb5dc0759c1a2a1681b7829", "type": "electric_scooter", "lat": 38.91920483333333, "is_reserved": 0, "lon": -77.03020133333334, "fusion_lon": 0.0, "is_disabled": 0, "fusion_lat": 0.0, "bike_id": "aaed7101dbb5dc0759c1a2a1681b7829", "rental_uris": {"ios": "https://dc.lft.to/lastmile_qr_scan", "android": "https://dc.lft.to/lastmile_qr_scan"}}, {"name": "72091d30dd4b00d71d3cd070f1cc6795", "type": "electric_scooter", "lat": 38.8429375, "is_reserved": 0, "lon": -76.99949983333333, "fusion_lon": 0.0, "is_disabled": 0, "fusion_lat": 0.0, "bike_id": "72091d30dd4b00d71d3cd070f1cc6795", "rental_uris": {"ios": "https://dc.lft.to/lastmile_qr_scan", "android": "https://dc.lft.to/lastmile_qr_scan"}}, {"name": "a0faf3002dda09b6f64c4ad1062a7c07", "type": "electric_scooter", "lat": 38.9275835, "is_reserved": 0, "lon": -77.053867, "fusion_lon": 0.0, "is_disabled": 0, "fusion_lat": 0.0, "bike_id": "a0faf3002dda09b6f64c4ad1062a7c07", "rental_uris": {"ios": "https://dc.lft.to/lastmile_qr_scan", "android": "https://dc.lft.to/lastmile_qr_scan"}}, {"name": "02aaccb31eda09970b8118450cd54a7e", "type": "electric_scooter", "lat": 38.9672655, "is_reserved": 0, "lon": -77.02348633333334, "fusion_lon": 0.0, "is_disabled": 0, "fusion_lat": 0.0, "bike_id": "02aaccb31eda09970b8118450cd54a7e", "rental_uris": {"ios": "https://dc.lft.to/lastmile_qr_scan", "android": "https://dc.lft.to/lastmile_qr_scan"}}, {"name": "2507c01c348f5a225dad2a6b2b61bca5", "type": "electric_scooter", "lat": 38.904834, "is_reserved": 0, "lon": -77.0418755, "fusion_lon": 0.0, "is_disabled": 0, "fusion_lat": 0.0, "bike_id": "2507c01c348f5a225dad2a6b2b61bca5", "rental_uris": {"ios": "https://dc.lft.to/lastmile_qr_scan", "android": "https://dc.lft.to/lastmile_qr_scan"}}, {"name": "123d03938de51bf1a6219397a9caab3a", "type": "electric_scooter", "lat": 38.887161666666664, "is_reserved": 0, "lon": -77.01777883333334, "fusion_lon": 0.0, "is_disabled": 0, "fusion_lat": 0.0, "bike_id": "123d03938de51bf1a6219397a9caab3a", "rental_uris": {"ios": "https://dc.lft.to/lastmile_qr_scan", "android": "https://dc.lft.to/lastmile_qr_scan"}}, {"name": "113e38af2bc29ccb2cb1776863ca9f50", "type": "electric_bike", "lat": 38.85058216666667, "is_reserved": 0, "lon": -76.973303, "fusion_lon": 0.0, "is_disabled": 0, "fusion_lat": 0.0, "bike_id": "113e38af2bc29ccb2cb1776863ca9f50", "rental_uris": {"ios": "https://dc.lft.to/lastmile_qr_scan", "android": "https://dc.lft.to/lastmile_qr_scan"}}, {"name": "57a0ba3483cb2b3e967857a2a173596f", "type": "electric_scooter", "lat": 38.93100866666666, "is_reserved": 0, "lon": -77.02510933333333, "fusion_lon": 0.0, "is_disabled": 0, "fusion_lat": 0.0, "bike_id": "57a0ba3483cb2b3e967857a2a173596f", "rental_uris": {"ios": "https://dc.lft.to/lastmile_qr_scan", "android": "https://dc.lft.to/lastmile_qr_scan"}}, {"name": "2e43a88c67afd3b18dcc0d9ada9ce751", "type": "electric_scooter", "lat": 38.907250833333336, "is_reserved": 0, "lon": -76.98602533333333, "fusion_lon": 0.0, "is_disabled": 0, "fusion_lat": 0.0, "bike_id": "2e43a88c67afd3b18dcc0d9ada9ce751", "rental_uris": {"ios": "https://dc.lft.to/lastmile_qr_scan", "android": "https://dc.lft.to/lastmile_qr_scan"}}, {"name": "725a8c633a0828c5ff9f9231b641ea0a", "type": "electric_scooter", "lat": 38.94246783333333, "is_reserved": 0, "lon": -77.021744, "fusion_lon": 0.0, "is_disabled": 0, "fusion_lat": 0.0, "bike_id": "725a8c633a0828c5ff9f9231b641ea0a", "rental_uris": {"ios": "https://dc.lft.to/lastmile_qr_scan", "android": "https://dc.lft.to/lastmile_qr_scan"}}, {"name": "bcf2d5777015936ed198bec9707e9362", "type": "electric_scooter", "lat": 38.9036645, "is_reserved": 0, "lon": -77.04487916666666, "fusion_lon": 0.0, "is_disabled": 0, "fusion_lat": 0.0, "bike_id": "bcf2d5777015936ed198bec9707e9362", "rental_uris": {"ios": "https://dc.lft.to/lastmile_qr_scan", "android": "https://dc.lft.to/lastmile_qr_scan"}}, {"name": "6ff4e31a45518ed8935bb0df06d7c8fc", "type": "electric_scooter", "lat": 38.95106616666666, "is_reserved": 0, "lon": -77.01579466666666, "fusion_lon": 0.0, "is_disabled": 0, "fusion_lat": 0.0, "bike_id": "6ff4e31a45518ed8935bb0df06d7c8fc", "rental_uris": {"ios": "https://dc.lft.to/lastmile_qr_scan", "android": "https://dc.lft.to/lastmile_qr_scan"}}, {"name": "ea266efd3aefa63f484794fefb3388b5", "type": "electric_scooter", "lat": 38.940144333333336, "is_reserved": 0, "lon": -77.07172333333334, "fusion_lon": 0.0, "is_disabled": 0, "fusion_lat": 0.0, "bike_id": "ea266efd3aefa63f484794fefb3388b5", "rental_uris": {"ios": "https://dc.lft.to/lastmile_qr_scan", "android": "https://dc.lft.to/lastmile_qr_scan"}},