{"data": {"bikes": [{"rental_uris": {"ios": "https://dc.lft.to/lastmile_qr_scan", "android": "https://dc.lft.to/lastmile_qr_scan"}, "lon": -77.04492066666667, "type": "electric_scooter", "fusion_lat": 0.0, "lat": 38.906543666666664, "name": "921940606baaa36dbc81eddcb0c44104", "fusion_lon": 0.0, "bike_id": "921940606baaa36dbc81eddcb0c44104", "is_disabled": 0, "is_reserved": 0}, {"rental_uris": {"ios": "https://dc.lft.to/lastmile_qr_scan", "android": "https://dc.lft.to/lastmile_qr_scan"}, "lon": -77.01259683333333, "type": "electric_scooter", "fusion_lat": 0.0, "lat": 38.899643166666664, "name": "33313480ca55fa09c60ba62a58ff1901", "fusion_lon": 0.0, "bike_id": "33313480ca55fa09c60ba62a58ff1901", "is_disabled": 0, "is_reserved": 0}, {"rental_uris": {"ios": "https://dc.lft.to/lastmile_qr_scan", "android": "https://dc.lft.to/lastmile_qr_scan"}, "lon": -77.05253133333333, "type": "electric_scooter", "fusion_lat": 0.0, "lat": 38.9237355, "name": "e7b06de82dd8c91eba2c5544d6bed63c", "fusion_lon": 0.0, "bike_id": "e7b06de82dd8c91eba2c5544d6bed63c", "is_disabled": 0, "is_reserved": 0}, {"rental_uris": {"ios": "https://dc.lft.to/lastmile_qr_scan", "android": "https://dc.lft.to/lastmile_qr_scan"}, "lon": -77.01441383333334, "type": "electric_scooter", "fusion_lat": 0.0, "lat": 38.87769466666666, "name": "43abff72516ea508688cfa038013c66f", "fusion_lon": 0.0, "bike_id": "43abff72516ea508688cfa038013c66f", "is_disabled": 0, "is_reserved": 0}, {"rental_uris": {"ios": "https://dc.lft.to/lastmile_qr_scan", "android": "https://dc.lft.to/lastmile_qr_scan"}, "lon": -77.13596966666667, "type": "electric_bike", "fusion_lat": 0.0, "lat": 39.053469, "name": "2d0c30d7cbfebfa674b933b836224bf4", "fusion_lon": 0.0, "bike_id": "2d0c30d7cbfebfa674b933b836224bf4", "is_disabled": 0, "is_reserved": 0}, {"rental_uris": {"ios": "https://dc.lft.to/lastmile_qr_scan", "android": "https://dc.lft.to/lastmile_qr_scan"}, "lon": -77.04305583333333, "type": "electric_scooter", "fusion_lat": 0.0, "lat": 38.9225515, "name": "1ef345d58f8db9aee27001beb95a9db1", "fusion_lon": 0.0, "bike_id": "1ef345d58f8db9aee27001beb95a9db1", "is_disabled": 0, "is_reserved": 0}, {"rental_uris": {"ios": "https://dc.lft.to/lastmile_qr_scan", "android": "https://dc.lft.to/lastmile_qr_scan"}, "lon": -77.03655083333334, "type": "electric_scooter", "fusion_lat": 0.0, "lat": 38.91302833333334, "name": "f20eb80f4d8e1b9c02fcca75fa5c6f1d", "fusion_lon": 0.0, "bike_id": "f20eb80f4d8e1b9c02fcca75fa5c6f1d", "is_disabled": 0, "is_reserved": 0}, {"rental_uris": {"ios": "https://dc.lft.to/lastmile_qr_scan", "android": "https://dc.lft.to/lastmile_qr_scan"}, "lon": -76.94877933333333, "type": "electric_scooter", "fusion_lat": 0.0, "lat": 38.89463083333333, "name": "800d5d9c84fa60f60e81686585c44605", "fusion_lon": 0.0, "bike_id": "800d5d9c84fa60f60e81686585c44605", "is_disabled": 0, "is_reserved": 0}, {"rental_uris": {"ios": "https://dc.lft.to/lastmile_qr_scan", "android": "https://dc.lft.to/lastmile_qr_scan"}, "lon": -76.98606483333333, "type": "electric_scooter", "fusion_lat": 0.0, "lat": 38.86810933333334, "name": "62cdeef3531d9d1749166f59c4d412a0", "fusion_lon": 0.0, "bike_id": "62cdeef3531d9d1749166f59c4d412a0", "is_disabled": 0, "is_reserved": 0}, {"rental_uris": {"ios": "https://dc.lft.to/lastmile_qr_scan", "android": "https://dc.lft.to/lastmile_qr_scan"}, "lon": -77.01186083333333, "type": "electric_scooter", "fusion_lat": 0.0, "lat": 38.89702183333333, "name": "ea7edb7087db04e3b8290a5e23db0880", "fusion_lon": 0.0, "bike_id": "ea7edb7087db04e3b8290a5e23db0880", "is_disabled": 0, "is_reserved": 0}, {"rental_uris": {"ios": "https://dc.lft.to/lastmile_qr_scan", "android": "https://dc.lft.to/lastmile_qr_scan"}, "lon": -77.03661316666667, "type": "electric_scooter", "fusion_lat": 0.0, "lat": 38.9291085, "name": "85d792d00b853b70ca7effff915a8e80", "fusion_lon": 0.0, "bike_id": "85d792d00b853b70ca7effff915a8e80", "is_disabled": 0, "is_reserved": 0}, {"rental_uris": {"ios": "https://dc.lft.to/lastmile_qr_scan", "android": "https://dc.lft.to/lastmile_qr_scan"}, "lon": -77.045151, "type": "electric_scooter", "fusion_lat": 0.0, "lat": 38.909657, "name": "c065f871af2b8741d727b7b0fef2e2db", "fusion_lon": 0.0, "bike_id": "c065f871af2b8741d727b7b0fef2e2db", "is_disabled": 0, "is_reserved": 0}, {"rental_uris": {"ios": "https://dc.lft.to/lastmile_qr_scan", "android": "https://dc.lft.to/lastmile_qr_scan"}, "lon": -77.04451966666667, "type": "electric_scooter", "fusion_lat": 0.0, "lat": 38.918822, "name": "17876643cffb80dc7cce331bfad6241f", "fusion_lon": 0.0, "bike_id": "17876643cffb80dc7cce331bfad6241f", "is_disabled": 0, "is_reserved": 0}, {"rental_uris": {"ios": "https://dc.lft.to/lastmile_qr_scan", "android": "https://dc.lft.to/lastmile_qr_scan"}, "lon": -77.03259816666667, "type": "electric_scooter", "fusion_lat": 0.0, "lat": 38.9182335, "name": "3437cd8fefff6926407ffeea4d3154e4", "fusion_lon": 0.0, "bike_id": "3437cd8fefff6926407ffeea4d3154e4", "is_disabled": 0, "is_reserved": 0}, {"rental_uris": {"ios": "https://dc.lft.to/lastmile_qr_scan", "android": "https://dc.lft.to/lastmile_qr_scan"}, "lon": -77.02796533333333, "type": "electric_scooter", "fusion_lat": 0.0, "lat": 38.89395533333333, "name": "026a3234b33cb864f20edb9431e1d541", "fusion_lon": 0.0, "bike_id": "026a3234b33cb864f20edb9431e1d541", "is_disabled": 0, "is_reserved": 0}, {"rental_uris": {"ios": "https://dc.lft.to/lastmile_qr_scan", "android": "https://dc.lft.to/lastmile_qr_scan"}, "lon": -77.0435985, "type": "electric_scooter", "fusion_lat": 0.0, "lat": 38.902604333333336, "name": "dfff0bf634068c3b5681c1f1f7d348e8", "fusion_lon": 0.0, "bike_id": "dfff0bf634068c3b5681c1f1f7d348e8", "is_disabled": 0, "is_reserved": 0}, {"rental_uris": {"ios": "https://dc.lft.to/lastmile_qr_scan", "android": "https://dc.lft.to/lastmile_qr_scan"}, "lon": -77.0382, "type": "electric_scooter", "fusion_lat": 0.0, "lat": 38.920494, "name": "f0bd85099498f99ea6744116ce22ddd8", "fusion_lon": 0.0, "bike_id": "f0bd85099498f99ea6744116ce22ddd8", "is_disabled": 0, "is_reserved": 0}, {"rental_uris": {"ios": "https://dc.lft.to/lastmile_qr_scan", "android": "https://dc.lft.to/lastmile_qr_scan"}, "lon": -77.04000316666666, "type": "electric_scooter", "fusion_lat": 0.0, "lat": 38.888907333333336, "name": "11b4e0532f2766d9c4450e932bbf30e9", "fusion_lon": 0.0, "bike_id": "11b4e0532f2766d9c4450e932bbf30e9", "is_disabled": 0, "is_reserved": 0}, {"rental_uris": {"ios": "https://dc.lft.to/lastmile_qr_scan", "android": "https://dc.lft.to/lastmile_qr_scan"}, "lon": -77.03215783333333, "type": "electric_scooter", "fusion_lat": 0.0, "lat": 38.913104, "name": "3859aa71aa724d76de9d6020c0a597eb", "fusion_lon": 0.0, "bike_id": "3859aa71aa724d76de9d6020c0a597eb", "is_disabled": 0, "is_reserved": 0}, {"rental_uris": {"ios": "https://dc.lft.to/lastmile_qr_scan", "android": "https://dc.lft.to/lastmile_qr_scan"}, "lon": -77.0356345, "type": "electric_scooter", "fusion_lat": 0.0, "lat": 38.91807883333333, "name": "34171ac777378c5f0116c35f6a325284", "fusion_lon": 0.0, "bike_id": "34171ac777378c5f0116c35f6a325284", "is_disabled": 0, "is_reserved": 0}, {"rental_uris": {"ios": "https://dc.lft.to/lastmile_qr_scan", "android": "https://dc.lft.to/lastmile_qr_scan"}, "lon": -77.03213816666667, "type": "electric_scooter", "fusion_lat": 0.0, "lat": 38.91691866666667, "name": "e85fafb09c453e4187266643e65e4eab", "fusion_lon": 0.0, "bike_id": "e85fafb09c453e4187266643e65e4eab", "is_disabled": 0, "is_reserved": 0}, {"rental_uris": {"ios": "https://dc.lft.to/lastmile_qr_scan", "android": "https://dc.lft.to/lastmile_qr_scan"}, "lon": -76.9582145, "type": "electric_scooter", "fusion_lat": 0.0, "lat": 38.890505, "name": "36ecfd4ec63856a193df22b88b315cbe", "fusion_lon": 0.0, "bike_id": "36ecfd4ec63856a193df22b88b315cbe", "is_disabled": 0, "is_reserved": 0}, {"rental_uris": {"ios": "https://dc.lft.to/lastmile_qr_scan", "android": "https://dc.lft.to/lastmile_qr_scan"}, "lon": -77.033608, "type": "electric_scooter", "fusion_lat": 0.0, "lat": 38.88503333333333, "name": "db84fc726421531e067169d7c063be61", "fusion_lon": 0.0, "bike_id": "db84fc726421531e067169d7c063be61", "is_disabled": 0, "is_reserved": 0}, {"rental_uris": {"ios": "https://dc.lft.to/lastmile_qr_scan", "android": "https://dc.lft.to/lastmile_qr_scan"}, "lon": -77.09521483333333, "type": "electric_bike", "fusion_lat": 0.0, "lat": 38.838112333333335, "name": "f375e41205f6b48504d6e811a36260bb", "fusion_lon": 0.0, "bike_id": "f375e41205f6b48504d6e811a36260bb", "is_disabled": 0, "is_reserved": 0}, {"rental_uris": {"ios": "https://dc.lft.to/lastmile_qr_scan", "android": "https://dc.lft.to/lastmile_qr_scan"}, "lon": -77.05573816666667, "type": "electric_scooter", "fusion_lat": 0.0, "lat": 38.9277815, "name": "ed0428bf8380dd3bdd1f168ba4cefb4d", "fusion_lon": 0.0, "bike_id": "ed0428bf8380dd3bdd1f168ba4cefb4d", "is_disabled": 0, "is_reserved": 0}, {"rental_uris": {"ios": "https://dc.lft.to/lastmile_qr_scan", "android": "https://dc.lft.to/lastmile_qr_scan"}, "lon": -77.006113, "type": "electric_scooter", "fusion_lat": 0.0, "lat": 38.87709866666667, "name": "68265456b844336ab94cda53e58b3af0", "fusion_lon": 0.0, "bike_id": "68265456b844336ab94cda53e58b3af0", "is_disabled": 0, "is_reserved": 0}, {"rental_uris": {"ios": "https://dc.lft.to/lastmile_qr_scan", "android": "https://dc.lft.to/lastmile_qr_scan"}, "lon": -77.03553266666667, "type": "electric_bike", "fusion_lat": 0.0, "lat": 38.964647666666664, "name": "91a4d23d00a3c40ab224ecf966ea12d5", "fusion_lon": 0.0, "bike_id": "91a4d23d00a3c40ab224ecf966ea12d5", "is_disabled": 0, "is_reserved": 0}, {"rental_uris": {"ios": "https://dc.lft.to/lastmile_qr_scan", "android": "https://dc.lft.to/lastmile_qr_scan"}, "lon": -77.00206183333333, "type": "electric_scooter", "fusion_lat": 0.0, "lat": 38.90015983333333, "name": "69a8e44f0d420553bd917948708e402c", "fusion_lon": 0.0, "bike_id": "69a8e44f0d420553bd917948708e402c", "is_disabled": 0, "is_reserved": 0}, {"rental_uris": {"ios": "https://dc.lft.to/lastmile_qr_scan", "android": "https://dc.lft.to/lastmile_qr_scan"}, "lon": -77.03513133333334, "type": "electric_scooter", "fusion_lat": 0.0, "lat": 38.922299, "name": "7a487571a0339635f2cdea156427903a", "fusion_lon": 0.0, "bike_id": "7a487571a0339635f2cdea156427903a", "is_disabled": 0, "is_reserved": 0}, {"rental_uris": {"ios": "https://dc.lft.to/lastmile_qr_scan", "android": "https://dc.lft.to/lastmile_qr_scan"}, "lon": -77.0323495, "type": "electric_scooter", "fusion_lat": 0.0, "lat": 38.914895666666666, "name": "54a3761d19c68a4325e04bc426a44a3b", "fusion_lon": 0.0, "bike_id": "54a3761d19c68a4325e04bc426a44a3b", "is_disabled": 0, "is_reserved": 0}, {"rental_uris": {"ios": "https://dc.lft.to/lastmile_qr_scan", "android": "https://dc.lft.to/lastmile_qr_scan"}, "lon": -76.99816716666666, "type": "electric_scooter", "fusion_lat": 0.0, "lat": 38.888663333333334, "name": "eee328c55bd4eccc2fd11e1b53113521", "fusion_lon": 0.0, "bike_id": "eee328c55bd4eccc2fd11e1b53113521", "is_disabled": 0, "is_reserved": 0}, {"rental_uris": {"ios": "https://dc.lft.to/lastmile_qr_scan", "android": "https://dc.lft.to/lastmile_qr_scan"}, "lon": -77.01622733333333, "type": "electric_scooter", "fusion_lat": 0.0, "lat": 38.907086666666665, "name": "8b217a9c090518c97fa59ccb49975fe1", "fusion_lon": 0.0, "bike_id": "8b217a9c090518c97fa59ccb49975fe1", "is_disabled": 0, "is_reserved": 0}, {"rental_uris": {"ios": "https://dc.lft.to/lastmile_qr_scan", "android": "https://dc.lft.to/lastmile_qr_scan"}, "lon": -77.04330816666666, "type": "electric_scooter", "fusion_lat": 0.0, "lat": 38.896375166666665, "name": "2ddc331488a28a05f17cdd252f219fd8", "fusion_lon": 0.0, "bike_id": "2ddc331488a28a05f17cdd252f219fd8", "is_disabled": 0, "is_reserved": 0}, {"rental_uris": {"ios": "https://dc.lft.to/lastmile_qr_scan", "android": "https://dc.lft.to/lastmile_qr_scan"}, "lon": -77.02568716666667, "type": "electric_scooter", "fusion_lat": 0.0, "lat": 38.88405383333333, "name": "cc73a058485af2a28a17475e8d40cdbb", "fusion_lon": 0.0, "bike_id": "cc73a058485af2a28a17475e8d40cdbb", "is_disabled": 0, "is_reserved": 0}, {"rental_uris": {"ios": "https://dc.lft.to/lastmile_qr_scan", "android": "https://dc.lft.to/lastmile_qr_scan"}, "lon": -77.04146883333334, "type": "electric_scooter", "fusion_lat": 0.0, "lat": 38.921697333333334, "name": "a4ae2a4220446c6d48774cc658fdbae0", "fusion_lon": 0.0, "bike_id": "a4ae2a4220446c6d48774cc658fdbae0", "is_disabled": 0, "is_reserved": 0}, {"rental_uris": {"ios": "https://dc.lft.to/lastmile_qr_scan", "android": "https://dc.lft.to/lastmile_qr_scan"}, "lon": -77.01900383333333, "type": "electric_scooter", "fusion_lat": 0.0, "lat": 38.91186483333333, "name": "855d067cc0da0d51ac38ba0ef1d1dcdd", "fusion_lon": 0.0, "bike_id": "855d067cc0da0d51ac38ba0ef1d1dcdd", "is_disabled": 0, "is_reserved": 0}, {"rental_uris": {"ios": "https://dc.lft.to/lastmile_qr_scan", "android": "https://dc.lft.to/lastmile_qr_scan"}, "lon": -77.01881133333333, "type": "electric_scooter", "fusion_lat": 0.0, "lat": 38.9061215, "name": "a20f7ddbbb41c0433528184a86681fe8", "fusion_lon": 0.0, "bike_id": "a20f7ddbbb41c0433528184a86681fe8", "is_disabled": 0, "is_reserved": 0}, {"rental_uris": {"ios": "https://dc.lft.to/lastmile_qr_scan", "android": "https://dc.lft.to/lastmile_qr_scan"}, "lon": -76.98513716666666, "type": "electric_scooter", "fusion_lat": 0.0, "lat": 38.906076166666665, "name": "3bddce51888f68835aeb4ee6747a8816", "fusion_lon": 0.0, "bike_id": "3bddce51888f68835aeb4ee6747a8816", "is_disabled": 0, "is_reserved": 0}, {"rental_uris": {"ios": "https://dc.lft.to/lastmile_qr_scan", "android": "https://dc.lft.to/lastmile_qr_scan"}, "lon": -76.999681, "type": "electric_scooter", "fusion_lat": 0.0, "lat": 38.90922233333333, "name": "2fd1137774d3fe3f4514b2b877694e4b", "fusion_lon": 0.0, "bike_id": "2fd1137774d3fe3f4514b2b877694e4b", "is_disabled": 0, "is_reserved": 0}, {"rental_uris": {"ios": "https://dc.lft.to/lastmile_qr_scan", "android": "https://dc.lft.to/lastmile_qr_scan"}, "lon": -77.02714766666666, "type": "electric_scooter", "fusion_lat": 0.0, "lat": 38.906749833333336, "name": "bd4b68bf6d0516185fdc309785c2f030", "fusion_lon": 0.0, "bike_id": "bd4b68bf6d0516185fdc309785c2f030", "is_disabled": 0, "is_reserved": 0}, {"rental_uris": {"ios": "https://dc.lft.to/lastmile_qr_scan", "android": "https://dc.lft.to/lastmile_qr_scan"}, "lon": -76.97345383333334, "type": "electric_scooter", "fusion_lat": 0.0, "lat": 38.86508333333333, "name": "343d77d7b4ac6e902f333c58b002d308", "fusion_lon": 0.0, "bike_id": "343d77d7b4ac6e902f333c58b002d308", "is_disabled": 0, "is_reserved": 0}, {"rental_uris": {"ios": "https://dc.lft.to/lastmile_qr_scan", "android": "https://dc.lft.to/lastmile_qr_scan"}, "lon": -77.01779016666667, "type": "electric_scooter", "fusion_lat": 0.0, "lat": 38.9041585, "name": "3780ebbc557d8d411b00ef6abbdeb24f", "fusion_lon": 0.0, "bike_id": "3780ebbc557d8d411b00ef6abbdeb24f", "is_disabled": 0, "is_reserved": 0}, {"rental_uris": {"ios": "https://dc.lft.to/lastmile_qr_scan", "android": "https://dc.lft.to/lastmile_qr_scan"}, "lon": -76.93194333333334, "type": "electric_scooter", "fusion_lat": 0.0, "lat": 38.889918333333334, "name": "2c9a8b7000b675aab522d2847219fd4d", "fusion_lon": 0.0, "bike_id": "2c9a8b7000b675aab522d2847219fd4d", "is_disabled": 0, "is_reserved": 0}, {"rental_uris": {"ios": "https://dc.lft.to/lastmile_qr_scan", "android": "https://dc.lft.to/lastmile_qr_scan"}, "lon": -77.03567316666667, "type": "electric_scooter", "fusion_lat": 0.0, "lat": 38.9180805, "name": "a159e8e00040be815a91fc9ed7697f68", "fusion_lon": 0.0, "bike_id": "a159e8e00040be815a91fc9ed7697f68", "is_disabled": 0, "is_reserved": 0}, {"rental_uris": {"ios": "https://dc.lft.to/lastmile_qr_scan", "android": "https://dc.lft.to/lastmile_qr_scan"}, "lon": -77.02986683333333, "type": "electric_scooter", "fusion_lat": 0.0, "lat": 38.924682833333335, "name": "a0a4b86bfe402f29f261c1517f8645b0", "fusion_lon": 0.0, "bike_id": "a0a4b86bfe402f29f261c1517f8645b0", "is_disabled": 0, "is_reserved": 0}, {"rental_uris": {"ios": "https://dc.lft.to/lastmile_qr_scan", "android": "https://dc.lft.to/lastmile_qr_scan"}, "lon": -77.00596083333333, "type": "electric_scooter", "fusion_lat": 0.0, "lat": 38.906279, "name": "307afe18e4471994b02bd03791f92154", "fusion_lon": 0.0, "bike_id": "307afe18e4471994b02bd03791f92154", "is_disabled": 0, "is_reserved": 0}, {"rental_uris": {"ios": "https://dc.lft.to/lastmile_qr_scan", "android": "https://dc.lft.to/lastmile_qr_scan"}, "lon": -77.01511633333334, "type": "electric_scooter", "fusion_lat": 0.0, "lat": 38.90158016666667, "name": "7d6734a057f38356316c75baa1508841", "fusion_lon": 0.0, "bike_id": "7d6734a057f38356316c75baa1508841", "is_disabled": 0, "is_reserved": 0}, {"rental_uris": {"ios": "https://dc.lft.to/lastmile_qr_scan", "android": "https://dc.lft.to/lastmile_qr_scan"}, "lon": -77.0403225, "type": "electric_bike", "fusion_lat": 0.0, "lat": 38.924299166666664, "name": "b88ecc1fb9bd0c58283b9a34f31fa615", "fusion_lon": 0.0, "bike_id": "b88ecc1fb9bd0c58283b9a34f31fa615", "is_disabled": 0, "is_reserved": 0}, {"rental_uris": {"ios": "https://dc.lft.to/lastmile_qr_scan", "android": "https://dc.lft.to/lastmile_qr_scan"}, "lon": -77.04502266666667, "type": "electric_scooter", "fusion_lat": 0.0, "lat": 38.90780733333333, "name": "cfec78db7a47bce91a7ca7e33cf28e6a", "fusion_lon": 0.0, "bike_id": "cfec78db7a47bce91a7ca7e33cf28e6a", "is_disabled": 0, "is_reserved": 0}, {"rental_uris": {"ios": "https://dc.lft.to/lastmile_qr_scan", "android": "https://dc.lft.to/lastmile_qr_scan"}, "lon": -77.02181433333334, "type": "electric_scooter", "fusion_lat": 0.0, "lat": 38.8924485, "name": "d1675bb671bf87c70c3f69a54357f39d", "fusion_lon": 0.0, "bike_id": "d1675bb671bf87c70c3f69a54357f39d", "is_disabled": 0, "is_reserved": 0}, {"rental_uris": {"ios": "https://dc.lft.to/lastmile_qr_scan", "android": "https://dc.lft.to/lastmile_qr_scan"}, "lon": -77.03859833333334, "type": "electric_scooter", "fusion_lat": 0.0, "lat": 38.915517666666666, "name": "20cb340e1a799635422382051b0be263", "fusion_lon": 0.0, "bike_id": "20cb340e1a799635422382051b0be263", "is_disabled": 0, "is_reserved": 0}, {"rental_uris": {"ios": "https://dc.lft.to/lastmile_qr_scan", "android": "https://dc.lft.to/lastmile_qr_scan"}, "lon": -77.0369745, "type": "electric_scooter", "fusion_lat": 0.0, "lat": 38.93520133333333, "name": "72c2546a709d48c50ae24fca28f3c1b8", "fusion_lon": 0.0, "bike_id": "72c2546a709d48c50ae24fca28f3c1b8", "is_disabled": 0, "is_reserved": 0}, {"rental_uris": {"ios": "https://dc.lft.to/lastmile_qr_scan", "android": "https://dc.lft.to/lastmile_qr_scan"}, "lon": -77.01747516666667, "type": "electric_scooter", "fusion_lat": 0.0, "lat": 38.88204366666667, "name": "c6793876b695b8bc8cb249982ba01ce1", "fusion_lon": 0.0, "bike_id": "c6793876b695b8bc8cb249982ba01ce1", "is_disabled": 0, "is_reserved": 0}, {"rental_uris": {"ios": "https://dc.lft.to/lastmile_qr_scan", "android": "https://dc.lft.to/lastmile_qr_scan"}, "lon": -77.05214433333333, "type": "electric_scooter", "fusion_lat": 0.0, "lat": 38.92431166666667, "name": "15f6173031a96d85aa887279f84010fc", "fusion_lon": 0.0, "bike_id": "15f6173031a96d85aa887279f84010fc", "is_disabled": 0, "is_reserved": 0}, {"rental_uris": {"ios": "https://dc.lft.to/lastmile_qr_scan", "android": "https://dc.lft.to/lastmile_qr_scan"}, "lon": -77.005688, "type": "electric_scooter", "fusion_lat": 0.0, "lat": 38.88046, "name": "6e9f8ff655127fa15a62ed24c75078a9", "fusion_lon": 0.0, "bike_id": "6e9f8ff655127fa15a62ed24c75078a9", "is_disabled": 0, "is_reserved": 0}, {"rental_uris": {"ios": "https://dc.lft.to/lastmile_qr_scan", "android": "https://dc.lft.to/lastmile_qr_scan"}, "lon": -77.10783866666667, "type": "electric_bike", "fusion_lat": 0.0, "lat": 38.892181666666666, "name": "af13acfc6281d61ef086d9944f807215", "fusion_lon": 0.0, "bike_id": "af13acfc6281d61ef086d9944f807215", "is_disabled": 0, "is_reserved": 0}, {"rental_uris": {"ios": "https://dc.lft.to/lastmile_qr_scan", "android": "https://dc.lft.to/lastmile_qr_scan"}, "lon": -77.02341666666666, "type": "electric_scooter", "fusion_lat": 0.0, "lat": 38.929394, "name": "6ba74272dddb2d7d9378b93a1f3a5fe7", "fusion_lon": 0.0, "bike_id": "6ba74272dddb2d7d9378b93a1f3a5fe7", "is_disabled": 0, "is_reserved": 0}, {"rental_uris": {"ios": "https://dc.lft.to/lastmile_qr_scan", "android": "https://dc.lft.to/lastmile_qr_scan"}, "lon": -77.06633233333334, "type": "electric_scooter", "fusion_lat": 0.0, "lat": 38.927985666666665, "name": "fcb5959cb34717fa9f9186c4677d4239", "fusion_lon": 0.0, "bike_id": "fcb5959cb34717fa9f9186c4677d4239", "is_disabled": 0, "is_reserved": 0}, {"rental_uris": {"ios": "https://dc.lft.to/lastmile_qr_scan", "android": "https://dc.lft.to/lastmile_qr_scan"}, "lon": -76.98906483333333, "type": "electric_scooter", "fusion_lat": 0.0, "lat": 38.86693416666667, "name": "0f0a4067f74472785f1dfc88f38d8b9b", "fusion_lon": 0.0, "bike_id": "0f0a4067f74472785f1dfc88f38d8b9b", "is_disabled": 0, "is_reserved": 0}, {"rental_uris": {"ios": "https://dc.lft.to/lastmile_qr_scan", "android": "https://dc.lft.to/lastmile_qr_scan"}, "lon": -76.9271235, "type": "electric_scooter", "fusion_lat": 0.0, "lat": 38.88767516666667, "name": "96ec2f44190af8dc51e715df1c3a3c34", "fusion_lon": 0.0, "bike_id": "96ec2f44190af8dc51e715df1c3a3c34", "is_disabled": 0, "is_reserved": 0}, {"rental_uris": {"ios": "https://dc.lft.to/lastmile_qr_scan", "android": "https://dc.lft.to/lastmile_qr_scan"}, "lon": -77.02758483333334, "type": "electric_scooter", "fusion_lat": 0.0, "lat": 38.95612216666667, "name": "6be50eda733bf0514d9b34ed8e90adc6", "fusion_lon": 0.0, "bike_id": "6be50eda733bf0514d9b34ed8e90adc6", "is_disabled": 0, "is_reserved": 0}, {"rental_uris": {"ios": "https://dc.lft.to/lastmile_qr_scan", "android": "https://dc.lft.to/lastmile_qr_scan"}, "lon": -77.02964883333334, "type": "electric_scooter", "fusion_lat": 0.0, "lat": 38.95426766666667, "name": "abadc5c4006ec3077bcb05b8d8817513", "fusion_lon": 0.0, "bike_id": "abadc5c4006ec3077bcb05b8d8817513", "is_disabled": 0, "is_reserved": 0}, {"rental_uris": {"ios": "https://dc.lft.to/lastmile_qr_scan", "android": "https://dc.lft.to/lastmile_qr_scan"}, "lon": -77.06950983333333, "type": "electric_bike", "fusion_lat": 0.0, "lat": 38.9904265, "name": "915f1f05bb6aa05531d83a5c197f7048", "fusion_lon": 0.0, "bike_id": "915f1f05bb6aa05531d83a5c197f7048", "is_disabled": 0, "is_reserved": 0}, {"rental_uris": {"ios": "https://dc.lft.to/lastmile_qr_scan", "android": "https://dc.lft.to/lastmile_qr_scan"}, "lon": -77.0070895, "type": "electric_scooter", "fusion_lat": 0.0, "lat": 38.884886, "name": "08098482fade4e614f55d82bc793fae5", "fusion_lon": 0.0, "bike_id": "08098482fade4e614f55d82bc793fae5", "is_disabled": 0, "is_reserved": 0}, {"rental_uris": {"ios": "https://dc.lft.to/lastmile_qr_scan", "android": "https://dc.lft.to/lastmile_qr_scan"}, "lon": -77.00677716666667, "type": "electric_bike", "fusion_lat": 0.0, "lat": 38.94513283333333, "name": "9f2d5c3d2b3a70e9b78df94fffecfe35", "fusion_lon": 0.0, "bike_id": "9f2d5c3d2b3a70e9b78df94fffecfe35", "is_disabled": 0, "is_reserved": 0}, {"rental_uris": {"ios": "https://dc.lft.to/lastmile_qr_scan", "android": "https://dc.lft.to/lastmile_qr_scan"}, "lon": -77.03563633333333, "type": "electric_scooter", "fusion_lat": 0.0, "lat": 38.91810016666667, "name": "fb5a9adcea13db138fc759dc95a369b6", "fusion_lon": 0.0, "bike_id": "fb5a9adcea13db138fc759dc95a369b6", "is_disabled": 0, "is_reserved": 0}, {"rental_uris": {"ios": "https://dc.lft.to/lastmile_qr_scan", "android": "https://dc.lft.to/lastmile_qr_scan"}, "lon": -77.05884033333334, "type": "electric_scooter", "fusion_lat": 0.0, "lat": 38.9364095, "name": "86628554d4e8b7473fef17e21122725d", "fusion_lon": 0.0, "bike_id": "86628554d4e8b7473fef17e21122725d", "is_disabled": 0, "is_reserved": 0}, {"rental_uris": {"ios": "https://dc.lft.to/lastmile_qr_scan", "android": "https://dc.lft.to/lastmile_qr_scan"}, "lon": -77.04742533333334, "type": "electric_scooter", "fusion_lat": 0.0, "lat": 38.911108, "name": "2da94da423293a87eec72b3c280a2dfc", "fusion_lon": 0.0, "bike_id": "2da94da423293a87eec72b3c280a2dfc", "is_disabled": 0, "is_reserved": 0}, {"rental_uris": {"ios": "https://dc.lft.to/lastmile_qr_scan", "android": "https://dc.lft.to/lastmile_qr_scan"}, "lon": -77.04472633333333, "type": "electric_scooter", "fusion_lat": 0.0, "lat": 38.90652716666666, "name": "d43ab5eb85700604db162391bdd3895d", "fusion_lon": 0.0, "bike_id": "d43ab5eb85700604db162391bdd3895d", "is_disabled": 0, "is_reserved": 0}, {"rental_uris": {"ios": "https://dc.lft.to/lastmile_qr_scan", "android": "https://dc.lft.to/lastmile_qr_scan"}, "lon": -76.98829983333333, "type": "electric_scooter", "fusion_lat": 0.0, "lat": 38.880213833333336, "name": "46414e3b652302c2a47125800ada18a1", "fusion_lon": 0.0, "bike_id": "46414e3b652302c2a47125800ada18a1", "is_disabled": 0, "is_reserved": 0}, {"rental_uris": {"ios": "https://dc.lft.to/lastmile_qr_scan", "android": "https://dc.lft.to/lastmile_qr_scan"}, "lon": -77.03204066666666, "type": "electric_scooter", "fusion_lat": 0.0, "lat": 38.88699033333333, "name": "726cd9ae030f71aa48b6b3b2bab2c70e", "fusion_lon": 0.0, "bike_id": "726cd9ae030f71aa48b6b3b2bab2c70e", "is_disabled": 0, "is_reserved": 0}, {"rental_uris": {"ios": "https://dc.lft.to/lastmile_qr_scan", "android": "https://dc.lft.to/lastmile_qr_scan"}, "lon": -77.11315666666667, "type": "electric_bike", "fusion_lat": 0.0, "lat": 38.855638166666665, "name": "8a8bf41e0747f944748086bd9ad42741", "fusion_lon": 0.0, "bike_id": "8a8bf41e0747f944748086bd9ad42741", "is_disabled": 0, "is_reserved": 0}, {"rental_uris": {"ios": "https://dc.lft.to/lastmile_qr_scan", "android": "https://dc.lft.to/lastmile_qr_scan"}, "lon": -77.033629, "type": "electric_scooter", "fusion_lat": 0.0, "lat": 38.89952916666667, "name": "7a15e26ea16816378ad4fc9fdae43dd1", "fusion_lon": 0.0, "bike_id": "7a15e26ea16816378ad4fc9fdae43dd1", "is_disabled": 0, "is_reserved": 0}, {"rental_uris": {"ios": "https://dc.lft.to/lastmile_qr_scan", "android": "https://dc.lft.to/lastmile_qr_scan"}, "lon": -77.023997, "type": "electric_scooter", "fusion_lat": 0.0, "lat": 38.885043333333336, "name": "4367e1bd532bcdb23b3c1d40b5f7ed48", "fusion_lon": 0.0, "bike_id": "4367e1bd532bcdb23b3c1d40b5f7ed48", "is_disabled": 0, "is_reserved": 0}, {"rental_uris": {"ios": "https://dc.lft.to/lastmile_qr_scan", "android": "https://dc.lft.to/lastmile_qr_scan"}, "lon": -77.0385445, "type": "electric_scooter", "fusion_lat": 0.0, "lat": 38.9120425, "name": "03d6dffb00213526fb13f9f3bb5b1d1c", "fusion_lon": 0.0, "bike_id": "03d6dffb00213526fb13f9f3bb5b1d1c", "is_disabled": 0, "is_reserved": 0}, {"rental_uris": {"ios": "https://dc.lft.to/lastmile_qr_scan", "android": "https://dc.lft.to/lastmile_qr_scan"}, "lon": -77.03661233333334, "type": "electric_scooter", "fusion_lat": 0.0, "lat": 38.918114333333335, "name": "2cb5d92b8a0e161c9d9926a9f51197f0", "fusion_lon": 0.0, "bike_id": "2cb5d92b8a0e161c9d9926a9f51197f0", "is_disabled": 0, "is_reserved": 0}, {"rental_uris": {"ios": "https://dc.lft.to/lastmile_qr_scan", "android": "https://dc.lft.to/lastmile_qr_scan"}, "lon": -76.98692816666667, "type": "electric_scooter", "fusion_lat": 0.0, "lat": 38.9128695, "name": "3b5b66fa800ff49beec6fe4dbeb16515", "fusion_lon": 0.0, "bike_id": "3b5b66fa800ff49beec6fe4dbeb16515", "is_disabled": 0, "is_reserved": 0}, {"rental_uris": {"ios": "https://dc.lft.to/lastmile_qr_scan", "android": "https://dc.lft.to/lastmile_qr_scan"}, "lon": -77.03251766666666, "type": "electric_scooter", "fusion_lat": 0.0, "lat": 38.921621, "name": "cd2cc9d9a5bd9b664732cf8f7eacd6cd", "fusion_lon": 0.0, "bike_id": "cd2cc9d9a5bd9b664732cf8f7eacd6cd", "is_disabled": 0, "is_reserved": 0}, {"rental_uris": {"ios": "https://dc.lft.to/lastmile_qr_scan", "android": "https://dc.lft.to/lastmile_qr_scan"}, "lon": -77.01090983333333, "type": "electric_scooter", "fusion_lat": 0.0, "lat": 38.8940005, "name": "592dd684249dfd558d65edc2c0c1f277", "fusion_lon": 0.0, "bike_id": "592dd684249dfd558d65edc2c0c1f277", "is_disabled": 0, "is_reserved": 0}, {"rental_uris": {"ios": "https://dc.lft.to/lastmile_qr_scan", "android": "https://dc.lft.to/lastmile_qr_scan"}, "lon": -77.06877016666667, "type": "electric_scooter", "fusion_lat": 0.0, "lat": 38.905055833333336, "name": "6a44b2cb03c46ef96053f3b37d28c6fc", "fusion_lon": 0.0, "bike_id": "6a44b2cb03c46ef96053f3b37d28c6fc", "is_disabled": 0, "is_reserved": 0}, {"rental_uris": {"ios": "https://dc.lft.to/lastmile_qr_scan", "android": "https://dc.lft.to/lastmile_qr_scan"}, "lon": -77.02312033333334, "type": "electric_scooter", "fusion_lat": 0.0, "lat": 38.8873185, "name": "060e2fc95c94ed4fdce7219e52258047", "fusion_lon": 0.0, "bike_id": "060e2fc95c94ed4fdce7219e52258047", "is_disabled": 0, "is_reserved": 0}, {"rental_uris": {"ios": "https://dc.lft.to/lastmile_qr_scan", "android": "https://dc.lft.to/lastmile_qr_scan"}, "lon": -77.00471666666667, "type": "electric_scooter", "fusion_lat": 0.0, "lat": 38.876897166666666, "name": "1807c9974721d49a4942709239999573", "fusion_lon": 0.0, "bike_id": "1807c9974721d49a4942709239999573", "is_disabled": 0, "is_reserved": 0}, {"rental_uris": {"ios": "https://dc.lft.to/lastmile_qr_scan", "android": "https://dc.lft.to/lastmile_qr_scan"}, "lon": -77.03444266666666, "type": "electric_scooter", "fusion_lat": 0.0, "lat": 38.90948, "name": "37e61f8084906c94034a5132c07a1de6", "fusion_lon": 0.0, "bike_id": "37e61f8084906c94034a5132c07a1de6", "is_disabled": 0, "is_reserved": 0}, {"rental_uris": {"ios": "https://dc.lft.to/lastmile_qr_scan", "android": "https://dc.lft.to/lastmile_qr_scan"}, "lon": -77.00262733333334, "type": "electric_bike", "fusion_lat": 0.0, "lat": 38.911847, "name": "7db3a16ed0761378a53ff85baa529284", "fusion_lon": 0.0, "bike_id": "7db3a16ed0761378a53ff85baa529284", "is_disabled": 0, "is_reserved": 0}, {"rental_uris": {"ios": "https://dc.lft.to/lastmile_qr_scan", "android": "https://dc.lft.to/lastmile_qr_scan"}, "lon": -77.04388466666667, "type": "electric_scooter", "fusion_lat": 0.0, "lat": 38.92275333333333, "name": "8972cd7f3bcd76494e13e4192afefb47", "fusion_lon": 0.0, "bike_id": "8972cd7f3bcd76494e13e4192afefb47", "is_disabled": 0, "is_reserved": 0}, {"rental_uris": {"ios": "https://dc.lft.to/lastmile_qr_scan", "android": "https://dc.lft.to/lastmile_qr_scan"}, "lon": -76.97610816666666, "type": "electric_bike", "fusion_lat": 0.0, "lat": 38.913074333333334, "name": "59c07a9259ca99b1e67b36eb7c5a1692", "fusion_lon": 0.0, "bike_id": "59c07a9259ca99b1e67b36eb7c5a1692", "is_disabled": 0, "is_reserved": 0}, {"rental_uris": {"ios": "https://dc.lft.to/lastmile_qr_scan", "android": "https://dc.lft.to/lastmile_qr_scan"}, "lon": -77.02003783333333, "type": "electric_scooter", "fusion_lat": 0.0, "lat": 38.8924885, "name": "9644ef9bcc95a1eb86bf393126a59f10", "fusion_lon": 0.0, "bike_id": "9644ef9bcc95a1eb86bf393126a59f10", "is_disabled": 0, "is_reserved": 0}, {"rental_uris": {"ios": "https://dc.lft.to/lastmile_qr_scan", "android": "https://dc.lft.to/lastmile_qr_scan"}, "lon": -76.99033433333334, "type": "electric_scooter", "fusion_lat": 0.0, "lat": 38.858666, "name": "b24e3fe3e6163ef7644341cbc020b178", "fusion_lon": 0.0, "bike_id": "b24e3fe3e6163ef7644341cbc020b178", "is_disabled": 0, "is_reserved": 0}, {"rental_uris": {"ios": "https://dc.lft.to/lastmile_qr_scan", "android": "https://dc.lft.to/lastmile_qr_scan"}, "lon": -76.97188766666666, "type": "electric_scooter", "fusion_lat": 0.0, "lat": 38.91257233333333, "name": "ebcb60a3113d9ad6edb91ad41db370be", "fusion_lon": 0.0, "bike_id": "ebcb60a3113d9ad6edb91ad41db370be", "is_disabled": 0, "is_reserved": 0}, {"rental_uris": {"ios": "https://dc.lft.to/lastmile_qr_scan", "android": "https://dc.lft.to/lastmile_qr_scan"}, "lon": -77.01516766666667, "type": "electric_scooter", "fusion_lat": 0.0, "lat": 38.91869916666667, "name": "ac9bf8f36937fb7bd13181f3acd3979b", "fusion_lon": 0.0, "bike_id": "ac9bf8f36937fb7bd13181f3acd3979b", "is_disabled": 0, "is_reserved": 0}, {"rental_uris": {"ios": "https://dc.lft.to/lastmile_qr_scan", "android": "https://dc.lft.to/lastmile_qr_scan"}, "lon": -77.068147, "type": "electric_bike", "fusion_lat": 0.0, "lat": 38.907793833333336, "name": "ed32868699cd213dc6dccdd906c6fc98", "fusion_lon": 0.0, "bike_id": "ed32868699cd213dc6dccdd906c6fc98", "is_disabled": 0, "is_reserved": 0}, {"rental_uris": {"ios": "https://dc.lft.to/lastmile_qr_scan", "android": "https://dc.lft.to/lastmile_qr_scan"}, "lon": -77.0182215, "type": "electric_scooter", "fusion_lat": 0.0, "lat": 38.9081135, "name": "2306cf8c9220afb800297e21f64901ff", "fusion_lon": 0.0, "bike_id": "2306cf8c9220afb800297e21f64901ff", "is_disabled": 0, "is_reserved": 0}, {"rental_uris": {"ios": "https://dc.lft.to/lastmile_qr_scan", "android": "https://dc.lft.to/lastmile_qr_scan"}, "lon": -77.037063, "type": "electric_scooter", "fusion_lat": 0.0, "lat": 38.926331833333336, "name": "5d7884b8d2c71fb772aecc9239b696a3", "fusion_lon": 0.0, "bike_id": "5d7884b8d2c71fb772aecc9239b696a3", "is_disabled": 0, "is_reserved": 0}, {"rental_uris": {"ios": "https://dc.lft.to/lastmile_qr_scan", "android": "https://dc.lft.to/lastmile_qr_scan"}, "lon": -77.0716245, "type": "electric_scooter", "fusion_lat": 0.0, "lat": 38.958384333333335, "name": "cca37b4c8c3c31fa35e17d29b54a4a68", "fusion_lon": 0.0, "bike_id": "cca37b4c8c3c31fa35e17d29b54a4a68", "is_disabled": 0, "is_reserved": 0}, {"rental_uris": {"ios": "https://dc.lft.to/lastmile_qr_scan", "android": "https://dc.lft.to/lastmile_qr_scan"}, "lon": -77.1250315, "type": "electric_bike", "fusion_lat": 0.0, "lat": 39.02424, "name": "b3421294116b1ad1042c8fd17c10313c", "fusion_lon": 0.0, "bike_id": "b3421294116b1ad1042c8fd17c10313c", "is_disabled": 0, "is_reserved": 0}, {"rental_uris": {"ios": "https://dc.lft.to/lastmile_qr_scan", "android": "https://dc.lft.to/lastmile_qr_scan"}, "lon": -77.00222683333334, "type": "electric_scooter", "fusion_lat": 0.0, "lat": 38.9133765, "name": "cb4a034006394c38baeabe9366177cad", "fusion_lon": 0.0, "bike_id": "cb4a034006394c38baeabe9366177cad", "is_disabled": 0, "is_reserved": 0}, {"rental_uris": {"ios": "https://dc.lft.to/lastmile_qr_scan", "android": "https://dc.lft.to/lastmile_qr_scan"}, "lon": -77.02635233333334, "type": "electric_scooter", "fusion_lat": 0.0, "lat": 38.8984665, "name": "16a8bc7d2c9969ea467d6a950e2b0347", "fusion_lon": 0.0, "bike_id": "16a8bc7d2c9969ea467d6a950e2b0347", "is_disabled": 0, "is_reserved": 0}, {"rental_uris": {"ios": "https://dc.lft.to/lastmile_qr_scan", "android": "https://dc.lft.to/lastmile_qr_scan"}, "lon": -77.0511825, "type": "electric_scooter", "fusion_lat": 0.0, "lat": 38.923619333333335, "name": "83bd56638ad1ee9616ba72b3eeeade8d", "fusion_lon": 0.0, "bike_id": "83bd56638ad1ee9616ba72b3eeeade8d", "is_disabled": 0, "is_reserved": 0}, {"rental_uris": {"ios": "https://dc.lft.to/lastmile_qr_scan", "android": "https://dc.lft.to/lastmile_qr_scan"}, "lon": -77.04263283333333, "type": "electric_scooter", "fusion_lat": 0.0, "lat": 38.902843833333336, "name": "5c5a7b1336830218f0e9343754d7644c", "fusion_lon": 0.0, "bike_id": "5c5a7b1336830218f0e9343754d7644c", "is_disabled": 0, "is_reserved": 0}, {"rental_uris": {"ios": "https://dc.lft.to/lastmile_qr_scan", "android": "https://dc.lft.to/lastmile_qr_scan"}, "lon": -77.01084316666666, "type": "electric_scooter", "fusion_lat": 0.0, "lat": 38.89482433333333, "name": "f162bee2122fd4893d3df93a0734da41", "fusion_lon": 0.0, "bike_id": "f162bee2122fd4893d3df93a0734da41", "is_disabled": 0, "is_reserved": 0}, {"rental_uris": {"ios": "https://dc.lft.to/lastmile_qr_scan", "android": "https://dc.lft.to/lastmile_qr_scan"}, "lon": -76.99677333333334, "type": "electric_scooter", "fusion_lat": 0.0, "lat": 38.9049505, "name": "9e93e5efec07b7ed6b040bff938794f1", "fusion_lon": 0.0, "bike_id": "9e93e5efec07b7ed6b040bff938794f1", "is_disabled": 0, "is_reserved": 0}, {"rental_uris": {"ios": "https://dc.lft.to/lastmile_qr_scan", "android": "https://dc.lft.to/lastmile_qr_scan"}, "lon": -77.0270475, "type": "electric_scooter", "fusion_lat": 0.0, "lat": 38.90667116666667, "name": "622367bbfe36c57247ce8d3b3b0dd931", "fusion_lon": 0.0, "bike_id": "622367bbfe36c57247ce8d3b3b0dd931", "is_disabled": 0, "is_reserved": 0}, {"rental_uris": {"ios": "https://dc.lft.to/lastmile_qr_scan", "android": "https://dc.lft.to/lastmile_qr_scan"}, "lon": -77.10687816666666, "type": "electric_bike", "fusion_lat": 0.0, "lat": 38.935849, "name": "710e57064b760b4cbe8f0b532dd24b4e", "fusion_lon": 0.0, "bike_id": "710e57064b760b4cbe8f0b532dd24b4e", "is_disabled": 0, "is_reserved": 0}, {"rental_uris": {"ios": "https://dc.lft.to/lastmile_qr_scan", "android": "https://dc.lft.to/lastmile_qr_scan"}, "lon": -77.04657583333334, "type": "electric_scooter", "fusion_lat": 0.0, "lat": 38.89338516666667, "name": "339c967f885d633834ff1b317c7645a9", "fusion_lon": 0.0, "bike_id": "339c967f885d633834ff1b317c7645a9", "is_disabled": 0, "is_reserved": 0}, {"rental_uris": {"ios": "https://dc.lft.to/lastmile_qr_scan", "android": "https://dc.lft.to/lastmile_qr_scan"}, "lon": -77.0489775, "type": "electric_scooter", "fusion_lat": 0.0, "lat": 38.905456, "name": "40c97fb9cd70a79b8ac559c4bcec129d", "fusion_lon": 0.0, "bike_id": "40c97fb9cd70a79b8ac559c4bcec129d", "is_disabled": 0, "is_reserved": 0}, {"rental_uris": {"ios": "https://dc.lft.to/lastmile_qr_scan", "android": "https://dc.lft.to/lastmile_qr_scan"}, "lon": -77.0221345, "type": "electric_scooter", "fusion_lat": 0.0, "lat": 38.90569966666666, "name": "51e1ab5e7fbb0ffca98412d4737f569b", "fusion_lon": 0.0, "bike_id": "51e1ab5e7fbb0ffca98412d4737f569b", "is_disabled": 0, "is_reserved": 0}, {"rental_uris": {"ios": "https://dc.lft.to/lastmile_qr_scan", "android": "https://dc.lft.to/lastmile_qr_scan"}, "lon": -77.018393, "type": "electric_bike", "fusion_lat": 0.0, "lat": 38.9086285, "name": "0bb5c492e0b04a1e297488ecbf255bd5", "fusion_lon": 0.0, "bike_id": "0bb5c492e0b04a1e297488ecbf255bd5", "is_disabled": 0, "is_reserved": 0}, {"rental_uris": {"ios": "https://dc.lft.to/lastmile_qr_scan", "android": "https://dc.lft.to/lastmile_qr_scan"}, "lon": -77.02784683333333, "type": "electric_scooter", "fusion_lat": 0.0, "lat": 38.923754, "name": "159145739cd40bc1b0028ad297139f4b", "fusion_lon": 0.0, "bike_id": "159145739cd40bc1b0028ad297139f4b", "is_disabled": 0, "is_reserved": 0}, {"rental_uris": {"ios": "https://dc.lft.to/lastmile_qr_scan", "android": "https://dc.lft.to/lastmile_qr_scan"}, "lon": -77.04186783333333, "type": "electric_scooter", "fusion_lat": 0.0, "lat": 38.90344966666667, "name": "41945ffca6ecd1bec0acfa94b3550a9c", "fusion_lon": 0.0, "bike_id": "41945ffca6ecd1bec0acfa94b3550a9c", "is_disabled": 0, "is_reserved": 0}, {"rental_uris": {"ios": "https://dc.lft.to/lastmile_qr_scan", "android": "https://dc.lft.to/lastmile_qr_scan"}, "lon": -77.04716633333334, "type": "electric_scooter", "fusion_lat": 0.0, "lat": 38.9097975, "name": "ab836d927e05f4758625cd2c4faf85fc", "fusion_lon": 0.0, "bike_id": "ab836d927e05f4758625cd2c4faf85fc", "is_disabled": 0, "is_reserved": 0}, {"rental_uris": {"ios": "https://dc.lft.to/lastmile_qr_scan", "android": "https://dc.lft.to/lastmile_qr_scan"}, "lon": -77.03322783333333, "type": "electric_scooter", "fusion_lat": 0.0, "lat": 38.901615166666666, "name": "eb2399cd7c77a0e3fe1b3f4d85bcbbb2", "fusion_lon": 0.0, "bike_id": "eb2399cd7c77a0e3fe1b3f4d85bcbbb2", "is_disabled": 0, "is_reserved": 0}, {"rental_uris": {"ios": "https://dc.lft.to/lastmile_qr_scan", "android": "https://dc.lft.to/lastmile_qr_scan"}, "lon": -77.02805966666666, "type": "electric_scooter", "fusion_lat": 0.0, "lat": 38.930805166666666, "name": "03dfef02659f85f90c4e8f356ff554af", "fusion_lon": 0.0, "bike_id": "03dfef02659f85f90c4e8f356ff554af", "is_disabled": 0, "is_reserved": 0}, {"rental_uris": {"ios": "https://dc.lft.to/lastmile_qr_scan", "android": "https://dc.lft.to/lastmile_qr_scan"}, "lon": -77.02146866666666, "type": "electric_scooter", "fusion_lat": 0.0, "lat": 38.92816883333333, "name": "6ff3f7db907584bdf5e99be79b1f0fb9", "fusion_lon": 0.0, "bike_id": "6ff3f7db907584bdf5e99be79b1f0fb9", "is_disabled": 0, "is_reserved": 0}, {"rental_uris": {"ios": "https://dc.lft.to/lastmile_qr_scan", "android": "https://dc.lft.to/lastmile_qr_scan"}, "lon": -77.06349616666667, "type": "electric_scooter", "fusion_lat": 0.0, "lat": 38.9444675, "name": "c80d0781a66ea0b189b1de66e06d6f88", "fusion_lon": 0.0, "bike_id": "c80d0781a66ea0b189b1de66e06d6f88", "is_disabled": 0, "is_reserved": 0}, {"rental_uris": {"ios": "https://dc.lft.to/lastmile_qr_scan", "android": "https://dc.lft.to/lastmile_qr_scan"}, "lon": -76.94720566666666, "type": "electric_scooter", "fusion_lat": 0.0, "lat": 38.89672083333333, "name": "3d45f5bfb786ce65ac08847ec09c5d29", "fusion_lon": 0.0, "bike_id": "3d45f5bfb786ce65ac08847ec09c5d29", "is_disabled": 0, "is_reserved": 0}, {"rental_uris": {"ios": "https://dc.lft.to/lastmile_qr_scan", "android": "https://dc.lft.to/lastmile_qr_scan"}, "lon": -77.02479266666667, "type": "electric_scooter", "fusion_lat": 0.0, "lat": 38.89740366666667, "name": "52dbf26312171c83c7cc492b0dbe1df9", "fusion_lon": 0.0, "bike_id": "52dbf26312171c83c7cc492b0dbe1df9", "is_disabled": 0, "is_reserved": 0}, {"rental_uris": {"ios": "https://dc.lft.to/lastmile_qr_scan", "android": "https://dc.lft.to/lastmile_qr_scan"}, "lon": -76.99842783333334, "type": "electric_scooter", "fusion_lat": 0.0, "lat": 38.90038166666667, "name": "c22a32a22d19dfea6d3ce5babec1aea1", "fusion_lon": 0.0, "bike_id": "c22a32a22d19dfea6d3ce5babec1aea1", "is_disabled": 0, "is_reserved": 0}, {"rental_uris": {"ios": "https://dc.lft.to/lastmile_qr_scan", "android": "https://dc.lft.to/lastmile_qr_scan"}, "lon": -77.03845333333334, "type": "electric_scooter", "fusion_lat": 0.0, "lat": 38.903619666666664, "name": "d4f2edc196759172a85649e50e07728f", "fusion_lon": 0.0, "bike_id": "d4f2edc196759172a85649e50e07728f", "is_disabled": 0, "is_reserved": 0}, {"rental_uris": {"ios": "https://dc.lft.to/lastmile_qr_scan", "android": "https://dc.lft.to/lastmile_qr_scan"}, "lon": -76.9885255, "type": "electric_scooter", "fusion_lat": 0.0, "lat": 38.9034325, "name": "88159ebe26f150b85acbdc828ba2ec19", "fusion_lon": 0.0, "bike_id": "88159ebe26f150b85acbdc828ba2ec19", "is_disabled": 0, "is_reserved": 0}, {"rental_uris": {"ios": "https://dc.lft.to/lastmile_qr_scan", "android": "https://dc.lft.to/lastmile_qr_scan"}, "lon": -77.03656933333333, "type": "electric_scooter", "fusion_lat": 0.0, "lat": 38.930805166666666, "name": "31b460cc5047e6e9de469c0cab03c0c7", "fusion_lon": 0.0, "bike_id": "31b460cc5047e6e9de469c0cab03c0c7", "is_disabled": 0, "is_reserved": 0}, {"rental_uris": {"ios": "https://dc.lft.to/lastmile_qr_scan", "android": "https://dc.lft.to/lastmile_qr_scan"}, "lon": -77.02486066666667, "type": "electric_scooter", "fusion_lat": 0.0, "lat": 38.90410683333333, "name": "63c24dc7ba88587102de38060e1844fe", "fusion_lon": 0.0, "bike_id": "63c24dc7ba88587102de38060e1844fe", "is_disabled": 0, "is_reserved": 0}, {"rental_uris": {"ios": "https://dc.lft.to/lastmile_qr_scan", "android": "https://dc.lft.to/lastmile_qr_scan"}, "lon": -77.044974, "type": "electric_scooter", "fusion_lat": 0.0, "lat": 38.91929983333333, "name": "85d7c96db0ecc90e04908d50f5ebc35b", "fusion_lon": 0.0, "bike_id": "85d7c96db0ecc90e04908d50f5ebc35b", "is_disabled": 0, "is_reserved": 0}, {"rental_uris": {"ios": "https://dc.lft.to/lastmile_qr_scan", "android": "https://dc.lft.to/lastmile_qr_scan"}, "lon": -77.0434995, "type": "electric_scooter", "fusion_lat": 0.0, "lat": 38.903761, "name": "164d6947ac5859a27e874f59c3d1ff81", "fusion_lon": 0.0, "bike_id": "164d6947ac5859a27e874f59c3d1ff81", "is_disabled": 0, "is_reserved": 0}, {"rental_uris": {"ios": "https://dc.lft.to/lastmile_qr_scan", "android": "https://dc.lft.to/lastmile_qr_scan"}, "lon": -77.0746775, "type": "electric_bike", "fusion_lat": 0.0, "lat": 38.9205625, "name": "133dda8536f8f59950f7de9f5c3ab6d3", "fusion_lon": 0.0, "bike_id": "133dda8536f8f59950f7de9f5c3ab6d3", "is_disabled": 0, "is_reserved": 0}, {"rental_uris": {"ios": "https://dc.lft.to/lastmile_qr_scan", "android": "https://dc.lft.to/lastmile_qr_scan"}, "lon": -77.0417915, "type": "electric_scooter", "fusion_lat": 0.0, "lat": 38.91257133333333, "name": "1a0e7cdae4df660594734d86deb72d12", "fusion_lon": 0.0, "bike_id": "1a0e7cdae4df660594734d86deb72d12", "is_disabled": 0, "is_reserved": 0}, {"rental_uris": {"ios": "https://dc.lft.to/lastmile_qr_scan", "android": "https://dc.lft.to/lastmile_qr_scan"}, "lon": -77.01104766666667, "type": "electric_scooter", "fusion_lat": 0.0, "lat": 38.916127, "name": "7d132d358e832fe7593125720682417c", "fusion_lon": 0.0, "bike_id": "7d132d358e832fe7593125720682417c", "is_disabled": 0, "is_reserved": 0}, {"rental_uris": {"ios": "https://dc.lft.to/lastmile_qr_scan", "android": "https://dc.lft.to/lastmile_qr_scan"}, "lon": -77.01619683333334, "type": "electric_scooter", "fusion_lat": 0.0, "lat": 38.876907833333334, "name": "091964992cc507995084fa801f039591", "fusion_lon": 0.0, "bike_id": "091964992cc507995084fa801f039591", "is_disabled": 0, "is_reserved": 0}, {"rental_uris": {"ios": "https://dc.lft.to/lastmile_qr_scan", "android": "https://dc.lft.to/lastmile_qr_scan"}, "lon": -76.91662666666667, "type": "electric_bike", "fusion_lat": 0.0, "lat": 38.86860433333333, "name": "bf2846dca5829f7585fe25b3ed26f512", "fusion_lon": 0.0, "bike_id": "bf2846dca5829f7585fe25b3ed26f512", "is_disabled": 0, "is_reserved": 0}, {"rental_uris": {"ios": "https://dc.lft.to/lastmile_qr_scan", "android": "https://dc.lft.to/lastmile_qr_scan"}, "lon": -77.00210583333333, "type": "electric_scooter", "fusion_lat": 0.0, "lat": 38.90221433333333, "name": "961770d80bc4bb8f3ff0d98929d4da0e", "fusion_lon": 0.0, "bike_id": "961770d80bc4bb8f3ff0d98929d4da0e", "is_disabled": 0, "is_reserved": 0}, {"rental_uris": {"ios": "https://dc.lft.to/lastmile_qr_scan", "android": "https://dc.lft.to/lastmile_qr_scan"}, "lon": -77.1273425, "type": "electric_bike", "fusion_lat": 0.0, "lat": 38.895576, "name": "8b231f721c5b1e7ae01a4d3ff4ec101a", "fusion_lon": 0.0, "bike_id": "8b231f721c5b1e7ae01a4d3ff4ec101a", "is_disabled": 0, "is_reserved": 0}, {"rental_uris": {"ios": "https://dc.lft.to/lastmile_qr_scan", "android": "https://dc.lft.to/lastmile_qr_scan"}, "lon": -77.005839, "type": "electric_scooter", "fusion_lat": 0.0, "lat": 38.87219866666667, "name": "29488a91d38b6abd5d94279de8ab22f2", "fusion_lon": 0.0, "bike_id": "29488a91d38b6abd5d94279de8ab22f2", "is_disabled": 0, "is_reserved": 0}, {"rental_uris": {"ios": "https://dc.lft.to/lastmile_qr_scan", "android": "https://dc.lft.to/lastmile_qr_scan"}, "lon": -77.0218715, "type": "electric_scooter", "fusion_lat": 0.0, "lat": 38.91649366666667, "name": "d8fb3223dd9ccc693b7a11aa608602a0", "fusion_lon": 0.0, "bike_id": "d8fb3223dd9ccc693b7a11aa608602a0", "is_disabled": 0, "is_reserved": 0}, {"rental_uris": {"ios": "https://dc.lft.to/lastmile_qr_scan", "android": "https://dc.lft.to/lastmile_qr_scan"}, "lon": -76.98094183333333, "type": "electric_bike", "fusion_lat": 0.0, "lat": 38.881327666666664, "name": "513af067556db4bfe7842b85be7c4ef9", "fusion_lon": 0.0, "bike_id": "513af067556db4bfe7842b85be7c4ef9", "is_disabled": 0, "is_reserved": 0}, {"rental_uris": {"ios": "https://dc.lft.to/lastmile_qr_scan", "android": "https://dc.lft.to/lastmile_qr_scan"}, "lon": -77.02178733333334, "type": "electric_scooter", "fusion_lat": 0.0, "lat": 38.88033716666666, "name": "c86f1deaf2a1040169f57e7cb08da28b", "fusion_lon": 0.0, "bike_id": "c86f1deaf2a1040169f57e7cb08da28b", "is_disabled": 0, "is_reserved": 0}, {"rental_uris": {"ios": "https://dc.lft.to/lastmile_qr_scan", "android": "https://dc.lft.to/lastmile_qr_scan"}, "lon": -77.047902, "type": "electric_scooter", "fusion_lat": 0.0, "lat": 38.89950433333333, "name": "e7e9fa3a82828ad456fc2c73d975c972", "fusion_lon": 0.0, "bike_id": "e7e9fa3a82828ad456fc2c73d975c972", "is_disabled": 0, "is_reserved": 0}, {"rental_uris": {"ios": "https://dc.lft.to/lastmile_qr_scan", "android": "https://dc.lft.to/lastmile_qr_scan"}, "lon": -77.033593, "type": "electric_scooter", "fusion_lat": 0.0, "lat": 38.93217083333333, "name": "d731a3b119741cfb20f9b54c4ec1e8d1", "fusion_lon": 0.0, "bike_id": "d731a3b119741cfb20f9b54c4ec1e8d1", "is_disabled": 0, "is_reserved": 0}, {"rental_uris": {"ios": "https://dc.lft.to/lastmile_qr_scan", "android": "https://dc.lft.to/lastmile_qr_scan"}, "lon": -77.03662633333333, "type": "electric_scooter", "fusion_lat": 0.0, "lat": 38.91815016666666, "name": "462d07595e134523e60d437aed0d2a24", "fusion_lon": 0.0, "bike_id": "462d07595e134523e60d437aed0d2a24", "is_disabled": 0, "is_reserved": 0}, {"rental_uris": {"ios": "https://dc.lft.to/lastmile_qr_scan", "android": "https://dc.lft.to/lastmile_qr_scan"}, "lon": -77.00602233333333, "type": "electric_scooter", "fusion_lat": 0.0, "lat": 38.8849245, "name": "d5b09724b8b63bf3d581e7fbd9a71c3a", "fusion_lon": 0.0, "bike_id": "d5b09724b8b63bf3d581e7fbd9a71c3a", "is_disabled": 0, "is_reserved": 0}, {"rental_uris": {"ios": "https://dc.lft.to/lastmile_qr_scan", "android": "https://dc.lft.to/lastmile_qr_scan"}, "lon": -77.03751666666666, "type": "electric_scooter", "fusion_lat": 0.0, "lat": 38.90741633333333, "name": "91c1ee350e95fdc6272753f2e7aef61f", "fusion_lon": 0.0, "bike_id": "91c1ee350e95fdc6272753f2e7aef61f", "is_disabled": 0, "is_reserved": 0}, {"rental_uris": {"ios": "https://dc.lft.to/lastmile_qr_scan", "android": "https://dc.lft.to/lastmile_qr_scan"}, "lon": -77.0383945, "type": "electric_scooter", "fusion_lat": 0.0, "lat": 38.907505666666665, "name": "52f581aa7a8c3615ea3e0a6b11263225", "fusion_lon": 0.0, "bike_id": "52f581aa7a8c3615ea3e0a6b11263225", "is_disabled": 0, "is_reserved": 0}, {"rental_uris": {"ios": "https://dc.lft.to/lastmile_qr_scan", "android": "https://dc.lft.to/lastmile_qr_scan"}, "lon": -77.02779766666667, "type": "electric_scooter", "fusion_lat": 0.0, "lat": 38.953809666666665, "name": "4ae13a2caee5a1b788ab080978149f3f", "fusion_lon": 0.0, "bike_id": "4ae13a2caee5a1b788ab080978149f3f", "is_disabled": 0, "is_reserved": 0}, {"rental_uris": {"ios": "https://dc.lft.to/lastmile_qr_scan", "android": "https://dc.lft.to/lastmile_qr_scan"}, "lon": -77.025451, "type": "electric_scooter", "fusion_lat": 0.0, "lat": 38.924049833333335, "name": "8f300a36b044d872461f55b606afe7b0", "fusion_lon": 0.0, "bike_id": "8f300a36b044d872461f55b606afe7b0", "is_disabled": 0, "is_reserved": 0}, {"rental_uris": {"ios": "https://dc.lft.to/lastmile_qr_scan", "android": "https://dc.lft.to/lastmile_qr_scan"}, "lon": -77.07722033333333, "type": "electric_scooter", "fusion_lat": 0.0, "lat": 38.94702433333333, "name": "63f83b9e5da096c747a59e7ccb0d599f", "fusion_lon": 0.0, "bike_id": "63f83b9e5da096c747a59e7ccb0d599f", "is_disabled": 0, "is_reserved": 0}, {"rental_uris": {"ios": "https://dc.lft.to/lastmile_qr_scan", "android": "https://dc.lft.to/lastmile_qr_scan"}, "lon": -76.97305883333334, "type": "electric_scooter", "fusion_lat": 0.0, "lat": 38.91987683333333, "name": "75e2545ab455d46cca5a9002559f2391", "fusion_lon": 0.0, "bike_id": "75e2545ab455d46cca5a9002559f2391", "is_disabled": 0, "is_reserved": 0}, {"rental_uris": {"ios": "https://dc.lft.to/lastmile_qr_scan", "android": "https://dc.lft.to/lastmile_qr_scan"}, "lon": -77.07100233333334, "type": "electric_bike", "fusion_lat": 0.0, "lat": 38.91448533333333, "name": "d4d1e3974a78c13ef16ae29090378674", "fusion_lon": 0.0, "bike_id": "d4d1e3974a78c13ef16ae29090378674", "is_disabled": 0, "is_reserved": 0}, {"rental_uris": {"ios": "https://dc.lft.to/lastmile_qr_scan", "android": "https://dc.lft.to/lastmile_qr_scan"}, "lon": -77.03466116666667, "type": "electric_scooter", "fusion_lat": 0.0, "lat": 38.9235095, "name": "246807aa05ebc814875078472a78ebe9", "fusion_lon": 0.0, "bike_id": "246807aa05ebc814875078472a78ebe9", "is_disabled": 0, "is_reserved": 0}, {"rental_uris": {"ios": "https://dc.lft.to/lastmile_qr_scan", "android": "https://dc.lft.to/lastmile_qr_scan"}, "lon": -76.931599, "type": "electric_scooter", "fusion_lat": 0.0, "lat": 38.898777, "name": "2365e0b5aa6a22b23dc5ed162fe2093e", "fusion_lon": 0.0, "bike_id": "2365e0b5aa6a22b23dc5ed162fe2093e", "is_disabled": 0, "is_reserved": 0}, {"rental_uris": {"ios": "https://dc.lft.to/lastmile_qr_scan", "android": "https://dc.lft.to/lastmile_qr_scan"}, "lon": -77.0118355, "type": "electric_scooter", "fusion_lat": 0.0, "lat": 38.9002825, "name": "0c9fc12b3d53370640d06987da8c7dd7", "fusion_lon": 0.0, "bike_id": "0c9fc12b3d53370640d06987da8c7dd7", "is_disabled": 0, "is_reserved": 0}, {"rental_uris": {"ios": "https://dc.lft.to/lastmile_qr_scan", "android": "https://dc.lft.to/lastmile_qr_scan"}, "lon": -77.0470615, "type": "electric_scooter", "fusion_lat": 0.0, "lat": 38.9085255, "name": "feaee48ac2984afed12c52f4c7ac1410", "fusion_lon": 0.0, "bike_id": "feaee48ac2984afed12c52f4c7ac1410", "is_disabled": 0, "is_reserved": 0}, {"rental_uris": {"ios": "https://dc.lft.to/lastmile_qr_scan", "android": "https://dc.lft.to/lastmile_qr_scan"}, "lon": -77.03224783333333, "type": "electric_scooter", "fusion_lat": 0.0, "lat": 38.9130195, "name": "e085829a233e22e4c4a0f21c8636864c", "fusion_lon": 0.0, "bike_id": "e085829a233e22e4c4a0f21c8636864c", "is_disabled": 0, "is_reserved": 0}, {"rental_uris": {"ios": "https://dc.lft.to/lastmile_qr_scan", "android": "https://dc.lft.to/lastmile_qr_scan"}, "lon": -77.02531, "type": "electric_scooter", "fusion_lat": 0.0, "lat": 38.932864, "name": "9ee92151f024772e5ba3cb45c67f7304", "fusion_lon": 0.0, "bike_id": "9ee92151f024772e5ba3cb45c67f7304", "is_disabled": 0, "is_reserved": 0}, {"rental_uris": {"ios": "https://dc.lft.to/lastmile_qr_scan", "android": "https://dc.lft.to/lastmile_qr_scan"}, "lon": -77.0348795, "type": "electric_scooter", "fusion_lat": 0.0, "lat": 38.91921216666667, "name": "5b5a200726b2d8f821c23ca5a8e3e3c9", "fusion_lon": 0.0, "bike_id": "5b5a200726b2d8f821c23ca5a8e3e3c9", "is_disabled": 0, "is_reserved": 0}, {"rental_uris": {"ios": "https://dc.lft.to/lastmile_qr_scan", "android": "https://dc.lft.to/lastmile_qr_scan"}, "lon": -76.98165616666667, "type": "electric_scooter", "fusion_lat": 0.0, "lat": 38.899848666666664, "name": "f1b50ea1ed7bbc6c3a183e9b6764d590", "fusion_lon": 0.0, "bike_id": "f1b50ea1ed7bbc6c3a183e9b6764d590", "is_disabled": 0, "is_reserved": 0}, {"rental_uris": {"ios": "https://dc.lft.to/lastmile_qr_scan", "android": "https://dc.lft.to/lastmile_qr_scan"}, "lon": -77.00197133333333, "type": "electric_scooter", "fusion_lat": 0.0, "lat": 38.900287, "name": "43354a70692bd58a09efd2bc5bc341e9", "fusion_lon": 0.0, "bike_id": "43354a70692bd58a09efd2bc5bc341e9", "is_disabled": 0, "is_reserved": 0}, {"rental_uris": {"ios": "https://dc.lft.to/lastmile_qr_scan", "android": "https://dc.lft.to/lastmile_qr_scan"}, "lon": -76.97557733333333, "type": "electric_bike", "fusion_lat": 0.0, "lat": 38.872650666666665, "name": "db58bf57049926722f4a06d7c01eba9a", "fusion_lon": 0.0, "bike_id": "db58bf57049926722f4a06d7c01eba9a", "is_disabled": 0, "is_reserved": 0}, {"rental_uris": {"ios": "https://dc.lft.to/lastmile_qr_scan", "android": "https://dc.lft.to/lastmile_qr_scan"}, "lon": -76.99481383333334, "type": "electric_scooter", "fusion_lat": 0.0, "lat": 38.895555333333334, "name": "9306ce7384580ef6e432d5edeeefbaf3", "fusion_lon": 0.0, "bike_id": "9306ce7384580ef6e432d5edeeefbaf3", "is_disabled": 0, "is_reserved": 0}, {"rental_uris": {"ios": "https://dc.lft.to/lastmile_qr_scan", "android": "https://dc.lft.to/lastmile_qr_scan"}, "lon": -77.03351033333334, "type": "electric_scooter", "fusion_lat": 0.0, "lat": 38.88508433333333, "name": "3ea29917981d1e6184b2957ea991c817", "fusion_lon": 0.0, "bike_id": "3ea29917981d1e6184b2957ea991c817", "is_disabled": 0, "is_reserved": 0}, {"rental_uris": {"ios": "https://dc.lft.to/lastmile_qr_scan", "android": "https://dc.lft.to/lastmile_qr_scan"}, "lon": -76.99265466666667, "type": "electric_scooter", "fusion_lat": 0.0, "lat": 38.89685983333333, "name": "117ce15cf8508e41295ddf9b2ccaa148", "fusion_lon": 0.0, "bike_id": "117ce15cf8508e41295ddf9b2ccaa148", "is_disabled": 0, "is_reserved": 0}, {"rental_uris": {"ios": "https://dc.lft.to/lastmile_qr_scan", "android": "https://dc.lft.to/lastmile_qr_scan"}, "lon": -77.03194633333334, "type": "electric_scooter", "fusion_lat": 0.0, "lat": 38.911465666666665, "name": "999403fec4504b26bb872617d6cfa914", "fusion_lon": 0.0, "bike_id": "999403fec4504b26bb872617d6cfa914", "is_disabled": 0, "is_reserved": 0}, {"rental_uris": {"ios": "https://dc.lft.to/lastmile_qr_scan", "android": "https://dc.lft.to/lastmile_qr_scan"}, "lon": -77.023319, "type": "electric_scooter", "fusion_lat": 0.0, "lat": 38.9289105, "name": "4ffe0334af9077bea989711c30f40a42", "fusion_lon": 0.0, "bike_id": "4ffe0334af9077bea989711c30f40a42", "is_disabled": 0, "is_reserved": 0}, {"rental_uris": {"ios": "https://dc.lft.to/lastmile_qr_scan", "android": "https://dc.lft.to/lastmile_qr_scan"}, "lon": -77.06531783333334, "type": "electric_scooter", "fusion_lat": 0.0, "lat": 38.91126333333333, "name": "ae9b72c7306646d1126a41d77801f94a", "fusion_lon": 0.0, "bike_id": "ae9b72c7306646d1126a41d77801f94a", "is_disabled": 0, "is_reserved": 0}, {"rental_uris": {"ios": "https://dc.lft.to/lastmile_qr_scan", "android": "https://dc.lft.to/lastmile_qr_scan"}, "lon": -77.03702433333333, "type": "electric_bike", "fusion_lat": 0.0, "lat": 38.935608, "name": "1582eaca87d5b039b3c9ada85a7d6644", "fusion_lon": 0.0, "bike_id": "1582eaca87d5b039b3c9ada85a7d6644", "is_disabled": 0, "is_reserved": 0}, {"rental_uris": {"ios": "https://dc.lft.to/lastmile_qr_scan", "android": "https://dc.lft.to/lastmile_qr_scan"}, "lon": -77.04452233333333, "type": "electric_scooter", "fusion_lat": 0.0, "lat": 38.905528833333335, "name": "91220976f49cbb7180dbac5239c678f1", "fusion_lon": 0.0, "bike_id": "91220976f49cbb7180dbac5239c678f1", "is_disabled": 0, "is_reserved": 0}, {"rental_uris": {"ios": "https://dc.lft.to/lastmile_qr_scan", "android": "https://dc.lft.to/lastmile_qr_scan"}, "lon": -77.0150595, "type": "electric_scooter", "fusion_lat": 0.0, "lat": 38.90720116666667, "name": "d841a676c837b9b1d475e2cf2407716c", "fusion_lon": 0.0, "bike_id": "d841a676c837b9b1d475e2cf2407716c", "is_disabled": 0, "is_reserved": 0}, {"rental_uris": {"ios": "https://dc.lft.to/lastmile_qr_scan", "android": "https://dc.lft.to/lastmile_qr_scan"}, "lon": -77.02834933333334, "type": "electric_scooter", "fusion_lat": 0.0, "lat": 38.91255533333333, "name": "a3732cf6f135d98ac2f875ec127f7f89", "fusion_lon": 0.0, "bike_id": "a3732cf6f135d98ac2f875ec127f7f89", "is_disabled": 0, "is_reserved": 0}, {"rental_uris": {"ios": "https://dc.lft.to/lastmile_qr_scan", "android": "https://dc.lft.to/lastmile_qr_scan"}, "lon": -76.995152, "type": "electric_scooter", "fusion_lat": 0.0, "lat": 38.8948315, "name": "8e80970dcc5085c3b95f0116e57cfbdd", "fusion_lon": 0.0, "bike_id": "8e80970dcc5085c3b95f0116e57cfbdd", "is_disabled": 0, "is_reserved": 0}, {"rental_uris": {"ios": "https://dc.lft.to/lastmile_qr_scan", "android": "https://dc.lft.to/lastmile_qr_scan"}, "lon": -77.03654066666667, "type": "electric_scooter", "fusion_lat": 0.0, "lat": 38.907936166666666, "name": "ab37fdfc175a6158cd74ea2f4c6193b2", "fusion_lon": 0.0, "bike_id": "ab37fdfc175a6158cd74ea2f4c6193b2", "is_disabled": 0, "is_reserved": 0}, {"rental_uris": {"ios": "https://dc.lft.to/lastmile_qr_scan", "android": "https://dc.lft.to/lastmile_qr_scan"}, "lon": -76.9484045, "type": "electric_scooter", "fusion_lat": 0.0, "lat": 38.8948105, "name": "6b05d2c958a8a8f1586337f4b083d8c2", "fusion_lon": 0.0, "bike_id": "6b05d2c958a8a8f1586337f4b083d8c2", "is_disabled": 0, "is_reserved": 0}, {"rental_uris": {"ios": "https://dc.lft.to/lastmile_qr_scan", "android": "https://dc.lft.to/lastmile_qr_scan"}, "lon": -76.93172566666667, "type": "electric_scooter", "fusion_lat": 0.0, "lat": 38.898829166666665, "name": "4fc53658319267126273095cfd935920", "fusion_lon": 0.0, "bike_id": "4fc53658319267126273095cfd935920", "is_disabled": 0, "is_reserved": 0}, {"rental_uris": {"ios": "https://dc.lft.to/lastmile_qr_scan", "android": "https://dc.lft.to/lastmile_qr_scan"}, "lon": -76.9485325, "type": "electric_scooter", "fusion_lat": 0.0, "lat": 38.882987, "name": "dceebe0555ff00c6b4261e0e6b78bb64", "fusion_lon": 0.0, "bike_id": "dceebe0555ff00c6b4261e0e6b78bb64", "is_disabled": 0, "is_reserved": 0}, {"rental_uris": {"ios": "https://dc.lft.to/lastmile_qr_scan", "android": "https://dc.lft.to/lastmile_qr_scan"}, "lon": -77.107214, "type": "electric_bike", "fusion_lat": 0.0, "lat": 38.855281, "name": "538a50218eebcd83a79be92a9692c1c3", "fusion_lon": 0.0, "bike_id": "538a50218eebcd83a79be92a9692c1c3", "is_disabled": 0, "is_reserved": 0}, {"rental_uris": {"ios": "https://dc.lft.to/lastmile_qr_scan", "android": "https://dc.lft.to/lastmile_qr_scan"}, "lon": -77.04535533333333, "type": "electric_scooter", "fusion_lat": 0.0, "lat": 38.8947695, "name": "dfe8d4c17408503cd961c480f206cef0", "fusion_lon": 0.0, "bike_id": "dfe8d4c17408503cd961c480f206cef0", "is_disabled": 0, "is_reserved": 0}, {"rental_uris": {"ios": "https://dc.lft.to/lastmile_qr_scan", "android": "https://dc.lft.to/lastmile_qr_scan"}, "lon": -77.0271325, "type": "electric_scooter", "fusion_lat": 0.0, "lat": 38.9094255, "name": "6db3d9da4e455369c4486be186ba2a18", "fusion_lon": 0.0, "bike_id": "6db3d9da4e455369c4486be186ba2a18", "is_disabled": 0, "is_reserved": 0}, {"rental_uris": {"ios": "https://dc.lft.to/lastmile_qr_scan", "android": "https://dc.lft.to/lastmile_qr_scan"}, "lon": -76.98346599999999, "type": "electric_scooter", "fusion_lat": 0.0, "lat": 38.91536166666667, "name": "4c6ae61d601cc02a92ab95ce4dc331ed", "fusion_lon": 0.0, "bike_id": "4c6ae61d601cc02a92ab95ce4dc331ed", "is_disabled": 0, "is_reserved": 0}, {"rental_uris": {"ios": "https://dc.lft.to/lastmile_qr_scan", "android": "https://dc.lft.to/lastmile_qr_scan"}, "lon": -77.05516533333333, "type": "electric_scooter", "fusion_lat": 0.0, "lat": 38.90009366666666, "name": "9f1aa553e1f0ec087296970d7203feef", "fusion_lon": 0.0, "bike_id": "9f1aa553e1f0ec087296970d7203feef", "is_disabled": 0, "is_reserved": 0}, {"rental_uris": {"ios": "https://dc.lft.to/lastmile_qr_scan", "android": "https://dc.lft.to/lastmile_qr_scan"}, "lon": -77.0270905, "type": "electric_scooter", "fusion_lat": 0.0, "lat": 38.9066875, "name": "21b06a2482ad155a8924eea3dae37814", "fusion_lon": 0.0, "bike_id": "21b06a2482ad155a8924eea3dae37814", "is_disabled": 0, "is_reserved": 0}, {"rental_uris": {"ios": "https://dc.lft.to/lastmile_qr_scan", "android": "https://dc.lft.to/lastmile_qr_scan"}, "lon": -77.03198666666667, "type": "electric_scooter", "fusion_lat": 0.0, "lat": 38.89825116666667, "name": "dab753d6291b0fc455f2bd1e69d32757", "fusion_lon": 0.0, "bike_id": "dab753d6291b0fc455f2bd1e69d32757", "is_disabled": 0, "is_reserved": 0}, {"rental_uris": {"ios": "https://dc.lft.to/lastmile_qr_scan", "android": "https://dc.lft.to/lastmile_qr_scan"}, "lon": -77.073109, "type": "electric_scooter", "fusion_lat": 0.0, "lat": 38.93611933333333, "name": "bb9ad64f87418fb3d3b715c62467bd5a", "fusion_lon": 0.0, "bike_id": "bb9ad64f87418fb3d3b715c62467bd5a", "is_disabled": 0, "is_reserved": 0}, {"rental_uris": {"ios": "https://dc.lft.to/lastmile_qr_scan", "android": "https://dc.lft.to/lastmile_qr_scan"}, "lon": -76.95470883333333, "type": "electric_bike", "fusion_lat": 0.0, "lat": 38.886374333333336, "name": "24ad9e3fd30f123eed9c79b3e3b19b8e", "fusion_lon": 0.0, "bike_id": "24ad9e3fd30f123eed9c79b3e3b19b8e", "is_disabled": 0, "is_reserved": 0}, {"rental_uris": {"ios": "https://dc.lft.to/lastmile_qr_scan", "android": "https://dc.lft.to/lastmile_qr_scan"}, "lon": -77.02656983333334, "type": "electric_scooter", "fusion_lat": 0.0, "lat": 38.88109683333333, "name": "a5b3f2d75dd55e0079b2038a6ed544c6", "fusion_lon": 0.0, "bike_id": "a5b3f2d75dd55e0079b2038a6ed544c6", "is_disabled": 0, "is_reserved": 0}, {"rental_uris": {"ios": "https://dc.lft.to/lastmile_qr_scan", "android": "https://dc.lft.to/lastmile_qr_scan"}, "lon": -77.02663866666667, "type": "electric_scooter", "fusion_lat": 0.0, "lat": 38.928825833333335, "name": "ecb68cd6158b3a8034d09c979d1b41c9", "fusion_lon": 0.0, "bike_id": "ecb68cd6158b3a8034d09c979d1b41c9", "is_disabled": 0, "is_reserved": 0}, {"rental_uris": {"ios": "https://dc.lft.to/lastmile_qr_scan", "android": "https://dc.lft.to/lastmile_qr_scan"}, "lon": -77.006722, "type": "electric_scooter", "fusion_lat": 0.0, "lat": 38.87641383333333, "name": "53fcdd206c52febdc8503eb0230cb39c", "fusion_lon": 0.0, "bike_id": "53fcdd206c52febdc8503eb0230cb39c", "is_disabled": 0, "is_reserved": 0}, {"rental_uris": {"ios": "https://dc.lft.to/lastmile_qr_scan", "android": "https://dc.lft.to/lastmile_qr_scan"}, "lon": -77.03581866666667, "type": "electric_scooter", "fusion_lat": 0.0, "lat": 38.917603166666666, "name": "6533a4ec009a9d90092c899a0a1091b8", "fusion_lon": 0.0, "bike_id": "6533a4ec009a9d90092c899a0a1091b8", "is_disabled": 0, "is_reserved": 0}, {"rental_uris": {"ios": "https://dc.lft.to/lastmile_qr_scan", "android": "https://dc.lft.to/lastmile_qr_scan"}, "lon": -76.99063333333334, "type": "electric_scooter", "fusion_lat": 0.0, "lat": 38.86353833333333, "name": "02c8e6ac08a2177367b892a233e8e358", "fusion_lon": 0.0, "bike_id": "02c8e6ac08a2177367b892a233e8e358", "is_disabled": 0, "is_reserved": 0}, {"rental_uris": {"ios": "https://dc.lft.to/lastmile_qr_scan", "android": "https://dc.lft.to/lastmile_qr_scan"}, "lon": -77.03652033333333, "type": "electric_scooter", "fusion_lat": 0.0, "lat": 38.91308883333333, "name": "c2a5993a239251d973fb2f277ba3bde3", "fusion_lon": 0.0, "bike_id": "c2a5993a239251d973fb2f277ba3bde3", "is_disabled": 0, "is_reserved": 0}, {"rental_uris": {"ios": "https://dc.lft.to/lastmile_qr_scan", "android": "https://dc.lft.to/lastmile_qr_scan"}, "lon": -77.03219983333334, "type": "electric_scooter", "fusion_lat": 0.0, "lat": 38.90035366666667, "name": "a66db2a730549b5378ce5f6f89570598", "fusion_lon": 0.0, "bike_id": "a66db2a730549b5378ce5f6f89570598", "is_disabled": 0, "is_reserved": 0}, {"rental_uris": {"ios": "https://dc.lft.to/lastmile_qr_scan", "android": "https://dc.lft.to/lastmile_qr_scan"}, "lon": -77.03303016666666, "type": "electric_scooter", "fusion_lat": 0.0, "lat": 38.90911766666667, "name": "ae32251761316b116bfc128f1063c588", "fusion_lon": 0.0, "bike_id": "ae32251761316b116bfc128f1063c588", "is_disabled": 0, "is_reserved": 0}, {"rental_uris": {"ios": "https://dc.lft.to/lastmile_qr_scan", "android": "https://dc.lft.to/lastmile_qr_scan"}, "lon": -77.0138075, "type": "electric_scooter", "fusion_lat": 0.0, "lat": 38.875882, "name": "4eaf90420996b5ad1f6a27fa4dcde040", "fusion_lon": 0.0, "bike_id": "4eaf90420996b5ad1f6a27fa4dcde040", "is_disabled": 0, "is_reserved": 0}, {"rental_uris": {"ios": "https://dc.lft.to/lastmile_qr_scan", "android": "https://dc.lft.to/lastmile_qr_scan"}, "lon": -77.0749825, "type": "electric_bike", "fusion_lat": 0.0, "lat": 38.892933, "name": "d0ed5bf72666758e5488836d6da6ba0a", "fusion_lon": 0.0, "bike_id": "d0ed5bf72666758e5488836d6da6ba0a", "is_disabled": 0, "is_reserved": 0}, {"rental_uris": {"ios": "https://dc.lft.to/lastmile_qr_scan", "android": "https://dc.lft.to/lastmile_qr_scan"}, "lon": -77.03080783333333, "type": "electric_scooter", "fusion_lat": 0.0, "lat": 38.89972866666667, "name": "5b83e9bb42bab6fd5f4fdf825923e6a8", "fusion_lon": 0.0, "bike_id": "5b83e9bb42bab6fd5f4fdf825923e6a8", "is_disabled": 0, "is_reserved": 0}, {"rental_uris": {"ios": "https://dc.lft.to/lastmile_qr_scan", "android": "https://dc.lft.to/lastmile_qr_scan"}, "lon": -77.0289625, "type": "electric_scooter", "fusion_lat": 0.0, "lat": 38.917009666666665, "name": "1f6171fc8bb6ed4b7546fbcc546d0230", "fusion_lon": 0.0, "bike_id": "1f6171fc8bb6ed4b7546fbcc546d0230", "is_disabled": 0, "is_reserved": 0}, {"rental_uris": {"ios": "https://dc.lft.to/lastmile_qr_scan", "android": "https://dc.lft.to/lastmile_qr_scan"}, "lon": -77.07928183333334, "type": "electric_scooter", "fusion_lat": 0.0, "lat": 38.94875866666667, "name": "8077043a3b7e62f8bbc020a70ff2ad6c", "fusion_lon": 0.0, "bike_id": "8077043a3b7e62f8bbc020a70ff2ad6c", "is_disabled": 0, "is_reserved": 0}, {"rental_uris": {"ios": "https://dc.lft.to/lastmile_qr_scan", "android": "https://dc.lft.to/lastmile_qr_scan"}, "lon": -77.01899016666667, "type": "electric_scooter", "fusion_lat": 0.0, "lat": 38.905643833333336, "name": "2149e202eb6ecb218dc4d745064bbed4", "fusion_lon": 0.0, "bike_id": "2149e202eb6ecb218dc4d745064bbed4", "is_disabled": 0, "is_reserved": 0}, {"rental_uris": {"ios": "https://dc.lft.to/lastmile_qr_scan", "android": "https://dc.lft.to/lastmile_qr_scan"}, "lon": -77.03966733333333, "type": "electric_scooter", "fusion_lat": 0.0, "lat": 38.919921333333335, "name": "23aa5603c6c0a80ed4b6dfd78972d685", "fusion_lon": 0.0, "bike_id": "23aa5603c6c0a80ed4b6dfd78972d685", "is_disabled": 0, "is_reserved": 0}, {"rental_uris": {"ios": "https://dc.lft.to/lastmile_qr_scan", "android": "https://dc.lft.to/lastmile_qr_scan"}, "lon": -77.00717483333334, "type": "electric_scooter", "fusion_lat": 0.0, "lat": 38.91338416666667, "name": "ec469a77596e05f361e1448fe6bd8d5b", "fusion_lon": 0.0, "bike_id": "ec469a77596e05f361e1448fe6bd8d5b", "is_disabled": 0, "is_reserved": 0}, {"rental_uris": {"ios": "https://dc.lft.to/lastmile_qr_scan", "android": "https://dc.lft.to/lastmile_qr_scan"}, "lon": -77.0527115, "type": "electric_scooter", "fusion_lat": 0.0, "lat": 38.9100875, "name": "8e023ee0772783d81d175aab1becfb13", "fusion_lon": 0.0, "bike_id": "8e023ee0772783d81d175aab1becfb13", "is_disabled": 0, "is_reserved": 0}, {"rental_uris": {"ios": "https://dc.lft.to/lastmile_qr_scan", "android": "https://dc.lft.to/lastmile_qr_scan"}, "lon": -77.02619366666667, "type": "electric_scooter", "fusion_lat": 0.0, "lat": 38.9191575, "name": "d806c7f891e08a81744af37ddc02df39", "fusion_lon": 0.0, "bike_id": "d806c7f891e08a81744af37ddc02df39", "is_disabled": 0, "is_reserved": 0}, {"rental_uris": {"ios": "https://dc.lft.to/lastmile_qr_scan", "android": "https://dc.lft.to/lastmile_qr_scan"}, "lon": -77.00228033333333, "type": "electric_scooter", "fusion_lat": 0.0, "lat": 38.908255833333335, "name": "532b87e40032bc4fcbbcc1076e1930f6", "fusion_lon": 0.0, "bike_id": "532b87e40032bc4fcbbcc1076e1930f6", "is_disabled": 0, "is_reserved": 0}, {"rental_uris": {"ios": "https://dc.lft.to/lastmile_qr_scan", "android": "https://dc.lft.to/lastmile_qr_scan"}, "lon": -77.04932933333333, "type": "electric_scooter", "fusion_lat": 0.0, "lat": 38.90061133333333, "name": "053f6808f34e5abb0e095b01634d849c", "fusion_lon": 0.0, "bike_id": "053f6808f34e5abb0e095b01634d849c", "is_disabled": 0, "is_reserved": 0}, {"rental_uris": {"ios": "https://dc.lft.to/lastmile_qr_scan", "android": "https://dc.lft.to/lastmile_qr_scan"}, "lon": -76.93000533333333, "type": "electric_bike", "fusion_lat": 0.0, "lat": 38.888018333333335, "name": "27285b96436b6cdd4c97fc8ff516ba37", "fusion_lon": 0.0, "bike_id": "27285b96436b6cdd4c97fc8ff516ba37", "is_disabled": 0, "is_reserved": 0}, {"rental_uris": {"ios": "https://dc.lft.to/lastmile_qr_scan", "android": "https://dc.lft.to/lastmile_qr_scan"}, "lon": -77.01598933333334, "type": "electric_scooter", "fusion_lat": 0.0, "lat": 38.896201166666664, "name": "b1c357f34e6b53df754339184fd74d4b", "fusion_lon": 0.0, "bike_id": "b1c357f34e6b53df754339184fd74d4b", "is_disabled": 0, "is_reserved": 0}, {"rental_uris": {"ios": "https://dc.lft.to/lastmile_qr_scan", "android": "https://dc.lft.to/lastmile_qr_scan"}, "lon": -76.9902305, "type": "electric_scooter", "fusion_lat": 0.0, "lat": 38.864024, "name": "20247ac8f9b3fed23c1f93ed9a828ade", "fusion_lon": 0.0, "bike_id": "20247ac8f9b3fed23c1f93ed9a828ade", "is_disabled": 0, "is_reserved": 0}, {"rental_uris": {"ios": "https://dc.lft.to/lastmile_qr_scan", "android": "https://dc.lft.to/lastmile_qr_scan"}, "lon": -77.13177733333333, "type": "electric_bike", "fusion_lat": 0.0, "lat": 38.8690595, "name": "8af54b976e2bb3c377e4541236728cc4", "fusion_lon": 0.0, "bike_id": "8af54b976e2bb3c377e4541236728cc4", "is_disabled": 0, "is_reserved": 0}, {"rental_uris": {"ios": "https://dc.lft.to/lastmile_qr_scan", "android": "https://dc.lft.to/lastmile_qr_scan"}, "lon": -77.04685566666667, "type": "electric_scooter", "fusion_lat": 0.0, "lat": 38.90864666666667, "name": "fdcf1b03c702c1fc0744cf8936e2ea14", "fusion_lon": 0.0, "bike_id": "fdcf1b03c702c1fc0744cf8936e2ea14", "is_disabled": 0, "is_reserved": 0}, {"rental_uris": {"ios": "https://dc.lft.to/lastmile_qr_scan", "android": "https://dc.lft.to/lastmile_qr_scan"}, "lon": -76.95731966666666, "type": "electric_scooter", "fusion_lat": 0.0, "lat": 38.89218666666667, "name": "4e66f35eef1dbf5989d099b28edcc976", "fusion_lon": 0.0, "bike_id": "4e66f35eef1dbf5989d099b28edcc976", "is_disabled": 0, "is_reserved": 0}, {"rental_uris": {"ios": "https://dc.lft.to/lastmile_qr_scan", "android": "https://dc.lft.to/lastmile_qr_scan"}, "lon": -77.04274466666666, "type": "electric_scooter", "fusion_lat": 0.0, "lat": 38.907251, "name": "6f44239154f78c88fb0a985deae8dcae", "fusion_lon": 0.0, "bike_id": "6f44239154f78c88fb0a985deae8dcae", "is_disabled": 0, "is_reserved": 0}, {"rental_uris": {"ios": "https://dc.lft.to/lastmile_qr_scan", "android": "https://dc.lft.to/lastmile_qr_scan"}, "lon": -77.0341745, "type": "electric_scooter", "fusion_lat": 0.0, "lat": 38.92941, "name": "44fffcff34b29ac09c5d37d3127d4f5b", "fusion_lon": 0.0, "bike_id": "44fffcff34b29ac09c5d37d3127d4f5b", "is_disabled": 0, "is_reserved": 0}, {"rental_uris": {"ios": "https://dc.lft.to/lastmile_qr_scan", "android": "https://dc.lft.to/lastmile_qr_scan"}, "lon": -77.0393805, "type": "electric_scooter", "fusion_lat": 0.0, "lat": 38.93146483333334, "name": "c52e6e49080bb70d7d999b7ad7365e48", "fusion_lon": 0.0, "bike_id": "c52e6e49080bb70d7d999b7ad7365e48", "is_disabled": 0, "is_reserved": 0}, {"rental_uris": {"ios": "https://dc.lft.to/lastmile_qr_scan", "android": "https://dc.lft.to/lastmile_qr_scan"}, "lon": -77.029895, "type": "electric_bike", "fusion_lat": 0.0, "lat": 38.9003075, "name": "6ddb0edceca5bb253a9f9b4cc861eb38", "fusion_lon": 0.0, "bike_id": "6ddb0edceca5bb253a9f9b4cc861eb38", "is_disabled": 0, "is_reserved": 0}, {"rental_uris": {"ios": "https://dc.lft.to/lastmile_qr_scan", "android": "https://dc.lft.to/lastmile_qr_scan"}, "lon": -77.02306333333334, "type": "electric_scooter", "fusion_lat": 0.0, "lat": 38.917829166666664, "name": "e6f8d3c713dc156bb8dc1c8715781621", "fusion_lon": 0.0, "bike_id": "e6f8d3c713dc156bb8dc1c8715781621", "is_disabled": 0, "is_reserved": 0}, {"rental_uris": {"ios": "https://dc.lft.to/lastmile_qr_scan", "android": "https://dc.lft.to/lastmile_qr_scan"}, "lon": -77.04797983333333, "type": "electric_scooter", "fusion_lat": 0.0, "lat": 38.916421, "name": "bf6c515756f8121f4d058a2048dda3ef", "fusion_lon": 0.0, "bike_id": "bf6c515756f8121f4d058a2048dda3ef", "is_disabled": 0, "is_reserved": 0}, {"rental_uris": {"ios": "https://dc.lft.to/lastmile_qr_scan", "android": "https://dc.lft.to/lastmile_qr_scan"}, "lon": -77.0382835, "type": "electric_scooter", "fusion_lat": 0.0, "lat": 38.92167166666667, "name": "ec46633e946d13a1adcc70ea98de9e40", "fusion_lon": 0.0, "bike_id": "ec46633e946d13a1adcc70ea98de9e40", "is_disabled": 0, "is_reserved": 0}, {"rental_uris": {"ios": "https://dc.lft.to/lastmile_qr_scan", "android": "https://dc.lft.to/lastmile_qr_scan"}, "lon": -77.0188335, "type": "electric_scooter", "fusion_lat": 0.0, "lat": 38.906132166666666, "name": "64b1a223d6b32fdb30dc3126d5e82362", "fusion_lon": 0.0, "bike_id": "64b1a223d6b32fdb30dc3126d5e82362", "is_disabled": 0, "is_reserved": 0}, {"rental_uris": {"ios": "https://dc.lft.to/lastmile_qr_scan", "android": "https://dc.lft.to/lastmile_qr_scan"}, "lon": -77.04031866666666, "type": "electric_scooter", "fusion_lat": 0.0, "lat": 38.924291833333335, "name": "e60ca423d2751f46c9d8a85df702613f", "fusion_lon": 0.0, "bike_id": "e60ca423d2751f46c9d8a85df702613f", "is_disabled": 0, "is_reserved": 0}, {"rental_uris": {"ios": "https://dc.lft.to/lastmile_qr_scan", "android": "https://dc.lft.to/lastmile_qr_scan"}, "lon": -76.97730883333334, "type": "electric_scooter", "fusion_lat": 0.0, "lat": 38.87286783333333, "name": "f98e806e4d1f1bd764e34dd9a97335a6", "fusion_lon": 0.0, "bike_id": "f98e806e4d1f1bd764e34dd9a97335a6", "is_disabled": 0, "is_reserved": 0}, {"rental_uris": {"ios": "https://dc.lft.to/lastmile_qr_scan", "android": "https://dc.lft.to/lastmile_qr_scan"}, "lon": -77.03066383333334, "type": "electric_scooter", "fusion_lat": 0.0, "lat": 38.880446666666664, "name": "1af834d9110b811900d440e54898eeb2", "fusion_lon": 0.0, "bike_id": "1af834d9110b811900d440e54898eeb2", "is_disabled": 0, "is_reserved": 0}, {"rental_uris": {"ios": "https://dc.lft.to/lastmile_qr_scan", "android": "https://dc.lft.to/lastmile_qr_scan"}, "lon": -76.94945483333333, "type": "electric_scooter", "fusion_lat": 0.0, "lat": 38.883792166666666, "name": "c2d6e58f5bc317b905262cabe7025d78", "fusion_lon": 0.0, "bike_id": "c2d6e58f5bc317b905262cabe7025d78", "is_disabled": 0, "is_reserved": 0}, {"rental_uris": {"ios": "https://dc.lft.to/lastmile_qr_scan", "android": "https://dc.lft.to/lastmile_qr_scan"}, "lon": -77.01693816666666, "type": "electric_scooter", "fusion_lat": 0.0, "lat": 38.902755166666665, "name": "73d600c72c965d51f9aa9b143db90a7c", "fusion_lon": 0.0, "bike_id": "73d600c72c965d51f9aa9b143db90a7c", "is_disabled": 0, "is_reserved": 0}, {"rental_uris": {"ios": "https://dc.lft.to/lastmile_qr_scan", "android": "https://dc.lft.to/lastmile_qr_scan"}, "lon": -77.03792766666666, "type": "electric_bike", "fusion_lat": 0.0, "lat": 38.996733666666664, "name": "9b8cb1dd731ee2a48fdfa6758860775f", "fusion_lon": 0.0, "bike_id": "9b8cb1dd731ee2a48fdfa6758860775f", "is_disabled": 0, "is_reserved": 0}, {"rental_uris": {"ios": "https://dc.lft.to/lastmile_qr_scan", "android": "https://dc.lft.to/lastmile_qr_scan"}, "lon": -77.033233, "type": "electric_scooter", "fusion_lat": 0.0, "lat": 38.903254, "name": "1d15ce20765ee69f03c8469cc10285a1", "fusion_lon": 0.0, "bike_id": "1d15ce20765ee69f03c8469cc10285a1", "is_disabled": 0, "is_reserved": 0}, {"rental_uris": {"ios": "https://dc.lft.to/lastmile_qr_scan", "android": "https://dc.lft.to/lastmile_qr_scan"}, "lon": -77.036772, "type": "electric_scooter", "fusion_lat": 0.0, "lat": 38.90690133333333, "name": "651a3539c25c4c1cd5ac0f354bb46d27", "fusion_lon": 0.0, "bike_id": "651a3539c25c4c1cd5ac0f354bb46d27", "is_disabled": 0, "is_reserved": 0}, {"rental_uris": {"ios": "https://dc.lft.to/lastmile_qr_scan", "android": "https://dc.lft.to/lastmile_qr_scan"}, "lon": -77.02461716666667, "type": "electric_scooter", "fusion_lat": 0.0, "lat": 38.91917183333333, "name": "c39eefc5e75f33be64e87f794e825b13", "fusion_lon": 0.0, "bike_id": "c39eefc5e75f33be64e87f794e825b13", "is_disabled": 0, "is_reserved": 0}, {"rental_uris": {"ios": "https://dc.lft.to/lastmile_qr_scan", "android": "https://dc.lft.to/lastmile_qr_scan"}, "lon": -77.08828033333333, "type": "electric_bike", "fusion_lat": 0.0, "lat": 38.909739, "name": "26bdc2f228c9ec6ff7f6cf84ee775d49", "fusion_lon": 0.0, "bike_id": "26bdc2f228c9ec6ff7f6cf84ee775d49", "is_disabled": 0, "is_reserved": 0}, {"rental_uris": {"ios": "https://dc.lft.to/lastmile_qr_scan", "android": "https://dc.lft.to/lastmile_qr_scan"}, "lon": -77.01510716666667, "type": "electric_scooter", "fusion_lat": 0.0, "lat": 38.91053016666667, "name": "e8ccdcd6dc1a5661a8e6074c9519115f", "fusion_lon": 0.0, "bike_id": "e8ccdcd6dc1a5661a8e6074c9519115f", "is_disabled": 0, "is_reserved": 0}, {"rental_uris": {"ios": "https://dc.lft.to/lastmile_qr_scan", "android": "https://dc.lft.to/lastmile_qr_scan"}, "lon": -77.02893466666667, "type": "electric_scooter", "fusion_lat": 0.0, "lat": 38.95838916666666, "name": "85b26fcd8d7d777c5efddaed3b56fd0b", "fusion_lon": 0.0, "bike_id": "85b26fcd8d7d777c5efddaed3b56fd0b", "is_disabled": 0, "is_reserved": 0}, {"rental_uris": {"ios": "https://dc.lft.to/lastmile_qr_scan", "android": "https://dc.lft.to/lastmile_qr_scan"}, "lon": -77.0996165, "type": "electric_bike", "fusion_lat": 0.0, "lat": 38.85787066666666, "name": "29470eebf577a64b1ab53f08dbdd563a", "fusion_lon": 0.0, "bike_id": "29470eebf577a64b1ab53f08dbdd563a", "is_disabled": 0, "is_reserved": 0}, {"rental_uris": {"ios": "https://dc.lft.to/lastmile_qr_scan", "android": "https://dc.lft.to/lastmile_qr_scan"}, "lon": -77.01212283333334, "type": "electric_scooter", "fusion_lat": 0.0, "lat": 38.919710333333335, "name": "f152f2e897dabc6d2d26648e2fe43bde", "fusion_lon": 0.0, "bike_id": "f152f2e897dabc6d2d26648e2fe43bde", "is_disabled": 0, "is_reserved": 0}, {"rental_uris": {"ios": "https://dc.lft.to/lastmile_qr_scan", "android": "https://dc.lft.to/lastmile_qr_scan"}, "lon": -77.04058133333334, "type": "electric_scooter", "fusion_lat": 0.0, "lat": 38.9271475, "name": "ffec4aea70a71f2dffe378fbbf5e7693", "fusion_lon": 0.0, "bike_id": "ffec4aea70a71f2dffe378fbbf5e7693", "is_disabled": 0, "is_reserved": 0}, {"rental_uris": {"ios": "https://dc.lft.to/lastmile_qr_scan", "android": "https://dc.lft.to/lastmile_qr_scan"}, "lon": -76.9873615, "type": "electric_scooter", "fusion_lat": 0.0, "lat": 38.867205166666665, "name": "7a741b53a6fe25023e0cf0afef1cc6f4", "fusion_lon": 0.0, "bike_id": "7a741b53a6fe25023e0cf0afef1cc6f4", "is_disabled": 0, "is_reserved": 0}, {"rental_uris": {"ios": "https://dc.lft.to/lastmile_qr_scan", "android": "https://dc.lft.to/lastmile_qr_scan"}, "lon": -77.08079333333333, "type": "electric_bike", "fusion_lat": 0.0, "lat": 38.90686916666667, "name": "dc7b54429ae68349357f0b3c434fbf40", "fusion_lon": 0.0, "bike_id": "dc7b54429ae68349357f0b3c434fbf40", "is_disabled": 0, "is_reserved": 0}, {"rental_uris": {"ios": "https://dc.lft.to/lastmile_qr_scan", "android": "https://dc.lft.to/lastmile_qr_scan"}, "lon": -77.03978583333334, "type": "electric_scooter", "fusion_lat": 0.0, "lat": 38.901239833333335, "name": "3cd5bf67137c5e87135c544fb1898e45", "fusion_lon": 0.0, "bike_id": "3cd5bf67137c5e87135c544fb1898e45", "is_disabled": 0, "is_reserved": 0}, {"rental_uris": {"ios": "https://dc.lft.to/lastmile_qr_scan", "android": "https://dc.lft.to/lastmile_qr_scan"}, "lon": -76.9474315, "type": "electric_scooter", "fusion_lat": 0.0, "lat": 38.896729, "name": "36d585da045f4272613df5125551b823", "fusion_lon": 0.0, "bike_id": "36d585da045f4272613df5125551b823", "is_disabled": 0, "is_reserved": 0}, {"rental_uris": {"ios": "https://dc.lft.to/lastmile_qr_scan", "android": "https://dc.lft.to/lastmile_qr_scan"}, "lon": -77.04030266666666, "type": "electric_scooter", "fusion_lat": 0.0, "lat": 38.92426116666667, "name": "68f8611c2f89f18461ccca413ee8ff78", "fusion_lon": 0.0, "bike_id": "68f8611c2f89f18461ccca413ee8ff78", "is_disabled": 0, "is_reserved": 0}, {"rental_uris": {"ios": "https://dc.lft.to/lastmile_qr_scan", "android": "https://dc.lft.to/lastmile_qr_scan"}, "lon": -77.044196, "type": "electric_scooter", "fusion_lat": 0.0, "lat": 38.90917816666666, "name": "b0feebef1f519e010fcd2b4ebac4b407", "fusion_lon": 0.0, "bike_id": "b0feebef1f519e010fcd2b4ebac4b407", "is_disabled": 0, "is_reserved": 0}, {"rental_uris": {"ios": "https://dc.lft.to/lastmile_qr_scan", "android": "https://dc.lft.to/lastmile_qr_scan"}, "lon": -77.04347983333334, "type": "electric_scooter", "fusion_lat": 0.0, "lat": 38.896603166666665, "name": "f05a97f119fe297e218fad665e77e2d4", "fusion_lon": 0.0, "bike_id": "f05a97f119fe297e218fad665e77e2d4", "is_disabled": 0, "is_reserved": 0}, {"rental_uris": {"ios": "https://dc.lft.to/lastmile_qr_scan", "android": "https://dc.lft.to/lastmile_qr_scan"}, "lon": -77.033225, "type": "electric_scooter", "fusion_lat": 0.0, "lat": 38.898502, "name": "d4b3f79c034b5da3540b72b28dacac99", "fusion_lon": 0.0, "bike_id": "d4b3f79c034b5da3540b72b28dacac99", "is_disabled": 0, "is_reserved": 0}, {"rental_uris": {"ios": "https://dc.lft.to/lastmile_qr_scan", "android": "https://dc.lft.to/lastmile_qr_scan"}, "lon": -77.0513605, "type": "electric_scooter", "fusion_lat": 0.0, "lat": 38.90534, "name": "1c188a27ef82513951ed1b3af4e71daa", "fusion_lon": 0.0, "bike_id": "1c188a27ef82513951ed1b3af4e71daa", "is_disabled": 0, "is_reserved": 0}, {"rental_uris": {"ios": "https://dc.lft.to/lastmile_qr_scan", "android": "https://dc.lft.to/lastmile_qr_scan"}, "lon": -77.0308865, "type": "electric_scooter", "fusion_lat": 0.0, "lat": 38.899822666666665, "name": "85af7179b4217000f46e8ab54717a804", "fusion_lon": 0.0, "bike_id": "85af7179b4217000f46e8ab54717a804", "is_disabled": 0, "is_reserved": 0}, {"rental_uris": {"ios": "https://dc.lft.to/lastmile_qr_scan", "android": "https://dc.lft.to/lastmile_qr_scan"}, "lon": -77.02726633333333, "type": "electric_scooter", "fusion_lat": 0.0, "lat": 38.93788683333333, "name": "5b5323af5352a19ad45a903c9561664e", "fusion_lon": 0.0, "bike_id": "5b5323af5352a19ad45a903c9561664e", "is_disabled": 0, "is_reserved": 0}, {"rental_uris": {"ios": "https://dc.lft.to/lastmile_qr_scan", "android": "https://dc.lft.to/lastmile_qr_scan"}, "lon": -77.03785783333333, "type": "electric_scooter", "fusion_lat": 0.0, "lat": 38.912124166666665, "name": "09461edbf4622903585799f6bebbd7b2", "fusion_lon": 0.0, "bike_id": "09461edbf4622903585799f6bebbd7b2", "is_disabled": 0, "is_reserved": 0}, {"rental_uris": {"ios": "https://dc.lft.to/lastmile_qr_scan", "android": "https://dc.lft.to/lastmile_qr_scan"}, "lon": -77.063816, "type": "electric_scooter", "fusion_lat": 0.0, "lat": 38.908282, "name": "c2b2ff6821a11334e96b15930407eb3a", "fusion_lon": 0.0, "bike_id": "c2b2ff6821a11334e96b15930407eb3a", "is_disabled": 0, "is_reserved": 0}, {"rental_uris": {"ios": "https://dc.lft.to/lastmile_qr_scan", "android": "https://dc.lft.to/lastmile_qr_scan"}, "lon": -77.01936833333333, "type": "electric_scooter", "fusion_lat": 0.0, "lat": 38.949285, "name": "af39e9e06bd35613e387e71e6d6ecbb1", "fusion_lon": 0.0, "bike_id": "af39e9e06bd35613e387e71e6d6ecbb1", "is_disabled": 0, "is_reserved": 0}, {"rental_uris": {"ios": "https://dc.lft.to/lastmile_qr_scan", "android": "https://dc.lft.to/lastmile_qr_scan"}, "lon": -77.038365, "type": "electric_scooter", "fusion_lat": 0.0, "lat": 38.9123875, "name": "65a59ef3544d60162a8aaa8b591d63dd", "fusion_lon": 0.0, "bike_id": "65a59ef3544d60162a8aaa8b591d63dd", "is_disabled": 0, "is_reserved": 0}, {"rental_uris": {"ios": "https://dc.lft.to/lastmile_qr_scan", "android": "https://dc.lft.to/lastmile_qr_scan"}, "lon": -77.03812866666667, "type": "electric_scooter", "fusion_lat": 0.0, "lat": 38.90680183333333, "name": "db6d8a091d681294d4affb8e529175b4", "fusion_lon": 0.0, "bike_id": "db6d8a091d681294d4affb8e529175b4", "is_disabled": 0, "is_reserved": 0}, {"rental_uris": {"ios": "https://dc.lft.to/lastmile_qr_scan", "android": "https://dc.lft.to/lastmile_qr_scan"}, "lon": -77.0481255, "type": "electric_scooter", "fusion_lat": 0.0, "lat": 38.920314833333336, "name": "4b28b60c0ea56163c14db081c8ba698f", "fusion_lon": 0.0, "bike_id": "4b28b60c0ea56163c14db081c8ba698f", "is_disabled": 0, "is_reserved": 0}, {"rental_uris": {"ios": "https://dc.lft.to/lastmile_qr_scan", "android": "https://dc.lft.to/lastmile_qr_scan"}, "lon": -77.00071633333333, "type": "electric_scooter", "fusion_lat": 0.0, "lat": 38.92549183333333, "name": "0ddf5ae70c072fb67a3818199c82158a", "fusion_lon": 0.0, "bike_id": "0ddf5ae70c072fb67a3818199c82158a", "is_disabled": 0, "is_reserved": 0}, {"rental_uris": {"ios": "https://dc.lft.to/lastmile_qr_scan", "android": "https://dc.lft.to/lastmile_qr_scan"}, "lon": -76.98936883333333, "type": "electric_bike", "fusion_lat": 0.0, "lat": 38.92860683333333, "name": "c4ed9428366f6ea07bb75bc327aa365e", "fusion_lon": 0.0, "bike_id": "c4ed9428366f6ea07bb75bc327aa365e", "is_disabled": 0, "is_reserved": 0}, {"rental_uris": {"ios": "https://dc.lft.to/lastmile_qr_scan", "android": "https://dc.lft.to/lastmile_qr_scan"}, "lon": -77.0209755, "type": "electric_scooter", "fusion_lat": 0.0, "lat": 38.934441666666665, "name": "df767542442e5ce5723827f112b4d6ee", "fusion_lon": 0.0, "bike_id": "df767542442e5ce5723827f112b4d6ee", "is_disabled": 0, "is_reserved": 0}, {"rental_uris": {"ios": "https://dc.lft.to/lastmile_qr_scan", "android": "https://dc.lft.to/lastmile_qr_scan"}, "lon": -76.94665683333334, "type": "electric_scooter", "fusion_lat": 0.0, "lat": 38.8986875, "name": "25ed6f5506ae82a7b359da9f6a92271b", "fusion_lon": 0.0, "bike_id": "25ed6f5506ae82a7b359da9f6a92271b", "is_disabled": 0, "is_reserved": 0}, {"rental_uris": {"ios": "https://dc.lft.to/lastmile_qr_scan", "android": "https://dc.lft.to/lastmile_qr_scan"}, "lon": -77.0119105, "type": "electric_scooter", "fusion_lat": 0.0, "lat": 38.9155425, "name": "70083105b33e15ed044ba6fa89ddaff4", "fusion_lon": 0.0, "bike_id": "70083105b33e15ed044ba6fa89ddaff4", "is_disabled": 0, "is_reserved": 0}, {"rental_uris": {"ios": "https://dc.lft.to/lastmile_qr_scan", "android": "https://dc.lft.to/lastmile_qr_scan"}, "lon": -77.03702833333334, "type": "electric_scooter", "fusion_lat": 0.0, "lat": 38.926347666666665, "name": "8907ed257508f2c38f6f722da5ed1b6e", "fusion_lon": 0.0, "bike_id": "8907ed257508f2c38f6f722da5ed1b6e", "is_disabled": 0, "is_reserved": 0}, {"rental_uris": {"ios": "https://dc.lft.to/lastmile_qr_scan", "android": "https://dc.lft.to/lastmile_qr_scan"}, "lon": -77.0448345, "type": "electric_scooter", "fusion_lat": 0.0, "lat": 38.9033635, "name": "bfd774b69b1f3befc16490c133479a68", "fusion_lon": 0.0, "bike_id": "bfd774b69b1f3befc16490c133479a68", "is_disabled": 0, "is_reserved": 0}, {"rental_uris": {"ios": "https://dc.lft.to/lastmile_qr_scan", "android": "https://dc.lft.to/lastmile_qr_scan"}, "lon": -77.02766783333334, "type": "electric_scooter", "fusion_lat": 0.0, "lat": 38.891987666666665, "name": "7072f1b620a41a84bcdcb085e431eb09", "fusion_lon": 0.0, "bike_id": "7072f1b620a41a84bcdcb085e431eb09", "is_disabled": 0, "is_reserved": 0}, {"rental_uris": {"ios": "https://dc.lft.to/lastmile_qr_scan", "android": "https://dc.lft.to/lastmile_qr_scan"}, "lon": -77.020685, "type": "electric_scooter", "fusion_lat": 0.0, "lat": 38.935305, "name": "69c3192ae73512083686bbfc17f1dcaa", "fusion_lon": 0.0, "bike_id": "69c3192ae73512083686bbfc17f1dcaa", "is_disabled": 0, "is_reserved": 0}, {"rental_uris": {"ios": "https://dc.lft.to/lastmile_qr_scan", "android": "https://dc.lft.to/lastmile_qr_scan"}, "lon": -77.0424795, "type": "electric_scooter", "fusion_lat": 0.0, "lat": 38.92057716666667, "name": "0acd68cccbcd7c0e73c1796e8c41fff0", "fusion_lon": 0.0, "bike_id": "0acd68cccbcd7c0e73c1796e8c41fff0", "is_disabled": 0, "is_reserved": 0}, {"rental_uris": {"ios": "https://dc.lft.to/lastmile_qr_scan", "android": "https://dc.lft.to/lastmile_qr_scan"}, "lon": -77.04490133333333, "type": "electric_scooter", "fusion_lat": 0.0, "lat": 38.913123166666665, "name": "881dc0b61fa0c09d6d6b5ace66aa1f96", "fusion_lon": 0.0, "bike_id": "881dc0b61fa0c09d6d6b5ace66aa1f96", "is_disabled": 0, "is_reserved": 0}, {"rental_uris": {"ios": "https://dc.lft.to/lastmile_qr_scan", "android": "https://dc.lft.to/lastmile_qr_scan"}, "lon": -77.028313, "type": "electric_scooter", "fusion_lat": 0.0, "lat": 38.92474566666667, "name": "92b4e28144ea697ed6c878976b24179d", "fusion_lon": 0.0, "bike_id": "92b4e28144ea697ed6c878976b24179d", "is_disabled": 0, "is_reserved": 0}, {"rental_uris": {"ios": "https://dc.lft.to/lastmile_qr_scan", "android": "https://dc.lft.to/lastmile_qr_scan"}, "lon": -76.98995983333333, "type": "electric_bike", "fusion_lat": 0.0, "lat": 38.863877, "name": "4e15685ab0c1cc30a6b26b284d286940", "fusion_lon": 0.0, "bike_id": "4e15685ab0c1cc30a6b26b284d286940", "is_disabled": 0, "is_reserved": 0}, {"rental_uris": {"ios": "https://dc.lft.to/lastmile_qr_scan", "android": "https://dc.lft.to/lastmile_qr_scan"}, "lon": -77.00594916666667, "type": "electric_scooter", "fusion_lat": 0.0, "lat": 38.90608533333333, "name": "cc9877230d1737beacee9994a99d3f65", "fusion_lon": 0.0, "bike_id": "cc9877230d1737beacee9994a99d3f65", "is_disabled": 0, "is_reserved": 0}, {"rental_uris": {"ios": "https://dc.lft.to/lastmile_qr_scan", "android": "https://dc.lft.to/lastmile_qr_scan"}, "lon": -76.9927265, "type": "electric_scooter", "fusion_lat": 0.0, "lat": 38.897626, "name": "b3fd66afa8cb6c3af21175ef9cc025f9", "fusion_lon": 0.0, "bike_id": "b3fd66afa8cb6c3af21175ef9cc025f9", "is_disabled": 0, "is_reserved": 0}, {"rental_uris": {"ios": "https://dc.lft.to/lastmile_qr_scan", "android": "https://dc.lft.to/lastmile_qr_scan"}, "lon": -77.03444316666666, "type": "electric_scooter", "fusion_lat": 0.0, "lat": 38.91839483333333, "name": "3c6b2c5460c5ff3cd927d0f6d8c1cd8b", "fusion_lon": 0.0, "bike_id": "3c6b2c5460c5ff3cd927d0f6d8c1cd8b", "is_disabled": 0, "is_reserved": 0}, {"rental_uris": {"ios": "https://dc.lft.to/lastmile_qr_scan", "android": "https://dc.lft.to/lastmile_qr_scan"}, "lon": -77.01077383333333, "type": "electric_bike", "fusion_lat": 0.0, "lat": 38.956532, "name": "2a1056860399a820710339ee13a8c7a2", "fusion_lon": 0.0, "bike_id": "2a1056860399a820710339ee13a8c7a2", "is_disabled": 0, "is_reserved": 0}, {"rental_uris": {"ios": "https://dc.lft.to/lastmile_qr_scan", "android": "https://dc.lft.to/lastmile_qr_scan"}, "lon": -77.02836033333334, "type": "electric_scooter", "fusion_lat": 0.0, "lat": 38.887692, "name": "52e3fb235ae516e08b774a0e5c4c87a9", "fusion_lon": 0.0, "bike_id": "52e3fb235ae516e08b774a0e5c4c87a9", "is_disabled": 0, "is_reserved": 0}, {"rental_uris": {"ios": "https://dc.lft.to/lastmile_qr_scan", "android": "https://dc.lft.to/lastmile_qr_scan"}, "lon": -77.01435866666667, "type": "electric_scooter", "fusion_lat": 0.0, "lat": 38.929925, "name": "12ba98a556851b4fbab95c79c460b7d1", "fusion_lon": 0.0, "bike_id": "12ba98a556851b4fbab95c79c460b7d1", "is_disabled": 0, "is_reserved": 0}, {"rental_uris": {"ios": "https://dc.lft.to/lastmile_qr_scan", "android": "https://dc.lft.to/lastmile_qr_scan"}, "lon": -77.032647, "type": "electric_scooter", "fusion_lat": 0.0, "lat": 38.938189333333334, "name": "465cb2df42f4cc2415f863ae9070c203", "fusion_lon": 0.0, "bike_id": "465cb2df42f4cc2415f863ae9070c203", "is_disabled": 0, "is_reserved": 0}, {"rental_uris": {"ios": "https://dc.lft.to/lastmile_qr_scan", "android": "https://dc.lft.to/lastmile_qr_scan"}, "lon": -77.034388, "type": "electric_scooter", "fusion_lat": 0.0, "lat": 38.91836716666667, "name": "bf7691125e56ca25ec9fdb50ee5fa4f3", "fusion_lon": 0.0, "bike_id": "bf7691125e56ca25ec9fdb50ee5fa4f3", "is_disabled": 0, "is_reserved": 0}, {"rental_uris": {"ios": "https://dc.lft.to/lastmile_qr_scan", "android": "https://dc.lft.to/lastmile_qr_scan"}, "lon": -77.01585516666667, "type": "electric_scooter", "fusion_lat": 0.0, "lat": 38.957068666666665, "name": "5a476318e76158729eb5d6adc9edda33", "fusion_lon": 0.0, "bike_id": "5a476318e76158729eb5d6adc9edda33", "is_disabled": 0, "is_reserved": 0}, {"rental_uris": {"ios": "https://dc.lft.to/lastmile_qr_scan", "android": "https://dc.lft.to/lastmile_qr_scan"}, "lon": -77.042714, "type": "electric_scooter", "fusion_lat": 0.0, "lat": 38.92240433333333, "name": "708736b3b42cc4e10b0ccb74e3661557", "fusion_lon": 0.0, "bike_id": "708736b3b42cc4e10b0ccb74e3661557", "is_disabled": 0, "is_reserved": 0}, {"rental_uris": {"ios": "https://dc.lft.to/lastmile_qr_scan", "android": "https://dc.lft.to/lastmile_qr_scan"}, "lon": -77.03658416666667, "type": "electric_scooter", "fusion_lat": 0.0, "lat": 38.917194, "name": "90181f8f7b6ef5b4a39909826d474ca9", "fusion_lon": 0.0, "bike_id": "90181f8f7b6ef5b4a39909826d474ca9", "is_disabled": 0, "is_reserved": 0}, {"rental_uris": {"ios": "https://dc.lft.to/lastmile_qr_scan", "android": "https://dc.lft.to/lastmile_qr_scan"}, "lon": -77.09208033333333, "type": "electric_scooter", "fusion_lat": 0.0, "lat": 38.917113, "name": "3ecdabb3b8e66e748947deba69e88f63", "fusion_lon": 0.0, "bike_id": "3ecdabb3b8e66e748947deba69e88f63", "is_disabled": 0, "is_reserved": 0}, {"rental_uris": {"ios": "https://dc.lft.to/lastmile_qr_scan", "android": "https://dc.lft.to/lastmile_qr_scan"}, "lon": -77.032696, "type": "electric_scooter", "fusion_lat": 0.0, "lat": 38.93284583333333, "name": "6114fee8583059a943e1868129176631", "fusion_lon": 0.0, "bike_id": "6114fee8583059a943e1868129176631", "is_disabled": 0, "is_reserved": 0}, {"rental_uris": {"ios": "https://dc.lft.to/lastmile_qr_scan", "android": "https://dc.lft.to/lastmile_qr_scan"}, "lon": -77.03825933333333, "type": "electric_scooter", "fusion_lat": 0.0, "lat": 38.902656, "name": "6975737aeb97be6922ed51a00719876e", "fusion_lon": 0.0, "bike_id": "6975737aeb97be6922ed51a00719876e", "is_disabled": 0, "is_reserved": 0}, {"rental_uris": {"ios": "https://dc.lft.to/lastmile_qr_scan", "android": "https://dc.lft.to/lastmile_qr_scan"}, "lon": -77.02208, "type": "electric_scooter", "fusion_lat": 0.0, "lat": 38.91413583333333, "name": "85291b3cdd654e3a5fcba38b3c9160d4", "fusion_lon": 0.0, "bike_id": "85291b3cdd654e3a5fcba38b3c9160d4", "is_disabled": 0, "is_reserved": 0}, {"rental_uris": {"ios": "https://dc.lft.to/lastmile_qr_scan", "android": "https://dc.lft.to/lastmile_qr_scan"}, "lon": -77.0490055, "type": "electric_bike", "fusion_lat": 0.0, "lat": 38.874918, "name": "5da59af8490896f27fe27473b0689b5e", "fusion_lon": 0.0, "bike_id": "5da59af8490896f27fe27473b0689b5e", "is_disabled": 0, "is_reserved": 0}, {"rental_uris": {"ios": "https://dc.lft.to/lastmile_qr_scan", "android": "https://dc.lft.to/lastmile_qr_scan"}, "lon": -77.03213033333333, "type": "electric_scooter", "fusion_lat": 0.0, "lat": 38.90724133333333, "name": "2076095b262520edc38b629067a70c84", "fusion_lon": 0.0, "bike_id": "2076095b262520edc38b629067a70c84", "is_disabled": 0, "is_reserved": 0}, {"rental_uris": {"ios": "https://dc.lft.to/lastmile_qr_scan", "android": "https://dc.lft.to/lastmile_qr_scan"}, "lon": -77.03993933333334, "type": "electric_scooter", "fusion_lat": 0.0, "lat": 38.913293, "name": "e1ccbe185bd0d359190c9b67477cde1e", "fusion_lon": 0.0, "bike_id": "e1ccbe185bd0d359190c9b67477cde1e", "is_disabled": 0, "is_reserved": 0}, {"rental_uris": {"ios": "https://dc.lft.to/lastmile_qr_scan", "android": "https://dc.lft.to/lastmile_qr_scan"}, "lon": -76.9856815, "type": "electric_scooter", "fusion_lat": 0.0, "lat": 38.898836333333335, "name": "c85248d5ad4ff8b51295b99a981e8c80", "fusion_lon": 0.0, "bike_id": "c85248d5ad4ff8b51295b99a981e8c80", "is_disabled": 0, "is_reserved": 0}, {"rental_uris": {"ios": "https://dc.lft.to/lastmile_qr_scan", "android": "https://dc.lft.to/lastmile_qr_scan"}, "lon": -76.99601483333333, "type": "electric_scooter", "fusion_lat": 0.0, "lat": 38.900241333333334, "name": "bba6a361384e878d703105ce91cdd78e", "fusion_lon": 0.0, "bike_id": "bba6a361384e878d703105ce91cdd78e", "is_disabled": 0, "is_reserved": 0}, {"rental_uris": {"ios": "https://dc.lft.to/lastmile_qr_scan", "android": "https://dc.lft.to/lastmile_qr_scan"}, "lon": -77.018143, "type": "electric_scooter", "fusion_lat": 0.0, "lat": 38.911927, "name": "bb90e2c662f1758b8455476d96d39111", "fusion_lon": 0.0, "bike_id": "bb90e2c662f1758b8455476d96d39111", "is_disabled": 0, "is_reserved": 0}, {"rental_uris": {"ios": "https://dc.lft.to/lastmile_qr_scan", "android": "https://dc.lft.to/lastmile_qr_scan"}, "lon": -77.0468425, "type": "electric_scooter", "fusion_lat": 0.0, "lat": 38.8922165, "name": "2398a2bd6046ac643cb885af3e3dc292", "fusion_lon": 0.0, "bike_id": "2398a2bd6046ac643cb885af3e3dc292", "is_disabled": 0, "is_reserved": 0}, {"rental_uris": {"ios": "https://dc.lft.to/lastmile_qr_scan", "android": "https://dc.lft.to/lastmile_qr_scan"}, "lon": -77.06276016666666, "type": "electric_scooter", "fusion_lat": 0.0, "lat": 38.906853166666664, "name": "7f810730dfebd2c616757655f9faa49b", "fusion_lon": 0.0, "bike_id": "7f810730dfebd2c616757655f9faa49b", "is_disabled": 0, "is_reserved": 0}, {"rental_uris": {"ios": "https://dc.lft.to/lastmile_qr_scan", "android": "https://dc.lft.to/lastmile_qr_scan"}, "lon": -76.9465325, "type": "electric_scooter", "fusion_lat": 0.0, "lat": 38.8982365, "name": "e05c61aacfcfed22abf21e7c6bf8d96b", "fusion_lon": 0.0, "bike_id": "e05c61aacfcfed22abf21e7c6bf8d96b", "is_disabled": 0, "is_reserved": 0}, {"rental_uris": {"ios": "https://dc.lft.to/lastmile_qr_scan", "android": "https://dc.lft.to/lastmile_qr_scan"},