{"data": {"bikes": [{"lon": -77.03519733333333, "bike_id": "b69f9847a0915be32a27095ce87c1df3", "lat": 38.91595, "fusion_lon": 0.0, "fusion_lat": 0.0, "type": "electric_scooter", "name": "b69f9847a0915be32a27095ce87c1df3", "is_disabled": 0, "rental_uris": {"ios": "https://dc.lft.to/lastmile_qr_scan", "android": "https://dc.lft.to/lastmile_qr_scan"}, "is_reserved": 0}, {"lon": -77.0333805, "bike_id": "25a81c0c0609faba610486bcd586e659", "lat": 38.93892866666667, "fusion_lon": 0.0, "fusion_lat": 0.0, "type": "electric_scooter", "name": "25a81c0c0609faba610486bcd586e659", "is_disabled": 0, "rental_uris": {"ios": "https://dc.lft.to/lastmile_qr_scan", "android": "https://dc.lft.to/lastmile_qr_scan"}, "is_reserved": 0}, {"lon": -77.03259033333333, "bike_id": "861ade2d60be2ee80a4255bdf63e0b02", "lat": 38.942670166666666, "fusion_lon": 0.0, "fusion_lat": 0.0, "type": "electric_scooter", "name": "861ade2d60be2ee80a4255bdf63e0b02", "is_disabled": 0, "rental_uris": {"ios": "https://dc.lft.to/lastmile_qr_scan", "android": "https://dc.lft.to/lastmile_qr_scan"}, "is_reserved": 0}, {"lon": -77.0422595, "bike_id": "5a8228cf7e3bcbfc33d0f45795b0e670", "lat": 38.92120716666667, "fusion_lon": 0.0, "fusion_lat": 0.0, "type": "electric_scooter", "name": "5a8228cf7e3bcbfc33d0f45795b0e670", "is_disabled": 0, "rental_uris": {"ios": "https://dc.lft.to/lastmile_qr_scan", "android": "https://dc.lft.to/lastmile_qr_scan"}, "is_reserved": 0}, {"lon": -76.994001, "bike_id": "adb623c8005c9e38164c068ec3e356a8", "lat": 38.9239005, "fusion_lon": 0.0, "fusion_lat": 0.0, "type": "electric_scooter", "name": "adb623c8005c9e38164c068ec3e356a8", "is_disabled": 0, "rental_uris": {"ios": "https://dc.lft.to/lastmile_qr_scan", "android": "https://dc.lft.to/lastmile_qr_scan"}, "is_reserved": 0}, {"lon": -77.04136366666667, "bike_id": "be8892e6850f3753f37c897dff271f96", "lat": 38.92136166666667, "fusion_lon": 0.0, "fusion_lat": 0.0, "type": "electric_scooter", "name": "be8892e6850f3753f37c897dff271f96", "is_disabled": 0, "rental_uris": {"ios": "https://dc.lft.to/lastmile_qr_scan", "android": "https://dc.lft.to/lastmile_qr_scan"}, "is_reserved": 0}, {"lon": -77.05006383333334, "bike_id": "bab164a21d87c2186238bc751a4d4c87", "lat": 38.91571366666667, "fusion_lon": 0.0, "fusion_lat": 0.0, "type": "electric_bike", "name": "bab164a21d87c2186238bc751a4d4c87", "is_disabled": 0, "rental_uris": {"ios": "https://dc.lft.to/lastmile_qr_scan", "android": "https://dc.lft.to/lastmile_qr_scan"}, "is_reserved": 0}, {"lon": -77.03405366666667, "bike_id": "5b7a91ce6e315b7335ee39a69312ed34", "lat": 38.905506, "fusion_lon": 0.0, "fusion_lat": 0.0, "type": "electric_scooter", "name": "5b7a91ce6e315b7335ee39a69312ed34", "is_disabled": 0, "rental_uris": {"ios": "https://dc.lft.to/lastmile_qr_scan", "android": "https://dc.lft.to/lastmile_qr_scan"}, "is_reserved": 0}, {"lon": -77.01806916666666, "bike_id": "56b159eca5515aa91bcf4a6db74640d5", "lat": 38.914748, "fusion_lon": 0.0, "fusion_lat": 0.0, "type": "electric_scooter", "name": "56b159eca5515aa91bcf4a6db74640d5", "is_disabled": 0, "rental_uris": {"ios": "https://dc.lft.to/lastmile_qr_scan", "android": "https://dc.lft.to/lastmile_qr_scan"}, "is_reserved": 0}, {"lon": -77.02206433333333, "bike_id": "83baaa40d4fedfa368dec773f74df4d5", "lat": 38.89289016666667, "fusion_lon": 0.0, "fusion_lat": 0.0, "type": "electric_scooter", "name": "83baaa40d4fedfa368dec773f74df4d5", "is_disabled": 0, "rental_uris": {"ios": "https://dc.lft.to/lastmile_qr_scan", "android": "https://dc.lft.to/lastmile_qr_scan"}, "is_reserved": 0}, {"lon": -77.02284, "bike_id": "b41f4fb8e63be98b5b4d9dddd63242a2", "lat": 38.9095235, "fusion_lon": 0.0, "fusion_lat": 0.0, "type": "electric_scooter", "name": "b41f4fb8e63be98b5b4d9dddd63242a2", "is_disabled": 0, "rental_uris": {"ios": "https://dc.lft.to/lastmile_qr_scan", "android": "https://dc.lft.to/lastmile_qr_scan"}, "is_reserved": 0}, {"lon": -76.98832166666666, "bike_id": "363318f7c096d0b508243faa5cd504f3", "lat": 38.9009855, "fusion_lon": 0.0, "fusion_lat": 0.0, "type": "electric_scooter", "name": "363318f7c096d0b508243faa5cd504f3", "is_disabled": 0, "rental_uris": {"ios": "https://dc.lft.to/lastmile_qr_scan", "android": "https://dc.lft.to/lastmile_qr_scan"}, "is_reserved": 0}, {"lon": -77.02198633333333, "bike_id": "2ac5d318005dd743ad600ff3404f60b6", "lat": 38.91052766666667, "fusion_lon": 0.0, "fusion_lat": 0.0, "type": "electric_scooter", "name": "2ac5d318005dd743ad600ff3404f60b6", "is_disabled": 0, "rental_uris": {"ios": "https://dc.lft.to/lastmile_qr_scan", "android": "https://dc.lft.to/lastmile_qr_scan"}, "is_reserved": 0}, {"lon": -77.108057, "bike_id": "0f6e3a2e728cac9fd8eed344fec6382d", "lat": 38.812019666666664, "fusion_lon": 0.0, "fusion_lat": 0.0, "type": "electric_bike", "name": "0f6e3a2e728cac9fd8eed344fec6382d", "is_disabled": 0, "rental_uris": {"ios": "https://dc.lft.to/lastmile_qr_scan", "android": "https://dc.lft.to/lastmile_qr_scan"}, "is_reserved": 0}, {"lon": -77.0175805, "bike_id": "b299d9353e5bd401939d1054242a936e", "lat": 38.8771405, "fusion_lon": 0.0, "fusion_lat": 0.0, "type": "electric_scooter", "name": "b299d9353e5bd401939d1054242a936e", "is_disabled": 0, "rental_uris": {"ios": "https://dc.lft.to/lastmile_qr_scan", "android": "https://dc.lft.to/lastmile_qr_scan"}, "is_reserved": 0}, {"lon": -76.99966133333334, "bike_id": "e0868bafc77ae8931fae56beaba57720", "lat": 38.91924066666667, "fusion_lon": 0.0, "fusion_lat": 0.0, "type": "electric_scooter", "name": "e0868bafc77ae8931fae56beaba57720", "is_disabled": 0, "rental_uris": {"ios": "https://dc.lft.to/lastmile_qr_scan", "android": "https://dc.lft.to/lastmile_qr_scan"}, "is_reserved": 0}, {"lon": -77.02598333333333, "bike_id": "276744b7ad35138323c1176fe38db336", "lat": 38.94195216666667, "fusion_lon": 0.0, "fusion_lat": 0.0, "type": "electric_scooter", "name": "276744b7ad35138323c1176fe38db336", "is_disabled": 0, "rental_uris": {"ios": "https://dc.lft.to/lastmile_qr_scan", "android": "https://dc.lft.to/lastmile_qr_scan"}, "is_reserved": 0}, {"lon": -77.0338655, "bike_id": "8bf8e9b39e9d7978f039ff51dc51a57c", "lat": 38.9026675, "fusion_lon": 0.0, "fusion_lat": 0.0, "type": "electric_scooter", "name": "8bf8e9b39e9d7978f039ff51dc51a57c", "is_disabled": 0, "rental_uris": {"ios": "https://dc.lft.to/lastmile_qr_scan", "android": "https://dc.lft.to/lastmile_qr_scan"}, "is_reserved": 0}, {"lon": -77.03999683333333, "bike_id": "eed886cd72898f7cafad6b8962e4094b", "lat": 38.9181785, "fusion_lon": 0.0, "fusion_lat": 0.0, "type": "electric_scooter", "name": "eed886cd72898f7cafad6b8962e4094b", "is_disabled": 0, "rental_uris": {"ios": "https://dc.lft.to/lastmile_qr_scan", "android": "https://dc.lft.to/lastmile_qr_scan"}, "is_reserved": 0}, {"lon": -76.99171166666666, "bike_id": "e889b9ed3b4c31ed868d36d797d45257", "lat": 38.8898785, "fusion_lon": 0.0, "fusion_lat": 0.0, "type": "electric_scooter", "name": "e889b9ed3b4c31ed868d36d797d45257", "is_disabled": 0, "rental_uris": {"ios": "https://dc.lft.to/lastmile_qr_scan", "android": "https://dc.lft.to/lastmile_qr_scan"}, "is_reserved": 0}, {"lon": -77.01845633333333, "bike_id": "7b7315f2d49d4b995823f30803ddf189", "lat": 38.909612, "fusion_lon": 0.0, "fusion_lat": 0.0, "type": "electric_scooter", "name": "7b7315f2d49d4b995823f30803ddf189", "is_disabled": 0, "rental_uris": {"ios": "https://dc.lft.to/lastmile_qr_scan", "android": "https://dc.lft.to/lastmile_qr_scan"}, "is_reserved": 0}, {"lon": -77.02507516666667, "bike_id": "53b829913dd6b3c760a96305ab64a0d8", "lat": 38.91895133333333, "fusion_lon": 0.0, "fusion_lat": 0.0, "type": "electric_scooter", "name": "53b829913dd6b3c760a96305ab64a0d8", "is_disabled": 0, "rental_uris": {"ios": "https://dc.lft.to/lastmile_qr_scan", "android": "https://dc.lft.to/lastmile_qr_scan"}, "is_reserved": 0}, {"lon": -77.04355233333334, "bike_id": "fdab24c729a95e751a5509d5b53a534d", "lat": 38.90796366666667, "fusion_lon": 0.0, "fusion_lat": 0.0, "type": "electric_scooter", "name": "fdab24c729a95e751a5509d5b53a534d", "is_disabled": 0, "rental_uris": {"ios": "https://dc.lft.to/lastmile_qr_scan", "android": "https://dc.lft.to/lastmile_qr_scan"}, "is_reserved": 0}, {"lon": -77.01834133333334, "bike_id": "02d13bdf85e72656645d5ecf074ae21a", "lat": 38.9092645, "fusion_lon": 0.0, "fusion_lat": 0.0, "type": "electric_scooter", "name": "02d13bdf85e72656645d5ecf074ae21a", "is_disabled": 0, "rental_uris": {"ios": "https://dc.lft.to/lastmile_qr_scan", "android": "https://dc.lft.to/lastmile_qr_scan"}, "is_reserved": 0}, {"lon": -76.99068933333334, "bike_id": "a7ced561bee0613cdc2f5eac9bb0b075", "lat": 38.8982, "fusion_lon": 0.0, "fusion_lat": 0.0, "type": "electric_bike", "name": "a7ced561bee0613cdc2f5eac9bb0b075", "is_disabled": 0, "rental_uris": {"ios": "https://dc.lft.to/lastmile_qr_scan", "android": "https://dc.lft.to/lastmile_qr_scan"}, "is_reserved": 0}, {"lon": -77.038377, "bike_id": "ddd6f3d9594da65234f211611eebe27a", "lat": 38.917162, "fusion_lon": 0.0, "fusion_lat": 0.0, "type": "electric_scooter", "name": "ddd6f3d9594da65234f211611eebe27a", "is_disabled": 0, "rental_uris": {"ios": "https://dc.lft.to/lastmile_qr_scan", "android": "https://dc.lft.to/lastmile_qr_scan"}, "is_reserved": 0}, {"lon": -77.00661716666667, "bike_id": "a91c6c1e4dc9bb47ea44bbf486655c77", "lat": 38.900084, "fusion_lon": 0.0, "fusion_lat": 0.0, "type": "electric_scooter", "name": "a91c6c1e4dc9bb47ea44bbf486655c77", "is_disabled": 0, "rental_uris": {"ios": "https://dc.lft.to/lastmile_qr_scan", "android": "https://dc.lft.to/lastmile_qr_scan"}, "is_reserved": 0}, {"lon": -77.01693566666667, "bike_id": "c7edb398f486b91442c51069780d2142", "lat": 38.904591333333336, "fusion_lon": 0.0, "fusion_lat": 0.0, "type": "electric_scooter", "name": "c7edb398f486b91442c51069780d2142", "is_disabled": 0, "rental_uris": {"ios": "https://dc.lft.to/lastmile_qr_scan", "android": "https://dc.lft.to/lastmile_qr_scan"}, "is_reserved": 0}, {"lon": -77.03261916666666, "bike_id": "0c2d677d09fc3f1e995b43df2847fb1e", "lat": 38.930999, "fusion_lon": 0.0, "fusion_lat": 0.0, "type": "electric_scooter", "name": "0c2d677d09fc3f1e995b43df2847fb1e", "is_disabled": 0, "rental_uris": {"ios": "https://dc.lft.to/lastmile_qr_scan", "android": "https://dc.lft.to/lastmile_qr_scan"}, "is_reserved": 0}, {"lon": -77.032615, "bike_id": "d047ab9a37b83ce8a7d69e4eb71d3e0b", "lat": 38.932066166666665, "fusion_lon": 0.0, "fusion_lat": 0.0, "type": "electric_scooter", "name": "d047ab9a37b83ce8a7d69e4eb71d3e0b", "is_disabled": 0, "rental_uris": {"ios": "https://dc.lft.to/lastmile_qr_scan", "android": "https://dc.lft.to/lastmile_qr_scan"}, "is_reserved": 0}, {"lon": -77.03195166666667, "bike_id": "8aa84bfb6976663cb18e7ef5dd3ef80a", "lat": 38.91577083333333, "fusion_lon": 0.0, "fusion_lat": 0.0, "type": "electric_scooter", "name": "8aa84bfb6976663cb18e7ef5dd3ef80a", "is_disabled": 0, "rental_uris": {"ios": "https://dc.lft.to/lastmile_qr_scan", "android": "https://dc.lft.to/lastmile_qr_scan"}, "is_reserved": 0}, {"lon": -77.03631483333334, "bike_id": "9f7aeabdddd203b24eba5ab8c4c0f6a0", "lat": 38.9155165, "fusion_lon": 0.0, "fusion_lat": 0.0, "type": "electric_scooter", "name": "9f7aeabdddd203b24eba5ab8c4c0f6a0", "is_disabled": 0, "rental_uris": {"ios": "https://dc.lft.to/lastmile_qr_scan", "android": "https://dc.lft.to/lastmile_qr_scan"}, "is_reserved": 0}, {"lon": -76.93274516666666, "bike_id": "3f30489dca19fcf8408cf26d1d5570d1", "lat": 38.95422583333333, "fusion_lon": 0.0, "fusion_lat": 0.0, "type": "electric_bike", "name": "3f30489dca19fcf8408cf26d1d5570d1", "is_disabled": 0, "rental_uris": {"ios": "https://dc.lft.to/lastmile_qr_scan", "android": "https://dc.lft.to/lastmile_qr_scan"}, "is_reserved": 0}, {"lon": -77.0560005, "bike_id": "cb679af6ae1358014c584d53d5f93950", "lat": 38.9369355, "fusion_lon": 0.0, "fusion_lat": 0.0, "type": "electric_scooter", "name": "cb679af6ae1358014c584d53d5f93950", "is_disabled": 0, "rental_uris": {"ios": "https://dc.lft.to/lastmile_qr_scan", "android": "https://dc.lft.to/lastmile_qr_scan"}, "is_reserved": 0}, {"lon": -77.02972633333333, "bike_id": "d177b6229766f9a2be0946ca88244756", "lat": 38.916678833333336, "fusion_lon": 0.0, "fusion_lat": 0.0, "type": "electric_scooter", "name": "d177b6229766f9a2be0946ca88244756", "is_disabled": 0, "rental_uris": {"ios": "https://dc.lft.to/lastmile_qr_scan", "android": "https://dc.lft.to/lastmile_qr_scan"}, "is_reserved": 0}, {"lon": -77.06130166666667, "bike_id": "0e04f848f402c141a08a2a1d31a81ceb", "lat": 38.905233333333335, "fusion_lon": 0.0, "fusion_lat": 0.0, "type": "electric_scooter", "name": "0e04f848f402c141a08a2a1d31a81ceb", "is_disabled": 0, "rental_uris": {"ios": "https://dc.lft.to/lastmile_qr_scan", "android": "https://dc.lft.to/lastmile_qr_scan"}, "is_reserved": 0}, {"lon": -77.03498966666666, "bike_id": "b88e463dff9ecc574fc4c54e953ef330", "lat": 38.9118635, "fusion_lon": 0.0, "fusion_lat": 0.0, "type": "electric_scooter", "name": "b88e463dff9ecc574fc4c54e953ef330", "is_disabled": 0, "rental_uris": {"ios": "https://dc.lft.to/lastmile_qr_scan", "android": "https://dc.lft.to/lastmile_qr_scan"}, "is_reserved": 0}, {"lon": -77.0238745, "bike_id": "98d457a11a8aded1685795aa9cc53564", "lat": 38.906331, "fusion_lon": 0.0, "fusion_lat": 0.0, "type": "electric_scooter", "name": "98d457a11a8aded1685795aa9cc53564", "is_disabled": 0, "rental_uris": {"ios": "https://dc.lft.to/lastmile_qr_scan", "android": "https://dc.lft.to/lastmile_qr_scan"}, "is_reserved": 0}, {"lon": -77.0012755, "bike_id": "82802448e1412f0e00792a9ca66feb41", "lat": 38.87815883333333, "fusion_lon": 0.0, "fusion_lat": 0.0, "type": "electric_scooter", "name": "82802448e1412f0e00792a9ca66feb41", "is_disabled": 0, "rental_uris": {"ios": "https://dc.lft.to/lastmile_qr_scan", "android": "https://dc.lft.to/lastmile_qr_scan"}, "is_reserved": 0}, {"lon": -77.0270915, "bike_id": "5dc12a94eac656cd03b11fc6a6cb1d7d", "lat": 38.9498395, "fusion_lon": 0.0, "fusion_lat": 0.0, "type": "electric_scooter", "name": "5dc12a94eac656cd03b11fc6a6cb1d7d", "is_disabled": 0, "rental_uris": {"ios": "https://dc.lft.to/lastmile_qr_scan", "android": "https://dc.lft.to/lastmile_qr_scan"}, "is_reserved": 0}, {"lon": -76.94618966666667, "bike_id": "bb9337831df15b5f92a8a61154ca2f5d", "lat": 38.832331833333335, "fusion_lon": 0.0, "fusion_lat": 0.0, "type": "electric_bike", "name": "bb9337831df15b5f92a8a61154ca2f5d", "is_disabled": 0, "rental_uris": {"ios": "https://dc.lft.to/lastmile_qr_scan", "android": "https://dc.lft.to/lastmile_qr_scan"}, "is_reserved": 0}, {"lon": -77.0178415, "bike_id": "b42dda2a56c4c8526ec6cfc2394829e0", "lat": 38.920433833333334, "fusion_lon": 0.0, "fusion_lat": 0.0, "type": "electric_scooter", "name": "b42dda2a56c4c8526ec6cfc2394829e0", "is_disabled": 0, "rental_uris": {"ios": "https://dc.lft.to/lastmile_qr_scan", "android": "https://dc.lft.to/lastmile_qr_scan"}, "is_reserved": 0}, {"lon": -77.02958066666666, "bike_id": "36d14043f1b953c21aa4946e1940311a", "lat": 38.896353, "fusion_lon": 0.0, "fusion_lat": 0.0, "type": "electric_scooter", "name": "36d14043f1b953c21aa4946e1940311a", "is_disabled": 0, "rental_uris": {"ios": "https://dc.lft.to/lastmile_qr_scan", "android": "https://dc.lft.to/lastmile_qr_scan"}, "is_reserved": 0}, {"lon": -77.03215266666666, "bike_id": "55ec8d6f4a1c9bbd009760864d54982b", "lat": 38.936119833333336, "fusion_lon": 0.0, "fusion_lat": 0.0, "type": "electric_scooter", "name": "55ec8d6f4a1c9bbd009760864d54982b", "is_disabled": 0, "rental_uris": {"ios": "https://dc.lft.to/lastmile_qr_scan", "android": "https://dc.lft.to/lastmile_qr_scan"}, "is_reserved": 0}, {"lon": -77.03239033333334, "bike_id": "489cacdf141675b8f562fd5b928f216c", "lat": 38.9287585, "fusion_lon": 0.0, "fusion_lat": 0.0, "type": "electric_scooter", "name": "489cacdf141675b8f562fd5b928f216c", "is_disabled": 0, "rental_uris": {"ios": "https://dc.lft.to/lastmile_qr_scan", "android": "https://dc.lft.to/lastmile_qr_scan"}, "is_reserved": 0}, {"lon": -77.03799316666667, "bike_id": "93a5afaf9df3da52d83e8485e3343845", "lat": 38.9103335, "fusion_lon": 0.0, "fusion_lat": 0.0, "type": "electric_scooter", "name": "93a5afaf9df3da52d83e8485e3343845", "is_disabled": 0, "rental_uris": {"ios": "https://dc.lft.to/lastmile_qr_scan", "android": "https://dc.lft.to/lastmile_qr_scan"}, "is_reserved": 0}, {"lon": -77.06061533333333, "bike_id": "943b45fcc222fc4d6643955ec3160a4f", "lat": 38.808563, "fusion_lon": 0.0, "fusion_lat": 0.0, "type": "electric_bike", "name": "943b45fcc222fc4d6643955ec3160a4f", "is_disabled": 0, "rental_uris": {"ios": "https://dc.lft.to/lastmile_qr_scan", "android": "https://dc.lft.to/lastmile_qr_scan"}, "is_reserved": 0}, {"lon": -77.0020805, "bike_id": "9fff219d70f2a2c11062ba9f78af8bb2", "lat": 38.90233083333333, "fusion_lon": 0.0, "fusion_lat": 0.0, "type": "electric_scooter", "name": "9fff219d70f2a2c11062ba9f78af8bb2", "is_disabled": 0, "rental_uris": {"ios": "https://dc.lft.to/lastmile_qr_scan", "android": "https://dc.lft.to/lastmile_qr_scan"}, "is_reserved": 0}, {"lon": -77.05032883333334, "bike_id": "c03c6a4749df79de17c2ee78af694bdf", "lat": 38.900449, "fusion_lon": 0.0, "fusion_lat": 0.0, "type": "electric_scooter", "name": "c03c6a4749df79de17c2ee78af694bdf", "is_disabled": 0, "rental_uris": {"ios": "https://dc.lft.to/lastmile_qr_scan", "android": "https://dc.lft.to/lastmile_qr_scan"}, "is_reserved": 0}, {"lon": -77.0265285, "bike_id": "c63a97a0cbbae9fbc93b883c85ad9d1a", "lat": 38.927765666666666, "fusion_lon": 0.0, "fusion_lat": 0.0, "type": "electric_scooter", "name": "c63a97a0cbbae9fbc93b883c85ad9d1a", "is_disabled": 0, "rental_uris": {"ios": "https://dc.lft.to/lastmile_qr_scan", "android": "https://dc.lft.to/lastmile_qr_scan"}, "is_reserved": 0}, {"lon": -77.03204116666667, "bike_id": "545df245082b11384bf482e93cf19565", "lat": 38.94402216666667, "fusion_lon": 0.0, "fusion_lat": 0.0, "type": "electric_scooter", "name": "545df245082b11384bf482e93cf19565", "is_disabled": 0, "rental_uris": {"ios": "https://dc.lft.to/lastmile_qr_scan", "android": "https://dc.lft.to/lastmile_qr_scan"}, "is_reserved": 0}, {"lon": -77.03161683333333, "bike_id": "7e56f0c3b04aec54985f5d20993cdfa6", "lat": 38.9154805, "fusion_lon": 0.0, "fusion_lat": 0.0, "type": "electric_scooter", "name": "7e56f0c3b04aec54985f5d20993cdfa6", "is_disabled": 0, "rental_uris": {"ios": "https://dc.lft.to/lastmile_qr_scan", "android": "https://dc.lft.to/lastmile_qr_scan"}, "is_reserved": 0}, {"lon": -77.032742, "bike_id": "431be4b34dbfb5115fb3cd08ff929c89", "lat": 38.928788, "fusion_lon": 0.0, "fusion_lat": 0.0, "type": "electric_scooter", "name": "431be4b34dbfb5115fb3cd08ff929c89", "is_disabled": 0, "rental_uris": {"ios": "https://dc.lft.to/lastmile_qr_scan", "android": "https://dc.lft.to/lastmile_qr_scan"}, "is_reserved": 0}, {"lon": -77.00034083333334, "bike_id": "ef8af7497715a0ff10c2d4709f23e389", "lat": 38.967789, "fusion_lon": 0.0, "fusion_lat": 0.0, "type": "electric_bike", "name": "ef8af7497715a0ff10c2d4709f23e389", "is_disabled": 0, "rental_uris": {"ios": "https://dc.lft.to/lastmile_qr_scan", "android": "https://dc.lft.to/lastmile_qr_scan"}, "is_reserved": 0}, {"lon": -77.04557366666667, "bike_id": "464c2a2e4dd5aa27bc193567758a9503", "lat": 38.896128166666664, "fusion_lon": 0.0, "fusion_lat": 0.0, "type": "electric_scooter", "name": "464c2a2e4dd5aa27bc193567758a9503", "is_disabled": 0, "rental_uris": {"ios": "https://dc.lft.to/lastmile_qr_scan", "android": "https://dc.lft.to/lastmile_qr_scan"}, "is_reserved": 0}, {"lon": -77.03767533333334, "bike_id": "1f62137e231e486e9f5c07cc7cc871fe", "lat": 38.929420666666665, "fusion_lon": 0.0, "fusion_lat": 0.0, "type": "electric_scooter", "name": "1f62137e231e486e9f5c07cc7cc871fe", "is_disabled": 0, "rental_uris": {"ios": "https://dc.lft.to/lastmile_qr_scan", "android": "https://dc.lft.to/lastmile_qr_scan"}, "is_reserved": 0}, {"lon": -77.03315283333333, "bike_id": "626204f52864b8e84a88f84f9e5162d5", "lat": 38.9012985, "fusion_lon": 0.0, "fusion_lat": 0.0, "type": "electric_scooter", "name": "626204f52864b8e84a88f84f9e5162d5", "is_disabled": 0, "rental_uris": {"ios": "https://dc.lft.to/lastmile_qr_scan", "android": "https://dc.lft.to/lastmile_qr_scan"}, "is_reserved": 0}, {"lon": -77.024585, "bike_id": "ab0c156893793181b5536f9cc9de138e", "lat": 38.937643333333334, "fusion_lon": 0.0, "fusion_lat": 0.0, "type": "electric_scooter", "name": "ab0c156893793181b5536f9cc9de138e", "is_disabled": 0, "rental_uris": {"ios": "https://dc.lft.to/lastmile_qr_scan", "android": "https://dc.lft.to/lastmile_qr_scan"}, "is_reserved": 0}, {"lon": -77.0196805, "bike_id": "715800659c097da33a1e1d03af13620a", "lat": 38.8837515, "fusion_lon": 0.0, "fusion_lat": 0.0, "type": "electric_scooter", "name": "715800659c097da33a1e1d03af13620a", "is_disabled": 0, "rental_uris": {"ios": "https://dc.lft.to/lastmile_qr_scan", "android": "https://dc.lft.to/lastmile_qr_scan"}, "is_reserved": 0}, {"lon": -76.9899875, "bike_id": "e7c53e329333b2f36a929f9fb1da4d0c", "lat": 38.865076333333334, "fusion_lon": 0.0, "fusion_lat": 0.0, "type": "electric_scooter", "name": "e7c53e329333b2f36a929f9fb1da4d0c", "is_disabled": 0, "rental_uris": {"ios": "https://dc.lft.to/lastmile_qr_scan", "android": "https://dc.lft.to/lastmile_qr_scan"}, "is_reserved": 0}, {"lon": -77.02454733333333, "bike_id": "57bc4f49763fbc6c965042d6b4ab312f", "lat": 38.938286833333336, "fusion_lon": 0.0, "fusion_lat": 0.0, "type": "electric_scooter", "name": "57bc4f49763fbc6c965042d6b4ab312f", "is_disabled": 0, "rental_uris": {"ios": "https://dc.lft.to/lastmile_qr_scan", "android": "https://dc.lft.to/lastmile_qr_scan"}, "is_reserved": 0}, {"lon": -76.99368266666667, "bike_id": "08e3cc2f6e9a5f000064c17339240599", "lat": 38.879704333333336, "fusion_lon": 0.0, "fusion_lat": 0.0, "type": "electric_scooter", "name": "08e3cc2f6e9a5f000064c17339240599", "is_disabled": 0, "rental_uris": {"ios": "https://dc.lft.to/lastmile_qr_scan", "android": "https://dc.lft.to/lastmile_qr_scan"}, "is_reserved": 0}, {"lon": -76.99812333333334, "bike_id": "48a8de508cfcc7bcbbe2c81464a29237", "lat": 38.90025766666667, "fusion_lon": 0.0, "fusion_lat": 0.0, "type": "electric_scooter", "name": "48a8de508cfcc7bcbbe2c81464a29237", "is_disabled": 0, "rental_uris": {"ios": "https://dc.lft.to/lastmile_qr_scan", "android": "https://dc.lft.to/lastmile_qr_scan"}, "is_reserved": 0}, {"lon": -77.0092475, "bike_id": "65b6ae4a1dcf091bb1411be7b1852441", "lat": 38.8961375, "fusion_lon": 0.0, "fusion_lat": 0.0, "type": "electric_scooter", "name": "65b6ae4a1dcf091bb1411be7b1852441", "is_disabled": 0, "rental_uris": {"ios": "https://dc.lft.to/lastmile_qr_scan", "android": "https://dc.lft.to/lastmile_qr_scan"}, "is_reserved": 0}, {"lon": -77.02718466666667, "bike_id": "8bdf264064d68e411e588d3f046463c9", "lat": 38.89726483333333, "fusion_lon": 0.0, "fusion_lat": 0.0, "type": "electric_scooter", "name": "8bdf264064d68e411e588d3f046463c9", "is_disabled": 0, "rental_uris": {"ios": "https://dc.lft.to/lastmile_qr_scan", "android": "https://dc.lft.to/lastmile_qr_scan"}, "is_reserved": 0}, {"lon": -77.01939833333333, "bike_id": "a4b87ed5267f0376f7093bff51e88dac", "lat": 38.903138166666665, "fusion_lon": 0.0, "fusion_lat": 0.0, "type": "electric_scooter", "name": "a4b87ed5267f0376f7093bff51e88dac", "is_disabled": 0, "rental_uris": {"ios": "https://dc.lft.to/lastmile_qr_scan", "android": "https://dc.lft.to/lastmile_qr_scan"}, "is_reserved": 0}, {"lon": -77.0374305, "bike_id": "b0170d3ce0448d8ceca60e585f2ee965", "lat": 38.91799733333333, "fusion_lon": 0.0, "fusion_lat": 0.0, "type": "electric_scooter", "name": "b0170d3ce0448d8ceca60e585f2ee965", "is_disabled": 0, "rental_uris": {"ios": "https://dc.lft.to/lastmile_qr_scan", "android": "https://dc.lft.to/lastmile_qr_scan"}, "is_reserved": 0}, {"lon": -77.040184, "bike_id": "c3b12f0337a4f176ab3376ed5cffc4d2", "lat": 38.911059, "fusion_lon": 0.0, "fusion_lat": 0.0, "type": "electric_scooter", "name": "c3b12f0337a4f176ab3376ed5cffc4d2", "is_disabled": 0, "rental_uris": {"ios": "https://dc.lft.to/lastmile_qr_scan", "android": "https://dc.lft.to/lastmile_qr_scan"}, "is_reserved": 0}, {"lon": -77.073871, "bike_id": "2b47448cd55c59e319526c57a1afe302", "lat": 38.961772333333336, "fusion_lon": 0.0, "fusion_lat": 0.0, "type": "electric_bike", "name": "2b47448cd55c59e319526c57a1afe302", "is_disabled": 0, "rental_uris": {"ios": "https://dc.lft.to/lastmile_qr_scan", "android": "https://dc.lft.to/lastmile_qr_scan"}, "is_reserved": 0}, {"lon": -77.0284065, "bike_id": "7aca735a39c5057c01bce439b615e3b3", "lat": 38.925754166666664, "fusion_lon": 0.0, "fusion_lat": 0.0, "type": "electric_scooter", "name": "7aca735a39c5057c01bce439b615e3b3", "is_disabled": 0, "rental_uris": {"ios": "https://dc.lft.to/lastmile_qr_scan", "android": "https://dc.lft.to/lastmile_qr_scan"}, "is_reserved": 0}, {"lon": -76.929992, "bike_id": "784b66ced9f368add4d310d06a6c4b4c", "lat": 38.901824833333336, "fusion_lon": 0.0, "fusion_lat": 0.0, "type": "electric_scooter", "name": "784b66ced9f368add4d310d06a6c4b4c", "is_disabled": 0, "rental_uris": {"ios": "https://dc.lft.to/lastmile_qr_scan", "android": "https://dc.lft.to/lastmile_qr_scan"}, "is_reserved": 0}, {"lon": -77.03578066666667, "bike_id": "8c278b48bb1540764f6b0999d6ee35eb", "lat": 38.9177025, "fusion_lon": 0.0, "fusion_lat": 0.0, "type": "electric_scooter", "name": "8c278b48bb1540764f6b0999d6ee35eb", "is_disabled": 0, "rental_uris": {"ios": "https://dc.lft.to/lastmile_qr_scan", "android": "https://dc.lft.to/lastmile_qr_scan"}, "is_reserved": 0}, {"lon": -77.03211833333333, "bike_id": "c82995d0b88cb5205101421e8e91e8d2", "lat": 38.896284, "fusion_lon": 0.0, "fusion_lat": 0.0, "type": "electric_scooter", "name": "c82995d0b88cb5205101421e8e91e8d2", "is_disabled": 0, "rental_uris": {"ios": "https://dc.lft.to/lastmile_qr_scan", "android": "https://dc.lft.to/lastmile_qr_scan"}, "is_reserved": 0}, {"lon": -77.0670835, "bike_id": "6b8277ca36c50413adcf8afe10a96721", "lat": 38.91438016666667, "fusion_lon": 0.0, "fusion_lat": 0.0, "type": "electric_scooter", "name": "6b8277ca36c50413adcf8afe10a96721", "is_disabled": 0, "rental_uris": {"ios": "https://dc.lft.to/lastmile_qr_scan", "android": "https://dc.lft.to/lastmile_qr_scan"}, "is_reserved": 0}, {"lon": -77.0385915, "bike_id": "ae7b6171d1f644d2c39dd2a06244b184", "lat": 38.906548, "fusion_lon": 0.0, "fusion_lat": 0.0, "type": "electric_scooter", "name": "ae7b6171d1f644d2c39dd2a06244b184", "is_disabled": 0, "rental_uris": {"ios": "https://dc.lft.to/lastmile_qr_scan", "android": "https://dc.lft.to/lastmile_qr_scan"}, "is_reserved": 0}, {"lon": -77.01412183333333, "bike_id": "db22994fe45a02e0b54c3d4cf03de260", "lat": 38.92842016666667, "fusion_lon": 0.0, "fusion_lat": 0.0, "type": "electric_scooter", "name": "db22994fe45a02e0b54c3d4cf03de260", "is_disabled": 0, "rental_uris": {"ios": "https://dc.lft.to/lastmile_qr_scan", "android": "https://dc.lft.to/lastmile_qr_scan"}, "is_reserved": 0}, {"lon": -77.04329483333333, "bike_id": "dc8747db8eb96e2411c23425f7c64936", "lat": 38.902293, "fusion_lon": 0.0, "fusion_lat": 0.0, "type": "electric_scooter", "name": "dc8747db8eb96e2411c23425f7c64936", "is_disabled": 0, "rental_uris": {"ios": "https://dc.lft.to/lastmile_qr_scan", "android": "https://dc.lft.to/lastmile_qr_scan"}, "is_reserved": 0}, {"lon": -77.0184505, "bike_id": "0e2310af8ae5373a32f2550c124c249b", "lat": 38.914870666666665, "fusion_lon": 0.0, "fusion_lat": 0.0, "type": "electric_scooter", "name": "0e2310af8ae5373a32f2550c124c249b", "is_disabled": 0, "rental_uris": {"ios": "https://dc.lft.to/lastmile_qr_scan", "android": "https://dc.lft.to/lastmile_qr_scan"}, "is_reserved": 0}, {"lon": -77.03827466666667, "bike_id": "af846458140b25a8ad73978a8c81bf0c", "lat": 38.90670816666667, "fusion_lon": 0.0, "fusion_lat": 0.0, "type": "electric_scooter", "name": "af846458140b25a8ad73978a8c81bf0c", "is_disabled": 0, "rental_uris": {"ios": "https://dc.lft.to/lastmile_qr_scan", "android": "https://dc.lft.to/lastmile_qr_scan"}, "is_reserved": 0}, {"lon": -77.02758666666666, "bike_id": "17347737cf06fb0819e11eabccaba94b", "lat": 38.94406216666667, "fusion_lon": 0.0, "fusion_lat": 0.0, "type": "electric_scooter", "name": "17347737cf06fb0819e11eabccaba94b", "is_disabled": 0, "rental_uris": {"ios": "https://dc.lft.to/lastmile_qr_scan", "android": "https://dc.lft.to/lastmile_qr_scan"}, "is_reserved": 0}, {"lon": -77.02058566666666, "bike_id": "1d39e14ae998f56175212284f43815b6", "lat": 38.909614166666664, "fusion_lon": 0.0, "fusion_lat": 0.0, "type": "electric_scooter", "name": "1d39e14ae998f56175212284f43815b6", "is_disabled": 0, "rental_uris": {"ios": "https://dc.lft.to/lastmile_qr_scan", "android": "https://dc.lft.to/lastmile_qr_scan"}, "is_reserved": 0}, {"lon": -77.0455695, "bike_id": "e315daedfe839d0147e1673183b5b172", "lat": 38.915802666666664, "fusion_lon": 0.0, "fusion_lat": 0.0, "type": "electric_scooter", "name": "e315daedfe839d0147e1673183b5b172", "is_disabled": 0, "rental_uris": {"ios": "https://dc.lft.to/lastmile_qr_scan", "android": "https://dc.lft.to/lastmile_qr_scan"}, "is_reserved": 0}, {"lon": -77.02694566666666, "bike_id": "bab52d08aedb7b1ac905d621e7e9863f", "lat": 38.90676783333333, "fusion_lon": 0.0, "fusion_lat": 0.0, "type": "electric_scooter", "name": "bab52d08aedb7b1ac905d621e7e9863f", "is_disabled": 0, "rental_uris": {"ios": "https://dc.lft.to/lastmile_qr_scan", "android": "https://dc.lft.to/lastmile_qr_scan"}, "is_reserved": 0}, {"lon": -77.04646333333334, "bike_id": "19f32c3c41f005a598491b770abc094c", "lat": 38.915782166666666, "fusion_lon": 0.0, "fusion_lat": 0.0, "type": "electric_scooter", "name": "19f32c3c41f005a598491b770abc094c", "is_disabled": 0, "rental_uris": {"ios": "https://dc.lft.to/lastmile_qr_scan", "android": "https://dc.lft.to/lastmile_qr_scan"}, "is_reserved": 0}, {"lon": -77.05864433333333, "bike_id": "f1c5b5207cb51ab8be33422cfbc3cf6a", "lat": 38.936124666666664, "fusion_lon": 0.0, "fusion_lat": 0.0, "type": "electric_scooter", "name": "f1c5b5207cb51ab8be33422cfbc3cf6a", "is_disabled": 0, "rental_uris": {"ios": "https://dc.lft.to/lastmile_qr_scan", "android": "https://dc.lft.to/lastmile_qr_scan"}, "is_reserved": 0}, {"lon": -77.02476683333333, "bike_id": "2e2e7ce78f74f197e331e6842b6d0dfc", "lat": 38.90089566666666, "fusion_lon": 0.0, "fusion_lat": 0.0, "type": "electric_scooter", "name": "2e2e7ce78f74f197e331e6842b6d0dfc", "is_disabled": 0, "rental_uris": {"ios": "https://dc.lft.to/lastmile_qr_scan", "android": "https://dc.lft.to/lastmile_qr_scan"}, "is_reserved": 0}, {"lon": -77.03414416666666, "bike_id": "8489c962fc3356115e0e2abf1a7f1418", "lat": 38.92310333333333, "fusion_lon": 0.0, "fusion_lat": 0.0, "type": "electric_scooter", "name": "8489c962fc3356115e0e2abf1a7f1418", "is_disabled": 0, "rental_uris": {"ios": "https://dc.lft.to/lastmile_qr_scan", "android": "https://dc.lft.to/lastmile_qr_scan"}, "is_reserved": 0}, {"lon": -77.05266, "bike_id": "d67a72cb27015c1208e8f3dcf1254b40", "lat": 38.927694833333334, "fusion_lon": 0.0, "fusion_lat": 0.0, "type": "electric_scooter", "name": "d67a72cb27015c1208e8f3dcf1254b40", "is_disabled": 0, "rental_uris": {"ios": "https://dc.lft.to/lastmile_qr_scan", "android": "https://dc.lft.to/lastmile_qr_scan"}, "is_reserved": 0}, {"lon": -76.9782375, "bike_id": "d16fccca96ac55b4313bd3ad4c88558b", "lat": 38.8436925, "fusion_lon": 0.0, "fusion_lat": 0.0, "type": "electric_bike", "name": "d16fccca96ac55b4313bd3ad4c88558b", "is_disabled": 0, "rental_uris": {"ios": "https://dc.lft.to/lastmile_qr_scan", "android": "https://dc.lft.to/lastmile_qr_scan"}, "is_reserved": 0}, {"lon": -77.03313766666666, "bike_id": "b634b7fd722f3d8906e3788701d405be", "lat": 38.9216745, "fusion_lon": 0.0, "fusion_lat": 0.0, "type": "electric_scooter", "name": "b634b7fd722f3d8906e3788701d405be", "is_disabled": 0, "rental_uris": {"ios": "https://dc.lft.to/lastmile_qr_scan", "android": "https://dc.lft.to/lastmile_qr_scan"}, "is_reserved": 0}, {"lon": -77.03203716666667, "bike_id": "29e42e1df66dc021a339bbafbcd52b9c", "lat": 38.909494, "fusion_lon": 0.0, "fusion_lat": 0.0, "type": "electric_scooter", "name": "29e42e1df66dc021a339bbafbcd52b9c", "is_disabled": 0, "rental_uris": {"ios": "https://dc.lft.to/lastmile_qr_scan", "android": "https://dc.lft.to/lastmile_qr_scan"}, "is_reserved": 0}, {"lon": -77.009142, "bike_id": "8533bcf911e33935c069790410d171cd", "lat": 38.899787833333335, "fusion_lon": 0.0, "fusion_lat": 0.0, "type": "electric_scooter", "name": "8533bcf911e33935c069790410d171cd", "is_disabled": 0, "rental_uris": {"ios": "https://dc.lft.to/lastmile_qr_scan", "android": "https://dc.lft.to/lastmile_qr_scan"}, "is_reserved": 0}, {"lon": -77.03907733333334, "bike_id": "2a4a7dfb53b2e72552eb5c60e5669a19", "lat": 38.9142045, "fusion_lon": 0.0, "fusion_lat": 0.0, "type": "electric_scooter", "name": "2a4a7dfb53b2e72552eb5c60e5669a19", "is_disabled": 0, "rental_uris": {"ios": "https://dc.lft.to/lastmile_qr_scan", "android": "https://dc.lft.to/lastmile_qr_scan"}, "is_reserved": 0}, {"lon": -77.041734, "bike_id": "fa97bc6b490d8d601cb8c7452d0e5c91", "lat": 38.91395983333334, "fusion_lon": 0.0, "fusion_lat": 0.0, "type": "electric_scooter", "name": "fa97bc6b490d8d601cb8c7452d0e5c91", "is_disabled": 0, "rental_uris": {"ios": "https://dc.lft.to/lastmile_qr_scan", "android": "https://dc.lft.to/lastmile_qr_scan"}, "is_reserved": 0}, {"lon": -77.03228183333333, "bike_id": "a75a3da4a62017c54808b076c6c495d4", "lat": 38.9086905, "fusion_lon": 0.0, "fusion_lat": 0.0, "type": "electric_scooter", "name": "a75a3da4a62017c54808b076c6c495d4", "is_disabled": 0, "rental_uris": {"ios": "https://dc.lft.to/lastmile_qr_scan", "android": "https://dc.lft.to/lastmile_qr_scan"}, "is_reserved": 0}, {"lon": -77.08335333333333, "bike_id": "7f5679ff1e770f8865527f8f3bf5a47d", "lat": 38.85436983333334, "fusion_lon": 0.0, "fusion_lat": 0.0, "type": "electric_bike", "name": "7f5679ff1e770f8865527f8f3bf5a47d", "is_disabled": 0, "rental_uris": {"ios": "https://dc.lft.to/lastmile_qr_scan", "android": "https://dc.lft.to/lastmile_qr_scan"}, "is_reserved": 0}, {"lon": -77.0358755, "bike_id": "962062460428435f034a7ba9c344f1fa", "lat": 38.99219433333333, "fusion_lon": 0.0, "fusion_lat": 0.0, "type": "electric_scooter", "name": "962062460428435f034a7ba9c344f1fa", "is_disabled": 0, "rental_uris": {"ios": "https://dc.lft.to/lastmile_qr_scan", "android": "https://dc.lft.to/lastmile_qr_scan"}, "is_reserved": 0}, {"lon": -77.038468, "bike_id": "78c6d827d17e434812490f7050ac2565", "lat": 38.903954, "fusion_lon": 0.0, "fusion_lat": 0.0, "type": "electric_scooter", "name": "78c6d827d17e434812490f7050ac2565", "is_disabled": 0, "rental_uris": {"ios": "https://dc.lft.to/lastmile_qr_scan", "android": "https://dc.lft.to/lastmile_qr_scan"}, "is_reserved": 0}, {"lon": -77.025104, "bike_id": "962d880d79d067474a940f032746386f", "lat": 38.9042365, "fusion_lon": 0.0, "fusion_lat": 0.0, "type": "electric_scooter", "name": "962d880d79d067474a940f032746386f", "is_disabled": 0, "rental_uris": {"ios": "https://dc.lft.to/lastmile_qr_scan", "android": "https://dc.lft.to/lastmile_qr_scan"}, "is_reserved": 0}, {"lon": -77.0345665, "bike_id": "122bb9577c43c9794fb22e09eabac5eb", "lat": 38.90283016666667, "fusion_lon": 0.0, "fusion_lat": 0.0, "type": "electric_scooter", "name": "122bb9577c43c9794fb22e09eabac5eb", "is_disabled": 0, "rental_uris": {"ios": "https://dc.lft.to/lastmile_qr_scan", "android": "https://dc.lft.to/lastmile_qr_scan"}, "is_reserved": 0}, {"lon": -77.03464533333333, "bike_id": "b9da73398a9e1a4af3962907e8767ce6", "lat": 38.90563266666667, "fusion_lon": 0.0, "fusion_lat": 0.0, "type": "electric_scooter", "name": "b9da73398a9e1a4af3962907e8767ce6", "is_disabled": 0, "rental_uris": {"ios": "https://dc.lft.to/lastmile_qr_scan", "android": "https://dc.lft.to/lastmile_qr_scan"}, "is_reserved": 0}, {"lon": -76.99931283333333, "bike_id": "c26dee0a6b78912516ff26f25f4dd0be", "lat": 38.843153666666666, "fusion_lon": 0.0, "fusion_lat": 0.0, "type": "electric_scooter", "name": "c26dee0a6b78912516ff26f25f4dd0be", "is_disabled": 0, "rental_uris": {"ios": "https://dc.lft.to/lastmile_qr_scan", "android": "https://dc.lft.to/lastmile_qr_scan"}, "is_reserved": 0}, {"lon": -77.028436, "bike_id": "e04f4f8d859e94e4b6476febaab894df", "lat": 38.93410183333334, "fusion_lon": 0.0, "fusion_lat": 0.0, "type": "electric_scooter", "name": "e04f4f8d859e94e4b6476febaab894df", "is_disabled": 0, "rental_uris": {"ios": "https://dc.lft.to/lastmile_qr_scan", "android": "https://dc.lft.to/lastmile_qr_scan"}, "is_reserved": 0}, {"lon": -77.0515655, "bike_id": "90fce50b86a2253d597d9650a5ad3429", "lat": 38.927324, "fusion_lon": 0.0, "fusion_lat": 0.0, "type": "electric_scooter", "name": "90fce50b86a2253d597d9650a5ad3429", "is_disabled": 0, "rental_uris": {"ios": "https://dc.lft.to/lastmile_qr_scan", "android": "https://dc.lft.to/lastmile_qr_scan"}, "is_reserved": 0}, {"lon": -77.07455416666667, "bike_id": "68604b0d8c2b57974c22b6749aa8e507", "lat": 38.945104, "fusion_lon": 0.0, "fusion_lat": 0.0, "type": "electric_scooter", "name": "68604b0d8c2b57974c22b6749aa8e507", "is_disabled": 0, "rental_uris": {"ios": "https://dc.lft.to/lastmile_qr_scan", "android": "https://dc.lft.to/lastmile_qr_scan"}, "is_reserved": 0}, {"lon": -77.0271515, "bike_id": "036b41d4e8fad52b98956b4a6d734370", "lat": 38.90670516666667, "fusion_lon": 0.0, "fusion_lat": 0.0, "type": "electric_scooter", "name": "036b41d4e8fad52b98956b4a6d734370", "is_disabled": 0, "rental_uris": {"ios": "https://dc.lft.to/lastmile_qr_scan", "android": "https://dc.lft.to/lastmile_qr_scan"}, "is_reserved": 0}, {"lon": -77.125229, "bike_id": "90135bd3429c90b3ee2cae0a617843df", "lat": 39.056339333333334, "fusion_lon": 0.0, "fusion_lat": 0.0, "type": "electric_bike", "name": "90135bd3429c90b3ee2cae0a617843df", "is_disabled": 0, "rental_uris": {"ios": "https://dc.lft.to/lastmile_qr_scan", "android": "https://dc.lft.to/lastmile_qr_scan"}, "is_reserved": 0}, {"lon": -76.9373185, "bike_id": "796fd0cd5bb0b367aba12d49fa91dbf7", "lat": 38.89015116666667, "fusion_lon": 0.0, "fusion_lat": 0.0, "type": "electric_scooter", "name": "796fd0cd5bb0b367aba12d49fa91dbf7", "is_disabled": 0, "rental_uris": {"ios": "https://dc.lft.to/lastmile_qr_scan", "android": "https://dc.lft.to/lastmile_qr_scan"}, "is_reserved": 0}, {"lon": -77.01731366666667, "bike_id": "00e0e9940177f084ab1be87558b7f45a", "lat": 38.941939833333336, "fusion_lon": 0.0, "fusion_lat": 0.0, "type": "electric_scooter", "name": "00e0e9940177f084ab1be87558b7f45a", "is_disabled": 0, "rental_uris": {"ios": "https://dc.lft.to/lastmile_qr_scan", "android": "https://dc.lft.to/lastmile_qr_scan"}, "is_reserved": 0}, {"lon": -77.0343225, "bike_id": "7eef0265b1e465f21ad0e8bb6354451b", "lat": 38.9097025, "fusion_lon": 0.0, "fusion_lat": 0.0, "type": "electric_scooter", "name": "7eef0265b1e465f21ad0e8bb6354451b", "is_disabled": 0, "rental_uris": {"ios": "https://dc.lft.to/lastmile_qr_scan", "android": "https://dc.lft.to/lastmile_qr_scan"}, "is_reserved": 0}, {"lon": -77.013047, "bike_id": "e3f433ff325243f2f819a255bfd4eb63", "lat": 38.91413083333333, "fusion_lon": 0.0, "fusion_lat": 0.0, "type": "electric_scooter", "name": "e3f433ff325243f2f819a255bfd4eb63", "is_disabled": 0, "rental_uris": {"ios": "https://dc.lft.to/lastmile_qr_scan", "android": "https://dc.lft.to/lastmile_qr_scan"}, "is_reserved": 0}, {"lon": -77.01223033333333, "bike_id": "a5fb5d1f5d9f109a904bf61016e5e3b9", "lat": 38.915429333333336, "fusion_lon": 0.0, "fusion_lat": 0.0, "type": "electric_scooter", "name": "a5fb5d1f5d9f109a904bf61016e5e3b9", "is_disabled": 0, "rental_uris": {"ios": "https://dc.lft.to/lastmile_qr_scan", "android": "https://dc.lft.to/lastmile_qr_scan"}, "is_reserved": 0}, {"lon": -76.97735783333333, "bike_id": "01c1e75041119e341afb81e3db367e90", "lat": 38.864678833333336, "fusion_lon": 0.0, "fusion_lat": 0.0, "type": "electric_scooter", "name": "01c1e75041119e341afb81e3db367e90", "is_disabled": 0, "rental_uris": {"ios": "https://dc.lft.to/lastmile_qr_scan", "android": "https://dc.lft.to/lastmile_qr_scan"}, "is_reserved": 0}, {"lon": -76.98843416666666, "bike_id": "a60029128d21ffdabae60ae1e747073c", "lat": 38.901241666666664, "fusion_lon": 0.0, "fusion_lat": 0.0, "type": "electric_scooter", "name": "a60029128d21ffdabae60ae1e747073c", "is_disabled": 0, "rental_uris": {"ios": "https://dc.lft.to/lastmile_qr_scan", "android": "https://dc.lft.to/lastmile_qr_scan"}, "is_reserved": 0}, {"lon": -77.02985033333333, "bike_id": "c552ebf5d77ad46f8685e1c10b97d606", "lat": 38.9246835, "fusion_lon": 0.0, "fusion_lat": 0.0, "type": "electric_scooter", "name": "c552ebf5d77ad46f8685e1c10b97d606", "is_disabled": 0, "rental_uris": {"ios": "https://dc.lft.to/lastmile_qr_scan", "android": "https://dc.lft.to/lastmile_qr_scan"}, "is_reserved": 0}, {"lon": -76.99959566666666, "bike_id": "304b9c1f5b44f84faec8b6602f6cf1fc", "lat": 38.904082, "fusion_lon": 0.0, "fusion_lat": 0.0, "type": "electric_scooter", "name": "304b9c1f5b44f84faec8b6602f6cf1fc", "is_disabled": 0, "rental_uris": {"ios": "https://dc.lft.to/lastmile_qr_scan", "android": "https://dc.lft.to/lastmile_qr_scan"}, "is_reserved": 0}, {"lon": -77.012254, "bike_id": "3928fb7934c1d43c6a51290fe899d498", "lat": 38.916861833333336, "fusion_lon": 0.0, "fusion_lat": 0.0, "type": "electric_scooter", "name": "3928fb7934c1d43c6a51290fe899d498", "is_disabled": 0, "rental_uris": {"ios": "https://dc.lft.to/lastmile_qr_scan", "android": "https://dc.lft.to/lastmile_qr_scan"}, "is_reserved": 0}, {"lon": -77.02505733333334, "bike_id": "99b7dfc5a981e78cf4965755453d3e78", "lat": 38.92048783333333, "fusion_lon": 0.0, "fusion_lat": 0.0, "type": "electric_scooter", "name": "99b7dfc5a981e78cf4965755453d3e78", "is_disabled": 0, "rental_uris": {"ios": "https://dc.lft.to/lastmile_qr_scan", "android": "https://dc.lft.to/lastmile_qr_scan"}, "is_reserved": 0}, {"lon": -77.03552433333333, "bike_id": "42fa1fe49b1782264ca8c5e9f851889c", "lat": 38.924114833333334, "fusion_lon": 0.0, "fusion_lat": 0.0, "type": "electric_scooter", "name": "42fa1fe49b1782264ca8c5e9f851889c", "is_disabled": 0, "rental_uris": {"ios": "https://dc.lft.to/lastmile_qr_scan", "android": "https://dc.lft.to/lastmile_qr_scan"}, "is_reserved": 0}, {"lon": -77.0193625, "bike_id": "a106a9c16b70361de51094ad41e45f32", "lat": 38.89438633333333, "fusion_lon": 0.0, "fusion_lat": 0.0, "type": "electric_scooter", "name": "a106a9c16b70361de51094ad41e45f32", "is_disabled": 0, "rental_uris": {"ios": "https://dc.lft.to/lastmile_qr_scan", "android": "https://dc.lft.to/lastmile_qr_scan"}, "is_reserved": 0}, {"lon": -77.0280905, "bike_id": "f9965a4d81a1bf88592f2c8aa53b9d67", "lat": 38.93081166666666, "fusion_lon": 0.0, "fusion_lat": 0.0, "type": "electric_scooter", "name": "f9965a4d81a1bf88592f2c8aa53b9d67", "is_disabled": 0, "rental_uris": {"ios": "https://dc.lft.to/lastmile_qr_scan", "android": "https://dc.lft.to/lastmile_qr_scan"}, "is_reserved": 0}, {"lon": -77.044044, "bike_id": "47d7cad91cc07a65aa2545178d017dc7", "lat": 38.92950066666667, "fusion_lon": 0.0, "fusion_lat": 0.0, "type": "electric_scooter", "name": "47d7cad91cc07a65aa2545178d017dc7", "is_disabled": 0, "rental_uris": {"ios": "https://dc.lft.to/lastmile_qr_scan", "android": "https://dc.lft.to/lastmile_qr_scan"}, "is_reserved": 0}, {"lon": -76.996211, "bike_id": "788077aa21fdc68fdc948f50505d90ea", "lat": 38.883104833333334, "fusion_lon": 0.0, "fusion_lat": 0.0, "type": "electric_scooter", "name": "788077aa21fdc68fdc948f50505d90ea", "is_disabled": 0, "rental_uris": {"ios": "https://dc.lft.to/lastmile_qr_scan", "android": "https://dc.lft.to/lastmile_qr_scan"}, "is_reserved": 0}, {"lon": -77.04450866666667, "bike_id": "08178cb1571b2b5e18a3843d66ac3642", "lat": 38.919363833333335, "fusion_lon": 0.0, "fusion_lat": 0.0, "type": "electric_scooter", "name": "08178cb1571b2b5e18a3843d66ac3642", "is_disabled": 0, "rental_uris": {"ios": "https://dc.lft.to/lastmile_qr_scan", "android": "https://dc.lft.to/lastmile_qr_scan"}, "is_reserved": 0}, {"lon": -76.99566233333333, "bike_id": "41cfe9ac1d8ee24554aa0542c2925199", "lat": 38.85178783333333, "fusion_lon": 0.0, "fusion_lat": 0.0, "type": "electric_bike", "name": "41cfe9ac1d8ee24554aa0542c2925199", "is_disabled": 0, "rental_uris": {"ios": "https://dc.lft.to/lastmile_qr_scan", "android": "https://dc.lft.to/lastmile_qr_scan"}, "is_reserved": 0}, {"lon": -76.933681, "bike_id": "cfcb8e3d9cd91212794d6e00893ccbf3", "lat": 38.899093, "fusion_lon": 0.0, "fusion_lat": 0.0, "type": "electric_scooter", "name": "cfcb8e3d9cd91212794d6e00893ccbf3", "is_disabled": 0, "rental_uris": {"ios": "https://dc.lft.to/lastmile_qr_scan", "android": "https://dc.lft.to/lastmile_qr_scan"}, "is_reserved": 0}, {"lon": -77.0388425, "bike_id": "7d5ffe8cf6573e3e6b992465a49b7b24", "lat": 38.911071666666665, "fusion_lon": 0.0, "fusion_lat": 0.0, "type": "electric_scooter", "name": "7d5ffe8cf6573e3e6b992465a49b7b24", "is_disabled": 0, "rental_uris": {"ios": "https://dc.lft.to/lastmile_qr_scan", "android": "https://dc.lft.to/lastmile_qr_scan"}, "is_reserved": 0}, {"lon": -77.02155066666667, "bike_id": "682e34f93c142c815387ab820bfb4d09", "lat": 38.88735583333333, "fusion_lon": 0.0, "fusion_lat": 0.0, "type": "electric_scooter", "name": "682e34f93c142c815387ab820bfb4d09", "is_disabled": 0, "rental_uris": {"ios": "https://dc.lft.to/lastmile_qr_scan", "android": "https://dc.lft.to/lastmile_qr_scan"}, "is_reserved": 0}, {"lon": -77.05305583333333, "bike_id": "69a52d570c4ddf0e4b5059c05723db9e", "lat": 38.925503666666664, "fusion_lon": 0.0, "fusion_lat": 0.0, "type": "electric_scooter", "name": "69a52d570c4ddf0e4b5059c05723db9e", "is_disabled": 0, "rental_uris": {"ios": "https://dc.lft.to/lastmile_qr_scan", "android": "https://dc.lft.to/lastmile_qr_scan"}, "is_reserved": 0}, {"lon": -76.99811533333333, "bike_id": "a6136b60886fc4527dcd228265c0d481", "lat": 38.9003305, "fusion_lon": 0.0, "fusion_lat": 0.0, "type": "electric_scooter", "name": "a6136b60886fc4527dcd228265c0d481", "is_disabled": 0, "rental_uris": {"ios": "https://dc.lft.to/lastmile_qr_scan", "android": "https://dc.lft.to/lastmile_qr_scan"}, "is_reserved": 0}, {"lon": -77.02869083333333, "bike_id": "92109350fd76c6a31d43f8346ed9b468", "lat": 38.93268283333333, "fusion_lon": 0.0, "fusion_lat": 0.0, "type": "electric_scooter", "name": "92109350fd76c6a31d43f8346ed9b468", "is_disabled": 0, "rental_uris": {"ios": "https://dc.lft.to/lastmile_qr_scan", "android": "https://dc.lft.to/lastmile_qr_scan"}, "is_reserved": 0}, {"lon": -77.0415335, "bike_id": "7eb4b7dd73132e92e9968ba76d5ca841", "lat": 38.906184833333334, "fusion_lon": 0.0, "fusion_lat": 0.0, "type": "electric_bike", "name": "7eb4b7dd73132e92e9968ba76d5ca841", "is_disabled": 0, "rental_uris": {"ios": "https://dc.lft.to/lastmile_qr_scan", "android": "https://dc.lft.to/lastmile_qr_scan"}, "is_reserved": 0}, {"lon": -77.0296025, "bike_id": "8e295721b8366e63179ef3d1555e093a", "lat": 38.911750166666664, "fusion_lon": 0.0, "fusion_lat": 0.0, "type": "electric_scooter", "name": "8e295721b8366e63179ef3d1555e093a", "is_disabled": 0, "rental_uris": {"ios": "https://dc.lft.to/lastmile_qr_scan", "android": "https://dc.lft.to/lastmile_qr_scan"}, "is_reserved": 0}, {"lon": -76.98359983333333, "bike_id": "c27c15a05fdd397b400425405ba89afd", "lat": 38.861091, "fusion_lon": 0.0, "fusion_lat": 0.0, "type": "electric_scooter", "name": "c27c15a05fdd397b400425405ba89afd", "is_disabled": 0, "rental_uris": {"ios": "https://dc.lft.to/lastmile_qr_scan", "android": "https://dc.lft.to/lastmile_qr_scan"}, "is_reserved": 0}, {"lon": -76.93176783333334, "bike_id": "4463a2a267e41fbeb0b23a02794f191c", "lat": 38.89882083333333, "fusion_lon": 0.0, "fusion_lat": 0.0, "type": "electric_scooter", "name": "4463a2a267e41fbeb0b23a02794f191c", "is_disabled": 0, "rental_uris": {"ios": "https://dc.lft.to/lastmile_qr_scan", "android": "https://dc.lft.to/lastmile_qr_scan"}, "is_reserved": 0}, {"lon": -77.007207, "bike_id": "fb6579aa4bba3e5f49f5fb9b26ce282f", "lat": 38.909970666666666, "fusion_lon": 0.0, "fusion_lat": 0.0, "type": "electric_scooter", "name": "fb6579aa4bba3e5f49f5fb9b26ce282f", "is_disabled": 0, "rental_uris": {"ios": "https://dc.lft.to/lastmile_qr_scan", "android": "https://dc.lft.to/lastmile_qr_scan"}, "is_reserved": 0}, {"lon": -77.03755516666666, "bike_id": "0f286fceb7be4db8c9764dfa8a2efda6", "lat": 38.90771983333333, "fusion_lon": 0.0, "fusion_lat": 0.0, "type": "electric_scooter", "name": "0f286fceb7be4db8c9764dfa8a2efda6", "is_disabled": 0, "rental_uris": {"ios": "https://dc.lft.to/lastmile_qr_scan", "android": "https://dc.lft.to/lastmile_qr_scan"}, "is_reserved": 0}, {"lon": -77.06184483333334, "bike_id": "c71a54caf5799c7e538973ac69a699c5", "lat": 38.9026505, "fusion_lon": 0.0, "fusion_lat": 0.0, "type": "electric_scooter", "name": "c71a54caf5799c7e538973ac69a699c5", "is_disabled": 0, "rental_uris": {"ios": "https://dc.lft.to/lastmile_qr_scan", "android": "https://dc.lft.to/lastmile_qr_scan"}, "is_reserved": 0}, {"lon": -77.02725016666666, "bike_id": "8b2457ff5348cfa4387045804d3e1ea1", "lat": 38.951290666666665, "fusion_lon": 0.0, "fusion_lat": 0.0, "type": "electric_scooter", "name": "8b2457ff5348cfa4387045804d3e1ea1", "is_disabled": 0, "rental_uris": {"ios": "https://dc.lft.to/lastmile_qr_scan", "android": "https://dc.lft.to/lastmile_qr_scan"}, "is_reserved": 0}, {"lon": -76.9852235, "bike_id": "95f00e55226e03bdd7955e1c337d80c3", "lat": 38.866833666666665, "fusion_lon": 0.0, "fusion_lat": 0.0, "type": "electric_scooter", "name": "95f00e55226e03bdd7955e1c337d80c3", "is_disabled": 0, "rental_uris": {"ios": "https://dc.lft.to/lastmile_qr_scan", "android": "https://dc.lft.to/lastmile_qr_scan"}, "is_reserved": 0}, {"lon": -77.00958666666666, "bike_id": "062b078dcb3b1191528fc770f43aa5ea", "lat": 38.9533655, "fusion_lon": 0.0, "fusion_lat": 0.0, "type": "electric_bike", "name": "062b078dcb3b1191528fc770f43aa5ea", "is_disabled": 0, "rental_uris": {"ios": "https://dc.lft.to/lastmile_qr_scan", "android": "https://dc.lft.to/lastmile_qr_scan"}, "is_reserved": 0}, {"lon": -77.04783383333333, "bike_id": "93cb7cd7117b390887b046ea5b7c2fc8", "lat": 38.829503333333335, "fusion_lon": 0.0, "fusion_lat": 0.0, "type": "electric_bike", "name": "93cb7cd7117b390887b046ea5b7c2fc8", "is_disabled": 0, "rental_uris": {"ios": "https://dc.lft.to/lastmile_qr_scan", "android": "https://dc.lft.to/lastmile_qr_scan"}, "is_reserved": 0}, {"lon": -76.985834, "bike_id": "746cd81af6d11e115273d0482ca4285b", "lat": 38.86681316666667, "fusion_lon": 0.0, "fusion_lat": 0.0, "type": "electric_scooter", "name": "746cd81af6d11e115273d0482ca4285b", "is_disabled": 0, "rental_uris": {"ios": "https://dc.lft.to/lastmile_qr_scan", "android": "https://dc.lft.to/lastmile_qr_scan"}, "is_reserved": 0}, {"lon": -77.02727783333333, "bike_id": "e0473235482485313622fb6d6b799ed3", "lat": 38.951288, "fusion_lon": 0.0, "fusion_lat": 0.0, "type": "electric_scooter", "name": "e0473235482485313622fb6d6b799ed3", "is_disabled": 0, "rental_uris": {"ios": "https://dc.lft.to/lastmile_qr_scan", "android": "https://dc.lft.to/lastmile_qr_scan"}, "is_reserved": 0}, {"lon": -77.03954833333333, "bike_id": "3e9452d9d468a775181be114e1d90c80", "lat": 38.91546783333333, "fusion_lon": 0.0, "fusion_lat": 0.0, "type": "electric_scooter", "name": "3e9452d9d468a775181be114e1d90c80", "is_disabled": 0, "rental_uris": {"ios": "https://dc.lft.to/lastmile_qr_scan", "android": "https://dc.lft.to/lastmile_qr_scan"}, "is_reserved": 0}, {"lon": -77.029004, "bike_id": "c804b0f566c2e526434ebab3ada5c7a3", "lat": 38.916834, "fusion_lon": 0.0, "fusion_lat": 0.0, "type": "electric_scooter", "name": "c804b0f566c2e526434ebab3ada5c7a3", "is_disabled": 0, "rental_uris": {"ios": "https://dc.lft.to/lastmile_qr_scan", "android": "https://dc.lft.to/lastmile_qr_scan"}, "is_reserved": 0}, {"lon": -77.03374316666667, "bike_id": "fc80f29084abcf45c10d2da34741d333", "lat": 38.9215265, "fusion_lon": 0.0, "fusion_lat": 0.0, "type": "electric_scooter", "name": "fc80f29084abcf45c10d2da34741d333", "is_disabled": 0, "rental_uris": {"ios": "https://dc.lft.to/lastmile_qr_scan", "android": "https://dc.lft.to/lastmile_qr_scan"}, "is_reserved": 0}, {"lon": -77.11576583333333, "bike_id": "fd38234751b13e0e1bd92adaf3271e2a", "lat": 38.993435166666664, "fusion_lon": 0.0, "fusion_lat": 0.0, "type": "electric_bike", "name": "fd38234751b13e0e1bd92adaf3271e2a", "is_disabled": 0, "rental_uris": {"ios": "https://dc.lft.to/lastmile_qr_scan", "android": "https://dc.lft.to/lastmile_qr_scan"}, "is_reserved": 0}, {"lon": -77.02551466666667, "bike_id": "915e3401b37edd3a617b3b6dc04dc122", "lat": 38.909568166666666, "fusion_lon": 0.0, "fusion_lat": 0.0, "type": "electric_scooter", "name": "915e3401b37edd3a617b3b6dc04dc122", "is_disabled": 0, "rental_uris": {"ios": "https://dc.lft.to/lastmile_qr_scan", "android": "https://dc.lft.to/lastmile_qr_scan"}, "is_reserved": 0}, {"lon": -77.07386883333334, "bike_id": "c53558d700bf6d550cc6257c507ce36d", "lat": 38.962188166666664, "fusion_lon": 0.0, "fusion_lat": 0.0, "type": "electric_scooter", "name": "c53558d700bf6d550cc6257c507ce36d", "is_disabled": 0, "rental_uris": {"ios": "https://dc.lft.to/lastmile_qr_scan", "android": "https://dc.lft.to/lastmile_qr_scan"}, "is_reserved": 0}, {"lon": -77.04002633333333, "bike_id": "ba28034b8c7ba3341c9f6d672ee8b1e8", "lat": 38.91397166666667, "fusion_lon": 0.0, "fusion_lat": 0.0, "type": "electric_scooter", "name": "ba28034b8c7ba3341c9f6d672ee8b1e8", "is_disabled": 0, "rental_uris": {"ios": "https://dc.lft.to/lastmile_qr_scan", "android": "https://dc.lft.to/lastmile_qr_scan"}, "is_reserved": 0}, {"lon": -77.05158716666666, "bike_id": "38547e3647db6f477c6b3866fc2730c1", "lat": 39.043065, "fusion_lon": 0.0, "fusion_lat": 0.0, "type": "electric_bike", "name": "38547e3647db6f477c6b3866fc2730c1", "is_disabled": 0, "rental_uris": {"ios": "https://dc.lft.to/lastmile_qr_scan", "android": "https://dc.lft.to/lastmile_qr_scan"}, "is_reserved": 0}, {"lon": -76.982317, "bike_id": "db1c5c0e05cdb8a0429bc740ea77cde1", "lat": 38.886393, "fusion_lon": 0.0, "fusion_lat": 0.0, "type": "electric_scooter", "name": "db1c5c0e05cdb8a0429bc740ea77cde1", "is_disabled": 0, "rental_uris": {"ios": "https://dc.lft.to/lastmile_qr_scan", "android": "https://dc.lft.to/lastmile_qr_scan"}, "is_reserved": 0}, {"lon": -77.01220166666667, "bike_id": "1ce6faf130ae7efefa8fd98c327cee20", "lat": 38.91540833333333, "fusion_lon": 0.0, "fusion_lat": 0.0, "type": "electric_scooter", "name": "1ce6faf130ae7efefa8fd98c327cee20", "is_disabled": 0, "rental_uris": {"ios": "https://dc.lft.to/lastmile_qr_scan", "android": "https://dc.lft.to/lastmile_qr_scan"}, "is_reserved": 0}, {"lon": -77.10484233333334, "bike_id": "e992e90d5b77ca6061a0ef70939e96e0", "lat": 38.85604683333333, "fusion_lon": 0.0, "fusion_lat": 0.0, "type": "electric_bike", "name": "e992e90d5b77ca6061a0ef70939e96e0", "is_disabled": 0, "rental_uris": {"ios": "https://dc.lft.to/lastmile_qr_scan", "android": "https://dc.lft.to/lastmile_qr_scan"}, "is_reserved": 0}, {"lon": -77.0434015, "bike_id": "4ed64db8c608a6b2fdc29b519dc55519", "lat": 38.90131316666667, "fusion_lon": 0.0, "fusion_lat": 0.0, "type": "electric_scooter", "name": "4ed64db8c608a6b2fdc29b519dc55519", "is_disabled": 0, "rental_uris": {"ios": "https://dc.lft.to/lastmile_qr_scan", "android": "https://dc.lft.to/lastmile_qr_scan"}, "is_reserved": 0}, {"lon": -76.93003716666666, "bike_id": "4560ab19ee3d576abca29f231a4d7a88", "lat": 38.891989, "fusion_lon": 0.0, "fusion_lat": 0.0, "type": "electric_scooter", "name": "4560ab19ee3d576abca29f231a4d7a88", "is_disabled": 0, "rental_uris": {"ios": "https://dc.lft.to/lastmile_qr_scan", "android": "https://dc.lft.to/lastmile_qr_scan"}, "is_reserved": 0}, {"lon": -77.03832166666666, "bike_id": "a33d01dafb85ab13b52c5cab9a6a4024", "lat": 38.911189, "fusion_lon": 0.0, "fusion_lat": 0.0, "type": "electric_scooter", "name": "a33d01dafb85ab13b52c5cab9a6a4024", "is_disabled": 0, "rental_uris": {"ios": "https://dc.lft.to/lastmile_qr_scan", "android": "https://dc.lft.to/lastmile_qr_scan"}, "is_reserved": 0}, {"lon": -76.982136, "bike_id": "9921f38bff1493b1fd6a6faea4d04337", "lat": 38.866552166666665, "fusion_lon": 0.0, "fusion_lat": 0.0, "type": "electric_scooter", "name": "9921f38bff1493b1fd6a6faea4d04337", "is_disabled": 0, "rental_uris": {"ios": "https://dc.lft.to/lastmile_qr_scan", "android": "https://dc.lft.to/lastmile_qr_scan"}, "is_reserved": 0}, {"lon": -77.0317465, "bike_id": "8be08251924dd3b1ce00e945d78b7ce6", "lat": 38.936916, "fusion_lon": 0.0, "fusion_lat": 0.0, "type": "electric_scooter", "name": "8be08251924dd3b1ce00e945d78b7ce6", "is_disabled": 0, "rental_uris": {"ios": "https://dc.lft.to/lastmile_qr_scan", "android": "https://dc.lft.to/lastmile_qr_scan"}, "is_reserved": 0}, {"lon": -77.05695716666666, "bike_id": "3878ecd49d6c22999d123017102269c5", "lat": 38.937127, "fusion_lon": 0.0, "fusion_lat": 0.0, "type": "electric_scooter", "name": "3878ecd49d6c22999d123017102269c5", "is_disabled": 0, "rental_uris": {"ios": "https://dc.lft.to/lastmile_qr_scan", "android": "https://dc.lft.to/lastmile_qr_scan"}, "is_reserved": 0}, {"lon": -76.99526716666666, "bike_id": "fd1af7af2d2cb5e4b3c268990ef36ae6", "lat": 38.883676666666666, "fusion_lon": 0.0, "fusion_lat": 0.0, "type": "electric_scooter", "name": "fd1af7af2d2cb5e4b3c268990ef36ae6", "is_disabled": 0, "rental_uris": {"ios": "https://dc.lft.to/lastmile_qr_scan", "android": "https://dc.lft.to/lastmile_qr_scan"}, "is_reserved": 0}, {"lon": -77.0572935, "bike_id": "b89711abdab3b0d0234f61926e7cf6b9", "lat": 38.933555, "fusion_lon": 0.0, "fusion_lat": 0.0, "type": "electric_scooter", "name": "b89711abdab3b0d0234f61926e7cf6b9", "is_disabled": 0, "rental_uris": {"ios": "https://dc.lft.to/lastmile_qr_scan", "android": "https://dc.lft.to/lastmile_qr_scan"}, "is_reserved": 0}, {"lon": -77.01208533333333, "bike_id": "19b6add4e7a4c2d8564e3b5c6e60a83c", "lat": 38.92115833333333, "fusion_lon": 0.0, "fusion_lat": 0.0, "type": "electric_scooter", "name": "19b6add4e7a4c2d8564e3b5c6e60a83c", "is_disabled": 0, "rental_uris": {"ios": "https://dc.lft.to/lastmile_qr_scan", "android": "https://dc.lft.to/lastmile_qr_scan"}, "is_reserved": 0}, {"lon": -77.04157466666666, "bike_id": "42fa6455c3cbef5c17aa056d45d32595", "lat": 38.914187, "fusion_lon": 0.0, "fusion_lat": 0.0, "type": "electric_scooter", "name": "42fa6455c3cbef5c17aa056d45d32595", "is_disabled": 0, "rental_uris": {"ios": "https://dc.lft.to/lastmile_qr_scan", "android": "https://dc.lft.to/lastmile_qr_scan"}, "is_reserved": 0}, {"lon": -76.9810955, "bike_id": "cbe6ecc8bcf7b6c3fd8bc5722edf7748", "lat": 38.914732, "fusion_lon": 0.0, "fusion_lat": 0.0, "type": "electric_scooter", "name": "cbe6ecc8bcf7b6c3fd8bc5722edf7748", "is_disabled": 0, "rental_uris": {"ios": "https://dc.lft.to/lastmile_qr_scan", "android": "https://dc.lft.to/lastmile_qr_scan"}, "is_reserved": 0}, {"lon": -77.00065383333333, "bike_id": "206f7a584c7be718b5fc39553673bcd0", "lat": 38.89492466666667, "fusion_lon": 0.0, "fusion_lat": 0.0, "type": "electric_scooter", "name": "206f7a584c7be718b5fc39553673bcd0", "is_disabled": 0, "rental_uris": {"ios": "https://dc.lft.to/lastmile_qr_scan", "android": "https://dc.lft.to/lastmile_qr_scan"}, "is_reserved": 0}, {"lon": -77.04273733333333, "bike_id": "7aae2bd383040536b4e9777acb602baa", "lat": 38.90722616666667, "fusion_lon": 0.0, "fusion_lat": 0.0, "type": "electric_scooter", "name": "7aae2bd383040536b4e9777acb602baa", "is_disabled": 0, "rental_uris": {"ios": "https://dc.lft.to/lastmile_qr_scan", "android": "https://dc.lft.to/lastmile_qr_scan"}, "is_reserved": 0}, {"lon": -77.0433445, "bike_id": "18ddcc5a1a52460a00a6672e3567f6be", "lat": 38.922165, "fusion_lon": 0.0, "fusion_lat": 0.0, "type": "electric_scooter", "name": "18ddcc5a1a52460a00a6672e3567f6be", "is_disabled": 0, "rental_uris": {"ios": "https://dc.lft.to/lastmile_qr_scan", "android": "https://dc.lft.to/lastmile_qr_scan"}, "is_reserved": 0}, {"lon": -77.1114465, "bike_id": "8c68886331be89b2326b3ec4495e4476", "lat": 38.85511116666667, "fusion_lon": 0.0, "fusion_lat": 0.0, "type": "electric_bike", "name": "8c68886331be89b2326b3ec4495e4476", "is_disabled": 0, "rental_uris": {"ios": "https://dc.lft.to/lastmile_qr_scan", "android": "https://dc.lft.to/lastmile_qr_scan"}, "is_reserved": 0}, {"lon": -77.021179, "bike_id": "bea9d93311dfe19a93d0cd79e47d06af", "lat": 38.915800833333336, "fusion_lon": 0.0, "fusion_lat": 0.0, "type": "electric_scooter", "name": "bea9d93311dfe19a93d0cd79e47d06af", "is_disabled": 0, "rental_uris": {"ios": "https://dc.lft.to/lastmile_qr_scan", "android": "https://dc.lft.to/lastmile_qr_scan"}, "is_reserved": 0}, {"lon": -77.05055983333334, "bike_id": "cf95ed8e06a7ab8b11b5421550eba54d", "lat": 38.9236055, "fusion_lon": 0.0, "fusion_lat": 0.0, "type": "electric_scooter", "name": "cf95ed8e06a7ab8b11b5421550eba54d", "is_disabled": 0, "rental_uris": {"ios": "https://dc.lft.to/lastmile_qr_scan", "android": "https://dc.lft.to/lastmile_qr_scan"}, "is_reserved": 0}, {"lon": -77.038578, "bike_id": "c0ed9057c8055e2924e0ecf0128219ac", "lat": 38.91782033333333, "fusion_lon": 0.0, "fusion_lat": 0.0, "type": "electric_scooter", "name": "c0ed9057c8055e2924e0ecf0128219ac", "is_disabled": 0, "rental_uris": {"ios": "https://dc.lft.to/lastmile_qr_scan", "android": "https://dc.lft.to/lastmile_qr_scan"}, "is_reserved": 0}, {"lon": -77.03820083333333, "bike_id": "6a385a26d68e47f8f0627abcbc67ce9b", "lat": 38.91039766666667, "fusion_lon": 0.0, "fusion_lat": 0.0, "type": "electric_scooter", "name": "6a385a26d68e47f8f0627abcbc67ce9b", "is_disabled": 0, "rental_uris": {"ios": "https://dc.lft.to/lastmile_qr_scan", "android": "https://dc.lft.to/lastmile_qr_scan"}, "is_reserved": 0}, {"lon": -76.99493683333333, "bike_id": "02cb37b186e675f06aa7c14b2bfde845", "lat": 38.86243366666667, "fusion_lon": 0.0, "fusion_lat": 0.0, "type": "electric_scooter", "name": "02cb37b186e675f06aa7c14b2bfde845", "is_disabled": 0, "rental_uris": {"ios": "https://dc.lft.to/lastmile_qr_scan", "android": "https://dc.lft.to/lastmile_qr_scan"}, "is_reserved": 0}, {"lon": -77.0253215, "bike_id": "5a63b4eaafddc50343b92801275c3187", "lat": 38.92107383333333, "fusion_lon": 0.0, "fusion_lat": 0.0, "type": "electric_bike", "name": "5a63b4eaafddc50343b92801275c3187", "is_disabled": 0, "rental_uris": {"ios": "https://dc.lft.to/lastmile_qr_scan", "android": "https://dc.lft.to/lastmile_qr_scan"}, "is_reserved": 0}, {"lon": -77.01941316666667, "bike_id": "eb10f58b2738d0e7d40e7b8b8fdd8858", "lat": 38.936781333333336, "fusion_lon": 0.0, "fusion_lat": 0.0, "type": "electric_scooter", "name": "eb10f58b2738d0e7d40e7b8b8fdd8858", "is_disabled": 0, "rental_uris": {"ios": "https://dc.lft.to/lastmile_qr_scan", "android": "https://dc.lft.to/lastmile_qr_scan"}, "is_reserved": 0}, {"lon": -76.97626366666667, "bike_id": "fb601da5626a3501961ac96e8a44e8ea", "lat": 38.9057155, "fusion_lon": 0.0, "fusion_lat": 0.0, "type": "electric_scooter", "name": "fb601da5626a3501961ac96e8a44e8ea", "is_disabled": 0, "rental_uris": {"ios": "https://dc.lft.to/lastmile_qr_scan", "android": "https://dc.lft.to/lastmile_qr_scan"}, "is_reserved": 0}, {"lon": -77.0526965, "bike_id": "63283c2639de297b2a461386dda4ce16", "lat": 38.89969583333333, "fusion_lon": 0.0, "fusion_lat": 0.0, "type": "electric_scooter", "name": "63283c2639de297b2a461386dda4ce16", "is_disabled": 0, "rental_uris": {"ios": "https://dc.lft.to/lastmile_qr_scan", "android": "https://dc.lft.to/lastmile_qr_scan"}, "is_reserved": 0}, {"lon": -76.9854115, "bike_id": "9558199c3b752ae4a2f330e76661d146", "lat": 38.89652316666667, "fusion_lon": 0.0, "fusion_lat": 0.0, "type": "electric_scooter", "name": "9558199c3b752ae4a2f330e76661d146", "is_disabled": 0, "rental_uris": {"ios": "https://dc.lft.to/lastmile_qr_scan", "android": "https://dc.lft.to/lastmile_qr_scan"}, "is_reserved": 0}, {"lon": -77.03294066666666, "bike_id": "2d59e6f44ce62b502930e78f2628a7d4", "lat": 38.92546383333333, "fusion_lon": 0.0, "fusion_lat": 0.0, "type": "electric_scooter", "name": "2d59e6f44ce62b502930e78f2628a7d4", "is_disabled": 0, "rental_uris": {"ios": "https://dc.lft.to/lastmile_qr_scan", "android": "https://dc.lft.to/lastmile_qr_scan"}, "is_reserved": 0}, {"lon": -77.04163116666666, "bike_id": "cde5fce8295e9a0e1140b3ae55fafb9c", "lat": 38.9124565, "fusion_lon": 0.0, "fusion_lat": 0.0, "type": "electric_scooter", "name": "cde5fce8295e9a0e1140b3ae55fafb9c", "is_disabled": 0, "rental_uris": {"ios": "https://dc.lft.to/lastmile_qr_scan", "android": "https://dc.lft.to/lastmile_qr_scan"}, "is_reserved": 0}, {"lon": -77.0477225, "bike_id": "621fa6214e8c12f7a798c0b7f6a3b150", "lat": 38.92133583333333, "fusion_lon": 0.0, "fusion_lat": 0.0, "type": "electric_scooter", "name": "621fa6214e8c12f7a798c0b7f6a3b150", "is_disabled": 0, "rental_uris": {"ios": "https://dc.lft.to/lastmile_qr_scan", "android": "https://dc.lft.to/lastmile_qr_scan"}, "is_reserved": 0}, {"lon": -76.930577, "bike_id": "5c9a0725c41ee1ae4c2dea65bdc6abb8", "lat": 38.90153016666667, "fusion_lon": 0.0, "fusion_lat": 0.0, "type": "electric_scooter", "name": "5c9a0725c41ee1ae4c2dea65bdc6abb8", "is_disabled": 0, "rental_uris": {"ios": "https://dc.lft.to/lastmile_qr_scan", "android": "https://dc.lft.to/lastmile_qr_scan"}, "is_reserved": 0}, {"lon": -76.99016133333333, "bike_id": "f951fcd6dfd74ca8bd8412f0dd4e77dc", "lat": 38.866392833333336, "fusion_lon": 0.0, "fusion_lat": 0.0, "type": "electric_scooter", "name": "f951fcd6dfd74ca8bd8412f0dd4e77dc", "is_disabled": 0, "rental_uris": {"ios": "https://dc.lft.to/lastmile_qr_scan", "android": "https://dc.lft.to/lastmile_qr_scan"}, "is_reserved": 0}, {"lon": -77.05182966666666, "bike_id": "547ee0a58f3d4d3effa3f75cc001ff17", "lat": 38.899611166666666, "fusion_lon": 0.0, "fusion_lat": 0.0, "type": "electric_scooter", "name": "547ee0a58f3d4d3effa3f75cc001ff17", "is_disabled": 0, "rental_uris": {"ios": "https://dc.lft.to/lastmile_qr_scan", "android": "https://dc.lft.to/lastmile_qr_scan"}, "is_reserved": 0}, {"lon": -77.02230633333333, "bike_id": "9688bb270c21fe5e2da7b8e10287e3ee", "lat": 38.956838166666664, "fusion_lon": 0.0, "fusion_lat": 0.0, "type": "electric_bike", "name": "9688bb270c21fe5e2da7b8e10287e3ee", "is_disabled": 0, "rental_uris": {"ios": "https://dc.lft.to/lastmile_qr_scan", "android": "https://dc.lft.to/lastmile_qr_scan"}, "is_reserved": 0}, {"lon": -77.034309, "bike_id": "eb67e4d737dabb62e1c9a932ab7dfb68", "lat": 38.9096865, "fusion_lon": 0.0, "fusion_lat": 0.0, "type": "electric_scooter", "name": "eb67e4d737dabb62e1c9a932ab7dfb68", "is_disabled": 0, "rental_uris": {"ios": "https://dc.lft.to/lastmile_qr_scan", "android": "https://dc.lft.to/lastmile_qr_scan"}, "is_reserved": 0}, {"lon": -77.01939, "bike_id": "bb458a7f0127498848d067fbde76fc2f", "lat": 38.935245333333334, "fusion_lon": 0.0, "fusion_lat": 0.0, "type": "electric_scooter", "name": "bb458a7f0127498848d067fbde76fc2f", "is_disabled": 0, "rental_uris": {"ios": "https://dc.lft.to/lastmile_qr_scan", "android": "https://dc.lft.to/lastmile_qr_scan"}, "is_reserved": 0}, {"lon": -77.02498083333333, "bike_id": "f93c2acfa8d90e4ecd7bf6e853811b5e", "lat": 38.920800166666666, "fusion_lon": 0.0, "fusion_lat": 0.0, "type": "electric_scooter", "name": "f93c2acfa8d90e4ecd7bf6e853811b5e", "is_disabled": 0, "rental_uris": {"ios": "https://dc.lft.to/lastmile_qr_scan", "android": "https://dc.lft.to/lastmile_qr_scan"}, "is_reserved": 0}, {"lon": -76.99529416666667, "bike_id": "6e6edb19c44fba34604fb22998a54e26", "lat": 38.8837075, "fusion_lon": 0.0, "fusion_lat": 0.0, "type": "electric_scooter", "name": "6e6edb19c44fba34604fb22998a54e26", "is_disabled": 0, "rental_uris": {"ios": "https://dc.lft.to/lastmile_qr_scan", "android": "https://dc.lft.to/lastmile_qr_scan"}, "is_reserved": 0}, {"lon": -77.032055, "bike_id": "95aaae0b0b28d00aad827819c1d3260e", "lat": 38.919201666666666, "fusion_lon": 0.0, "fusion_lat": 0.0, "type": "electric_scooter", "name": "95aaae0b0b28d00aad827819c1d3260e", "is_disabled": 0, "rental_uris": {"ios": "https://dc.lft.to/lastmile_qr_scan", "android": "https://dc.lft.to/lastmile_qr_scan"}, "is_reserved": 0}, {"lon": -76.9983565, "bike_id": "ed915e492b2e3dc7c6dc0ad9befdb58d", "lat": 38.90492416666667, "fusion_lon": 0.0, "fusion_lat": 0.0, "type": "electric_scooter", "name": "ed915e492b2e3dc7c6dc0ad9befdb58d", "is_disabled": 0, "rental_uris": {"ios": "https://dc.lft.to/lastmile_qr_scan", "android": "https://dc.lft.to/lastmile_qr_scan"}, "is_reserved": 0}, {"lon": -77.02777116666667, "bike_id": "6283a8b86fc0273c8f3b5007c21f2c7e", "lat": 38.91692233333333, "fusion_lon": 0.0, "fusion_lat": 0.0, "type": "electric_scooter", "name": "6283a8b86fc0273c8f3b5007c21f2c7e", "is_disabled": 0, "rental_uris": {"ios": "https://dc.lft.to/lastmile_qr_scan", "android": "https://dc.lft.to/lastmile_qr_scan"}, "is_reserved": 0}, {"lon": -77.0064745, "bike_id": "e60f0bab3e6a90b577dd86b94665680c", "lat": 38.92608083333333, "fusion_lon": 0.0, "fusion_lat": 0.0, "type": "electric_scooter", "name": "e60f0bab3e6a90b577dd86b94665680c", "is_disabled": 0, "rental_uris": {"ios": "https://dc.lft.to/lastmile_qr_scan", "android": "https://dc.lft.to/lastmile_qr_scan"}, "is_reserved": 0}, {"lon": -77.01681816666667, "bike_id": "2a4d868bc72ef7f7e95546c5e434e080", "lat": 38.903489666666665, "fusion_lon": 0.0, "fusion_lat": 0.0, "type": "electric_scooter", "name": "2a4d868bc72ef7f7e95546c5e434e080", "is_disabled": 0, "rental_uris": {"ios": "https://dc.lft.to/lastmile_qr_scan", "android": "https://dc.lft.to/lastmile_qr_scan"}, "is_reserved": 0}, {"lon": -76.97478166666667, "bike_id": "a7e2cfa666f8472ddc76d6d43d7d59d2", "lat": 38.90347583333333, "fusion_lon": 0.0, "fusion_lat": 0.0, "type": "electric_scooter", "name": "a7e2cfa666f8472ddc76d6d43d7d59d2", "is_disabled": 0, "rental_uris": {"ios": "https://dc.lft.to/lastmile_qr_scan", "android": "https://dc.lft.to/lastmile_qr_scan"}, "is_reserved": 0}, {"lon": -77.06511133333333, "bike_id": "63245a6c3169ba90e9f4cb9bb921cec9", "lat": 38.904020833333334, "fusion_lon": 0.0, "fusion_lat": 0.0, "type": "electric_scooter", "name": "63245a6c3169ba90e9f4cb9bb921cec9", "is_disabled": 0, "rental_uris": {"ios": "https://dc.lft.to/lastmile_qr_scan", "android": "https://dc.lft.to/lastmile_qr_scan"}, "is_reserved": 0}, {"lon": -76.9907955, "bike_id": "17db0b728a88a200143423baef1ffce7", "lat": 38.8623415, "fusion_lon": 0.0, "fusion_lat": 0.0, "type": "electric_bike", "name": "17db0b728a88a200143423baef1ffce7", "is_disabled": 0, "rental_uris": {"ios": "https://dc.lft.to/lastmile_qr_scan", "android": "https://dc.lft.to/lastmile_qr_scan"}, "is_reserved": 0}, {"lon": -77.08066433333333, "bike_id": "3794e0df420adafcab35a550a3166de1", "lat": 39.05278833333333, "fusion_lon": 0.0, "fusion_lat": 0.0, "type": "electric_bike", "name": "3794e0df420adafcab35a550a3166de1", "is_disabled": 0, "rental_uris": {"ios": "https://dc.lft.to/lastmile_qr_scan", "android": "https://dc.lft.to/lastmile_qr_scan"}, "is_reserved": 0}, {"lon": -77.04646583333333, "bike_id": "ddea91b86bbb283055fa5259562fc497", "lat": 38.91417466666667, "fusion_lon": 0.0, "fusion_lat": 0.0, "type": "electric_scooter", "name": "ddea91b86bbb283055fa5259562fc497", "is_disabled": 0, "rental_uris": {"ios": "https://dc.lft.to/lastmile_qr_scan", "android": "https://dc.lft.to/lastmile_qr_scan"}, "is_reserved": 0}, {"lon": -77.00380716666666, "bike_id": "ddf7b7c1ff217473d969e5dd46273739", "lat": 38.835974, "fusion_lon": 0.0, "fusion_lat": 0.0, "type": "electric_bike", "name": "ddf7b7c1ff217473d969e5dd46273739", "is_disabled": 0, "rental_uris": {"ios": "https://dc.lft.to/lastmile_qr_scan", "android": "https://dc.lft.to/lastmile_qr_scan"}, "is_reserved": 0}, {"lon": -77.0275355, "bike_id": "d87da76f3cc1d03aade20145838123f7", "lat": 38.916939166666666, "fusion_lon": 0.0, "fusion_lat": 0.0, "type": "electric_scooter", "name": "d87da76f3cc1d03aade20145838123f7", "is_disabled": 0, "rental_uris": {"ios": "https://dc.lft.to/lastmile_qr_scan", "android": "https://dc.lft.to/lastmile_qr_scan"}, "is_reserved": 0}, {"lon": -77.04225366666667, "bike_id": "f25bff213e18122d5aa958d8b28859da", "lat": 38.9133925, "fusion_lon": 0.0, "fusion_lat": 0.0, "type": "electric_scooter", "name": "f25bff213e18122d5aa958d8b28859da", "is_disabled": 0, "rental_uris": {"ios": "https://dc.lft.to/lastmile_qr_scan", "android": "https://dc.lft.to/lastmile_qr_scan"}, "is_reserved": 0}, {"lon": -76.992932, "bike_id": "5deff0b33ee5c675549a1d2f434973fe", "lat": 38.898815, "fusion_lon": 0.0, "fusion_lat": 0.0, "type": "electric_scooter", "name": "5deff0b33ee5c675549a1d2f434973fe", "is_disabled": 0, "rental_uris": {"ios": "https://dc.lft.to/lastmile_qr_scan", "android": "https://dc.lft.to/lastmile_qr_scan"}, "is_reserved": 0}, {"lon": -77.046985, "bike_id": "85d57485f3b5e54988740f99427e8346", "lat": 38.921756, "fusion_lon": 0.0, "fusion_lat": 0.0, "type": "electric_scooter", "name": "85d57485f3b5e54988740f99427e8346", "is_disabled": 0, "rental_uris": {"ios": "https://dc.lft.to/lastmile_qr_scan", "android": "https://dc.lft.to/lastmile_qr_scan"}, "is_reserved": 0}, {"lon": -77.02170066666666, "bike_id": "1221b1ef6dadfc11d6b35a26ecfe087c", "lat": 38.929942833333335, "fusion_lon": 0.0, "fusion_lat": 0.0, "type": "electric_scooter", "name": "1221b1ef6dadfc11d6b35a26ecfe087c", "is_disabled": 0, "rental_uris": {"ios": "https://dc.lft.to/lastmile_qr_scan", "android": "https://dc.lft.to/lastmile_qr_scan"}, "is_reserved": 0}, {"lon": -77.03556666666667, "bike_id": "e89e43c93ef18240461ed46717313104", "lat": 38.92479266666667, "fusion_lon": 0.0, "fusion_lat": 0.0, "type": "electric_scooter", "name": "e89e43c93ef18240461ed46717313104", "is_disabled": 0, "rental_uris": {"ios": "https://dc.lft.to/lastmile_qr_scan", "android": "https://dc.lft.to/lastmile_qr_scan"}, "is_reserved": 0}, {"lon": -77.035855, "bike_id": "16e829a9954f20464212643928611ad9", "lat": 38.91035016666667, "fusion_lon": 0.0, "fusion_lat": 0.0, "type": "electric_scooter", "name": "16e829a9954f20464212643928611ad9", "is_disabled": 0, "rental_uris": {"ios": "https://dc.lft.to/lastmile_qr_scan", "android": "https://dc.lft.to/lastmile_qr_scan"}, "is_reserved": 0}, {"lon": -77.04689, "bike_id": "f97bcbd7afde4f50e662b9c178e3a73d", "lat": 38.92136566666667, "fusion_lon": 0.0, "fusion_lat": 0.0, "type": "electric_scooter", "name": "f97bcbd7afde4f50e662b9c178e3a73d", "is_disabled": 0, "rental_uris": {"ios": "https://dc.lft.to/lastmile_qr_scan", "android": "https://dc.lft.to/lastmile_qr_scan"}, "is_reserved": 0}, {"lon": -77.026124, "bike_id": "ed31e47e26a9acae4b9b062ef84bc9ab", "lat": 38.934898, "fusion_lon": 0.0, "fusion_lat": 0.0, "type": "electric_scooter", "name": "ed31e47e26a9acae4b9b062ef84bc9ab", "is_disabled": 0, "rental_uris": {"ios": "https://dc.lft.to/lastmile_qr_scan", "android": "https://dc.lft.to/lastmile_qr_scan"}, "is_reserved": 0}, {"lon": -77.03760166666666, "bike_id": "6eb9385b4d93a7add08a26debe1e3656", "lat": 38.922031833333335, "fusion_lon": 0.0, "fusion_lat": 0.0, "type": "electric_scooter", "name": "6eb9385b4d93a7add08a26debe1e3656", "is_disabled": 0, "rental_uris": {"ios": "https://dc.lft.to/lastmile_qr_scan", "android": "https://dc.lft.to/lastmile_qr_scan"}, "is_reserved": 0}, {"lon": -77.02508633333333, "bike_id": "bda52aefe118b5eaac24f018b336e54e", "lat": 38.9207605, "fusion_lon": 0.0, "fusion_lat": 0.0, "type": "electric_scooter", "name": "bda52aefe118b5eaac24f018b336e54e", "is_disabled": 0, "rental_uris": {"ios": "https://dc.lft.to/lastmile_qr_scan", "android": "https://dc.lft.to/lastmile_qr_scan"}, "is_reserved": 0}, {"lon": -77.03260866666666, "bike_id": "dcf41bc936de9fbd1ec22df04d086a8b", "lat": 38.937728166666666, "fusion_lon": 0.0, "fusion_lat": 0.0, "type": "electric_scooter", "name": "dcf41bc936de9fbd1ec22df04d086a8b", "is_disabled": 0, "rental_uris": {"ios": "https://dc.lft.to/lastmile_qr_scan", "android": "https://dc.lft.to/lastmile_qr_scan"}, "is_reserved": 0}, {"lon": -77.0347625, "bike_id": "cb2e375a0557ce455c7af2e3ce9581f9", "lat": 38.93437566666667, "fusion_lon": 0.0, "fusion_lat": 0.0, "type": "electric_scooter", "name": "cb2e375a0557ce455c7af2e3ce9581f9", "is_disabled": 0, "rental_uris": {"ios": "https://dc.lft.to/lastmile_qr_scan", "android": "https://dc.lft.to/lastmile_qr_scan"}, "is_reserved": 0}, {"lon": -77.03262316666667, "bike_id": "4e0af219dfe6db11e08b8750cdea3628", "lat": 38.932005833333335, "fusion_lon": 0.0, "fusion_lat": 0.0, "type": "electric_scooter", "name": "4e0af219dfe6db11e08b8750cdea3628", "is_disabled": 0, "rental_uris": {"ios": "https://dc.lft.to/lastmile_qr_scan", "android": "https://dc.lft.to/lastmile_qr_scan"}, "is_reserved": 0}, {"lon": -77.02189683333333, "bike_id": "6442206ba058de4b663590ce15538a38", "lat": 38.9330325, "fusion_lon": 0.0, "fusion_lat": 0.0, "type": "electric_scooter", "name": "6442206ba058de4b663590ce15538a38", "is_disabled": 0, "rental_uris": {"ios": "https://dc.lft.to/lastmile_qr_scan", "android": "https://dc.lft.to/lastmile_qr_scan"}, "is_reserved": 0}, {"lon": -77.02974, "bike_id": "1a9618b22f19a51976d7772b29f78773", "lat": 38.91669733333333, "fusion_lon": 0.0, "fusion_lat": 0.0, "type": "electric_scooter", "name": "1a9618b22f19a51976d7772b29f78773", "is_disabled": 0, "rental_uris": {"ios": "https://dc.lft.to/lastmile_qr_scan", "android": "https://dc.lft.to/lastmile_qr_scan"}, "is_reserved": 0}, {"lon": -77.02570316666667, "bike_id": "663850dea1857a368b63a607c4e10539", "lat": 38.88080733333334, "fusion_lon": 0.0, "fusion_lat": 0.0, "type": "electric_scooter", "name": "663850dea1857a368b63a607c4e10539", "is_disabled": 0, "rental_uris": {"ios": "https://dc.lft.to/lastmile_qr_scan", "android": "https://dc.lft.to/lastmile_qr_scan"}, "is_reserved": 0}, {"lon": -77.0198935, "bike_id": "8278099cdc3f8be69068671a1f1609f1", "lat": 38.90287433333334, "fusion_lon": 0.0, "fusion_lat": 0.0, "type": "electric_scooter", "name": "8278099cdc3f8be69068671a1f1609f1", "is_disabled": 0, "rental_uris": {"ios": "https://dc.lft.to/lastmile_qr_scan", "android": "https://dc.lft.to/lastmile_qr_scan"}, "is_reserved": 0}, {"lon": -76.9317275, "bike_id": "b2fec92a97c5937abeea6f0570f8b417", "lat": 38.903682333333336, "fusion_lon": 0.0, "fusion_lat": 0.0, "type": "electric_scooter", "name": "b2fec92a97c5937abeea6f0570f8b417", "is_disabled": 0, "rental_uris": {"ios": "https://dc.lft.to/lastmile_qr_scan", "android": "https://dc.lft.to/lastmile_qr_scan"}, "is_reserved": 0}, {"lon": -76.93352083333333, "bike_id": "0535853d57b7c1feed9901ebd99884d2", "lat": 38.887926666666665, "fusion_lon": 0.0, "fusion_lat": 0.0, "type": "electric_scooter", "name": "0535853d57b7c1feed9901ebd99884d2", "is_disabled": 0, "rental_uris": {"ios": "https://dc.lft.to/lastmile_qr_scan", "android": "https://dc.lft.to/lastmile_qr_scan"}, "is_reserved": 0}, {"lon": -77.010017, "bike_id": "12babe9e067af9cbc75b10378c525da0", "lat": 38.9191445, "fusion_lon": 0.0, "fusion_lat": 0.0, "type": "electric_scooter", "name": "12babe9e067af9cbc75b10378c525da0", "is_disabled": 0, "rental_uris": {"ios": "https://dc.lft.to/lastmile_qr_scan", "android": "https://dc.lft.to/lastmile_qr_scan"}, "is_reserved": 0}, {"lon": -77.04670183333333, "bike_id": "7935a012d502793e635bd20a0d7e4bb6", "lat": 38.905378166666665, "fusion_lon": 0.0, "fusion_lat": 0.0, "type": "electric_scooter", "name": "7935a012d502793e635bd20a0d7e4bb6", "is_disabled": 0, "rental_uris": {"ios": "https://dc.lft.to/lastmile_qr_scan", "android": "https://dc.lft.to/lastmile_qr_scan"}, "is_reserved": 0}, {"lon": -77.02736466666667, "bike_id": "9eaa2262ca8f7e5b4395e060309bc47b", "lat": 38.8977465, "fusion_lon": 0.0, "fusion_lat": 0.0, "type": "electric_scooter", "name": "9eaa2262ca8f7e5b4395e060309bc47b", "is_disabled": 0, "rental_uris": {"ios": "https://dc.lft.to/lastmile_qr_scan", "android": "https://dc.lft.to/lastmile_qr_scan"}, "is_reserved": 0}, {"lon": -77.02415783333333, "bike_id": "baae41c3a7038869585946010edd02d3", "lat": 38.91779433333333, "fusion_lon": 0.0, "fusion_lat": 0.0, "type": "electric_scooter", "name": "baae41c3a7038869585946010edd02d3", "is_disabled": 0, "rental_uris": {"ios": "https://dc.lft.to/lastmile_qr_scan", "android": "https://dc.lft.to/lastmile_qr_scan"}, "is_reserved": 0}, {"lon": -77.0448715, "bike_id": "f057f9e43db7c0eb30458bb6985e768c", "lat": 38.91317, "fusion_lon": 0.0, "fusion_lat": 0.0, "type": "electric_scooter", "name": "f057f9e43db7c0eb30458bb6985e768c", "is_disabled": 0, "rental_uris": {"ios": "https://dc.lft.to/lastmile_qr_scan", "android": "https://dc.lft.to/lastmile_qr_scan"}, "is_reserved": 0}, {"lon": -76.9884035, "bike_id": "40aa6eaf5b4a33aa69c9a7afae949842", "lat": 38.896655, "fusion_lon": 0.0, "fusion_lat": 0.0, "type": "electric_scooter", "name": "40aa6eaf5b4a33aa69c9a7afae949842", "is_disabled": 0, "rental_uris": {"ios": "https://dc.lft.to/lastmile_qr_scan", "android": "https://dc.lft.to/lastmile_qr_scan"}, "is_reserved": 0}, {"lon": -77.02213, "bike_id": "81490452f5c7c7061e40797b6a9132e2", "lat": 38.89351666666666, "fusion_lon": 0.0, "fusion_lat": 0.0, "type": "electric_scooter", "name": "81490452f5c7c7061e40797b6a9132e2", "is_disabled": 0, "rental_uris": {"ios": "https://dc.lft.to/lastmile_qr_scan", "android": "https://dc.lft.to/lastmile_qr_scan"}, "is_reserved": 0}, {"lon": -77.07766083333334, "bike_id": "357b891f125ae49e55892e9209b2a873", "lat": 38.957742333333336, "fusion_lon": 0.0, "fusion_lat": 0.0, "type": "electric_scooter", "name": "357b891f125ae49e55892e9209b2a873", "is_disabled": 0, "rental_uris": {"ios": "https://dc.lft.to/lastmile_qr_scan", "android": "https://dc.lft.to/lastmile_qr_scan"}, "is_reserved": 0}, {"lon": -77.12435083333334, "bike_id": "69c37c70c474607c24195e3378191b04", "lat": 38.853770833333336, "fusion_lon": 0.0, "fusion_lat": 0.0, "type": "electric_bike", "name": "69c37c70c474607c24195e3378191b04", "is_disabled": 0, "rental_uris": {"ios": "https://dc.lft.to/lastmile_qr_scan", "android": "https://dc.lft.to/lastmile_qr_scan"}, "is_reserved": 0}, {"lon": -77.0556955, "bike_id": "fb4f7aabf01d36cc77893d40448cb586", "lat": 38.93060066666666, "fusion_lon": 0.0, "fusion_lat": 0.0, "type": "electric_scooter", "name": "fb4f7aabf01d36cc77893d40448cb586", "is_disabled": 0, "rental_uris": {"ios": "https://dc.lft.to/lastmile_qr_scan", "android": "https://dc.lft.to/lastmile_qr_scan"}, "is_reserved": 0}, {"lon": -77.038156, "bike_id": "332af549f84398a40324ea0a5594990e", "lat": 38.93088783333334, "fusion_lon": 0.0, "fusion_lat": 0.0, "type": "electric_scooter", "name": "332af549f84398a40324ea0a5594990e", "is_disabled": 0, "rental_uris": {"ios": "https://dc.lft.to/lastmile_qr_scan", "android": "https://dc.lft.to/lastmile_qr_scan"}, "is_reserved": 0}, {"lon": -76.97206466666667, "bike_id": "b5585fb747b8840a505927b1c7e3e7c7", "lat": 38.8929025, "fusion_lon": 0.0, "fusion_lat": 0.0, "type": "electric_bike", "name": "b5585fb747b8840a505927b1c7e3e7c7", "is_disabled": 0, "rental_uris": {"ios": "https://dc.lft.to/lastmile_qr_scan", "android": "https://dc.lft.to/lastmile_qr_scan"}, "is_reserved": 0}, {"lon": -77.00975116666666, "bike_id": "3d0ec08cf60d6269af3a7d460b997fe8", "lat": 38.8707395, "fusion_lon": 0.0, "fusion_lat": 0.0, "type": "electric_scooter", "name": "3d0ec08cf60d6269af3a7d460b997fe8", "is_disabled": 0, "rental_uris": {"ios": "https://dc.lft.to/lastmile_qr_scan", "android": "https://dc.lft.to/lastmile_qr_scan"}, "is_reserved": 0}, {"lon": -77.02708133333333, "bike_id": "4dd3bdecad904a80eb3300962c6ce693", "lat": 38.94984016666667, "fusion_lon": 0.0, "fusion_lat": 0.0, "type": "electric_scooter", "name": "4dd3bdecad904a80eb3300962c6ce693", "is_disabled": 0, "rental_uris": {"ios": "https://dc.lft.to/lastmile_qr_scan", "android": "https://dc.lft.to/lastmile_qr_scan"}, "is_reserved": 0}, {"lon": -77.00881916666667, "bike_id": "11e2a939cee617b8b293ead797445761", "lat": 38.825311666666664, "fusion_lon": 0.0, "fusion_lat": 0.0, "type": "electric_scooter", "name": "11e2a939cee617b8b293ead797445761", "is_disabled": 0, "rental_uris": {"ios": "https://dc.lft.to/lastmile_qr_scan", "android": "https://dc.lft.to/lastmile_qr_scan"}, "is_reserved": 0}, {"lon": -76.99272183333333, "bike_id": "de0fdb4b2e3a1fc8166917602f04d32d", "lat": 38.86034016666667, "fusion_lon": 0.0, "fusion_lat": 0.0, "type": "electric_scooter", "name": "de0fdb4b2e3a1fc8166917602f04d32d", "is_disabled": 0, "rental_uris": {"ios": "https://dc.lft.to/lastmile_qr_scan", "android": "https://dc.lft.to/lastmile_qr_scan"}, "is_reserved": 0}, {"lon": -77.13926233333333, "bike_id": "f2be59943bfda90ce1f32b196f599e77", "lat": 38.8729775, "fusion_lon": 0.0, "fusion_lat": 0.0, "type": "electric_bike", "name": "f2be59943bfda90ce1f32b196f599e77", "is_disabled": 0, "rental_uris": {"ios": "https://dc.lft.to/lastmile_qr_scan", "android": "https://dc.lft.to/lastmile_qr_scan"}, "is_reserved": 0}, {"lon": -77.03843516666667, "bike_id": "b6deb896849e1d3cb72867a11c7d362e", "lat": 38.91036416666667, "fusion_lon": 0.0, "fusion_lat": 0.0, "type": "electric_scooter", "name": "b6deb896849e1d3cb72867a11c7d362e", "is_disabled": 0, "rental_uris": {"ios": "https://dc.lft.to/lastmile_qr_scan", "android": "https://dc.lft.to/lastmile_qr_scan"}, "is_reserved": 0}, {"lon": -77.02004633333334, "bike_id": "1d84c2201be038f17088a93efdf6376b", "lat": 38.915267666666665, "fusion_lon": 0.0, "fusion_lat": 0.0, "type": "electric_scooter", "name": "1d84c2201be038f17088a93efdf6376b", "is_disabled": 0, "rental_uris": {"ios": "https://dc.lft.to/lastmile_qr_scan", "android": "https://dc.lft.to/lastmile_qr_scan"}, "is_reserved": 0}, {"lon": -76.973322, "bike_id": "171d3f8430bc46f296293708a9fbc377", "lat": 38.904775, "fusion_lon": 0.0, "fusion_lat": 0.0, "type": "electric_bike", "name": "171d3f8430bc46f296293708a9fbc377", "is_disabled": 0, "rental_uris": {"ios": "https://dc.lft.to/lastmile_qr_scan", "android": "https://dc.lft.to/lastmile_qr_scan"}, "is_reserved": 0}, {"lon": -77.05860533333333, "bike_id": "a626814d1441bea11cd340098d9130c7", "lat": 38.935463166666665, "fusion_lon": 0.0, "fusion_lat": 0.0, "type": "electric_scooter", "name": "a626814d1441bea11cd340098d9130c7", "is_disabled": 0, "rental_uris": {"ios": "https://dc.lft.to/lastmile_qr_scan", "android": "https://dc.lft.to/lastmile_qr_scan"}, "is_reserved": 0}, {"lon": -77.048503, "bike_id": "5a9d6ea9d87452aa8c58a0fe2b6cfb29", "lat": 38.915131833333334, "fusion_lon": 0.0, "fusion_lat": 0.0, "type": "electric_scooter", "name": "5a9d6ea9d87452aa8c58a0fe2b6cfb29", "is_disabled": 0, "rental_uris": {"ios": "https://dc.lft.to/lastmile_qr_scan", "android": "https://dc.lft.to/lastmile_qr_scan"}, "is_reserved": 0}, {"lon": -77.04191683333333, "bike_id": "5303f5301467a1cb7d02c8bd5a9cb6e7", "lat": 38.8996575, "fusion_lon": 0.0, "fusion_lat": 0.0, "type": "electric_scooter", "name": "5303f5301467a1cb7d02c8bd5a9cb6e7", "is_disabled": 0, "rental_uris": {"ios": "https://dc.lft.to/lastmile_qr_scan", "android": "https://dc.lft.to/lastmile_qr_scan"}, "is_reserved": 0}, {"lon": -77.0220775, "bike_id": "8c03e4f4befbefb92ff9ea8ea74dfa9d", "lat": 38.887282666666664, "fusion_lon": 0.0, "fusion_lat": 0.0, "type": "electric_scooter", "name": "8c03e4f4befbefb92ff9ea8ea74dfa9d", "is_disabled": 0, "rental_uris": {"ios": "https://dc.lft.to/lastmile_qr_scan", "android": "https://dc.lft.to/lastmile_qr_scan"}, "is_reserved": 0}, {"lon": -77.03288416666666, "bike_id": "21efa765b0c932697d620550c731d0b5", "lat": 38.95651216666667, "fusion_lon": 0.0, "fusion_lat": 0.0, "type": "electric_scooter", "name": "21efa765b0c932697d620550c731d0b5", "is_disabled": 0, "rental_uris": {"ios": "https://dc.lft.to/lastmile_qr_scan", "android": "https://dc.lft.to/lastmile_qr_scan"}, "is_reserved": 0}, {"lon": -77.025749, "bike_id": "db9ebbf1ffd6185faf1dca78636dbe6b", "lat": 38.882921, "fusion_lon": 0.0, "fusion_lat": 0.0, "type": "electric_scooter", "name": "db9ebbf1ffd6185faf1dca78636dbe6b", "is_disabled": 0, "rental_uris": {"ios": "https://dc.lft.to/lastmile_qr_scan", "android": "https://dc.lft.to/lastmile_qr_scan"}, "is_reserved": 0}, {"lon": -76.99793983333333, "bike_id": "adc25e3fa1e7ce75678bc8048e825e08", "lat": 38.95639033333333, "fusion_lon": 0.0, "fusion_lat": 0.0, "type": "electric_bike", "name": "adc25e3fa1e7ce75678bc8048e825e08", "is_disabled": 0, "rental_uris": {"ios": "https://dc.lft.to/lastmile_qr_scan", "android": "https://dc.lft.to/lastmile_qr_scan"}, "is_reserved": 0}, {"lon": -77.02398083333334, "bike_id": "9a59f21cd5de80b4173f300985182369", "lat": 38.88135716666667, "fusion_lon": 0.0, "fusion_lat": 0.0, "type": "electric_scooter", "name": "9a59f21cd5de80b4173f300985182369", "is_disabled": 0, "rental_uris": {"ios": "https://dc.lft.to/lastmile_qr_scan", "android": "https://dc.lft.to/lastmile_qr_scan"}, "is_reserved": 0}, {"lon": -77.0398925, "bike_id": "625c7ea9a8c74ffaa71ec5bba3e1a557", "lat": 38.933368333333334, "fusion_lon": 0.0, "fusion_lat": 0.0, "type": "electric_scooter", "name": "625c7ea9a8c74ffaa71ec5bba3e1a557", "is_disabled": 0, "rental_uris": {"ios": "https://dc.lft.to/lastmile_qr_scan", "android": "https://dc.lft.to/lastmile_qr_scan"}, "is_reserved": 0}, {"lon": -76.9947665, "bike_id": "bef3d062ce4c06ccc26672475a0f92b8", "lat": 38.88266316666667, "fusion_lon": 0.0, "fusion_lat": 0.0, "type": "electric_scooter", "name": "bef3d062ce4c06ccc26672475a0f92b8", "is_disabled": 0, "rental_uris": {"ios": "https://dc.lft.to/lastmile_qr_scan", "android": "https://dc.lft.to/lastmile_qr_scan"}, "is_reserved": 0}, {"lon": -77.016085, "bike_id": "c2eb14c39c2dc5e67ce6ae96c9e9dcce", "lat": 38.899574666666666, "fusion_lon": 0.0, "fusion_lat": 0.0, "type": "electric_scooter", "name": "c2eb14c39c2dc5e67ce6ae96c9e9dcce", "is_disabled": 0, "rental_uris": {"ios": "https://dc.lft.to/lastmile_qr_scan", "android": "https://dc.lft.to/lastmile_qr_scan"}, "is_reserved": 0}, {"lon": -77.0004925, "bike_id": "d54379d8b581f2d416c5b621edcd647b", "lat": 38.876504833333335, "fusion_lon": 0.0, "fusion_lat": 0.0, "type": "electric_bike", "name": "d54379d8b581f2d416c5b621edcd647b", "is_disabled": 0, "rental_uris": {"ios": "https://dc.lft.to/lastmile_qr_scan", "android": "https://dc.lft.to/lastmile_qr_scan"}, "is_reserved": 0}, {"lon": -77.031743, "bike_id": "5ae67cfe8d0ca9c3f1ab8956f00778c3", "lat": 38.93593966666667, "fusion_lon": 0.0, "fusion_lat": 0.0, "type": "electric_scooter", "name": "5ae67cfe8d0ca9c3f1ab8956f00778c3", "is_disabled": 0, "rental_uris": {"ios": "https://dc.lft.to/lastmile_qr_scan", "android": "https://dc.lft.to/lastmile_qr_scan"}, "is_reserved": 0}, {"lon": -76.97732933333333, "bike_id": "48b21dce3e9e1b9d0af3fe3d6fab8b36", "lat": 38.86484883333333, "fusion_lon": 0.0, "fusion_lat": 0.0, "type": "electric_bike", "name": "48b21dce3e9e1b9d0af3fe3d6fab8b36", "is_disabled": 0, "rental_uris": {"ios": "https://dc.lft.to/lastmile_qr_scan", "android": "https://dc.lft.to/lastmile_qr_scan"}, "is_reserved": 0}, {"lon": -77.1856355, "bike_id": "0f3ca9db32bfda316a47879539701649", "lat": 39.099771, "fusion_lon": 0.0, "fusion_lat": 0.0, "type": "electric_bike", "name": "0f3ca9db32bfda316a47879539701649", "is_disabled": 0, "rental_uris": {"ios": "https://dc.lft.to/lastmile_qr_scan", "android": "https://dc.lft.to/lastmile_qr_scan"}, "is_reserved": 0}, {"lon": -77.00709, "bike_id": "3f073d2b2c8768c09a3ca4e8389b68de", "lat": 38.945994, "fusion_lon": 0.0, "fusion_lat": 0.0, "type": "electric_bike", "name": "3f073d2b2c8768c09a3ca4e8389b68de", "is_disabled": 0, "rental_uris": {"ios": "https://dc.lft.to/lastmile_qr_scan", "android": "https://dc.lft.to/lastmile_qr_scan"}, "is_reserved": 0}, {"lon": -77.00652183333334, "bike_id": "9aa17033a12b1f4a56ed51cd079138c2", "lat": 38.94461916666667, "fusion_lon": 0.0, "fusion_lat": 0.0, "type": "electric_scooter", "name": "9aa17033a12b1f4a56ed51cd079138c2", "is_disabled": 0, "rental_uris": {"ios": "https://dc.lft.to/lastmile_qr_scan", "android": "https://dc.lft.to/lastmile_qr_scan"}, "is_reserved": 0}, {"lon": -77.045437, "bike_id": "5e4f398829256e6793674a84ca152fd2", "lat": 38.91618316666667, "fusion_lon": 0.0, "fusion_lat": 0.0, "type": "electric_scooter", "name": "5e4f398829256e6793674a84ca152fd2", "is_disabled": 0, "rental_uris": {"ios": "https://dc.lft.to/lastmile_qr_scan", "android": "https://dc.lft.to/lastmile_qr_scan"}, "is_reserved": 0}, {"lon": -76.96256533333333, "bike_id": "69e9867803412768da58b43f5cdad8d7", "lat": 38.88245533333333, "fusion_lon": 0.0, "fusion_lat": 0.0, "type": "electric_bike", "name": "69e9867803412768da58b43f5cdad8d7", "is_disabled": 0, "rental_uris": {"ios": "https://dc.lft.to/lastmile_qr_scan", "android": "https://dc.lft.to/lastmile_qr_scan"}, "is_reserved": 0}, {"lon": -77.0320285, "bike_id": "b38528ad66362cc1976580889f6388df", "lat": 38.9190195, "fusion_lon": 0.0, "fusion_lat": 0.0, "type": "electric_scooter", "name": "b38528ad66362cc1976580889f6388df", "is_disabled": 0, "rental_uris": {"ios": "https://dc.lft.to/lastmile_qr_scan", "android": "https://dc.lft.to/lastmile_qr_scan"}, "is_reserved": 0}, {"lon": -77.03396983333333, "bike_id": "6de018a18b32509157f1e3943cf86a53", "lat": 38.92056316666667, "fusion_lon": 0.0, "fusion_lat": 0.0, "type": "electric_scooter", "name": "6de018a18b32509157f1e3943cf86a53", "is_disabled": 0, "rental_uris": {"ios": "https://dc.lft.to/lastmile_qr_scan", "android": "https://dc.lft.to/lastmile_qr_scan"}, "is_reserved": 0}, {"lon": -77.02269966666667, "bike_id": "959088fd64f894d4f2e59c1bd4372cbf", "lat": 38.90279833333334, "fusion_lon": 0.0, "fusion_lat": 0.0, "type": "electric_scooter", "name": "959088fd64f894d4f2e59c1bd4372cbf", "is_disabled": 0, "rental_uris": {"ios": "https://dc.lft.to/lastmile_qr_scan", "android": "https://dc.lft.to/lastmile_qr_scan"}, "is_reserved": 0}, {"lon": -76.98348616666667, "bike_id": "d5a22ad68423f35a47612a09d0b9559a", "lat": 38.89203, "fusion_lon": 0.0, "fusion_lat": 0.0, "type": "electric_bike", "name": "d5a22ad68423f35a47612a09d0b9559a", "is_disabled": 0, "rental_uris": {"ios": "https://dc.lft.to/lastmile_qr_scan", "android": "https://dc.lft.to/lastmile_qr_scan"}, "is_reserved": 0}, {"lon": -77.03126466666667, "bike_id": "89ac7b920ef64159d8b6bc6dd5fbbb27", "lat": 38.988211166666666, "fusion_lon": 0.0, "fusion_lat": 0.0, "type": "electric_scooter", "name": "89ac7b920ef64159d8b6bc6dd5fbbb27", "is_disabled": 0, "rental_uris": {"ios": "https://dc.lft.to/lastmile_qr_scan", "android": "https://dc.lft.to/lastmile_qr_scan"}, "is_reserved": 0}, {"lon": -77.023667, "bike_id": "520b3e8257d3003e25781419f43d8113", "lat": 38.916143166666664, "fusion_lon": 0.0, "fusion_lat": 0.0, "type": "electric_scooter", "name": "520b3e8257d3003e25781419f43d8113", "is_disabled": 0, "rental_uris": {"ios": "https://dc.lft.to/lastmile_qr_scan", "android": "https://dc.lft.to/lastmile_qr_scan"}, "is_reserved": 0}, {"lon": -77.04181183333333, "bike_id": "dce54aac142fba0ad16f51df42e8a4a9", "lat": 38.906480333333334, "fusion_lon": 0.0, "fusion_lat": 0.0, "type": "electric_scooter", "name": "dce54aac142fba0ad16f51df42e8a4a9", "is_disabled": 0, "rental_uris": {"ios": "https://dc.lft.to/lastmile_qr_scan", "android": "https://dc.lft.to/lastmile_qr_scan"}, "is_reserved": 0}, {"lon": -77.02784016666666, "bike_id": "3ee0568371db0e3f08cefeb7c110a2b7", "lat": 38.95404816666667, "fusion_lon": 0.0, "fusion_lat": 0.0, "type": "electric_scooter", "name": "3ee0568371db0e3f08cefeb7c110a2b7", "is_disabled": 0, "rental_uris": {"ios": "https://dc.lft.to/lastmile_qr_scan", "android": "https://dc.lft.to/lastmile_qr_scan"}, "is_reserved": 0}, {"lon": -76.96388283333333, "bike_id": "260fd081a4108f60d66a9594fe4f75d8", "lat": 38.9516945, "fusion_lon": 0.0, "fusion_lat": 0.0, "type": "electric_bike", "name": "260fd081a4108f60d66a9594fe4f75d8", "is_disabled": 0, "rental_uris": {"ios": "https://dc.lft.to/lastmile_qr_scan", "android": "https://dc.lft.to/lastmile_qr_scan"}, "is_reserved": 0}, {"lon": -77.007419, "bike_id": "47acf394024613c474d650bdf1200f89", "lat": 38.92524916666667, "fusion_lon": 0.0, "fusion_lat": 0.0, "type": "electric_scooter", "name": "47acf394024613c474d650bdf1200f89", "is_disabled": 0, "rental_uris": {"ios": "https://dc.lft.to/lastmile_qr_scan", "android": "https://dc.lft.to/lastmile_qr_scan"}, "is_reserved": 0}, {"lon": -77.02092483333334, "bike_id": "0da589338a4f9f937e677d55a6f18bab", "lat": 38.92915266666667, "fusion_lon": 0.0, "fusion_lat": 0.0, "type": "electric_scooter", "name": "0da589338a4f9f937e677d55a6f18bab", "is_disabled": 0, "rental_uris": {"ios": "https://dc.lft.to/lastmile_qr_scan", "android": "https://dc.lft.to/lastmile_qr_scan"}, "is_reserved": 0}, {"lon": -76.9994195, "bike_id": "e7a8d6aa174bc986f69623a3d9cc60f3", "lat": 38.90763483333333, "fusion_lon": 0.0, "fusion_lat": 0.0, "type": "electric_scooter", "name": "e7a8d6aa174bc986f69623a3d9cc60f3", "is_disabled": 0, "rental_uris": {"ios": "https://dc.lft.to/lastmile_qr_scan", "android": "https://dc.lft.to/lastmile_qr_scan"}, "is_reserved": 0}, {"lon": -77.22787216666667, "bike_id": "64a9e4a23cd299106134aeb4b64b0a79", "lat": 38.9100695, "fusion_lon": 0.0, "fusion_lat": 0.0, "type": "electric_bike", "name": "64a9e4a23cd299106134aeb4b64b0a79", "is_disabled": 0, "rental_uris": {"ios": "https://dc.lft.to/lastmile_qr_scan", "android": "https://dc.lft.to/lastmile_qr_scan"}, "is_reserved": 0}, {"lon": -77.02952016666667, "bike_id": "6920e5c883e359f22df4e5ef11e17a7a", "lat": 38.9276515, "fusion_lon": 0.0, "fusion_lat": 0.0, "type": "electric_scooter", "name": "6920e5c883e359f22df4e5ef11e17a7a", "is_disabled": 0, "rental_uris": {"ios": "https://dc.lft.to/lastmile_qr_scan", "android": "https://dc.lft.to/lastmile_qr_scan"}, "is_reserved": 0}, {"lon": -77.05871783333333, "bike_id": "36fad5479839edb055d239642efb6957", "lat": 38.935532, "fusion_lon": 0.0, "fusion_lat": 0.0, "type": "electric_scooter", "name": "36fad5479839edb055d239642efb6957", "is_disabled": 0, "rental_uris": {"ios": "https://dc.lft.to/lastmile_qr_scan", "android": "https://dc.lft.to/lastmile_qr_scan"}, "is_reserved": 0}, {"lon": -77.05318666666666, "bike_id": "9cf92d55d4848f6bb6ddf725ad6b4844", "lat": 38.941049666666665, "fusion_lon": 0.0, "fusion_lat": 0.0, "type": "electric_bike", "name": "9cf92d55d4848f6bb6ddf725ad6b4844", "is_disabled": 0, "rental_uris": {"ios": "https://dc.lft.to/lastmile_qr_scan", "android": "https://dc.lft.to/lastmile_qr_scan"}, "is_reserved": 0}, {"lon": -77.03921283333334, "bike_id": "514ba6b9a7b4bb1e87d00b9b4a154c74", "lat": 38.92611433333333, "fusion_lon": 0.0, "fusion_lat": 0.0, "type": "electric_scooter", "name": "514ba6b9a7b4bb1e87d00b9b4a154c74", "is_disabled": 0, "rental_uris": {"ios": "https://dc.lft.to/lastmile_qr_scan", "android": "https://dc.lft.to/lastmile_qr_scan"}, "is_reserved": 0}, {"lon": -77.025613, "bike_id": "eaf6a69b7c4de4814284b5cd0d79b964", "lat": 38.89747283333333, "fusion_lon": 0.0, "fusion_lat": 0.0, "type": "electric_scooter", "name": "eaf6a69b7c4de4814284b5cd0d79b964", "is_disabled": 0, "rental_uris": {"ios": "https://dc.lft.to/lastmile_qr_scan", "android": "https://dc.lft.to/lastmile_qr_scan"}, "is_reserved": 0}, {"lon": -77.05572816666667, "bike_id": "3fafb2ac7d8a15085268dcfb8aebcca9", "lat": 38.915961833333334, "fusion_lon": 0.0, "fusion_lat": 0.0, "type": "electric_scooter", "name": "3fafb2ac7d8a15085268dcfb8aebcca9", "is_disabled": 0, "rental_uris": {"ios": "https://dc.lft.to/lastmile_qr_scan", "android": "https://dc.lft.to/lastmile_qr_scan"}, "is_reserved": 0}, {"lon": -76.99001766666666, "bike_id": "e0a76387e5d37d766f2a3484bb4256c5", "lat": 38.865017333333334, "fusion_lon": 0.0, "fusion_lat": 0.0, "type": "electric_scooter", "name": "e0a76387e5d37d766f2a3484bb4256c5", "is_disabled": 0, "rental_uris": {"ios": "https://dc.lft.to/lastmile_qr_scan", "android": "https://dc.lft.to/lastmile_qr_scan"}, "is_reserved": 0}, {"lon": -77.03336866666666, "bike_id": "fdd12f53bf555766358ab9a48a42f19b", "lat": 38.9363575, "fusion_lon": 0.0, "fusion_lat": 0.0, "type": "electric_scooter", "name": "fdd12f53bf555766358ab9a48a42f19b", "is_disabled": 0, "rental_uris": {"ios": "https://dc.lft.to/lastmile_qr_scan", "android": "https://dc.lft.to/lastmile_qr_scan"}, "is_reserved": 0}, {"lon": -77.03282516666667, "bike_id": "4c17ff31fa97977ac0952028aba36b46", "lat": 38.903490166666664, "fusion_lon": 0.0, "fusion_lat": 0.0, "type": "electric_scooter", "name": "4c17ff31fa97977ac0952028aba36b46", "is_disabled": 0, "rental_uris": {"ios": "https://dc.lft.to/lastmile_qr_scan", "android": "https://dc.lft.to/lastmile_qr_scan"}, "is_reserved": 0},