{"data": {"bikes": [{"lat": 38.903779666666665, "fusion_lat": 0.0, "type": "electric_scooter", "name": "4b6b372f568fc6afff543794bc79569d", "is_disabled": 0, "bike_id": "4b6b372f568fc6afff543794bc79569d", "lon": -77.04204383333334, "rental_uris": {"android": "https://dc.lft.to/lastmile_qr_scan", "ios": "https://dc.lft.to/lastmile_qr_scan"}, "fusion_lon": 0.0, "is_reserved": 0}, {"lat": 38.895929833333334, "fusion_lat": 0.0, "type": "electric_scooter", "name": "bce0bb043b460d0bb2b9757b191b71ff", "is_disabled": 0, "bike_id": "bce0bb043b460d0bb2b9757b191b71ff", "lon": -77.027748, "rental_uris": {"android": "https://dc.lft.to/lastmile_qr_scan", "ios": "https://dc.lft.to/lastmile_qr_scan"}, "fusion_lon": 0.0, "is_reserved": 0}, {"lat": 38.8932785, "fusion_lat": 0.0, "type": "electric_scooter", "name": "b3df97bb0270307f78a0e3379b3556e0", "is_disabled": 0, "bike_id": "b3df97bb0270307f78a0e3379b3556e0", "lon": -76.93923816666667, "rental_uris": {"android": "https://dc.lft.to/lastmile_qr_scan", "ios": "https://dc.lft.to/lastmile_qr_scan"}, "fusion_lon": 0.0, "is_reserved": 0}, {"lat": 38.953329333333336, "fusion_lat": 0.0, "type": "electric_bike", "name": "7e8306ada16b1e5a91fe20eca6b49700", "is_disabled": 0, "bike_id": "7e8306ada16b1e5a91fe20eca6b49700", "lon": -76.98246216666666, "rental_uris": {"android": "https://dc.lft.to/lastmile_qr_scan", "ios": "https://dc.lft.to/lastmile_qr_scan"}, "fusion_lon": 0.0, "is_reserved": 0}, {"lat": 38.93188033333333, "fusion_lat": 0.0, "type": "electric_bike", "name": "437e8315f64ff00439228d8f2e02262c", "is_disabled": 0, "bike_id": "437e8315f64ff00439228d8f2e02262c", "lon": -77.0387815, "rental_uris": {"android": "https://dc.lft.to/lastmile_qr_scan", "ios": "https://dc.lft.to/lastmile_qr_scan"}, "fusion_lon": 0.0, "is_reserved": 0}, {"lat": 38.913143833333336, "fusion_lat": 0.0, "type": "electric_scooter", "name": "c3e969b0925be851332cec01556d4c3f", "is_disabled": 0, "bike_id": "c3e969b0925be851332cec01556d4c3f", "lon": -77.0143515, "rental_uris": {"android": "https://dc.lft.to/lastmile_qr_scan", "ios": "https://dc.lft.to/lastmile_qr_scan"}, "fusion_lon": 0.0, "is_reserved": 0}, {"lat": 38.903587, "fusion_lat": 0.0, "type": "electric_scooter", "name": "b840e8c1af7b964d9ff13d8d4ddaa15a", "is_disabled": 0, "bike_id": "b840e8c1af7b964d9ff13d8d4ddaa15a", "lon": -77.02522233333333, "rental_uris": {"android": "https://dc.lft.to/lastmile_qr_scan", "ios": "https://dc.lft.to/lastmile_qr_scan"}, "fusion_lon": 0.0, "is_reserved": 0}, {"lat": 38.917809166666665, "fusion_lat": 0.0, "type": "electric_scooter", "name": "ed8ad1ce93e7477bd999d22e1478cb3d", "is_disabled": 0, "bike_id": "ed8ad1ce93e7477bd999d22e1478cb3d", "lon": -77.02312033333334, "rental_uris": {"android": "https://dc.lft.to/lastmile_qr_scan", "ios": "https://dc.lft.to/lastmile_qr_scan"}, "fusion_lon": 0.0, "is_reserved": 0}, {"lat": 38.9281535, "fusion_lat": 0.0, "type": "electric_scooter", "name": "0c2c8b63fee0b09c3458c7b2f543bbaa", "is_disabled": 0, "bike_id": "0c2c8b63fee0b09c3458c7b2f543bbaa", "lon": -77.036382, "rental_uris": {"android": "https://dc.lft.to/lastmile_qr_scan", "ios": "https://dc.lft.to/lastmile_qr_scan"}, "fusion_lon": 0.0, "is_reserved": 0}, {"lat": 38.9168705, "fusion_lat": 0.0, "type": "electric_scooter", "name": "aa7a5576b4764b9eceeea4339f526f50", "is_disabled": 0, "bike_id": "aa7a5576b4764b9eceeea4339f526f50", "lon": -77.031954, "rental_uris": {"android": "https://dc.lft.to/lastmile_qr_scan", "ios": "https://dc.lft.to/lastmile_qr_scan"}, "fusion_lon": 0.0, "is_reserved": 0}, {"lat": 38.923275333333336, "fusion_lat": 0.0, "type": "electric_scooter", "name": "fda3706967e7866a48bdcdf7c372dd97", "is_disabled": 0, "bike_id": "fda3706967e7866a48bdcdf7c372dd97", "lon": -77.0564265, "rental_uris": {"android": "https://dc.lft.to/lastmile_qr_scan", "ios": "https://dc.lft.to/lastmile_qr_scan"}, "fusion_lon": 0.0, "is_reserved": 0}, {"lat": 38.9345865, "fusion_lat": 0.0, "type": "electric_scooter", "name": "8b99c3cca519296f814355c2232c130c", "is_disabled": 0, "bike_id": "8b99c3cca519296f814355c2232c130c", "lon": -77.045318, "rental_uris": {"android": "https://dc.lft.to/lastmile_qr_scan", "ios": "https://dc.lft.to/lastmile_qr_scan"}, "fusion_lon": 0.0, "is_reserved": 0}, {"lat": 38.900344, "fusion_lat": 0.0, "type": "electric_bike", "name": "24169752dbc04b934a81232d1dd3e6c5", "is_disabled": 0, "bike_id": "24169752dbc04b934a81232d1dd3e6c5", "lon": -76.9722465, "rental_uris": {"android": "https://dc.lft.to/lastmile_qr_scan", "ios": "https://dc.lft.to/lastmile_qr_scan"}, "fusion_lon": 0.0, "is_reserved": 0}, {"lat": 38.918527, "fusion_lat": 0.0, "type": "electric_scooter", "name": "e327a2cf9bc3b97f7ffc304186515c05", "is_disabled": 0, "bike_id": "e327a2cf9bc3b97f7ffc304186515c05", "lon": -77.0388875, "rental_uris": {"android": "https://dc.lft.to/lastmile_qr_scan", "ios": "https://dc.lft.to/lastmile_qr_scan"}, "fusion_lon": 0.0, "is_reserved": 0}, {"lat": 38.92862816666667, "fusion_lat": 0.0, "type": "electric_scooter", "name": "4b979879f019c3fd74ad73baa7b3d8d2", "is_disabled": 0, "bike_id": "4b979879f019c3fd74ad73baa7b3d8d2", "lon": -77.035948, "rental_uris": {"android": "https://dc.lft.to/lastmile_qr_scan", "ios": "https://dc.lft.to/lastmile_qr_scan"}, "fusion_lon": 0.0, "is_reserved": 0}, {"lat": 38.93326883333334, "fusion_lat": 0.0, "type": "electric_scooter", "name": "36cafdfdcb1e3cc1c1a4fd776039d03e", "is_disabled": 0, "bike_id": "36cafdfdcb1e3cc1c1a4fd776039d03e", "lon": -77.03266566666667, "rental_uris": {"android": "https://dc.lft.to/lastmile_qr_scan", "ios": "https://dc.lft.to/lastmile_qr_scan"}, "fusion_lon": 0.0, "is_reserved": 0}, {"lat": 38.916826, "fusion_lat": 0.0, "type": "electric_scooter", "name": "153864a9dc230e46445ce70fd7ec6d27", "is_disabled": 0, "bike_id": "153864a9dc230e46445ce70fd7ec6d27", "lon": -77.03221116666667, "rental_uris": {"android": "https://dc.lft.to/lastmile_qr_scan", "ios": "https://dc.lft.to/lastmile_qr_scan"}, "fusion_lon": 0.0, "is_reserved": 0}, {"lat": 38.913236, "fusion_lat": 0.0, "type": "electric_scooter", "name": "36268bceb3cac922e1b0029e0de35638", "is_disabled": 0, "bike_id": "36268bceb3cac922e1b0029e0de35638", "lon": -77.03189766666667, "rental_uris": {"android": "https://dc.lft.to/lastmile_qr_scan", "ios": "https://dc.lft.to/lastmile_qr_scan"}, "fusion_lon": 0.0, "is_reserved": 0}, {"lat": 38.92694316666667, "fusion_lat": 0.0, "type": "electric_scooter", "name": "cff915322919075d5d2c7ce3b7c4cf6a", "is_disabled": 0, "bike_id": "cff915322919075d5d2c7ce3b7c4cf6a", "lon": -77.03563966666667, "rental_uris": {"android": "https://dc.lft.to/lastmile_qr_scan", "ios": "https://dc.lft.to/lastmile_qr_scan"}, "fusion_lon": 0.0, "is_reserved": 0}, {"lat": 38.907381666666666, "fusion_lat": 0.0, "type": "electric_scooter", "name": "23ec3889e415ffc55b7036d3410ec67c", "is_disabled": 0, "bike_id": "23ec3889e415ffc55b7036d3410ec67c", "lon": -77.04270083333333, "rental_uris": {"android": "https://dc.lft.to/lastmile_qr_scan", "ios": "https://dc.lft.to/lastmile_qr_scan"}, "fusion_lon": 0.0, "is_reserved": 0}, {"lat": 38.84252433333333, "fusion_lat": 0.0, "type": "electric_bike", "name": "cfc073c4d7a9cb00d8ad0c67459407f2", "is_disabled": 0, "bike_id": "cfc073c4d7a9cb00d8ad0c67459407f2", "lon": -77.0788545, "rental_uris": {"android": "https://dc.lft.to/lastmile_qr_scan", "ios": "https://dc.lft.to/lastmile_qr_scan"}, "fusion_lon": 0.0, "is_reserved": 0}, {"lat": 38.90646533333334, "fusion_lat": 0.0, "type": "electric_scooter", "name": "4dee82341cb13c09933d1793e975b879", "is_disabled": 0, "bike_id": "4dee82341cb13c09933d1793e975b879", "lon": -76.98389233333333, "rental_uris": {"android": "https://dc.lft.to/lastmile_qr_scan", "ios": "https://dc.lft.to/lastmile_qr_scan"}, "fusion_lon": 0.0, "is_reserved": 0}, {"lat": 38.8580485, "fusion_lat": 0.0, "type": "electric_scooter", "name": "6c941c3a03023c25c0a9326a85a9b597", "is_disabled": 0, "bike_id": "6c941c3a03023c25c0a9326a85a9b597", "lon": -76.98654783333333, "rental_uris": {"android": "https://dc.lft.to/lastmile_qr_scan", "ios": "https://dc.lft.to/lastmile_qr_scan"}, "fusion_lon": 0.0, "is_reserved": 0}, {"lat": 38.917528833333336, "fusion_lat": 0.0, "type": "electric_scooter", "name": "645755f47892f457964d46271fe59773", "is_disabled": 0, "bike_id": "645755f47892f457964d46271fe59773", "lon": -77.03173283333334, "rental_uris": {"android": "https://dc.lft.to/lastmile_qr_scan", "ios": "https://dc.lft.to/lastmile_qr_scan"}, "fusion_lon": 0.0, "is_reserved": 0}, {"lat": 38.91414983333333, "fusion_lat": 0.0, "type": "electric_scooter", "name": "4f68959ff5a03f0712e53201870c8f6a", "is_disabled": 0, "bike_id": "4f68959ff5a03f0712e53201870c8f6a", "lon": -77.022144, "rental_uris": {"android": "https://dc.lft.to/lastmile_qr_scan", "ios": "https://dc.lft.to/lastmile_qr_scan"}, "fusion_lon": 0.0, "is_reserved": 0}, {"lat": 38.897422, "fusion_lat": 0.0, "type": "electric_scooter", "name": "01348d08a703760c5a8b25bdb2aa0073", "is_disabled": 0, "bike_id": "01348d08a703760c5a8b25bdb2aa0073", "lon": -77.05016033333334, "rental_uris": {"android": "https://dc.lft.to/lastmile_qr_scan", "ios": "https://dc.lft.to/lastmile_qr_scan"}, "fusion_lon": 0.0, "is_reserved": 0}, {"lat": 38.897277, "fusion_lat": 0.0, "type": "electric_scooter", "name": "8dd000a429054e18433d6b14ac8ed5c6", "is_disabled": 0, "bike_id": "8dd000a429054e18433d6b14ac8ed5c6", "lon": -77.022792, "rental_uris": {"android": "https://dc.lft.to/lastmile_qr_scan", "ios": "https://dc.lft.to/lastmile_qr_scan"}, "fusion_lon": 0.0, "is_reserved": 0}, {"lat": 38.8354775, "fusion_lat": 0.0, "type": "electric_bike", "name": "0e1a1c933570ee05f5a5bdc5c500b718", "is_disabled": 0, "bike_id": "0e1a1c933570ee05f5a5bdc5c500b718", "lon": -76.987265, "rental_uris": {"android": "https://dc.lft.to/lastmile_qr_scan", "ios": "https://dc.lft.to/lastmile_qr_scan"}, "fusion_lon": 0.0, "is_reserved": 0}, {"lat": 38.8922255, "fusion_lat": 0.0, "type": "electric_scooter", "name": "e25f8b03c65a86e8c99ce2543a26be87", "is_disabled": 0, "bike_id": "e25f8b03c65a86e8c99ce2543a26be87", "lon": -77.04194383333333, "rental_uris": {"android": "https://dc.lft.to/lastmile_qr_scan", "ios": "https://dc.lft.to/lastmile_qr_scan"}, "fusion_lon": 0.0, "is_reserved": 0}, {"lat": 38.91107933333333, "fusion_lat": 0.0, "type": "electric_scooter", "name": "79867ff351c949ac7d7faec3e5773368", "is_disabled": 0, "bike_id": "79867ff351c949ac7d7faec3e5773368", "lon": -77.039153, "rental_uris": {"android": "https://dc.lft.to/lastmile_qr_scan", "ios": "https://dc.lft.to/lastmile_qr_scan"}, "fusion_lon": 0.0, "is_reserved": 0}, {"lat": 38.90853116666667, "fusion_lat": 0.0, "type": "electric_scooter", "name": "27b24a0ae6315cbcb20d17f20ebf68bb", "is_disabled": 0, "bike_id": "27b24a0ae6315cbcb20d17f20ebf68bb", "lon": -76.99950683333333, "rental_uris": {"android": "https://dc.lft.to/lastmile_qr_scan", "ios": "https://dc.lft.to/lastmile_qr_scan"}, "fusion_lon": 0.0, "is_reserved": 0}, {"lat": 38.887087333333334, "fusion_lat": 0.0, "type": "electric_scooter", "name": "20de333b085660f27fd476896c602c6f", "is_disabled": 0, "bike_id": "20de333b085660f27fd476896c602c6f", "lon": -77.01772766666667, "rental_uris": {"android": "https://dc.lft.to/lastmile_qr_scan", "ios": "https://dc.lft.to/lastmile_qr_scan"}, "fusion_lon": 0.0, "is_reserved": 0}, {"lat": 38.933657333333336, "fusion_lat": 0.0, "type": "electric_scooter", "name": "c592973186772525d2d4c5e2a65a59a1", "is_disabled": 0, "bike_id": "c592973186772525d2d4c5e2a65a59a1", "lon": -77.0572835, "rental_uris": {"android": "https://dc.lft.to/lastmile_qr_scan", "ios": "https://dc.lft.to/lastmile_qr_scan"}, "fusion_lon": 0.0, "is_reserved": 0}, {"lat": 38.90094533333333, "fusion_lat": 0.0, "type": "electric_scooter", "name": "3d93ca51642011d79d24bd3357f82bfe", "is_disabled": 0, "bike_id": "3d93ca51642011d79d24bd3357f82bfe", "lon": -77.03959933333333, "rental_uris": {"android": "https://dc.lft.to/lastmile_qr_scan", "ios": "https://dc.lft.to/lastmile_qr_scan"}, "fusion_lon": 0.0, "is_reserved": 0}, {"lat": 38.892253, "fusion_lat": 0.0, "type": "electric_scooter", "name": "06a0c96d5c43a426379114e4be4b31e4", "is_disabled": 0, "bike_id": "06a0c96d5c43a426379114e4be4b31e4", "lon": -77.02385216666667, "rental_uris": {"android": "https://dc.lft.to/lastmile_qr_scan", "ios": "https://dc.lft.to/lastmile_qr_scan"}, "fusion_lon": 0.0, "is_reserved": 0}, {"lat": 38.9247285, "fusion_lat": 0.0, "type": "electric_scooter", "name": "1f08c4aecf18159956a1866fc6fe4b48", "is_disabled": 0, "bike_id": "1f08c4aecf18159956a1866fc6fe4b48", "lon": -77.05231983333333, "rental_uris": {"android": "https://dc.lft.to/lastmile_qr_scan", "ios": "https://dc.lft.to/lastmile_qr_scan"}, "fusion_lon": 0.0, "is_reserved": 0}, {"lat": 38.943806333333335, "fusion_lat": 0.0, "type": "electric_scooter", "name": "fc4c99ff248c72cdc7bb3447e49f156b", "is_disabled": 0, "bike_id": "fc4c99ff248c72cdc7bb3447e49f156b", "lon": -77.07702133333333, "rental_uris": {"android": "https://dc.lft.to/lastmile_qr_scan", "ios": "https://dc.lft.to/lastmile_qr_scan"}, "fusion_lon": 0.0, "is_reserved": 0}, {"lat": 38.901278166666664, "fusion_lat": 0.0, "type": "electric_scooter", "name": "58b9022051683f18d5e398935abda716", "is_disabled": 0, "bike_id": "58b9022051683f18d5e398935abda716", "lon": -77.04986816666667, "rental_uris": {"android": "https://dc.lft.to/lastmile_qr_scan", "ios": "https://dc.lft.to/lastmile_qr_scan"}, "fusion_lon": 0.0, "is_reserved": 0}, {"lat": 38.9243795, "fusion_lat": 0.0, "type": "electric_scooter", "name": "0375293fe0bffe1248c66c7a10228139", "is_disabled": 0, "bike_id": "0375293fe0bffe1248c66c7a10228139", "lon": -77.03987283333333, "rental_uris": {"android": "https://dc.lft.to/lastmile_qr_scan", "ios": "https://dc.lft.to/lastmile_qr_scan"}, "fusion_lon": 0.0, "is_reserved": 0}, {"lat": 38.920386666666666, "fusion_lat": 0.0, "type": "electric_scooter", "name": "b7a2645575db0252eacb51dc9d38d22c", "is_disabled": 0, "bike_id": "b7a2645575db0252eacb51dc9d38d22c", "lon": -77.01669133333333, "rental_uris": {"android": "https://dc.lft.to/lastmile_qr_scan", "ios": "https://dc.lft.to/lastmile_qr_scan"}, "fusion_lon": 0.0, "is_reserved": 0}, {"lat": 38.916811833333334, "fusion_lat": 0.0, "type": "electric_scooter", "name": "eb878350e719e3425630a7fdf3a7a7f8", "is_disabled": 0, "bike_id": "eb878350e719e3425630a7fdf3a7a7f8", "lon": -77.02326533333333, "rental_uris": {"android": "https://dc.lft.to/lastmile_qr_scan", "ios": "https://dc.lft.to/lastmile_qr_scan"}, "fusion_lon": 0.0, "is_reserved": 0}, {"lat": 38.89827116666667, "fusion_lat": 0.0, "type": "electric_scooter", "name": "d6ec649384ebe1ff8ebfdc0e0a435436", "is_disabled": 0, "bike_id": "d6ec649384ebe1ff8ebfdc0e0a435436", "lon": -76.9311565, "rental_uris": {"android": "https://dc.lft.to/lastmile_qr_scan", "ios": "https://dc.lft.to/lastmile_qr_scan"}, "fusion_lon": 0.0, "is_reserved": 0}, {"lat": 38.92217016666667, "fusion_lat": 0.0, "type": "electric_bike", "name": "f72382dd27bb00d78f70361b64ae9e54", "is_disabled": 0, "bike_id": "f72382dd27bb00d78f70361b64ae9e54", "lon": -77.201382, "rental_uris": {"android": "https://dc.lft.to/lastmile_qr_scan", "ios": "https://dc.lft.to/lastmile_qr_scan"}, "fusion_lon": 0.0, "is_reserved": 0}, {"lat": 38.9069315, "fusion_lat": 0.0, "type": "electric_bike", "name": "f36f55bccb8e40bb0383769e9668d960", "is_disabled": 0, "bike_id": "f36f55bccb8e40bb0383769e9668d960", "lon": -76.9525105, "rental_uris": {"android": "https://dc.lft.to/lastmile_qr_scan", "ios": "https://dc.lft.to/lastmile_qr_scan"}, "fusion_lon": 0.0, "is_reserved": 0}, {"lat": 38.922769, "fusion_lat": 0.0, "type": "electric_scooter", "name": "c5f218eb9283517d390282030541ebed", "is_disabled": 0, "bike_id": "c5f218eb9283517d390282030541ebed", "lon": -77.032835, "rental_uris": {"android": "https://dc.lft.to/lastmile_qr_scan", "ios": "https://dc.lft.to/lastmile_qr_scan"}, "fusion_lon": 0.0, "is_reserved": 0}, {"lat": 38.92120383333334, "fusion_lat": 0.0, "type": "electric_scooter", "name": "3c0791a78311f8dc85432bded6677a55", "is_disabled": 0, "bike_id": "3c0791a78311f8dc85432bded6677a55", "lon": -77.04350233333334, "rental_uris": {"android": "https://dc.lft.to/lastmile_qr_scan", "ios": "https://dc.lft.to/lastmile_qr_scan"}, "fusion_lon": 0.0, "is_reserved": 0}, {"lat": 38.92158933333333, "fusion_lat": 0.0, "type": "electric_scooter", "name": "b80189ea743892ada41a0fa1bc78e3ef", "is_disabled": 0, "bike_id": "b80189ea743892ada41a0fa1bc78e3ef", "lon": -77.02085766666667, "rental_uris": {"android": "https://dc.lft.to/lastmile_qr_scan", "ios": "https://dc.lft.to/lastmile_qr_scan"}, "fusion_lon": 0.0, "is_reserved": 0}, {"lat": 38.918054, "fusion_lat": 0.0, "type": "electric_scooter", "name": "92a383326ed187aa41e1b76a42032b7b", "is_disabled": 0, "bike_id": "92a383326ed187aa41e1b76a42032b7b", "lon": -77.03695966666666, "rental_uris": {"android": "https://dc.lft.to/lastmile_qr_scan", "ios": "https://dc.lft.to/lastmile_qr_scan"}, "fusion_lon": 0.0, "is_reserved": 0}, {"lat": 38.84638183333333, "fusion_lat": 0.0, "type": "electric_scooter", "name": "a778aea496c814718424bd76a1e8adb8", "is_disabled": 0, "bike_id": "a778aea496c814718424bd76a1e8adb8", "lon": -76.99132733333333, "rental_uris": {"android": "https://dc.lft.to/lastmile_qr_scan", "ios": "https://dc.lft.to/lastmile_qr_scan"}, "fusion_lon": 0.0, "is_reserved": 0}, {"lat": 38.917767, "fusion_lat": 0.0, "type": "electric_scooter", "name": "fa8e53926a808e5a3def097c0d44aec6", "is_disabled": 0, "bike_id": "fa8e53926a808e5a3def097c0d44aec6", "lon": -77.03206, "rental_uris": {"android": "https://dc.lft.to/lastmile_qr_scan", "ios": "https://dc.lft.to/lastmile_qr_scan"}, "fusion_lon": 0.0, "is_reserved": 0}, {"lat": 38.9094, "fusion_lat": 0.0, "type": "electric_scooter", "name": "ca8a5daa80562ce5ae95c680ff29f62d", "is_disabled": 0, "bike_id": "ca8a5daa80562ce5ae95c680ff29f62d", "lon": -77.0474335, "rental_uris": {"android": "https://dc.lft.to/lastmile_qr_scan", "ios": "https://dc.lft.to/lastmile_qr_scan"}, "fusion_lon": 0.0, "is_reserved": 0}, {"lat": 38.8668995, "fusion_lat": 0.0, "type": "electric_scooter", "name": "1cfd552c154384267b4ffcd6d04b9112", "is_disabled": 0, "bike_id": "1cfd552c154384267b4ffcd6d04b9112", "lon": -76.98545333333334, "rental_uris": {"android": "https://dc.lft.to/lastmile_qr_scan", "ios": "https://dc.lft.to/lastmile_qr_scan"}, "fusion_lon": 0.0, "is_reserved": 0}, {"lat": 38.8994815, "fusion_lat": 0.0, "type": "electric_scooter", "name": "9acea7b7616e2585f6bfae12133214f1", "is_disabled": 0, "bike_id": "9acea7b7616e2585f6bfae12133214f1", "lon": -76.99736516666667, "rental_uris": {"android": "https://dc.lft.to/lastmile_qr_scan", "ios": "https://dc.lft.to/lastmile_qr_scan"}, "fusion_lon": 0.0, "is_reserved": 0}, {"lat": 38.908961166666664, "fusion_lat": 0.0, "type": "electric_scooter", "name": "d7cbe18feb19fc51130f92869e777e54", "is_disabled": 0, "bike_id": "d7cbe18feb19fc51130f92869e777e54", "lon": -76.99760233333333, "rental_uris": {"android": "https://dc.lft.to/lastmile_qr_scan", "ios": "https://dc.lft.to/lastmile_qr_scan"}, "fusion_lon": 0.0, "is_reserved": 0}, {"lat": 38.88116466666666, "fusion_lat": 0.0, "type": "electric_scooter", "name": "a3b82617daebd2d111e865a2e6674fe8", "is_disabled": 0, "bike_id": "a3b82617daebd2d111e865a2e6674fe8", "lon": -77.01653483333334, "rental_uris": {"android": "https://dc.lft.to/lastmile_qr_scan", "ios": "https://dc.lft.to/lastmile_qr_scan"}, "fusion_lon": 0.0, "is_reserved": 0}, {"lat": 38.852471333333334, "fusion_lat": 0.0, "type": "electric_bike", "name": "90765faa710509e09e6de66fa64e532c", "is_disabled": 0, "bike_id": "90765faa710509e09e6de66fa64e532c", "lon": -77.1078785, "rental_uris": {"android": "https://dc.lft.to/lastmile_qr_scan", "ios": "https://dc.lft.to/lastmile_qr_scan"}, "fusion_lon": 0.0, "is_reserved": 0}, {"lat": 38.90422733333333, "fusion_lat": 0.0, "type": "electric_scooter", "name": "476e277239d4310ff7ecd25db510ab5a", "is_disabled": 0, "bike_id": "476e277239d4310ff7ecd25db510ab5a", "lon": -77.02649383333333, "rental_uris": {"android": "https://dc.lft.to/lastmile_qr_scan", "ios": "https://dc.lft.to/lastmile_qr_scan"}, "fusion_lon": 0.0, "is_reserved": 0}, {"lat": 38.941626, "fusion_lat": 0.0, "type": "electric_scooter", "name": "b2b7a6cb49a60994b2843191798ab95e", "is_disabled": 0, "bike_id": "b2b7a6cb49a60994b2843191798ab95e", "lon": -77.02555566666666, "rental_uris": {"android": "https://dc.lft.to/lastmile_qr_scan", "ios": "https://dc.lft.to/lastmile_qr_scan"}, "fusion_lon": 0.0, "is_reserved": 0}, {"lat": 38.8771725, "fusion_lat": 0.0, "type": "electric_scooter", "name": "a693242b918cff36ecde736cb110446f", "is_disabled": 0, "bike_id": "a693242b918cff36ecde736cb110446f", "lon": -77.01768933333334, "rental_uris": {"android": "https://dc.lft.to/lastmile_qr_scan", "ios": "https://dc.lft.to/lastmile_qr_scan"}, "fusion_lon": 0.0, "is_reserved": 0}, {"lat": 38.89828816666667, "fusion_lat": 0.0, "type": "electric_scooter", "name": "79e734308b034dcf9d71390672b34e10", "is_disabled": 0, "bike_id": "79e734308b034dcf9d71390672b34e10", "lon": -76.94631033333333, "rental_uris": {"android": "https://dc.lft.to/lastmile_qr_scan", "ios": "https://dc.lft.to/lastmile_qr_scan"}, "fusion_lon": 0.0, "is_reserved": 0}, {"lat": 38.8217425, "fusion_lat": 0.0, "type": "electric_bike", "name": "77957843e5a20f6c3a750857ac7df2b0", "is_disabled": 0, "bike_id": "77957843e5a20f6c3a750857ac7df2b0", "lon": -76.99509483333334, "rental_uris": {"android": "https://dc.lft.to/lastmile_qr_scan", "ios": "https://dc.lft.to/lastmile_qr_scan"}, "fusion_lon": 0.0, "is_reserved": 0}, {"lat": 38.94290733333333, "fusion_lat": 0.0, "type": "electric_scooter", "name": "55421e80a6c07676ff4bcd2660e95078", "is_disabled": 0, "bike_id": "55421e80a6c07676ff4bcd2660e95078", "lon": -77.0216995, "rental_uris": {"android": "https://dc.lft.to/lastmile_qr_scan", "ios": "https://dc.lft.to/lastmile_qr_scan"}, "fusion_lon": 0.0, "is_reserved": 0}, {"lat": 38.915728, "fusion_lat": 0.0, "type": "electric_scooter", "name": "c3eb4a40c534e7239faf9bbb891bddbe", "is_disabled": 0, "bike_id": "c3eb4a40c534e7239faf9bbb891bddbe", "lon": -77.02000116666666, "rental_uris": {"android": "https://dc.lft.to/lastmile_qr_scan", "ios": "https://dc.lft.to/lastmile_qr_scan"}, "fusion_lon": 0.0, "is_reserved": 0}, {"lat": 38.899204, "fusion_lat": 0.0, "type": "electric_bike", "name": "37b3b7fb3dd84bca1b02463f59b55889", "is_disabled": 0, "bike_id": "37b3b7fb3dd84bca1b02463f59b55889", "lon": -77.044848, "rental_uris": {"android": "https://dc.lft.to/lastmile_qr_scan", "ios": "https://dc.lft.to/lastmile_qr_scan"}, "fusion_lon": 0.0, "is_reserved": 0}, {"lat": 38.91956883333334, "fusion_lat": 0.0, "type": "electric_scooter", "name": "f2e2fdcadaacf12c4ca6b223df041573", "is_disabled": 0, "bike_id": "f2e2fdcadaacf12c4ca6b223df041573", "lon": -77.02383416666666, "rental_uris": {"android": "https://dc.lft.to/lastmile_qr_scan", "ios": "https://dc.lft.to/lastmile_qr_scan"}, "fusion_lon": 0.0, "is_reserved": 0}, {"lat": 38.89947816666667, "fusion_lat": 0.0, "type": "electric_scooter", "name": "72399695009d5ec118780ed1422754e6", "is_disabled": 0, "bike_id": "72399695009d5ec118780ed1422754e6", "lon": -77.044871, "rental_uris": {"android": "https://dc.lft.to/lastmile_qr_scan", "ios": "https://dc.lft.to/lastmile_qr_scan"}, "fusion_lon": 0.0, "is_reserved": 0}, {"lat": 38.900073666666664, "fusion_lat": 0.0, "type": "electric_scooter", "name": "c4114ff8dc9162b2cb4275f28cb37204", "is_disabled": 0, "bike_id": "c4114ff8dc9162b2cb4275f28cb37204", "lon": -77.032659, "rental_uris": {"android": "https://dc.lft.to/lastmile_qr_scan", "ios": "https://dc.lft.to/lastmile_qr_scan"}, "fusion_lon": 0.0, "is_reserved": 0}, {"lat": 38.88418816666667, "fusion_lat": 0.0, "type": "electric_scooter", "name": "27bcbe58152723ca80815fb1465b7e1e", "is_disabled": 0, "bike_id": "27bcbe58152723ca80815fb1465b7e1e", "lon": -76.99692183333333, "rental_uris": {"android": "https://dc.lft.to/lastmile_qr_scan", "ios": "https://dc.lft.to/lastmile_qr_scan"}, "fusion_lon": 0.0, "is_reserved": 0}, {"lat": 38.948966666666664, "fusion_lat": 0.0, "type": "electric_bike", "name": "e55ccb38dd1664d27d6020c29d744074", "is_disabled": 0, "bike_id": "e55ccb38dd1664d27d6020c29d744074", "lon": -76.9637615, "rental_uris": {"android": "https://dc.lft.to/lastmile_qr_scan", "ios": "https://dc.lft.to/lastmile_qr_scan"}, "fusion_lon": 0.0, "is_reserved": 0}, {"lat": 38.91416866666667, "fusion_lat": 0.0, "type": "electric_scooter", "name": "73314f34328a98d5c5941237ef2b936c", "is_disabled": 0, "bike_id": "73314f34328a98d5c5941237ef2b936c", "lon": -77.0227905, "rental_uris": {"android": "https://dc.lft.to/lastmile_qr_scan", "ios": "https://dc.lft.to/lastmile_qr_scan"}, "fusion_lon": 0.0, "is_reserved": 0}, {"lat": 38.90437816666667, "fusion_lat": 0.0, "type": "electric_scooter", "name": "e338ff58eb0c89a498fe93f560a4e21c", "is_disabled": 0, "bike_id": "e338ff58eb0c89a498fe93f560a4e21c", "lon": -76.983214, "rental_uris": {"android": "https://dc.lft.to/lastmile_qr_scan", "ios": "https://dc.lft.to/lastmile_qr_scan"}, "fusion_lon": 0.0, "is_reserved": 0}, {"lat": 38.895188833333336, "fusion_lat": 0.0, "type": "electric_scooter", "name": "1a0132b14f75eac2231fe4a9e2af8579", "is_disabled": 0, "bike_id": "1a0132b14f75eac2231fe4a9e2af8579", "lon": -77.002011, "rental_uris": {"android": "https://dc.lft.to/lastmile_qr_scan", "ios": "https://dc.lft.to/lastmile_qr_scan"}, "fusion_lon": 0.0, "is_reserved": 0}, {"lat": 38.876815, "fusion_lat": 0.0, "type": "electric_scooter", "name": "68c852459e9e8655d6bda29a9c2862f8", "is_disabled": 0, "bike_id": "68c852459e9e8655d6bda29a9c2862f8", "lon": -77.006052, "rental_uris": {"android": "https://dc.lft.to/lastmile_qr_scan", "ios": "https://dc.lft.to/lastmile_qr_scan"}, "fusion_lon": 0.0, "is_reserved": 0}, {"lat": 38.897034166666664, "fusion_lat": 0.0, "type": "electric_scooter", "name": "89dfe4374216cda87ca849cade4d7f19", "is_disabled": 0, "bike_id": "89dfe4374216cda87ca849cade4d7f19", "lon": -77.02665833333333, "rental_uris": {"android": "https://dc.lft.to/lastmile_qr_scan", "ios": "https://dc.lft.to/lastmile_qr_scan"}, "fusion_lon": 0.0, "is_reserved": 0}, {"lat": 38.901424166666665, "fusion_lat": 0.0, "type": "electric_scooter", "name": "67b27269e7fe4923e31b0df734f5cc82", "is_disabled": 0, "bike_id": "67b27269e7fe4923e31b0df734f5cc82", "lon": -76.99159816666666, "rental_uris": {"android": "https://dc.lft.to/lastmile_qr_scan", "ios": "https://dc.lft.to/lastmile_qr_scan"}, "fusion_lon": 0.0, "is_reserved": 0}, {"lat": 38.897699833333334, "fusion_lat": 0.0, "type": "electric_scooter", "name": "33a752eb99ad2a94a763ba9bbcdf7b7a", "is_disabled": 0, "bike_id": "33a752eb99ad2a94a763ba9bbcdf7b7a", "lon": -77.01208983333333, "rental_uris": {"android": "https://dc.lft.to/lastmile_qr_scan", "ios": "https://dc.lft.to/lastmile_qr_scan"}, "fusion_lon": 0.0, "is_reserved": 0}, {"lat": 38.93846383333333, "fusion_lat": 0.0, "type": "electric_scooter", "name": "8ebd95f3a57372b50cca48f3f918c10f", "is_disabled": 0, "bike_id": "8ebd95f3a57372b50cca48f3f918c10f", "lon": -77.024727, "rental_uris": {"android": "https://dc.lft.to/lastmile_qr_scan", "ios": "https://dc.lft.to/lastmile_qr_scan"}, "fusion_lon": 0.0, "is_reserved": 0}, {"lat": 38.917048333333334, "fusion_lat": 0.0, "type": "electric_scooter", "name": "96ab7ba0356f1a5637ca142fdea58bae", "is_disabled": 0, "bike_id": "96ab7ba0356f1a5637ca142fdea58bae", "lon": -77.0346955, "rental_uris": {"android": "https://dc.lft.to/lastmile_qr_scan", "ios": "https://dc.lft.to/lastmile_qr_scan"}, "fusion_lon": 0.0, "is_reserved": 0}, {"lat": 38.90242683333334, "fusion_lat": 0.0, "type": "electric_scooter", "name": "e4daa074d6b4aef9ad41cdf00dd0e1eb", "is_disabled": 0, "bike_id": "e4daa074d6b4aef9ad41cdf00dd0e1eb", "lon": -77.04172483333333, "rental_uris": {"android": "https://dc.lft.to/lastmile_qr_scan", "ios": "https://dc.lft.to/lastmile_qr_scan"}, "fusion_lon": 0.0, "is_reserved": 0}, {"lat": 38.925189333333336, "fusion_lat": 0.0, "type": "electric_scooter", "name": "210d6ed764358555d54f459ccb587e28", "is_disabled": 0, "bike_id": "210d6ed764358555d54f459ccb587e28", "lon": -77.051306, "rental_uris": {"android": "https://dc.lft.to/lastmile_qr_scan", "ios": "https://dc.lft.to/lastmile_qr_scan"}, "fusion_lon": 0.0, "is_reserved": 0}, {"lat": 38.8876785, "fusion_lat": 0.0, "type": "electric_scooter", "name": "235dac8fe9917cd8d64ec4edaa02ada6", "is_disabled": 0, "bike_id": "235dac8fe9917cd8d64ec4edaa02ada6", "lon": -77.026301, "rental_uris": {"android": "https://dc.lft.to/lastmile_qr_scan", "ios": "https://dc.lft.to/lastmile_qr_scan"}, "fusion_lon": 0.0, "is_reserved": 0}, {"lat": 38.89461133333333, "fusion_lat": 0.0, "type": "electric_scooter", "name": "13929172c7df245106c898b2052b1906", "is_disabled": 0, "bike_id": "13929172c7df245106c898b2052b1906", "lon": -77.003489, "rental_uris": {"android": "https://dc.lft.to/lastmile_qr_scan", "ios": "https://dc.lft.to/lastmile_qr_scan"}, "fusion_lon": 0.0, "is_reserved": 0}, {"lat": 38.9410415, "fusion_lat": 0.0, "type": "electric_scooter", "name": "7dd11fd014ce1271599d7768e8597652", "is_disabled": 0, "bike_id": "7dd11fd014ce1271599d7768e8597652", "lon": -77.0770745, "rental_uris": {"android": "https://dc.lft.to/lastmile_qr_scan", "ios": "https://dc.lft.to/lastmile_qr_scan"}, "fusion_lon": 0.0, "is_reserved": 0}, {"lat": 38.90049366666667, "fusion_lat": 0.0, "type": "electric_scooter", "name": "1a418f07ab561de237cd847f3aadd5bd", "is_disabled": 0, "bike_id": "1a418f07ab561de237cd847f3aadd5bd", "lon": -77.050626, "rental_uris": {"android": "https://dc.lft.to/lastmile_qr_scan", "ios": "https://dc.lft.to/lastmile_qr_scan"}, "fusion_lon": 0.0, "is_reserved": 0}, {"lat": 38.90954216666667, "fusion_lat": 0.0, "type": "electric_scooter", "name": "76663c2a3d15c62a2bea465579a845e4", "is_disabled": 0, "bike_id": "76663c2a3d15c62a2bea465579a845e4", "lon": -77.04568516666667, "rental_uris": {"android": "https://dc.lft.to/lastmile_qr_scan", "ios": "https://dc.lft.to/lastmile_qr_scan"}, "fusion_lon": 0.0, "is_reserved": 0}, {"lat": 38.9416575, "fusion_lat": 0.0, "type": "electric_scooter", "name": "cdb74607831fa5260ea2a2f0d530dfb1", "is_disabled": 0, "bike_id": "cdb74607831fa5260ea2a2f0d530dfb1", "lon": -77.02556066666666, "rental_uris": {"android": "https://dc.lft.to/lastmile_qr_scan", "ios": "https://dc.lft.to/lastmile_qr_scan"}, "fusion_lon": 0.0, "is_reserved": 0}, {"lat": 38.9236015, "fusion_lat": 0.0, "type": "electric_scooter", "name": "07d7e4d451d96ca8d5de345bf9ed3b23", "is_disabled": 0, "bike_id": "07d7e4d451d96ca8d5de345bf9ed3b23", "lon": -77.05111, "rental_uris": {"android": "https://dc.lft.to/lastmile_qr_scan", "ios": "https://dc.lft.to/lastmile_qr_scan"}, "fusion_lon": 0.0, "is_reserved": 0}, {"lat": 38.927527833333336, "fusion_lat": 0.0, "type": "electric_scooter", "name": "23d2afc86d122890bc49b58c9e0e6718", "is_disabled": 0, "bike_id": "23d2afc86d122890bc49b58c9e0e6718", "lon": -77.021112, "rental_uris": {"android": "https://dc.lft.to/lastmile_qr_scan", "ios": "https://dc.lft.to/lastmile_qr_scan"}, "fusion_lon": 0.0, "is_reserved": 0}, {"lat": 38.89854583333333, "fusion_lat": 0.0, "type": "electric_scooter", "name": "774287d52503313ae2eb9b3ba6068713", "is_disabled": 0, "bike_id": "774287d52503313ae2eb9b3ba6068713", "lon": -77.01143866666666, "rental_uris": {"android": "https://dc.lft.to/lastmile_qr_scan", "ios": "https://dc.lft.to/lastmile_qr_scan"}, "fusion_lon": 0.0, "is_reserved": 0}, {"lat": 38.906834, "fusion_lat": 0.0, "type": "electric_scooter", "name": "3a3bc61f25c78733e0b73bdbafc64b49", "is_disabled": 0, "bike_id": "3a3bc61f25c78733e0b73bdbafc64b49", "lon": -77.02378733333333, "rental_uris": {"android": "https://dc.lft.to/lastmile_qr_scan", "ios": "https://dc.lft.to/lastmile_qr_scan"}, "fusion_lon": 0.0, "is_reserved": 0}, {"lat": 38.89195183333333, "fusion_lat": 0.0, "type": "electric_scooter", "name": "89445c423aa1dff148358d89421224cb", "is_disabled": 0, "bike_id": "89445c423aa1dff148358d89421224cb", "lon": -77.02377283333334, "rental_uris": {"android": "https://dc.lft.to/lastmile_qr_scan", "ios": "https://dc.lft.to/lastmile_qr_scan"}, "fusion_lon": 0.0, "is_reserved": 0}, {"lat": 38.884020666666665, "fusion_lat": 0.0, "type": "electric_scooter", "name": "fbf5f8856a4cee1fe5ace338e1769eef", "is_disabled": 0, "bike_id": "fbf5f8856a4cee1fe5ace338e1769eef", "lon": -76.94826383333333, "rental_uris": {"android": "https://dc.lft.to/lastmile_qr_scan", "ios": "https://dc.lft.to/lastmile_qr_scan"}, "fusion_lon": 0.0, "is_reserved": 0}, {"lat": 38.93699733333333, "fusion_lat": 0.0, "type": "electric_bike", "name": "107db9490164afc26e4253a1d8859df4", "is_disabled": 0, "bike_id": "107db9490164afc26e4253a1d8859df4", "lon": -77.021169, "rental_uris": {"android": "https://dc.lft.to/lastmile_qr_scan", "ios": "https://dc.lft.to/lastmile_qr_scan"}, "fusion_lon": 0.0, "is_reserved": 0}, {"lat": 38.9349755, "fusion_lat": 0.0, "type": "electric_scooter", "name": "f073f1abc2cd9875e711a89df18b9022", "is_disabled": 0, "bike_id": "f073f1abc2cd9875e711a89df18b9022", "lon": -77.027264, "rental_uris": {"android": "https://dc.lft.to/lastmile_qr_scan", "ios": "https://dc.lft.to/lastmile_qr_scan"}, "fusion_lon": 0.0, "is_reserved": 0}, {"lat": 38.89228, "fusion_lat": 0.0, "type": "electric_scooter", "name": "bdb716c5ffedf98e512f151a6de02579", "is_disabled": 0, "bike_id": "bdb716c5ffedf98e512f151a6de02579", "lon": -77.02381966666667, "rental_uris": {"android": "https://dc.lft.to/lastmile_qr_scan", "ios": "https://dc.lft.to/lastmile_qr_scan"}, "fusion_lon": 0.0, "is_reserved": 0}, {"lat": 38.830974499999996, "fusion_lat": 0.0, "type": "electric_bike", "name": "e33ab204702f37de9ca4a4e408177be7", "is_disabled": 0, "bike_id": "e33ab204702f37de9ca4a4e408177be7", "lon": -77.04289383333334, "rental_uris": {"android": "https://dc.lft.to/lastmile_qr_scan", "ios": "https://dc.lft.to/lastmile_qr_scan"}, "fusion_lon": 0.0, "is_reserved": 0}, {"lat": 38.89749833333333, "fusion_lat": 0.0, "type": "electric_scooter", "name": "9ec210a6c01d7735096c095ced450b8e", "is_disabled": 0, "bike_id": "9ec210a6c01d7735096c095ced450b8e", "lon": -77.02992783333333, "rental_uris": {"android": "https://dc.lft.to/lastmile_qr_scan", "ios": "https://dc.lft.to/lastmile_qr_scan"}, "fusion_lon": 0.0, "is_reserved": 0}, {"lat": 38.901887, "fusion_lat": 0.0, "type": "electric_scooter", "name": "a59a2ba7b7e4413b5e1c1a9a3d2f4652", "is_disabled": 0, "bike_id": "a59a2ba7b7e4413b5e1c1a9a3d2f4652", "lon": -76.92894216666667, "rental_uris": {"android": "https://dc.lft.to/lastmile_qr_scan", "ios": "https://dc.lft.to/lastmile_qr_scan"}, "fusion_lon": 0.0, "is_reserved": 0}, {"lat": 38.88698566666667, "fusion_lat": 0.0, "type": "electric_scooter", "name": "b6a471612e68c7c25efbbd34984f16b8", "is_disabled": 0, "bike_id": "b6a471612e68c7c25efbbd34984f16b8", "lon": -77.00341983333334, "rental_uris": {"android": "https://dc.lft.to/lastmile_qr_scan", "ios": "https://dc.lft.to/lastmile_qr_scan"}, "fusion_lon": 0.0, "is_reserved": 0}, {"lat": 38.92718466666667, "fusion_lat": 0.0, "type": "electric_bike", "name": "d157d831407495e0a10f1d3b5cc1e352", "is_disabled": 0, "bike_id": "d157d831407495e0a10f1d3b5cc1e352", "lon": -76.96296883333333, "rental_uris": {"android": "https://dc.lft.to/lastmile_qr_scan", "ios": "https://dc.lft.to/lastmile_qr_scan"}, "fusion_lon": 0.0, "is_reserved": 0}, {"lat": 38.92285833333333, "fusion_lat": 0.0, "type": "electric_scooter", "name": "e7b7d2340ed4ed1de79232c3273a7e3b", "is_disabled": 0, "bike_id": "e7b7d2340ed4ed1de79232c3273a7e3b", "lon": -77.02244116666667, "rental_uris": {"android": "https://dc.lft.to/lastmile_qr_scan", "ios": "https://dc.lft.to/lastmile_qr_scan"}, "fusion_lon": 0.0, "is_reserved": 0}, {"lat": 38.910202, "fusion_lat": 0.0, "type": "electric_scooter", "name": "5dc6866c96facd67ba2688a7657688e3", "is_disabled": 0, "bike_id": "5dc6866c96facd67ba2688a7657688e3", "lon": -77.05271716666667, "rental_uris": {"android": "https://dc.lft.to/lastmile_qr_scan", "ios": "https://dc.lft.to/lastmile_qr_scan"}, "fusion_lon": 0.0, "is_reserved": 0}, {"lat": 39.0408025, "fusion_lat": 0.0, "type": "electric_bike", "name": "cb3898863363153a53d56bb60d3674d2", "is_disabled": 0, "bike_id": "cb3898863363153a53d56bb60d3674d2", "lon": -77.053387, "rental_uris": {"android": "https://dc.lft.to/lastmile_qr_scan", "ios": "https://dc.lft.to/lastmile_qr_scan"}, "fusion_lon": 0.0, "is_reserved": 0}, {"lat": 38.91401533333333, "fusion_lat": 0.0, "type": "electric_scooter", "name": "87a507b4b7673c3486b2a207a63ebaee", "is_disabled": 0, "bike_id": "87a507b4b7673c3486b2a207a63ebaee", "lon": -77.03219733333333, "rental_uris": {"android": "https://dc.lft.to/lastmile_qr_scan", "ios": "https://dc.lft.to/lastmile_qr_scan"}, "fusion_lon": 0.0, "is_reserved": 0}, {"lat": 38.873937833333336, "fusion_lat": 0.0, "type": "electric_scooter", "name": "c20bfe453572bba390afde04ae18cf04", "is_disabled": 0, "bike_id": "c20bfe453572bba390afde04ae18cf04", "lon": -77.0003415, "rental_uris": {"android": "https://dc.lft.to/lastmile_qr_scan", "ios": "https://dc.lft.to/lastmile_qr_scan"}, "fusion_lon": 0.0, "is_reserved": 0}, {"lat": 38.917099666666665, "fusion_lat": 0.0, "type": "electric_scooter", "name": "9a3d11a19918ac4cf6e5ff982a9a5cbc", "is_disabled": 0, "bike_id": "9a3d11a19918ac4cf6e5ff982a9a5cbc", "lon": -77.03380066666666, "rental_uris": {"android": "https://dc.lft.to/lastmile_qr_scan", "ios": "https://dc.lft.to/lastmile_qr_scan"}, "fusion_lon": 0.0, "is_reserved": 0}, {"lat": 38.911093, "fusion_lat": 0.0, "type": "electric_scooter", "name": "45de40d0a1b53d34f375d99143d6eb95", "is_disabled": 0, "bike_id": "45de40d0a1b53d34f375d99143d6eb95", "lon": -77.042271, "rental_uris": {"android": "https://dc.lft.to/lastmile_qr_scan", "ios": "https://dc.lft.to/lastmile_qr_scan"}, "fusion_lon": 0.0, "is_reserved": 0}, {"lat": 38.95071933333333, "fusion_lat": 0.0, "type": "electric_scooter", "name": "d806bafd4a28938b21c6d7902405da03", "is_disabled": 0, "bike_id": "d806bafd4a28938b21c6d7902405da03", "lon": -76.99622666666667, "rental_uris": {"android": "https://dc.lft.to/lastmile_qr_scan", "ios": "https://dc.lft.to/lastmile_qr_scan"}, "fusion_lon": 0.0, "is_reserved": 0}, {"lat": 38.90277483333333, "fusion_lat": 0.0, "type": "electric_scooter", "name": "00dcba4d58837e3ed9b929b9cbf15bbc", "is_disabled": 0, "bike_id": "00dcba4d58837e3ed9b929b9cbf15bbc", "lon": -77.03881683333333, "rental_uris": {"android": "https://dc.lft.to/lastmile_qr_scan", "ios": "https://dc.lft.to/lastmile_qr_scan"}, "fusion_lon": 0.0, "is_reserved": 0}, {"lat": 38.900327, "fusion_lat": 0.0, "type": "electric_scooter", "name": "1408043a7cfb4c331682dfa54dd4909e", "is_disabled": 0, "bike_id": "1408043a7cfb4c331682dfa54dd4909e", "lon": -77.02393916666666, "rental_uris": {"android": "https://dc.lft.to/lastmile_qr_scan", "ios": "https://dc.lft.to/lastmile_qr_scan"}, "fusion_lon": 0.0, "is_reserved": 0}, {"lat": 38.925578, "fusion_lat": 0.0, "type": "electric_scooter", "name": "6bdca185637a785918f85141005762aa", "is_disabled": 0, "bike_id": "6bdca185637a785918f85141005762aa", "lon": -77.05266366666666, "rental_uris": {"android": "https://dc.lft.to/lastmile_qr_scan", "ios": "https://dc.lft.to/lastmile_qr_scan"}, "fusion_lon": 0.0, "is_reserved": 0}, {"lat": 38.908648, "fusion_lat": 0.0, "type": "electric_scooter", "name": "b0b822a68ef8363d6230422719ed4fb9", "is_disabled": 0, "bike_id": "b0b822a68ef8363d6230422719ed4fb9", "lon": -77.04575833333334, "rental_uris": {"android": "https://dc.lft.to/lastmile_qr_scan", "ios": "https://dc.lft.to/lastmile_qr_scan"}, "fusion_lon": 0.0, "is_reserved": 0}, {"lat": 38.925355, "fusion_lat": 0.0, "type": "electric_scooter", "name": "4bd2e6c34a167229847a905c3af66307", "is_disabled": 0, "bike_id": "4bd2e6c34a167229847a905c3af66307", "lon": -77.03378033333334, "rental_uris": {"android": "https://dc.lft.to/lastmile_qr_scan", "ios": "https://dc.lft.to/lastmile_qr_scan"}, "fusion_lon": 0.0, "is_reserved": 0}, {"lat": 38.93584516666667, "fusion_lat": 0.0, "type": "electric_scooter", "name": "6568986e774e539aad09245cb12df769", "is_disabled": 0, "bike_id": "6568986e774e539aad09245cb12df769", "lon": -77.0335365, "rental_uris": {"android": "https://dc.lft.to/lastmile_qr_scan", "ios": "https://dc.lft.to/lastmile_qr_scan"}, "fusion_lon": 0.0, "is_reserved": 0}, {"lat": 38.92725866666667, "fusion_lat": 0.0, "type": "electric_scooter", "name": "acb30913cc6c6370ed661738c653c15d", "is_disabled": 0, "bike_id": "acb30913cc6c6370ed661738c653c15d", "lon": -77.03239866666667, "rental_uris": {"android": "https://dc.lft.to/lastmile_qr_scan", "ios": "https://dc.lft.to/lastmile_qr_scan"}, "fusion_lon": 0.0, "is_reserved": 0}, {"lat": 38.87420766666666, "fusion_lat": 0.0, "type": "electric_bike", "name": "2912fe2c4c19ce0cd05bb1ef83a5f911", "is_disabled": 0, "bike_id": "2912fe2c4c19ce0cd05bb1ef83a5f911", "lon": -77.08578833333333, "rental_uris": {"android": "https://dc.lft.to/lastmile_qr_scan", "ios": "https://dc.lft.to/lastmile_qr_scan"}, "fusion_lon": 0.0, "is_reserved": 0}, {"lat": 38.91704166666667, "fusion_lat": 0.0, "type": "electric_scooter", "name": "59f2b26b7749e9ba957ceb9ada7a63b9", "is_disabled": 0, "bike_id": "59f2b26b7749e9ba957ceb9ada7a63b9", "lon": -77.02458133333333, "rental_uris": {"android": "https://dc.lft.to/lastmile_qr_scan", "ios": "https://dc.lft.to/lastmile_qr_scan"}, "fusion_lon": 0.0, "is_reserved": 0}, {"lat": 38.927823833333335, "fusion_lat": 0.0, "type": "electric_scooter", "name": "b6764546f2ce62f5cd60bc8ee45eaeed", "is_disabled": 0, "bike_id": "b6764546f2ce62f5cd60bc8ee45eaeed", "lon": -77.0320365, "rental_uris": {"android": "https://dc.lft.to/lastmile_qr_scan", "ios": "https://dc.lft.to/lastmile_qr_scan"}, "fusion_lon": 0.0, "is_reserved": 0}, {"lat": 38.91910683333333, "fusion_lat": 0.0, "type": "electric_scooter", "name": "c940a45638288b44ea5d8a83830596fd", "is_disabled": 0, "bike_id": "c940a45638288b44ea5d8a83830596fd", "lon": -77.0342575, "rental_uris": {"android": "https://dc.lft.to/lastmile_qr_scan", "ios": "https://dc.lft.to/lastmile_qr_scan"}, "fusion_lon": 0.0, "is_reserved": 0}, {"lat": 38.92125, "fusion_lat": 0.0, "type": "electric_scooter", "name": "5e9ba7121ae0ed4a512bbc12be056f4d", "is_disabled": 0, "bike_id": "5e9ba7121ae0ed4a512bbc12be056f4d", "lon": -77.0458185, "rental_uris": {"android": "https://dc.lft.to/lastmile_qr_scan", "ios": "https://dc.lft.to/lastmile_qr_scan"}, "fusion_lon": 0.0, "is_reserved": 0}, {"lat": 38.9307785, "fusion_lat": 0.0, "type": "electric_scooter", "name": "575973fc3c58e615ccf7b0c9bfafadaf", "is_disabled": 0, "bike_id": "575973fc3c58e615ccf7b0c9bfafadaf", "lon": -77.02735966666667, "rental_uris": {"android": "https://dc.lft.to/lastmile_qr_scan", "ios": "https://dc.lft.to/lastmile_qr_scan"}, "fusion_lon": 0.0, "is_reserved": 0}, {"lat": 38.907176, "fusion_lat": 0.0, "type": "electric_scooter", "name": "e45d8df0ba6a3818a9da715533f68957", "is_disabled": 0, "bike_id": "e45d8df0ba6a3818a9da715533f68957", "lon": -77.03361483333333, "rental_uris": {"android": "https://dc.lft.to/lastmile_qr_scan", "ios": "https://dc.lft.to/lastmile_qr_scan"}, "fusion_lon": 0.0, "is_reserved": 0}, {"lat": 38.90827916666667, "fusion_lat": 0.0, "type": "electric_scooter", "name": "7a81685b4ce8a56a19f3a67b7b81044e", "is_disabled": 0, "bike_id": "7a81685b4ce8a56a19f3a67b7b81044e", "lon": -77.04356933333334, "rental_uris": {"android": "https://dc.lft.to/lastmile_qr_scan", "ios": "https://dc.lft.to/lastmile_qr_scan"}, "fusion_lon": 0.0, "is_reserved": 0}, {"lat": 38.8546645, "fusion_lat": 0.0, "type": "electric_bike", "name": "06762f60cae8d2e4c28dba3eec9d900c", "is_disabled": 0, "bike_id": "06762f60cae8d2e4c28dba3eec9d900c", "lon": -77.049486, "rental_uris": {"android": "https://dc.lft.to/lastmile_qr_scan", "ios": "https://dc.lft.to/lastmile_qr_scan"}, "fusion_lon": 0.0, "is_reserved": 0}, {"lat": 38.92329066666667, "fusion_lat": 0.0, "type": "electric_scooter", "name": "3a27deff39031280cc7501d9080a7a7b", "is_disabled": 0, "bike_id": "3a27deff39031280cc7501d9080a7a7b", "lon": -77.03626233333334, "rental_uris": {"android": "https://dc.lft.to/lastmile_qr_scan", "ios": "https://dc.lft.to/lastmile_qr_scan"}, "fusion_lon": 0.0, "is_reserved": 0}, {"lat": 38.896320333333335, "fusion_lat": 0.0, "type": "electric_scooter", "name": "0c5f6f994a36840a0d30fcc83df3f647", "is_disabled": 0, "bike_id": "0c5f6f994a36840a0d30fcc83df3f647", "lon": -77.039971, "rental_uris": {"android": "https://dc.lft.to/lastmile_qr_scan", "ios": "https://dc.lft.to/lastmile_qr_scan"}, "fusion_lon": 0.0, "is_reserved": 0}, {"lat": 38.91743833333334, "fusion_lat": 0.0, "type": "electric_scooter", "name": "eddbafe11f60b251e4c8f9bc1748cf91", "is_disabled": 0, "bike_id": "eddbafe11f60b251e4c8f9bc1748cf91", "lon": -77.04159666666666, "rental_uris": {"android": "https://dc.lft.to/lastmile_qr_scan", "ios": "https://dc.lft.to/lastmile_qr_scan"}, "fusion_lon": 0.0, "is_reserved": 0}, {"lat": 38.907267, "fusion_lat": 0.0, "type": "electric_scooter", "name": "8c9c101304166ba172271202384801e9", "is_disabled": 0, "bike_id": "8c9c101304166ba172271202384801e9", "lon": -77.02380533333333, "rental_uris": {"android": "https://dc.lft.to/lastmile_qr_scan", "ios": "https://dc.lft.to/lastmile_qr_scan"}, "fusion_lon": 0.0, "is_reserved": 0}, {"lat": 38.90040316666666, "fusion_lat": 0.0, "type": "electric_scooter", "name": "d4439c79d482b43c4e525d25d58290f8", "is_disabled": 0, "bike_id": "d4439c79d482b43c4e525d25d58290f8", "lon": -76.9883575, "rental_uris": {"android": "https://dc.lft.to/lastmile_qr_scan", "ios": "https://dc.lft.to/lastmile_qr_scan"}, "fusion_lon": 0.0, "is_reserved": 0}, {"lat": 38.927462, "fusion_lat": 0.0, "type": "electric_scooter", "name": "56e6f58bda3f3831c25e6d37ef89fa29", "is_disabled": 0, "bike_id": "56e6f58bda3f3831c25e6d37ef89fa29", "lon": -77.03304583333333, "rental_uris": {"android": "https://dc.lft.to/lastmile_qr_scan", "ios": "https://dc.lft.to/lastmile_qr_scan"}, "fusion_lon": 0.0, "is_reserved": 0}, {"lat": 38.90259783333333, "fusion_lat": 0.0, "type": "electric_scooter", "name": "267cbe9d4328416fc100f529b8fbb0b1", "is_disabled": 0, "bike_id": "267cbe9d4328416fc100f529b8fbb0b1", "lon": -77.00544283333333, "rental_uris": {"android": "https://dc.lft.to/lastmile_qr_scan", "ios": "https://dc.lft.to/lastmile_qr_scan"}, "fusion_lon": 0.0, "is_reserved": 0}, {"lat": 38.921827, "fusion_lat": 0.0, "type": "electric_scooter", "name": "57f8db3ed23c41ed828f26a84c9dd3f3", "is_disabled": 0, "bike_id": "57f8db3ed23c41ed828f26a84c9dd3f3", "lon": -77.04702566666667, "rental_uris": {"android": "https://dc.lft.to/lastmile_qr_scan", "ios": "https://dc.lft.to/lastmile_qr_scan"}, "fusion_lon": 0.0, "is_reserved": 0}, {"lat": 38.90267583333333, "fusion_lat": 0.0, "type": "electric_scooter", "name": "d10f4592b425b7ea40f38f4f5b59cb60", "is_disabled": 0, "bike_id": "d10f4592b425b7ea40f38f4f5b59cb60", "lon": -77.0591835, "rental_uris": {"android": "https://dc.lft.to/lastmile_qr_scan", "ios": "https://dc.lft.to/lastmile_qr_scan"}, "fusion_lon": 0.0, "is_reserved": 0}, {"lat": 38.920564166666665, "fusion_lat": 0.0, "type": "electric_scooter", "name": "32c4f23da783041da76652303e9e980b", "is_disabled": 0, "bike_id": "32c4f23da783041da76652303e9e980b", "lon": -77.02540866666666, "rental_uris": {"android": "https://dc.lft.to/lastmile_qr_scan", "ios": "https://dc.lft.to/lastmile_qr_scan"}, "fusion_lon": 0.0, "is_reserved": 0}, {"lat": 38.893522, "fusion_lat": 0.0, "type": "electric_scooter", "name": "8e3fb96af1922b7ad4e374eeb109c087", "is_disabled": 0, "bike_id": "8e3fb96af1922b7ad4e374eeb109c087", "lon": -77.02856333333334, "rental_uris": {"android": "https://dc.lft.to/lastmile_qr_scan", "ios": "https://dc.lft.to/lastmile_qr_scan"}, "fusion_lon": 0.0, "is_reserved": 0}, {"lat": 38.916259, "fusion_lat": 0.0, "type": "electric_scooter", "name": "0c26319bddf340f0ee82120aa2a1c066", "is_disabled": 0, "bike_id": "0c26319bddf340f0ee82120aa2a1c066", "lon": -77.04470466666666, "rental_uris": {"android": "https://dc.lft.to/lastmile_qr_scan", "ios": "https://dc.lft.to/lastmile_qr_scan"}, "fusion_lon": 0.0, "is_reserved": 0}, {"lat": 38.91781816666666, "fusion_lat": 0.0, "type": "electric_scooter", "name": "e2e855d3632bbf1b159ee6afcc6298fb", "is_disabled": 0, "bike_id": "e2e855d3632bbf1b159ee6afcc6298fb", "lon": -77.02313316666667, "rental_uris": {"android": "https://dc.lft.to/lastmile_qr_scan", "ios": "https://dc.lft.to/lastmile_qr_scan"}, "fusion_lon": 0.0, "is_reserved": 0}, {"lat": 38.918491333333336, "fusion_lat": 0.0, "type": "electric_scooter", "name": "e29f0605c3c3880ec549b721568126dc", "is_disabled": 0, "bike_id": "e29f0605c3c3880ec549b721568126dc", "lon": -77.0319045, "rental_uris": {"android": "https://dc.lft.to/lastmile_qr_scan", "ios": "https://dc.lft.to/lastmile_qr_scan"}, "fusion_lon": 0.0, "is_reserved": 0}, {"lat": 38.885616, "fusion_lat": 0.0, "type": "electric_scooter", "name": "16d801b6592d496e3b4a7b4cbcf94f83", "is_disabled": 0, "bike_id": "16d801b6592d496e3b4a7b4cbcf94f83", "lon": -76.99806666666667, "rental_uris": {"android": "https://dc.lft.to/lastmile_qr_scan", "ios": "https://dc.lft.to/lastmile_qr_scan"}, "fusion_lon": 0.0, "is_reserved": 0}, {"lat": 38.94191466666667, "fusion_lat": 0.0, "type": "electric_scooter", "name": "6cb0ac7032dd32d92919366a82428b39", "is_disabled": 0, "bike_id": "6cb0ac7032dd32d92919366a82428b39", "lon": -77.03840733333334, "rental_uris": {"android": "https://dc.lft.to/lastmile_qr_scan", "ios": "https://dc.lft.to/lastmile_qr_scan"}, "fusion_lon": 0.0, "is_reserved": 0}, {"lat": 38.89077116666667, "fusion_lat": 0.0, "type": "electric_scooter", "name": "3992f303830d9c15d782514f05e04f8d", "is_disabled": 0, "bike_id": "3992f303830d9c15d782514f05e04f8d", "lon": -77.03328633333334, "rental_uris": {"android": "https://dc.lft.to/lastmile_qr_scan", "ios": "https://dc.lft.to/lastmile_qr_scan"}, "fusion_lon": 0.0, "is_reserved": 0}, {"lat": 38.90269216666667, "fusion_lat": 0.0, "type": "electric_scooter", "name": "29633f639dea97e046101e1456c33e11", "is_disabled": 0, "bike_id": "29633f639dea97e046101e1456c33e11", "lon": -77.030735, "rental_uris": {"android": "https://dc.lft.to/lastmile_qr_scan", "ios": "https://dc.lft.to/lastmile_qr_scan"}, "fusion_lon": 0.0, "is_reserved": 0}, {"lat": 38.896148, "fusion_lat": 0.0, "type": "electric_scooter", "name": "4ae0e9fac4dd011f3c5cfbcf30d42c4f", "is_disabled": 0, "bike_id": "4ae0e9fac4dd011f3c5cfbcf30d42c4f", "lon": -77.009211, "rental_uris": {"android": "https://dc.lft.to/lastmile_qr_scan", "ios": "https://dc.lft.to/lastmile_qr_scan"}, "fusion_lon": 0.0, "is_reserved": 0}, {"lat": 38.91539983333333, "fusion_lat": 0.0, "type": "electric_scooter", "name": "f20627e116f8a3ff5d4dfde9b7e72c15", "is_disabled": 0, "bike_id": "f20627e116f8a3ff5d4dfde9b7e72c15", "lon": -77.01264483333334, "rental_uris": {"android": "https://dc.lft.to/lastmile_qr_scan", "ios": "https://dc.lft.to/lastmile_qr_scan"}, "fusion_lon": 0.0, "is_reserved": 0}, {"lat": 38.917040666666665, "fusion_lat": 0.0, "type": "electric_scooter", "name": "e7fe09b165cd67e3c748b8883e70243a", "is_disabled": 0, "bike_id": "e7fe09b165cd67e3c748b8883e70243a", "lon": -77.03463383333333, "rental_uris": {"android": "https://dc.lft.to/lastmile_qr_scan", "ios": "https://dc.lft.to/lastmile_qr_scan"}, "fusion_lon": 0.0, "is_reserved": 0}, {"lat": 38.90518733333333, "fusion_lat": 0.0, "type": "electric_scooter", "name": "5510f1d78c0352a4daadec1bfce5ed8d", "is_disabled": 0, "bike_id": "5510f1d78c0352a4daadec1bfce5ed8d", "lon": -77.018814, "rental_uris": {"android": "https://dc.lft.to/lastmile_qr_scan", "ios": "https://dc.lft.to/lastmile_qr_scan"}, "fusion_lon": 0.0, "is_reserved": 0}, {"lat": 38.941865166666666, "fusion_lat": 0.0, "type": "electric_scooter", "name": "eb008a73e20bffcce9c668782dd8c464", "is_disabled": 0, "bike_id": "eb008a73e20bffcce9c668782dd8c464", "lon": -77.02484416666667, "rental_uris": {"android": "https://dc.lft.to/lastmile_qr_scan", "ios": "https://dc.lft.to/lastmile_qr_scan"}, "fusion_lon": 0.0, "is_reserved": 0}, {"lat": 38.895247, "fusion_lat": 0.0, "type": "electric_scooter", "name": "6811d33e58a157196ae3a50c9eb95917", "is_disabled": 0, "bike_id": "6811d33e58a157196ae3a50c9eb95917", "lon": -77.002067, "rental_uris": {"android": "https://dc.lft.to/lastmile_qr_scan", "ios": "https://dc.lft.to/lastmile_qr_scan"}, "fusion_lon": 0.0, "is_reserved": 0}, {"lat": 38.88364283333333, "fusion_lat": 0.0, "type": "electric_scooter", "name": "b07c74fded7996a28f781e7bcaff7101", "is_disabled": 0, "bike_id": "b07c74fded7996a28f781e7bcaff7101", "lon": -76.9415545, "rental_uris": {"android": "https://dc.lft.to/lastmile_qr_scan", "ios": "https://dc.lft.to/lastmile_qr_scan"}, "fusion_lon": 0.0, "is_reserved": 0}, {"lat": 38.90478483333333, "fusion_lat": 0.0, "type": "electric_scooter", "name": "ce1d855bfd404b25cc200bf285a7bcc5", "is_disabled": 0, "bike_id": "ce1d855bfd404b25cc200bf285a7bcc5", "lon": -77.04488466666666, "rental_uris": {"android": "https://dc.lft.to/lastmile_qr_scan", "ios": "https://dc.lft.to/lastmile_qr_scan"}, "fusion_lon": 0.0, "is_reserved": 0}, {"lat": 38.80653566666667, "fusion_lat": 0.0, "type": "electric_bike", "name": "d95129851017029d1c14fec2fe63ba15", "is_disabled": 0, "bike_id": "d95129851017029d1c14fec2fe63ba15", "lon": -77.08757683333333, "rental_uris": {"android": "https://dc.lft.to/lastmile_qr_scan", "ios": "https://dc.lft.to/lastmile_qr_scan"}, "fusion_lon": 0.0, "is_reserved": 0}, {"lat": 38.928050166666665, "fusion_lat": 0.0, "type": "electric_scooter", "name": "797725098c382897636a13485304d4cc", "is_disabled": 0, "bike_id": "797725098c382897636a13485304d4cc", "lon": -77.01407616666667, "rental_uris": {"android": "https://dc.lft.to/lastmile_qr_scan", "ios": "https://dc.lft.to/lastmile_qr_scan"}, "fusion_lon": 0.0, "is_reserved": 0}, {"lat": 38.9068915, "fusion_lat": 0.0, "type": "electric_scooter", "name": "154bf5adbd22f6d82afe6267c74dbea3", "is_disabled": 0, "bike_id": "154bf5adbd22f6d82afe6267c74dbea3", "lon": -77.03631333333334, "rental_uris": {"android": "https://dc.lft.to/lastmile_qr_scan", "ios": "https://dc.lft.to/lastmile_qr_scan"}, "fusion_lon": 0.0, "is_reserved": 0}, {"lat": 38.94224633333333, "fusion_lat": 0.0, "type": "electric_bike", "name": "cd0649f99185d59b28254e56380fac33", "is_disabled": 0, "bike_id": "cd0649f99185d59b28254e56380fac33", "lon": -76.99071133333334, "rental_uris": {"android": "https://dc.lft.to/lastmile_qr_scan", "ios": "https://dc.lft.to/lastmile_qr_scan"}, "fusion_lon": 0.0, "is_reserved": 0}, {"lat": 38.902303, "fusion_lat": 0.0, "type": "electric_scooter", "name": "ce73e3395b1e8957c2b71228def44058", "is_disabled": 0, "bike_id": "ce73e3395b1e8957c2b71228def44058", "lon": -77.01696966666667, "rental_uris": {"android": "https://dc.lft.to/lastmile_qr_scan", "ios": "https://dc.lft.to/lastmile_qr_scan"}, "fusion_lon": 0.0, "is_reserved": 0}, {"lat": 38.90236483333333, "fusion_lat": 0.0, "type": "electric_scooter", "name": "5c8fd2c68f05d75052f88d9500c47305", "is_disabled": 0, "bike_id": "5c8fd2c68f05d75052f88d9500c47305", "lon": -76.97432133333334, "rental_uris": {"android": "https://dc.lft.to/lastmile_qr_scan", "ios": "https://dc.lft.to/lastmile_qr_scan"}, "fusion_lon": 0.0, "is_reserved": 0}, {"lat": 38.905736833333336, "fusion_lat": 0.0, "type": "electric_scooter", "name": "3e6dbff20dca7f7fa9ac2839a0f228f5", "is_disabled": 0, "bike_id": "3e6dbff20dca7f7fa9ac2839a0f228f5", "lon": -77.04353816666666, "rental_uris": {"android": "https://dc.lft.to/lastmile_qr_scan", "ios": "https://dc.lft.to/lastmile_qr_scan"}, "fusion_lon": 0.0, "is_reserved": 0}, {"lat": 38.9243775, "fusion_lat": 0.0, "type": "electric_scooter", "name": "e5ea50acfc2ab18f98becae4d4bebb57", "is_disabled": 0, "bike_id": "e5ea50acfc2ab18f98becae4d4bebb57", "lon": -77.03404883333333, "rental_uris": {"android": "https://dc.lft.to/lastmile_qr_scan", "ios": "https://dc.lft.to/lastmile_qr_scan"}, "fusion_lon": 0.0, "is_reserved": 0}, {"lat": 38.930594166666666, "fusion_lat": 0.0, "type": "electric_scooter", "name": "0ff82f6dc72c1ad988c78f0ee4590f25", "is_disabled": 0, "bike_id": "0ff82f6dc72c1ad988c78f0ee4590f25", "lon": -77.02807183333333, "rental_uris": {"android": "https://dc.lft.to/lastmile_qr_scan", "ios": "https://dc.lft.to/lastmile_qr_scan"}, "fusion_lon": 0.0, "is_reserved": 0}, {"lat": 38.8428875, "fusion_lat": 0.0, "type": "electric_scooter", "name": "fd869eb155e461619b4b194b2cbfd206", "is_disabled": 0, "bike_id": "fd869eb155e461619b4b194b2cbfd206", "lon": -76.99944166666667, "rental_uris": {"android": "https://dc.lft.to/lastmile_qr_scan", "ios": "https://dc.lft.to/lastmile_qr_scan"}, "fusion_lon": 0.0, "is_reserved": 0}, {"lat": 38.9137775, "fusion_lat": 0.0, "type": "electric_scooter", "name": "eccde26f12dbf7f23e4df234783eeec2", "is_disabled": 0, "bike_id": "eccde26f12dbf7f23e4df234783eeec2", "lon": -76.98196216666666, "rental_uris": {"android": "https://dc.lft.to/lastmile_qr_scan", "ios": "https://dc.lft.to/lastmile_qr_scan"}, "fusion_lon": 0.0, "is_reserved": 0}, {"lat": 38.866828, "fusion_lat": 0.0, "type": "electric_scooter", "name": "b1ea9cf465b15e5a67efdbd723c9ccbc", "is_disabled": 0, "bike_id": "b1ea9cf465b15e5a67efdbd723c9ccbc", "lon": -76.98562833333334, "rental_uris": {"android": "https://dc.lft.to/lastmile_qr_scan", "ios": "https://dc.lft.to/lastmile_qr_scan"}, "fusion_lon": 0.0, "is_reserved": 0}, {"lat": 38.90628916666667, "fusion_lat": 0.0, "type": "electric_scooter", "name": "36261dbc98caa60148c8e64b65bae84d", "is_disabled": 0, "bike_id": "36261dbc98caa60148c8e64b65bae84d", "lon": -77.00061083333334, "rental_uris": {"android": "https://dc.lft.to/lastmile_qr_scan", "ios": "https://dc.lft.to/lastmile_qr_scan"}, "fusion_lon": 0.0, "is_reserved": 0}, {"lat": 38.8668165, "fusion_lat": 0.0, "type": "electric_scooter", "name": "9db745085dc28711c99989790d9658a9", "is_disabled": 0, "bike_id": "9db745085dc28711c99989790d9658a9", "lon": -76.98563333333334, "rental_uris": {"android": "https://dc.lft.to/lastmile_qr_scan", "ios": "https://dc.lft.to/lastmile_qr_scan"}, "fusion_lon": 0.0, "is_reserved": 0}, {"lat": 38.990923333333335, "fusion_lat": 0.0, "type": "electric_bike", "name": "42b761cd9ac9b91d647835c6ae0e5ed7", "is_disabled": 0, "bike_id": "42b761cd9ac9b91d647835c6ae0e5ed7", "lon": -76.99359283333334, "rental_uris": {"android": "https://dc.lft.to/lastmile_qr_scan", "ios": "https://dc.lft.to/lastmile_qr_scan"}, "fusion_lon": 0.0, "is_reserved": 0}, {"lat": 38.8708735, "fusion_lat": 0.0, "type": "electric_bike", "name": "84889b68e9874f6a09b573ed18f6a124", "is_disabled": 0, "bike_id": "84889b68e9874f6a09b573ed18f6a124", "lon": -77.012113, "rental_uris": {"android": "https://dc.lft.to/lastmile_qr_scan", "ios": "https://dc.lft.to/lastmile_qr_scan"}, "fusion_lon": 0.0, "is_reserved": 0}, {"lat": 38.97509083333333, "fusion_lat": 0.0, "type": "electric_scooter", "name": "723bc154d7944947884037f385ed73eb", "is_disabled": 0, "bike_id": "723bc154d7944947884037f385ed73eb", "lon": -77.01649866666666, "rental_uris": {"android": "https://dc.lft.to/lastmile_qr_scan", "ios": "https://dc.lft.to/lastmile_qr_scan"}, "fusion_lon": 0.0, "is_reserved": 0}, {"lat": 38.92061666666667, "fusion_lat": 0.0, "type": "electric_scooter", "name": "683321a65a42d66948ca133037a33305", "is_disabled": 0, "bike_id": "683321a65a42d66948ca133037a33305", "lon": -76.9819305, "rental_uris": {"android": "https://dc.lft.to/lastmile_qr_scan", "ios": "https://dc.lft.to/lastmile_qr_scan"}, "fusion_lon": 0.0, "is_reserved": 0}, {"lat": 38.918372166666664, "fusion_lat": 0.0, "type": "electric_scooter", "name": "33b4f6434e9540c10301c5a12739711d", "is_disabled": 0, "bike_id": "33b4f6434e9540c10301c5a12739711d", "lon": -77.0321365, "rental_uris": {"android": "https://dc.lft.to/lastmile_qr_scan", "ios": "https://dc.lft.to/lastmile_qr_scan"}, "fusion_lon": 0.0, "is_reserved": 0}, {"lat": 38.897173333333335, "fusion_lat": 0.0, "type": "electric_scooter", "name": "864a335344664fe161ac7ca06b9bb740", "is_disabled": 0, "bike_id": "864a335344664fe161ac7ca06b9bb740", "lon": -77.00797083333333, "rental_uris": {"android": "https://dc.lft.to/lastmile_qr_scan", "ios": "https://dc.lft.to/lastmile_qr_scan"}, "fusion_lon": 0.0, "is_reserved": 0}, {"lat": 38.89436233333333, "fusion_lat": 0.0, "type": "electric_scooter", "name": "25ef31f7ddec88d4541aedc4d10047a1", "is_disabled": 0, "bike_id": "25ef31f7ddec88d4541aedc4d10047a1", "lon": -77.00051566666667, "rental_uris": {"android": "https://dc.lft.to/lastmile_qr_scan", "ios": "https://dc.lft.to/lastmile_qr_scan"}, "fusion_lon": 0.0, "is_reserved": 0}, {"lat": 38.898073833333335, "fusion_lat": 0.0, "type": "electric_scooter", "name": "9aa0468fe854b194de7b32f5f3359e28", "is_disabled": 0, "bike_id": "9aa0468fe854b194de7b32f5f3359e28", "lon": -77.033165, "rental_uris": {"android": "https://dc.lft.to/lastmile_qr_scan", "ios": "https://dc.lft.to/lastmile_qr_scan"}, "fusion_lon": 0.0, "is_reserved": 0}, {"lat": 38.89474416666667, "fusion_lat": 0.0, "type": "electric_scooter", "name": "58e70ea7183475e0f50a578268546e2e", "is_disabled": 0, "bike_id": "58e70ea7183475e0f50a578268546e2e", "lon": -76.94885183333334, "rental_uris": {"android": "https://dc.lft.to/lastmile_qr_scan", "ios": "https://dc.lft.to/lastmile_qr_scan"}, "fusion_lon": 0.0, "is_reserved": 0}, {"lat": 38.90338083333333, "fusion_lat": 0.0, "type": "electric_scooter", "name": "1e85573b962b1777c21d73ac2222763a", "is_disabled": 0, "bike_id": "1e85573b962b1777c21d73ac2222763a", "lon": -77.0618385, "rental_uris": {"android": "https://dc.lft.to/lastmile_qr_scan", "ios": "https://dc.lft.to/lastmile_qr_scan"}, "fusion_lon": 0.0, "is_reserved": 0}, {"lat": 38.9305175, "fusion_lat": 0.0, "type": "electric_scooter", "name": "82e3395b27d0e69d440ed14fb3ad5669", "is_disabled": 0, "bike_id": "82e3395b27d0e69d440ed14fb3ad5669", "lon": -77.05852366666667, "rental_uris": {"android": "https://dc.lft.to/lastmile_qr_scan", "ios": "https://dc.lft.to/lastmile_qr_scan"}, "fusion_lon": 0.0, "is_reserved": 0}, {"lat": 38.910939666666664, "fusion_lat": 0.0, "type": "electric_scooter", "name": "405136a1dc03e5bba7bfbf95b892c36f", "is_disabled": 0, "bike_id": "405136a1dc03e5bba7bfbf95b892c36f", "lon": -77.03190016666667, "rental_uris": {"android": "https://dc.lft.to/lastmile_qr_scan", "ios": "https://dc.lft.to/lastmile_qr_scan"}, "fusion_lon": 0.0, "is_reserved": 0}, {"lat": 38.92639033333333, "fusion_lat": 0.0, "type": "electric_scooter", "name": "d6cf0b1082bc739d6edc042f8c3056ab", "is_disabled": 0, "bike_id": "d6cf0b1082bc739d6edc042f8c3056ab", "lon": -77.0133945, "rental_uris": {"android": "https://dc.lft.to/lastmile_qr_scan", "ios": "https://dc.lft.to/lastmile_qr_scan"}, "fusion_lon": 0.0, "is_reserved": 0}, {"lat": 38.88519866666667, "fusion_lat": 0.0, "type": "electric_scooter", "name": "01cb088dffe00ad0c1ede114ed4b449e", "is_disabled": 0, "bike_id": "01cb088dffe00ad0c1ede114ed4b449e", "lon": -77.02102433333333, "rental_uris": {"android": "https://dc.lft.to/lastmile_qr_scan", "ios": "https://dc.lft.to/lastmile_qr_scan"}, "fusion_lon": 0.0, "is_reserved": 0}, {"lat": 38.90528666666667, "fusion_lat": 0.0, "type": "electric_scooter", "name": "7a945c35e9f9584f22e1cb33e258b735", "is_disabled": 0, "bike_id": "7a945c35e9f9584f22e1cb33e258b735", "lon": -77.0587865, "rental_uris": {"android": "https://dc.lft.to/lastmile_qr_scan", "ios": "https://dc.lft.to/lastmile_qr_scan"}, "fusion_lon": 0.0, "is_reserved": 0}, {"lat": 38.88743183333333, "fusion_lat": 0.0, "type": "electric_scooter", "name": "274d411932e45b419fc1e9dcdd556e36", "is_disabled": 0, "bike_id": "274d411932e45b419fc1e9dcdd556e36", "lon": -77.021203, "rental_uris": {"android": "https://dc.lft.to/lastmile_qr_scan", "ios": "https://dc.lft.to/lastmile_qr_scan"}, "fusion_lon": 0.0, "is_reserved": 0}, {"lat": 38.86661333333333, "fusion_lat": 0.0, "type": "electric_scooter", "name": "2cca4ae1421447c9280b743736c743c9", "is_disabled": 0, "bike_id": "2cca4ae1421447c9280b743736c743c9", "lon": -76.98898066666666, "rental_uris": {"android": "https://dc.lft.to/lastmile_qr_scan", "ios": "https://dc.lft.to/lastmile_qr_scan"}, "fusion_lon": 0.0, "is_reserved": 0}, {"lat": 38.90562383333334, "fusion_lat": 0.0, "type": "electric_scooter", "name": "6ceb643d2ce8b233a809ae631bc67186", "is_disabled": 0, "bike_id": "6ceb643d2ce8b233a809ae631bc67186", "lon": -77.000731, "rental_uris": {"android": "https://dc.lft.to/lastmile_qr_scan", "ios": "https://dc.lft.to/lastmile_qr_scan"}, "fusion_lon": 0.0, "is_reserved": 0}, {"lat": 38.907362166666665, "fusion_lat": 0.0, "type": "electric_scooter", "name": "7d5f3566a5243d3bf6b22852f485d7a7", "is_disabled": 0, "bike_id": "7d5f3566a5243d3bf6b22852f485d7a7", "lon": -77.0414805, "rental_uris": {"android": "https://dc.lft.to/lastmile_qr_scan", "ios": "https://dc.lft.to/lastmile_qr_scan"}, "fusion_lon": 0.0, "is_reserved": 0}, {"lat": 38.903555, "fusion_lat": 0.0, "type": "electric_scooter", "name": "cc6ded0eef5edfbf0eb137d9ab39437b", "is_disabled": 0, "bike_id": "cc6ded0eef5edfbf0eb137d9ab39437b", "lon": -77.045531, "rental_uris": {"android": "https://dc.lft.to/lastmile_qr_scan", "ios": "https://dc.lft.to/lastmile_qr_scan"}, "fusion_lon": 0.0, "is_reserved": 0}, {"lat": 38.914107, "fusion_lat": 0.0, "type": "electric_scooter", "name": "857bda7a73db3b197deabd24a92b384b", "is_disabled": 0, "bike_id": "857bda7a73db3b197deabd24a92b384b", "lon": -77.04495583333333, "rental_uris": {"android": "https://dc.lft.to/lastmile_qr_scan", "ios": "https://dc.lft.to/lastmile_qr_scan"}, "fusion_lon": 0.0, "is_reserved": 0}, {"lat": 38.89725933333333, "fusion_lat": 0.0, "type": "electric_bike", "name": "9cf7676ec8d42275b67114ab5bb11617", "is_disabled": 0, "bike_id": "9cf7676ec8d42275b67114ab5bb11617", "lon": -77.05522216666667, "rental_uris": {"android": "https://dc.lft.to/lastmile_qr_scan", "ios": "https://dc.lft.to/lastmile_qr_scan"}, "fusion_lon": 0.0, "is_reserved": 0}, {"lat": 38.89613516666667, "fusion_lat": 0.0, "type": "electric_scooter", "name": "2acbcec6dc946f872f3d9cfa1d7f6743", "is_disabled": 0, "bike_id": "2acbcec6dc946f872f3d9cfa1d7f6743", "lon": -77.00924416666666, "rental_uris": {"android": "https://dc.lft.to/lastmile_qr_scan", "ios": "https://dc.lft.to/lastmile_qr_scan"}, "fusion_lon": 0.0, "is_reserved": 0}, {"lat": 38.8996875, "fusion_lat": 0.0, "type": "electric_scooter", "name": "384ed4383ae00434b334a181a4178ed3", "is_disabled": 0, "bike_id": "384ed4383ae00434b334a181a4178ed3", "lon": -77.03080716666666, "rental_uris": {"android": "https://dc.lft.to/lastmile_qr_scan", "ios": "https://dc.lft.to/lastmile_qr_scan"}, "fusion_lon": 0.0, "is_reserved": 0}, {"lat": 38.907091, "fusion_lat": 0.0, "type": "electric_scooter", "name": "d9854bdbd02b7e3a165beddf56bb0170", "is_disabled": 0, "bike_id": "d9854bdbd02b7e3a165beddf56bb0170", "lon": -77.03519166666666, "rental_uris": {"android": "https://dc.lft.to/lastmile_qr_scan", "ios": "https://dc.lft.to/lastmile_qr_scan"}, "fusion_lon": 0.0, "is_reserved": 0}, {"lat": 38.914171333333336, "fusion_lat": 0.0, "type": "electric_scooter", "name": "a929018cd3f815aaf5aef9dd8a7f260c", "is_disabled": 0, "bike_id": "a929018cd3f815aaf5aef9dd8a7f260c", "lon": -77.0317135, "rental_uris": {"android": "https://dc.lft.to/lastmile_qr_scan", "ios": "https://dc.lft.to/lastmile_qr_scan"}, "fusion_lon": 0.0, "is_reserved": 0}, {"lat": 38.90840716666666, "fusion_lat": 0.0, "type": "electric_scooter", "name": "6636ff084abd74fb581003dbcad96741", "is_disabled": 0, "bike_id": "6636ff084abd74fb581003dbcad96741", "lon": -77.04153683333334, "rental_uris": {"android": "https://dc.lft.to/lastmile_qr_scan", "ios": "https://dc.lft.to/lastmile_qr_scan"}, "fusion_lon": 0.0, "is_reserved": 0}, {"lat": 38.884165, "fusion_lat": 0.0, "type": "electric_bike", "name": "6ef95d18c60f58519033c739be1576be", "is_disabled": 0, "bike_id": "6ef95d18c60f58519033c739be1576be", "lon": -76.9540685, "rental_uris": {"android": "https://dc.lft.to/lastmile_qr_scan", "ios": "https://dc.lft.to/lastmile_qr_scan"}, "fusion_lon": 0.0, "is_reserved": 0}, {"lat": 38.87358283333333, "fusion_lat": 0.0, "type": "electric_scooter", "name": "6d223ae344fa4216b71081664831b69a", "is_disabled": 0, "bike_id": "6d223ae344fa4216b71081664831b69a", "lon": -76.970293, "rental_uris": {"android": "https://dc.lft.to/lastmile_qr_scan", "ios": "https://dc.lft.to/lastmile_qr_scan"}, "fusion_lon": 0.0, "is_reserved": 0}, {"lat": 38.921467666666665, "fusion_lat": 0.0, "type": "electric_scooter", "name": "4fd6023009d2b979ef893c08a90295c0", "is_disabled": 0, "bike_id": "4fd6023009d2b979ef893c08a90295c0", "lon": -77.03438366666667, "rental_uris": {"android": "https://dc.lft.to/lastmile_qr_scan", "ios": "https://dc.lft.to/lastmile_qr_scan"}, "fusion_lon": 0.0, "is_reserved": 0}, {"lat": 38.8949705, "fusion_lat": 0.0, "type": "electric_scooter", "name": "424c2609d70776f2b41a7bcba9324acc", "is_disabled": 0, "bike_id": "424c2609d70776f2b41a7bcba9324acc", "lon": -77.0230075, "rental_uris": {"android": "https://dc.lft.to/lastmile_qr_scan", "ios": "https://dc.lft.to/lastmile_qr_scan"}, "fusion_lon": 0.0, "is_reserved": 0}, {"lat": 38.902757333333334, "fusion_lat": 0.0, "type": "electric_scooter", "name": "73904d46ba58efa5dfc143bf0d6de697", "is_disabled": 0, "bike_id": "73904d46ba58efa5dfc143bf0d6de697", "lon": -77.03829316666666, "rental_uris": {"android": "https://dc.lft.to/lastmile_qr_scan", "ios": "https://dc.lft.to/lastmile_qr_scan"}, "fusion_lon": 0.0, "is_reserved": 0}, {"lat": 39.05254583333333, "fusion_lat": 0.0, "type": "electric_bike", "name": "518781042c9a5d595425cce430e85867", "is_disabled": 0, "bike_id": "518781042c9a5d595425cce430e85867", "lon": -77.08065916666666, "rental_uris": {"android": "https://dc.lft.to/lastmile_qr_scan", "ios": "https://dc.lft.to/lastmile_qr_scan"}, "fusion_lon": 0.0, "is_reserved": 0}, {"lat": 38.902726333333334, "fusion_lat": 0.0, "type": "electric_scooter", "name": "dcd180016189fdb90046451ba05c0cb3", "is_disabled": 0, "bike_id": "dcd180016189fdb90046451ba05c0cb3", "lon": -77.0295145, "rental_uris": {"android": "https://dc.lft.to/lastmile_qr_scan", "ios": "https://dc.lft.to/lastmile_qr_scan"}, "fusion_lon": 0.0, "is_reserved": 0}, {"lat": 38.897481666666664, "fusion_lat": 0.0, "type": "electric_scooter", "name": "0931a9b8d883379f2c1efff6df2d34e3", "is_disabled": 0, "bike_id": "0931a9b8d883379f2c1efff6df2d34e3", "lon": -77.04481716666666, "rental_uris": {"android": "https://dc.lft.to/lastmile_qr_scan", "ios": "https://dc.lft.to/lastmile_qr_scan"}, "fusion_lon": 0.0, "is_reserved": 0}, {"lat": 38.90181916666667, "fusion_lat": 0.0, "type": "electric_scooter", "name": "516f0c6c5d84c27020953860148ce086", "is_disabled": 0, "bike_id": "516f0c6c5d84c27020953860148ce086", "lon": -77.05148566666666, "rental_uris": {"android": "https://dc.lft.to/lastmile_qr_scan", "ios": "https://dc.lft.to/lastmile_qr_scan"}, "fusion_lon": 0.0, "is_reserved": 0}, {"lat": 38.8922295, "fusion_lat": 0.0, "type": "electric_scooter", "name": "a0504dc3eb6a9ab60d8b6d82fdc6f8de", "is_disabled": 0, "bike_id": "a0504dc3eb6a9ab60d8b6d82fdc6f8de", "lon": -77.02411583333334, "rental_uris": {"android": "https://dc.lft.to/lastmile_qr_scan", "ios": "https://dc.lft.to/lastmile_qr_scan"}, "fusion_lon": 0.0, "is_reserved": 0}, {"lat": 38.900848833333335, "fusion_lat": 0.0, "type": "electric_scooter", "name": "0db8cee9d9069fa3733c9425d25d9789", "is_disabled": 0, "bike_id": "0db8cee9d9069fa3733c9425d25d9789", "lon": -77.01774233333333, "rental_uris": {"android": "https://dc.lft.to/lastmile_qr_scan", "ios": "https://dc.lft.to/lastmile_qr_scan"}, "fusion_lon": 0.0, "is_reserved": 0}, {"lat": 38.9036965, "fusion_lat": 0.0, "type": "electric_scooter", "name": "1a9dadbd9fe8e3701f3f2f8fbaed7c65", "is_disabled": 0, "bike_id": "1a9dadbd9fe8e3701f3f2f8fbaed7c65", "lon": -77.0449635, "rental_uris": {"android": "https://dc.lft.to/lastmile_qr_scan", "ios": "https://dc.lft.to/lastmile_qr_scan"}, "fusion_lon": 0.0, "is_reserved": 0}, {"lat": 38.916775333333334, "fusion_lat": 0.0, "type": "electric_scooter", "name": "9f8c42a93af238be73b98105c7d9a7a0", "is_disabled": 0, "bike_id": "9f8c42a93af238be73b98105c7d9a7a0", "lon": -77.04619083333333, "rental_uris": {"android": "https://dc.lft.to/lastmile_qr_scan", "ios": "https://dc.lft.to/lastmile_qr_scan"}, "fusion_lon": 0.0, "is_reserved": 0}, {"lat": 38.918304, "fusion_lat": 0.0, "type": "electric_scooter", "name": "1d8d6788cba34ad66370bc8e5f12ac20", "is_disabled": 0, "bike_id": "1d8d6788cba34ad66370bc8e5f12ac20", "lon": -77.03450133333334, "rental_uris": {"android": "https://dc.lft.to/lastmile_qr_scan", "ios": "https://dc.lft.to/lastmile_qr_scan"}, "fusion_lon": 0.0, "is_reserved": 0}, {"lat": 38.874584, "fusion_lat": 0.0, "type": "electric_scooter", "name": "c4545dbefa769c3f5292b24f370fa012", "is_disabled": 0, "bike_id": "c4545dbefa769c3f5292b24f370fa012", "lon": -77.0049235, "rental_uris": {"android": "https://dc.lft.to/lastmile_qr_scan", "ios": "https://dc.lft.to/lastmile_qr_scan"}, "fusion_lon": 0.0, "is_reserved": 0}, {"lat": 38.897284666666664, "fusion_lat": 0.0, "type": "electric_scooter", "name": "4e7b09f761a7428f378752b4c2c3fb04", "is_disabled": 0, "bike_id": "4e7b09f761a7428f378752b4c2c3fb04", "lon": -77.021696, "rental_uris": {"android": "https://dc.lft.to/lastmile_qr_scan", "ios": "https://dc.lft.to/lastmile_qr_scan"}, "fusion_lon": 0.0, "is_reserved": 0}, {"lat": 38.92535766666666, "fusion_lat": 0.0, "type": "electric_scooter", "name": "3c2c0b549f435264aa43a2e3b2b2b4a3", "is_disabled": 0, "bike_id": "3c2c0b549f435264aa43a2e3b2b2b4a3", "lon": -77.0338165, "rental_uris": {"android": "https://dc.lft.to/lastmile_qr_scan", "ios": "https://dc.lft.to/lastmile_qr_scan"}, "fusion_lon": 0.0, "is_reserved": 0}, {"lat": 38.920762333333336, "fusion_lat": 0.0, "type": "electric_scooter", "name": "42420b95310faf9956a5a7f00128431d", "is_disabled": 0, "bike_id": "42420b95310faf9956a5a7f00128431d", "lon": -77.02549066666667, "rental_uris": {"android": "https://dc.lft.to/lastmile_qr_scan", "ios": "https://dc.lft.to/lastmile_qr_scan"}, "fusion_lon": 0.0, "is_reserved": 0}, {"lat": 38.9231225, "fusion_lat": 0.0, "type": "electric_scooter", "name": "2e32a7b6fe75d56b63e4dbe9fcd6ac25", "is_disabled": 0, "bike_id": "2e32a7b6fe75d56b63e4dbe9fcd6ac25", "lon": -77.021295, "rental_uris": {"android": "https://dc.lft.to/lastmile_qr_scan", "ios": "https://dc.lft.to/lastmile_qr_scan"}, "fusion_lon": 0.0, "is_reserved": 0}, {"lat": 38.92275516666667, "fusion_lat": 0.0, "type": "electric_scooter", "name": "baf549075d9dbedd901a051b52d62068", "is_disabled": 0, "bike_id": "baf549075d9dbedd901a051b52d62068", "lon": -77.04238983333333, "rental_uris": {"android": "https://dc.lft.to/lastmile_qr_scan", "ios": "https://dc.lft.to/lastmile_qr_scan"}, "fusion_lon": 0.0, "is_reserved": 0}, {"lat": 38.89227016666667, "fusion_lat": 0.0, "type": "electric_scooter", "name": "da99934822dd7d34f8bc66dcc44be77e", "is_disabled": 0, "bike_id": "da99934822dd7d34f8bc66dcc44be77e", "lon": -77.02382233333333, "rental_uris": {"android": "https://dc.lft.to/lastmile_qr_scan", "ios": "https://dc.lft.to/lastmile_qr_scan"}, "fusion_lon": 0.0, "is_reserved": 0}, {"lat": 38.898672833333336, "fusion_lat": 0.0, "type": "electric_scooter", "name": "7481fad8c26aa0234419e0271d8bf14f", "is_disabled": 0, "bike_id": "7481fad8c26aa0234419e0271d8bf14f", "lon": -76.94635366666667, "rental_uris": {"android": "https://dc.lft.to/lastmile_qr_scan", "ios": "https://dc.lft.to/lastmile_qr_scan"}, "fusion_lon": 0.0, "is_reserved": 0}, {"lat": 38.9062755, "fusion_lat": 0.0, "type": "electric_scooter", "name": "828d1268be0c943755c6499fa2626501", "is_disabled": 0, "bike_id": "828d1268be0c943755c6499fa2626501", "lon": -77.04208083333333, "rental_uris": {"android": "https://dc.lft.to/lastmile_qr_scan", "ios": "https://dc.lft.to/lastmile_qr_scan"}, "fusion_lon": 0.0, "is_reserved": 0}, {"lat": 38.8922115, "fusion_lat": 0.0, "type": "electric_scooter", "name": "9aab566175a4014d3f31dea93750a616", "is_disabled": 0, "bike_id": "9aab566175a4014d3f31dea93750a616", "lon": -77.04377416666667, "rental_uris": {"android": "https://dc.lft.to/lastmile_qr_scan", "ios": "https://dc.lft.to/lastmile_qr_scan"}, "fusion_lon": 0.0, "is_reserved": 0}, {"lat": 38.8651805, "fusion_lat": 0.0, "type": "electric_scooter", "name": "9309673532deed3849b272b29d5c512b", "is_disabled": 0, "bike_id": "9309673532deed3849b272b29d5c512b", "lon": -76.97326083333333, "rental_uris": {"android": "https://dc.lft.to/lastmile_qr_scan", "ios": "https://dc.lft.to/lastmile_qr_scan"}, "fusion_lon": 0.0, "is_reserved": 0}, {"lat": 38.915505, "fusion_lat": 0.0, "type": "electric_scooter", "name": "980c74d09db6c795dc8254be7176507e", "is_disabled": 0, "bike_id": "980c74d09db6c795dc8254be7176507e", "lon": -77.0271215, "rental_uris": {"android": "https://dc.lft.to/lastmile_qr_scan", "ios": "https://dc.lft.to/lastmile_qr_scan"}, "fusion_lon": 0.0, "is_reserved": 0}, {"lat": 38.90510283333333, "fusion_lat": 0.0, "type": "electric_scooter", "name": "5baee14484a370834960ec7bee423cb9", "is_disabled": 0, "bike_id": "5baee14484a370834960ec7bee423cb9", "lon": -77.04944216666667, "rental_uris": {"android": "https://dc.lft.to/lastmile_qr_scan", "ios": "https://dc.lft.to/lastmile_qr_scan"}, "fusion_lon": 0.0, "is_reserved": 0}, {"lat": 38.92763883333333, "fusion_lat": 0.0, "type": "electric_scooter", "name": "78b4cdf19ba249c848b4669cd11cf0ca", "is_disabled": 0, "bike_id": "78b4cdf19ba249c848b4669cd11cf0ca", "lon": -77.01193733333334, "rental_uris": {"android": "https://dc.lft.to/lastmile_qr_scan", "ios": "https://dc.lft.to/lastmile_qr_scan"}, "fusion_lon": 0.0, "is_reserved": 0}, {"lat": 38.90566316666666, "fusion_lat": 0.0, "type": "electric_scooter", "name": "24fd31b197cf8365cda82cc98e898c5f", "is_disabled": 0, "bike_id": "24fd31b197cf8365cda82cc98e898c5f", "lon": -77.00587083333333, "rental_uris": {"android": "https://dc.lft.to/lastmile_qr_scan", "ios": "https://dc.lft.to/lastmile_qr_scan"}, "fusion_lon": 0.0, "is_reserved": 0}, {"lat": 38.8924925, "fusion_lat": 0.0, "type": "electric_scooter", "name": "8d7b4d74564f6d6ea9ce8b19163e96f6", "is_disabled": 0, "bike_id": "8d7b4d74564f6d6ea9ce8b19163e96f6", "lon": -77.03352016666666, "rental_uris": {"android": "https://dc.lft.to/lastmile_qr_scan", "ios": "https://dc.lft.to/lastmile_qr_scan"}, "fusion_lon": 0.0, "is_reserved": 0}, {"lat": 38.955057, "fusion_lat": 0.0, "type": "electric_scooter", "name": "1a0c6d4132e00386296bc29728051523", "is_disabled": 0, "bike_id": "1a0c6d4132e00386296bc29728051523", "lon": -77.02677, "rental_uris": {"android": "https://dc.lft.to/lastmile_qr_scan", "ios": "https://dc.lft.to/lastmile_qr_scan"}, "fusion_lon": 0.0, "is_reserved": 0}, {"lat": 38.88177183333333, "fusion_lat": 0.0, "type": "electric_scooter", "name": "910b654ea75b759773e6fb1aec185471", "is_disabled": 0, "bike_id": "910b654ea75b759773e6fb1aec185471", "lon": -77.01741766666666, "rental_uris": {"android": "https://dc.lft.to/lastmile_qr_scan", "ios": "https://dc.lft.to/lastmile_qr_scan"}, "fusion_lon": 0.0, "is_reserved": 0}, {"lat": 38.92766833333334, "fusion_lat": 0.0, "type": "electric_scooter", "name": "f8b9bae03ad07f8eb48dd46be94c701c", "is_disabled": 0, "bike_id": "f8b9bae03ad07f8eb48dd46be94c701c", "lon": -77.027442, "rental_uris": {"android": "https://dc.lft.to/lastmile_qr_scan", "ios": "https://dc.lft.to/lastmile_qr_scan"}, "fusion_lon": 0.0, "is_reserved": 0}, {"lat": 38.93193566666667, "fusion_lat": 0.0, "type": "electric_bike", "name": "97f32706f58e975da87540f9d8774069", "is_disabled": 0, "bike_id": "97f32706f58e975da87540f9d8774069", "lon": -77.22928216666666, "rental_uris": {"android": "https://dc.lft.to/lastmile_qr_scan", "ios": "https://dc.lft.to/lastmile_qr_scan"}, "fusion_lon": 0.0, "is_reserved": 0}, {"lat": 38.896764, "fusion_lat": 0.0, "type": "electric_scooter", "name": "73b9132492a8d25703753f95ac6de45b", "is_disabled": 0, "bike_id": "73b9132492a8d25703753f95ac6de45b", "lon": -77.05094866666667, "rental_uris": {"android": "https://dc.lft.to/lastmile_qr_scan", "ios": "https://dc.lft.to/lastmile_qr_scan"}, "fusion_lon": 0.0, "is_reserved": 0}, {"lat": 38.91283883333333, "fusion_lat": 0.0, "type": "electric_scooter", "name": "f3f269e70159a06298733304d0254176", "is_disabled": 0, "bike_id": "f3f269e70159a06298733304d0254176", "lon": -77.03207216666667, "rental_uris": {"android": "https://dc.lft.to/lastmile_qr_scan", "ios": "https://dc.lft.to/lastmile_qr_scan"}, "fusion_lon": 0.0, "is_reserved": 0}, {"lat": 38.892199, "fusion_lat": 0.0, "type": "electric_scooter", "name": "c86d9709b689d52358111aeb1b5087b6", "is_disabled": 0, "bike_id": "c86d9709b689d52358111aeb1b5087b6", "lon": -77.02413516666667, "rental_uris": {"android": "https://dc.lft.to/lastmile_qr_scan", "ios": "https://dc.lft.to/lastmile_qr_scan"}, "fusion_lon": 0.0, "is_reserved": 0}, {"lat": 38.91495066666667, "fusion_lat": 0.0, "type": "electric_scooter", "name": "fa9443d287f626891483bd89cfe73a99", "is_disabled": 0, "bike_id": "fa9443d287f626891483bd89cfe73a99", "lon": -77.01861566666666, "rental_uris": {"android": "https://dc.lft.to/lastmile_qr_scan", "ios": "https://dc.lft.to/lastmile_qr_scan"}, "fusion_lon": 0.0, "is_reserved": 0}, {"lat": 38.8748545, "fusion_lat": 0.0, "type": "electric_scooter", "name": "2326481a671acdb37ea045cb986ec1d1", "is_disabled": 0, "bike_id": "2326481a671acdb37ea045cb986ec1d1", "lon": -77.00233416666667, "rental_uris": {"android": "https://dc.lft.to/lastmile_qr_scan", "ios": "https://dc.lft.to/lastmile_qr_scan"}, "fusion_lon": 0.0, "is_reserved": 0}, {"lat": 38.927387, "fusion_lat": 0.0, "type": "electric_scooter", "name": "28fb1d9fd9f6ef21336872efc7261e65", "is_disabled": 0, "bike_id": "28fb1d9fd9f6ef21336872efc7261e65", "lon": -77.03632133333333, "rental_uris": {"android": "https://dc.lft.to/lastmile_qr_scan", "ios": "https://dc.lft.to/lastmile_qr_scan"}, "fusion_lon": 0.0, "is_reserved": 0}, {"lat": 38.92272166666667, "fusion_lat": 0.0, "type": "electric_scooter", "name": "7f43185e90c8dfb31d85fc064fc563e8", "is_disabled": 0, "bike_id": "7f43185e90c8dfb31d85fc064fc563e8", "lon": -77.0224, "rental_uris": {"android": "https://dc.lft.to/lastmile_qr_scan", "ios": "https://dc.lft.to/lastmile_qr_scan"}, "fusion_lon": 0.0, "is_reserved": 0}, {"lat": 38.875634833333336, "fusion_lat": 0.0, "type": "electric_scooter", "name": "9fcfe89ca7f43b8ec527b2ffb3b5a738", "is_disabled": 0, "bike_id": "9fcfe89ca7f43b8ec527b2ffb3b5a738", "lon": -77.005949, "rental_uris": {"android": "https://dc.lft.to/lastmile_qr_scan", "ios": "https://dc.lft.to/lastmile_qr_scan"}, "fusion_lon": 0.0, "is_reserved": 0}, {"lat": 38.915964, "fusion_lat": 0.0, "type": "electric_scooter", "name": "a3154a15674f55aa37597bd792ac4600", "is_disabled": 0, "bike_id": "a3154a15674f55aa37597bd792ac4600", "lon": -77.04649583333334, "rental_uris": {"android": "https://dc.lft.to/lastmile_qr_scan", "ios": "https://dc.lft.to/lastmile_qr_scan"}, "fusion_lon": 0.0, "is_reserved": 0}, {"lat": 38.902235, "fusion_lat": 0.0, "type": "electric_scooter", "name": "8d4c2fed9223f3a3bfe5792ceba2e400", "is_disabled": 0, "bike_id": "8d4c2fed9223f3a3bfe5792ceba2e400", "lon": -77.04784016666666, "rental_uris": {"android": "https://dc.lft.to/lastmile_qr_scan", "ios": "https://dc.lft.to/lastmile_qr_scan"}, "fusion_lon": 0.0, "is_reserved": 0}, {"lat": 38.921108, "fusion_lat": 0.0, "type": "electric_scooter", "name": "0feca067c67352adc8d84286f6a5b558", "is_disabled": 0, "bike_id": "0feca067c67352adc8d84286f6a5b558", "lon": -77.020667, "rental_uris": {"android": "https://dc.lft.to/lastmile_qr_scan", "ios": "https://dc.lft.to/lastmile_qr_scan"}, "fusion_lon": 0.0, "is_reserved": 0}, {"lat": 38.919598, "fusion_lat": 0.0, "type": "electric_scooter", "name": "5608b1373b01d95430e897646f02f0c4", "is_disabled": 0, "bike_id": "5608b1373b01d95430e897646f02f0c4", "lon": -77.027098, "rental_uris": {"android": "https://dc.lft.to/lastmile_qr_scan", "ios": "https://dc.lft.to/lastmile_qr_scan"}, "fusion_lon": 0.0, "is_reserved": 0}, {"lat": 38.900157666666665, "fusion_lat": 0.0, "type": "electric_scooter", "name": "d7e1265459c697ff515a21dbe9bfb20b", "is_disabled": 0, "bike_id": "d7e1265459c697ff515a21dbe9bfb20b", "lon": -77.0294295, "rental_uris": {"android": "https://dc.lft.to/lastmile_qr_scan", "ios": "https://dc.lft.to/lastmile_qr_scan"}, "fusion_lon": 0.0, "is_reserved": 0}, {"lat": 38.891644166666666, "fusion_lat": 0.0, "type": "electric_scooter", "name": "97bf5427b59d3d1ce0e63361087e6994", "is_disabled": 0, "bike_id": "97bf5427b59d3d1ce0e63361087e6994", "lon": -77.0153805, "rental_uris": {"android": "https://dc.lft.to/lastmile_qr_scan", "ios": "https://dc.lft.to/lastmile_qr_scan"}, "fusion_lon": 0.0, "is_reserved": 0}, {"lat": 38.91036883333334, "fusion_lat": 0.0, "type": "electric_scooter", "name": "6fece4e3768fe35b8c6af1cc2892ab5a", "is_disabled": 0, "bike_id": "6fece4e3768fe35b8c6af1cc2892ab5a", "lon": -77.04337516666666, "rental_uris": {"android": "https://dc.lft.to/lastmile_qr_scan", "ios": "https://dc.lft.to/lastmile_qr_scan"}, "fusion_lon": 0.0, "is_reserved": 0}, {"lat": 38.90563983333333, "fusion_lat": 0.0, "type": "electric_scooter", "name": "2b5b37114ca1639c61f7070c4dc4a2a2", "is_disabled": 0, "bike_id": "2b5b37114ca1639c61f7070c4dc4a2a2", "lon": -77.02233333333334, "rental_uris": {"android": "https://dc.lft.to/lastmile_qr_scan", "ios": "https://dc.lft.to/lastmile_qr_scan"}, "fusion_lon": 0.0, "is_reserved": 0}, {"lat": 38.8837845, "fusion_lat": 0.0, "type": "electric_scooter", "name": "3f9f26eab4991b85a97fc5c575465590", "is_disabled": 0, "bike_id": "3f9f26eab4991b85a97fc5c575465590", "lon": -77.01913233333333, "rental_uris": {"android": "https://dc.lft.to/lastmile_qr_scan", "ios": "https://dc.lft.to/lastmile_qr_scan"}, "fusion_lon": 0.0, "is_reserved": 0}, {"lat": 38.897326, "fusion_lat": 0.0, "type": "electric_scooter", "name": "58b5424f11f89350999d4cf1ca5ce1b7", "is_disabled": 0, "bike_id": "58b5424f11f89350999d4cf1ca5ce1b7", "lon": -77.04782133333333, "rental_uris": {"android": "https://dc.lft.to/lastmile_qr_scan", "ios": "https://dc.lft.to/lastmile_qr_scan"}, "fusion_lon": 0.0, "is_reserved": 0}, {"lat": 38.804443, "fusion_lat": 0.0, "type": "electric_bike", "name": "8576f6c9f83bd32cf478462ce5675a88", "is_disabled": 0, "bike_id": "8576f6c9f83bd32cf478462ce5675a88", "lon": -77.053886, "rental_uris": {"android": "https://dc.lft.to/lastmile_qr_scan", "ios": "https://dc.lft.to/lastmile_qr_scan"}, "fusion_lon": 0.0, "is_reserved": 0}, {"lat": 38.926704, "fusion_lat": 0.0, "type": "electric_scooter", "name": "89b6048dce487ac141ef0fef6e8b5cd6", "is_disabled": 0, "bike_id": "89b6048dce487ac141ef0fef6e8b5cd6", "lon": -77.0149505, "rental_uris": {"android": "https://dc.lft.to/lastmile_qr_scan", "ios": "https://dc.lft.to/lastmile_qr_scan"}, "fusion_lon": 0.0, "is_reserved": 0}, {"lat": 38.8984525, "fusion_lat": 0.0, "type": "electric_scooter", "name": "25cb6403e64f9af19bf317bc66d6a745", "is_disabled": 0, "bike_id": "25cb6403e64f9af19bf317bc66d6a745", "lon": -77.04176416666667, "rental_uris": {"android": "https://dc.lft.to/lastmile_qr_scan", "ios": "https://dc.lft.to/lastmile_qr_scan"}, "fusion_lon": 0.0, "is_reserved": 0}, {"lat": 38.899925, "fusion_lat": 0.0, "type": "electric_scooter", "name": "37692eb75fa884621d4a48018a985919", "is_disabled": 0, "bike_id": "37692eb75fa884621d4a48018a985919", "lon": -76.9807135, "rental_uris": {"android": "https://dc.lft.to/lastmile_qr_scan", "ios": "https://dc.lft.to/lastmile_qr_scan"}, "fusion_lon": 0.0, "is_reserved": 0}, {"lat": 38.892278833333336, "fusion_lat": 0.0, "type": "electric_scooter", "name": "66e55396aec724daf48db2f51e91cb79", "is_disabled": 0, "bike_id": "66e55396aec724daf48db2f51e91cb79", "lon": -77.01717416666666, "rental_uris": {"android": "https://dc.lft.to/lastmile_qr_scan", "ios": "https://dc.lft.to/lastmile_qr_scan"}, "fusion_lon": 0.0, "is_reserved": 0}, {"lat": 38.866252333333335, "fusion_lat": 0.0, "type": "electric_scooter", "name": "3260850a9c6f28b25fde800ddd962dd3", "is_disabled": 0, "bike_id": "3260850a9c6f28b25fde800ddd962dd3", "lon": -76.98711816666666, "rental_uris": {"android": "https://dc.lft.to/lastmile_qr_scan", "ios": "https://dc.lft.to/lastmile_qr_scan"}, "fusion_lon": 0.0, "is_reserved": 0}, {"lat": 38.9187465, "fusion_lat": 0.0, "type": "electric_scooter", "name": "ea3811c1c7a42fd4cd8ad9b6c793dc3c", "is_disabled": 0, "bike_id": "ea3811c1c7a42fd4cd8ad9b6c793dc3c", "lon": -76.96329733333333, "rental_uris": {"android": "https://dc.lft.to/lastmile_qr_scan", "ios": "https://dc.lft.to/lastmile_qr_scan"}, "fusion_lon": 0.0, "is_reserved": 0}, {"lat": 38.906849666666666, "fusion_lat": 0.0, "type": "electric_scooter", "name": "f0eccc7cd9a779dd1d5cf57d51269f7f", "is_disabled": 0, "bike_id": "f0eccc7cd9a779dd1d5cf57d51269f7f", "lon": -77.02374966666666, "rental_uris": {"android": "https://dc.lft.to/lastmile_qr_scan", "ios": "https://dc.lft.to/lastmile_qr_scan"}, "fusion_lon": 0.0, "is_reserved": 0}, {"lat": 38.90262533333333, "fusion_lat": 0.0, "type": "electric_scooter", "name": "4604d6030b44b4b4da32f0c0c21489d6", "is_disabled": 0, "bike_id": "4604d6030b44b4b4da32f0c0c21489d6", "lon": -77.03848566666667, "rental_uris": {"android": "https://dc.lft.to/lastmile_qr_scan", "ios": "https://dc.lft.to/lastmile_qr_scan"}, "fusion_lon": 0.0, "is_reserved": 0}, {"lat": 38.90857166666667, "fusion_lat": 0.0, "type": "electric_scooter", "name": "3d8d8ee35de5ecd5c1c8a1280522b5e6", "is_disabled": 0, "bike_id": "3d8d8ee35de5ecd5c1c8a1280522b5e6", "lon": -77.023577, "rental_uris": {"android": "https://dc.lft.to/lastmile_qr_scan", "ios": "https://dc.lft.to/lastmile_qr_scan"}, "fusion_lon": 0.0, "is_reserved": 0}, {"lat": 38.926840166666665, "fusion_lat": 0.0, "type": "electric_scooter", "name": "f3f4d4db98ade3e49a2e21a7c1d35f78", "is_disabled": 0, "bike_id": "f3f4d4db98ade3e49a2e21a7c1d35f78", "lon": -77.01571983333334, "rental_uris": {"android": "https://dc.lft.to/lastmile_qr_scan", "ios": "https://dc.lft.to/lastmile_qr_scan"}, "fusion_lon": 0.0, "is_reserved": 0}, {"lat": 38.9235675, "fusion_lat": 0.0, "type": "electric_scooter", "name": "2a573cad31002f34b215750afac81a38", "is_disabled": 0, "bike_id": "2a573cad31002f34b215750afac81a38", "lon": -77.05043466666666, "rental_uris": {"android": "https://dc.lft.to/lastmile_qr_scan", "ios": "https://dc.lft.to/lastmile_qr_scan"}, "fusion_lon": 0.0, "is_reserved": 0}, {"lat": 38.85805766666667, "fusion_lat": 0.0, "type": "electric_scooter", "name": "2ca2605cb962858fce36c9f9c2c01e4e", "is_disabled": 0, "bike_id": "2ca2605cb962858fce36c9f9c2c01e4e", "lon": -76.986558, "rental_uris": {"android": "https://dc.lft.to/lastmile_qr_scan", "ios": "https://dc.lft.to/lastmile_qr_scan"}, "fusion_lon": 0.0, "is_reserved": 0}, {"lat": 38.86681266666667, "fusion_lat": 0.0, "type": "electric_scooter", "name": "d418c133b0ea70d3586015b642bbab0a", "is_disabled": 0, "bike_id": "d418c133b0ea70d3586015b642bbab0a", "lon": -76.98568633333333, "rental_uris": {"android": "https://dc.lft.to/lastmile_qr_scan", "ios": "https://dc.lft.to/lastmile_qr_scan"}, "fusion_lon": 0.0, "is_reserved": 0}, {"lat": 38.8860885, "fusion_lat": 0.0, "type": "electric_scooter", "name": "a06d259a1823fb60a55f3939418a0214", "is_disabled": 0, "bike_id": "a06d259a1823fb60a55f3939418a0214", "lon": -77.01251016666667, "rental_uris": {"android": "https://dc.lft.to/lastmile_qr_scan", "ios": "https://dc.lft.to/lastmile_qr_scan"}, "fusion_lon": 0.0, "is_reserved": 0}, {"lat": 38.8662665, "fusion_lat": 0.0, "type": "electric_scooter", "name": "4c21673ff92c3a2ea5e0aedb57cd0590", "is_disabled": 0, "bike_id": "4c21673ff92c3a2ea5e0aedb57cd0590", "lon": -76.98714483333333, "rental_uris": {"android": "https://dc.lft.to/lastmile_qr_scan", "ios": "https://dc.lft.to/lastmile_qr_scan"}, "fusion_lon": 0.0, "is_reserved": 0}, {"lat": 38.908359833333336, "fusion_lat": 0.0, "type": "electric_scooter", "name": "5768d2163ed7489a078b530fc8343a67", "is_disabled": 0, "bike_id": "5768d2163ed7489a078b530fc8343a67", "lon": -77.035613, "rental_uris": {"android": "https://dc.lft.to/lastmile_qr_scan", "ios": "https://dc.lft.to/lastmile_qr_scan"}, "fusion_lon": 0.0, "is_reserved": 0}, {"lat": 38.938745, "fusion_lat": 0.0, "type": "electric_scooter", "name": "8ecb61f6c13bd37e2c48d33ef9201a38", "is_disabled": 0, "bike_id": "8ecb61f6c13bd37e2c48d33ef9201a38", "lon": -77.02480816666667, "rental_uris": {"android": "https://dc.lft.to/lastmile_qr_scan", "ios": "https://dc.lft.to/lastmile_qr_scan"}, "fusion_lon": 0.0, "is_reserved": 0}, {"lat": 38.923373166666664, "fusion_lat": 0.0, "type": "electric_scooter", "name": "e5efbae051bade561a15c0fe3ab94522", "is_disabled": 0, "bike_id": "e5efbae051bade561a15c0fe3ab94522", "lon": -77.02143833333334, "rental_uris": {"android": "https://dc.lft.to/lastmile_qr_scan", "ios": "https://dc.lft.to/lastmile_qr_scan"}, "fusion_lon": 0.0, "is_reserved": 0}, {"lat": 38.927257833333336, "fusion_lat": 0.0, "type": "electric_scooter", "name": "ca21e2bc1fc3b73b12a1249c9852996e", "is_disabled": 0, "bike_id": "ca21e2bc1fc3b73b12a1249c9852996e", "lon": -77.03241383333334, "rental_uris": {"android": "https://dc.lft.to/lastmile_qr_scan", "ios": "https://dc.lft.to/lastmile_qr_scan"}, "fusion_lon": 0.0, "is_reserved": 0}, {"lat": 38.9082295, "fusion_lat": 0.0, "type": "electric_scooter", "name": "e536f5d1ff1501b084c95cd08bf1b819", "is_disabled": 0, "bike_id": "e536f5d1ff1501b084c95cd08bf1b819", "lon": -77.03963283333333, "rental_uris": {"android": "https://dc.lft.to/lastmile_qr_scan", "ios": "https://dc.lft.to/lastmile_qr_scan"}, "fusion_lon": 0.0, "is_reserved": 0}, {"lat": 38.866256, "fusion_lat": 0.0, "type": "electric_scooter", "name": "b3f5c0f2497c0c361ad1f6f04c796854", "is_disabled": 0, "bike_id": "b3f5c0f2497c0c361ad1f6f04c796854", "lon": -76.987132, "rental_uris": {"android": "https://dc.lft.to/lastmile_qr_scan", "ios": "https://dc.lft.to/lastmile_qr_scan"}, "fusion_lon": 0.0, "is_reserved": 0}, {"lat": 38.91104, "fusion_lat": 0.0, "type": "electric_scooter", "name": "ca9875b0bc96db4a30abc83d4a88e075", "is_disabled": 0, "bike_id": "ca9875b0bc96db4a30abc83d4a88e075", "lon": -77.002157, "rental_uris": {"android": "https://dc.lft.to/lastmile_qr_scan", "ios": "https://dc.lft.to/lastmile_qr_scan"}, "fusion_lon": 0.0, "is_reserved": 0}, {"lat": 38.90673316666667, "fusion_lat": 0.0, "type": "electric_scooter", "name": "c5e8c3135af54b7b2818e3e80ee7bb6d", "is_disabled": 0, "bike_id": "c5e8c3135af54b7b2818e3e80ee7bb6d", "lon": -77.03647, "rental_uris": {"android": "https://dc.lft.to/lastmile_qr_scan", "ios": "https://dc.lft.to/lastmile_qr_scan"}, "fusion_lon": 0.0, "is_reserved": 0}, {"lat": 38.85177, "fusion_lat": 0.0, "type": "electric_scooter", "name": "07d331388e6bef906ad7dea80328b05a", "is_disabled": 0, "bike_id": "07d331388e6bef906ad7dea80328b05a", "lon": -76.99580366666666, "rental_uris": {"android": "https://dc.lft.to/lastmile_qr_scan", "ios": "https://dc.lft.to/lastmile_qr_scan"}, "fusion_lon": 0.0, "is_reserved": 0}, {"lat": 38.90564966666667, "fusion_lat": 0.0, "type": "electric_scooter", "name": "bf1f2541a4aac6fb3295702156e62931", "is_disabled": 0, "bike_id": "bf1f2541a4aac6fb3295702156e62931", "lon": -77.021718, "rental_uris": {"android": "https://dc.lft.to/lastmile_qr_scan", "ios": "https://dc.lft.to/lastmile_qr_scan"}, "fusion_lon": 0.0, "is_reserved": 0}, {"lat": 38.878708833333334, "fusion_lat": 0.0, "type": "electric_scooter", "name": "124d361f951ac61953d0746442294eb1", "is_disabled": 0, "bike_id": "124d361f951ac61953d0746442294eb1", "lon": -77.01617733333333, "rental_uris": {"android": "https://dc.lft.to/lastmile_qr_scan", "ios": "https://dc.lft.to/lastmile_qr_scan"}, "fusion_lon": 0.0, "is_reserved": 0}, {"lat": 38.90304866666666, "fusion_lat": 0.0, "type": "electric_scooter", "name": "9657461c02ef46fa2fb5bea832b8ec5d", "is_disabled": 0, "bike_id": "9657461c02ef46fa2fb5bea832b8ec5d", "lon": -77.03459133333334, "rental_uris": {"android": "https://dc.lft.to/lastmile_qr_scan", "ios": "https://dc.lft.to/lastmile_qr_scan"}, "fusion_lon": 0.0, "is_reserved": 0}, {"lat": 38.90471466666666, "fusion_lat": 0.0, "type": "electric_bike", "name": "7915fae7a8fe375975b2ba112c0e1a2e", "is_disabled": 0, "bike_id": "7915fae7a8fe375975b2ba112c0e1a2e", "lon": -77.054855, "rental_uris": {"android": "https://dc.lft.to/lastmile_qr_scan", "ios": "https://dc.lft.to/lastmile_qr_scan"}, "fusion_lon": 0.0, "is_reserved": 0}, {"lat": 38.9146965, "fusion_lat": 0.0, "type": "electric_scooter", "name": "cf4b668c41e777fbc04476d37d137587", "is_disabled": 0, "bike_id": "cf4b668c41e777fbc04476d37d137587", "lon": -77.01429483333334, "rental_uris": {"android": "https://dc.lft.to/lastmile_qr_scan", "ios": "https://dc.lft.to/lastmile_qr_scan"}, "fusion_lon": 0.0, "is_reserved": 0}, {"lat": 38.89220866666667, "fusion_lat": 0.0, "type": "electric_scooter", "name": "daef9a91aab4a1bb9b0fee9ffef63d68", "is_disabled": 0, "bike_id": "daef9a91aab4a1bb9b0fee9ffef63d68", "lon": -77.04517933333334, "rental_uris": {"android": "https://dc.lft.to/lastmile_qr_scan", "ios": "https://dc.lft.to/lastmile_qr_scan"}, "fusion_lon": 0.0, "is_reserved": 0}, {"lat": 38.865599, "fusion_lat": 0.0, "type": "electric_scooter", "name": "b0db2d570b009a3252952deba6699849", "is_disabled": 0, "bike_id": "b0db2d570b009a3252952deba6699849", "lon": -76.98336866666666, "rental_uris": {"android": "https://dc.lft.to/lastmile_qr_scan", "ios": "https://dc.lft.to/lastmile_qr_scan"}, "fusion_lon": 0.0, "is_reserved": 0}, {"lat": 38.89225066666667, "fusion_lat": 0.0, "type": "electric_scooter", "name": "dabf2e6d4f33d1dabb75c19f49f345cc", "is_disabled": 0, "bike_id": "dabf2e6d4f33d1dabb75c19f49f345cc", "lon": -77.046921, "rental_uris": {"android": "https://dc.lft.to/lastmile_qr_scan", "ios": "https://dc.lft.to/lastmile_qr_scan"}, "fusion_lon": 0.0, "is_reserved": 0}, {"lat": 38.91112016666666, "fusion_lat": 0.0, "type": "electric_scooter", "name": "fada05947380bc64f5a131ddbe6492d5", "is_disabled": 0, "bike_id": "fada05947380bc64f5a131ddbe6492d5", "lon": -77.03832116666666, "rental_uris": {"android": "https://dc.lft.to/lastmile_qr_scan", "ios": "https://dc.lft.to/lastmile_qr_scan"}, "fusion_lon": 0.0, "is_reserved": 0}, {"lat": 38.92295466666667, "fusion_lat": 0.0, "type": "electric_scooter", "name": "812c728e8b88275ccc79fad6fa50b1cd", "is_disabled": 0, "bike_id": "812c728e8b88275ccc79fad6fa50b1cd", "lon": -77.02529416666667, "rental_uris": {"android": "https://dc.lft.to/lastmile_qr_scan", "ios": "https://dc.lft.to/lastmile_qr_scan"}, "fusion_lon": 0.0, "is_reserved": 0}, {"lat": 38.92083183333333, "fusion_lat": 0.0, "type": "electric_scooter", "name": "f5d95db5a359efaad96687726687f840", "is_disabled": 0, "bike_id": "f5d95db5a359efaad96687726687f840", "lon": -77.02291616666666, "rental_uris": {"android": "https://dc.lft.to/lastmile_qr_scan", "ios": "https://dc.lft.to/lastmile_qr_scan"}, "fusion_lon": 0.0, "is_reserved": 0}, {"lat": 38.92465716666667, "fusion_lat": 0.0, "type": "electric_scooter", "name": "6abeb6aee86e01f8b02a770eb7758e6e", "is_disabled": 0, "bike_id": "6abeb6aee86e01f8b02a770eb7758e6e", "lon": -77.02216416666667, "rental_uris": {"android": "https://dc.lft.to/lastmile_qr_scan", "ios": "https://dc.lft.to/lastmile_qr_scan"}, "fusion_lon": 0.0, "is_reserved": 0}, {"lat": 38.915747, "fusion_lat": 0.0, "type": "electric_scooter", "name": "cf6bfdc5c7ef7e059f788f81b2610af6", "is_disabled": 0, "bike_id": "cf6bfdc5c7ef7e059f788f81b2610af6", "lon": -77.019951, "rental_uris": {"android": "https://dc.lft.to/lastmile_qr_scan", "ios": "https://dc.lft.to/lastmile_qr_scan"}, "fusion_lon": 0.0, "is_reserved": 0}, {"lat": 38.863726, "fusion_lat": 0.0, "type": "electric_scooter", "name": "776056098923ebd45e5434abf5714fd8", "is_disabled": 0, "bike_id": "776056098923ebd45e5434abf5714fd8", "lon": -76.99064316666667, "rental_uris": {"android": "https://dc.lft.to/lastmile_qr_scan", "ios": "https://dc.lft.to/lastmile_qr_scan"}, "fusion_lon": 0.0, "is_reserved": 0}, {"lat": 38.8961435, "fusion_lat": 0.0, "type": "electric_scooter", "name": "bc0467833630a5995ff6c944712651d1", "is_disabled": 0, "bike_id": "bc0467833630a5995ff6c944712651d1", "lon": -77.03179566666667, "rental_uris": {"android": "https://dc.lft.to/lastmile_qr_scan", "ios": "https://dc.lft.to/lastmile_qr_scan"}, "fusion_lon": 0.0, "is_reserved": 0},