{"data": {"bikes": [{"bike_id": "09fd308af4d63ddb2fe24c28801ccff6", "type": "electric_scooter", "is_disabled": 0, "lat": 38.902477166666664, "rental_uris": {"ios": "https://dc.lft.to/lastmile_qr_scan", "android": "https://dc.lft.to/lastmile_qr_scan"}, "is_reserved": 0, "fusion_lon": 0.0, "fusion_lat": 0.0, "lon": -77.034574, "name": "09fd308af4d63ddb2fe24c28801ccff6"}, {"bike_id": "dc726427c77ed3392f2472bae8fbea18", "type": "electric_bike", "is_disabled": 0, "lat": 38.949051833333336, "rental_uris": {"ios": "https://dc.lft.to/lastmile_qr_scan", "android": "https://dc.lft.to/lastmile_qr_scan"}, "is_reserved": 0, "fusion_lon": 0.0, "fusion_lat": 0.0, "lon": -76.96378166666666, "name": "dc726427c77ed3392f2472bae8fbea18"}, {"bike_id": "17ce698ebd574a34d2e9ac47fb7cf6b8", "type": "electric_scooter", "is_disabled": 0, "lat": 38.922459, "rental_uris": {"ios": "https://dc.lft.to/lastmile_qr_scan", "android": "https://dc.lft.to/lastmile_qr_scan"}, "is_reserved": 0, "fusion_lon": 0.0, "fusion_lat": 0.0, "lon": -77.0427105, "name": "17ce698ebd574a34d2e9ac47fb7cf6b8"}, {"bike_id": "b375fdf4f64cff4a999ce39b2a8c583a", "type": "electric_scooter", "is_disabled": 0, "lat": 38.92870416666667, "rental_uris": {"ios": "https://dc.lft.to/lastmile_qr_scan", "android": "https://dc.lft.to/lastmile_qr_scan"}, "is_reserved": 0, "fusion_lon": 0.0, "fusion_lat": 0.0, "lon": -77.03715666666666, "name": "b375fdf4f64cff4a999ce39b2a8c583a"}, {"bike_id": "287a066a62376541dd55e029def21e4c", "type": "electric_scooter", "is_disabled": 0, "lat": 38.9218875, "rental_uris": {"ios": "https://dc.lft.to/lastmile_qr_scan", "android": "https://dc.lft.to/lastmile_qr_scan"}, "is_reserved": 0, "fusion_lon": 0.0, "fusion_lat": 0.0, "lon": -77.0379845, "name": "287a066a62376541dd55e029def21e4c"}, {"bike_id": "0d1b8d8f1da72601b4e2aa2ed603faa8", "type": "electric_scooter", "is_disabled": 0, "lat": 38.912673166666664, "rental_uris": {"ios": "https://dc.lft.to/lastmile_qr_scan", "android": "https://dc.lft.to/lastmile_qr_scan"}, "is_reserved": 0, "fusion_lon": 0.0, "fusion_lat": 0.0, "lon": -77.02207866666667, "name": "0d1b8d8f1da72601b4e2aa2ed603faa8"}, {"bike_id": "73fb279e82c172fc16b2ef3aedbdb828", "type": "electric_scooter", "is_disabled": 0, "lat": 38.91815916666667, "rental_uris": {"ios": "https://dc.lft.to/lastmile_qr_scan", "android": "https://dc.lft.to/lastmile_qr_scan"}, "is_reserved": 0, "fusion_lon": 0.0, "fusion_lat": 0.0, "lon": -77.002546, "name": "73fb279e82c172fc16b2ef3aedbdb828"}, {"bike_id": "a2e5ba51e272bfe4aaa8b201aa5a6849", "type": "electric_scooter", "is_disabled": 0, "lat": 38.91960233333333, "rental_uris": {"ios": "https://dc.lft.to/lastmile_qr_scan", "android": "https://dc.lft.to/lastmile_qr_scan"}, "is_reserved": 0, "fusion_lon": 0.0, "fusion_lat": 0.0, "lon": -77.02474383333333, "name": "a2e5ba51e272bfe4aaa8b201aa5a6849"}, {"bike_id": "d926c9a76b658d88a13c5f8a78dd9d0e", "type": "electric_scooter", "is_disabled": 0, "lat": 38.912673, "rental_uris": {"ios": "https://dc.lft.to/lastmile_qr_scan", "android": "https://dc.lft.to/lastmile_qr_scan"}, "is_reserved": 0, "fusion_lon": 0.0, "fusion_lat": 0.0, "lon": -77.02208783333333, "name": "d926c9a76b658d88a13c5f8a78dd9d0e"}, {"bike_id": "ba176500525a9631907d4cd3a8804789", "type": "electric_scooter", "is_disabled": 0, "lat": 38.88674266666666, "rental_uris": {"ios": "https://dc.lft.to/lastmile_qr_scan", "android": "https://dc.lft.to/lastmile_qr_scan"}, "is_reserved": 0, "fusion_lon": 0.0, "fusion_lat": 0.0, "lon": -76.9877455, "name": "ba176500525a9631907d4cd3a8804789"}, {"bike_id": "fe2c51c990cdf03f4f04d6b978f09e58", "type": "electric_scooter", "is_disabled": 0, "lat": 38.91703833333333, "rental_uris": {"ios": "https://dc.lft.to/lastmile_qr_scan", "android": "https://dc.lft.to/lastmile_qr_scan"}, "is_reserved": 0, "fusion_lon": 0.0, "fusion_lat": 0.0, "lon": -77.02339066666667, "name": "fe2c51c990cdf03f4f04d6b978f09e58"}, {"bike_id": "3452a9677697b4b4bdf44d06091c5386", "type": "electric_scooter", "is_disabled": 0, "lat": 38.8922495, "rental_uris": {"ios": "https://dc.lft.to/lastmile_qr_scan", "android": "https://dc.lft.to/lastmile_qr_scan"}, "is_reserved": 0, "fusion_lon": 0.0, "fusion_lat": 0.0, "lon": -77.0430935, "name": "3452a9677697b4b4bdf44d06091c5386"}, {"bike_id": "18b4f786757ed40d83c16deecf40154a", "type": "electric_scooter", "is_disabled": 0, "lat": 38.90371116666667, "rental_uris": {"ios": "https://dc.lft.to/lastmile_qr_scan", "android": "https://dc.lft.to/lastmile_qr_scan"}, "is_reserved": 0, "fusion_lon": 0.0, "fusion_lat": 0.0, "lon": -77.007665, "name": "18b4f786757ed40d83c16deecf40154a"}, {"bike_id": "ad859b16cc76d580592b608502ddb004", "type": "electric_scooter", "is_disabled": 0, "lat": 38.929825, "rental_uris": {"ios": "https://dc.lft.to/lastmile_qr_scan", "android": "https://dc.lft.to/lastmile_qr_scan"}, "is_reserved": 0, "fusion_lon": 0.0, "fusion_lat": 0.0, "lon": -77.03139416666667, "name": "ad859b16cc76d580592b608502ddb004"}, {"bike_id": "2f9ca0331ba14384d25a99dfac8e025e", "type": "electric_scooter", "is_disabled": 0, "lat": 38.907138833333335, "rental_uris": {"ios": "https://dc.lft.to/lastmile_qr_scan", "android": "https://dc.lft.to/lastmile_qr_scan"}, "is_reserved": 0, "fusion_lon": 0.0, "fusion_lat": 0.0, "lon": -77.04349883333333, "name": "2f9ca0331ba14384d25a99dfac8e025e"}, {"bike_id": "76a87df794cf7eb9b6fd4028cc69fc68", "type": "electric_scooter", "is_disabled": 0, "lat": 38.8871245, "rental_uris": {"ios": "https://dc.lft.to/lastmile_qr_scan", "android": "https://dc.lft.to/lastmile_qr_scan"}, "is_reserved": 0, "fusion_lon": 0.0, "fusion_lat": 0.0, "lon": -77.03218333333334, "name": "76a87df794cf7eb9b6fd4028cc69fc68"}, {"bike_id": "43f6907a2ad8bb65cb0ff18e4fd9abeb", "type": "electric_scooter", "is_disabled": 0, "lat": 38.917669333333336, "rental_uris": {"ios": "https://dc.lft.to/lastmile_qr_scan", "android": "https://dc.lft.to/lastmile_qr_scan"}, "is_reserved": 0, "fusion_lon": 0.0, "fusion_lat": 0.0, "lon": -77.047649, "name": "43f6907a2ad8bb65cb0ff18e4fd9abeb"}, {"bike_id": "9854d8f5ffb46a6b3559b8d71d471788", "type": "electric_scooter", "is_disabled": 0, "lat": 38.866883333333334, "rental_uris": {"ios": "https://dc.lft.to/lastmile_qr_scan", "android": "https://dc.lft.to/lastmile_qr_scan"}, "is_reserved": 0, "fusion_lon": 0.0, "fusion_lat": 0.0, "lon": -76.985765, "name": "9854d8f5ffb46a6b3559b8d71d471788"}, {"bike_id": "754494b13ccf6f2ed0cf91e06dd9dde5", "type": "electric_scooter", "is_disabled": 0, "lat": 38.918563, "rental_uris": {"ios": "https://dc.lft.to/lastmile_qr_scan", "android": "https://dc.lft.to/lastmile_qr_scan"}, "is_reserved": 0, "fusion_lon": 0.0, "fusion_lat": 0.0, "lon": -77.04176683333333, "name": "754494b13ccf6f2ed0cf91e06dd9dde5"}, {"bike_id": "b8880429f9cd5cfacd648129f45d8113", "type": "electric_scooter", "is_disabled": 0, "lat": 38.85326533333333, "rental_uris": {"ios": "https://dc.lft.to/lastmile_qr_scan", "android": "https://dc.lft.to/lastmile_qr_scan"}, "is_reserved": 0, "fusion_lon": 0.0, "fusion_lat": 0.0, "lon": -76.98028883333333, "name": "b8880429f9cd5cfacd648129f45d8113"}, {"bike_id": "2bd5d1079c0a6eadeff18923f973c570", "type": "electric_scooter", "is_disabled": 0, "lat": 38.88849316666666, "rental_uris": {"ios": "https://dc.lft.to/lastmile_qr_scan", "android": "https://dc.lft.to/lastmile_qr_scan"}, "is_reserved": 0, "fusion_lon": 0.0, "fusion_lat": 0.0, "lon": -76.9268, "name": "2bd5d1079c0a6eadeff18923f973c570"}, {"bike_id": "3d5106f2b1c4b0ef08edfa7a76423ab1", "type": "electric_scooter", "is_disabled": 0, "lat": 38.942756, "rental_uris": {"ios": "https://dc.lft.to/lastmile_qr_scan", "android": "https://dc.lft.to/lastmile_qr_scan"}, "is_reserved": 0, "fusion_lon": 0.0, "fusion_lat": 0.0, "lon": -77.03259883333334, "name": "3d5106f2b1c4b0ef08edfa7a76423ab1"}, {"bike_id": "450d05cc5a1b5ecaf9bedaba1def26e2", "type": "electric_scooter", "is_disabled": 0, "lat": 38.878712, "rental_uris": {"ios": "https://dc.lft.to/lastmile_qr_scan", "android": "https://dc.lft.to/lastmile_qr_scan"}, "is_reserved": 0, "fusion_lon": 0.0, "fusion_lat": 0.0, "lon": -76.969821, "name": "450d05cc5a1b5ecaf9bedaba1def26e2"}, {"bike_id": "fe5340a035f4e2700689707a86d44013", "type": "electric_scooter", "is_disabled": 0, "lat": 38.89230766666667, "rental_uris": {"ios": "https://dc.lft.to/lastmile_qr_scan", "android": "https://dc.lft.to/lastmile_qr_scan"}, "is_reserved": 0, "fusion_lon": 0.0, "fusion_lat": 0.0, "lon": -77.03375333333334, "name": "fe5340a035f4e2700689707a86d44013"}, {"bike_id": "adf43620b061c91736b2332038894c9b", "type": "electric_scooter", "is_disabled": 0, "lat": 38.92919333333333, "rental_uris": {"ios": "https://dc.lft.to/lastmile_qr_scan", "android": "https://dc.lft.to/lastmile_qr_scan"}, "is_reserved": 0, "fusion_lon": 0.0, "fusion_lat": 0.0, "lon": -77.02093433333333, "name": "adf43620b061c91736b2332038894c9b"}, {"bike_id": "42713effb8e1a0adf296b2f9ab75cec8", "type": "electric_scooter", "is_disabled": 0, "lat": 38.9247535, "rental_uris": {"ios": "https://dc.lft.to/lastmile_qr_scan", "android": "https://dc.lft.to/lastmile_qr_scan"}, "is_reserved": 0, "fusion_lon": 0.0, "fusion_lat": 0.0, "lon": -77.02834283333334, "name": "42713effb8e1a0adf296b2f9ab75cec8"}, {"bike_id": "7064698de8d4a1cc5289b4e0acf38c3a", "type": "electric_scooter", "is_disabled": 0, "lat": 38.902463833333336, "rental_uris": {"ios": "https://dc.lft.to/lastmile_qr_scan", "android": "https://dc.lft.to/lastmile_qr_scan"}, "is_reserved": 0, "fusion_lon": 0.0, "fusion_lat": 0.0, "lon": -77.043398, "name": "7064698de8d4a1cc5289b4e0acf38c3a"}, {"bike_id": "c4039364c22c5d6637495eccc91ce47b", "type": "electric_scooter", "is_disabled": 0, "lat": 38.8742335, "rental_uris": {"ios": "https://dc.lft.to/lastmile_qr_scan", "android": "https://dc.lft.to/lastmile_qr_scan"}, "is_reserved": 0, "fusion_lon": 0.0, "fusion_lat": 0.0, "lon": -76.9690635, "name": "c4039364c22c5d6637495eccc91ce47b"}, {"bike_id": "7c5dc2fa1fcffac51ac52bb64ddcbefa", "type": "electric_scooter", "is_disabled": 0, "lat": 38.90748516666667, "rental_uris": {"ios": "https://dc.lft.to/lastmile_qr_scan", "android": "https://dc.lft.to/lastmile_qr_scan"}, "is_reserved": 0, "fusion_lon": 0.0, "fusion_lat": 0.0, "lon": -77.02391066666667, "name": "7c5dc2fa1fcffac51ac52bb64ddcbefa"}, {"bike_id": "a67fc3e4df81289725a85ac96b0c4999", "type": "electric_scooter", "is_disabled": 0, "lat": 38.906553833333334, "rental_uris": {"ios": "https://dc.lft.to/lastmile_qr_scan", "android": "https://dc.lft.to/lastmile_qr_scan"}, "is_reserved": 0, "fusion_lon": 0.0, "fusion_lat": 0.0, "lon": -77.01453816666667, "name": "a67fc3e4df81289725a85ac96b0c4999"}, {"bike_id": "cd25ea40bd6911938f3082f9ebd7677e", "type": "electric_scooter", "is_disabled": 0, "lat": 38.905967833333335, "rental_uris": {"ios": "https://dc.lft.to/lastmile_qr_scan", "android": "https://dc.lft.to/lastmile_qr_scan"}, "is_reserved": 0, "fusion_lon": 0.0, "fusion_lat": 0.0, "lon": -77.04735283333333, "name": "cd25ea40bd6911938f3082f9ebd7677e"}, {"bike_id": "785cdbea8c532dfe440684f1d124ae05", "type": "electric_scooter", "is_disabled": 0, "lat": 38.925507333333336, "rental_uris": {"ios": "https://dc.lft.to/lastmile_qr_scan", "android": "https://dc.lft.to/lastmile_qr_scan"}, "is_reserved": 0, "fusion_lon": 0.0, "fusion_lat": 0.0, "lon": -77.0228455, "name": "785cdbea8c532dfe440684f1d124ae05"}, {"bike_id": "08ddf2fd45d9335c45bf76767facd837", "type": "electric_scooter", "is_disabled": 0, "lat": 38.884317833333334, "rental_uris": {"ios": "https://dc.lft.to/lastmile_qr_scan", "android": "https://dc.lft.to/lastmile_qr_scan"}, "is_reserved": 0, "fusion_lon": 0.0, "fusion_lat": 0.0, "lon": -76.957507, "name": "08ddf2fd45d9335c45bf76767facd837"}, {"bike_id": "65fbe82a88fa3ef58d29cd1f2075f336", "type": "electric_scooter", "is_disabled": 0, "lat": 38.91034666666667, "rental_uris": {"ios": "https://dc.lft.to/lastmile_qr_scan", "android": "https://dc.lft.to/lastmile_qr_scan"}, "is_reserved": 0, "fusion_lon": 0.0, "fusion_lat": 0.0, "lon": -77.0379935, "name": "65fbe82a88fa3ef58d29cd1f2075f336"}, {"bike_id": "3ed5902f100cfc0bafa21adf4614ccf6", "type": "electric_scooter", "is_disabled": 0, "lat": 38.9132815, "rental_uris": {"ios": "https://dc.lft.to/lastmile_qr_scan", "android": "https://dc.lft.to/lastmile_qr_scan"}, "is_reserved": 0, "fusion_lon": 0.0, "fusion_lat": 0.0, "lon": -77.03181883333333, "name": "3ed5902f100cfc0bafa21adf4614ccf6"}, {"bike_id": "18ce3852b245ad1597052a90d650039c", "type": "electric_scooter", "is_disabled": 0, "lat": 38.8874235, "rental_uris": {"ios": "https://dc.lft.to/lastmile_qr_scan", "android": "https://dc.lft.to/lastmile_qr_scan"}, "is_reserved": 0, "fusion_lon": 0.0, "fusion_lat": 0.0, "lon": -77.02393833333333, "name": "18ce3852b245ad1597052a90d650039c"}, {"bike_id": "2e98f9d94fa2b688f2da1d4e085f616f", "type": "electric_scooter", "is_disabled": 0, "lat": 38.9182895, "rental_uris": {"ios": "https://dc.lft.to/lastmile_qr_scan", "android": "https://dc.lft.to/lastmile_qr_scan"}, "is_reserved": 0, "fusion_lon": 0.0, "fusion_lat": 0.0, "lon": -77.04516233333334, "name": "2e98f9d94fa2b688f2da1d4e085f616f"}, {"bike_id": "f8a92b85ad8a8ef721fdb76b170c90b8", "type": "electric_scooter", "is_disabled": 0, "lat": 38.89007433333333, "rental_uris": {"ios": "https://dc.lft.to/lastmile_qr_scan", "android": "https://dc.lft.to/lastmile_qr_scan"}, "is_reserved": 0, "fusion_lon": 0.0, "fusion_lat": 0.0, "lon": -76.93747566666667, "name": "f8a92b85ad8a8ef721fdb76b170c90b8"}, {"bike_id": "b7c6fc25200cd90a1c0e0496d112bf42", "type": "electric_scooter", "is_disabled": 0, "lat": 38.915510166666664, "rental_uris": {"ios": "https://dc.lft.to/lastmile_qr_scan", "android": "https://dc.lft.to/lastmile_qr_scan"}, "is_reserved": 0, "fusion_lon": 0.0, "fusion_lat": 0.0, "lon": -77.0385255, "name": "b7c6fc25200cd90a1c0e0496d112bf42"}, {"bike_id": "469c6196f757716b8965ce2a91965c80", "type": "electric_scooter", "is_disabled": 0, "lat": 38.91793416666667, "rental_uris": {"ios": "https://dc.lft.to/lastmile_qr_scan", "android": "https://dc.lft.to/lastmile_qr_scan"}, "is_reserved": 0, "fusion_lon": 0.0, "fusion_lat": 0.0, "lon": -77.02302333333333, "name": "469c6196f757716b8965ce2a91965c80"}, {"bike_id": "50bc23bf804c635fc18ebf1299a253b2", "type": "electric_scooter", "is_disabled": 0, "lat": 38.914488, "rental_uris": {"ios": "https://dc.lft.to/lastmile_qr_scan", "android": "https://dc.lft.to/lastmile_qr_scan"}, "is_reserved": 0, "fusion_lon": 0.0, "fusion_lat": 0.0, "lon": -77.02591883333334, "name": "50bc23bf804c635fc18ebf1299a253b2"}, {"bike_id": "7c8d145e2fecded071dbc0ae0134bb83", "type": "electric_scooter", "is_disabled": 0, "lat": 38.901417333333335, "rental_uris": {"ios": "https://dc.lft.to/lastmile_qr_scan", "android": "https://dc.lft.to/lastmile_qr_scan"}, "is_reserved": 0, "fusion_lon": 0.0, "fusion_lat": 0.0, "lon": -77.017958, "name": "7c8d145e2fecded071dbc0ae0134bb83"}, {"bike_id": "6fcd7f3b6d1a64ff787b126d41f5ee71", "type": "electric_bike", "is_disabled": 0, "lat": 38.829492333333334, "rental_uris": {"ios": "https://dc.lft.to/lastmile_qr_scan", "android": "https://dc.lft.to/lastmile_qr_scan"}, "is_reserved": 0, "fusion_lon": 0.0, "fusion_lat": 0.0, "lon": -77.12351966666667, "name": "6fcd7f3b6d1a64ff787b126d41f5ee71"}, {"bike_id": "67cc64ba2d693d72e47aaf2aa526ab56", "type": "electric_scooter", "is_disabled": 0, "lat": 38.921637833333335, "rental_uris": {"ios": "https://dc.lft.to/lastmile_qr_scan", "android": "https://dc.lft.to/lastmile_qr_scan"}, "is_reserved": 0, "fusion_lon": 0.0, "fusion_lat": 0.0, "lon": -77.03846316666667, "name": "67cc64ba2d693d72e47aaf2aa526ab56"}, {"bike_id": "b2e6be69dfacde557241c469287aefbb", "type": "electric_scooter", "is_disabled": 0, "lat": 38.91560466666667, "rental_uris": {"ios": "https://dc.lft.to/lastmile_qr_scan", "android": "https://dc.lft.to/lastmile_qr_scan"}, "is_reserved": 0, "fusion_lon": 0.0, "fusion_lat": 0.0, "lon": -77.03951033333334, "name": "b2e6be69dfacde557241c469287aefbb"}, {"bike_id": "036340a978846a98031725747105e3a7", "type": "electric_scooter", "is_disabled": 0, "lat": 38.8576205, "rental_uris": {"ios": "https://dc.lft.to/lastmile_qr_scan", "android": "https://dc.lft.to/lastmile_qr_scan"}, "is_reserved": 0, "fusion_lon": 0.0, "fusion_lat": 0.0, "lon": -76.99297266666667, "name": "036340a978846a98031725747105e3a7"}, {"bike_id": "dd19d0a15a15965f84936c40ef17f52b", "type": "electric_scooter", "is_disabled": 0, "lat": 38.91694783333333, "rental_uris": {"ios": "https://dc.lft.to/lastmile_qr_scan", "android": "https://dc.lft.to/lastmile_qr_scan"}, "is_reserved": 0, "fusion_lon": 0.0, "fusion_lat": 0.0, "lon": -77.025977, "name": "dd19d0a15a15965f84936c40ef17f52b"}, {"bike_id": "4760331030300556f2872c5059dc1c53", "type": "electric_bike", "is_disabled": 0, "lat": 38.9321035, "rental_uris": {"ios": "https://dc.lft.to/lastmile_qr_scan", "android": "https://dc.lft.to/lastmile_qr_scan"}, "is_reserved": 0, "fusion_lon": 0.0, "fusion_lat": 0.0, "lon": -76.99501183333334, "name": "4760331030300556f2872c5059dc1c53"}, {"bike_id": "096c354f18e6cbdf3cf56b1fa59c4b28", "type": "electric_scooter", "is_disabled": 0, "lat": 38.9381765, "rental_uris": {"ios": "https://dc.lft.to/lastmile_qr_scan", "android": "https://dc.lft.to/lastmile_qr_scan"}, "is_reserved": 0, "fusion_lon": 0.0, "fusion_lat": 0.0, "lon": -77.02707066666666, "name": "096c354f18e6cbdf3cf56b1fa59c4b28"}, {"bike_id": "b5cfc8d9aa68b31532133cc67f61cad1", "type": "electric_scooter", "is_disabled": 0, "lat": 38.93755733333333, "rental_uris": {"ios": "https://dc.lft.to/lastmile_qr_scan", "android": "https://dc.lft.to/lastmile_qr_scan"}, "is_reserved": 0, "fusion_lon": 0.0, "fusion_lat": 0.0, "lon": -77.02440366666667, "name": "b5cfc8d9aa68b31532133cc67f61cad1"}, {"bike_id": "2b958fa68d03bf6664a23e0502780533", "type": "electric_bike", "is_disabled": 0, "lat": 38.92279816666667, "rental_uris": {"ios": "https://dc.lft.to/lastmile_qr_scan", "android": "https://dc.lft.to/lastmile_qr_scan"}, "is_reserved": 0, "fusion_lon": 0.0, "fusion_lat": 0.0, "lon": -77.0224205, "name": "2b958fa68d03bf6664a23e0502780533"}, {"bike_id": "c8b5fca8e53b80768b878061c0850073", "type": "electric_scooter", "is_disabled": 0, "lat": 38.92260233333333, "rental_uris": {"ios": "https://dc.lft.to/lastmile_qr_scan", "android": "https://dc.lft.to/lastmile_qr_scan"}, "is_reserved": 0, "fusion_lon": 0.0, "fusion_lat": 0.0, "lon": -77.01969483333333, "name": "c8b5fca8e53b80768b878061c0850073"}, {"bike_id": "40e2bf24d414ea0efe87b22b81b3b67c", "type": "electric_scooter", "is_disabled": 0, "lat": 38.894806333333335, "rental_uris": {"ios": "https://dc.lft.to/lastmile_qr_scan", "android": "https://dc.lft.to/lastmile_qr_scan"}, "is_reserved": 0, "fusion_lon": 0.0, "fusion_lat": 0.0, "lon": -76.99516016666666, "name": "40e2bf24d414ea0efe87b22b81b3b67c"}, {"bike_id": "41899f5c209098e72b32d48b2835097a", "type": "electric_scooter", "is_disabled": 0, "lat": 38.897180666666664, "rental_uris": {"ios": "https://dc.lft.to/lastmile_qr_scan", "android": "https://dc.lft.to/lastmile_qr_scan"}, "is_reserved": 0, "fusion_lon": 0.0, "fusion_lat": 0.0, "lon": -76.9883995, "name": "41899f5c209098e72b32d48b2835097a"}, {"bike_id": "eee8ad4c2df7e8e4158f5e511d8fe4b3", "type": "electric_bike", "is_disabled": 0, "lat": 38.92958333333333, "rental_uris": {"ios": "https://dc.lft.to/lastmile_qr_scan", "android": "https://dc.lft.to/lastmile_qr_scan"}, "is_reserved": 0, "fusion_lon": 0.0, "fusion_lat": 0.0, "lon": -77.02337666666666, "name": "eee8ad4c2df7e8e4158f5e511d8fe4b3"}, {"bike_id": "7a31f4fee1985aa253d222a511c83a2b", "type": "electric_scooter", "is_disabled": 0, "lat": 38.933729, "rental_uris": {"ios": "https://dc.lft.to/lastmile_qr_scan", "android": "https://dc.lft.to/lastmile_qr_scan"}, "is_reserved": 0, "fusion_lon": 0.0, "fusion_lat": 0.0, "lon": -77.057316, "name": "7a31f4fee1985aa253d222a511c83a2b"}, {"bike_id": "e182386bae08f1af984602857775f34d", "type": "electric_scooter", "is_disabled": 0, "lat": 38.905294, "rental_uris": {"ios": "https://dc.lft.to/lastmile_qr_scan", "android": "https://dc.lft.to/lastmile_qr_scan"}, "is_reserved": 0, "fusion_lon": 0.0, "fusion_lat": 0.0, "lon": -76.98620033333333, "name": "e182386bae08f1af984602857775f34d"}, {"bike_id": "33b924ac790f2caef37b1a443086b27e", "type": "electric_scooter", "is_disabled": 0, "lat": 38.866988166666665, "rental_uris": {"ios": "https://dc.lft.to/lastmile_qr_scan", "android": "https://dc.lft.to/lastmile_qr_scan"}, "is_reserved": 0, "fusion_lon": 0.0, "fusion_lat": 0.0, "lon": -76.9871345, "name": "33b924ac790f2caef37b1a443086b27e"}, {"bike_id": "99ead977c40d40b63dc661cd86c9326f", "type": "electric_scooter", "is_disabled": 0, "lat": 38.86215833333333, "rental_uris": {"ios": "https://dc.lft.to/lastmile_qr_scan", "android": "https://dc.lft.to/lastmile_qr_scan"}, "is_reserved": 0, "fusion_lon": 0.0, "fusion_lat": 0.0, "lon": -76.99475266666667, "name": "99ead977c40d40b63dc661cd86c9326f"}, {"bike_id": "649cb142d57a72842ac92c68e6cc299e", "type": "electric_scooter", "is_disabled": 0, "lat": 38.8922705, "rental_uris": {"ios": "https://dc.lft.to/lastmile_qr_scan", "android": "https://dc.lft.to/lastmile_qr_scan"}, "is_reserved": 0, "fusion_lon": 0.0, "fusion_lat": 0.0, "lon": -77.03330333333334, "name": "649cb142d57a72842ac92c68e6cc299e"}, {"bike_id": "25a8390a971ca33363752b4ce8e64d02", "type": "electric_scooter", "is_disabled": 0, "lat": 38.923219333333336, "rental_uris": {"ios": "https://dc.lft.to/lastmile_qr_scan", "android": "https://dc.lft.to/lastmile_qr_scan"}, "is_reserved": 0, "fusion_lon": 0.0, "fusion_lat": 0.0, "lon": -77.02138633333334, "name": "25a8390a971ca33363752b4ce8e64d02"}, {"bike_id": "97df397eaab7698152c344c2f8c080d2", "type": "electric_bike", "is_disabled": 0, "lat": 38.845261666666666, "rental_uris": {"ios": "https://dc.lft.to/lastmile_qr_scan", "android": "https://dc.lft.to/lastmile_qr_scan"}, "is_reserved": 0, "fusion_lon": 0.0, "fusion_lat": 0.0, "lon": -76.973947, "name": "97df397eaab7698152c344c2f8c080d2"}, {"bike_id": "f0aadab372dce2f751e80f8b2f9dd20e", "type": "electric_scooter", "is_disabled": 0, "lat": 38.9202285, "rental_uris": {"ios": "https://dc.lft.to/lastmile_qr_scan", "android": "https://dc.lft.to/lastmile_qr_scan"}, "is_reserved": 0, "fusion_lon": 0.0, "fusion_lat": 0.0, "lon": -77.0419625, "name": "f0aadab372dce2f751e80f8b2f9dd20e"}, {"bike_id": "ba1ba31a43f85eeaef224e383b107218", "type": "electric_scooter", "is_disabled": 0, "lat": 38.912331, "rental_uris": {"ios": "https://dc.lft.to/lastmile_qr_scan", "android": "https://dc.lft.to/lastmile_qr_scan"}, "is_reserved": 0, "fusion_lon": 0.0, "fusion_lat": 0.0, "lon": -77.04513683333333, "name": "ba1ba31a43f85eeaef224e383b107218"}, {"bike_id": "643d68e1c9e88ead75813b4e468c86f0", "type": "electric_scooter", "is_disabled": 0, "lat": 38.90281683333333, "rental_uris": {"ios": "https://dc.lft.to/lastmile_qr_scan", "android": "https://dc.lft.to/lastmile_qr_scan"}, "is_reserved": 0, "fusion_lon": 0.0, "fusion_lat": 0.0, "lon": -77.02272416666666, "name": "643d68e1c9e88ead75813b4e468c86f0"}, {"bike_id": "9909d22450c2ffd6a0bd121e65985e11", "type": "electric_scooter", "is_disabled": 0, "lat": 38.947963333333334, "rental_uris": {"ios": "https://dc.lft.to/lastmile_qr_scan", "android": "https://dc.lft.to/lastmile_qr_scan"}, "is_reserved": 0, "fusion_lon": 0.0, "fusion_lat": 0.0, "lon": -77.02128133333333, "name": "9909d22450c2ffd6a0bd121e65985e11"}, {"bike_id": "dfbcef79ab7b85aa32e1e893e9bc5fdf", "type": "electric_scooter", "is_disabled": 0, "lat": 38.92358183333333, "rental_uris": {"ios": "https://dc.lft.to/lastmile_qr_scan", "android": "https://dc.lft.to/lastmile_qr_scan"}, "is_reserved": 0, "fusion_lon": 0.0, "fusion_lat": 0.0, "lon": -77.05231516666667, "name": "dfbcef79ab7b85aa32e1e893e9bc5fdf"}, {"bike_id": "05f4dab47f4bb2537766359767ed0e93", "type": "electric_scooter", "is_disabled": 0, "lat": 38.89224216666667, "rental_uris": {"ios": "https://dc.lft.to/lastmile_qr_scan", "android": "https://dc.lft.to/lastmile_qr_scan"}, "is_reserved": 0, "fusion_lon": 0.0, "fusion_lat": 0.0, "lon": -77.04652316666666, "name": "05f4dab47f4bb2537766359767ed0e93"}, {"bike_id": "582df6ba5610722e6133c4f2ef95f035", "type": "electric_scooter", "is_disabled": 0, "lat": 38.91066516666667, "rental_uris": {"ios": "https://dc.lft.to/lastmile_qr_scan", "android": "https://dc.lft.to/lastmile_qr_scan"}, "is_reserved": 0, "fusion_lon": 0.0, "fusion_lat": 0.0, "lon": -77.04497366666666, "name": "582df6ba5610722e6133c4f2ef95f035"}, {"bike_id": "1d052d5ecfb843c1a5f390932281a905", "type": "electric_scooter", "is_disabled": 0, "lat": 38.91176133333333, "rental_uris": {"ios": "https://dc.lft.to/lastmile_qr_scan", "android": "https://dc.lft.to/lastmile_qr_scan"}, "is_reserved": 0, "fusion_lon": 0.0, "fusion_lat": 0.0, "lon": -77.03863883333334, "name": "1d052d5ecfb843c1a5f390932281a905"}, {"bike_id": "f3fe5191178b314b2a39c83d3b21c657", "type": "electric_scooter", "is_disabled": 0, "lat": 38.9127485, "rental_uris": {"ios": "https://dc.lft.to/lastmile_qr_scan", "android": "https://dc.lft.to/lastmile_qr_scan"}, "is_reserved": 0, "fusion_lon": 0.0, "fusion_lat": 0.0, "lon": -77.02206583333333, "name": "f3fe5191178b314b2a39c83d3b21c657"}, {"bike_id": "aa6717e6ac75f35299745f0f0a409979", "type": "electric_scooter", "is_disabled": 0, "lat": 38.93325466666667, "rental_uris": {"ios": "https://dc.lft.to/lastmile_qr_scan", "android": "https://dc.lft.to/lastmile_qr_scan"}, "is_reserved": 0, "fusion_lon": 0.0, "fusion_lat": 0.0, "lon": -77.02750666666667, "name": "aa6717e6ac75f35299745f0f0a409979"}, {"bike_id": "318d2675f1e58f5684a0cc013e221e57", "type": "electric_bike", "is_disabled": 0, "lat": 39.051018666666664, "rental_uris": {"ios": "https://dc.lft.to/lastmile_qr_scan", "android": "https://dc.lft.to/lastmile_qr_scan"}, "is_reserved": 0, "fusion_lon": 0.0, "fusion_lat": 0.0, "lon": -77.117429, "name": "318d2675f1e58f5684a0cc013e221e57"}, {"bike_id": "00199e4f2fc34cc4a36212869ab5fde7", "type": "electric_scooter", "is_disabled": 0, "lat": 38.89516016666666, "rental_uris": {"ios": "https://dc.lft.to/lastmile_qr_scan", "android": "https://dc.lft.to/lastmile_qr_scan"}, "is_reserved": 0, "fusion_lon": 0.0, "fusion_lat": 0.0, "lon": -77.043437, "name": "00199e4f2fc34cc4a36212869ab5fde7"}, {"bike_id": "899f7eb7cdfba23dca26815ccac99618", "type": "electric_scooter", "is_disabled": 0, "lat": 38.92235683333333, "rental_uris": {"ios": "https://dc.lft.to/lastmile_qr_scan", "android": "https://dc.lft.to/lastmile_qr_scan"}, "is_reserved": 0, "fusion_lon": 0.0, "fusion_lat": 0.0, "lon": -76.97531433333333, "name": "899f7eb7cdfba23dca26815ccac99618"}, {"bike_id": "96fd9892a8530f959ecf591c76e356f5", "type": "electric_scooter", "is_disabled": 0, "lat": 38.8999745, "rental_uris": {"ios": "https://dc.lft.to/lastmile_qr_scan", "android": "https://dc.lft.to/lastmile_qr_scan"}, "is_reserved": 0, "fusion_lon": 0.0, "fusion_lat": 0.0, "lon": -77.02721916666667, "name": "96fd9892a8530f959ecf591c76e356f5"}, {"bike_id": "76e298e926e568a5a6ad9471aa361ade", "type": "electric_scooter", "is_disabled": 0, "lat": 38.911418, "rental_uris": {"ios": "https://dc.lft.to/lastmile_qr_scan", "android": "https://dc.lft.to/lastmile_qr_scan"}, "is_reserved": 0, "fusion_lon": 0.0, "fusion_lat": 0.0, "lon": -77.04492166666667, "name": "76e298e926e568a5a6ad9471aa361ade"}, {"bike_id": "5cc20acf47370300f6893b7d41373fd2", "type": "electric_scooter", "is_disabled": 0, "lat": 38.90367066666666, "rental_uris": {"ios": "https://dc.lft.to/lastmile_qr_scan", "android": "https://dc.lft.to/lastmile_qr_scan"}, "is_reserved": 0, "fusion_lon": 0.0, "fusion_lat": 0.0, "lon": -76.99217366666667, "name": "5cc20acf47370300f6893b7d41373fd2"}, {"bike_id": "11be5216c65a7eb9f01f677b74a52268", "type": "electric_scooter", "is_disabled": 0, "lat": 38.924621, "rental_uris": {"ios": "https://dc.lft.to/lastmile_qr_scan", "android": "https://dc.lft.to/lastmile_qr_scan"}, "is_reserved": 0, "fusion_lon": 0.0, "fusion_lat": 0.0, "lon": -77.05198033333333, "name": "11be5216c65a7eb9f01f677b74a52268"}, {"bike_id": "1f9b2651f4cbe8e5f1e5cc941bf07f53", "type": "electric_scooter", "is_disabled": 0, "lat": 38.9143125, "rental_uris": {"ios": "https://dc.lft.to/lastmile_qr_scan", "android": "https://dc.lft.to/lastmile_qr_scan"}, "is_reserved": 0, "fusion_lon": 0.0, "fusion_lat": 0.0, "lon": -77.04574516666666, "name": "1f9b2651f4cbe8e5f1e5cc941bf07f53"}, {"bike_id": "817928404136007aaf218a09481d64c8", "type": "electric_scooter", "is_disabled": 0, "lat": 38.8849895, "rental_uris": {"ios": "https://dc.lft.to/lastmile_qr_scan", "android": "https://dc.lft.to/lastmile_qr_scan"}, "is_reserved": 0, "fusion_lon": 0.0, "fusion_lat": 0.0, "lon": -77.02539283333333, "name": "817928404136007aaf218a09481d64c8"}, {"bike_id": "597b042b457d692a586bfc645ef19152", "type": "electric_scooter", "is_disabled": 0, "lat": 38.919029, "rental_uris": {"ios": "https://dc.lft.to/lastmile_qr_scan", "android": "https://dc.lft.to/lastmile_qr_scan"}, "is_reserved": 0, "fusion_lon": 0.0, "fusion_lat": 0.0, "lon": -77.04451466666667, "name": "597b042b457d692a586bfc645ef19152"}, {"bike_id": "7ecffa6679fb16db091c308380eead35", "type": "electric_scooter", "is_disabled": 0, "lat": 38.902615, "rental_uris": {"ios": "https://dc.lft.to/lastmile_qr_scan", "android": "https://dc.lft.to/lastmile_qr_scan"}, "is_reserved": 0, "fusion_lon": 0.0, "fusion_lat": 0.0, "lon": -77.0181825, "name": "7ecffa6679fb16db091c308380eead35"}, {"bike_id": "004ce12fa66accb56105d8f0ff83d5c4", "type": "electric_scooter", "is_disabled": 0, "lat": 38.92752566666667, "rental_uris": {"ios": "https://dc.lft.to/lastmile_qr_scan", "android": "https://dc.lft.to/lastmile_qr_scan"}, "is_reserved": 0, "fusion_lon": 0.0, "fusion_lat": 0.0, "lon": -77.02380466666666, "name": "004ce12fa66accb56105d8f0ff83d5c4"}, {"bike_id": "b701fdfec3f4a73cd26633dc5581a16e", "type": "electric_scooter", "is_disabled": 0, "lat": 38.90285933333333, "rental_uris": {"ios": "https://dc.lft.to/lastmile_qr_scan", "android": "https://dc.lft.to/lastmile_qr_scan"}, "is_reserved": 0, "fusion_lon": 0.0, "fusion_lat": 0.0, "lon": -77.03642683333334, "name": "b701fdfec3f4a73cd26633dc5581a16e"}, {"bike_id": "5d28826bf27bf3135a20b2ead0d83bad", "type": "electric_scooter", "is_disabled": 0, "lat": 38.91131083333333, "rental_uris": {"ios": "https://dc.lft.to/lastmile_qr_scan", "android": "https://dc.lft.to/lastmile_qr_scan"}, "is_reserved": 0, "fusion_lon": 0.0, "fusion_lat": 0.0, "lon": -77.022006, "name": "5d28826bf27bf3135a20b2ead0d83bad"}, {"bike_id": "b2a817081d221d52fac8e6e5b0fde8ad", "type": "electric_scooter", "is_disabled": 0, "lat": 38.9191915, "rental_uris": {"ios": "https://dc.lft.to/lastmile_qr_scan", "android": "https://dc.lft.to/lastmile_qr_scan"}, "is_reserved": 0, "fusion_lon": 0.0, "fusion_lat": 0.0, "lon": -77.00255083333333, "name": "b2a817081d221d52fac8e6e5b0fde8ad"}, {"bike_id": "a4e38084bb3c024e628fb99db4ac420b", "type": "electric_scooter", "is_disabled": 0, "lat": 38.909378, "rental_uris": {"ios": "https://dc.lft.to/lastmile_qr_scan", "android": "https://dc.lft.to/lastmile_qr_scan"}, "is_reserved": 0, "fusion_lon": 0.0, "fusion_lat": 0.0, "lon": -77.04940166666667, "name": "a4e38084bb3c024e628fb99db4ac420b"}, {"bike_id": "47831ab4c02052c628be53d296de555d", "type": "electric_scooter", "is_disabled": 0, "lat": 38.896074166666665, "rental_uris": {"ios": "https://dc.lft.to/lastmile_qr_scan", "android": "https://dc.lft.to/lastmile_qr_scan"}, "is_reserved": 0, "fusion_lon": 0.0, "fusion_lat": 0.0, "lon": -77.045035, "name": "47831ab4c02052c628be53d296de555d"}, {"bike_id": "0072b5e6c31b5e765b77d66459af1c67", "type": "electric_scooter", "is_disabled": 0, "lat": 38.903932, "rental_uris": {"ios": "https://dc.lft.to/lastmile_qr_scan", "android": "https://dc.lft.to/lastmile_qr_scan"}, "is_reserved": 0, "fusion_lon": 0.0, "fusion_lat": 0.0, "lon": -77.0087625, "name": "0072b5e6c31b5e765b77d66459af1c67"}, {"bike_id": "b355f73e7aba99513fa89d1b6580f568", "type": "electric_scooter", "is_disabled": 0, "lat": 38.914282166666666, "rental_uris": {"ios": "https://dc.lft.to/lastmile_qr_scan", "android": "https://dc.lft.to/lastmile_qr_scan"}, "is_reserved": 0, "fusion_lon": 0.0, "fusion_lat": 0.0, "lon": -77.032573, "name": "b355f73e7aba99513fa89d1b6580f568"}, {"bike_id": "727087c1dfe3711cfb6b68535eab621c", "type": "electric_bike", "is_disabled": 0, "lat": 38.96500016666667, "rental_uris": {"ios": "https://dc.lft.to/lastmile_qr_scan", "android": "https://dc.lft.to/lastmile_qr_scan"}, "is_reserved": 0, "fusion_lon": 0.0, "fusion_lat": 0.0, "lon": -77.0210115, "name": "727087c1dfe3711cfb6b68535eab621c"}, {"bike_id": "a78761432eae3046f4c6037e1a173fac", "type": "electric_scooter", "is_disabled": 0, "lat": 38.921935833333336, "rental_uris": {"ios": "https://dc.lft.to/lastmile_qr_scan", "android": "https://dc.lft.to/lastmile_qr_scan"}, "is_reserved": 0, "fusion_lon": 0.0, "fusion_lat": 0.0, "lon": -77.020896, "name": "a78761432eae3046f4c6037e1a173fac"}, {"bike_id": "3f761971af306e94288a01deeaa4b18a", "type": "electric_bike", "is_disabled": 0, "lat": 39.013721, "rental_uris": {"ios": "https://dc.lft.to/lastmile_qr_scan", "android": "https://dc.lft.to/lastmile_qr_scan"}, "is_reserved": 0, "fusion_lon": 0.0, "fusion_lat": 0.0, "lon": -76.92129433333334, "name": "3f761971af306e94288a01deeaa4b18a"}, {"bike_id": "94162e72c2ce6143d7fe4072a80ffc2e", "type": "electric_scooter", "is_disabled": 0, "lat": 38.900629333333335, "rental_uris": {"ios": "https://dc.lft.to/lastmile_qr_scan", "android": "https://dc.lft.to/lastmile_qr_scan"}, "is_reserved": 0, "fusion_lon": 0.0, "fusion_lat": 0.0, "lon": -77.01217066666666, "name": "94162e72c2ce6143d7fe4072a80ffc2e"}, {"bike_id": "dcb1d5736dc40a26da3358a56828e4fa", "type": "electric_scooter", "is_disabled": 0, "lat": 38.90012016666667, "rental_uris": {"ios": "https://dc.lft.to/lastmile_qr_scan", "android": "https://dc.lft.to/lastmile_qr_scan"}, "is_reserved": 0, "fusion_lon": 0.0, "fusion_lat": 0.0, "lon": -76.9944075, "name": "dcb1d5736dc40a26da3358a56828e4fa"}, {"bike_id": "50292496c6ecf8b8e52dbbae1c5299b1", "type": "electric_scooter", "is_disabled": 0, "lat": 38.923309833333334, "rental_uris": {"ios": "https://dc.lft.to/lastmile_qr_scan", "android": "https://dc.lft.to/lastmile_qr_scan"}, "is_reserved": 0, "fusion_lon": 0.0, "fusion_lat": 0.0, "lon": -77.046139, "name": "50292496c6ecf8b8e52dbbae1c5299b1"}, {"bike_id": "489c5318b7582eb07ee89d4697c4d5c9", "type": "electric_scooter", "is_disabled": 0, "lat": 38.923342166666664, "rental_uris": {"ios": "https://dc.lft.to/lastmile_qr_scan", "android": "https://dc.lft.to/lastmile_qr_scan"}, "is_reserved": 0, "fusion_lon": 0.0, "fusion_lat": 0.0, "lon": -77.02301866666667, "name": "489c5318b7582eb07ee89d4697c4d5c9"}, {"bike_id": "1b3d335348303acaec2a41a28ec2255e", "type": "electric_scooter", "is_disabled": 0, "lat": 38.872591166666666, "rental_uris": {"ios": "https://dc.lft.to/lastmile_qr_scan", "android": "https://dc.lft.to/lastmile_qr_scan"}, "is_reserved": 0, "fusion_lon": 0.0, "fusion_lat": 0.0, "lon": -77.00873416666667, "name": "1b3d335348303acaec2a41a28ec2255e"}, {"bike_id": "bbfe7112b82eba7279094f36f31b482a", "type": "electric_scooter", "is_disabled": 0, "lat": 38.89849616666667, "rental_uris": {"ios": "https://dc.lft.to/lastmile_qr_scan", "android": "https://dc.lft.to/lastmile_qr_scan"}, "is_reserved": 0, "fusion_lon": 0.0, "fusion_lat": 0.0, "lon": -77.02777183333333, "name": "bbfe7112b82eba7279094f36f31b482a"}, {"bike_id": "5f70ee23bfda9d7a52ed4d5ec3f29b2c", "type": "electric_scooter", "is_disabled": 0, "lat": 38.89228083333333, "rental_uris": {"ios": "https://dc.lft.to/lastmile_qr_scan", "android": "https://dc.lft.to/lastmile_qr_scan"}, "is_reserved": 0, "fusion_lon": 0.0, "fusion_lat": 0.0, "lon": -77.03224566666667, "name": "5f70ee23bfda9d7a52ed4d5ec3f29b2c"}, {"bike_id": "9a7f257442a27eabbf608a55f2c31009", "type": "electric_scooter", "is_disabled": 0, "lat": 38.9076, "rental_uris": {"ios": "https://dc.lft.to/lastmile_qr_scan", "android": "https://dc.lft.to/lastmile_qr_scan"}, "is_reserved": 0, "fusion_lon": 0.0, "fusion_lat": 0.0, "lon": -77.03077666666667, "name": "9a7f257442a27eabbf608a55f2c31009"}, {"bike_id": "8ff25c456f7a6ee08eee630a0976bb02", "type": "electric_scooter", "is_disabled": 0, "lat": 38.909758, "rental_uris": {"ios": "https://dc.lft.to/lastmile_qr_scan", "android": "https://dc.lft.to/lastmile_qr_scan"}, "is_reserved": 0, "fusion_lon": 0.0, "fusion_lat": 0.0, "lon": -77.033418, "name": "8ff25c456f7a6ee08eee630a0976bb02"}, {"bike_id": "5e95ad9b4db82a98ebaa685df47b4002", "type": "electric_scooter", "is_disabled": 0, "lat": 38.9389115, "rental_uris": {"ios": "https://dc.lft.to/lastmile_qr_scan", "android": "https://dc.lft.to/lastmile_qr_scan"}, "is_reserved": 0, "fusion_lon": 0.0, "fusion_lat": 0.0, "lon": -77.02823066666667, "name": "5e95ad9b4db82a98ebaa685df47b4002"}, {"bike_id": "0ffcfc854bc47bf38beb28d00f1ad8ff", "type": "electric_scooter", "is_disabled": 0, "lat": 38.9156845, "rental_uris": {"ios": "https://dc.lft.to/lastmile_qr_scan", "android": "https://dc.lft.to/lastmile_qr_scan"}, "is_reserved": 0, "fusion_lon": 0.0, "fusion_lat": 0.0, "lon": -77.020146, "name": "0ffcfc854bc47bf38beb28d00f1ad8ff"}, {"bike_id": "e77939fb537f76255be98f059d08ddab", "type": "electric_scooter", "is_disabled": 0, "lat": 38.88540533333333, "rental_uris": {"ios": "https://dc.lft.to/lastmile_qr_scan", "android": "https://dc.lft.to/lastmile_qr_scan"}, "is_reserved": 0, "fusion_lon": 0.0, "fusion_lat": 0.0, "lon": -76.9982725, "name": "e77939fb537f76255be98f059d08ddab"}, {"bike_id": "d79e3791bffe54326f5e4b881f29abd9", "type": "electric_scooter", "is_disabled": 0, "lat": 38.90680166666667, "rental_uris": {"ios": "https://dc.lft.to/lastmile_qr_scan", "android": "https://dc.lft.to/lastmile_qr_scan"}, "is_reserved": 0, "fusion_lon": 0.0, "fusion_lat": 0.0, "lon": -77.02383583333334, "name": "d79e3791bffe54326f5e4b881f29abd9"}, {"bike_id": "15340fd4e3642aa0fd3d9392e581af11", "type": "electric_scooter", "is_disabled": 0, "lat": 38.903656833333336, "rental_uris": {"ios": "https://dc.lft.to/lastmile_qr_scan", "android": "https://dc.lft.to/lastmile_qr_scan"}, "is_reserved": 0, "fusion_lon": 0.0, "fusion_lat": 0.0, "lon": -77.02935416666666, "name": "15340fd4e3642aa0fd3d9392e581af11"}, {"bike_id": "94fc487c67826fe3fc72e60de0f2bcd8", "type": "electric_scooter", "is_disabled": 0, "lat": 38.9168965, "rental_uris": {"ios": "https://dc.lft.to/lastmile_qr_scan", "android": "https://dc.lft.to/lastmile_qr_scan"}, "is_reserved": 0, "fusion_lon": 0.0, "fusion_lat": 0.0, "lon": -77.0295215, "name": "94fc487c67826fe3fc72e60de0f2bcd8"}, {"bike_id": "a37a1d2ecf80bf50e6f5ed0eafd5bf01", "type": "electric_scooter", "is_disabled": 0, "lat": 38.914595166666665, "rental_uris": {"ios": "https://dc.lft.to/lastmile_qr_scan", "android": "https://dc.lft.to/lastmile_qr_scan"}, "is_reserved": 0, "fusion_lon": 0.0, "fusion_lat": 0.0, "lon": -77.02283733333333, "name": "a37a1d2ecf80bf50e6f5ed0eafd5bf01"}, {"bike_id": "712bdcd36993026bd64352ecc8148cbe", "type": "electric_scooter", "is_disabled": 0, "lat": 38.89844466666667, "rental_uris": {"ios": "https://dc.lft.to/lastmile_qr_scan", "android": "https://dc.lft.to/lastmile_qr_scan"}, "is_reserved": 0, "fusion_lon": 0.0, "fusion_lat": 0.0, "lon": -76.94633366666666, "name": "712bdcd36993026bd64352ecc8148cbe"}, {"bike_id": "eba5599291230b22438ef09f124f7cd1", "type": "electric_scooter", "is_disabled": 0, "lat": 38.90658233333333, "rental_uris": {"ios": "https://dc.lft.to/lastmile_qr_scan", "android": "https://dc.lft.to/lastmile_qr_scan"}, "is_reserved": 0, "fusion_lon": 0.0, "fusion_lat": 0.0, "lon": -77.009754, "name": "eba5599291230b22438ef09f124f7cd1"}, {"bike_id": "234a4331f74674bda90428e4e0ad116c", "type": "electric_bike", "is_disabled": 0, "lat": 38.92447333333333, "rental_uris": {"ios": "https://dc.lft.to/lastmile_qr_scan", "android": "https://dc.lft.to/lastmile_qr_scan"}, "is_reserved": 0, "fusion_lon": 0.0, "fusion_lat": 0.0, "lon": -77.22554716666667, "name": "234a4331f74674bda90428e4e0ad116c"}, {"bike_id": "b0057bb688f00b27dbdc50ff93809173", "type": "electric_bike", "is_disabled": 0, "lat": 38.95406633333333, "rental_uris": {"ios": "https://dc.lft.to/lastmile_qr_scan", "android": "https://dc.lft.to/lastmile_qr_scan"}, "is_reserved": 0, "fusion_lon": 0.0, "fusion_lat": 0.0, "lon": -76.95931583333333, "name": "b0057bb688f00b27dbdc50ff93809173"}, {"bike_id": "2fa2cc8a6060dfad5d06f7c0d0b8b4a9", "type": "electric_scooter", "is_disabled": 0, "lat": 38.941996333333336, "rental_uris": {"ios": "https://dc.lft.to/lastmile_qr_scan", "android": "https://dc.lft.to/lastmile_qr_scan"}, "is_reserved": 0, "fusion_lon": 0.0, "fusion_lat": 0.0, "lon": -77.02435766666666, "name": "2fa2cc8a6060dfad5d06f7c0d0b8b4a9"}, {"bike_id": "0f9035ca2d0a426412b7056e433a7cd3", "type": "electric_scooter", "is_disabled": 0, "lat": 38.91430183333333, "rental_uris": {"ios": "https://dc.lft.to/lastmile_qr_scan", "android": "https://dc.lft.to/lastmile_qr_scan"}, "is_reserved": 0, "fusion_lon": 0.0, "fusion_lat": 0.0, "lon": -77.031845, "name": "0f9035ca2d0a426412b7056e433a7cd3"}, {"bike_id": "b0fb41222373e0fe0440c4bbd3ac3077", "type": "electric_scooter", "is_disabled": 0, "lat": 38.91534633333333, "rental_uris": {"ios": "https://dc.lft.to/lastmile_qr_scan", "android": "https://dc.lft.to/lastmile_qr_scan"}, "is_reserved": 0, "fusion_lon": 0.0, "fusion_lat": 0.0, "lon": -77.02178433333333, "name": "b0fb41222373e0fe0440c4bbd3ac3077"}, {"bike_id": "b5528fbfba84cd954b0cf1fe58c369d6", "type": "electric_scooter", "is_disabled": 0, "lat": 38.94145783333333, "rental_uris": {"ios": "https://dc.lft.to/lastmile_qr_scan", "android": "https://dc.lft.to/lastmile_qr_scan"}, "is_reserved": 0, "fusion_lon": 0.0, "fusion_lat": 0.0, "lon": -77.02325616666667, "name": "b5528fbfba84cd954b0cf1fe58c369d6"}, {"bike_id": "1721f6d5913bd9c22a40c0945c4dac77", "type": "electric_scooter", "is_disabled": 0, "lat": 38.906602, "rental_uris": {"ios": "https://dc.lft.to/lastmile_qr_scan", "android": "https://dc.lft.to/lastmile_qr_scan"}, "is_reserved": 0, "fusion_lon": 0.0, "fusion_lat": 0.0, "lon": -77.03907216666667, "name": "1721f6d5913bd9c22a40c0945c4dac77"}, {"bike_id": "99034b84f45fa3ac470ca8e98e50d65b", "type": "electric_scooter", "is_disabled": 0, "lat": 38.8952885, "rental_uris": {"ios": "https://dc.lft.to/lastmile_qr_scan", "android": "https://dc.lft.to/lastmile_qr_scan"}, "is_reserved": 0, "fusion_lon": 0.0, "fusion_lat": 0.0, "lon": -76.948938, "name": "99034b84f45fa3ac470ca8e98e50d65b"}, {"bike_id": "18fcf11c56f18c1dfa4120fc38ae2b89", "type": "electric_scooter", "is_disabled": 0, "lat": 38.929818833333336, "rental_uris": {"ios": "https://dc.lft.to/lastmile_qr_scan", "android": "https://dc.lft.to/lastmile_qr_scan"}, "is_reserved": 0, "fusion_lon": 0.0, "fusion_lat": 0.0, "lon": -77.01300933333333, "name": "18fcf11c56f18c1dfa4120fc38ae2b89"}, {"bike_id": "cb2c6f5d5065290e5d1aa7d7a9e403a6", "type": "electric_scooter", "is_disabled": 0, "lat": 38.90173216666667, "rental_uris": {"ios": "https://dc.lft.to/lastmile_qr_scan", "android": "https://dc.lft.to/lastmile_qr_scan"}, "is_reserved": 0, "fusion_lon": 0.0, "fusion_lat": 0.0, "lon": -77.0230405, "name": "cb2c6f5d5065290e5d1aa7d7a9e403a6"}, {"bike_id": "dd258ffcac9f227fcb4cddd711d67803", "type": "electric_scooter", "is_disabled": 0, "lat": 38.90491166666666, "rental_uris": {"ios": "https://dc.lft.to/lastmile_qr_scan", "android": "https://dc.lft.to/lastmile_qr_scan"}, "is_reserved": 0, "fusion_lon": 0.0, "fusion_lat": 0.0, "lon": -77.02936083333333, "name": "dd258ffcac9f227fcb4cddd711d67803"}, {"bike_id": "338661ba458302865c5cc9c3176a2345", "type": "electric_scooter", "is_disabled": 0, "lat": 38.897367, "rental_uris": {"ios": "https://dc.lft.to/lastmile_qr_scan", "android": "https://dc.lft.to/lastmile_qr_scan"}, "is_reserved": 0, "fusion_lon": 0.0, "fusion_lat": 0.0, "lon": -76.94719966666666, "name": "338661ba458302865c5cc9c3176a2345"}, {"bike_id": "70cd7a51f5b0e7f10cc00c63a0611ceb", "type": "electric_scooter", "is_disabled": 0, "lat": 38.900274333333336, "rental_uris": {"ios": "https://dc.lft.to/lastmile_qr_scan", "android": "https://dc.lft.to/lastmile_qr_scan"}, "is_reserved": 0, "fusion_lon": 0.0, "fusion_lat": 0.0, "lon": -77.00205866666667, "name": "70cd7a51f5b0e7f10cc00c63a0611ceb"}, {"bike_id": "6f79de55bf7461c73c08757690575fd6", "type": "electric_scooter", "is_disabled": 0, "lat": 38.90872733333333, "rental_uris": {"ios": "https://dc.lft.to/lastmile_qr_scan", "android": "https://dc.lft.to/lastmile_qr_scan"}, "is_reserved": 0, "fusion_lon": 0.0, "fusion_lat": 0.0, "lon": -76.99764233333333, "name": "6f79de55bf7461c73c08757690575fd6"}, {"bike_id": "9da71f79ce704a24f35da37e4e305f39", "type": "electric_scooter", "is_disabled": 0, "lat": 38.90959433333333, "rental_uris": {"ios": "https://dc.lft.to/lastmile_qr_scan", "android": "https://dc.lft.to/lastmile_qr_scan"}, "is_reserved": 0, "fusion_lon": 0.0, "fusion_lat": 0.0, "lon": -77.03467016666667, "name": "9da71f79ce704a24f35da37e4e305f39"}, {"bike_id": "858d58112fed68e405bcfe775dcb135f", "type": "electric_scooter", "is_disabled": 0, "lat": 38.943133, "rental_uris": {"ios": "https://dc.lft.to/lastmile_qr_scan", "android": "https://dc.lft.to/lastmile_qr_scan"}, "is_reserved": 0, "fusion_lon": 0.0, "fusion_lat": 0.0, "lon": -77.062061, "name": "858d58112fed68e405bcfe775dcb135f"}, {"bike_id": "f67e4ea31e95cb3f2a35d336584f7df3", "type": "electric_scooter", "is_disabled": 0, "lat": 38.89221466666667, "rental_uris": {"ios": "https://dc.lft.to/lastmile_qr_scan", "android": "https://dc.lft.to/lastmile_qr_scan"}, "is_reserved": 0, "fusion_lon": 0.0, "fusion_lat": 0.0, "lon": -77.04364066666666, "name": "f67e4ea31e95cb3f2a35d336584f7df3"}, {"bike_id": "1f5dc510f7d420fc709ea804c805c5d2", "type": "electric_scooter", "is_disabled": 0, "lat": 38.921903, "rental_uris": {"ios": "https://dc.lft.to/lastmile_qr_scan", "android": "https://dc.lft.to/lastmile_qr_scan"}, "is_reserved": 0, "fusion_lon": 0.0, "fusion_lat": 0.0, "lon": -77.019711, "name": "1f5dc510f7d420fc709ea804c805c5d2"}, {"bike_id": "ad750f1b815c4f1a2dc55c11a222e919", "type": "electric_scooter", "is_disabled": 0, "lat": 38.918463833333334, "rental_uris": {"ios": "https://dc.lft.to/lastmile_qr_scan", "android": "https://dc.lft.to/lastmile_qr_scan"}, "is_reserved": 0, "fusion_lon": 0.0, "fusion_lat": 0.0, "lon": -76.96553916666667, "name": "ad750f1b815c4f1a2dc55c11a222e919"}, {"bike_id": "f1ed64f958a1319bbe1f4d62a1e9acc8", "type": "electric_scooter", "is_disabled": 0, "lat": 38.922125333333334, "rental_uris": {"ios": "https://dc.lft.to/lastmile_qr_scan", "android": "https://dc.lft.to/lastmile_qr_scan"}, "is_reserved": 0, "fusion_lon": 0.0, "fusion_lat": 0.0, "lon": -77.03290816666667, "name": "f1ed64f958a1319bbe1f4d62a1e9acc8"}, {"bike_id": "0acb9f4ee3ec663cb08b7d036d2e987d", "type": "electric_scooter", "is_disabled": 0, "lat": 38.8973295, "rental_uris": {"ios": "https://dc.lft.to/lastmile_qr_scan", "android": "https://dc.lft.to/lastmile_qr_scan"}, "is_reserved": 0, "fusion_lon": 0.0, "fusion_lat": 0.0, "lon": -77.0245705, "name": "0acb9f4ee3ec663cb08b7d036d2e987d"}, {"bike_id": "2dc2625749faa97cb0c932dc1cf0c7fc", "type": "electric_scooter", "is_disabled": 0, "lat": 38.903169166666665, "rental_uris": {"ios": "https://dc.lft.to/lastmile_qr_scan", "android": "https://dc.lft.to/lastmile_qr_scan"}, "is_reserved": 0, "fusion_lon": 0.0, "fusion_lat": 0.0, "lon": -77.05167316666666, "name": "2dc2625749faa97cb0c932dc1cf0c7fc"}, {"bike_id": "8eab1daf76f42fc453d34e98296422e7", "type": "electric_scooter", "is_disabled": 0, "lat": 38.911233, "rental_uris": {"ios": "https://dc.lft.to/lastmile_qr_scan", "android": "https://dc.lft.to/lastmile_qr_scan"}, "is_reserved": 0, "fusion_lon": 0.0, "fusion_lat": 0.0, "lon": -77.03780516666667, "name": "8eab1daf76f42fc453d34e98296422e7"}, {"bike_id": "5cf2cdd4037856f5b13a5a4810bc2c96", "type": "electric_scooter", "is_disabled": 0, "lat": 38.918774666666664, "rental_uris": {"ios": "https://dc.lft.to/lastmile_qr_scan", "android": "https://dc.lft.to/lastmile_qr_scan"}, "is_reserved": 0, "fusion_lon": 0.0, "fusion_lat": 0.0, "lon": -77.03565816666666, "name": "5cf2cdd4037856f5b13a5a4810bc2c96"}, {"bike_id": "780aaf957dd1aa82ff73b090a8b27b72", "type": "electric_bike", "is_disabled": 0, "lat": 38.897433166666666, "rental_uris": {"ios": "https://dc.lft.to/lastmile_qr_scan", "android": "https://dc.lft.to/lastmile_qr_scan"}, "is_reserved": 0, "fusion_lon": 0.0, "fusion_lat": 0.0, "lon": -76.92038633333334, "name": "780aaf957dd1aa82ff73b090a8b27b72"}, {"bike_id": "918c4856dc9b6254629af54fa64cf8b1", "type": "electric_scooter", "is_disabled": 0, "lat": 38.917518666666666, "rental_uris": {"ios": "https://dc.lft.to/lastmile_qr_scan", "android": "https://dc.lft.to/lastmile_qr_scan"}, "is_reserved": 0, "fusion_lon": 0.0, "fusion_lat": 0.0, "lon": -77.038613, "name": "918c4856dc9b6254629af54fa64cf8b1"}, {"bike_id": "4bee0fc54c883723c11a3977ba353662", "type": "electric_scooter", "is_disabled": 0, "lat": 38.911742833333335, "rental_uris": {"ios": "https://dc.lft.to/lastmile_qr_scan", "android": "https://dc.lft.to/lastmile_qr_scan"}, "is_reserved": 0, "fusion_lon": 0.0, "fusion_lat": 0.0, "lon": -77.03184433333334, "name": "4bee0fc54c883723c11a3977ba353662"}, {"bike_id": "8c44954acae96cc04168cc8baad0aac7", "type": "electric_scooter", "is_disabled": 0, "lat": 38.915638, "rental_uris": {"ios": "https://dc.lft.to/lastmile_qr_scan", "android": "https://dc.lft.to/lastmile_qr_scan"}, "is_reserved": 0, "fusion_lon": 0.0, "fusion_lat": 0.0, "lon": -77.04472233333334, "name": "8c44954acae96cc04168cc8baad0aac7"}, {"bike_id": "882ac74ba077603fba5f3074cb58265a", "type": "electric_scooter", "is_disabled": 0, "lat": 38.89197583333333, "rental_uris": {"ios": "https://dc.lft.to/lastmile_qr_scan", "android": "https://dc.lft.to/lastmile_qr_scan"}, "is_reserved": 0, "fusion_lon": 0.0, "fusion_lat": 0.0, "lon": -77.025047, "name": "882ac74ba077603fba5f3074cb58265a"}, {"bike_id": "303edb044c5d544cfa06bcf218d20c6a", "type": "electric_scooter", "is_disabled": 0, "lat": 38.927932166666665, "rental_uris": {"ios": "https://dc.lft.to/lastmile_qr_scan", "android": "https://dc.lft.to/lastmile_qr_scan"}, "is_reserved": 0, "fusion_lon": 0.0, "fusion_lat": 0.0, "lon": -77.043268, "name": "303edb044c5d544cfa06bcf218d20c6a"}, {"bike_id": "3309ed0ef18786b78312293d9238570d", "type": "electric_scooter", "is_disabled": 0, "lat": 38.91825033333333, "rental_uris": {"ios": "https://dc.lft.to/lastmile_qr_scan", "android": "https://dc.lft.to/lastmile_qr_scan"}, "is_reserved": 0, "fusion_lon": 0.0, "fusion_lat": 0.0, "lon": -77.04943516666667, "name": "3309ed0ef18786b78312293d9238570d"}, {"bike_id": "dc891035cd4b9832584d0d8c20b17019", "type": "electric_scooter", "is_disabled": 0, "lat": 38.914201, "rental_uris": {"ios": "https://dc.lft.to/lastmile_qr_scan", "android": "https://dc.lft.to/lastmile_qr_scan"}, "is_reserved": 0, "fusion_lon": 0.0, "fusion_lat": 0.0, "lon": -77.02195983333333, "name": "dc891035cd4b9832584d0d8c20b17019"}, {"bike_id": "d7ea707b3faff668a5e9c7a0022ef4b8", "type": "electric_scooter", "is_disabled": 0, "lat": 38.897428166666664, "rental_uris": {"ios": "https://dc.lft.to/lastmile_qr_scan", "android": "https://dc.lft.to/lastmile_qr_scan"}, "is_reserved": 0, "fusion_lon": 0.0, "fusion_lat": 0.0, "lon": -77.046036, "name": "d7ea707b3faff668a5e9c7a0022ef4b8"}, {"bike_id": "fe6f5463cb9481c5280f1f2f90c7937b", "type": "electric_scooter", "is_disabled": 0, "lat": 38.93466883333333, "rental_uris": {"ios": "https://dc.lft.to/lastmile_qr_scan", "android": "https://dc.lft.to/lastmile_qr_scan"}, "is_reserved": 0, "fusion_lon": 0.0, "fusion_lat": 0.0, "lon": -77.02765816666667, "name": "fe6f5463cb9481c5280f1f2f90c7937b"}, {"bike_id": "fdade4adf5d9235a2d97a9cf6125b865", "type": "electric_scooter", "is_disabled": 0, "lat": 38.952559666666666, "rental_uris": {"ios": "https://dc.lft.to/lastmile_qr_scan", "android": "https://dc.lft.to/lastmile_qr_scan"}, "is_reserved": 0, "fusion_lon": 0.0, "fusion_lat": 0.0, "lon": -77.01963833333333, "name": "fdade4adf5d9235a2d97a9cf6125b865"}, {"bike_id": "1f664c442d374c7a00e3ba731cc0baee", "type": "electric_bike", "is_disabled": 0, "lat": 38.93726733333333, "rental_uris": {"ios": "https://dc.lft.to/lastmile_qr_scan", "android": "https://dc.lft.to/lastmile_qr_scan"}, "is_reserved": 0, "fusion_lon": 0.0, "fusion_lat": 0.0, "lon": -76.99147183333334, "name": "1f664c442d374c7a00e3ba731cc0baee"}, {"bike_id": "8314d4f8279f674c7f7d2ae948554aaf", "type": "electric_scooter", "is_disabled": 0, "lat": 38.905112333333335, "rental_uris": {"ios": "https://dc.lft.to/lastmile_qr_scan", "android": "https://dc.lft.to/lastmile_qr_scan"}, "is_reserved": 0, "fusion_lon": 0.0, "fusion_lat": 0.0, "lon": -77.06454516666666, "name": "8314d4f8279f674c7f7d2ae948554aaf"}, {"bike_id": "2723500b0f1d87e0613bb400103986d6", "type": "electric_scooter", "is_disabled": 0, "lat": 38.8668855, "rental_uris": {"ios": "https://dc.lft.to/lastmile_qr_scan", "android": "https://dc.lft.to/lastmile_qr_scan"}, "is_reserved": 0, "fusion_lon": 0.0, "fusion_lat": 0.0, "lon": -76.9857255, "name": "2723500b0f1d87e0613bb400103986d6"}, {"bike_id": "d5bb92f444db0afa9eeb0171fc45390a", "type": "electric_scooter", "is_disabled": 0, "lat": 38.866479166666664, "rental_uris": {"ios": "https://dc.lft.to/lastmile_qr_scan", "android": "https://dc.lft.to/lastmile_qr_scan"}, "is_reserved": 0, "fusion_lon": 0.0, "fusion_lat": 0.0, "lon": -76.9881525, "name": "d5bb92f444db0afa9eeb0171fc45390a"}, {"bike_id": "b391d9f7a7097834ba875975106b9d4c", "type": "electric_scooter", "is_disabled": 0, "lat": 38.92749, "rental_uris": {"ios": "https://dc.lft.to/lastmile_qr_scan", "android": "https://dc.lft.to/lastmile_qr_scan"}, "is_reserved": 0, "fusion_lon": 0.0, "fusion_lat": 0.0, "lon": -77.02535383333333, "name": "b391d9f7a7097834ba875975106b9d4c"}, {"bike_id": "383f85ae6e7eeabbc686b869bee02e94", "type": "electric_bike", "is_disabled": 0, "lat": 38.98379283333333, "rental_uris": {"ios": "https://dc.lft.to/lastmile_qr_scan", "android": "https://dc.lft.to/lastmile_qr_scan"}, "is_reserved": 0, "fusion_lon": 0.0, "fusion_lat": 0.0, "lon": -76.97215666666666, "name": "383f85ae6e7eeabbc686b869bee02e94"}, {"bike_id": "b15492a969882c524abd82bc0b15be3e", "type": "electric_scooter", "is_disabled": 0, "lat": 38.90710333333333, "rental_uris": {"ios": "https://dc.lft.to/lastmile_qr_scan", "android": "https://dc.lft.to/lastmile_qr_scan"}, "is_reserved": 0, "fusion_lon": 0.0, "fusion_lat": 0.0, "lon": -77.02409866666666, "name": "b15492a969882c524abd82bc0b15be3e"}, {"bike_id": "189d4eab27502a743357bdade74e0516", "type": "electric_scooter", "is_disabled": 0, "lat": 38.9077325, "rental_uris": {"ios": "https://dc.lft.to/lastmile_qr_scan", "android": "https://dc.lft.to/lastmile_qr_scan"}, "is_reserved": 0, "fusion_lon": 0.0, "fusion_lat": 0.0, "lon": -77.03204383333333, "name": "189d4eab27502a743357bdade74e0516"}, {"bike_id": "3ffad00e62de892891e6e6889bf1e18d", "type": "electric_scooter", "is_disabled": 0, "lat": 38.880535, "rental_uris": {"ios": "https://dc.lft.to/lastmile_qr_scan", "android": "https://dc.lft.to/lastmile_qr_scan"}, "is_reserved": 0, "fusion_lon": 0.0, "fusion_lat": 0.0, "lon": -76.93213333333334, "name": "3ffad00e62de892891e6e6889bf1e18d"}, {"bike_id": "46aebbfa99ac00abb4ead192d2c06207", "type": "electric_scooter", "is_disabled": 0, "lat": 38.860289, "rental_uris": {"ios": "https://dc.lft.to/lastmile_qr_scan", "android": "https://dc.lft.to/lastmile_qr_scan"}, "is_reserved": 0, "fusion_lon": 0.0, "fusion_lat": 0.0, "lon": -76.99680133333334, "name": "46aebbfa99ac00abb4ead192d2c06207"}, {"bike_id": "1a770cb5f7cfc5653740837d2f689f31", "type": "electric_scooter", "is_disabled": 0, "lat": 38.92076333333333, "rental_uris": {"ios": "https://dc.lft.to/lastmile_qr_scan", "android": "https://dc.lft.to/lastmile_qr_scan"}, "is_reserved": 0, "fusion_lon": 0.0, "fusion_lat": 0.0, "lon": -77.03456266666667, "name": "1a770cb5f7cfc5653740837d2f689f31"}, {"bike_id": "6b2cb87167414ea5cd6138d573eee076", "type": "electric_scooter", "is_disabled": 0, "lat": 38.91868316666667, "rental_uris": {"ios": "https://dc.lft.to/lastmile_qr_scan", "android": "https://dc.lft.to/lastmile_qr_scan"}, "is_reserved": 0, "fusion_lon": 0.0, "fusion_lat": 0.0, "lon": -77.04775133333334, "name": "6b2cb87167414ea5cd6138d573eee076"}, {"bike_id": "d429f05058307828561153e45d3181a0", "type": "electric_scooter", "is_disabled": 0, "lat": 38.915515666666664, "rental_uris": {"ios": "https://dc.lft.to/lastmile_qr_scan", "android": "https://dc.lft.to/lastmile_qr_scan"}, "is_reserved": 0, "fusion_lon": 0.0, "fusion_lat": 0.0, "lon": -77.03856233333333, "name": "d429f05058307828561153e45d3181a0"}, {"bike_id": "13298bf468c1922a5285a1200000df6f", "type": "electric_scooter", "is_disabled": 0, "lat": 38.892238166666665, "rental_uris": {"ios": "https://dc.lft.to/lastmile_qr_scan", "android": "https://dc.lft.to/lastmile_qr_scan"}, "is_reserved": 0, "fusion_lon": 0.0, "fusion_lat": 0.0, "lon": -77.0430965, "name": "13298bf468c1922a5285a1200000df6f"}, {"bike_id": "b68b4882c08c2f813445728968ba3ce5", "type": "electric_scooter", "is_disabled": 0, "lat": 38.921511333333335, "rental_uris": {"ios": "https://dc.lft.to/lastmile_qr_scan", "android": "https://dc.lft.to/lastmile_qr_scan"}, "is_reserved": 0, "fusion_lon": 0.0, "fusion_lat": 0.0, "lon": -77.03870616666667, "name": "b68b4882c08c2f813445728968ba3ce5"}, {"bike_id": "1f697d5b4c928132d4c994040987a634", "type": "electric_bike", "is_disabled": 0, "lat": 38.87984983333333, "rental_uris": {"ios": "https://dc.lft.to/lastmile_qr_scan", "android": "https://dc.lft.to/lastmile_qr_scan"}, "is_reserved": 0, "fusion_lon": 0.0, "fusion_lat": 0.0, "lon": -76.9159925, "name": "1f697d5b4c928132d4c994040987a634"}, {"bike_id": "2b1aa48ed8b31a1b935b648865b05c96", "type": "electric_scooter", "is_disabled": 0, "lat": 38.8885795, "rental_uris": {"ios": "https://dc.lft.to/lastmile_qr_scan", "android": "https://dc.lft.to/lastmile_qr_scan"}, "is_reserved": 0, "fusion_lon": 0.0, "fusion_lat": 0.0, "lon": -77.00053516666667, "name": "2b1aa48ed8b31a1b935b648865b05c96"}, {"bike_id": "e4ee51a059cef95761c74cc8ab9f15b8", "type": "electric_scooter", "is_disabled": 0, "lat": 38.892227166666665, "rental_uris": {"ios": "https://dc.lft.to/lastmile_qr_scan", "android": "https://dc.lft.to/lastmile_qr_scan"}, "is_reserved": 0, "fusion_lon": 0.0, "fusion_lat": 0.0, "lon": -77.0397435, "name": "e4ee51a059cef95761c74cc8ab9f15b8"}, {"bike_id": "ab882104f92ea028dd61605414d626f9", "type": "electric_scooter", "is_disabled": 0, "lat": 38.942940166666666, "rental_uris": {"ios": "https://dc.lft.to/lastmile_qr_scan", "android": "https://dc.lft.to/lastmile_qr_scan"}, "is_reserved": 0, "fusion_lon": 0.0, "fusion_lat": 0.0, "lon": -77.02166766666667, "name": "ab882104f92ea028dd61605414d626f9"}, {"bike_id": "db80addea2df8f5b3db247f46968e9ec", "type": "electric_scooter", "is_disabled": 0, "lat": 38.91559816666667, "rental_uris": {"ios": "https://dc.lft.to/lastmile_qr_scan", "android": "https://dc.lft.to/lastmile_qr_scan"}, "is_reserved": 0, "fusion_lon": 0.0, "fusion_lat": 0.0, "lon": -77.020443, "name": "db80addea2df8f5b3db247f46968e9ec"}, {"bike_id": "33b64d099c0c070e4f4a02c8476d85ab", "type": "electric_scooter", "is_disabled": 0, "lat": 38.90529383333333, "rental_uris": {"ios": "https://dc.lft.to/lastmile_qr_scan", "android": "https://dc.lft.to/lastmile_qr_scan"}, "is_reserved": 0, "fusion_lon": 0.0, "fusion_lat": 0.0, "lon": -76.99640116666667, "name": "33b64d099c0c070e4f4a02c8476d85ab"}, {"bike_id": "b54636c853b82f58746817c59c51c4cc", "type": "electric_scooter", "is_disabled": 0, "lat": 38.933375, "rental_uris": {"ios": "https://dc.lft.to/lastmile_qr_scan", "android": "https://dc.lft.to/lastmile_qr_scan"}, "is_reserved": 0, "fusion_lon": 0.0, "fusion_lat": 0.0, "lon": -77.03988483333333, "name": "b54636c853b82f58746817c59c51c4cc"}, {"bike_id": "b34d914f2dc434c1861bd75b83ecae2d", "type": "electric_scooter", "is_disabled": 0, "lat": 38.919566333333336, "rental_uris": {"ios": "https://dc.lft.to/lastmile_qr_scan", "android": "https://dc.lft.to/lastmile_qr_scan"}, "is_reserved": 0, "fusion_lon": 0.0, "fusion_lat": 0.0, "lon": -77.02483116666667, "name": "b34d914f2dc434c1861bd75b83ecae2d"}, {"bike_id": "2279d3a28b43afc500caa74d3e24719d", "type": "electric_bike", "is_disabled": 0, "lat": 38.854092, "rental_uris": {"ios": "https://dc.lft.to/lastmile_qr_scan", "android": "https://dc.lft.to/lastmile_qr_scan"}, "is_reserved": 0, "fusion_lon": 0.0, "fusion_lat": 0.0, "lon": -77.12074516666667, "name": "2279d3a28b43afc500caa74d3e24719d"}, {"bike_id": "47fe8148a69d6d471f8d22bee116e114", "type": "electric_scooter", "is_disabled": 0, "lat": 38.893580666666665, "rental_uris": {"ios": "https://dc.lft.to/lastmile_qr_scan", "android": "https://dc.lft.to/lastmile_qr_scan"}, "is_reserved": 0, "fusion_lon": 0.0, "fusion_lat": 0.0, "lon": -77.022151, "name": "47fe8148a69d6d471f8d22bee116e114"}, {"bike_id": "560fa7cd28459c9c2f1d4eb19006831f", "type": "electric_scooter", "is_disabled": 0, "lat": 38.904224166666665, "rental_uris": {"ios": "https://dc.lft.to/lastmile_qr_scan", "android": "https://dc.lft.to/lastmile_qr_scan"}, "is_reserved": 0, "fusion_lon": 0.0, "fusion_lat": 0.0, "lon": -76.97375916666667, "name": "560fa7cd28459c9c2f1d4eb19006831f"}, {"bike_id": "ae2ece8f0f223b6b718b51cc41fe5e26", "type": "electric_scooter", "is_disabled": 0, "lat": 38.898229666666666, "rental_uris": {"ios": "https://dc.lft.to/lastmile_qr_scan", "android": "https://dc.lft.to/lastmile_qr_scan"}, "is_reserved": 0, "fusion_lon": 0.0, "fusion_lat": 0.0, "lon": -77.032017, "name": "ae2ece8f0f223b6b718b51cc41fe5e26"}, {"bike_id": "d81781bc764e9736c22f8fc74feb5e50", "type": "electric_scooter", "is_disabled": 0, "lat": 38.90791466666667, "rental_uris": {"ios": "https://dc.lft.to/lastmile_qr_scan", "android": "https://dc.lft.to/lastmile_qr_scan"}, "is_reserved": 0, "fusion_lon": 0.0, "fusion_lat": 0.0, "lon": -77.0019535, "name": "d81781bc764e9736c22f8fc74feb5e50"}, {"bike_id": "4c547f0457959902dc028f194f70ccfa", "type": "electric_scooter", "is_disabled": 0, "lat": 38.897234, "rental_uris": {"ios": "https://dc.lft.to/lastmile_qr_scan", "android": "https://dc.lft.to/lastmile_qr_scan"}, "is_reserved": 0, "fusion_lon": 0.0, "fusion_lat": 0.0, "lon": -77.02706933333333, "name": "4c547f0457959902dc028f194f70ccfa"}, {"bike_id": "3e5fd7a514b0893c0d52e0b110b6c260", "type": "electric_scooter", "is_disabled": 0, "lat": 38.901794333333335, "rental_uris": {"ios": "https://dc.lft.to/lastmile_qr_scan", "android": "https://dc.lft.to/lastmile_qr_scan"}, "is_reserved": 0, "fusion_lon": 0.0, "fusion_lat": 0.0, "lon": -76.98446483333333, "name": "3e5fd7a514b0893c0d52e0b110b6c260"}, {"bike_id": "e15133ecaf62672122a0a81f2a291f6f", "type": "electric_scooter", "is_disabled": 0, "lat": 38.918157666666666, "rental_uris": {"ios": "https://dc.lft.to/lastmile_qr_scan", "android": "https://dc.lft.to/lastmile_qr_scan"}, "is_reserved": 0, "fusion_lon": 0.0, "fusion_lat": 0.0, "lon": -77.02707166666667, "name": "e15133ecaf62672122a0a81f2a291f6f"}, {"bike_id": "3a6ca843654069b55c17272e2495facb", "type": "electric_scooter", "is_disabled": 0, "lat": 38.900473833333336, "rental_uris": {"ios": "https://dc.lft.to/lastmile_qr_scan", "android": "https://dc.lft.to/lastmile_qr_scan"}, "is_reserved": 0, "fusion_lon": 0.0, "fusion_lat": 0.0, "lon": -76.98825366666667, "name": "3a6ca843654069b55c17272e2495facb"}, {"bike_id": "6d89c89920df0464d1f4f7ec79d7dc38", "type": "electric_scooter", "is_disabled": 0, "lat": 38.924533833333335, "rental_uris": {"ios": "https://dc.lft.to/lastmile_qr_scan", "android": "https://dc.lft.to/lastmile_qr_scan"}, "is_reserved": 0, "fusion_lon": 0.0, "fusion_lat": 0.0, "lon": -77.024092, "name": "6d89c89920df0464d1f4f7ec79d7dc38"}, {"bike_id": "9950e0f68892658696f6dcad8db463f7", "type": "electric_scooter", "is_disabled": 0, "lat": 38.91878666666667, "rental_uris": {"ios": "https://dc.lft.to/lastmile_qr_scan", "android": "https://dc.lft.to/lastmile_qr_scan"}, "is_reserved": 0, "fusion_lon": 0.0, "fusion_lat": 0.0, "lon": -77.04462783333334, "name": "9950e0f68892658696f6dcad8db463f7"}, {"bike_id": "7951cec947502b41414a7a3ab75e2f30", "type": "electric_scooter", "is_disabled": 0, "lat": 38.86661083333333, "rental_uris": {"ios": "https://dc.lft.to/lastmile_qr_scan", "android": "https://dc.lft.to/lastmile_qr_scan"}, "is_reserved": 0, "fusion_lon": 0.0, "fusion_lat": 0.0, "lon": -76.9888665, "name": "7951cec947502b41414a7a3ab75e2f30"}, {"bike_id": "a64e98acdaf39b73b677654b5a814a50", "type": "electric_scooter", "is_disabled": 0, "lat": 38.865646166666664, "rental_uris": {"ios": "https://dc.lft.to/lastmile_qr_scan", "android": "https://dc.lft.to/lastmile_qr_scan"}, "is_reserved": 0, "fusion_lon": 0.0, "fusion_lat": 0.0, "lon": -76.98212866666667, "name": "a64e98acdaf39b73b677654b5a814a50"}, {"bike_id": "e5fb0ac8a068147b99d8863fd4588cf5", "type": "electric_scooter", "is_disabled": 0, "lat": 38.84315133333333, "rental_uris": {"ios": "https://dc.lft.to/lastmile_qr_scan", "android": "https://dc.lft.to/lastmile_qr_scan"}, "is_reserved": 0, "fusion_lon": 0.0, "fusion_lat": 0.0, "lon": -76.9992585, "name": "e5fb0ac8a068147b99d8863fd4588cf5"}, {"bike_id": "ef7ad7cb8d0fd15c792e67e987bd5178", "type": "electric_scooter", "is_disabled": 0, "lat": 38.89538816666666, "rental_uris": {"ios": "https://dc.lft.to/lastmile_qr_scan", "android": "https://dc.lft.to/lastmile_qr_scan"}, "is_reserved": 0, "fusion_lon": 0.0, "fusion_lat": 0.0, "lon": -76.98865133333334, "name": "ef7ad7cb8d0fd15c792e67e987bd5178"}, {"bike_id": "63aaa3749bac2fa0ae4a9b2cf27c25af", "type": "electric_scooter", "is_disabled": 0, "lat": 38.92274416666667, "rental_uris": {"ios": "https://dc.lft.to/lastmile_qr_scan", "android": "https://dc.lft.to/lastmile_qr_scan"}, "is_reserved": 0, "fusion_lon": 0.0, "fusion_lat": 0.0, "lon": -77.04240366666667, "name": "63aaa3749bac2fa0ae4a9b2cf27c25af"}, {"bike_id": "7774d9c6bab16726391da41e86ff8036", "type": "electric_scooter", "is_disabled": 0, "lat": 38.84537483333333, "rental_uris": {"ios": "https://dc.lft.to/lastmile_qr_scan", "android": "https://dc.lft.to/lastmile_qr_scan"}, "is_reserved": 0, "fusion_lon": 0.0, "fusion_lat": 0.0, "lon": -76.9854405, "name": "7774d9c6bab16726391da41e86ff8036"}, {"bike_id": "7c80cf567908b278c547bf6f21eff2a2", "type": "electric_bike", "is_disabled": 0, "lat": 38.948007, "rental_uris": {"ios": "https://dc.lft.to/lastmile_qr_scan", "android": "https://dc.lft.to/lastmile_qr_scan"}, "is_reserved": 0, "fusion_lon": 0.0, "fusion_lat": 0.0, "lon": -76.9553855, "name": "7c80cf567908b278c547bf6f21eff2a2"}, {"bike_id": "c5adc3095e2d4f28a49847571e1abb3c", "type": "electric_scooter", "is_disabled": 0, "lat": 38.918349, "rental_uris": {"ios": "https://dc.lft.to/lastmile_qr_scan", "android": "https://dc.lft.to/lastmile_qr_scan"}, "is_reserved": 0, "fusion_lon": 0.0, "fusion_lat": 0.0, "lon": -77.031773, "name": "c5adc3095e2d4f28a49847571e1abb3c"}, {"bike_id": "42d586148e093837e23968655bae9f96", "type": "electric_scooter", "is_disabled": 0, "lat": 38.905188, "rental_uris": {"ios": "https://dc.lft.to/lastmile_qr_scan", "android": "https://dc.lft.to/lastmile_qr_scan"}, "is_reserved": 0, "fusion_lon": 0.0, "fusion_lat": 0.0, "lon": -77.067854, "name": "42d586148e093837e23968655bae9f96"}, {"bike_id": "e8627126958c87b0820c4cab425cbdf2", "type": "electric_scooter", "is_disabled": 0, "lat": 38.923206, "rental_uris": {"ios": "https://dc.lft.to/lastmile_qr_scan", "android": "https://dc.lft.to/lastmile_qr_scan"}, "is_reserved": 0, "fusion_lon": 0.0, "fusion_lat": 0.0, "lon": -77.04639833333333, "name": "e8627126958c87b0820c4cab425cbdf2"}, {"bike_id": "82ce1017ff40d77fc40426c125ec0bed", "type": "electric_scooter", "is_disabled": 0, "lat": 38.90724516666667, "rental_uris": {"ios": "https://dc.lft.to/lastmile_qr_scan", "android": "https://dc.lft.to/lastmile_qr_scan"}, "is_reserved": 0, "fusion_lon": 0.0, "fusion_lat": 0.0, "lon": -77.02251, "name": "82ce1017ff40d77fc40426c125ec0bed"}, {"bike_id": "a789d5ae1d39d94dd9f66a759aa02ef4", "type": "electric_scooter", "is_disabled": 0, "lat": 38.915611, "rental_uris": {"ios": "https://dc.lft.to/lastmile_qr_scan", "android": "https://dc.lft.to/lastmile_qr_scan"}, "is_reserved": 0, "fusion_lon": 0.0, "fusion_lat": 0.0, "lon": -77.03179116666666, "name": "a789d5ae1d39d94dd9f66a759aa02ef4"}, {"bike_id": "19bc615b2de3b43624411c31593da681", "type": "electric_scooter", "is_disabled": 0, "lat": 38.907155333333336, "rental_uris": {"ios": "https://dc.lft.to/lastmile_qr_scan", "android": "https://dc.lft.to/lastmile_qr_scan"}, "is_reserved": 0, "fusion_lon": 0.0, "fusion_lat": 0.0, "lon": -77.02386566666667, "name": "19bc615b2de3b43624411c31593da681"}, {"bike_id": "fbab0633efa8bcc839556cb5642e8d7d", "type": "electric_bike", "is_disabled": 0, "lat": 38.865084333333336, "rental_uris": {"ios": "https://dc.lft.to/lastmile_qr_scan", "android": "https://dc.lft.to/lastmile_qr_scan"}, "is_reserved": 0, "fusion_lon": 0.0, "fusion_lat": 0.0, "lon": -76.973324, "name": "fbab0633efa8bcc839556cb5642e8d7d"}, {"bike_id": "226d5638e73ac7b982536f2938ca4ff2", "type": "electric_scooter", "is_disabled": 0, "lat": 38.908316166666665, "rental_uris": {"ios": "https://dc.lft.to/lastmile_qr_scan", "android": "https://dc.lft.to/lastmile_qr_scan"}, "is_reserved": 0, "fusion_lon": 0.0, "fusion_lat": 0.0, "lon": -77.03462516666667, "name": "226d5638e73ac7b982536f2938ca4ff2"}, {"bike_id": "f9304399b675fca4df92c4d1bfb1e0b1", "type": "electric_scooter", "is_disabled": 0, "lat": 38.9082185, "rental_uris": {"ios": "https://dc.lft.to/lastmile_qr_scan", "android": "https://dc.lft.to/lastmile_qr_scan"}, "is_reserved": 0, "fusion_lon": 0.0, "fusion_lat": 0.0, "lon": -77.03200366666667, "name": "f9304399b675fca4df92c4d1bfb1e0b1"}, {"bike_id": "64a6aa3c1443cc59d8da319dc1565cf2", "type": "electric_scooter", "is_disabled": 0, "lat": 38.90529866666667, "rental_uris": {"ios": "https://dc.lft.to/lastmile_qr_scan", "android": "https://dc.lft.to/lastmile_qr_scan"}, "is_reserved": 0, "fusion_lon": 0.0, "fusion_lat": 0.0, "lon": -77.058258, "name": "64a6aa3c1443cc59d8da319dc1565cf2"}, {"bike_id": "c3e7632dbfe33564c18491373ebd62bb", "type": "electric_scooter", "is_disabled": 0, "lat": 38.906849, "rental_uris": {"ios": "https://dc.lft.to/lastmile_qr_scan", "android": "https://dc.lft.to/lastmile_qr_scan"}, "is_reserved": 0, "fusion_lon": 0.0, "fusion_lat": 0.0, "lon": -77.02697866666666, "name": "c3e7632dbfe33564c18491373ebd62bb"}, {"bike_id": "2799448d026c9a2db86748453911c421", "type": "electric_scooter", "is_disabled": 0, "lat": 38.92290883333333, "rental_uris": {"ios": "https://dc.lft.to/lastmile_qr_scan", "android": "https://dc.lft.to/lastmile_qr_scan"}, "is_reserved": 0, "fusion_lon": 0.0, "fusion_lat": 0.0, "lon": -77.044781, "name": "2799448d026c9a2db86748453911c421"}, {"bike_id": "e0182bc49221878e8db0ce91a1873249", "type": "electric_scooter", "is_disabled": 0, "lat": 38.896307666666665, "rental_uris": {"ios": "https://dc.lft.to/lastmile_qr_scan", "android": "https://dc.lft.to/lastmile_qr_scan"}, "is_reserved": 0, "fusion_lon": 0.0, "fusion_lat": 0.0, "lon": -77.07079, "name": "e0182bc49221878e8db0ce91a1873249"}, {"bike_id": "06e1433387cae924838b88a292261ce9", "type": "electric_scooter", "is_disabled": 0, "lat": 38.91026683333333, "rental_uris": {"ios": "https://dc.lft.to/lastmile_qr_scan", "android": "https://dc.lft.to/lastmile_qr_scan"}, "is_reserved": 0, "fusion_lon": 0.0, "fusion_lat": 0.0, "lon": -77.03163966666666, "name": "06e1433387cae924838b88a292261ce9"}, {"bike_id": "ff49398f3d043f119a5d873b6ffc96ff", "type": "electric_scooter", "is_disabled": 0, "lat": 38.90230916666667, "rental_uris": {"ios": "https://dc.lft.to/lastmile_qr_scan", "android": "https://dc.lft.to/lastmile_qr_scan"}, "is_reserved": 0, "fusion_lon": 0.0, "fusion_lat": 0.0, "lon": -77.03357716666666, "name": "ff49398f3d043f119a5d873b6ffc96ff"}, {"bike_id": "b36e2b6920227bb85c030df7965dac3d", "type": "electric_bike", "is_disabled": 0, "lat": 38.93133133333333, "rental_uris": {"ios": "https://dc.lft.to/lastmile_qr_scan", "android": "https://dc.lft.to/lastmile_qr_scan"}, "is_reserved": 0, "fusion_lon": 0.0, "fusion_lat": 0.0, "lon": -77.0784855, "name": "b36e2b6920227bb85c030df7965dac3d"}, {"bike_id": "9b5ed08a0c24bb0bc9882c2a464211c7", "type": "electric_scooter", "is_disabled": 0, "lat": 38.919656, "rental_uris": {"ios": "https://dc.lft.to/lastmile_qr_scan", "android": "https://dc.lft.to/lastmile_qr_scan"}, "is_reserved": 0, "fusion_lon": 0.0, "fusion_lat": 0.0, "lon": -77.03950083333334, "name": "9b5ed08a0c24bb0bc9882c2a464211c7"}, {"bike_id": "91e70609520d2f56eed23b6cf9e80f13", "type": "electric_scooter", "is_disabled": 0, "lat": 38.88776633333333, "rental_uris": {"ios": "https://dc.lft.to/lastmile_qr_scan", "android": "https://dc.lft.to/lastmile_qr_scan"}, "is_reserved": 0, "fusion_lon": 0.0, "fusion_lat": 0.0, "lon": -76.955281, "name": "91e70609520d2f56eed23b6cf9e80f13"}, {"bike_id": "0b73cfecbdbb6435823cc1fbf6ee5ef9", "type": "electric_scooter", "is_disabled": 0, "lat": 38.90796316666667, "rental_uris": {"ios": "https://dc.lft.to/lastmile_qr_scan", "android": "https://dc.lft.to/lastmile_qr_scan"}, "is_reserved": 0, "fusion_lon": 0.0, "fusion_lat": 0.0, "lon": -77.04819783333333, "name": "0b73cfecbdbb6435823cc1fbf6ee5ef9"}, {"bike_id": "4924ba629c6fc7cf4a504beca2e7ce7f", "type": "electric_scooter", "is_disabled": 0, "lat": 38.90972466666667, "rental_uris": {"ios": "https://dc.lft.to/lastmile_qr_scan", "android": "https://dc.lft.to/lastmile_qr_scan"}, "is_reserved": 0, "fusion_lon": 0.0, "fusion_lat": 0.0, "lon": -77.02197983333333, "name": "4924ba629c6fc7cf4a504beca2e7ce7f"}, {"bike_id": "f613f0903781b963f881c094f1f31daf", "type": "electric_scooter", "is_disabled": 0, "lat": 38.90945933333333, "rental_uris": {"ios": "https://dc.lft.to/lastmile_qr_scan", "android": "https://dc.lft.to/lastmile_qr_scan"}, "is_reserved": 0, "fusion_lon": 0.0, "fusion_lat": 0.0, "lon": -77.05561933333334, "name": "f613f0903781b963f881c094f1f31daf"}, {"bike_id": "63367e2bfd304ca30d1ce31101d71c56", "type": "electric_scooter", "is_disabled": 0, "lat": 38.866272, "rental_uris": {"ios": "https://dc.lft.to/lastmile_qr_scan", "android": "https://dc.lft.to/lastmile_qr_scan"}, "is_reserved": 0, "fusion_lon": 0.0, "fusion_lat": 0.0, "lon": -76.98716416666667, "name": "63367e2bfd304ca30d1ce31101d71c56"}, {"bike_id": "44ce54f7a24788d51d64d6ed029c27f3", "type": "electric_scooter", "is_disabled": 0, "lat": 38.90947233333333, "rental_uris": {"ios": "https://dc.lft.to/lastmile_qr_scan", "android": "https://dc.lft.to/lastmile_qr_scan"}, "is_reserved": 0, "fusion_lon": 0.0, "fusion_lat": 0.0, "lon": -77.055644, "name": "44ce54f7a24788d51d64d6ed029c27f3"}, {"bike_id": "4da6213ab2321c2e98bcfc80a626e74e", "type": "electric_scooter", "is_disabled": 0, "lat": 38.913308, "rental_uris": {"ios": "https://dc.lft.to/lastmile_qr_scan", "android": "https://dc.lft.to/lastmile_qr_scan"}, "is_reserved": 0, "fusion_lon": 0.0, "fusion_lat": 0.0, "lon": -77.03182866666667, "name": "4da6213ab2321c2e98bcfc80a626e74e"}, {"bike_id": "226ca6357bd18b162e3f9afc3823be1c", "type": "electric_scooter", "is_disabled": 0, "lat": 38.899641833333334, "rental_uris": {"ios": "https://dc.lft.to/lastmile_qr_scan", "android": "https://dc.lft.to/lastmile_qr_scan"}, "is_reserved": 0, "fusion_lon": 0.0, "fusion_lat": 0.0, "lon": -77.016197, "name": "226ca6357bd18b162e3f9afc3823be1c"}, {"bike_id": "9f7e19e84e445ea8f6da5b1c33c09c50", "type": "electric_scooter", "is_disabled": 0, "lat": 38.91993516666667, "rental_uris": {"ios": "https://dc.lft.to/lastmile_qr_scan", "android": "https://dc.lft.to/lastmile_qr_scan"}, "is_reserved": 0, "fusion_lon": 0.0, "fusion_lat": 0.0, "lon": -77.04149183333334, "name": "9f7e19e84e445ea8f6da5b1c33c09c50"}, {"bike_id": "e64ea48e188e6411fa75857728449484", "type": "electric_scooter", "is_disabled": 0, "lat": 38.906843, "rental_uris": {"ios": "https://dc.lft.to/lastmile_qr_scan", "android": "https://dc.lft.to/lastmile_qr_scan"}, "is_reserved": 0, "fusion_lon": 0.0, "fusion_lat": 0.0, "lon": -77.04165433333333, "name": "e64ea48e188e6411fa75857728449484"}, {"bike_id": "bf814a626cb42fe6a4b4c88c5fe411fe", "type": "electric_scooter", "is_disabled": 0, "lat": 38.909835, "rental_uris": {"ios": "https://dc.lft.to/lastmile_qr_scan", "android": "https://dc.lft.to/lastmile_qr_scan"}, "is_reserved": 0, "fusion_lon": 0.0, "fusion_lat": 0.0, "lon": -77.01513233333333, "name": "bf814a626cb42fe6a4b4c88c5fe411fe"}, {"bike_id": "a47819fcef017227f741daf48e326ac0", "type": "electric_scooter", "is_disabled": 0, "lat": 38.965041666666664, "rental_uris": {"ios": "https://dc.lft.to/lastmile_qr_scan", "android": "https://dc.lft.to/lastmile_qr_scan"}, "is_reserved": 0, "fusion_lon": 0.0, "fusion_lat": 0.0, "lon": -77.00205933333334, "name": "a47819fcef017227f741daf48e326ac0"}, {"bike_id": "5206031ae10c75e93bf085e094e44b6a", "type": "electric_scooter", "is_disabled": 0, "lat": 38.93073483333333, "rental_uris": {"ios": "https://dc.lft.to/lastmile_qr_scan", "android": "https://dc.lft.to/lastmile_qr_scan"}, "is_reserved": 0, "fusion_lon": 0.0, "fusion_lat": 0.0, "lon": -77.03792316666667, "name": "5206031ae10c75e93bf085e094e44b6a"}, {"bike_id": "79c14d419b9af6947fcfeecf00498493", "type": "electric_bike", "is_disabled": 0, "lat": 38.9390165, "rental_uris": {"ios": "https://dc.lft.to/lastmile_qr_scan", "android": "https://dc.lft.to/lastmile_qr_scan"}, "is_reserved": 0, "fusion_lon": 0.0, "fusion_lat": 0.0, "lon": -77.06350416666666, "name": "79c14d419b9af6947fcfeecf00498493"}, {"bike_id": "86369271e7f7be19b300ca36762ecaf1", "type": "electric_scooter", "is_disabled": 0, "lat": 38.844389166666666, "rental_uris": {"ios": "https://dc.lft.to/lastmile_qr_scan", "android": "https://dc.lft.to/lastmile_qr_scan"}, "is_reserved": 0, "fusion_lon": 0.0, "fusion_lat": 0.0, "lon": -76.99867066666667, "name": "86369271e7f7be19b300ca36762ecaf1"}, {"bike_id": "47e113376bcbc91690f986540dc4910c", "type": "electric_scooter", "is_disabled": 0, "lat": 38.934005666666664, "rental_uris": {"ios": "https://dc.lft.to/lastmile_qr_scan", "android": "https://dc.lft.to/lastmile_qr_scan"}, "is_reserved": 0, "fusion_lon": 0.0, "fusion_lat": 0.0, "lon": -77.035248, "name": "47e113376bcbc91690f986540dc4910c"}, {"bike_id": "fb6dc5b8e3d67ef34dbaa8f0b0ab24ea", "type": "electric_scooter", "is_disabled": 0, "lat": 38.907820666666666, "rental_uris": {"ios": "https://dc.lft.to/lastmile_qr_scan", "android": "https://dc.lft.to/lastmile_qr_scan"}, "is_reserved": 0, "fusion_lon": 0.0, "fusion_lat": 0.0, "lon": -77.03194983333333, "name": "fb6dc5b8e3d67ef34dbaa8f0b0ab24ea"}, {"bike_id": "6fedf0a92cb1d0927d6b949cd3ee5be5", "type": "electric_scooter", "is_disabled": 0, "lat": 38.91698016666667, "rental_uris": {"ios": "https://dc.lft.to/lastmile_qr_scan", "android": "https://dc.lft.to/lastmile_qr_scan"}, "is_reserved": 0, "fusion_lon": 0.0, "fusion_lat": 0.0, "lon": -77.041096, "name": "6fedf0a92cb1d0927d6b949cd3ee5be5"}, {"bike_id": "eacb4936bb1a916dec063a80c701c2cb", "type": "electric_scooter", "is_disabled": 0, "lat": 38.93847433333333, "rental_uris": {"ios": "https://dc.lft.to/lastmile_qr_scan", "android": "https://dc.lft.to/lastmile_qr_scan"}, "is_reserved": 0, "fusion_lon": 0.0, "fusion_lat": 0.0, "lon": -77.07229816666667, "name": "eacb4936bb1a916dec063a80c701c2cb"}, {"bike_id": "6c5724e8559e6e2f6953b0c065bd9d61", "type": "electric_scooter", "is_disabled": 0, "lat": 38.91186283333333, "rental_uris": {"ios": "https://dc.lft.to/lastmile_qr_scan", "android": "https://dc.lft.to/lastmile_qr_scan"}, "is_reserved": 0, "fusion_lon": 0.0, "fusion_lat": 0.0, "lon": -77.01116316666666, "name": "6c5724e8559e6e2f6953b0c065bd9d61"}, {"bike_id": "ba0cc5c58857ef0ff9f95fa39cf77ec1", "type": "electric_scooter", "is_disabled": 0, "lat": 38.900671, "rental_uris": {"ios": "https://dc.lft.to/lastmile_qr_scan", "android": "https://dc.lft.to/lastmile_qr_scan"}, "is_reserved": 0, "fusion_lon": 0.0, "fusion_lat": 0.0, "lon": -77.0171555, "name": "ba0cc5c58857ef0ff9f95fa39cf77ec1"}, {"bike_id": "26e87655edaf23ad2ba1167fde23f912", "type": "electric_scooter", "is_disabled": 0, "lat": 38.92754383333333, "rental_uris": {"ios": "https://dc.lft.to/lastmile_qr_scan", "android": "https://dc.lft.to/lastmile_qr_scan"}, "is_reserved": 0, "fusion_lon": 0.0, "fusion_lat": 0.0, "lon": -77.02536383333333, "name": "26e87655edaf23ad2ba1167fde23f912"}, {"bike_id": "ad75bfcfe8ae3ff37b1c82026b5c0958", "type": "electric_scooter", "is_disabled": 0, "lat": 38.93873683333333, "rental_uris": {"ios": "https://dc.lft.to/lastmile_qr_scan", "android": "https://dc.lft.to/lastmile_qr_scan"}, "is_reserved": 0, "fusion_lon": 0.0, "fusion_lat": 0.0, "lon": -77.026494, "name": "ad75bfcfe8ae3ff37b1c82026b5c0958"}, {"bike_id": "3c0ab6ecf2c636e4f6d078ffcc0bfa7d", "type": "electric_bike", "is_disabled": 0, "lat": 38.85359416666667, "rental_uris": {"ios": "https://dc.lft.to/lastmile_qr_scan", "android": "https://dc.lft.to/lastmile_qr_scan"}, "is_reserved": 0, "fusion_lon": 0.0, "fusion_lat": 0.0, "lon": -77.1346485, "name": "3c0ab6ecf2c636e4f6d078ffcc0bfa7d"}, {"bike_id": "736a93942e0138a7d66802345d2248eb", "type": "electric_scooter", "is_disabled": 0, "lat": 38.9169385, "rental_uris": {"ios": "https://dc.lft.to/lastmile_qr_scan", "android": "https://dc.lft.to/lastmile_qr_scan"}, "is_reserved": 0, "fusion_lon": 0.0, "fusion_lat": 0.0, "lon": -77.03773966666667, "name": "736a93942e0138a7d66802345d2248eb"}, {"bike_id": "e733f98402c54fe814a042c9aeec1f71", "type": "electric_scooter", "is_disabled": 0, "lat": 38.911171, "rental_uris": {"ios": "https://dc.lft.to/lastmile_qr_scan", "android": "https://dc.lft.to/lastmile_qr_scan"}, "is_reserved": 0, "fusion_lon": 0.0, "fusion_lat": 0.0, "lon": -77.04723283333334, "name": "e733f98402c54fe814a042c9aeec1f71"}, {"bike_id": "e21ce0fa642745587eca52c4e87ee45e", "type": "electric_scooter", "is_disabled": 0, "lat": 38.90742383333333, "rental_uris": {"ios": "https://dc.lft.to/lastmile_qr_scan", "android": "https://dc.lft.to/lastmile_qr_scan"}, "is_reserved": 0, "fusion_lon": 0.0, "fusion_lat": 0.0, "lon": -77.0218465, "name": "e21ce0fa642745587eca52c4e87ee45e"}, {"bike_id": "556d63f63158ece2505e1d7525b5231d", "type": "electric_scooter", "is_disabled": 0, "lat": 38.89740166666667, "rental_uris": {"ios": "https://dc.lft.to/lastmile_qr_scan", "android": "https://dc.lft.to/lastmile_qr_scan"}, "is_reserved": 0, "fusion_lon": 0.0, "fusion_lat": 0.0, "lon": -77.00368116666667, "name": "556d63f63158ece2505e1d7525b5231d"}, {"bike_id": "c607f4114d3380c1826442d7ef925b35", "type": "electric_scooter", "is_disabled": 0, "lat": 38.942908333333335, "rental_uris": {"ios": "https://dc.lft.to/lastmile_qr_scan", "android": "https://dc.lft.to/lastmile_qr_scan"}, "is_reserved": 0, "fusion_lon": 0.0, "fusion_lat": 0.0, "lon": -77.02171783333333, "name": "c607f4114d3380c1826442d7ef925b35"}, {"bike_id": "e56423e2861482982c4004e8bdc377c2", "type": "electric_scooter", "is_disabled": 0, "lat": 38.9174665, "rental_uris": {"ios": "https://dc.lft.to/lastmile_qr_scan", "android": "https://dc.lft.to/lastmile_qr_scan"}, "is_reserved": 0, "fusion_lon": 0.0, "fusion_lat": 0.0, "lon": -77.04065816666666, "name": "e56423e2861482982c4004e8bdc377c2"}, {"bike_id": "3c4cad74241c70a6939f30cfb290f674", "type": "electric_scooter", "is_disabled": 0, "lat": 38.907304, "rental_uris": {"ios": "https://dc.lft.to/lastmile_qr_scan", "android": "https://dc.lft.to/lastmile_qr_scan"}, "is_reserved": 0, "fusion_lon": 0.0, "fusion_lat": 0.0, "lon": -77.04022, "name": "3c4cad74241c70a6939f30cfb290f674"}, {"bike_id": "f52f77fa9a00a197fccbdf0ac2004f5a", "type": "electric_scooter", "is_disabled": 0, "lat": 38.89595166666667, "rental_uris": {"ios": "https://dc.lft.to/lastmile_qr_scan", "android": "https://dc.lft.to/lastmile_qr_scan"}, "is_reserved": 0, "fusion_lon": 0.0, "fusion_lat": 0.0, "lon": -77.00497816666666, "name": "f52f77fa9a00a197fccbdf0ac2004f5a"}, {"bike_id": "aaac0d42696d0b8f3766bfb7ae2e25df", "type": "electric_scooter", "is_disabled": 0, "lat": 38.925205166666665, "rental_uris": {"ios": "https://dc.lft.to/lastmile_qr_scan", "android": "https://dc.lft.to/lastmile_qr_scan"}, "is_reserved": 0, "fusion_lon": 0.0, "fusion_lat": 0.0, "lon": -77.05130516666667, "name": "aaac0d42696d0b8f3766bfb7ae2e25df"}, {"bike_id": "33c52e9d596c98a468e5c35eee3eaaad", "type": "electric_scooter", "is_disabled": 0, "lat": 38.901985, "rental_uris": {"ios": "https://dc.lft.to/lastmile_qr_scan", "android": "https://dc.lft.to/lastmile_qr_scan"}, "is_reserved": 0, "fusion_lon": 0.0, "fusion_lat": 0.0, "lon": -77.02169366666666, "name": "33c52e9d596c98a468e5c35eee3eaaad"}, {"bike_id": "af518d036d3520c35ce1f776c71218e6", "type": "electric_scooter", "is_disabled": 0, "lat": 38.897498666666664, "rental_uris": {"ios": "https://dc.lft.to/lastmile_qr_scan", "android": "https://dc.lft.to/lastmile_qr_scan"}, "is_reserved": 0, "fusion_lon": 0.0, "fusion_lat": 0.0, "lon": -76.97972433333334, "name": "af518d036d3520c35ce1f776c71218e6"}, {"bike_id": "c7cc43fc51de71b863eb187a5afc6ef3", "type": "electric_scooter", "is_disabled": 0, "lat": 38.908659, "rental_uris": {"ios": "https://dc.lft.to/lastmile_qr_scan", "android": "https://dc.lft.to/lastmile_qr_scan"}, "is_reserved": 0, "fusion_lon": 0.0, "fusion_lat": 0.0, "lon": -76.9995495, "name": "c7cc43fc51de71b863eb187a5afc6ef3"}, {"bike_id": "d5d0abd19adfe2078fcb2ec3996da496", "type": "electric_bike", "is_disabled": 0, "lat": 38.838311166666664, "rental_uris": {"ios": "https://dc.lft.to/lastmile_qr_scan", "android": "https://dc.lft.to/lastmile_qr_scan"}, "is_reserved": 0, "fusion_lon": 0.0, "fusion_lat": 0.0, "lon": -77.0790415, "name": "d5d0abd19adfe2078fcb2ec3996da496"}, {"bike_id": "d2d42284c9cbb2b94ea28bc7e3a73964", "type": "electric_scooter", "is_disabled": 0, "lat": 38.87564483333333, "rental_uris": {"ios": "https://dc.lft.to/lastmile_qr_scan", "android": "https://dc.lft.to/lastmile_qr_scan"}, "is_reserved": 0, "fusion_lon": 0.0, "fusion_lat": 0.0, "lon": -76.95864383333333, "name": "d2d42284c9cbb2b94ea28bc7e3a73964"}, {"bike_id": "c42a3d9f2b28cf6e1040f07de659d184", "type": "electric_scooter", "is_disabled": 0, "lat": 38.91697216666667, "rental_uris": {"ios": "https://dc.lft.to/lastmile_qr_scan", "android": "https://dc.lft.to/lastmile_qr_scan"}, "is_reserved": 0, "fusion_lon": 0.0, "fusion_lat": 0.0, "lon": -77.023447, "name": "c42a3d9f2b28cf6e1040f07de659d184"}, {"bike_id": "6473ad11e433638effd64e926c924c6f", "type": "electric_scooter", "is_disabled": 0, "lat": 38.92288716666667, "rental_uris": {"ios": "https://dc.lft.to/lastmile_qr_scan", "android": "https://dc.lft.to/lastmile_qr_scan"}, "is_reserved": 0, "fusion_lon": 0.0, "fusion_lat": 0.0, "lon": -77.0224405, "name": "6473ad11e433638effd64e926c924c6f"}, {"bike_id": "dd26ab035c211b8c9133659b059a1328", "type": "electric_scooter", "is_disabled": 0, "lat": 38.939203, "rental_uris": {"ios": "https://dc.lft.to/lastmile_qr_scan", "android": "https://dc.lft.to/lastmile_qr_scan"}, "is_reserved": 0, "fusion_lon": 0.0, "fusion_lat": 0.0, "lon": -77.06049916666667, "name": "dd26ab035c211b8c9133659b059a1328"}, {"bike_id": "68844164bd3e848b124c7ee8cda63483", "type": "electric_scooter", "is_disabled": 0, "lat": 38.8873385, "rental_uris": {"ios": "https://dc.lft.to/lastmile_qr_scan", "android": "https://dc.lft.to/lastmile_qr_scan"}, "is_reserved": 0, "fusion_lon": 0.0, "fusion_lat": 0.0, "lon": -77.03168316666667, "name": "68844164bd3e848b124c7ee8cda63483"}, {"bike_id": "9e072f3ea093318e276f238cab934fde", "type": "electric_scooter", "is_disabled": 0, "lat": 38.90194133333333, "rental_uris": {"ios": "https://dc.lft.to/lastmile_qr_scan", "android": "https://dc.lft.to/lastmile_qr_scan"}, "is_reserved": 0, "fusion_lon": 0.0, "fusion_lat": 0.0, "lon": -77.01270466666666, "name": "9e072f3ea093318e276f238cab934fde"}, {"bike_id": "4e764343467f619325d3098a7e5c1c35", "type": "electric_bike", "is_disabled": 0, "lat": 39.037027, "rental_uris": {"ios": "https://dc.lft.to/lastmile_qr_scan", "android": "https://dc.lft.to/lastmile_qr_scan"}, "is_reserved": 0, "fusion_lon": 0.0, "fusion_lat": 0.0, "lon": -77.02854866666667, "name": "4e764343467f619325d3098a7e5c1c35"}, {"bike_id": "83b01b6a11659e1d0facf9bdd0eb96c0", "type": "electric_scooter", "is_disabled": 0, "lat": 38.91542316666666, "rental_uris": {"ios": "https://dc.lft.to/lastmile_qr_scan", "android": "https://dc.lft.to/lastmile_qr_scan"}, "is_reserved": 0, "fusion_lon": 0.0, "fusion_lat": 0.0, "lon": -77.01832116666667, "name": "83b01b6a11659e1d0facf9bdd0eb96c0"}, {"bike_id": "bbf07830a776d92ad49e9abdbb1dcd58", "type": "electric_scooter", "is_disabled": 0, "lat": 38.922483166666666, "rental_uris": {"ios": "https://dc.lft.to/lastmile_qr_scan", "android": "https://dc.lft.to/lastmile_qr_scan"}, "is_reserved": 0, "fusion_lon": 0.0, "fusion_lat": 0.0, "lon": -77.04271366666667, "name": "bbf07830a776d92ad49e9abdbb1dcd58"}, {"bike_id": "e55d73baff647c655ed5d46159f770a1", "type": "electric_scooter", "is_disabled": 0, "lat": 38.90628533333334, "rental_uris": {"ios": "https://dc.lft.to/lastmile_qr_scan", "android": "https://dc.lft.to/lastmile_qr_scan"}, "is_reserved": 0, "fusion_lon": 0.0, "fusion_lat": 0.0, "lon": -77.0515445, "name": "e55d73baff647c655ed5d46159f770a1"}, {"bike_id": "c9c7e8fd6c04f37b6486943de0f76f0d", "type": "electric_scooter", "is_disabled": 0, "lat": 38.919948, "rental_uris": {"ios": "https://dc.lft.to/lastmile_qr_scan", "android": "https://dc.lft.to/lastmile_qr_scan"}, "is_reserved": 0, "fusion_lon": 0.0, "fusion_lat": 0.0, "lon": -77.03956933333333, "name": "c9c7e8fd6c04f37b6486943de0f76f0d"}, {"bike_id": "bd5a3da83cba5c7d830608caaf91e73f", "type": "electric_scooter", "is_disabled": 0, "lat": 38.898746333333335, "rental_uris": {"ios": "https://dc.lft.to/lastmile_qr_scan", "android": "https://dc.lft.to/lastmile_qr_scan"}, "is_reserved": 0, "fusion_lon": 0.0, "fusion_lat": 0.0, "lon": -76.93185266666667, "name": "bd5a3da83cba5c7d830608caaf91e73f"}, {"bike_id": "88d668a86e2b37cef8aa90ecffaa8528", "type": "electric_scooter", "is_disabled": 0, "lat": 38.900492166666666, "rental_uris": {"ios": "https://dc.lft.to/lastmile_qr_scan", "android": "https://dc.lft.to/lastmile_qr_scan"}, "is_reserved": 0, "fusion_lon": 0.0, "fusion_lat": 0.0, "lon": -76.99829, "name": "88d668a86e2b37cef8aa90ecffaa8528"}, {"bike_id": "6d3f8241423f6ad5da0650ca05d8d00e", "type": "electric_scooter", "is_disabled": 0, "lat": 38.905691, "rental_uris": {"ios": "https://dc.lft.to/lastmile_qr_scan", "android": "https://dc.lft.to/lastmile_qr_scan"}, "is_reserved": 0, "fusion_lon": 0.0, "fusion_lat": 0.0, "lon": -77.042362, "name": "6d3f8241423f6ad5da0650ca05d8d00e"}, {"bike_id": "b1470cf318c4ce378d9a01fbe99d8216", "type": "electric_scooter", "is_disabled": 0, "lat": 38.92131366666667, "rental_uris": {"ios": "https://dc.lft.to/lastmile_qr_scan", "android": "https://dc.lft.to/lastmile_qr_scan"}, "is_reserved": 0, "fusion_lon": 0.0, "fusion_lat": 0.0, "lon": -77.02712566666666, "name": "b1470cf318c4ce378d9a01fbe99d8216"}, {"bike_id": "a9430e78d280bad3d8bc61dc06af6499", "type": "electric_scooter", "is_disabled": 0, "lat": 38.90603766666667, "rental_uris": {"ios": "https://dc.lft.to/lastmile_qr_scan", "android": "https://dc.lft.to/lastmile_qr_scan"}, "is_reserved": 0, "fusion_lon": 0.0, "fusion_lat": 0.0, "lon": -76.99067783333334, "name": "a9430e78d280bad3d8bc61dc06af6499"}, {"bike_id": "90b328411ea540b81623bbd20249ca85", "type": "electric_scooter", "is_disabled": 0, "lat": 38.929948, "rental_uris": {"ios": "https://dc.lft.to/lastmile_qr_scan", "android": "https://dc.lft.to/lastmile_qr_scan"}, "is_reserved": 0, "fusion_lon": 0.0, "fusion_lat": 0.0, "lon": -77.03238333333333, "name": "90b328411ea540b81623bbd20249ca85"}, {"bike_id": "fa4057c6dac31794cb1c991e078cff96", "type": "electric_scooter", "is_disabled": 0, "lat": 38.9224675, "rental_uris": {"ios": "https://dc.lft.to/lastmile_qr_scan", "android": "https://dc.lft.to/lastmile_qr_scan"}, "is_reserved": 0, "fusion_lon": 0.0, "fusion_lat": 0.0, "lon": -77.04272916666666, "name": "fa4057c6dac31794cb1c991e078cff96"}, {"bike_id": "de88374eba67fe34cd130eeb088fcb2e", "type": "electric_scooter", "is_disabled": 0, "lat": 38.92335166666667, "rental_uris": {"ios": "https://dc.lft.to/lastmile_qr_scan", "android": "https://dc.lft.to/lastmile_qr_scan"}, "is_reserved": 0, "fusion_lon": 0.0, "fusion_lat": 0.0, "lon": -77.02692833333333, "name": "de88374eba67fe34cd130eeb088fcb2e"}, {"bike_id": "85bbca27e90b607f5a5be6d5f239f67b", "type": "electric_scooter", "is_disabled": 0, "lat": 38.915469, "rental_uris": {"ios": "https://dc.lft.to/lastmile_qr_scan", "android": "https://dc.lft.to/lastmile_qr_scan"}, "is_reserved": 0, "fusion_lon": 0.0, "fusion_lat": 0.0, "lon": -77.02202183333333, "name": "85bbca27e90b607f5a5be6d5f239f67b"}, {"bike_id": "3adc4a5c366df8d528245077c9582826", "type": "electric_scooter", "is_disabled": 0, "lat": 38.92475233333333, "rental_uris": {"ios": "https://dc.lft.to/lastmile_qr_scan", "android": "https://dc.lft.to/lastmile_qr_scan"}, "is_reserved": 0, "fusion_lon": 0.0, "fusion_lat": 0.0, "lon": -77.02833483333333, "name": "3adc4a5c366df8d528245077c9582826"}, {"bike_id": "90fbac93caedbaa5669275c8e4a2ea5d", "type": "electric_scooter", "is_disabled": 0, "lat": 38.898265, "rental_uris": {"ios": "https://dc.lft.to/lastmile_qr_scan", "android": "https://dc.lft.to/lastmile_qr_scan"}, "is_reserved": 0, "fusion_lon": 0.0, "fusion_lat": 0.0, "lon": -77.03188633333333, "name": "90fbac93caedbaa5669275c8e4a2ea5d"}, {"bike_id": "102844545450849b0c2f8d14ad21c555", "type": "electric_scooter", "is_disabled": 0, "lat": 38.89235083333333, "rental_uris": {"ios": "https://dc.lft.to/lastmile_qr_scan", "android": "https://dc.lft.to/lastmile_qr_scan"}, "is_reserved": 0, "fusion_lon": 0.0, "fusion_lat": 0.0, "lon": -77.04672633333334, "name": "102844545450849b0c2f8d14ad21c555"}, {"bike_id": "a6fc1f9e1a9ed9431235294f6af18e78", "type": "electric_bike", "is_disabled": 0, "lat": 38.9397025, "rental_uris": {"ios": "https://dc.lft.to/lastmile_qr_scan", "android": "https://dc.lft.to/lastmile_qr_scan"}, "is_reserved": 0, "fusion_lon": 0.0, "fusion_lat": 0.0, "lon": -77.05255616666666, "name": "a6fc1f9e1a9ed9431235294f6af18e78"}, {"bike_id": "023facf8a614a51e65e1836859bf758e", "type": "electric_scooter", "is_disabled": 0, "lat": 38.906991, "rental_uris": {"ios": "https://dc.lft.to/lastmile_qr_scan", "android": "https://dc.lft.to/lastmile_qr_scan"}, "is_reserved": 0, "fusion_lon": 0.0, "fusion_lat": 0.0, "lon": -77.04343633333333, "name": "023facf8a614a51e65e1836859bf758e"}, {"bike_id": "6d76acd845e1e7b70dbd8e9a7f9710cd", "type": "electric_scooter", "is_disabled": 0, "lat": 38.93076216666667, "rental_uris": {"ios": "https://dc.lft.to/lastmile_qr_scan", "android": "https://dc.lft.to/lastmile_qr_scan"}, "is_reserved": 0, "fusion_lon": 0.0, "fusion_lat": 0.0, "lon": -77.0411475, "name": "6d76acd845e1e7b70dbd8e9a7f9710cd"}, {"bike_id": "778e6632ac505c511e66a8cc8fbccb74", "type": "electric_scooter", "is_disabled": 0, "lat": 38.89496416666667, "rental_uris": {"ios": "https://dc.lft.to/lastmile_qr_scan", "android": "https://dc.lft.to/lastmile_qr_scan"}, "is_reserved": 0, "fusion_lon": 0.0, "fusion_lat": 0.0, "lon": -77.010805, "name": "778e6632ac505c511e66a8cc8fbccb74"}, {"bike_id": "ecccf33bc596d836ae9a95b92fc06cc0", "type": "electric_scooter", "is_disabled": 0, "lat": 38.91904483333333, "rental_uris": {"ios": "https://dc.lft.to/lastmile_qr_scan", "android": "https://dc.lft.to/lastmile_qr_scan"}, "is_reserved": 0, "fusion_lon": 0.0, "fusion_lat": 0.0, "lon": -77.037015, "name": "ecccf33bc596d836ae9a95b92fc06cc0"}, {"bike_id": "392d0e2123b12ad646e1a8eb8977ef4c", "type": "electric_scooter", "is_disabled": 0, "lat": 38.9072205, "rental_uris": {"ios": "https://dc.lft.to/lastmile_qr_scan", "android": "https://dc.lft.to/lastmile_qr_scan"}, "is_reserved": 0, "fusion_lon": 0.0, "fusion_lat": 0.0, "lon": -77.02628133333333, "name": "392d0e2123b12ad646e1a8eb8977ef4c"}, {"bike_id": "06dde9d1303dfe8a75b5b5e6111a36f4", "type": "electric_scooter", "is_disabled": 0, "lat": 38.940793166666666, "rental_uris": {"ios": "https://dc.lft.to/lastmile_qr_scan", "android": "https://dc.lft.to/lastmile_qr_scan"}, "is_reserved": 0, "fusion_lon": 0.0, "fusion_lat": 0.0, "lon": -77.06108733333333, "name": "06dde9d1303dfe8a75b5b5e6111a36f4"}, {"bike_id": "f8605fff3376282f1f97b56675d90a3d", "type": "electric_scooter", "is_disabled": 0, "lat": 38.90717333333333, "rental_uris": {"ios": "https://dc.lft.to/lastmile_qr_scan", "android": "https://dc.lft.to/lastmile_qr_scan"}, "is_reserved": 0, "fusion_lon": 0.0, "fusion_lat": 0.0, "lon": -77.0238975, "name": "f8605fff3376282f1f97b56675d90a3d"}, {"bike_id": "fdbce9cf3a24cef95ef22705b8626af1", "type": "electric_scooter", "is_disabled": 0, "lat": 38.9167035, "rental_uris": {"ios": "https://dc.lft.to/lastmile_qr_scan", "android": "https://dc.lft.to/lastmile_qr_scan"}, "is_reserved": 0, "fusion_lon": 0.0, "fusion_lat": 0.0, "lon": -77.02386583333333, "name": "fdbce9cf3a24cef95ef22705b8626af1"}, {"bike_id": "7eec6155bb6434a896778fc158d675b2", "type": "electric_scooter", "is_disabled": 0, "lat": 38.910366833333335, "rental_uris": {"ios": "https://dc.lft.to/lastmile_qr_scan", "android": "https://dc.lft.to/lastmile_qr_scan"}, "is_reserved": 0, "fusion_lon": 0.0, "fusion_lat": 0.0, "lon": -77.03806, "name": "7eec6155bb6434a896778fc158d675b2"}, {"bike_id": "64910f18cdcb8c1cdaaf07a72ea00ea2", "type": "electric_scooter", "is_disabled": 0, "lat": 38.91242733333333, "rental_uris": {"ios": "https://dc.lft.to/lastmile_qr_scan", "android": "https://dc.lft.to/lastmile_qr_scan"}, "is_reserved": 0, "fusion_lon": 0.0, "fusion_lat": 0.0, "lon": -77.02222966666666, "name": "64910f18cdcb8c1cdaaf07a72ea00ea2"}, {"bike_id": "09d4cacf7d61aa58bb03b65e9bbd6410", "type": "electric_scooter", "is_disabled": 0, "lat": 38.94293166666667, "rental_uris": {"ios": "https://dc.lft.to/lastmile_qr_scan", "android": "https://dc.lft.to/lastmile_qr_scan"}, "is_reserved": 0, "fusion_lon": 0.0, "fusion_lat": 0.0, "lon": -77.02170116666667, "name": "09d4cacf7d61aa58bb03b65e9bbd6410"}, {"bike_id": "fdf5b9581e11b02cba1d30fe357881b8", "type": "electric_scooter", "is_disabled": 0, "lat": 38.89231516666667, "rental_uris": {"ios": "https://dc.lft.to/lastmile_qr_scan", "android": "https://dc.lft.to/lastmile_qr_scan"}, "is_reserved": 0, "fusion_lon": 0.0, "fusion_lat": 0.0, "lon": -77.04999083333334, "name": "fdf5b9581e11b02cba1d30fe357881b8"}, {"bike_id": "7bac8aa348c5a6b292ddc51af71327d1", "type": "electric_scooter", "is_disabled": 0, "lat": 38.902435, "rental_uris": {"ios": "https://dc.lft.to/lastmile_qr_scan", "android": "https://dc.lft.to/lastmile_qr_scan"}, "is_reserved": 0, "fusion_lon": 0.0, "fusion_lat": 0.0, "lon": -77.02937683333333, "name": "7bac8aa348c5a6b292ddc51af71327d1"}, {"bike_id": "b2c1fe4bb5f23e1cc2c6574f6a04f1af", "type": "electric_scooter", "is_disabled": 0, "lat": 38.909722333333335, "rental_uris": {"ios": "https://dc.lft.to/lastmile_qr_scan", "android": "https://dc.lft.to/lastmile_qr_scan"}, "is_reserved": 0, "fusion_lon": 0.0, "fusion_lat": 0.0, "lon": -77.03633433333333, "name": "b2c1fe4bb5f23e1cc2c6574f6a04f1af"}, {"bike_id": "bb9d2d21c5e7ef476b1472e7d8442dd8", "type": "electric_scooter", "is_disabled": 0, "lat": 38.905984833333335, "rental_uris": {"ios": "https://dc.lft.to/lastmile_qr_scan", "android": "https://dc.lft.to/lastmile_qr_scan"}, "is_reserved": 0, "fusion_lon": 0.0, "fusion_lat": 0.0, "lon": -77.0271345, "name": "bb9d2d21c5e7ef476b1472e7d8442dd8"}, {"bike_id": "394f2a8a553427745cb8a8b1439514b6", "type": "electric_scooter", "is_disabled": 0, "lat": 38.89732583333333, "rental_uris": {"ios": "https://dc.lft.to/lastmile_qr_scan", "android": "https://dc.lft.to/lastmile_qr_scan"}, "is_reserved": 0, "fusion_lon": 0.0, "fusion_lat": 0.0, "lon": -77.05472683333333, "name": "394f2a8a553427745cb8a8b1439514b6"},