{"data": {"bikes": [{"fusion_lat": 0.0, "name": "07b8ac010986490a72e196fc1e7bcde6", "is_disabled": 0, "rental_uris": {"android": "https://dc.lft.to/lastmile_qr_scan", "ios": "https://dc.lft.to/lastmile_qr_scan"}, "fusion_lon": 0.0, "lat": 38.897505833333334, "bike_id": "07b8ac010986490a72e196fc1e7bcde6", "type": "electric_scooter", "is_reserved": 0, "lon": -77.05132666666667}, {"fusion_lat": 0.0, "name": "aeaa91f68ce5372c8128f591ba3017fd", "is_disabled": 0, "rental_uris": {"android": "https://dc.lft.to/lastmile_qr_scan", "ios": "https://dc.lft.to/lastmile_qr_scan"}, "fusion_lon": 0.0, "lat": 38.83408283333333, "bike_id": "aeaa91f68ce5372c8128f591ba3017fd", "type": "electric_bike", "is_reserved": 0, "lon": -77.0033505}, {"fusion_lat": 0.0, "name": "8672774b13a5a1a779f9510bff937ade", "is_disabled": 0, "rental_uris": {"android": "https://dc.lft.to/lastmile_qr_scan", "ios": "https://dc.lft.to/lastmile_qr_scan"}, "fusion_lon": 0.0, "lat": 38.904436, "bike_id": "8672774b13a5a1a779f9510bff937ade", "type": "electric_scooter", "is_reserved": 0, "lon": -77.04085633333334}, {"fusion_lat": 0.0, "name": "76ae433eec1575f4dc1ac9e7c19115f3", "is_disabled": 0, "rental_uris": {"android": "https://dc.lft.to/lastmile_qr_scan", "ios": "https://dc.lft.to/lastmile_qr_scan"}, "fusion_lon": 0.0, "lat": 38.933059166666666, "bike_id": "76ae433eec1575f4dc1ac9e7c19115f3", "type": "electric_scooter", "is_reserved": 0, "lon": -77.03083983333333}, {"fusion_lat": 0.0, "name": "62c6091a49823194b73c83df0be717a3", "is_disabled": 0, "rental_uris": {"android": "https://dc.lft.to/lastmile_qr_scan", "ios": "https://dc.lft.to/lastmile_qr_scan"}, "fusion_lon": 0.0, "lat": 38.88128233333333, "bike_id": "62c6091a49823194b73c83df0be717a3", "type": "electric_scooter", "is_reserved": 0, "lon": -77.02719383333333}, {"fusion_lat": 0.0, "name": "8aec437193991647d4f752d125ff889b", "is_disabled": 0, "rental_uris": {"android": "https://dc.lft.to/lastmile_qr_scan", "ios": "https://dc.lft.to/lastmile_qr_scan"}, "fusion_lon": 0.0, "lat": 38.9052265, "bike_id": "8aec437193991647d4f752d125ff889b", "type": "electric_scooter", "is_reserved": 0, "lon": -77.04836816666666}, {"fusion_lat": 0.0, "name": "310d6658e85cb3e3c9a39b0f35d0002f", "is_disabled": 0, "rental_uris": {"android": "https://dc.lft.to/lastmile_qr_scan", "ios": "https://dc.lft.to/lastmile_qr_scan"}, "fusion_lon": 0.0, "lat": 38.90038916666666, "bike_id": "310d6658e85cb3e3c9a39b0f35d0002f", "type": "electric_scooter", "is_reserved": 0, "lon": -77.0351725}, {"fusion_lat": 0.0, "name": "ae4e4c924826297eb8b8c62570591deb", "is_disabled": 0, "rental_uris": {"android": "https://dc.lft.to/lastmile_qr_scan", "ios": "https://dc.lft.to/lastmile_qr_scan"}, "fusion_lon": 0.0, "lat": 38.90410166666667, "bike_id": "ae4e4c924826297eb8b8c62570591deb", "type": "electric_scooter", "is_reserved": 0, "lon": -76.973292}, {"fusion_lat": 0.0, "name": "b1ddd36746ed437676c21557a76a4fff", "is_disabled": 0, "rental_uris": {"android": "https://dc.lft.to/lastmile_qr_scan", "ios": "https://dc.lft.to/lastmile_qr_scan"}, "fusion_lon": 0.0, "lat": 38.90011766666667, "bike_id": "b1ddd36746ed437676c21557a76a4fff", "type": "electric_scooter", "is_reserved": 0, "lon": -77.01246133333333}, {"fusion_lat": 0.0, "name": "01ac6532cb71e473430da34eef9cf960", "is_disabled": 0, "rental_uris": {"android": "https://dc.lft.to/lastmile_qr_scan", "ios": "https://dc.lft.to/lastmile_qr_scan"}, "fusion_lon": 0.0, "lat": 38.922576166666666, "bike_id": "01ac6532cb71e473430da34eef9cf960", "type": "electric_scooter", "is_reserved": 0, "lon": -77.01850866666666}, {"fusion_lat": 0.0, "name": "8e90b654ed7ce6fc41635f17d0724a2e", "is_disabled": 0, "rental_uris": {"android": "https://dc.lft.to/lastmile_qr_scan", "ios": "https://dc.lft.to/lastmile_qr_scan"}, "fusion_lon": 0.0, "lat": 38.894433, "bike_id": "8e90b654ed7ce6fc41635f17d0724a2e", "type": "electric_scooter", "is_reserved": 0, "lon": -76.9748945}, {"fusion_lat": 0.0, "name": "ca3283864dedb1bf4e21e5c42bb3a287", "is_disabled": 0, "rental_uris": {"android": "https://dc.lft.to/lastmile_qr_scan", "ios": "https://dc.lft.to/lastmile_qr_scan"}, "fusion_lon": 0.0, "lat": 38.89980766666667, "bike_id": "ca3283864dedb1bf4e21e5c42bb3a287", "type": "electric_scooter", "is_reserved": 0, "lon": -77.02218116666667}, {"fusion_lat": 0.0, "name": "284661698f10c066f655f3e39546e6a0", "is_disabled": 0, "rental_uris": {"android": "https://dc.lft.to/lastmile_qr_scan", "ios": "https://dc.lft.to/lastmile_qr_scan"}, "fusion_lon": 0.0, "lat": 38.87762516666667, "bike_id": "284661698f10c066f655f3e39546e6a0", "type": "electric_scooter", "is_reserved": 0, "lon": -76.9939295}, {"fusion_lat": 0.0, "name": "9794748a58f4ed9989e8192d80d54c14", "is_disabled": 0, "rental_uris": {"android": "https://dc.lft.to/lastmile_qr_scan", "ios": "https://dc.lft.to/lastmile_qr_scan"}, "fusion_lon": 0.0, "lat": 38.8896765, "bike_id": "9794748a58f4ed9989e8192d80d54c14", "type": "electric_scooter", "is_reserved": 0, "lon": -76.97972566666667}, {"fusion_lat": 0.0, "name": "2593add02d5198308e04ec7af8ec7484", "is_disabled": 0, "rental_uris": {"android": "https://dc.lft.to/lastmile_qr_scan", "ios": "https://dc.lft.to/lastmile_qr_scan"}, "fusion_lon": 0.0, "lat": 38.86354633333333, "bike_id": "2593add02d5198308e04ec7af8ec7484", "type": "electric_bike", "is_reserved": 0, "lon": -77.07726866666667}, {"fusion_lat": 0.0, "name": "7d61c9c922aba9e82c9485048a198e3a", "is_disabled": 0, "rental_uris": {"android": "https://dc.lft.to/lastmile_qr_scan", "ios": "https://dc.lft.to/lastmile_qr_scan"}, "fusion_lon": 0.0, "lat": 38.93751116666667, "bike_id": "7d61c9c922aba9e82c9485048a198e3a", "type": "electric_scooter", "is_reserved": 0, "lon": -77.02532033333334}, {"fusion_lat": 0.0, "name": "123502478d829716ef77ab0b0c23e516", "is_disabled": 0, "rental_uris": {"android": "https://dc.lft.to/lastmile_qr_scan", "ios": "https://dc.lft.to/lastmile_qr_scan"}, "fusion_lon": 0.0, "lat": 38.892197, "bike_id": "123502478d829716ef77ab0b0c23e516", "type": "electric_scooter", "is_reserved": 0, "lon": -77.00304733333333}, {"fusion_lat": 0.0, "name": "d9893183da6489ddb76bb1bd03cc2287", "is_disabled": 0, "rental_uris": {"android": "https://dc.lft.to/lastmile_qr_scan", "ios": "https://dc.lft.to/lastmile_qr_scan"}, "fusion_lon": 0.0, "lat": 38.952895, "bike_id": "d9893183da6489ddb76bb1bd03cc2287", "type": "electric_bike", "is_reserved": 0, "lon": -76.99991166666666}, {"fusion_lat": 0.0, "name": "5cefa446ff5af1064f416a8b0f9b79f7", "is_disabled": 0, "rental_uris": {"android": "https://dc.lft.to/lastmile_qr_scan", "ios": "https://dc.lft.to/lastmile_qr_scan"}, "fusion_lon": 0.0, "lat": 38.89657666666667, "bike_id": "5cefa446ff5af1064f416a8b0f9b79f7", "type": "electric_scooter", "is_reserved": 0, "lon": -77.02491533333334}, {"fusion_lat": 0.0, "name": "1d081da7a5703b0ad2b0a44ea694a379", "is_disabled": 0, "rental_uris": {"android": "https://dc.lft.to/lastmile_qr_scan", "ios": "https://dc.lft.to/lastmile_qr_scan"}, "fusion_lon": 0.0, "lat": 38.8840465, "bike_id": "1d081da7a5703b0ad2b0a44ea694a379", "type": "electric_scooter", "is_reserved": 0, "lon": -77.01939166666666}, {"fusion_lat": 0.0, "name": "877997f53e4ddf4b3dd13652397649b9", "is_disabled": 0, "rental_uris": {"android": "https://dc.lft.to/lastmile_qr_scan", "ios": "https://dc.lft.to/lastmile_qr_scan"}, "fusion_lon": 0.0, "lat": 38.9006335, "bike_id": "877997f53e4ddf4b3dd13652397649b9", "type": "electric_scooter", "is_reserved": 0, "lon": -77.04534683333333}, {"fusion_lat": 0.0, "name": "e14f9e012d9ced0c1bb2b9ae1a3653cc", "is_disabled": 0, "rental_uris": {"android": "https://dc.lft.to/lastmile_qr_scan", "ios": "https://dc.lft.to/lastmile_qr_scan"}, "fusion_lon": 0.0, "lat": 38.900172833333336, "bike_id": "e14f9e012d9ced0c1bb2b9ae1a3653cc", "type": "electric_scooter", "is_reserved": 0, "lon": -77.0112095}, {"fusion_lat": 0.0, "name": "57d1470f6022794cf03e122a129e0a16", "is_disabled": 0, "rental_uris": {"android": "https://dc.lft.to/lastmile_qr_scan", "ios": "https://dc.lft.to/lastmile_qr_scan"}, "fusion_lon": 0.0, "lat": 38.90952933333333, "bike_id": "57d1470f6022794cf03e122a129e0a16", "type": "electric_scooter", "is_reserved": 0, "lon": -76.98542466666666}, {"fusion_lat": 0.0, "name": "5977cf137c905a4d3f52704ebcb368c3", "is_disabled": 0, "rental_uris": {"android": "https://dc.lft.to/lastmile_qr_scan", "ios": "https://dc.lft.to/lastmile_qr_scan"}, "fusion_lon": 0.0, "lat": 38.84129166666666, "bike_id": "5977cf137c905a4d3f52704ebcb368c3", "type": "electric_bike", "is_reserved": 0, "lon": -77.0631415}, {"fusion_lat": 0.0, "name": "c2e2338c37a3c62ea8da74899e78f546", "is_disabled": 0, "rental_uris": {"android": "https://dc.lft.to/lastmile_qr_scan", "ios": "https://dc.lft.to/lastmile_qr_scan"}, "fusion_lon": 0.0, "lat": 38.88131666666666, "bike_id": "c2e2338c37a3c62ea8da74899e78f546", "type": "electric_scooter", "is_reserved": 0, "lon": -77.02718233333333}, {"fusion_lat": 0.0, "name": "3fe7cf9306c9e67fb1884003667a64ae", "is_disabled": 0, "rental_uris": {"android": "https://dc.lft.to/lastmile_qr_scan", "ios": "https://dc.lft.to/lastmile_qr_scan"}, "fusion_lon": 0.0, "lat": 38.819404, "bike_id": "3fe7cf9306c9e67fb1884003667a64ae", "type": "electric_bike", "is_reserved": 0, "lon": -77.00205483333333}, {"fusion_lat": 0.0, "name": "719e1e7b0f238d58885eade0ff6ba602", "is_disabled": 0, "rental_uris": {"android": "https://dc.lft.to/lastmile_qr_scan", "ios": "https://dc.lft.to/lastmile_qr_scan"}, "fusion_lon": 0.0, "lat": 38.92962966666666, "bike_id": "719e1e7b0f238d58885eade0ff6ba602", "type": "electric_scooter", "is_reserved": 0, "lon": -76.99172566666667}, {"fusion_lat": 0.0, "name": "3dde8e59309319f52895e61a17c40d79", "is_disabled": 0, "rental_uris": {"android": "https://dc.lft.to/lastmile_qr_scan", "ios": "https://dc.lft.to/lastmile_qr_scan"}, "fusion_lon": 0.0, "lat": 38.928923, "bike_id": "3dde8e59309319f52895e61a17c40d79", "type": "electric_scooter", "is_reserved": 0, "lon": -77.0229765}, {"fusion_lat": 0.0, "name": "c634fac1641773afd3810b1a5eba628f", "is_disabled": 0, "rental_uris": {"android": "https://dc.lft.to/lastmile_qr_scan", "ios": "https://dc.lft.to/lastmile_qr_scan"}, "fusion_lon": 0.0, "lat": 38.897038333333334, "bike_id": "c634fac1641773afd3810b1a5eba628f", "type": "electric_scooter", "is_reserved": 0, "lon": -77.04892933333333}, {"fusion_lat": 0.0, "name": "94b9b709c221e202de0f5972279bade9", "is_disabled": 0, "rental_uris": {"android": "https://dc.lft.to/lastmile_qr_scan", "ios": "https://dc.lft.to/lastmile_qr_scan"}, "fusion_lon": 0.0, "lat": 38.922559, "bike_id": "94b9b709c221e202de0f5972279bade9", "type": "electric_scooter", "is_reserved": 0, "lon": -77.0091315}, {"fusion_lat": 0.0, "name": "d6bed60effdcb71b3ea6042690f424b0", "is_disabled": 0, "rental_uris": {"android": "https://dc.lft.to/lastmile_qr_scan", "ios": "https://dc.lft.to/lastmile_qr_scan"}, "fusion_lon": 0.0, "lat": 38.87698733333333, "bike_id": "d6bed60effdcb71b3ea6042690f424b0", "type": "electric_scooter", "is_reserved": 0, "lon": -77.00411166666666}, {"fusion_lat": 0.0, "name": "ba52572aa8cb3eee4bf5355e0e4c6e2e", "is_disabled": 0, "rental_uris": {"android": "https://dc.lft.to/lastmile_qr_scan", "ios": "https://dc.lft.to/lastmile_qr_scan"}, "fusion_lon": 0.0, "lat": 38.931721333333336, "bike_id": "ba52572aa8cb3eee4bf5355e0e4c6e2e", "type": "electric_scooter", "is_reserved": 0, "lon": -77.037881}, {"fusion_lat": 0.0, "name": "49ee96a952d3b3531bdaa0d0d58abfac", "is_disabled": 0, "rental_uris": {"android": "https://dc.lft.to/lastmile_qr_scan", "ios": "https://dc.lft.to/lastmile_qr_scan"}, "fusion_lon": 0.0, "lat": 38.9667715, "bike_id": "49ee96a952d3b3531bdaa0d0d58abfac", "type": "electric_bike", "is_reserved": 0, "lon": -77.02301333333334}, {"fusion_lat": 0.0, "name": "75d578cdb41b1392c1cd0cc8a0270945", "is_disabled": 0, "rental_uris": {"android": "https://dc.lft.to/lastmile_qr_scan", "ios": "https://dc.lft.to/lastmile_qr_scan"}, "fusion_lon": 0.0, "lat": 38.91094, "bike_id": "75d578cdb41b1392c1cd0cc8a0270945", "type": "electric_scooter", "is_reserved": 0, "lon": -77.03214116666666}, {"fusion_lat": 0.0, "name": "a65c5f23b6fe42234d95568c574db42b", "is_disabled": 0, "rental_uris": {"android": "https://dc.lft.to/lastmile_qr_scan", "ios": "https://dc.lft.to/lastmile_qr_scan"}, "fusion_lon": 0.0, "lat": 38.91689816666667, "bike_id": "a65c5f23b6fe42234d95568c574db42b", "type": "electric_scooter", "is_reserved": 0, "lon": -77.03507016666667}, {"fusion_lat": 0.0, "name": "21fcc8a0d5c6f066ccb69bd8d9037b18", "is_disabled": 0, "rental_uris": {"android": "https://dc.lft.to/lastmile_qr_scan", "ios": "https://dc.lft.to/lastmile_qr_scan"}, "fusion_lon": 0.0, "lat": 38.905233333333335, "bike_id": "21fcc8a0d5c6f066ccb69bd8d9037b18", "type": "electric_scooter", "is_reserved": 0, "lon": -77.0468895}, {"fusion_lat": 0.0, "name": "3f41bac7ccba7f3df441daeaee154c14", "is_disabled": 0, "rental_uris": {"android": "https://dc.lft.to/lastmile_qr_scan", "ios": "https://dc.lft.to/lastmile_qr_scan"}, "fusion_lon": 0.0, "lat": 38.88511283333333, "bike_id": "3f41bac7ccba7f3df441daeaee154c14", "type": "electric_scooter", "is_reserved": 0, "lon": -77.011182}, {"fusion_lat": 0.0, "name": "8f87658ba2924cb8ad3ec1751ece05b6", "is_disabled": 0, "rental_uris": {"android": "https://dc.lft.to/lastmile_qr_scan", "ios": "https://dc.lft.to/lastmile_qr_scan"}, "fusion_lon": 0.0, "lat": 38.900322, "bike_id": "8f87658ba2924cb8ad3ec1751ece05b6", "type": "electric_scooter", "is_reserved": 0, "lon": -76.98461333333333}, {"fusion_lat": 0.0, "name": "118d61400a7c5ce6e300d4dfd8786588", "is_disabled": 0, "rental_uris": {"android": "https://dc.lft.to/lastmile_qr_scan", "ios": "https://dc.lft.to/lastmile_qr_scan"}, "fusion_lon": 0.0, "lat": 38.91275433333333, "bike_id": "118d61400a7c5ce6e300d4dfd8786588", "type": "electric_scooter", "is_reserved": 0, "lon": -77.03844216666667}, {"fusion_lat": 0.0, "name": "3dd34b2cca9c70b728371463deec5965", "is_disabled": 0, "rental_uris": {"android": "https://dc.lft.to/lastmile_qr_scan", "ios": "https://dc.lft.to/lastmile_qr_scan"}, "fusion_lon": 0.0, "lat": 38.914349333333334, "bike_id": "3dd34b2cca9c70b728371463deec5965", "type": "electric_scooter", "is_reserved": 0, "lon": -76.99355133333333}, {"fusion_lat": 0.0, "name": "f0dab68b665ddc9063effdbd7d672591", "is_disabled": 0, "rental_uris": {"android": "https://dc.lft.to/lastmile_qr_scan", "ios": "https://dc.lft.to/lastmile_qr_scan"}, "fusion_lon": 0.0, "lat": 38.92974566666667, "bike_id": "f0dab68b665ddc9063effdbd7d672591", "type": "electric_scooter", "is_reserved": 0, "lon": -77.03153516666667}, {"fusion_lat": 0.0, "name": "608e28495e53d889207ee2bad2ab1f2f", "is_disabled": 0, "rental_uris": {"android": "https://dc.lft.to/lastmile_qr_scan", "ios": "https://dc.lft.to/lastmile_qr_scan"}, "fusion_lon": 0.0, "lat": 38.8993345, "bike_id": "608e28495e53d889207ee2bad2ab1f2f", "type": "electric_scooter", "is_reserved": 0, "lon": -77.05008466666666}, {"fusion_lat": 0.0, "name": "f4098b8c2a8bfc65ba69798134e332fd", "is_disabled": 0, "rental_uris": {"android": "https://dc.lft.to/lastmile_qr_scan", "ios": "https://dc.lft.to/lastmile_qr_scan"}, "fusion_lon": 0.0, "lat": 38.902345, "bike_id": "f4098b8c2a8bfc65ba69798134e332fd", "type": "electric_scooter", "is_reserved": 0, "lon": -77.06023083333334}, {"fusion_lat": 0.0, "name": "058dcb1eaaf8b66cad99e54df8cf5139", "is_disabled": 0, "rental_uris": {"android": "https://dc.lft.to/lastmile_qr_scan", "ios": "https://dc.lft.to/lastmile_qr_scan"}, "fusion_lon": 0.0, "lat": 38.9040785, "bike_id": "058dcb1eaaf8b66cad99e54df8cf5139", "type": "electric_scooter", "is_reserved": 0, "lon": -76.97328516666667}, {"fusion_lat": 0.0, "name": "cb54b1d37175aeab6a89b44199b9b05b", "is_disabled": 0, "rental_uris": {"android": "https://dc.lft.to/lastmile_qr_scan", "ios": "https://dc.lft.to/lastmile_qr_scan"}, "fusion_lon": 0.0, "lat": 38.94152316666667, "bike_id": "cb54b1d37175aeab6a89b44199b9b05b", "type": "electric_bike", "is_reserved": 0, "lon": -77.001999}, {"fusion_lat": 0.0, "name": "c2b9f88db6d2476b6ec986d72bcf1261", "is_disabled": 0, "rental_uris": {"android": "https://dc.lft.to/lastmile_qr_scan", "ios": "https://dc.lft.to/lastmile_qr_scan"}, "fusion_lon": 0.0, "lat": 38.904282333333335, "bike_id": "c2b9f88db6d2476b6ec986d72bcf1261", "type": "electric_scooter", "is_reserved": 0, "lon": -77.01878966666666}, {"fusion_lat": 0.0, "name": "044a0f431df4312961a85cb61ecde00b", "is_disabled": 0, "rental_uris": {"android": "https://dc.lft.to/lastmile_qr_scan", "ios": "https://dc.lft.to/lastmile_qr_scan"}, "fusion_lon": 0.0, "lat": 38.98790433333333, "bike_id": "044a0f431df4312961a85cb61ecde00b", "type": "electric_bike", "is_reserved": 0, "lon": -77.141005}, {"fusion_lat": 0.0, "name": "a345148fc8e2dc6186c6bde3a9b8e2e4", "is_disabled": 0, "rental_uris": {"android": "https://dc.lft.to/lastmile_qr_scan", "ios": "https://dc.lft.to/lastmile_qr_scan"}, "fusion_lon": 0.0, "lat": 38.907373666666665, "bike_id": "a345148fc8e2dc6186c6bde3a9b8e2e4", "type": "electric_scooter", "is_reserved": 0, "lon": -77.00374966666666}, {"fusion_lat": 0.0, "name": "c04eb673b10084c55318dd3eb753e2c5", "is_disabled": 0, "rental_uris": {"android": "https://dc.lft.to/lastmile_qr_scan", "ios": "https://dc.lft.to/lastmile_qr_scan"}, "fusion_lon": 0.0, "lat": 38.9111615, "bike_id": "c04eb673b10084c55318dd3eb753e2c5", "type": "electric_scooter", "is_reserved": 0, "lon": -77.02767366666667}, {"fusion_lat": 0.0, "name": "097f5dd430dacd41e14195cf639b62c1", "is_disabled": 0, "rental_uris": {"android": "https://dc.lft.to/lastmile_qr_scan", "ios": "https://dc.lft.to/lastmile_qr_scan"}, "fusion_lon": 0.0, "lat": 38.881348, "bike_id": "097f5dd430dacd41e14195cf639b62c1", "type": "electric_scooter", "is_reserved": 0, "lon": -77.0271705}, {"fusion_lat": 0.0, "name": "ffbbddf00274000ead0674ad3d976133", "is_disabled": 0, "rental_uris": {"android": "https://dc.lft.to/lastmile_qr_scan", "ios": "https://dc.lft.to/lastmile_qr_scan"}, "fusion_lon": 0.0, "lat": 38.89120583333333, "bike_id": "ffbbddf00274000ead0674ad3d976133", "type": "electric_scooter", "is_reserved": 0, "lon": -76.943806}, {"fusion_lat": 0.0, "name": "e4b026b28c7c9e85ce235cd02817896d", "is_disabled": 0, "rental_uris": {"android": "https://dc.lft.to/lastmile_qr_scan", "ios": "https://dc.lft.to/lastmile_qr_scan"}, "fusion_lon": 0.0, "lat": 38.96989933333333, "bike_id": "e4b026b28c7c9e85ce235cd02817896d", "type": "electric_scooter", "is_reserved": 0, "lon": -77.01160183333333}, {"fusion_lat": 0.0, "name": "84b062ef914ed8704cbd38cb6026b605", "is_disabled": 0, "rental_uris": {"android": "https://dc.lft.to/lastmile_qr_scan", "ios": "https://dc.lft.to/lastmile_qr_scan"}, "fusion_lon": 0.0, "lat": 38.96184916666667, "bike_id": "84b062ef914ed8704cbd38cb6026b605", "type": "electric_bike", "is_reserved": 0, "lon": -77.05268216666667}, {"fusion_lat": 0.0, "name": "ba7a52184b3196993ca4c7180988057c", "is_disabled": 0, "rental_uris": {"android": "https://dc.lft.to/lastmile_qr_scan", "ios": "https://dc.lft.to/lastmile_qr_scan"}, "fusion_lon": 0.0, "lat": 38.90372683333333, "bike_id": "ba7a52184b3196993ca4c7180988057c", "type": "electric_scooter", "is_reserved": 0, "lon": -77.018736}, {"fusion_lat": 0.0, "name": "aba02fead0c3c1071cb0690dffbd3525", "is_disabled": 0, "rental_uris": {"android": "https://dc.lft.to/lastmile_qr_scan", "ios": "https://dc.lft.to/lastmile_qr_scan"}, "fusion_lon": 0.0, "lat": 38.908582833333334, "bike_id": "aba02fead0c3c1071cb0690dffbd3525", "type": "electric_scooter", "is_reserved": 0, "lon": -77.043084}, {"fusion_lat": 0.0, "name": "d7e33c90663c4c553cb58d3730bcdc9b", "is_disabled": 0, "rental_uris": {"android": "https://dc.lft.to/lastmile_qr_scan", "ios": "https://dc.lft.to/lastmile_qr_scan"}, "fusion_lon": 0.0, "lat": 38.97376966666667, "bike_id": "d7e33c90663c4c553cb58d3730bcdc9b", "type": "electric_scooter", "is_reserved": 0, "lon": -77.01285433333334}, {"fusion_lat": 0.0, "name": "55cf6fa500f12243eb2e60c4f8f4f6cd", "is_disabled": 0, "rental_uris": {"android": "https://dc.lft.to/lastmile_qr_scan", "ios": "https://dc.lft.to/lastmile_qr_scan"}, "fusion_lon": 0.0, "lat": 38.9306295, "bike_id": "55cf6fa500f12243eb2e60c4f8f4f6cd", "type": "electric_scooter", "is_reserved": 0, "lon": -77.04057433333334}, {"fusion_lat": 0.0, "name": "71d3149c963f4e3fe3b4105c1fc6a459", "is_disabled": 0, "rental_uris": {"android": "https://dc.lft.to/lastmile_qr_scan", "ios": "https://dc.lft.to/lastmile_qr_scan"}, "fusion_lon": 0.0, "lat": 38.8993795, "bike_id": "71d3149c963f4e3fe3b4105c1fc6a459", "type": "electric_scooter", "is_reserved": 0, "lon": -77.029499}, {"fusion_lat": 0.0, "name": "9a2b59c4da313ed114c71e3f1d23d06b", "is_disabled": 0, "rental_uris": {"android": "https://dc.lft.to/lastmile_qr_scan", "ios": "https://dc.lft.to/lastmile_qr_scan"}, "fusion_lon": 0.0, "lat": 38.89800283333334, "bike_id": "9a2b59c4da313ed114c71e3f1d23d06b", "type": "electric_scooter", "is_reserved": 0, "lon": -77.022281}, {"fusion_lat": 0.0, "name": "9740e5375e3a43ee0b2b87e05adfc42d", "is_disabled": 0, "rental_uris": {"android": "https://dc.lft.to/lastmile_qr_scan", "ios": "https://dc.lft.to/lastmile_qr_scan"}, "fusion_lon": 0.0, "lat": 38.90973266666666, "bike_id": "9740e5375e3a43ee0b2b87e05adfc42d", "type": "electric_scooter", "is_reserved": 0, "lon": -77.04472883333334}, {"fusion_lat": 0.0, "name": "6803a924cacf26f9a3fea0078120a51a", "is_disabled": 0, "rental_uris": {"android": "https://dc.lft.to/lastmile_qr_scan", "ios": "https://dc.lft.to/lastmile_qr_scan"}, "fusion_lon": 0.0, "lat": 38.924518, "bike_id": "6803a924cacf26f9a3fea0078120a51a", "type": "electric_scooter", "is_reserved": 0, "lon": -77.04025533333333}, {"fusion_lat": 0.0, "name": "2c6a00bb7de033cef26e9abd781bc752", "is_disabled": 0, "rental_uris": {"android": "https://dc.lft.to/lastmile_qr_scan", "ios": "https://dc.lft.to/lastmile_qr_scan"}, "fusion_lon": 0.0, "lat": 38.88723233333333, "bike_id": "2c6a00bb7de033cef26e9abd781bc752", "type": "electric_scooter", "is_reserved": 0, "lon": -76.98356433333333}, {"fusion_lat": 0.0, "name": "b9dbe526d386d001f619fda8f12a7dcb", "is_disabled": 0, "rental_uris": {"android": "https://dc.lft.to/lastmile_qr_scan", "ios": "https://dc.lft.to/lastmile_qr_scan"}, "fusion_lon": 0.0, "lat": 38.9050245, "bike_id": "b9dbe526d386d001f619fda8f12a7dcb", "type": "electric_scooter", "is_reserved": 0, "lon": -77.06512616666667}, {"fusion_lat": 0.0, "name": "db219dfa3fd78ad6b8a4959267e29045", "is_disabled": 0, "rental_uris": {"android": "https://dc.lft.to/lastmile_qr_scan", "ios": "https://dc.lft.to/lastmile_qr_scan"}, "fusion_lon": 0.0, "lat": 38.9018015, "bike_id": "db219dfa3fd78ad6b8a4959267e29045", "type": "electric_scooter", "is_reserved": 0, "lon": -77.0501295}, {"fusion_lat": 0.0, "name": "d239485223abd2658245df6248c0bdc6", "is_disabled": 0, "rental_uris": {"android": "https://dc.lft.to/lastmile_qr_scan", "ios": "https://dc.lft.to/lastmile_qr_scan"}, "fusion_lon": 0.0, "lat": 38.89742616666667, "bike_id": "d239485223abd2658245df6248c0bdc6", "type": "electric_scooter", "is_reserved": 0, "lon": -77.00332516666667}, {"fusion_lat": 0.0, "name": "f5be2175fa52282cbc3747b8ff8f4056", "is_disabled": 0, "rental_uris": {"android": "https://dc.lft.to/lastmile_qr_scan", "ios": "https://dc.lft.to/lastmile_qr_scan"}, "fusion_lon": 0.0, "lat": 38.885208666666664, "bike_id": "f5be2175fa52282cbc3747b8ff8f4056", "type": "electric_scooter", "is_reserved": 0, "lon": -77.01526183333333}, {"fusion_lat": 0.0, "name": "94bce7d02b9ce7089157aeb90b5fad84", "is_disabled": 0, "rental_uris": {"android": "https://dc.lft.to/lastmile_qr_scan", "ios": "https://dc.lft.to/lastmile_qr_scan"}, "fusion_lon": 0.0, "lat": 38.89333533333333, "bike_id": "94bce7d02b9ce7089157aeb90b5fad84", "type": "electric_scooter", "is_reserved": 0, "lon": -77.02245033333334}, {"fusion_lat": 0.0, "name": "19b57c732db89ff16882f7a789fe2b55", "is_disabled": 0, "rental_uris": {"android": "https://dc.lft.to/lastmile_qr_scan", "ios": "https://dc.lft.to/lastmile_qr_scan"}, "fusion_lon": 0.0, "lat": 38.900139333333335, "bike_id": "19b57c732db89ff16882f7a789fe2b55", "type": "electric_scooter", "is_reserved": 0, "lon": -77.01245533333334}, {"fusion_lat": 0.0, "name": "c70ea825e74d0188c214612c868deba9", "is_disabled": 0, "rental_uris": {"android": "https://dc.lft.to/lastmile_qr_scan", "ios": "https://dc.lft.to/lastmile_qr_scan"}, "fusion_lon": 0.0, "lat": 38.92078, "bike_id": "c70ea825e74d0188c214612c868deba9", "type": "electric_bike", "is_reserved": 0, "lon": -76.98948916666667}, {"fusion_lat": 0.0, "name": "4fe745a140b507f89f741680cfa4c643", "is_disabled": 0, "rental_uris": {"android": "https://dc.lft.to/lastmile_qr_scan", "ios": "https://dc.lft.to/lastmile_qr_scan"}, "fusion_lon": 0.0, "lat": 38.9282365, "bike_id": "4fe745a140b507f89f741680cfa4c643", "type": "electric_scooter", "is_reserved": 0, "lon": -77.0225855}, {"fusion_lat": 0.0, "name": "66bf7cb72bbf67349d6758128cb8d8c5", "is_disabled": 0, "rental_uris": {"android": "https://dc.lft.to/lastmile_qr_scan", "ios": "https://dc.lft.to/lastmile_qr_scan"}, "fusion_lon": 0.0, "lat": 38.94228833333333, "bike_id": "66bf7cb72bbf67349d6758128cb8d8c5", "type": "electric_scooter", "is_reserved": 0, "lon": -77.01387116666666}, {"fusion_lat": 0.0, "name": "5b2ed5ef7e159bde601dd96cc2bfd993", "is_disabled": 0, "rental_uris": {"android": "https://dc.lft.to/lastmile_qr_scan", "ios": "https://dc.lft.to/lastmile_qr_scan"}, "fusion_lon": 0.0, "lat": 38.9364755, "bike_id": "5b2ed5ef7e159bde601dd96cc2bfd993", "type": "electric_scooter", "is_reserved": 0, "lon": -77.03055383333333}, {"fusion_lat": 0.0, "name": "6f75d303eb877c2e00582d19bd5613eb", "is_disabled": 0, "rental_uris": {"android": "https://dc.lft.to/lastmile_qr_scan", "ios": "https://dc.lft.to/lastmile_qr_scan"}, "fusion_lon": 0.0, "lat": 38.906891, "bike_id": "6f75d303eb877c2e00582d19bd5613eb", "type": "electric_scooter", "is_reserved": 0, "lon": -76.99983166666667}, {"fusion_lat": 0.0, "name": "32fafd507ebc1c26a9bd4a3c9e17efec", "is_disabled": 0, "rental_uris": {"android": "https://dc.lft.to/lastmile_qr_scan", "ios": "https://dc.lft.to/lastmile_qr_scan"}, "fusion_lon": 0.0, "lat": 38.919521833333334, "bike_id": "32fafd507ebc1c26a9bd4a3c9e17efec", "type": "electric_scooter", "is_reserved": 0, "lon": -77.01783866666666}, {"fusion_lat": 0.0, "name": "a7a00b6eef4c98b840055baf82b4c34f", "is_disabled": 0, "rental_uris": {"android": "https://dc.lft.to/lastmile_qr_scan", "ios": "https://dc.lft.to/lastmile_qr_scan"}, "fusion_lon": 0.0, "lat": 38.87876716666667, "bike_id": "a7a00b6eef4c98b840055baf82b4c34f", "type": "electric_scooter", "is_reserved": 0, "lon": -77.02322}, {"fusion_lat": 0.0, "name": "bc4b87880b85247e93fe569a0008a6cd", "is_disabled": 0, "rental_uris": {"android": "https://dc.lft.to/lastmile_qr_scan", "ios": "https://dc.lft.to/lastmile_qr_scan"}, "fusion_lon": 0.0, "lat": 38.878517333333335, "bike_id": "bc4b87880b85247e93fe569a0008a6cd", "type": "electric_bike", "is_reserved": 0, "lon": -77.030237}, {"fusion_lat": 0.0, "name": "11ce9fa93f0e0c1c54a1c3fbc7c7f836", "is_disabled": 0, "rental_uris": {"android": "https://dc.lft.to/lastmile_qr_scan", "ios": "https://dc.lft.to/lastmile_qr_scan"}, "fusion_lon": 0.0, "lat": 38.936741166666664, "bike_id": "11ce9fa93f0e0c1c54a1c3fbc7c7f836", "type": "electric_scooter", "is_reserved": 0, "lon": -77.03596666666667}, {"fusion_lat": 0.0, "name": "b80e2d66239e8331f272a7c4724b2171", "is_disabled": 0, "rental_uris": {"android": "https://dc.lft.to/lastmile_qr_scan", "ios": "https://dc.lft.to/lastmile_qr_scan"}, "fusion_lon": 0.0, "lat": 38.912614166666664, "bike_id": "b80e2d66239e8331f272a7c4724b2171", "type": "electric_scooter", "is_reserved": 0, "lon": -77.03126383333333}, {"fusion_lat": 0.0, "name": "11d4cf0a9c0db629a82ebc212471c4c8", "is_disabled": 0, "rental_uris": {"android": "https://dc.lft.to/lastmile_qr_scan", "ios": "https://dc.lft.to/lastmile_qr_scan"}, "fusion_lon": 0.0, "lat": 38.90959633333333, "bike_id": "11d4cf0a9c0db629a82ebc212471c4c8", "type": "electric_scooter", "is_reserved": 0, "lon": -77.045606}, {"fusion_lat": 0.0, "name": "eeaaba7d5337d1b76b0c5fb227dfa29d", "is_disabled": 0, "rental_uris": {"android": "https://dc.lft.to/lastmile_qr_scan", "ios": "https://dc.lft.to/lastmile_qr_scan"}, "fusion_lon": 0.0, "lat": 38.90384383333333, "bike_id": "eeaaba7d5337d1b76b0c5fb227dfa29d", "type": "electric_scooter", "is_reserved": 0, "lon": -77.045883}, {"fusion_lat": 0.0, "name": "1006fcbdddcb6c2c8a95a9b19de1efc9", "is_disabled": 0, "rental_uris": {"android": "https://dc.lft.to/lastmile_qr_scan", "ios": "https://dc.lft.to/lastmile_qr_scan"}, "fusion_lon": 0.0, "lat": 38.880101333333336, "bike_id": "1006fcbdddcb6c2c8a95a9b19de1efc9", "type": "electric_scooter", "is_reserved": 0, "lon": -77.02449116666666}, {"fusion_lat": 0.0, "name": "2cc7e4cba8b813ef9028c52398987c99", "is_disabled": 0, "rental_uris": {"android": "https://dc.lft.to/lastmile_qr_scan", "ios": "https://dc.lft.to/lastmile_qr_scan"}, "fusion_lon": 0.0, "lat": 38.921186666666664, "bike_id": "2cc7e4cba8b813ef9028c52398987c99", "type": "electric_scooter", "is_reserved": 0, "lon": -77.0121495}, {"fusion_lat": 0.0, "name": "23e96cd04fb0a20364b245991bce5da1", "is_disabled": 0, "rental_uris": {"android": "https://dc.lft.to/lastmile_qr_scan", "ios": "https://dc.lft.to/lastmile_qr_scan"}, "fusion_lon": 0.0, "lat": 38.927492, "bike_id": "23e96cd04fb0a20364b245991bce5da1", "type": "electric_scooter", "is_reserved": 0, "lon": -77.0216325}, {"fusion_lat": 0.0, "name": "1f3848a4e4c521e8d50d5949ec5953b9", "is_disabled": 0, "rental_uris": {"android": "https://dc.lft.to/lastmile_qr_scan", "ios": "https://dc.lft.to/lastmile_qr_scan"}, "fusion_lon": 0.0, "lat": 38.9119425, "bike_id": "1f3848a4e4c521e8d50d5949ec5953b9", "type": "electric_scooter", "is_reserved": 0, "lon": -77.06014716666667}, {"fusion_lat": 0.0, "name": "c80126f8a6bac902937cefe0c7e34454", "is_disabled": 0, "rental_uris": {"android": "https://dc.lft.to/lastmile_qr_scan", "ios": "https://dc.lft.to/lastmile_qr_scan"}, "fusion_lon": 0.0, "lat": 38.876335833333336, "bike_id": "c80126f8a6bac902937cefe0c7e34454", "type": "electric_scooter", "is_reserved": 0, "lon": -77.009511}, {"fusion_lat": 0.0, "name": "8af38a66c0a2b0f5092649dba6247afc", "is_disabled": 0, "rental_uris": {"android": "https://dc.lft.to/lastmile_qr_scan", "ios": "https://dc.lft.to/lastmile_qr_scan"}, "fusion_lon": 0.0, "lat": 38.9236575, "bike_id": "8af38a66c0a2b0f5092649dba6247afc", "type": "electric_scooter", "is_reserved": 0, "lon": -77.01955566666666}, {"fusion_lat": 0.0, "name": "542ddbc8eaf7ccc3a88f6ac66f7ac3e3", "is_disabled": 0, "rental_uris": {"android": "https://dc.lft.to/lastmile_qr_scan", "ios": "https://dc.lft.to/lastmile_qr_scan"}, "fusion_lon": 0.0, "lat": 38.9260225, "bike_id": "542ddbc8eaf7ccc3a88f6ac66f7ac3e3", "type": "electric_scooter", "is_reserved": 0, "lon": -77.02222883333333}, {"fusion_lat": 0.0, "name": "5ade112354e76c7e5285c2a429e2e079", "is_disabled": 0, "rental_uris": {"android": "https://dc.lft.to/lastmile_qr_scan", "ios": "https://dc.lft.to/lastmile_qr_scan"}, "fusion_lon": 0.0, "lat": 38.87660433333333, "bike_id": "5ade112354e76c7e5285c2a429e2e079", "type": "electric_scooter", "is_reserved": 0, "lon": -77.00842216666666}, {"fusion_lat": 0.0, "name": "8c2a6cd957223b2a73ea31ff6bea39f2", "is_disabled": 0, "rental_uris": {"android": "https://dc.lft.to/lastmile_qr_scan", "ios": "https://dc.lft.to/lastmile_qr_scan"}, "fusion_lon": 0.0, "lat": 38.940204, "bike_id": "8c2a6cd957223b2a73ea31ff6bea39f2", "type": "electric_scooter", "is_reserved": 0, "lon": -77.02779233333334}, {"fusion_lat": 0.0, "name": "2b8942858f302c73708bd8f7f1cab8bb", "is_disabled": 0, "rental_uris": {"android": "https://dc.lft.to/lastmile_qr_scan", "ios": "https://dc.lft.to/lastmile_qr_scan"}, "fusion_lon": 0.0, "lat": 38.88755233333333, "bike_id": "2b8942858f302c73708bd8f7f1cab8bb", "type": "electric_scooter", "is_reserved": 0, "lon": -77.00175166666666}, {"fusion_lat": 0.0, "name": "4eb01dabe7d4a29e7652dc3609f6aa24", "is_disabled": 0, "rental_uris": {"android": "https://dc.lft.to/lastmile_qr_scan", "ios": "https://dc.lft.to/lastmile_qr_scan"}, "fusion_lon": 0.0, "lat": 38.919079333333336, "bike_id": "4eb01dabe7d4a29e7652dc3609f6aa24", "type": "electric_scooter", "is_reserved": 0, "lon": -77.01225516666666}, {"fusion_lat": 0.0, "name": "f92e1d3cd7b325b66d452b17bc6e975a", "is_disabled": 0, "rental_uris": {"android": "https://dc.lft.to/lastmile_qr_scan", "ios": "https://dc.lft.to/lastmile_qr_scan"}, "fusion_lon": 0.0, "lat": 38.919244, "bike_id": "f92e1d3cd7b325b66d452b17bc6e975a", "type": "electric_scooter", "is_reserved": 0, "lon": -77.02496733333334}, {"fusion_lat": 0.0, "name": "4f9f23b86d23b6c2fa0e2dd13e46491f", "is_disabled": 0, "rental_uris": {"android": "https://dc.lft.to/lastmile_qr_scan", "ios": "https://dc.lft.to/lastmile_qr_scan"}, "fusion_lon": 0.0, "lat": 38.913948500000004, "bike_id": "4f9f23b86d23b6c2fa0e2dd13e46491f", "type": "electric_scooter", "is_reserved": 0, "lon": -77.03186033333333}, {"fusion_lat": 0.0, "name": "17aaa382bffa1f7f7bbd811764934b96", "is_disabled": 0, "rental_uris": {"android": "https://dc.lft.to/lastmile_qr_scan", "ios": "https://dc.lft.to/lastmile_qr_scan"}, "fusion_lon": 0.0, "lat": 38.9181765, "bike_id": "17aaa382bffa1f7f7bbd811764934b96", "type": "electric_scooter", "is_reserved": 0, "lon": -77.03082366666666}, {"fusion_lat": 0.0, "name": "a12a0a7a09780377aa80224af5606a3a", "is_disabled": 0, "rental_uris": {"android": "https://dc.lft.to/lastmile_qr_scan", "ios": "https://dc.lft.to/lastmile_qr_scan"}, "fusion_lon": 0.0, "lat": 38.91266066666667, "bike_id": "a12a0a7a09780377aa80224af5606a3a", "type": "electric_scooter", "is_reserved": 0, "lon": -77.03327333333333}, {"fusion_lat": 0.0, "name": "de0b1acb3e2bc557ac6fcd0124006f4c", "is_disabled": 0, "rental_uris": {"android": "https://dc.lft.to/lastmile_qr_scan", "ios": "https://dc.lft.to/lastmile_qr_scan"}, "fusion_lon": 0.0, "lat": 38.9036945, "bike_id": "de0b1acb3e2bc557ac6fcd0124006f4c", "type": "electric_scooter", "is_reserved": 0, "lon": -77.03307833333334}, {"fusion_lat": 0.0, "name": "5de4b9fc4441b2bf6c664a01433982d0", "is_disabled": 0, "rental_uris": {"android": "https://dc.lft.to/lastmile_qr_scan", "ios": "https://dc.lft.to/lastmile_qr_scan"}, "fusion_lon": 0.0, "lat": 38.88065066666667, "bike_id": "5de4b9fc4441b2bf6c664a01433982d0", "type": "electric_scooter", "is_reserved": 0, "lon": -76.93221033333333}, {"fusion_lat": 0.0, "name": "8862585fe1fc8b0d6df0a256fbaf47a0", "is_disabled": 0, "rental_uris": {"android": "https://dc.lft.to/lastmile_qr_scan", "ios": "https://dc.lft.to/lastmile_qr_scan"}, "fusion_lon": 0.0, "lat": 38.91635866666667, "bike_id": "8862585fe1fc8b0d6df0a256fbaf47a0", "type": "electric_scooter", "is_reserved": 0, "lon": -77.03220433333334}, {"fusion_lat": 0.0, "name": "5440a860291a6f015b9eb8e594c4e589", "is_disabled": 0, "rental_uris": {"android": "https://dc.lft.to/lastmile_qr_scan", "ios": "https://dc.lft.to/lastmile_qr_scan"}, "fusion_lon": 0.0, "lat": 38.9349155, "bike_id": "5440a860291a6f015b9eb8e594c4e589", "type": "electric_scooter", "is_reserved": 0, "lon": -77.0308245}, {"fusion_lat": 0.0, "name": "292eb449984aef8bf8180a5cea58cb61", "is_disabled": 0, "rental_uris": {"android": "https://dc.lft.to/lastmile_qr_scan", "ios": "https://dc.lft.to/lastmile_qr_scan"}, "fusion_lon": 0.0, "lat": 38.90004366666667, "bike_id": "292eb449984aef8bf8180a5cea58cb61", "type": "electric_scooter", "is_reserved": 0, "lon": -77.0164265}, {"fusion_lat": 0.0, "name": "7c0db78155429593fbbf72ffe05d4e53", "is_disabled": 0, "rental_uris": {"android": "https://dc.lft.to/lastmile_qr_scan", "ios": "https://dc.lft.to/lastmile_qr_scan"}, "fusion_lon": 0.0, "lat": 38.92555883333333, "bike_id": "7c0db78155429593fbbf72ffe05d4e53", "type": "electric_scooter", "is_reserved": 0, "lon": -77.02284}, {"fusion_lat": 0.0, "name": "ec3572cb6dc4690a350ecda60bf51796", "is_disabled": 0, "rental_uris": {"android": "https://dc.lft.to/lastmile_qr_scan", "ios": "https://dc.lft.to/lastmile_qr_scan"}, "fusion_lon": 0.0, "lat": 38.915663333333335, "bike_id": "ec3572cb6dc4690a350ecda60bf51796", "type": "electric_scooter", "is_reserved": 0, "lon": -77.05014166666666}, {"fusion_lat": 0.0, "name": "57803fd31e0e89782c48d4ac0ab289c5", "is_disabled": 0, "rental_uris": {"android": "https://dc.lft.to/lastmile_qr_scan", "ios": "https://dc.lft.to/lastmile_qr_scan"}, "fusion_lon": 0.0, "lat": 38.925073833333336, "bike_id": "57803fd31e0e89782c48d4ac0ab289c5", "type": "electric_scooter", "is_reserved": 0, "lon": -77.03822433333333}, {"fusion_lat": 0.0, "name": "6db9521316f09123d1a49e3275bbce88", "is_disabled": 0, "rental_uris": {"android": "https://dc.lft.to/lastmile_qr_scan", "ios": "https://dc.lft.to/lastmile_qr_scan"}, "fusion_lon": 0.0, "lat": 38.887196, "bike_id": "6db9521316f09123d1a49e3275bbce88", "type": "electric_scooter", "is_reserved": 0, "lon": -77.01984383333334}, {"fusion_lat": 0.0, "name": "58df34a75f27f3040a16f948ac1e0429", "is_disabled": 0, "rental_uris": {"android": "https://dc.lft.to/lastmile_qr_scan", "ios": "https://dc.lft.to/lastmile_qr_scan"}, "fusion_lon": 0.0, "lat": 38.90871516666667, "bike_id": "58df34a75f27f3040a16f948ac1e0429", "type": "electric_scooter", "is_reserved": 0, "lon": -77.04353}, {"fusion_lat": 0.0, "name": "5c0f663235da7d13ad6392f422a0215d", "is_disabled": 0, "rental_uris": {"android": "https://dc.lft.to/lastmile_qr_scan", "ios": "https://dc.lft.to/lastmile_qr_scan"}, "fusion_lon": 0.0, "lat": 38.909624666666666, "bike_id": "5c0f663235da7d13ad6392f422a0215d", "type": "electric_bike", "is_reserved": 0, "lon": -77.22893816666667}, {"fusion_lat": 0.0, "name": "ded3c66113af6ac8ffb47f8966b9e368", "is_disabled": 0, "rental_uris": {"android": "https://dc.lft.to/lastmile_qr_scan", "ios": "https://dc.lft.to/lastmile_qr_scan"}, "fusion_lon": 0.0, "lat": 38.9206755, "bike_id": "ded3c66113af6ac8ffb47f8966b9e368", "type": "electric_scooter", "is_reserved": 0, "lon": -77.02415216666667}, {"fusion_lat": 0.0, "name": "b6a78984d3fff80a6391603577b1aa10", "is_disabled": 0, "rental_uris": {"android": "https://dc.lft.to/lastmile_qr_scan", "ios": "https://dc.lft.to/lastmile_qr_scan"}, "fusion_lon": 0.0, "lat": 38.932411, "bike_id": "b6a78984d3fff80a6391603577b1aa10", "type": "electric_scooter", "is_reserved": 0, "lon": -77.0406645}, {"fusion_lat": 0.0, "name": "ff5f783a0a7ff36bdb26fb45372d332f", "is_disabled": 0, "rental_uris": {"android": "https://dc.lft.to/lastmile_qr_scan", "ios": "https://dc.lft.to/lastmile_qr_scan"}, "fusion_lon": 0.0, "lat": 38.888942, "bike_id": "ff5f783a0a7ff36bdb26fb45372d332f", "type": "electric_bike", "is_reserved": 0, "lon": -77.1152795}, {"fusion_lat": 0.0, "name": "19e775c2690bcb7eafc5583bd2b68d6e", "is_disabled": 0, "rental_uris": {"android": "https://dc.lft.to/lastmile_qr_scan", "ios": "https://dc.lft.to/lastmile_qr_scan"}, "fusion_lon": 0.0, "lat": 38.898513666666666, "bike_id": "19e775c2690bcb7eafc5583bd2b68d6e", "type": "electric_scooter", "is_reserved": 0, "lon": -76.99268816666667}, {"fusion_lat": 0.0, "name": "11e5d2ea44f608afb0bb56ea9b79fa6f", "is_disabled": 0, "rental_uris": {"android": "https://dc.lft.to/lastmile_qr_scan", "ios": "https://dc.lft.to/lastmile_qr_scan"}, "fusion_lon": 0.0, "lat": 38.90625433333334, "bike_id": "11e5d2ea44f608afb0bb56ea9b79fa6f", "type": "electric_scooter", "is_reserved": 0, "lon": -77.04142266666666}, {"fusion_lat": 0.0, "name": "b395f6a263a4b7cd82cf95b9fc0b0fdc", "is_disabled": 0, "rental_uris": {"android": "https://dc.lft.to/lastmile_qr_scan", "ios": "https://dc.lft.to/lastmile_qr_scan"}, "fusion_lon": 0.0, "lat": 38.91221683333333, "bike_id": "b395f6a263a4b7cd82cf95b9fc0b0fdc", "type": "electric_scooter", "is_reserved": 0, "lon": -77.0272775}, {"fusion_lat": 0.0, "name": "e7400bd43e3e80eba2cd09fcec382908", "is_disabled": 0, "rental_uris": {"android": "https://dc.lft.to/lastmile_qr_scan", "ios": "https://dc.lft.to/lastmile_qr_scan"}, "fusion_lon": 0.0, "lat": 38.92800583333333, "bike_id": "e7400bd43e3e80eba2cd09fcec382908", "type": "electric_scooter", "is_reserved": 0, "lon": -77.05530016666667}, {"fusion_lat": 0.0, "name": "899686ef4d6c089ce4aca1b816132923", "is_disabled": 0, "rental_uris": {"android": "https://dc.lft.to/lastmile_qr_scan", "ios": "https://dc.lft.to/lastmile_qr_scan"}, "fusion_lon": 0.0, "lat": 38.9054685, "bike_id": "899686ef4d6c089ce4aca1b816132923", "type": "electric_scooter", "is_reserved": 0, "lon": -77.03247783333333}, {"fusion_lat": 0.0, "name": "6dd3db348fb5b29840e2a75a27c247e9", "is_disabled": 0, "rental_uris": {"android": "https://dc.lft.to/lastmile_qr_scan", "ios": "https://dc.lft.to/lastmile_qr_scan"}, "fusion_lon": 0.0, "lat": 38.907894, "bike_id": "6dd3db348fb5b29840e2a75a27c247e9", "type": "electric_scooter", "is_reserved": 0, "lon": -77.04353683333333}, {"fusion_lat": 0.0, "name": "2dd0245836b8949da172e942285a217f", "is_disabled": 0, "rental_uris": {"android": "https://dc.lft.to/lastmile_qr_scan", "ios": "https://dc.lft.to/lastmile_qr_scan"}, "fusion_lon": 0.0, "lat": 38.887987833333334, "bike_id": "2dd0245836b8949da172e942285a217f", "type": "electric_bike", "is_reserved": 0, "lon": -76.92996049999999}, {"fusion_lat": 0.0, "name": "6c2092fb79ce97d32cbb4f2430ce5be7", "is_disabled": 0, "rental_uris": {"android": "https://dc.lft.to/lastmile_qr_scan", "ios": "https://dc.lft.to/lastmile_qr_scan"}, "fusion_lon": 0.0, "lat": 38.857008666666665, "bike_id": "6c2092fb79ce97d32cbb4f2430ce5be7", "type": "electric_scooter", "is_reserved": 0, "lon": -76.99602116666667}, {"fusion_lat": 0.0, "name": "09f5d10405169ba2b8d31ba9ebc17e61", "is_disabled": 0, "rental_uris": {"android": "https://dc.lft.to/lastmile_qr_scan", "ios": "https://dc.lft.to/lastmile_qr_scan"}, "fusion_lon": 0.0, "lat": 38.96730616666667, "bike_id": "09f5d10405169ba2b8d31ba9ebc17e61", "type": "electric_scooter", "is_reserved": 0, "lon": -77.00920583333334}, {"fusion_lat": 0.0, "name": "8542b9a5952072482805e24c5a2a7f60", "is_disabled": 0, "rental_uris": {"android": "https://dc.lft.to/lastmile_qr_scan", "ios": "https://dc.lft.to/lastmile_qr_scan"}, "fusion_lon": 0.0, "lat": 38.92461983333333, "bike_id": "8542b9a5952072482805e24c5a2a7f60", "type": "electric_scooter", "is_reserved": 0, "lon": -77.080335}, {"fusion_lat": 0.0, "name": "62f71061b7548880f01411648111eca3", "is_disabled": 0, "rental_uris": {"android": "https://dc.lft.to/lastmile_qr_scan", "ios": "https://dc.lft.to/lastmile_qr_scan"}, "fusion_lon": 0.0, "lat": 38.952434, "bike_id": "62f71061b7548880f01411648111eca3", "type": "electric_scooter", "is_reserved": 0, "lon": -77.023811}, {"fusion_lat": 0.0, "name": "0229c393e7d48e2d34225bc9ca1fcff1", "is_disabled": 0, "rental_uris": {"android": "https://dc.lft.to/lastmile_qr_scan", "ios": "https://dc.lft.to/lastmile_qr_scan"}, "fusion_lon": 0.0, "lat": 38.896296166666666, "bike_id": "0229c393e7d48e2d34225bc9ca1fcff1", "type": "electric_scooter", "is_reserved": 0, "lon": -77.02667366666667}, {"fusion_lat": 0.0, "name": "ac12c9d619a7f50b468c291b092aab1f", "is_disabled": 0, "rental_uris": {"android": "https://dc.lft.to/lastmile_qr_scan", "ios": "https://dc.lft.to/lastmile_qr_scan"}, "fusion_lon": 0.0, "lat": 38.893492, "bike_id": "ac12c9d619a7f50b468c291b092aab1f", "type": "electric_scooter", "is_reserved": 0, "lon": -77.000716}, {"fusion_lat": 0.0, "name": "772d21a238dbb2a8c299fa94f6662387", "is_disabled": 0, "rental_uris": {"android": "https://dc.lft.to/lastmile_qr_scan", "ios": "https://dc.lft.to/lastmile_qr_scan"}, "fusion_lon": 0.0, "lat": 38.89259166666667, "bike_id": "772d21a238dbb2a8c299fa94f6662387", "type": "electric_bike", "is_reserved": 0, "lon": -76.95120766666666}, {"fusion_lat": 0.0, "name": "b23e4dcd40522967d25c97138fe11777", "is_disabled": 0, "rental_uris": {"android": "https://dc.lft.to/lastmile_qr_scan", "ios": "https://dc.lft.to/lastmile_qr_scan"}, "fusion_lon": 0.0, "lat": 38.90092033333333, "bike_id": "b23e4dcd40522967d25c97138fe11777", "type": "electric_scooter", "is_reserved": 0, "lon": -77.0506455}, {"fusion_lat": 0.0, "name": "3355d2379899c710fa44912ffc51bf1f", "is_disabled": 0, "rental_uris": {"android": "https://dc.lft.to/lastmile_qr_scan", "ios": "https://dc.lft.to/lastmile_qr_scan"}, "fusion_lon": 0.0, "lat": 38.91361083333334, "bike_id": "3355d2379899c710fa44912ffc51bf1f", "type": "electric_scooter", "is_reserved": 0, "lon": -77.0204665}, {"fusion_lat": 0.0, "name": "9baf4612eb99739fa95a3da99463c66f", "is_disabled": 0, "rental_uris": {"android": "https://dc.lft.to/lastmile_qr_scan", "ios": "https://dc.lft.to/lastmile_qr_scan"}, "fusion_lon": 0.0, "lat": 38.9120185, "bike_id": "9baf4612eb99739fa95a3da99463c66f", "type": "electric_scooter", "is_reserved": 0, "lon": -77.03206966666667}, {"fusion_lat": 0.0, "name": "b01d708f30bd0ac60271015c8ba3cdc9", "is_disabled": 0, "rental_uris": {"android": "https://dc.lft.to/lastmile_qr_scan", "ios": "https://dc.lft.to/lastmile_qr_scan"}, "fusion_lon": 0.0, "lat": 38.920617666666665, "bike_id": "b01d708f30bd0ac60271015c8ba3cdc9", "type": "electric_scooter", "is_reserved": 0, "lon": -77.04199416666667}, {"fusion_lat": 0.0, "name": "fe73fcd98e31a39d450bfba23c0f8338", "is_disabled": 0, "rental_uris": {"android": "https://dc.lft.to/lastmile_qr_scan", "ios": "https://dc.lft.to/lastmile_qr_scan"}, "fusion_lon": 0.0, "lat": 38.91911016666667, "bike_id": "fe73fcd98e31a39d450bfba23c0f8338", "type": "electric_scooter", "is_reserved": 0, "lon": -77.0262635}, {"fusion_lat": 0.0, "name": "11fb209610a0878b5bb8db2929735111", "is_disabled": 0, "rental_uris": {"android": "https://dc.lft.to/lastmile_qr_scan", "ios": "https://dc.lft.to/lastmile_qr_scan"}, "fusion_lon": 0.0, "lat": 38.909958833333334, "bike_id": "11fb209610a0878b5bb8db2929735111", "type": "electric_scooter", "is_reserved": 0, "lon": -77.03103466666667}, {"fusion_lat": 0.0, "name": "aed40dae2fa1bf641b169e296c2e3783", "is_disabled": 0, "rental_uris": {"android": "https://dc.lft.to/lastmile_qr_scan", "ios": "https://dc.lft.to/lastmile_qr_scan"}, "fusion_lon": 0.0, "lat": 38.8831195, "bike_id": "aed40dae2fa1bf641b169e296c2e3783", "type": "electric_scooter", "is_reserved": 0, "lon": -77.0183335}, {"fusion_lat": 0.0, "name": "7622af2efa1e9d8b8dad23c01275d42b", "is_disabled": 0, "rental_uris": {"android": "https://dc.lft.to/lastmile_qr_scan", "ios": "https://dc.lft.to/lastmile_qr_scan"}, "fusion_lon": 0.0, "lat": 38.9035375, "bike_id": "7622af2efa1e9d8b8dad23c01275d42b", "type": "electric_scooter", "is_reserved": 0, "lon": -77.007415}, {"fusion_lat": 0.0, "name": "113b6aab2dc988985cdc2a114ca3cef7", "is_disabled": 0, "rental_uris": {"android": "https://dc.lft.to/lastmile_qr_scan", "ios": "https://dc.lft.to/lastmile_qr_scan"}, "fusion_lon": 0.0, "lat": 38.9006495, "bike_id": "113b6aab2dc988985cdc2a114ca3cef7", "type": "electric_scooter", "is_reserved": 0, "lon": -76.93386066666666}, {"fusion_lat": 0.0, "name": "d7c3b79d5a0fa843c40546ee8052313d", "is_disabled": 0, "rental_uris": {"android": "https://dc.lft.to/lastmile_qr_scan", "ios": "https://dc.lft.to/lastmile_qr_scan"}, "fusion_lon": 0.0, "lat": 38.88474433333333, "bike_id": "d7c3b79d5a0fa843c40546ee8052313d", "type": "electric_scooter", "is_reserved": 0, "lon": -76.99676166666667}, {"fusion_lat": 0.0, "name": "1b64f92479628fcdee1d1be3d0aeb0d7", "is_disabled": 0, "rental_uris": {"android": "https://dc.lft.to/lastmile_qr_scan", "ios": "https://dc.lft.to/lastmile_qr_scan"}, "fusion_lon": 0.0, "lat": 38.942299166666665, "bike_id": "1b64f92479628fcdee1d1be3d0aeb0d7", "type": "electric_scooter", "is_reserved": 0, "lon": -77.076418}, {"fusion_lat": 0.0, "name": "c75c0869de158b380c69f61853b35eb1", "is_disabled": 0, "rental_uris": {"android": "https://dc.lft.to/lastmile_qr_scan", "ios": "https://dc.lft.to/lastmile_qr_scan"}, "fusion_lon": 0.0, "lat": 38.932531, "bike_id": "c75c0869de158b380c69f61853b35eb1", "type": "electric_scooter", "is_reserved": 0, "lon": -77.03452483333334}, {"fusion_lat": 0.0, "name": "17bbbba1e166fa59236b7ed58af0d8b3", "is_disabled": 0, "rental_uris": {"android": "https://dc.lft.to/lastmile_qr_scan", "ios": "https://dc.lft.to/lastmile_qr_scan"}, "fusion_lon": 0.0, "lat": 38.90772366666667, "bike_id": "17bbbba1e166fa59236b7ed58af0d8b3", "type": "electric_scooter", "is_reserved": 0, "lon": -77.05598833333333}, {"fusion_lat": 0.0, "name": "02387781387ca27b502190b120d08c2e", "is_disabled": 0, "rental_uris": {"android": "https://dc.lft.to/lastmile_qr_scan", "ios": "https://dc.lft.to/lastmile_qr_scan"}, "fusion_lon": 0.0, "lat": 38.915521, "bike_id": "02387781387ca27b502190b120d08c2e", "type": "electric_scooter", "is_reserved": 0, "lon": -77.011357}, {"fusion_lat": 0.0, "name": "0ddf414534cd1898894b0340d3994732", "is_disabled": 0, "rental_uris": {"android": "https://dc.lft.to/lastmile_qr_scan", "ios": "https://dc.lft.to/lastmile_qr_scan"}, "fusion_lon": 0.0, "lat": 38.902393000000004, "bike_id": "0ddf414534cd1898894b0340d3994732", "type": "electric_scooter", "is_reserved": 0, "lon": -77.0282395}, {"fusion_lat": 0.0, "name": "39289e7f6f29b9148c83a2d82e27afc6", "is_disabled": 0, "rental_uris": {"android": "https://dc.lft.to/lastmile_qr_scan", "ios": "https://dc.lft.to/lastmile_qr_scan"}, "fusion_lon": 0.0, "lat": 38.886737333333336, "bike_id": "39289e7f6f29b9148c83a2d82e27afc6", "type": "electric_scooter", "is_reserved": 0, "lon": -77.0137315}, {"fusion_lat": 0.0, "name": "55c416188c5d94dcdbd9562b5c9c8714", "is_disabled": 0, "rental_uris": {"android": "https://dc.lft.to/lastmile_qr_scan", "ios": "https://dc.lft.to/lastmile_qr_scan"}, "fusion_lon": 0.0, "lat": 38.9245505, "bike_id": "55c416188c5d94dcdbd9562b5c9c8714", "type": "electric_scooter", "is_reserved": 0, "lon": -77.03425683333333}, {"fusion_lat": 0.0, "name": "ff15da2ea1ffef3aaaef5b3299ca65d6", "is_disabled": 0, "rental_uris": {"android": "https://dc.lft.to/lastmile_qr_scan", "ios": "https://dc.lft.to/lastmile_qr_scan"}, "fusion_lon": 0.0, "lat": 38.9110995, "bike_id": "ff15da2ea1ffef3aaaef5b3299ca65d6", "type": "electric_scooter", "is_reserved": 0, "lon": -77.045094}, {"fusion_lat": 0.0, "name": "13e7c61fbf21bad8f692d2cdd4499926", "is_disabled": 0, "rental_uris": {"android": "https://dc.lft.to/lastmile_qr_scan", "ios": "https://dc.lft.to/lastmile_qr_scan"}, "fusion_lon": 0.0, "lat": 38.835149333333334, "bike_id": "13e7c61fbf21bad8f692d2cdd4499926", "type": "electric_bike", "is_reserved": 0, "lon": -76.9867205}, {"fusion_lat": 0.0, "name": "d642e6c40be8b11a8b84a0bbe3250d3e", "is_disabled": 0, "rental_uris": {"android": "https://dc.lft.to/lastmile_qr_scan", "ios": "https://dc.lft.to/lastmile_qr_scan"}, "fusion_lon": 0.0, "lat": 38.899536833333336, "bike_id": "d642e6c40be8b11a8b84a0bbe3250d3e", "type": "electric_scooter", "is_reserved": 0, "lon": -77.047867}, {"fusion_lat": 0.0, "name": "9b1005b99c3cd1da5e4f3d0d8d74d8b2", "is_disabled": 0, "rental_uris": {"android": "https://dc.lft.to/lastmile_qr_scan", "ios": "https://dc.lft.to/lastmile_qr_scan"}, "fusion_lon": 0.0, "lat": 38.948617, "bike_id": "9b1005b99c3cd1da5e4f3d0d8d74d8b2", "type": "electric_scooter", "is_reserved": 0, "lon": -77.0257115}, {"fusion_lat": 0.0, "name": "bbcb2f2572c189a196dd4a6130fe1248", "is_disabled": 0, "rental_uris": {"android": "https://dc.lft.to/lastmile_qr_scan", "ios": "https://dc.lft.to/lastmile_qr_scan"}, "fusion_lon": 0.0, "lat": 38.896667, "bike_id": "bbcb2f2572c189a196dd4a6130fe1248", "type": "electric_scooter", "is_reserved": 0, "lon": -77.03350883333333}, {"fusion_lat": 0.0, "name": "cfce050d79cd9c29d997804dab886689", "is_disabled": 0, "rental_uris": {"android": "https://dc.lft.to/lastmile_qr_scan", "ios": "https://dc.lft.to/lastmile_qr_scan"}, "fusion_lon": 0.0, "lat": 38.9036225, "bike_id": "cfce050d79cd9c29d997804dab886689", "type": "electric_scooter", "is_reserved": 0, "lon": -77.05489166666666}, {"fusion_lat": 0.0, "name": "d0cd00800efaeed75af9b8897a5f686c", "is_disabled": 0, "rental_uris": {"android": "https://dc.lft.to/lastmile_qr_scan", "ios": "https://dc.lft.to/lastmile_qr_scan"}, "fusion_lon": 0.0, "lat": 38.9002545, "bike_id": "d0cd00800efaeed75af9b8897a5f686c", "type": "electric_scooter", "is_reserved": 0, "lon": -76.99860716666667}, {"fusion_lat": 0.0, "name": "d62ca62b946e3689faab9ad832d53960", "is_disabled": 0, "rental_uris": {"android": "https://dc.lft.to/lastmile_qr_scan", "ios": "https://dc.lft.to/lastmile_qr_scan"}, "fusion_lon": 0.0, "lat": 38.904513, "bike_id": "d62ca62b946e3689faab9ad832d53960", "type": "electric_bike", "is_reserved": 0, "lon": -76.97427666666667}, {"fusion_lat": 0.0, "name": "63e56b2540b0c321e6df8434ddaef737", "is_disabled": 0, "rental_uris": {"android": "https://dc.lft.to/lastmile_qr_scan", "ios": "https://dc.lft.to/lastmile_qr_scan"}, "fusion_lon": 0.0, "lat": 38.85564766666667, "bike_id": "63e56b2540b0c321e6df8434ddaef737", "type": "electric_bike", "is_reserved": 0, "lon": -77.11320466666666}, {"fusion_lat": 0.0, "name": "8b57bd6a512fcf0eb410ebe3e25571f2", "is_disabled": 0, "rental_uris": {"android": "https://dc.lft.to/lastmile_qr_scan", "ios": "https://dc.lft.to/lastmile_qr_scan"}, "fusion_lon": 0.0, "lat": 38.898484333333336, "bike_id": "8b57bd6a512fcf0eb410ebe3e25571f2", "type": "electric_scooter", "is_reserved": 0, "lon": -76.931812}, {"fusion_lat": 0.0, "name": "b226d0beb75a47017bc1c9f277963fc6", "is_disabled": 0, "rental_uris": {"android": "https://dc.lft.to/lastmile_qr_scan", "ios": "https://dc.lft.to/lastmile_qr_scan"}, "fusion_lon": 0.0, "lat": 38.90578683333333, "bike_id": "b226d0beb75a47017bc1c9f277963fc6", "type": "electric_scooter", "is_reserved": 0, "lon": -77.04358783333333}, {"fusion_lat": 0.0, "name": "634d5c745677296a09fea490c2a482bc", "is_disabled": 0, "rental_uris": {"android": "https://dc.lft.to/lastmile_qr_scan", "ios": "https://dc.lft.to/lastmile_qr_scan"}, "fusion_lon": 0.0, "lat": 38.897306, "bike_id": "634d5c745677296a09fea490c2a482bc", "type": "electric_scooter", "is_reserved": 0, "lon": -76.94705616666667}, {"fusion_lat": 0.0, "name": "61375a5285e45f35d96d9c4d0267343a", "is_disabled": 0, "rental_uris": {"android": "https://dc.lft.to/lastmile_qr_scan", "ios": "https://dc.lft.to/lastmile_qr_scan"}, "fusion_lon": 0.0, "lat": 38.840569333333335, "bike_id": "61375a5285e45f35d96d9c4d0267343a", "type": "electric_scooter", "is_reserved": 0, "lon": -76.9766425}, {"fusion_lat": 0.0, "name": "799a6ac7a0702532856269d4dd3b427b", "is_disabled": 0, "rental_uris": {"android": "https://dc.lft.to/lastmile_qr_scan", "ios": "https://dc.lft.to/lastmile_qr_scan"}, "fusion_lon": 0.0, "lat": 38.9037835, "bike_id": "799a6ac7a0702532856269d4dd3b427b", "type": "electric_scooter", "is_reserved": 0, "lon": -77.03465233333333}, {"fusion_lat": 0.0, "name": "01e50a9a230c048a7bceb56bc863b444", "is_disabled": 0, "rental_uris": {"android": "https://dc.lft.to/lastmile_qr_scan", "ios": "https://dc.lft.to/lastmile_qr_scan"}, "fusion_lon": 0.0, "lat": 38.908641833333334, "bike_id": "01e50a9a230c048a7bceb56bc863b444", "type": "electric_scooter", "is_reserved": 0, "lon": -76.99959983333333}, {"fusion_lat": 0.0, "name": "8eb3bc04bb8f16d10abab63939d87023", "is_disabled": 0, "rental_uris": {"android": "https://dc.lft.to/lastmile_qr_scan", "ios": "https://dc.lft.to/lastmile_qr_scan"}, "fusion_lon": 0.0, "lat": 38.858983333333335, "bike_id": "8eb3bc04bb8f16d10abab63939d87023", "type": "electric_bike", "is_reserved": 0, "lon": -77.09539533333333}, {"fusion_lat": 0.0, "name": "66b7d4c74deccaa86af343f82eca285b", "is_disabled": 0, "rental_uris": {"android": "https://dc.lft.to/lastmile_qr_scan", "ios": "https://dc.lft.to/lastmile_qr_scan"}, "fusion_lon": 0.0, "lat": 38.914268166666666, "bike_id": "66b7d4c74deccaa86af343f82eca285b", "type": "electric_scooter", "is_reserved": 0, "lon": -77.03180816666666}, {"fusion_lat": 0.0, "name": "8ec202f8405ed502ad7d53c2fa4daef1", "is_disabled": 0, "rental_uris": {"android": "https://dc.lft.to/lastmile_qr_scan", "ios": "https://dc.lft.to/lastmile_qr_scan"}, "fusion_lon": 0.0, "lat": 38.91717, "bike_id": "8ec202f8405ed502ad7d53c2fa4daef1", "type": "electric_scooter", "is_reserved": 0, "lon": -77.029617}, {"fusion_lat": 0.0, "name": "e616d57da23512eecbae94d552486542", "is_disabled": 0, "rental_uris": {"android": "https://dc.lft.to/lastmile_qr_scan", "ios": "https://dc.lft.to/lastmile_qr_scan"}, "fusion_lon": 0.0, "lat": 38.90944533333333, "bike_id": "e616d57da23512eecbae94d552486542", "type": "electric_scooter", "is_reserved": 0, "lon": -77.02116916666667}, {"fusion_lat": 0.0, "name": "9265f11550ed00e7b580eaebb03b9eb7", "is_disabled": 0, "rental_uris": {"android": "https://dc.lft.to/lastmile_qr_scan", "ios": "https://dc.lft.to/lastmile_qr_scan"}, "fusion_lon": 0.0, "lat": 38.939443833333335, "bike_id": "9265f11550ed00e7b580eaebb03b9eb7", "type": "electric_scooter", "is_reserved": 0, "lon": -77.03327016666667}, {"fusion_lat": 0.0, "name": "65050716a5121386a015967f7e48495c", "is_disabled": 0, "rental_uris": {"android": "https://dc.lft.to/lastmile_qr_scan", "ios": "https://dc.lft.to/lastmile_qr_scan"}, "fusion_lon": 0.0, "lat": 38.914259, "bike_id": "65050716a5121386a015967f7e48495c", "type": "electric_scooter", "is_reserved": 0, "lon": -77.03186}, {"fusion_lat": 0.0, "name": "3bac9e7eeffb9921db7e953f275e63cd", "is_disabled": 0, "rental_uris": {"android": "https://dc.lft.to/lastmile_qr_scan", "ios": "https://dc.lft.to/lastmile_qr_scan"}, "fusion_lon": 0.0, "lat": 38.897308, "bike_id": "3bac9e7eeffb9921db7e953f275e63cd", "type": "electric_scooter", "is_reserved": 0, "lon": -76.99140166666666}, {"fusion_lat": 0.0, "name": "119e045b8c6ae215bbadace33dcf3fa2", "is_disabled": 0, "rental_uris": {"android": "https://dc.lft.to/lastmile_qr_scan", "ios": "https://dc.lft.to/lastmile_qr_scan"}, "fusion_lon": 0.0, "lat": 38.9306885, "bike_id": "119e045b8c6ae215bbadace33dcf3fa2", "type": "electric_scooter", "is_reserved": 0, "lon": -77.031997}, {"fusion_lat": 0.0, "name": "a797684365d07c92e0ca0267a28c13a1", "is_disabled": 0, "rental_uris": {"android": "https://dc.lft.to/lastmile_qr_scan", "ios": "https://dc.lft.to/lastmile_qr_scan"}, "fusion_lon": 0.0, "lat": 38.920411, "bike_id": "a797684365d07c92e0ca0267a28c13a1", "type": "electric_scooter", "is_reserved": 0, "lon": -77.0339695}, {"fusion_lat": 0.0, "name": "11ca47432895728ee14b78f1f8f8386e", "is_disabled": 0, "rental_uris": {"android": "https://dc.lft.to/lastmile_qr_scan", "ios": "https://dc.lft.to/lastmile_qr_scan"}, "fusion_lon": 0.0, "lat": 38.88990916666667, "bike_id": "11ca47432895728ee14b78f1f8f8386e", "type": "electric_scooter", "is_reserved": 0, "lon": -76.98739933333333}, {"fusion_lat": 0.0, "name": "37c8b668ec2aa945049c53b5fac976e3", "is_disabled": 0, "rental_uris": {"android": "https://dc.lft.to/lastmile_qr_scan", "ios": "https://dc.lft.to/lastmile_qr_scan"}, "fusion_lon": 0.0, "lat": 38.917358, "bike_id": "37c8b668ec2aa945049c53b5fac976e3", "type": "electric_scooter", "is_reserved": 0, "lon": -77.048358}, {"fusion_lat": 0.0, "name": "7e4cf817c936d6f435173d3669626297", "is_disabled": 0, "rental_uris": {"android": "https://dc.lft.to/lastmile_qr_scan", "ios": "https://dc.lft.to/lastmile_qr_scan"}, "fusion_lon": 0.0, "lat": 38.91780033333333, "bike_id": "7e4cf817c936d6f435173d3669626297", "type": "electric_scooter", "is_reserved": 0, "lon": -77.02310066666666}, {"fusion_lat": 0.0, "name": "c2c42a3cd0f3feaf43502b55757f0ead", "is_disabled": 0, "rental_uris": {"android": "https://dc.lft.to/lastmile_qr_scan", "ios": "https://dc.lft.to/lastmile_qr_scan"}, "fusion_lon": 0.0, "lat": 38.91486033333334, "bike_id": "c2c42a3cd0f3feaf43502b55757f0ead", "type": "electric_scooter", "is_reserved": 0, "lon": -77.04161616666667}, {"fusion_lat": 0.0, "name": "b8a34179628dd1be3afe275ba4995d7b", "is_disabled": 0, "rental_uris": {"android": "https://dc.lft.to/lastmile_qr_scan", "ios": "https://dc.lft.to/lastmile_qr_scan"}, "fusion_lon": 0.0, "lat": 38.94703166666667, "bike_id": "b8a34179628dd1be3afe275ba4995d7b", "type": "electric_scooter", "is_reserved": 0, "lon": -77.01942966666667}, {"fusion_lat": 0.0, "name": "3a96844065542557ad196eb55a3dc525", "is_disabled": 0, "rental_uris": {"android": "https://dc.lft.to/lastmile_qr_scan", "ios": "https://dc.lft.to/lastmile_qr_scan"}, "fusion_lon": 0.0, "lat": 38.92282216666667, "bike_id": "3a96844065542557ad196eb55a3dc525", "type": "electric_scooter", "is_reserved": 0, "lon": -77.03655716666667}, {"fusion_lat": 0.0, "name": "a4f8ca3e0b17edb75bb7fa5c3ad0d49b", "is_disabled": 0, "rental_uris": {"android": "https://dc.lft.to/lastmile_qr_scan", "ios": "https://dc.lft.to/lastmile_qr_scan"}, "fusion_lon": 0.0, "lat": 38.92877683333333, "bike_id": "a4f8ca3e0b17edb75bb7fa5c3ad0d49b", "type": "electric_scooter", "is_reserved": 0, "lon": -77.033428}, {"fusion_lat": 0.0, "name": "609a08003937f88bff58c7af830864dc", "is_disabled": 0, "rental_uris": {"android": "https://dc.lft.to/lastmile_qr_scan", "ios": "https://dc.lft.to/lastmile_qr_scan"}, "fusion_lon": 0.0, "lat": 38.916042, "bike_id": "609a08003937f88bff58c7af830864dc", "type": "electric_scooter", "is_reserved": 0, "lon": -77.04334766666666}, {"fusion_lat": 0.0, "name": "e5c105ff102c9217cfe8a067331a0b5f", "is_disabled": 0, "rental_uris": {"android": "https://dc.lft.to/lastmile_qr_scan", "ios": "https://dc.lft.to/lastmile_qr_scan"}, "fusion_lon": 0.0, "lat": 38.88458266666667, "bike_id": "e5c105ff102c9217cfe8a067331a0b5f", "type": "electric_scooter", "is_reserved": 0, "lon": -76.99836083333334}, {"fusion_lat": 0.0, "name": "485adc0ae129c6f99b240fd9f998ee52", "is_disabled": 0, "rental_uris": {"android": "https://dc.lft.to/lastmile_qr_scan", "ios": "https://dc.lft.to/lastmile_qr_scan"}, "fusion_lon": 0.0, "lat": 38.93189366666667, "bike_id": "485adc0ae129c6f99b240fd9f998ee52", "type": "electric_scooter", "is_reserved": 0, "lon": -77.04300883333333}, {"fusion_lat": 0.0, "name": "dab742fc6b1cb6f8fd41409d67d1c84e", "is_disabled": 0, "rental_uris": {"android": "https://dc.lft.to/lastmile_qr_scan", "ios": "https://dc.lft.to/lastmile_qr_scan"}, "fusion_lon": 0.0, "lat": 38.88459916666667, "bike_id": "dab742fc6b1cb6f8fd41409d67d1c84e", "type": "electric_scooter", "is_reserved": 0, "lon": -76.9299755}, {"fusion_lat": 0.0, "name": "6982d15439668797aafa384c52eab273", "is_disabled": 0, "rental_uris": {"android": "https://dc.lft.to/lastmile_qr_scan", "ios": "https://dc.lft.to/lastmile_qr_scan"}, "fusion_lon": 0.0, "lat": 38.919711666666664, "bike_id": "6982d15439668797aafa384c52eab273", "type": "electric_scooter", "is_reserved": 0, "lon": -77.01806333333333}, {"fusion_lat": 0.0, "name": "1428b4a704eff5d0e4d5c5a0eb93d002", "is_disabled": 0, "rental_uris": {"android": "https://dc.lft.to/lastmile_qr_scan", "ios": "https://dc.lft.to/lastmile_qr_scan"}, "fusion_lon": 0.0, "lat": 38.91552766666667, "bike_id": "1428b4a704eff5d0e4d5c5a0eb93d002", "type": "electric_scooter", "is_reserved": 0, "lon": -77.00981366666667}, {"fusion_lat": 0.0, "name": "61ec1f7a07eadecf2cb90f66beaf0e14", "is_disabled": 0, "rental_uris": {"android": "https://dc.lft.to/lastmile_qr_scan", "ios": "https://dc.lft.to/lastmile_qr_scan"}, "fusion_lon": 0.0, "lat": 38.927622, "bike_id": "61ec1f7a07eadecf2cb90f66beaf0e14", "type": "electric_scooter", "is_reserved": 0, "lon": -77.02321083333334}, {"fusion_lat": 0.0, "name": "0575d1cdaf09783efeed9ae9447be480", "is_disabled": 0, "rental_uris": {"android": "https://dc.lft.to/lastmile_qr_scan", "ios": "https://dc.lft.to/lastmile_qr_scan"}, "fusion_lon": 0.0, "lat": 38.95711416666666, "bike_id": "0575d1cdaf09783efeed9ae9447be480", "type": "electric_scooter", "is_reserved": 0, "lon": -77.02407333333333}, {"fusion_lat": 0.0, "name": "d4da27d5beda960da9592de610939cd2", "is_disabled": 0, "rental_uris": {"android": "https://dc.lft.to/lastmile_qr_scan", "ios": "https://dc.lft.to/lastmile_qr_scan"}, "fusion_lon": 0.0, "lat": 38.91557233333333, "bike_id": "d4da27d5beda960da9592de610939cd2", "type": "electric_scooter", "is_reserved": 0, "lon": -77.0386365}, {"fusion_lat": 0.0, "name": "36991b7a446cae88f122fd38fda8c05e", "is_disabled": 0, "rental_uris": {"android": "https://dc.lft.to/lastmile_qr_scan", "ios": "https://dc.lft.to/lastmile_qr_scan"}, "fusion_lon": 0.0, "lat": 38.83235666666667, "bike_id": "36991b7a446cae88f122fd38fda8c05e", "type": "electric_bike", "is_reserved": 0, "lon": -76.94624683333333}, {"fusion_lat": 0.0, "name": "35808cc02c273c84785895958a980bec", "is_disabled": 0, "rental_uris": {"android": "https://dc.lft.to/lastmile_qr_scan", "ios": "https://dc.lft.to/lastmile_qr_scan"}, "fusion_lon": 0.0, "lat": 38.911197666666666, "bike_id": "35808cc02c273c84785895958a980bec", "type": "electric_scooter", "is_reserved": 0, "lon": -77.031786}, {"fusion_lat": 0.0, "name": "020ad4e78590045d41f168680df9cdbd", "is_disabled": 0, "rental_uris": {"android": "https://dc.lft.to/lastmile_qr_scan", "ios": "https://dc.lft.to/lastmile_qr_scan"}, "fusion_lon": 0.0, "lat": 38.91665316666667, "bike_id": "020ad4e78590045d41f168680df9cdbd", "type": "electric_scooter", "is_reserved": 0, "lon": -77.0229115}, {"fusion_lat": 0.0, "name": "d28810a01055d2ce4548174f67ba7c7d", "is_disabled": 0, "rental_uris": {"android": "https://dc.lft.to/lastmile_qr_scan", "ios": "https://dc.lft.to/lastmile_qr_scan"}, "fusion_lon": 0.0, "lat": 38.92255316666667, "bike_id": "d28810a01055d2ce4548174f67ba7c7d", "type": "electric_scooter", "is_reserved": 0, "lon": -77.05080816666667}, {"fusion_lat": 0.0, "name": "8a7497f97bef1bdbcf5bf8106edc25bf", "is_disabled": 0, "rental_uris": {"android": "https://dc.lft.to/lastmile_qr_scan", "ios": "https://dc.lft.to/lastmile_qr_scan"}, "fusion_lon": 0.0, "lat": 38.87635866666667, "bike_id": "8a7497f97bef1bdbcf5bf8106edc25bf", "type": "electric_scooter", "is_reserved": 0, "lon": -77.00912516666666}, {"fusion_lat": 0.0, "name": "38eaae9bff35ab2028086380bc8ff2a7", "is_disabled": 0, "rental_uris": {"android": "https://dc.lft.to/lastmile_qr_scan", "ios": "https://dc.lft.to/lastmile_qr_scan"}, "fusion_lon": 0.0, "lat": 38.905655833333334, "bike_id": "38eaae9bff35ab2028086380bc8ff2a7", "type": "electric_scooter", "is_reserved": 0, "lon": -77.06262433333333}, {"fusion_lat": 0.0, "name": "5a0f395891fbdba5efbeda07cc15dfe4", "is_disabled": 0, "rental_uris": {"android": "https://dc.lft.to/lastmile_qr_scan", "ios": "https://dc.lft.to/lastmile_qr_scan"}, "fusion_lon": 0.0, "lat": 38.9319055, "bike_id": "5a0f395891fbdba5efbeda07cc15dfe4", "type": "electric_scooter", "is_reserved": 0, "lon": -77.04303883333333}, {"fusion_lat": 0.0, "name": "fa2ca79772189ada666089f6abec3dca", "is_disabled": 0, "rental_uris": {"android": "https://dc.lft.to/lastmile_qr_scan", "ios": "https://dc.lft.to/lastmile_qr_scan"}, "fusion_lon": 0.0, "lat": 38.904090333333336, "bike_id": "fa2ca79772189ada666089f6abec3dca", "type": "electric_scooter", "is_reserved": 0, "lon": -76.97332866666666}, {"fusion_lat": 0.0, "name": "7478acd6ff688ab3cdf2fb017c8300ec", "is_disabled": 0, "rental_uris": {"android": "https://dc.lft.to/lastmile_qr_scan", "ios": "https://dc.lft.to/lastmile_qr_scan"}, "fusion_lon": 0.0, "lat": 38.887531833333334, "bike_id": "7478acd6ff688ab3cdf2fb017c8300ec", "type": "electric_scooter", "is_reserved": 0, "lon": -77.002592}, {"fusion_lat": 0.0, "name": "e251babea3e33eebeb735153db06dfa9", "is_disabled": 0, "rental_uris": {"android": "https://dc.lft.to/lastmile_qr_scan", "ios": "https://dc.lft.to/lastmile_qr_scan"}, "fusion_lon": 0.0, "lat": 38.878901166666665, "bike_id": "e251babea3e33eebeb735153db06dfa9", "type": "electric_scooter", "is_reserved": 0, "lon": -77.02261766666666}, {"fusion_lat": 0.0, "name": "803b5bd04b3c182bb59028a6d2d51731", "is_disabled": 0, "rental_uris": {"android": "https://dc.lft.to/lastmile_qr_scan", "ios": "https://dc.lft.to/lastmile_qr_scan"}, "fusion_lon": 0.0, "lat": 38.90420916666667, "bike_id": "803b5bd04b3c182bb59028a6d2d51731", "type": "electric_scooter", "is_reserved": 0, "lon": -77.04387883333334}, {"fusion_lat": 0.0, "name": "25ab7f069c3a9c5c7a2dda8917f111c7", "is_disabled": 0, "rental_uris": {"android": "https://dc.lft.to/lastmile_qr_scan", "ios": "https://dc.lft.to/lastmile_qr_scan"}, "fusion_lon": 0.0, "lat": 38.91020783333333, "bike_id": "25ab7f069c3a9c5c7a2dda8917f111c7", "type": "electric_scooter", "is_reserved": 0, "lon": -77.03868783333333}, {"fusion_lat": 0.0, "name": "e0a10a8c350bba06bb4090be5655f74c", "is_disabled": 0, "rental_uris": {"android": "https://dc.lft.to/lastmile_qr_scan", "ios": "https://dc.lft.to/lastmile_qr_scan"}, "fusion_lon": 0.0, "lat": 38.841354833333334, "bike_id": "e0a10a8c350bba06bb4090be5655f74c", "type": "electric_bike", "is_reserved": 0, "lon": -76.94766233333333}, {"fusion_lat": 0.0, "name": "109cdd4d5369b8d1fab4610149d9cc26", "is_disabled": 0, "rental_uris": {"android": "https://dc.lft.to/lastmile_qr_scan", "ios": "https://dc.lft.to/lastmile_qr_scan"}, "fusion_lon": 0.0, "lat": 38.8872455, "bike_id": "109cdd4d5369b8d1fab4610149d9cc26", "type": "electric_scooter", "is_reserved": 0, "lon": -76.983577}, {"fusion_lat": 0.0, "name": "e9d5806ef0f74e50fdb88b588c18d518", "is_disabled": 0, "rental_uris": {"android": "https://dc.lft.to/lastmile_qr_scan", "ios": "https://dc.lft.to/lastmile_qr_scan"}, "fusion_lon": 0.0, "lat": 38.9243565, "bike_id": "e9d5806ef0f74e50fdb88b588c18d518", "type": "electric_scooter", "is_reserved": 0, "lon": -77.000657}, {"fusion_lat": 0.0, "name": "2464b1d75acfd1d8faac9082be2dfe5e", "is_disabled": 0, "rental_uris": {"android": "https://dc.lft.to/lastmile_qr_scan", "ios": "https://dc.lft.to/lastmile_qr_scan"}, "fusion_lon": 0.0, "lat": 38.9196775, "bike_id": "2464b1d75acfd1d8faac9082be2dfe5e", "type": "electric_scooter", "is_reserved": 0, "lon": -77.024966}, {"fusion_lat": 0.0, "name": "8045f2456a22409eac368b0ab7e208e4", "is_disabled": 0, "rental_uris": {"android": "https://dc.lft.to/lastmile_qr_scan", "ios": "https://dc.lft.to/lastmile_qr_scan"}, "fusion_lon": 0.0, "lat": 38.881344166666665, "bike_id": "8045f2456a22409eac368b0ab7e208e4", "type": "electric_scooter", "is_reserved": 0, "lon": -77.02713433333334}, {"fusion_lat": 0.0, "name": "331cdc7716a0aa3c16c8acee76533bed", "is_disabled": 0, "rental_uris": {"android": "https://dc.lft.to/lastmile_qr_scan", "ios": "https://dc.lft.to/lastmile_qr_scan"}, "fusion_lon": 0.0, "lat": 38.87923883333333, "bike_id": "331cdc7716a0aa3c16c8acee76533bed", "type": "electric_scooter", "is_reserved": 0, "lon": -76.94490883333333}, {"fusion_lat": 0.0, "name": "98d508b2f91efd4632fe98b2602d7de5", "is_disabled": 0, "rental_uris": {"android": "https://dc.lft.to/lastmile_qr_scan", "ios": "https://dc.lft.to/lastmile_qr_scan"}, "fusion_lon": 0.0, "lat": 38.91986216666667, "bike_id": "98d508b2f91efd4632fe98b2602d7de5", "type": "electric_scooter", "is_reserved": 0, "lon": -77.04166}, {"fusion_lat": 0.0, "name": "f8453e8d5f3286c88f4075d955c9143d", "is_disabled": 0, "rental_uris": {"android": "https://dc.lft.to/lastmile_qr_scan", "ios": "https://dc.lft.to/lastmile_qr_scan"}, "fusion_lon": 0.0, "lat": 38.962366333333335, "bike_id": "f8453e8d5f3286c88f4075d955c9143d", "type": "electric_bike", "is_reserved": 0, "lon": -76.927629}, {"fusion_lat": 0.0, "name": "dfb4b8d9c662ac1013664ee4436ef1e6", "is_disabled": 0, "rental_uris": {"android": "https://dc.lft.to/lastmile_qr_scan", "ios": "https://dc.lft.to/lastmile_qr_scan"}, "fusion_lon": 0.0, "lat": 38.904479, "bike_id": "dfb4b8d9c662ac1013664ee4436ef1e6", "type": "electric_scooter", "is_reserved": 0, "lon": -77.0318125}, {"fusion_lat": 0.0, "name": "d3710e3356d5634f07bb44a5919af38f", "is_disabled": 0, "rental_uris": {"android": "https://dc.lft.to/lastmile_qr_scan", "ios": "https://dc.lft.to/lastmile_qr_scan"}, "fusion_lon": 0.0, "lat": 38.94944116666667, "bike_id": "d3710e3356d5634f07bb44a5919af38f", "type": "electric_scooter", "is_reserved": 0, "lon": -77.02316316666666}, {"fusion_lat": 0.0, "name": "f4509eb03de8e490a6c5abbbd03bf9f4", "is_disabled": 0, "rental_uris": {"android": "https://dc.lft.to/lastmile_qr_scan", "ios": "https://dc.lft.to/lastmile_qr_scan"}, "fusion_lon": 0.0, "lat": 38.93287016666667, "bike_id": "f4509eb03de8e490a6c5abbbd03bf9f4", "type": "electric_scooter", "is_reserved": 0, "lon": -77.02799333333333}, {"fusion_lat": 0.0, "name": "3ec75c1930dd9ff928b8cc3515106fca", "is_disabled": 0, "rental_uris": {"android": "https://dc.lft.to/lastmile_qr_scan", "ios": "https://dc.lft.to/lastmile_qr_scan"}, "fusion_lon": 0.0, "lat": 38.905314, "bike_id": "3ec75c1930dd9ff928b8cc3515106fca", "type": "electric_scooter", "is_reserved": 0, "lon": -77.06132866666667}, {"fusion_lat": 0.0, "name": "b62f10b2cefbd8057ba696fecebdc7ff", "is_disabled": 0, "rental_uris": {"android": "https://dc.lft.to/lastmile_qr_scan", "ios": "https://dc.lft.to/lastmile_qr_scan"}, "fusion_lon": 0.0, "lat": 38.877146, "bike_id": "b62f10b2cefbd8057ba696fecebdc7ff", "type": "electric_scooter", "is_reserved": 0, "lon": -77.01843283333334}, {"fusion_lat": 0.0, "name": "d159d0de7d12a0b5188605476a0fc3ed", "is_disabled": 0, "rental_uris": {"android": "https://dc.lft.to/lastmile_qr_scan", "ios": "https://dc.lft.to/lastmile_qr_scan"}, "fusion_lon": 0.0, "lat": 38.9103175, "bike_id": "d159d0de7d12a0b5188605476a0fc3ed", "type": "electric_scooter", "is_reserved": 0, "lon": -77.01515433333333}, {"fusion_lat": 0.0, "name": "3236f1525b74ef217d329419c7c1556f", "is_disabled": 0, "rental_uris": {"android": "https://dc.lft.to/lastmile_qr_scan", "ios": "https://dc.lft.to/lastmile_qr_scan"}, "fusion_lon": 0.0, "lat": 38.889047166666664, "bike_id": "3236f1525b74ef217d329419c7c1556f", "type": "electric_scooter", "is_reserved": 0, "lon": -76.992081}, {"fusion_lat": 0.0, "name": "c41421c576c1908dd9898a204681f2c5", "is_disabled": 0, "rental_uris": {"android": "https://dc.lft.to/lastmile_qr_scan", "ios": "https://dc.lft.to/lastmile_qr_scan"}, "fusion_lon": 0.0, "lat": 38.956897166666664, "bike_id": "c41421c576c1908dd9898a204681f2c5", "type": "electric_scooter", "is_reserved": 0, "lon": -77.03250433333334}, {"fusion_lat": 0.0, "name": "61afcfa1cb88791a355d2e0ab8942d1a", "is_disabled": 0, "rental_uris": {"android": "https://dc.lft.to/lastmile_qr_scan", "ios": "https://dc.lft.to/lastmile_qr_scan"}, "fusion_lon": 0.0, "lat": 38.9065575, "bike_id": "61afcfa1cb88791a355d2e0ab8942d1a", "type": "electric_scooter", "is_reserved": 0, "lon": -77.02533266666667}, {"fusion_lat": 0.0, "name": "4a2befc651043d6332aa745b1169e778", "is_disabled": 0, "rental_uris": {"android": "https://dc.lft.to/lastmile_qr_scan", "ios": "https://dc.lft.to/lastmile_qr_scan"}, "fusion_lon": 0.0, "lat": 38.9055935, "bike_id": "4a2befc651043d6332aa745b1169e778", "type": "electric_scooter", "is_reserved": 0, "lon": -77.01187383333334}, {"fusion_lat": 0.0, "name": "bc4ad44a5bcb60a7e242342e0b0bed9c", "is_disabled": 0, "rental_uris": {"android": "https://dc.lft.to/lastmile_qr_scan", "ios": "https://dc.lft.to/lastmile_qr_scan"}, "fusion_lon": 0.0, "lat": 38.90558816666667, "bike_id": "bc4ad44a5bcb60a7e242342e0b0bed9c", "type": "electric_scooter", "is_reserved": 0, "lon": -77.03356366666667}, {"fusion_lat": 0.0, "name": "8fc55bc2deab3ba980da38eda1045970", "is_disabled": 0, "rental_uris": {"android": "https://dc.lft.to/lastmile_qr_scan", "ios": "https://dc.lft.to/lastmile_qr_scan"}, "fusion_lon": 0.0, "lat": 38.90711066666667, "bike_id": "8fc55bc2deab3ba980da38eda1045970", "type": "electric_scooter", "is_reserved": 0, "lon": -77.03436333333333}, {"fusion_lat": 0.0, "name": "7198f4a6d831456229a5218ec91e4291", "is_disabled": 0, "rental_uris": {"android": "https://dc.lft.to/lastmile_qr_scan", "ios": "https://dc.lft.to/lastmile_qr_scan"}, "fusion_lon": 0.0, "lat": 38.91636316666666, "bike_id": "7198f4a6d831456229a5218ec91e4291", "type": "electric_scooter", "is_reserved": 0, "lon": -77.03123016666666}, {"fusion_lat": 0.0, "name": "6b50ff5e9becb0516aca5bc4ffbfba2d", "is_disabled": 0, "rental_uris": {"android": "https://dc.lft.to/lastmile_qr_scan", "ios": "https://dc.lft.to/lastmile_qr_scan"}, "fusion_lon": 0.0, "lat": 38.893550166666664, "bike_id": "6b50ff5e9becb0516aca5bc4ffbfba2d", "type": "electric_bike", "is_reserved": 0, "lon": -77.1874205}, {"fusion_lat": 0.0, "name": "d58227255439e53dcdcd9d7759b93a12", "is_disabled": 0, "rental_uris": {"android": "https://dc.lft.to/lastmile_qr_scan", "ios": "https://dc.lft.to/lastmile_qr_scan"}, "fusion_lon": 0.0, "lat": 38.915638, "bike_id": "d58227255439e53dcdcd9d7759b93a12", "type": "electric_scooter", "is_reserved": 0, "lon": -77.0314555}, {"fusion_lat": 0.0, "name": "18d94d89c0ee1cc76956684f4e264276", "is_disabled": 0, "rental_uris": {"android": "https://dc.lft.to/lastmile_qr_scan", "ios": "https://dc.lft.to/lastmile_qr_scan"}, "fusion_lon": 0.0, "lat": 38.86679916666667, "bike_id": "18d94d89c0ee1cc76956684f4e264276", "type": "electric_bike", "is_reserved": 0, "lon": -76.98238166666667}, {"fusion_lat": 0.0, "name": "e7fcc025877268e5463d6ac1720a0db5", "is_disabled": 0, "rental_uris": {"android": "https://dc.lft.to/lastmile_qr_scan", "ios": "https://dc.lft.to/lastmile_qr_scan"}, "fusion_lon": 0.0, "lat": 38.855128666666666, "bike_id": "e7fcc025877268e5463d6ac1720a0db5", "type": "electric_bike", "is_reserved": 0, "lon": -77.10538833333334}, {"fusion_lat": 0.0, "name": "773f79527f7b766ad83d3a1963470e7c", "is_disabled": 0, "rental_uris": {"android": "https://dc.lft.to/lastmile_qr_scan", "ios": "https://dc.lft.to/lastmile_qr_scan"}, "fusion_lon": 0.0, "lat": 38.903149, "bike_id": "773f79527f7b766ad83d3a1963470e7c", "type": "electric_scooter", "is_reserved": 0, "lon": -76.97809333333333}, {"fusion_lat": 0.0, "name": "7372bebbc32b697e45aeb70cc00f0a95", "is_disabled": 0, "rental_uris": {"android": "https://dc.lft.to/lastmile_qr_scan", "ios": "https://dc.lft.to/lastmile_qr_scan"}, "fusion_lon": 0.0, "lat": 38.911383, "bike_id": "7372bebbc32b697e45aeb70cc00f0a95", "type": "electric_scooter", "is_reserved": 0, "lon": -76.988141}, {"fusion_lat": 0.0, "name": "8f6c6acf94d2e9d59c2e30f88c3e1792", "is_disabled": 0, "rental_uris": {"android": "https://dc.lft.to/lastmile_qr_scan", "ios": "https://dc.lft.to/lastmile_qr_scan"}, "fusion_lon": 0.0, "lat": 38.914783666666665, "bike_id": "8f6c6acf94d2e9d59c2e30f88c3e1792", "type": "electric_scooter", "is_reserved": 0, "lon": -77.0452035}, {"fusion_lat": 0.0, "name": "05dff74d1fc97591d86d8f8f3c8f5c05", "is_disabled": 0, "rental_uris": {"android": "https://dc.lft.to/lastmile_qr_scan", "ios": "https://dc.lft.to/lastmile_qr_scan"}, "fusion_lon": 0.0, "lat": 38.8887565, "bike_id": "05dff74d1fc97591d86d8f8f3c8f5c05", "type": "electric_scooter", "is_reserved": 0, "lon": -76.98457966666666}, {"fusion_lat": 0.0, "name": "b1a74a3a660568966eeadd1f2f7c0cbf", "is_disabled": 0, "rental_uris": {"android": "https://dc.lft.to/lastmile_qr_scan", "ios": "https://dc.lft.to/lastmile_qr_scan"}, "fusion_lon": 0.0, "lat": 38.879151666666665, "bike_id": "b1a74a3a660568966eeadd1f2f7c0cbf", "type": "electric_scooter", "is_reserved": 0, "lon": -76.99513433333334}, {"fusion_lat": 0.0, "name": "c685ae8a6d12408a630f90e0f3a68544", "is_disabled": 0, "rental_uris": {"android": "https://dc.lft.to/lastmile_qr_scan", "ios": "https://dc.lft.to/lastmile_qr_scan"}, "fusion_lon": 0.0, "lat": 38.910359, "bike_id": "c685ae8a6d12408a630f90e0f3a68544", "type": "electric_scooter", "is_reserved": 0, "lon": -77.00831783333334}, {"fusion_lat": 0.0, "name": "e34659bb99644c4b5dcdc22bf4625b97", "is_disabled": 0, "rental_uris": {"android": "https://dc.lft.to/lastmile_qr_scan", "ios": "https://dc.lft.to/lastmile_qr_scan"}, "fusion_lon": 0.0, "lat": 38.90182333333333, "bike_id": "e34659bb99644c4b5dcdc22bf4625b97", "type": "electric_scooter", "is_reserved": 0, "lon": -76.92905066666667}, {"fusion_lat": 0.0, "name": "e7f92ddcc61bef74cc87142d41185fe4", "is_disabled": 0, "rental_uris": {"android": "https://dc.lft.to/lastmile_qr_scan", "ios": "https://dc.lft.to/lastmile_qr_scan"}, "fusion_lon": 0.0, "lat": 38.88015866666667, "bike_id": "e7f92ddcc61bef74cc87142d41185fe4", "type": "electric_scooter", "is_reserved": 0, "lon": -76.93110566666667}, {"fusion_lat": 0.0, "name": "a2319720734fd9f634cdc66a741b5427", "is_disabled": 0, "rental_uris": {"android": "https://dc.lft.to/lastmile_qr_scan", "ios": "https://dc.lft.to/lastmile_qr_scan"}, "fusion_lon": 0.0, "lat": 38.91691133333333, "bike_id": "a2319720734fd9f634cdc66a741b5427", "type": "electric_scooter", "is_reserved": 0, "lon": -77.00811316666666}, {"fusion_lat": 0.0, "name": "d32bd515aadf9d31822f46a347f5a4d8", "is_disabled": 0, "rental_uris": {"android": "https://dc.lft.to/lastmile_qr_scan", "ios": "https://dc.lft.to/lastmile_qr_scan"}, "fusion_lon": 0.0, "lat": 38.887448666666664, "bike_id": "d32bd515aadf9d31822f46a347f5a4d8", "type": "electric_scooter", "is_reserved": 0, "lon": -76.99627516666666}, {"fusion_lat": 0.0, "name": "25f4f6df4a37f4276ee9a9076f4a8275", "is_disabled": 0, "rental_uris": {"android": "https://dc.lft.to/lastmile_qr_scan", "ios": "https://dc.lft.to/lastmile_qr_scan"}, "fusion_lon": 0.0, "lat": 38.90501183333333, "bike_id": "25f4f6df4a37f4276ee9a9076f4a8275", "type": "electric_scooter", "is_reserved": 0, "lon": -77.02953716666667}, {"fusion_lat": 0.0, "name": "6b4f82d147d788fa68113d3d3085ac8c", "is_disabled": 0, "rental_uris": {"android": "https://dc.lft.to/lastmile_qr_scan", "ios": "https://dc.lft.to/lastmile_qr_scan"}, "fusion_lon": 0.0, "lat": 38.91937466666667, "bike_id": "6b4f82d147d788fa68113d3d3085ac8c", "type": "electric_scooter", "is_reserved": 0, "lon": -77.07064866666667}, {"fusion_lat": 0.0, "name": "d6eaa6731193854f84e852bfeb822dd9", "is_disabled": 0, "rental_uris": {"android": "https://dc.lft.to/lastmile_qr_scan", "ios": "https://dc.lft.to/lastmile_qr_scan"}, "fusion_lon": 0.0, "lat": 38.884511333333336, "bike_id": "d6eaa6731193854f84e852bfeb822dd9", "type": "electric_scooter", "is_reserved": 0, "lon": -76.99855333333333}, {"fusion_lat": 0.0, "name": "d1116541e7d2f591099d590b688e5abf", "is_disabled": 0, "rental_uris": {"android": "https://dc.lft.to/lastmile_qr_scan", "ios": "https://dc.lft.to/lastmile_qr_scan"}, "fusion_lon": 0.0, "lat": 38.91017, "bike_id": "d1116541e7d2f591099d590b688e5abf", "type": "electric_scooter", "is_reserved": 0, "lon": -77.00923533333334}, {"fusion_lat": 0.0, "name": "9443ca08380c196bef3c6eeb80fc8364", "is_disabled": 0, "rental_uris": {"android": "https://dc.lft.to/lastmile_qr_scan", "ios": "https://dc.lft.to/lastmile_qr_scan"}, "fusion_lon": 0.0, "lat": 38.885686666666665, "bike_id": "9443ca08380c196bef3c6eeb80fc8364", "type": "electric_scooter", "is_reserved": 0, "lon": -77.01136183333334}, {"fusion_lat": 0.0, "name": "57decc5e6c7936c1b288425250af0599", "is_disabled": 0, "rental_uris": {"android": "https://dc.lft.to/lastmile_qr_scan", "ios": "https://dc.lft.to/lastmile_qr_scan"}, "fusion_lon": 0.0, "lat": 38.9037075, "bike_id": "57decc5e6c7936c1b288425250af0599", "type": "electric_scooter", "is_reserved": 0, "lon": -77.04212383333333}, {"fusion_lat": 0.0, "name": "13f79ae2add8776b03d5357c500a4e95", "is_disabled": 0, "rental_uris": {"android": "https://dc.lft.to/lastmile_qr_scan", "ios": "https://dc.lft.to/lastmile_qr_scan"}, "fusion_lon": 0.0, "lat": 38.9095675, "bike_id": "13f79ae2add8776b03d5357c500a4e95", "type": "electric_scooter", "is_reserved": 0, "lon": -77.04841516666667}, {"fusion_lat": 0.0, "name": "bf8487836acb6eddc2a958d7c078d18e", "is_disabled": 0, "rental_uris": {"android": "https://dc.lft.to/lastmile_qr_scan", "ios": "https://dc.lft.to/lastmile_qr_scan"}, "fusion_lon": 0.0, "lat": 38.9140565, "bike_id": "bf8487836acb6eddc2a958d7c078d18e", "type": "electric_scooter", "is_reserved": 0, "lon": -77.03222366666667}, {"fusion_lat": 0.0, "name": "5189a4bb3de98cea472b4850c2a395fa", "is_disabled": 0, "rental_uris": {"android": "https://dc.lft.to/lastmile_qr_scan", "ios": "https://dc.lft.to/lastmile_qr_scan"}, "fusion_lon": 0.0, "lat": 38.89685883333333, "bike_id": "5189a4bb3de98cea472b4850c2a395fa", "type": "electric_scooter", "is_reserved": 0, "lon": -76.93714516666667}, {"fusion_lat": 0.0, "name": "e7a6d0f975849cc7b3522134a866912d", "is_disabled": 0, "rental_uris": {"android": "https://dc.lft.to/lastmile_qr_scan", "ios": "https://dc.lft.to/lastmile_qr_scan"}, "fusion_lon": 0.0, "lat": 38.91706933333333, "bike_id": "e7a6d0f975849cc7b3522134a866912d", "type": "electric_scooter", "is_reserved": 0, "lon": -77.03861566666667}, {"fusion_lat": 0.0, "name": "94f0650ed42dfb36fb969201b9f12b68", "is_disabled": 0, "rental_uris": {"android": "https://dc.lft.to/lastmile_qr_scan", "ios": "https://dc.lft.to/lastmile_qr_scan"}, "fusion_lon": 0.0, "lat": 38.90612683333333, "bike_id": "94f0650ed42dfb36fb969201b9f12b68", "type": "electric_scooter", "is_reserved": 0, "lon": -77.02408316666667}, {"fusion_lat": 0.0, "name": "4541869217c1d35c285b13fef5c7ac10", "is_disabled": 0, "rental_uris": {"android": "https://dc.lft.to/lastmile_qr_scan", "ios": "https://dc.lft.to/lastmile_qr_scan"}, "fusion_lon": 0.0, "lat": 38.80297433333333, "bike_id": "4541869217c1d35c285b13fef5c7ac10", "type": "electric_bike", "is_reserved": 0, "lon": -77.05943483333333}, {"fusion_lat": 0.0, "name": "574af5df9fb70fc0ebb3c40a7a86a305", "is_disabled": 0, "rental_uris": {"android": "https://dc.lft.to/lastmile_qr_scan", "ios": "https://dc.lft.to/lastmile_qr_scan"}, "fusion_lon": 0.0, "lat": 38.886109, "bike_id": "574af5df9fb70fc0ebb3c40a7a86a305", "type": "electric_scooter", "is_reserved": 0, "lon": -77.0196875}, {"fusion_lat": 0.0, "name": "4a0cb204ed31893a54ff2e4f2bd75f04", "is_disabled": 0, "rental_uris": {"android": "https://dc.lft.to/lastmile_qr_scan", "ios": "https://dc.lft.to/lastmile_qr_scan"}, "fusion_lon": 0.0, "lat": 38.92188683333333, "bike_id": "4a0cb204ed31893a54ff2e4f2bd75f04", "type": "electric_scooter", "is_reserved": 0, "lon": -76.99628466666667}, {"fusion_lat": 0.0, "name": "1a207838db18a026e7c5bbd178c05625", "is_disabled": 0, "rental_uris": {"android": "https://dc.lft.to/lastmile_qr_scan", "ios": "https://dc.lft.to/lastmile_qr_scan"}, "fusion_lon": 0.0, "lat": 38.91764166666667, "bike_id": "1a207838db18a026e7c5bbd178c05625", "type": "electric_scooter", "is_reserved": 0, "lon": -77.04771083333333}, {"fusion_lat": 0.0, "name": "018fee611839d6e2327e4777b0935ee4", "is_disabled": 0, "rental_uris": {"android": "https://dc.lft.to/lastmile_qr_scan", "ios": "https://dc.lft.to/lastmile_qr_scan"}, "fusion_lon": 0.0, "lat": 38.874553, "bike_id": "018fee611839d6e2327e4777b0935ee4", "type": "electric_scooter", "is_reserved": 0, "lon": -77.0003255}, {"fusion_lat": 0.0, "name": "0163e8e48089519abb6f4e76c3c1a2a6", "is_disabled": 0, "rental_uris": {"android": "https://dc.lft.to/lastmile_qr_scan", "ios": "https://dc.lft.to/lastmile_qr_scan"}, "fusion_lon": 0.0, "lat": 38.87486083333334, "bike_id": "0163e8e48089519abb6f4e76c3c1a2a6", "type": "electric_scooter", "is_reserved": 0, "lon": -77.0004835}, {"fusion_lat": 0.0, "name": "bdfc3e713435fb81217ba164e06f766a", "is_disabled": 0, "rental_uris": {"android": "https://dc.lft.to/lastmile_qr_scan", "ios": "https://dc.lft.to/lastmile_qr_scan"}, "fusion_lon": 0.0, "lat": 38.97884116666667, "bike_id": "bdfc3e713435fb81217ba164e06f766a", "type": "electric_bike", "is_reserved": 0, "lon": -77.06035466666667}, {"fusion_lat": 0.0, "name": "31a18a5fc97e9b9941a1f1fbc170ae67", "is_disabled": 0, "rental_uris": {"android": "https://dc.lft.to/lastmile_qr_scan", "ios": "https://dc.lft.to/lastmile_qr_scan"}, "fusion_lon": 0.0, "lat": 38.901371, "bike_id": "31a18a5fc97e9b9941a1f1fbc170ae67", "type": "electric_scooter", "is_reserved": 0, "lon": -76.98657633333333}, {"fusion_lat": 0.0, "name": "a1996d4ebc8158aebaf58e7da308492d", "is_disabled": 0, "rental_uris": {"android": "https://dc.lft.to/lastmile_qr_scan", "ios": "https://dc.lft.to/lastmile_qr_scan"}, "fusion_lon": 0.0, "lat": 38.91554883333333, "bike_id": "a1996d4ebc8158aebaf58e7da308492d", "type": "electric_scooter", "is_reserved": 0, "lon": -77.038672}, {"fusion_lat": 0.0, "name": "e9254a40d44594a8838fec417db0ba1e", "is_disabled": 0, "rental_uris": {"android": "https://dc.lft.to/lastmile_qr_scan", "ios": "https://dc.lft.to/lastmile_qr_scan"}, "fusion_lon": 0.0, "lat": 38.90587, "bike_id": "e9254a40d44594a8838fec417db0ba1e", "type": "electric_scooter", "is_reserved": 0, "lon": -77.0728265}, {"fusion_lat": 0.0, "name": "26e7b9eb4d70bb8c2eab873ab3f65b1a", "is_disabled": 0, "rental_uris": {"android": "https://dc.lft.to/lastmile_qr_scan", "ios": "https://dc.lft.to/lastmile_qr_scan"}, "fusion_lon": 0.0, "lat": 38.83933, "bike_id": "26e7b9eb4d70bb8c2eab873ab3f65b1a", "type": "electric_bike", "is_reserved": 0, "lon": -77.07906466666667}, {"fusion_lat": 0.0, "name": "02272b3fd93173c7bcc65dcc9ee281d8", "is_disabled": 0, "rental_uris": {"android": "https://dc.lft.to/lastmile_qr_scan", "ios": "https://dc.lft.to/lastmile_qr_scan"}, "fusion_lon": 0.0, "lat": 38.906861166666665, "bike_id": "02272b3fd93173c7bcc65dcc9ee281d8", "type": "electric_scooter", "is_reserved": 0, "lon": -77.03556016666667}, {"fusion_lat": 0.0, "name": "f4d8788613631d30cbc0016617cc23f0", "is_disabled": 0, "rental_uris": {"android": "https://dc.lft.to/lastmile_qr_scan", "ios": "https://dc.lft.to/lastmile_qr_scan"}, "fusion_lon": 0.0, "lat": 38.8980895, "bike_id": "f4d8788613631d30cbc0016617cc23f0", "type": "electric_scooter", "is_reserved": 0, "lon": -77.0295635}, {"fusion_lat": 0.0, "name": "4697a25ea9be79652577ccf77b966cad", "is_disabled": 0, "rental_uris": {"android": "https://dc.lft.to/lastmile_qr_scan", "ios": "https://dc.lft.to/lastmile_qr_scan"}, "fusion_lon": 0.0, "lat": 38.90665283333333, "bike_id": "4697a25ea9be79652577ccf77b966cad", "type": "electric_scooter", "is_reserved": 0, "lon": -77.07132683333333}, {"fusion_lat": 0.0, "name": "41a02990d514c807322462f7d45e17ae", "is_disabled": 0, "rental_uris": {"android": "https://dc.lft.to/lastmile_qr_scan", "ios": "https://dc.lft.to/lastmile_qr_scan"}, "fusion_lon": 0.0, "lat": 38.917195666666665, "bike_id": "41a02990d514c807322462f7d45e17ae", "type": "electric_scooter", "is_reserved": 0, "lon": -77.03865833333333}, {"fusion_lat": 0.0, "name": "6ba843cc3b617113a0b5ad0d1e2607f8", "is_disabled": 0, "rental_uris": {"android": "https://dc.lft.to/lastmile_qr_scan", "ios": "https://dc.lft.to/lastmile_qr_scan"}, "fusion_lon": 0.0, "lat": 38.87380533333334, "bike_id": "6ba843cc3b617113a0b5ad0d1e2607f8", "type": "electric_scooter", "is_reserved": 0, "lon": -77.00132616666667}, {"fusion_lat": 0.0, "name": "13d49a073493ef140e2ac463e6fe927f", "is_disabled": 0, "rental_uris": {"android": "https://dc.lft.to/lastmile_qr_scan", "ios": "https://dc.lft.to/lastmile_qr_scan"}, "fusion_lon": 0.0, "lat": 38.89540083333333, "bike_id": "13d49a073493ef140e2ac463e6fe927f", "type": "electric_scooter", "is_reserved": 0, "lon": -76.95637666666667}, {"fusion_lat": 0.0, "name": "bef10edec51e2c94335f7af3fcdb7145", "is_disabled": 0, "rental_uris": {"android": "https://dc.lft.to/lastmile_qr_scan", "ios": "https://dc.lft.to/lastmile_qr_scan"}, "fusion_lon": 0.0, "lat": 38.894824166666666, "bike_id": "bef10edec51e2c94335f7af3fcdb7145", "type": "electric_scooter", "is_reserved": 0, "lon": -77.02027083333333}, {"fusion_lat": 0.0, "name": "d0d493f8267be0e316c484fa06e47a72", "is_disabled": 0, "rental_uris": {"android": "https://dc.lft.to/lastmile_qr_scan", "ios": "https://dc.lft.to/lastmile_qr_scan"}, "fusion_lon": 0.0, "lat": 38.89619833333333, "bike_id": "d0d493f8267be0e316c484fa06e47a72", "type": "electric_scooter", "is_reserved": 0, "lon": -77.03170366666667}, {"fusion_lat": 0.0, "name": "8647da3918e4865b2a632cb052423c83", "is_disabled": 0, "rental_uris": {"android": "https://dc.lft.to/lastmile_qr_scan", "ios": "https://dc.lft.to/lastmile_qr_scan"}, "fusion_lon": 0.0, "lat": 38.90137466666667, "bike_id": "8647da3918e4865b2a632cb052423c83", "type": "electric_scooter", "is_reserved": 0, "lon": -76.989631}, {"fusion_lat": 0.0, "name": "e68cbf3e5e605522bd9468ec7539a391", "is_disabled": 0, "rental_uris": {"android": "https://dc.lft.to/lastmile_qr_scan", "ios": "https://dc.lft.to/lastmile_qr_scan"}, "fusion_lon": 0.0, "lat": 38.86763066666666, "bike_id": "e68cbf3e5e605522bd9468ec7539a391", "type": "electric_scooter", "is_reserved": 0, "lon": -76.982749}, {"fusion_lat": 0.0, "name": "fc097ebf5e5221f363c769b54e58af48", "is_disabled": 0, "rental_uris": {"android": "https://dc.lft.to/lastmile_qr_scan", "ios": "https://dc.lft.to/lastmile_qr_scan"}, "fusion_lon": 0.0, "lat": 38.92153066666667, "bike_id": "fc097ebf5e5221f363c769b54e58af48", "type": "electric_scooter", "is_reserved": 0, "lon": -77.0243115}, {"fusion_lat": 0.0, "name": "e1fe94e6e02cff9c69e70f826e04edb0", "is_disabled": 0, "rental_uris": {"android": "https://dc.lft.to/lastmile_qr_scan", "ios": "https://dc.lft.to/lastmile_qr_scan"}, "fusion_lon": 0.0, "lat": 38.899587333333336, "bike_id": "e1fe94e6e02cff9c69e70f826e04edb0", "type": "electric_scooter", "is_reserved": 0, "lon": -77.01511083333334}, {"fusion_lat": 0.0, "name": "70de939695d890bd47764ccf71988b5e", "is_disabled": 0, "rental_uris": {"android": "https://dc.lft.to/lastmile_qr_scan", "ios": "https://dc.lft.to/lastmile_qr_scan"}, "fusion_lon": 0.0, "lat": 38.9250295, "bike_id": "70de939695d890bd47764ccf71988b5e", "type": "electric_scooter", "is_reserved": 0, "lon": -77.02331033333333}, {"fusion_lat": 0.0, "name": "131be787b08ac1db15f78671b9af5e8c", "is_disabled": 0, "rental_uris": {"android": "https://dc.lft.to/lastmile_qr_scan", "ios": "https://dc.lft.to/lastmile_qr_scan"}, "fusion_lon": 0.0, "lat": 38.92748666666667, "bike_id": "131be787b08ac1db15f78671b9af5e8c", "type": "electric_bike", "is_reserved": 0, "lon": -77.03639433333333}, {"fusion_lat": 0.0, "name": "218581630d3ea1980b44851f2b3e12aa", "is_disabled": 0, "rental_uris": {"android": "https://dc.lft.to/lastmile_qr_scan", "ios": "https://dc.lft.to/lastmile_qr_scan"}, "fusion_lon": 0.0, "lat": 38.91988166666667, "bike_id": "218581630d3ea1980b44851f2b3e12aa", "type": "electric_scooter", "is_reserved": 0, "lon": -77.03331533333333}, {"fusion_lat": 0.0, "name": "3ff2666047b4eb5a334337864e56053f", "is_disabled": 0, "rental_uris": {"android": "https://dc.lft.to/lastmile_qr_scan", "ios": "https://dc.lft.to/lastmile_qr_scan"}, "fusion_lon": 0.0, "lat": 38.9269815, "bike_id": "3ff2666047b4eb5a334337864e56053f", "type": "electric_scooter", "is_reserved": 0, "lon": -77.024305}, {"fusion_lat": 0.0, "name": "240358f31fa966a5e004447109a0b32b", "is_disabled": 0, "rental_uris": {"android": "https://dc.lft.to/lastmile_qr_scan", "ios": "https://dc.lft.to/lastmile_qr_scan"}, "fusion_lon": 0.0, "lat": 38.900127166666664, "bike_id": "240358f31fa966a5e004447109a0b32b", "type": "electric_scooter", "is_reserved": 0, "lon": -77.04493}, {"fusion_lat": 0.0, "name": "275131e032e77a4a7729f8e3344200e3", "is_disabled": 0, "rental_uris": {"android": "https://dc.lft.to/lastmile_qr_scan", "ios": "https://dc.lft.to/lastmile_qr_scan"}, "fusion_lon": 0.0, "lat": 38.901239333333336, "bike_id": "275131e032e77a4a7729f8e3344200e3", "type": "electric_scooter", "is_reserved": 0, "lon": -77.03214183333333}, {"fusion_lat": 0.0, "name": "622fd9f45f307a10abe89a7c81c8821d", "is_disabled": 0, "rental_uris": {"android": "https://dc.lft.to/lastmile_qr_scan", "ios": "https://dc.lft.to/lastmile_qr_scan"}, "fusion_lon": 0.0, "lat": 38.958770666666666, "bike_id": "622fd9f45f307a10abe89a7c81c8821d", "type": "electric_bike", "is_reserved": 0, "lon": -76.97058083333333}, {"fusion_lat": 0.0, "name": "81075dc6f10466f64536a9e1d0a36971", "is_disabled": 0, "rental_uris": {"android": "https://dc.lft.to/lastmile_qr_scan", "ios": "https://dc.lft.to/lastmile_qr_scan"}, "fusion_lon": 0.0, "lat": 38.89962633333333, "bike_id": "81075dc6f10466f64536a9e1d0a36971", "type": "electric_scooter", "is_reserved": 0, "lon": -77.0336665}, {"fusion_lat": 0.0, "name": "6ee1f0b2b2969cc31befcf39d9db561e", "is_disabled": 0, "rental_uris": {"android": "https://dc.lft.to/lastmile_qr_scan", "ios": "https://dc.lft.to/lastmile_qr_scan"}, "fusion_lon": 0.0, "lat": 38.95634283333333, "bike_id": "6ee1f0b2b2969cc31befcf39d9db561e", "type": "electric_scooter", "is_reserved": 0, "lon": -77.03308766666666}, {"fusion_lat": 0.0, "name": "a77edbdfb3e64fae260ea913a91e76d2", "is_disabled": 0, "rental_uris": {"android": "https://dc.lft.to/lastmile_qr_scan", "ios": "https://dc.lft.to/lastmile_qr_scan"}, "fusion_lon": 0.0, "lat": 38.901294666666665, "bike_id": "a77edbdfb3e64fae260ea913a91e76d2", "type": "electric_scooter", "is_reserved": 0, "lon": -77.021933}, {"fusion_lat": 0.0, "name": "52a7671c6b4e6c4c58ec5db54222734e", "is_disabled": 0, "rental_uris": {"android": "https://dc.lft.to/lastmile_qr_scan", "ios": "https://dc.lft.to/lastmile_qr_scan"}, "fusion_lon": 0.0, "lat": 38.94432166666667, "bike_id": "52a7671c6b4e6c4c58ec5db54222734e", "type": "electric_bike", "is_reserved": 0, "lon": -77.02608483333333}, {"fusion_lat": 0.0, "name": "d606c00c691dfddf7aaa731b1bcda133", "is_disabled": 0, "rental_uris": {"android": "https://dc.lft.to/lastmile_qr_scan", "ios": "https://dc.lft.to/lastmile_qr_scan"}, "fusion_lon": 0.0, "lat": 38.88454316666667, "bike_id": "d606c00c691dfddf7aaa731b1bcda133", "type": "electric_scooter", "is_reserved": 0, "lon": -77.02111616666667}, {"fusion_lat": 0.0, "name": "0d4958e7bbb9a6196dec647e80dc339e", "is_disabled": 0, "rental_uris": {"android": "https://dc.lft.to/lastmile_qr_scan", "ios": "https://dc.lft.to/lastmile_qr_scan"}, "fusion_lon": 0.0, "lat": 38.943213666666665, "bike_id": "0d4958e7bbb9a6196dec647e80dc339e", "type": "electric_scooter", "is_reserved": 0, "lon": -77.00319233333333}, {"fusion_lat": 0.0, "name": "6d788abe18a4dc373661334086782560", "is_disabled": 0, "rental_uris": {"android": "https://dc.lft.to/lastmile_qr_scan", "ios": "https://dc.lft.to/lastmile_qr_scan"}, "fusion_lon": 0.0, "lat": 38.9323075, "bike_id": "6d788abe18a4dc373661334086782560", "type": "electric_scooter", "is_reserved": 0, "lon": -77.034275}, {"fusion_lat": 0.0, "name": "05e738ef9e31a4bae6b60648ca917d1a", "is_disabled": 0, "rental_uris": {"android": "https://dc.lft.to/lastmile_qr_scan", "ios": "https://dc.lft.to/lastmile_qr_scan"}, "fusion_lon": 0.0, "lat": 38.914063, "bike_id": "05e738ef9e31a4bae6b60648ca917d1a", "type": "electric_scooter", "is_reserved": 0, "lon": -77.03232133333333}, {"fusion_lat": 0.0, "name": "6d24c633fb0f9284d18ebccb65d56e50", "is_disabled": 0, "rental_uris": {"android": "https://dc.lft.to/lastmile_qr_scan", "ios": "https://dc.lft.to/lastmile_qr_scan"}, "fusion_lon": 0.0, "lat": 38.885779666666664, "bike_id": "6d24c633fb0f9284d18ebccb65d56e50", "type": "electric_scooter", "is_reserved": 0, "lon": -77.0121225}, {"fusion_lat": 0.0, "name": "cbd3c698a68e25e8e052be961558e655", "is_disabled": 0, "rental_uris": {"android": "https://dc.lft.to/lastmile_qr_scan", "ios": "https://dc.lft.to/lastmile_qr_scan"}, "fusion_lon": 0.0, "lat": 38.8967535, "bike_id": "cbd3c698a68e25e8e052be961558e655", "type": "electric_bike", "is_reserved": 0, "lon": -76.98696366666667}, {"fusion_lat": 0.0, "name": "c13f1b6a59d34a55f8e76a4b12665804", "is_disabled": 0, "rental_uris": {"android": "https://dc.lft.to/lastmile_qr_scan", "ios": "https://dc.lft.to/lastmile_qr_scan"}, "fusion_lon": 0.0, "lat": 38.90976216666667, "bike_id": "c13f1b6a59d34a55f8e76a4b12665804", "type": "electric_scooter", "is_reserved": 0, "lon": -77.0487165}, {"fusion_lat": 0.0, "name": "fbd257a02006a1af7f425be33cd48c9c", "is_disabled": 0, "rental_uris": {"android": "https://dc.lft.to/lastmile_qr_scan", "ios": "https://dc.lft.to/lastmile_qr_scan"}, "fusion_lon": 0.0, "lat": 38.92255333333333, "bike_id": "fbd257a02006a1af7f425be33cd48c9c", "type": "electric_scooter", "is_reserved": 0, "lon": -77.03906416666666}, {"fusion_lat": 0.0, "name": "8e3f6dd0d395e5442905aa649c702c68", "is_disabled": 0, "rental_uris": {"android": "https://dc.lft.to/lastmile_qr_scan", "ios": "https://dc.lft.to/lastmile_qr_scan"}, "fusion_lon": 0.0, "lat": 38.90609, "bike_id": "8e3f6dd0d395e5442905aa649c702c68", "type": "electric_scooter", "is_reserved": 0, "lon": -77.06478816666667}, {"fusion_lat": 0.0, "name": "5a3bcbb2a17d814e16f7f717ccb71283", "is_disabled": 0, "rental_uris": {"android": "https://dc.lft.to/lastmile_qr_scan", "ios": "https://dc.lft.to/lastmile_qr_scan"}, "fusion_lon": 0.0, "lat": 38.89855166666667, "bike_id": "5a3bcbb2a17d814e16f7f717ccb71283", "type": "electric_scooter", "is_reserved": 0, "lon": -76.97665183333334}, {"fusion_lat": 0.0, "name": "e643cf2f9df0760c7fa6c002fcc94400", "is_disabled": 0, "rental_uris": {"android": "https://dc.lft.to/lastmile_qr_scan", "ios": "https://dc.lft.to/lastmile_qr_scan"},