{"data": {"bikes": [{"name": "7743e5b06c8c48b72acf1e81b8445f24", "lat": 38.91709083333333, "lon": -77.03470516666667, "fusion_lon": 0.0, "bike_id": "7743e5b06c8c48b72acf1e81b8445f24", "rental_uris": {"android": "https://dc.lft.to/lastmile_qr_scan", "ios": "https://dc.lft.to/lastmile_qr_scan"}, "is_reserved": 0, "type": "electric_scooter", "is_disabled": 0, "fusion_lat": 0.0}, {"name": "77c2f4d78367f89d7455a92f7518eab6", "lat": 38.924083, "lon": -77.027445, "fusion_lon": 0.0, "bike_id": "77c2f4d78367f89d7455a92f7518eab6", "rental_uris": {"android": "https://dc.lft.to/lastmile_qr_scan", "ios": "https://dc.lft.to/lastmile_qr_scan"}, "is_reserved": 0, "type": "electric_scooter", "is_disabled": 0, "fusion_lat": 0.0}, {"name": "0028c0d13d070264540a18e1671c514a", "lat": 38.913845333333335, "lon": -77.0189725, "fusion_lon": 0.0, "bike_id": "0028c0d13d070264540a18e1671c514a", "rental_uris": {"android": "https://dc.lft.to/lastmile_qr_scan", "ios": "https://dc.lft.to/lastmile_qr_scan"}, "is_reserved": 0, "type": "electric_scooter", "is_disabled": 0, "fusion_lat": 0.0}, {"name": "da393beb8c5a6e8f8b0f8cc0e1fe2333", "lat": 38.9162405, "lon": -77.03146533333333, "fusion_lon": 0.0, "bike_id": "da393beb8c5a6e8f8b0f8cc0e1fe2333", "rental_uris": {"android": "https://dc.lft.to/lastmile_qr_scan", "ios": "https://dc.lft.to/lastmile_qr_scan"}, "is_reserved": 0, "type": "electric_scooter", "is_disabled": 0, "fusion_lat": 0.0}, {"name": "e5d86a23e2eaadef760586ccc538ef8b", "lat": 38.90633166666667, "lon": -77.04243583333333, "fusion_lon": 0.0, "bike_id": "e5d86a23e2eaadef760586ccc538ef8b", "rental_uris": {"android": "https://dc.lft.to/lastmile_qr_scan", "ios": "https://dc.lft.to/lastmile_qr_scan"}, "is_reserved": 0, "type": "electric_scooter", "is_disabled": 0, "fusion_lat": 0.0}, {"name": "66cf2df59d3a564e28730a7101e94b4a", "lat": 38.9276915, "lon": -77.02729133333334, "fusion_lon": 0.0, "bike_id": "66cf2df59d3a564e28730a7101e94b4a", "rental_uris": {"android": "https://dc.lft.to/lastmile_qr_scan", "ios": "https://dc.lft.to/lastmile_qr_scan"}, "is_reserved": 0, "type": "electric_scooter", "is_disabled": 0, "fusion_lat": 0.0}, {"name": "8e9deb3b841460af0de35e96c5aac350", "lat": 38.90345083333333, "lon": -77.03908216666666, "fusion_lon": 0.0, "bike_id": "8e9deb3b841460af0de35e96c5aac350", "rental_uris": {"android": "https://dc.lft.to/lastmile_qr_scan", "ios": "https://dc.lft.to/lastmile_qr_scan"}, "is_reserved": 0, "type": "electric_scooter", "is_disabled": 0, "fusion_lat": 0.0}, {"name": "35da01e35004c7b75cbd01187fc107c1", "lat": 38.8949255, "lon": -77.02289366666666, "fusion_lon": 0.0, "bike_id": "35da01e35004c7b75cbd01187fc107c1", "rental_uris": {"android": "https://dc.lft.to/lastmile_qr_scan", "ios": "https://dc.lft.to/lastmile_qr_scan"}, "is_reserved": 0, "type": "electric_scooter", "is_disabled": 0, "fusion_lat": 0.0}, {"name": "51d6541aaf9ec4434ff5c9ebeb2f679d", "lat": 38.90168166666667, "lon": -77.04665983333334, "fusion_lon": 0.0, "bike_id": "51d6541aaf9ec4434ff5c9ebeb2f679d", "rental_uris": {"android": "https://dc.lft.to/lastmile_qr_scan", "ios": "https://dc.lft.to/lastmile_qr_scan"}, "is_reserved": 0, "type": "electric_scooter", "is_disabled": 0, "fusion_lat": 0.0}, {"name": "d0cb706f66b8548d801f1de10eebd4e6", "lat": 38.92243783333333, "lon": -77.03025983333333, "fusion_lon": 0.0, "bike_id": "d0cb706f66b8548d801f1de10eebd4e6", "rental_uris": {"android": "https://dc.lft.to/lastmile_qr_scan", "ios": "https://dc.lft.to/lastmile_qr_scan"}, "is_reserved": 0, "type": "electric_scooter", "is_disabled": 0, "fusion_lat": 0.0}, {"name": "3d320fe4704441d0a50edb318775b521", "lat": 38.907796166666664, "lon": -77.07163916666667, "fusion_lon": 0.0, "bike_id": "3d320fe4704441d0a50edb318775b521", "rental_uris": {"android": "https://dc.lft.to/lastmile_qr_scan", "ios": "https://dc.lft.to/lastmile_qr_scan"}, "is_reserved": 0, "type": "electric_scooter", "is_disabled": 0, "fusion_lat": 0.0}, {"name": "a71f6b7e9f54913da3e13b29af3176bb", "lat": 38.90344183333333, "lon": -77.02893116666667, "fusion_lon": 0.0, "bike_id": "a71f6b7e9f54913da3e13b29af3176bb", "rental_uris": {"android": "https://dc.lft.to/lastmile_qr_scan", "ios": "https://dc.lft.to/lastmile_qr_scan"}, "is_reserved": 0, "type": "electric_scooter", "is_disabled": 0, "fusion_lat": 0.0}, {"name": "7032e9cd232ff36aad53edb883ab84bc", "lat": 38.9326645, "lon": -77.0349605, "fusion_lon": 0.0, "bike_id": "7032e9cd232ff36aad53edb883ab84bc", "rental_uris": {"android": "https://dc.lft.to/lastmile_qr_scan", "ios": "https://dc.lft.to/lastmile_qr_scan"}, "is_reserved": 0, "type": "electric_scooter", "is_disabled": 0, "fusion_lat": 0.0}, {"name": "a5518f90c519fe98f62a9aad6839ebd8", "lat": 38.92346283333333, "lon": -77.05424666666667, "fusion_lon": 0.0, "bike_id": "a5518f90c519fe98f62a9aad6839ebd8", "rental_uris": {"android": "https://dc.lft.to/lastmile_qr_scan", "ios": "https://dc.lft.to/lastmile_qr_scan"}, "is_reserved": 0, "type": "electric_scooter", "is_disabled": 0, "fusion_lat": 0.0}, {"name": "b544f7388d57938f807583c85ae2dcc8", "lat": 38.871074, "lon": -76.96627083333334, "fusion_lon": 0.0, "bike_id": "b544f7388d57938f807583c85ae2dcc8", "rental_uris": {"android": "https://dc.lft.to/lastmile_qr_scan", "ios": "https://dc.lft.to/lastmile_qr_scan"}, "is_reserved": 0, "type": "electric_scooter", "is_disabled": 0, "fusion_lat": 0.0}, {"name": "51805134a330c9bcdce291487497f161", "lat": 38.8980815, "lon": -77.03035766666666, "fusion_lon": 0.0, "bike_id": "51805134a330c9bcdce291487497f161", "rental_uris": {"android": "https://dc.lft.to/lastmile_qr_scan", "ios": "https://dc.lft.to/lastmile_qr_scan"}, "is_reserved": 0, "type": "electric_scooter", "is_disabled": 0, "fusion_lat": 0.0}, {"name": "3d9c3ecf9153a8a1e9f690de2b1b504d", "lat": 38.89223883333333, "lon": -77.04326766666667, "fusion_lon": 0.0, "bike_id": "3d9c3ecf9153a8a1e9f690de2b1b504d", "rental_uris": {"android": "https://dc.lft.to/lastmile_qr_scan", "ios": "https://dc.lft.to/lastmile_qr_scan"}, "is_reserved": 0, "type": "electric_scooter", "is_disabled": 0, "fusion_lat": 0.0}, {"name": "a75698fb9ffd52136e94122fb4cbad5d", "lat": 38.897208666666664, "lon": -77.02457183333334, "fusion_lon": 0.0, "bike_id": "a75698fb9ffd52136e94122fb4cbad5d", "rental_uris": {"android": "https://dc.lft.to/lastmile_qr_scan", "ios": "https://dc.lft.to/lastmile_qr_scan"}, "is_reserved": 0, "type": "electric_scooter", "is_disabled": 0, "fusion_lat": 0.0}, {"name": "a234922704800aeb47cce6485c193926", "lat": 39.0629595, "lon": -77.04977083333333, "fusion_lon": 0.0, "bike_id": "a234922704800aeb47cce6485c193926", "rental_uris": {"android": "https://dc.lft.to/lastmile_qr_scan", "ios": "https://dc.lft.to/lastmile_qr_scan"}, "is_reserved": 0, "type": "electric_bike", "is_disabled": 0, "fusion_lat": 0.0}, {"name": "d830724f7e2c99fb6ecb654a483f71e6", "lat": 38.956309, "lon": -77.03293783333334, "fusion_lon": 0.0, "bike_id": "d830724f7e2c99fb6ecb654a483f71e6", "rental_uris": {"android": "https://dc.lft.to/lastmile_qr_scan", "ios": "https://dc.lft.to/lastmile_qr_scan"}, "is_reserved": 0, "type": "electric_scooter", "is_disabled": 0, "fusion_lat": 0.0}, {"name": "f93b6db3a64e6532c2ee77b31d3c80b9", "lat": 38.89674616666667, "lon": -76.94246033333333, "fusion_lon": 0.0, "bike_id": "f93b6db3a64e6532c2ee77b31d3c80b9", "rental_uris": {"android": "https://dc.lft.to/lastmile_qr_scan", "ios": "https://dc.lft.to/lastmile_qr_scan"}, "is_reserved": 0, "type": "electric_scooter", "is_disabled": 0, "fusion_lat": 0.0}, {"name": "a9b232fcb54cae3b834d005e4d24593e", "lat": 38.906277833333334, "lon": -77.04323683333334, "fusion_lon": 0.0, "bike_id": "a9b232fcb54cae3b834d005e4d24593e", "rental_uris": {"android": "https://dc.lft.to/lastmile_qr_scan", "ios": "https://dc.lft.to/lastmile_qr_scan"}, "is_reserved": 0, "type": "electric_scooter", "is_disabled": 0, "fusion_lat": 0.0}, {"name": "52f9d997010de558856652d5514731fd", "lat": 38.90332816666667, "lon": -77.027472, "fusion_lon": 0.0, "bike_id": "52f9d997010de558856652d5514731fd", "rental_uris": {"android": "https://dc.lft.to/lastmile_qr_scan", "ios": "https://dc.lft.to/lastmile_qr_scan"}, "is_reserved": 0, "type": "electric_scooter", "is_disabled": 0, "fusion_lat": 0.0}, {"name": "7fc7277e59d25f932144af030ec5759a", "lat": 38.92492516666667, "lon": -77.05755883333333, "fusion_lon": 0.0, "bike_id": "7fc7277e59d25f932144af030ec5759a", "rental_uris": {"android": "https://dc.lft.to/lastmile_qr_scan", "ios": "https://dc.lft.to/lastmile_qr_scan"}, "is_reserved": 0, "type": "electric_scooter", "is_disabled": 0, "fusion_lat": 0.0}, {"name": "2511fa0949a72e772fed5551d2f40efa", "lat": 38.905014333333334, "lon": -77.00119733333334, "fusion_lon": 0.0, "bike_id": "2511fa0949a72e772fed5551d2f40efa", "rental_uris": {"android": "https://dc.lft.to/lastmile_qr_scan", "ios": "https://dc.lft.to/lastmile_qr_scan"}, "is_reserved": 0, "type": "electric_scooter", "is_disabled": 0, "fusion_lat": 0.0}, {"name": "b82c7dc0cbfc19cadecbb85689e0d137", "lat": 38.85457533333334, "lon": -76.972441, "fusion_lon": 0.0, "bike_id": "b82c7dc0cbfc19cadecbb85689e0d137", "rental_uris": {"android": "https://dc.lft.to/lastmile_qr_scan", "ios": "https://dc.lft.to/lastmile_qr_scan"}, "is_reserved": 0, "type": "electric_bike", "is_disabled": 0, "fusion_lat": 0.0}, {"name": "618111ce6ab4bdc160d49fe6fb5ff318", "lat": 38.974414333333335, "lon": -77.02987566666667, "fusion_lon": 0.0, "bike_id": "618111ce6ab4bdc160d49fe6fb5ff318", "rental_uris": {"android": "https://dc.lft.to/lastmile_qr_scan", "ios": "https://dc.lft.to/lastmile_qr_scan"}, "is_reserved": 0, "type": "electric_bike", "is_disabled": 0, "fusion_lat": 0.0}, {"name": "f5fce2962420f1bac02c4a9df8fd1078", "lat": 38.92333716666667, "lon": -77.03499133333334, "fusion_lon": 0.0, "bike_id": "f5fce2962420f1bac02c4a9df8fd1078", "rental_uris": {"android": "https://dc.lft.to/lastmile_qr_scan", "ios": "https://dc.lft.to/lastmile_qr_scan"}, "is_reserved": 0, "type": "electric_scooter", "is_disabled": 0, "fusion_lat": 0.0}, {"name": "c033377affea7c9e8d96417635fd0bbf", "lat": 38.92668466666667, "lon": -77.00775516666667, "fusion_lon": 0.0, "bike_id": "c033377affea7c9e8d96417635fd0bbf", "rental_uris": {"android": "https://dc.lft.to/lastmile_qr_scan", "ios": "https://dc.lft.to/lastmile_qr_scan"}, "is_reserved": 0, "type": "electric_scooter", "is_disabled": 0, "fusion_lat": 0.0}, {"name": "83cacd38328ffc57a24f19fadc5e0239", "lat": 38.88502316666667, "lon": -77.005671, "fusion_lon": 0.0, "bike_id": "83cacd38328ffc57a24f19fadc5e0239", "rental_uris": {"android": "https://dc.lft.to/lastmile_qr_scan", "ios": "https://dc.lft.to/lastmile_qr_scan"}, "is_reserved": 0, "type": "electric_scooter", "is_disabled": 0, "fusion_lat": 0.0}, {"name": "b52eb6e10ee5845c794f213500ed1f9b", "lat": 38.91036733333333, "lon": -77.04838766666667, "fusion_lon": 0.0, "bike_id": "b52eb6e10ee5845c794f213500ed1f9b", "rental_uris": {"android": "https://dc.lft.to/lastmile_qr_scan", "ios": "https://dc.lft.to/lastmile_qr_scan"}, "is_reserved": 0, "type": "electric_scooter", "is_disabled": 0, "fusion_lat": 0.0}, {"name": "9e4581f3cd88633c768e184f8a39eeed", "lat": 38.91819483333333, "lon": -77.03669666666667, "fusion_lon": 0.0, "bike_id": "9e4581f3cd88633c768e184f8a39eeed", "rental_uris": {"android": "https://dc.lft.to/lastmile_qr_scan", "ios": "https://dc.lft.to/lastmile_qr_scan"}, "is_reserved": 0, "type": "electric_scooter", "is_disabled": 0, "fusion_lat": 0.0}, {"name": "ca174fc5cf01d3b1bfa26ce562e0bf26", "lat": 38.89782116666667, "lon": -77.01094533333334, "fusion_lon": 0.0, "bike_id": "ca174fc5cf01d3b1bfa26ce562e0bf26", "rental_uris": {"android": "https://dc.lft.to/lastmile_qr_scan", "ios": "https://dc.lft.to/lastmile_qr_scan"}, "is_reserved": 0, "type": "electric_bike", "is_disabled": 0, "fusion_lat": 0.0}, {"name": "de95c5d01523d04f45ff570808a2aa3e", "lat": 38.92799566666667, "lon": -77.053277, "fusion_lon": 0.0, "bike_id": "de95c5d01523d04f45ff570808a2aa3e", "rental_uris": {"android": "https://dc.lft.to/lastmile_qr_scan", "ios": "https://dc.lft.to/lastmile_qr_scan"}, "is_reserved": 0, "type": "electric_scooter", "is_disabled": 0, "fusion_lat": 0.0}, {"name": "2f0f1cfc3c1a9afae961973c2e3f841c", "lat": 38.93052266666667, "lon": -77.01998733333333, "fusion_lon": 0.0, "bike_id": "2f0f1cfc3c1a9afae961973c2e3f841c", "rental_uris": {"android": "https://dc.lft.to/lastmile_qr_scan", "ios": "https://dc.lft.to/lastmile_qr_scan"}, "is_reserved": 0, "type": "electric_scooter", "is_disabled": 0, "fusion_lat": 0.0}, {"name": "51fe56f7c40e1ab61b95c85d65f7ef96", "lat": 38.9087255, "lon": -77.03838416666666, "fusion_lon": 0.0, "bike_id": "51fe56f7c40e1ab61b95c85d65f7ef96", "rental_uris": {"android": "https://dc.lft.to/lastmile_qr_scan", "ios": "https://dc.lft.to/lastmile_qr_scan"}, "is_reserved": 0, "type": "electric_scooter", "is_disabled": 0, "fusion_lat": 0.0}, {"name": "7f8e70833d9ed26a2558d7b5947a2062", "lat": 38.856903833333334, "lon": -76.98966516666667, "fusion_lon": 0.0, "bike_id": "7f8e70833d9ed26a2558d7b5947a2062", "rental_uris": {"android": "https://dc.lft.to/lastmile_qr_scan", "ios": "https://dc.lft.to/lastmile_qr_scan"}, "is_reserved": 0, "type": "electric_scooter", "is_disabled": 0, "fusion_lat": 0.0}, {"name": "2f4d7f0de22cebf54eee2703fcf6f3e9", "lat": 38.8662715, "lon": -76.98717133333334, "fusion_lon": 0.0, "bike_id": "2f4d7f0de22cebf54eee2703fcf6f3e9", "rental_uris": {"android": "https://dc.lft.to/lastmile_qr_scan", "ios": "https://dc.lft.to/lastmile_qr_scan"}, "is_reserved": 0, "type": "electric_scooter", "is_disabled": 0, "fusion_lat": 0.0}, {"name": "c93bf6108f5e13a911928cd84b2933ed", "lat": 38.907824166666664, "lon": -77.07151416666666, "fusion_lon": 0.0, "bike_id": "c93bf6108f5e13a911928cd84b2933ed", "rental_uris": {"android": "https://dc.lft.to/lastmile_qr_scan", "ios": "https://dc.lft.to/lastmile_qr_scan"}, "is_reserved": 0, "type": "electric_bike", "is_disabled": 0, "fusion_lat": 0.0}, {"name": "5f9e143c0efd98110a52449efacd31cd", "lat": 38.90754583333333, "lon": -77.00392016666666, "fusion_lon": 0.0, "bike_id": "5f9e143c0efd98110a52449efacd31cd", "rental_uris": {"android": "https://dc.lft.to/lastmile_qr_scan", "ios": "https://dc.lft.to/lastmile_qr_scan"}, "is_reserved": 0, "type": "electric_scooter", "is_disabled": 0, "fusion_lat": 0.0}, {"name": "cf45b4f922f7696d9b23338b47e05297", "lat": 38.9156485, "lon": -76.98263283333333, "fusion_lon": 0.0, "bike_id": "cf45b4f922f7696d9b23338b47e05297", "rental_uris": {"android": "https://dc.lft.to/lastmile_qr_scan", "ios": "https://dc.lft.to/lastmile_qr_scan"}, "is_reserved": 0, "type": "electric_scooter", "is_disabled": 0, "fusion_lat": 0.0}, {"name": "29884277f69e0f976771a98c3fa68ca0", "lat": 38.88702816666667, "lon": -77.00348183333334, "fusion_lon": 0.0, "bike_id": "29884277f69e0f976771a98c3fa68ca0", "rental_uris": {"android": "https://dc.lft.to/lastmile_qr_scan", "ios": "https://dc.lft.to/lastmile_qr_scan"}, "is_reserved": 0, "type": "electric_scooter", "is_disabled": 0, "fusion_lat": 0.0}, {"name": "1cbfed9da58209e2caa34d756ef1d7b8", "lat": 38.900423833333335, "lon": -77.046743, "fusion_lon": 0.0, "bike_id": "1cbfed9da58209e2caa34d756ef1d7b8", "rental_uris": {"android": "https://dc.lft.to/lastmile_qr_scan", "ios": "https://dc.lft.to/lastmile_qr_scan"}, "is_reserved": 0, "type": "electric_scooter", "is_disabled": 0, "fusion_lat": 0.0}, {"name": "17d81a737f3a77a6a97604b8449ae6bf", "lat": 38.907874666666665, "lon": -77.032045, "fusion_lon": 0.0, "bike_id": "17d81a737f3a77a6a97604b8449ae6bf", "rental_uris": {"android": "https://dc.lft.to/lastmile_qr_scan", "ios": "https://dc.lft.to/lastmile_qr_scan"}, "is_reserved": 0, "type": "electric_scooter", "is_disabled": 0, "fusion_lat": 0.0}, {"name": "6cd5fcc9dcd2c99c003bbfdecff74ac0", "lat": 38.8556675, "lon": -77.08188016666666, "fusion_lon": 0.0, "bike_id": "6cd5fcc9dcd2c99c003bbfdecff74ac0", "rental_uris": {"android": "https://dc.lft.to/lastmile_qr_scan", "ios": "https://dc.lft.to/lastmile_qr_scan"}, "is_reserved": 0, "type": "electric_bike", "is_disabled": 0, "fusion_lat": 0.0}, {"name": "6fb81f774e0ed2ae5e3e56d671bdae89", "lat": 38.875081333333334, "lon": -77.00047133333334, "fusion_lon": 0.0, "bike_id": "6fb81f774e0ed2ae5e3e56d671bdae89", "rental_uris": {"android": "https://dc.lft.to/lastmile_qr_scan", "ios": "https://dc.lft.to/lastmile_qr_scan"}, "is_reserved": 0, "type": "electric_scooter", "is_disabled": 0, "fusion_lat": 0.0}, {"name": "b053c5126489866346a50b5b969620b0", "lat": 38.90739583333333, "lon": -76.95182666666666, "fusion_lon": 0.0, "bike_id": "b053c5126489866346a50b5b969620b0", "rental_uris": {"android": "https://dc.lft.to/lastmile_qr_scan", "ios": "https://dc.lft.to/lastmile_qr_scan"}, "is_reserved": 0, "type": "electric_scooter", "is_disabled": 0, "fusion_lat": 0.0}, {"name": "86ef43ac9bbe2c76c5fe2ce17d6928b6", "lat": 38.8767195, "lon": -77.00469616666666, "fusion_lon": 0.0, "bike_id": "86ef43ac9bbe2c76c5fe2ce17d6928b6", "rental_uris": {"android": "https://dc.lft.to/lastmile_qr_scan", "ios": "https://dc.lft.to/lastmile_qr_scan"}, "is_reserved": 0, "type": "electric_scooter", "is_disabled": 0, "fusion_lat": 0.0}, {"name": "1806f84ef986c3a4d96fb184ae68733c", "lat": 38.9002625, "lon": -76.997991, "fusion_lon": 0.0, "bike_id": "1806f84ef986c3a4d96fb184ae68733c", "rental_uris": {"android": "https://dc.lft.to/lastmile_qr_scan", "ios": "https://dc.lft.to/lastmile_qr_scan"}, "is_reserved": 0, "type": "electric_scooter", "is_disabled": 0, "fusion_lat": 0.0}, {"name": "10bff917c29c4370026f48da8e557b71", "lat": 38.93527816666667, "lon": -77.05818883333333, "fusion_lon": 0.0, "bike_id": "10bff917c29c4370026f48da8e557b71", "rental_uris": {"android": "https://dc.lft.to/lastmile_qr_scan", "ios": "https://dc.lft.to/lastmile_qr_scan"}, "is_reserved": 0, "type": "electric_scooter", "is_disabled": 0, "fusion_lat": 0.0}, {"name": "86cecbc30f9bb0aa0af5ddcc21e4b01a", "lat": 38.90545183333333, "lon": -77.0475445, "fusion_lon": 0.0, "bike_id": "86cecbc30f9bb0aa0af5ddcc21e4b01a", "rental_uris": {"android": "https://dc.lft.to/lastmile_qr_scan", "ios": "https://dc.lft.to/lastmile_qr_scan"}, "is_reserved": 0, "type": "electric_scooter", "is_disabled": 0, "fusion_lat": 0.0}, {"name": "4cdee0924c6487f8ceb69a5d60df9e1b", "lat": 38.91698133333333, "lon": -77.02175783333334, "fusion_lon": 0.0, "bike_id": "4cdee0924c6487f8ceb69a5d60df9e1b", "rental_uris": {"android": "https://dc.lft.to/lastmile_qr_scan", "ios": "https://dc.lft.to/lastmile_qr_scan"}, "is_reserved": 0, "type": "electric_scooter", "is_disabled": 0, "fusion_lat": 0.0}, {"name": "d6b5e9b262195c147f68d02800dd73d9", "lat": 38.9035085, "lon": -77.03299283333334, "fusion_lon": 0.0, "bike_id": "d6b5e9b262195c147f68d02800dd73d9", "rental_uris": {"android": "https://dc.lft.to/lastmile_qr_scan", "ios": "https://dc.lft.to/lastmile_qr_scan"}, "is_reserved": 0, "type": "electric_scooter", "is_disabled": 0, "fusion_lat": 0.0}, {"name": "8eef9732d4edc2d87d4241b577353a70", "lat": 38.903313833333335, "lon": -76.972752, "fusion_lon": 0.0, "bike_id": "8eef9732d4edc2d87d4241b577353a70", "rental_uris": {"android": "https://dc.lft.to/lastmile_qr_scan", "ios": "https://dc.lft.to/lastmile_qr_scan"}, "is_reserved": 0, "type": "electric_scooter", "is_disabled": 0, "fusion_lat": 0.0}, {"name": "7b47be485e43ac60b1bcfd4eb65d9611", "lat": 38.897948666666665, "lon": -77.005968, "fusion_lon": 0.0, "bike_id": "7b47be485e43ac60b1bcfd4eb65d9611", "rental_uris": {"android": "https://dc.lft.to/lastmile_qr_scan", "ios": "https://dc.lft.to/lastmile_qr_scan"}, "is_reserved": 0, "type": "electric_bike", "is_disabled": 0, "fusion_lat": 0.0}, {"name": "c331ce6fe087e1defb9130d09afd228e", "lat": 38.903569833333336, "lon": -77.04666766666666, "fusion_lon": 0.0, "bike_id": "c331ce6fe087e1defb9130d09afd228e", "rental_uris": {"android": "https://dc.lft.to/lastmile_qr_scan", "ios": "https://dc.lft.to/lastmile_qr_scan"}, "is_reserved": 0, "type": "electric_scooter", "is_disabled": 0, "fusion_lat": 0.0}, {"name": "34a407a9a9dd35a74545478cc9958a45", "lat": 38.92871866666667, "lon": -77.014166, "fusion_lon": 0.0, "bike_id": "34a407a9a9dd35a74545478cc9958a45", "rental_uris": {"android": "https://dc.lft.to/lastmile_qr_scan", "ios": "https://dc.lft.to/lastmile_qr_scan"}, "is_reserved": 0, "type": "electric_scooter", "is_disabled": 0, "fusion_lat": 0.0}, {"name": "d7c448bde8b22b51db02b6968a6ec695", "lat": 38.9055165, "lon": -77.04008566666667, "fusion_lon": 0.0, "bike_id": "d7c448bde8b22b51db02b6968a6ec695", "rental_uris": {"android": "https://dc.lft.to/lastmile_qr_scan", "ios": "https://dc.lft.to/lastmile_qr_scan"}, "is_reserved": 0, "type": "electric_scooter", "is_disabled": 0, "fusion_lat": 0.0}, {"name": "2b2a75155b3915217217220b6a0c6381", "lat": 38.91354916666667, "lon": -77.04168133333333, "fusion_lon": 0.0, "bike_id": "2b2a75155b3915217217220b6a0c6381", "rental_uris": {"android": "https://dc.lft.to/lastmile_qr_scan", "ios": "https://dc.lft.to/lastmile_qr_scan"}, "is_reserved": 0, "type": "electric_scooter", "is_disabled": 0, "fusion_lat": 0.0}, {"name": "f4ec02854426e5e843871f81f9ce2440", "lat": 38.90188066666666, "lon": -76.92995816666667, "fusion_lon": 0.0, "bike_id": "f4ec02854426e5e843871f81f9ce2440", "rental_uris": {"android": "https://dc.lft.to/lastmile_qr_scan", "ios": "https://dc.lft.to/lastmile_qr_scan"}, "is_reserved": 0, "type": "electric_scooter", "is_disabled": 0, "fusion_lat": 0.0}, {"name": "41f6b623959826015eee40ad1fbb0a95", "lat": 38.919204, "lon": -77.0321055, "fusion_lon": 0.0, "bike_id": "41f6b623959826015eee40ad1fbb0a95", "rental_uris": {"android": "https://dc.lft.to/lastmile_qr_scan", "ios": "https://dc.lft.to/lastmile_qr_scan"}, "is_reserved": 0, "type": "electric_scooter", "is_disabled": 0, "fusion_lat": 0.0}, {"name": "d418361bb274824b9a401a8b7282d994", "lat": 38.95644333333333, "lon": -77.0329295, "fusion_lon": 0.0, "bike_id": "d418361bb274824b9a401a8b7282d994", "rental_uris": {"android": "https://dc.lft.to/lastmile_qr_scan", "ios": "https://dc.lft.to/lastmile_qr_scan"}, "is_reserved": 0, "type": "electric_scooter", "is_disabled": 0, "fusion_lat": 0.0}, {"name": "5da9ebb5b18e7eef421f33caa1cf7a54", "lat": 39.05198933333333, "lon": -77.10920366666667, "fusion_lon": 0.0, "bike_id": "5da9ebb5b18e7eef421f33caa1cf7a54", "rental_uris": {"android": "https://dc.lft.to/lastmile_qr_scan", "ios": "https://dc.lft.to/lastmile_qr_scan"}, "is_reserved": 0, "type": "electric_bike", "is_disabled": 0, "fusion_lat": 0.0}, {"name": "2a3a26240422b5f08c68b9021335d3b3", "lat": 38.931875833333336, "lon": -77.0283335, "fusion_lon": 0.0, "bike_id": "2a3a26240422b5f08c68b9021335d3b3", "rental_uris": {"android": "https://dc.lft.to/lastmile_qr_scan", "ios": "https://dc.lft.to/lastmile_qr_scan"}, "is_reserved": 0, "type": "electric_scooter", "is_disabled": 0, "fusion_lat": 0.0}, {"name": "cb520761552dc0ad60c772659943a489", "lat": 38.9442375, "lon": -77.06326766666666, "fusion_lon": 0.0, "bike_id": "cb520761552dc0ad60c772659943a489", "rental_uris": {"android": "https://dc.lft.to/lastmile_qr_scan", "ios": "https://dc.lft.to/lastmile_qr_scan"}, "is_reserved": 0, "type": "electric_scooter", "is_disabled": 0, "fusion_lat": 0.0}, {"name": "73c54869e16f908406b694b3d97f006b", "lat": 38.911114833333336, "lon": -77.045026, "fusion_lon": 0.0, "bike_id": "73c54869e16f908406b694b3d97f006b", "rental_uris": {"android": "https://dc.lft.to/lastmile_qr_scan", "ios": "https://dc.lft.to/lastmile_qr_scan"}, "is_reserved": 0, "type": "electric_scooter", "is_disabled": 0, "fusion_lat": 0.0}, {"name": "53ff278ed77b01904c8a8c3f173e6f5b", "lat": 38.882619, "lon": -77.0036745, "fusion_lon": 0.0, "bike_id": "53ff278ed77b01904c8a8c3f173e6f5b", "rental_uris": {"android": "https://dc.lft.to/lastmile_qr_scan", "ios": "https://dc.lft.to/lastmile_qr_scan"}, "is_reserved": 0, "type": "electric_scooter", "is_disabled": 0, "fusion_lat": 0.0}, {"name": "3b02891d3792790a20c788c81e644d16", "lat": 38.91843433333333, "lon": -77.02302316666666, "fusion_lon": 0.0, "bike_id": "3b02891d3792790a20c788c81e644d16", "rental_uris": {"android": "https://dc.lft.to/lastmile_qr_scan", "ios": "https://dc.lft.to/lastmile_qr_scan"}, "is_reserved": 0, "type": "electric_scooter", "is_disabled": 0, "fusion_lat": 0.0}, {"name": "a9ae6f1e8b7b34c72115f0667ca2c9eb", "lat": 38.908680833333335, "lon": -77.03465, "fusion_lon": 0.0, "bike_id": "a9ae6f1e8b7b34c72115f0667ca2c9eb", "rental_uris": {"android": "https://dc.lft.to/lastmile_qr_scan", "ios": "https://dc.lft.to/lastmile_qr_scan"}, "is_reserved": 0, "type": "electric_scooter", "is_disabled": 0, "fusion_lat": 0.0}, {"name": "9136729e291b97d65ebca72ca149bb15", "lat": 38.902590333333336, "lon": -77.06163183333334, "fusion_lon": 0.0, "bike_id": "9136729e291b97d65ebca72ca149bb15", "rental_uris": {"android": "https://dc.lft.to/lastmile_qr_scan", "ios": "https://dc.lft.to/lastmile_qr_scan"}, "is_reserved": 0, "type": "electric_scooter", "is_disabled": 0, "fusion_lat": 0.0}, {"name": "29248030270ae6bfa881f610e653b38f", "lat": 38.900285833333335, "lon": -76.988751, "fusion_lon": 0.0, "bike_id": "29248030270ae6bfa881f610e653b38f", "rental_uris": {"android": "https://dc.lft.to/lastmile_qr_scan", "ios": "https://dc.lft.to/lastmile_qr_scan"}, "is_reserved": 0, "type": "electric_scooter", "is_disabled": 0, "fusion_lat": 0.0}, {"name": "e2fb859a2d15af22bb0fcd7d54f159f1", "lat": 38.88493033333334, "lon": -77.00727883333333, "fusion_lon": 0.0, "bike_id": "e2fb859a2d15af22bb0fcd7d54f159f1", "rental_uris": {"android": "https://dc.lft.to/lastmile_qr_scan", "ios": "https://dc.lft.to/lastmile_qr_scan"}, "is_reserved": 0, "type": "electric_scooter", "is_disabled": 0, "fusion_lat": 0.0}, {"name": "234b05a4f5b90e9616b35ee3746bd624", "lat": 38.90235766666667, "lon": -77.016361, "fusion_lon": 0.0, "bike_id": "234b05a4f5b90e9616b35ee3746bd624", "rental_uris": {"android": "https://dc.lft.to/lastmile_qr_scan", "ios": "https://dc.lft.to/lastmile_qr_scan"}, "is_reserved": 0, "type": "electric_scooter", "is_disabled": 0, "fusion_lat": 0.0}, {"name": "c4739248f03cba299d8914aa15fb23f5", "lat": 38.876566333333336, "lon": -77.00579233333333, "fusion_lon": 0.0, "bike_id": "c4739248f03cba299d8914aa15fb23f5", "rental_uris": {"android": "https://dc.lft.to/lastmile_qr_scan", "ios": "https://dc.lft.to/lastmile_qr_scan"}, "is_reserved": 0, "type": "electric_scooter", "is_disabled": 0, "fusion_lat": 0.0}, {"name": "fb7c55d63aed605e065494f3b63fcc8a", "lat": 38.88044083333333, "lon": -76.98629333333334, "fusion_lon": 0.0, "bike_id": "fb7c55d63aed605e065494f3b63fcc8a", "rental_uris": {"android": "https://dc.lft.to/lastmile_qr_scan", "ios": "https://dc.lft.to/lastmile_qr_scan"}, "is_reserved": 0, "type": "electric_bike", "is_disabled": 0, "fusion_lat": 0.0}, {"name": "8dee73dfee0b0bd2ee4cd454cde3ecd9", "lat": 38.8922105, "lon": -77.04649133333334, "fusion_lon": 0.0, "bike_id": "8dee73dfee0b0bd2ee4cd454cde3ecd9", "rental_uris": {"android": "https://dc.lft.to/lastmile_qr_scan", "ios": "https://dc.lft.to/lastmile_qr_scan"}, "is_reserved": 0, "type": "electric_scooter", "is_disabled": 0, "fusion_lat": 0.0}, {"name": "d5056bf971ffb26c4fbb223385393158", "lat": 38.867449666666666, "lon": -77.11708433333334, "fusion_lon": 0.0, "bike_id": "d5056bf971ffb26c4fbb223385393158", "rental_uris": {"android": "https://dc.lft.to/lastmile_qr_scan", "ios": "https://dc.lft.to/lastmile_qr_scan"}, "is_reserved": 0, "type": "electric_bike", "is_disabled": 0, "fusion_lat": 0.0}, {"name": "260f5260bad28b4a176f25f08060f5d2", "lat": 38.89748, "lon": -77.00741816666667, "fusion_lon": 0.0, "bike_id": "260f5260bad28b4a176f25f08060f5d2", "rental_uris": {"android": "https://dc.lft.to/lastmile_qr_scan", "ios": "https://dc.lft.to/lastmile_qr_scan"}, "is_reserved": 0, "type": "electric_scooter", "is_disabled": 0, "fusion_lat": 0.0}, {"name": "604f35232ef6c37eac09e7e56640d13f", "lat": 38.887345, "lon": -77.01745716666667, "fusion_lon": 0.0, "bike_id": "604f35232ef6c37eac09e7e56640d13f", "rental_uris": {"android": "https://dc.lft.to/lastmile_qr_scan", "ios": "https://dc.lft.to/lastmile_qr_scan"}, "is_reserved": 0, "type": "electric_scooter", "is_disabled": 0, "fusion_lat": 0.0}, {"name": "3f6e0c16d6cac1a92ee6fb4336e931db", "lat": 38.90995566666667, "lon": -77.04627783333333, "fusion_lon": 0.0, "bike_id": "3f6e0c16d6cac1a92ee6fb4336e931db", "rental_uris": {"android": "https://dc.lft.to/lastmile_qr_scan", "ios": "https://dc.lft.to/lastmile_qr_scan"}, "is_reserved": 0, "type": "electric_bike", "is_disabled": 0, "fusion_lat": 0.0}, {"name": "bf6fd3aa87109815d35d06e47f7bccea", "lat": 38.866432333333336, "lon": -76.98538616666667, "fusion_lon": 0.0, "bike_id": "bf6fd3aa87109815d35d06e47f7bccea", "rental_uris": {"android": "https://dc.lft.to/lastmile_qr_scan", "ios": "https://dc.lft.to/lastmile_qr_scan"}, "is_reserved": 0, "type": "electric_scooter", "is_disabled": 0, "fusion_lat": 0.0}, {"name": "50f086b6125c36d2883ab85b5e7f630e", "lat": 38.922113333333336, "lon": -77.0182025, "fusion_lon": 0.0, "bike_id": "50f086b6125c36d2883ab85b5e7f630e", "rental_uris": {"android": "https://dc.lft.to/lastmile_qr_scan", "ios": "https://dc.lft.to/lastmile_qr_scan"}, "is_reserved": 0, "type": "electric_scooter", "is_disabled": 0, "fusion_lat": 0.0}, {"name": "de7df494771a7dbefec3bf03bf07d157", "lat": 38.89876983333333, "lon": -77.02687216666666, "fusion_lon": 0.0, "bike_id": "de7df494771a7dbefec3bf03bf07d157", "rental_uris": {"android": "https://dc.lft.to/lastmile_qr_scan", "ios": "https://dc.lft.to/lastmile_qr_scan"}, "is_reserved": 0, "type": "electric_scooter", "is_disabled": 0, "fusion_lat": 0.0}, {"name": "8ce6c05d81d174ddc699cd31d665db4f", "lat": 38.90484566666667, "lon": -77.03916133333334, "fusion_lon": 0.0, "bike_id": "8ce6c05d81d174ddc699cd31d665db4f", "rental_uris": {"android": "https://dc.lft.to/lastmile_qr_scan", "ios": "https://dc.lft.to/lastmile_qr_scan"}, "is_reserved": 0, "type": "electric_scooter", "is_disabled": 0, "fusion_lat": 0.0}, {"name": "43434beb7d0a5627a639c3d8971293eb", "lat": 38.879437, "lon": -77.01046366666667, "fusion_lon": 0.0, "bike_id": "43434beb7d0a5627a639c3d8971293eb", "rental_uris": {"android": "https://dc.lft.to/lastmile_qr_scan", "ios": "https://dc.lft.to/lastmile_qr_scan"}, "is_reserved": 0, "type": "electric_bike", "is_disabled": 0, "fusion_lat": 0.0}, {"name": "701879a1e4e5c16a82cd093481555f65", "lat": 38.91785983333333, "lon": -77.03213766666667, "fusion_lon": 0.0, "bike_id": "701879a1e4e5c16a82cd093481555f65", "rental_uris": {"android": "https://dc.lft.to/lastmile_qr_scan", "ios": "https://dc.lft.to/lastmile_qr_scan"}, "is_reserved": 0, "type": "electric_scooter", "is_disabled": 0, "fusion_lat": 0.0}, {"name": "24f07bdad7139770bd7bd0cc35e44730", "lat": 38.899936, "lon": -77.00063016666667, "fusion_lon": 0.0, "bike_id": "24f07bdad7139770bd7bd0cc35e44730", "rental_uris": {"android": "https://dc.lft.to/lastmile_qr_scan", "ios": "https://dc.lft.to/lastmile_qr_scan"}, "is_reserved": 0, "type": "electric_scooter", "is_disabled": 0, "fusion_lat": 0.0}, {"name": "c88d89d3b684004755b6fd0edfe4ba41", "lat": 38.91711, "lon": -77.03613816666666, "fusion_lon": 0.0, "bike_id": "c88d89d3b684004755b6fd0edfe4ba41", "rental_uris": {"android": "https://dc.lft.to/lastmile_qr_scan", "ios": "https://dc.lft.to/lastmile_qr_scan"}, "is_reserved": 0, "type": "electric_scooter", "is_disabled": 0, "fusion_lat": 0.0}, {"name": "cb0831f398c3be29c2f5bcfc896629de", "lat": 38.90734416666667, "lon": -77.045027, "fusion_lon": 0.0, "bike_id": "cb0831f398c3be29c2f5bcfc896629de", "rental_uris": {"android": "https://dc.lft.to/lastmile_qr_scan", "ios": "https://dc.lft.to/lastmile_qr_scan"}, "is_reserved": 0, "type": "electric_scooter", "is_disabled": 0, "fusion_lat": 0.0}, {"name": "b82c0f11c1ecc2c5e112641d3eb5cf38", "lat": 38.89223783333333, "lon": -77.04333183333334, "fusion_lon": 0.0, "bike_id": "b82c0f11c1ecc2c5e112641d3eb5cf38", "rental_uris": {"android": "https://dc.lft.to/lastmile_qr_scan", "ios": "https://dc.lft.to/lastmile_qr_scan"}, "is_reserved": 0, "type": "electric_scooter", "is_disabled": 0, "fusion_lat": 0.0}, {"name": "22f1853c7777d3d7fc9c6e3ab0e798e5", "lat": 38.9126925, "lon": -77.0321475, "fusion_lon": 0.0, "bike_id": "22f1853c7777d3d7fc9c6e3ab0e798e5", "rental_uris": {"android": "https://dc.lft.to/lastmile_qr_scan", "ios": "https://dc.lft.to/lastmile_qr_scan"}, "is_reserved": 0, "type": "electric_scooter", "is_disabled": 0, "fusion_lat": 0.0}, {"name": "1ff455c4603ba4d11b4dc655c5d17cf6", "lat": 38.9202595, "lon": -77.01029133333333, "fusion_lon": 0.0, "bike_id": "1ff455c4603ba4d11b4dc655c5d17cf6", "rental_uris": {"android": "https://dc.lft.to/lastmile_qr_scan", "ios": "https://dc.lft.to/lastmile_qr_scan"}, "is_reserved": 0, "type": "electric_scooter", "is_disabled": 0, "fusion_lat": 0.0}, {"name": "b00dc08742f0dbaa4752b5855299734c", "lat": 38.900723666666664, "lon": -77.05129133333334, "fusion_lon": 0.0, "bike_id": "b00dc08742f0dbaa4752b5855299734c", "rental_uris": {"android": "https://dc.lft.to/lastmile_qr_scan", "ios": "https://dc.lft.to/lastmile_qr_scan"}, "is_reserved": 0, "type": "electric_scooter", "is_disabled": 0, "fusion_lat": 0.0}, {"name": "2f191c968a916b218f855da5bfd29504", "lat": 38.906723166666666, "lon": -77.02696283333333, "fusion_lon": 0.0, "bike_id": "2f191c968a916b218f855da5bfd29504", "rental_uris": {"android": "https://dc.lft.to/lastmile_qr_scan", "ios": "https://dc.lft.to/lastmile_qr_scan"}, "is_reserved": 0, "type": "electric_scooter", "is_disabled": 0, "fusion_lat": 0.0}, {"name": "a0c460fe31fc5de7a16d3c14beaf48a7", "lat": 38.900163166666665, "lon": -76.99639516666667, "fusion_lon": 0.0, "bike_id": "a0c460fe31fc5de7a16d3c14beaf48a7", "rental_uris": {"android": "https://dc.lft.to/lastmile_qr_scan", "ios": "https://dc.lft.to/lastmile_qr_scan"}, "is_reserved": 0, "type": "electric_scooter", "is_disabled": 0, "fusion_lat": 0.0}, {"name": "d90c6170ca165eeff4ed2311f594454b", "lat": 38.892169833333334, "lon": -77.0033325, "fusion_lon": 0.0, "bike_id": "d90c6170ca165eeff4ed2311f594454b", "rental_uris": {"android": "https://dc.lft.to/lastmile_qr_scan", "ios": "https://dc.lft.to/lastmile_qr_scan"}, "is_reserved": 0, "type": "electric_scooter", "is_disabled": 0, "fusion_lat": 0.0}, {"name": "de80de2bbe0fbfe36db861ae538b16a3", "lat": 38.883480666666664, "lon": -77.0260385, "fusion_lon": 0.0, "bike_id": "de80de2bbe0fbfe36db861ae538b16a3", "rental_uris": {"android": "https://dc.lft.to/lastmile_qr_scan", "ios": "https://dc.lft.to/lastmile_qr_scan"}, "is_reserved": 0, "type": "electric_scooter", "is_disabled": 0, "fusion_lat": 0.0}, {"name": "1bf3c5dcb240869d6ba29d302d2175fa", "lat": 38.90956283333333, "lon": -77.04509166666666, "fusion_lon": 0.0, "bike_id": "1bf3c5dcb240869d6ba29d302d2175fa", "rental_uris": {"android": "https://dc.lft.to/lastmile_qr_scan", "ios": "https://dc.lft.to/lastmile_qr_scan"}, "is_reserved": 0, "type": "electric_scooter", "is_disabled": 0, "fusion_lat": 0.0}, {"name": "2a2f3c8184b8a053cb732ab7c5e86823", "lat": 38.961303666666666, "lon": -77.02781433333334, "fusion_lon": 0.0, "bike_id": "2a2f3c8184b8a053cb732ab7c5e86823", "rental_uris": {"android": "https://dc.lft.to/lastmile_qr_scan", "ios": "https://dc.lft.to/lastmile_qr_scan"}, "is_reserved": 0, "type": "electric_scooter", "is_disabled": 0, "fusion_lat": 0.0}, {"name": "1c504b62c91c92ba1c87e65be70a821a", "lat": 38.904894666666664, "lon": -77.057352, "fusion_lon": 0.0, "bike_id": "1c504b62c91c92ba1c87e65be70a821a", "rental_uris": {"android": "https://dc.lft.to/lastmile_qr_scan", "ios": "https://dc.lft.to/lastmile_qr_scan"}, "is_reserved": 0, "type": "electric_scooter", "is_disabled": 0, "fusion_lat": 0.0}, {"name": "18c3df6cd6bfc288f427ce53f97b216d", "lat": 38.892234, "lon": -77.02225766666666, "fusion_lon": 0.0, "bike_id": "18c3df6cd6bfc288f427ce53f97b216d", "rental_uris": {"android": "https://dc.lft.to/lastmile_qr_scan", "ios": "https://dc.lft.to/lastmile_qr_scan"}, "is_reserved": 0, "type": "electric_scooter", "is_disabled": 0, "fusion_lat": 0.0}, {"name": "09f61089d5e248e9d10ffb5496f2545e", "lat": 38.90856483333334, "lon": -76.9996875, "fusion_lon": 0.0, "bike_id": "09f61089d5e248e9d10ffb5496f2545e", "rental_uris": {"android": "https://dc.lft.to/lastmile_qr_scan", "ios": "https://dc.lft.to/lastmile_qr_scan"}, "is_reserved": 0, "type": "electric_scooter", "is_disabled": 0, "fusion_lat": 0.0}, {"name": "a024d0c851b9039fc2bf151e688ef7f6", "lat": 38.890177666666666, "lon": -76.93730033333334, "fusion_lon": 0.0, "bike_id": "a024d0c851b9039fc2bf151e688ef7f6", "rental_uris": {"android": "https://dc.lft.to/lastmile_qr_scan", "ios": "https://dc.lft.to/lastmile_qr_scan"}, "is_reserved": 0, "type": "electric_scooter", "is_disabled": 0, "fusion_lat": 0.0}, {"name": "1e0d06d16052af09e69d67e2da37fc63", "lat": 38.86534433333333, "lon": -76.989691, "fusion_lon": 0.0, "bike_id": "1e0d06d16052af09e69d67e2da37fc63", "rental_uris": {"android": "https://dc.lft.to/lastmile_qr_scan", "ios": "https://dc.lft.to/lastmile_qr_scan"}, "is_reserved": 0, "type": "electric_scooter", "is_disabled": 0, "fusion_lat": 0.0}, {"name": "2bf22d4631675335015fcaf5c419ae0f", "lat": 38.887399, "lon": -77.01747033333334, "fusion_lon": 0.0, "bike_id": "2bf22d4631675335015fcaf5c419ae0f", "rental_uris": {"android": "https://dc.lft.to/lastmile_qr_scan", "ios": "https://dc.lft.to/lastmile_qr_scan"}, "is_reserved": 0, "type": "electric_scooter", "is_disabled": 0, "fusion_lat": 0.0}, {"name": "04c9c27886adaa2ab10514c09614008d", "lat": 38.929679666666665, "lon": -77.01114783333334, "fusion_lon": 0.0, "bike_id": "04c9c27886adaa2ab10514c09614008d", "rental_uris": {"android": "https://dc.lft.to/lastmile_qr_scan", "ios": "https://dc.lft.to/lastmile_qr_scan"}, "is_reserved": 0, "type": "electric_scooter", "is_disabled": 0, "fusion_lat": 0.0}, {"name": "4d3727a9386b550232a03170984943f8", "lat": 38.924678666666665, "lon": -77.02712616666666, "fusion_lon": 0.0, "bike_id": "4d3727a9386b550232a03170984943f8", "rental_uris": {"android": "https://dc.lft.to/lastmile_qr_scan", "ios": "https://dc.lft.to/lastmile_qr_scan"}, "is_reserved": 0, "type": "electric_scooter", "is_disabled": 0, "fusion_lat": 0.0}, {"name": "e0334b5e21c56d49eb5cf9ee5c7b2bad", "lat": 38.870968, "lon": -76.9686835, "fusion_lon": 0.0, "bike_id": "e0334b5e21c56d49eb5cf9ee5c7b2bad", "rental_uris": {"android": "https://dc.lft.to/lastmile_qr_scan", "ios": "https://dc.lft.to/lastmile_qr_scan"}, "is_reserved": 0, "type": "electric_scooter", "is_disabled": 0, "fusion_lat": 0.0}, {"name": "1e5fd33f5335a22678b84c61805a24c9", "lat": 38.90286366666667, "lon": -77.03461216666666, "fusion_lon": 0.0, "bike_id": "1e5fd33f5335a22678b84c61805a24c9", "rental_uris": {"android": "https://dc.lft.to/lastmile_qr_scan", "ios": "https://dc.lft.to/lastmile_qr_scan"}, "is_reserved": 0, "type": "electric_scooter", "is_disabled": 0, "fusion_lat": 0.0}, {"name": "0c75b0ab11ca8458424b8e3b29325aac", "lat": 38.918681666666664, "lon": -77.03898883333333, "fusion_lon": 0.0, "bike_id": "0c75b0ab11ca8458424b8e3b29325aac", "rental_uris": {"android": "https://dc.lft.to/lastmile_qr_scan", "ios": "https://dc.lft.to/lastmile_qr_scan"}, "is_reserved": 0, "type": "electric_scooter", "is_disabled": 0, "fusion_lat": 0.0}, {"name": "c6641fb5d39cf4f5b231bc9421082caf", "lat": 38.90099516666667, "lon": -77.03923766666666, "fusion_lon": 0.0, "bike_id": "c6641fb5d39cf4f5b231bc9421082caf", "rental_uris": {"android": "https://dc.lft.to/lastmile_qr_scan", "ios": "https://dc.lft.to/lastmile_qr_scan"}, "is_reserved": 0, "type": "electric_bike", "is_disabled": 0, "fusion_lat": 0.0}, {"name": "9e38201482a0fc348cd4aa81e858d52f", "lat": 38.91086383333333, "lon": -77.03202366666666, "fusion_lon": 0.0, "bike_id": "9e38201482a0fc348cd4aa81e858d52f", "rental_uris": {"android": "https://dc.lft.to/lastmile_qr_scan", "ios": "https://dc.lft.to/lastmile_qr_scan"}, "is_reserved": 0, "type": "electric_scooter", "is_disabled": 0, "fusion_lat": 0.0}, {"name": "f2ab039b830b863c4c73f7c9f66c377d", "lat": 38.906585666666665, "lon": -77.03867016666666, "fusion_lon": 0.0, "bike_id": "f2ab039b830b863c4c73f7c9f66c377d", "rental_uris": {"android": "https://dc.lft.to/lastmile_qr_scan", "ios": "https://dc.lft.to/lastmile_qr_scan"}, "is_reserved": 0, "type": "electric_scooter", "is_disabled": 0, "fusion_lat": 0.0}, {"name": "2f8eaa177540583c5667862d3100c5db", "lat": 38.901559, "lon": -76.945945, "fusion_lon": 0.0, "bike_id": "2f8eaa177540583c5667862d3100c5db", "rental_uris": {"android": "https://dc.lft.to/lastmile_qr_scan", "ios": "https://dc.lft.to/lastmile_qr_scan"}, "is_reserved": 0, "type": "electric_scooter", "is_disabled": 0, "fusion_lat": 0.0}, {"name": "6d52189162f4df597fcd5f2e17a590b9", "lat": 38.891873833333335, "lon": -77.00334933333333, "fusion_lon": 0.0, "bike_id": "6d52189162f4df597fcd5f2e17a590b9", "rental_uris": {"android": "https://dc.lft.to/lastmile_qr_scan", "ios": "https://dc.lft.to/lastmile_qr_scan"}, "is_reserved": 0, "type": "electric_scooter", "is_disabled": 0, "fusion_lat": 0.0}, {"name": "25ec88f65f1fc61208b2ccadc22b18c7", "lat": 38.90410266666667, "lon": -77.06593266666667, "fusion_lon": 0.0, "bike_id": "25ec88f65f1fc61208b2ccadc22b18c7", "rental_uris": {"android": "https://dc.lft.to/lastmile_qr_scan", "ios": "https://dc.lft.to/lastmile_qr_scan"}, "is_reserved": 0, "type": "electric_scooter", "is_disabled": 0, "fusion_lat": 0.0}, {"name": "50d5ca2b333d8cd1684cfe0a69faaf46", "lat": 38.907293833333334, "lon": -77.0634515, "fusion_lon": 0.0, "bike_id": "50d5ca2b333d8cd1684cfe0a69faaf46", "rental_uris": {"android": "https://dc.lft.to/lastmile_qr_scan", "ios": "https://dc.lft.to/lastmile_qr_scan"}, "is_reserved": 0, "type": "electric_scooter", "is_disabled": 0, "fusion_lat": 0.0}, {"name": "3754925566a83528c66acb2b8ae64905", "lat": 38.9192875, "lon": -77.013558, "fusion_lon": 0.0, "bike_id": "3754925566a83528c66acb2b8ae64905", "rental_uris": {"android": "https://dc.lft.to/lastmile_qr_scan", "ios": "https://dc.lft.to/lastmile_qr_scan"}, "is_reserved": 0, "type": "electric_scooter", "is_disabled": 0, "fusion_lat": 0.0}, {"name": "17d4acd35a630731e6e6751dcdce6925", "lat": 38.87392966666667, "lon": -76.966027, "fusion_lon": 0.0, "bike_id": "17d4acd35a630731e6e6751dcdce6925", "rental_uris": {"android": "https://dc.lft.to/lastmile_qr_scan", "ios": "https://dc.lft.to/lastmile_qr_scan"}, "is_reserved": 0, "type": "electric_scooter", "is_disabled": 0, "fusion_lat": 0.0}, {"name": "6e685737f99bc1406e2ba42f81058b72", "lat": 38.90504416666667, "lon": -76.99014516666666, "fusion_lon": 0.0, "bike_id": "6e685737f99bc1406e2ba42f81058b72", "rental_uris": {"android": "https://dc.lft.to/lastmile_qr_scan", "ios": "https://dc.lft.to/lastmile_qr_scan"}, "is_reserved": 0, "type": "electric_scooter", "is_disabled": 0, "fusion_lat": 0.0}, {"name": "c3f70409b877df53da961047ca55f580", "lat": 38.901013166666665, "lon": -77.0591285, "fusion_lon": 0.0, "bike_id": "c3f70409b877df53da961047ca55f580", "rental_uris": {"android": "https://dc.lft.to/lastmile_qr_scan", "ios": "https://dc.lft.to/lastmile_qr_scan"}, "is_reserved": 0, "type": "electric_scooter", "is_disabled": 0, "fusion_lat": 0.0}, {"name": "f4db9500e0e84fe421df744be94bf777", "lat": 38.92183466666667, "lon": -77.04694883333333, "fusion_lon": 0.0, "bike_id": "f4db9500e0e84fe421df744be94bf777", "rental_uris": {"android": "https://dc.lft.to/lastmile_qr_scan", "ios": "https://dc.lft.to/lastmile_qr_scan"}, "is_reserved": 0, "type": "electric_scooter", "is_disabled": 0, "fusion_lat": 0.0}, {"name": "228088a468675b4c704f955fe71a3ce9", "lat": 38.871508, "lon": -76.93645783333334, "fusion_lon": 0.0, "bike_id": "228088a468675b4c704f955fe71a3ce9", "rental_uris": {"android": "https://dc.lft.to/lastmile_qr_scan", "ios": "https://dc.lft.to/lastmile_qr_scan"}, "is_reserved": 0, "type": "electric_bike", "is_disabled": 0, "fusion_lat": 0.0}, {"name": "6e3394fc3aee1b83c5311dcd459bedbe", "lat": 38.916946, "lon": -77.03122633333334, "fusion_lon": 0.0, "bike_id": "6e3394fc3aee1b83c5311dcd459bedbe", "rental_uris": {"android": "https://dc.lft.to/lastmile_qr_scan", "ios": "https://dc.lft.to/lastmile_qr_scan"}, "is_reserved": 0, "type": "electric_scooter", "is_disabled": 0, "fusion_lat": 0.0}, {"name": "5dd1a4ff1e493505fa1b5cd569cb34f9", "lat": 38.883333666666665, "lon": -77.0216035, "fusion_lon": 0.0, "bike_id": "5dd1a4ff1e493505fa1b5cd569cb34f9", "rental_uris": {"android": "https://dc.lft.to/lastmile_qr_scan", "ios": "https://dc.lft.to/lastmile_qr_scan"}, "is_reserved": 0, "type": "electric_scooter", "is_disabled": 0, "fusion_lat": 0.0}, {"name": "771b8ab0c897fef7e93ac4285bc238b9", "lat": 38.92413766666667, "lon": -77.02127133333333, "fusion_lon": 0.0, "bike_id": "771b8ab0c897fef7e93ac4285bc238b9", "rental_uris": {"android": "https://dc.lft.to/lastmile_qr_scan", "ios": "https://dc.lft.to/lastmile_qr_scan"}, "is_reserved": 0, "type": "electric_scooter", "is_disabled": 0, "fusion_lat": 0.0}, {"name": "0bfd1b99e2c893d7eb1e464b51e39f35", "lat": 38.904758333333334, "lon": -77.02803083333333, "fusion_lon": 0.0, "bike_id": "0bfd1b99e2c893d7eb1e464b51e39f35", "rental_uris": {"android": "https://dc.lft.to/lastmile_qr_scan", "ios": "https://dc.lft.to/lastmile_qr_scan"}, "is_reserved": 0, "type": "electric_scooter", "is_disabled": 0, "fusion_lat": 0.0}, {"name": "056f73e452c76c43adab90ff5688acb8", "lat": 38.92983383333333, "lon": -77.05507333333334, "fusion_lon": 0.0, "bike_id": "056f73e452c76c43adab90ff5688acb8", "rental_uris": {"android": "https://dc.lft.to/lastmile_qr_scan", "ios": "https://dc.lft.to/lastmile_qr_scan"}, "is_reserved": 0, "type": "electric_scooter", "is_disabled": 0, "fusion_lat": 0.0}, {"name": "bb557aa8f3edba9d34f9b847478feb72", "lat": 38.91038016666667, "lon": -77.032777, "fusion_lon": 0.0, "bike_id": "bb557aa8f3edba9d34f9b847478feb72", "rental_uris": {"android": "https://dc.lft.to/lastmile_qr_scan", "ios": "https://dc.lft.to/lastmile_qr_scan"}, "is_reserved": 0, "type": "electric_scooter", "is_disabled": 0, "fusion_lat": 0.0}, {"name": "751f11ef08361d838628340ded2f77c9", "lat": 38.9110255, "lon": -77.04436766666667, "fusion_lon": 0.0, "bike_id": "751f11ef08361d838628340ded2f77c9", "rental_uris": {"android": "https://dc.lft.to/lastmile_qr_scan", "ios": "https://dc.lft.to/lastmile_qr_scan"}, "is_reserved": 0, "type": "electric_scooter", "is_disabled": 0, "fusion_lat": 0.0}, {"name": "42a43989f700131527a1054427e308d6", "lat": 38.9146395, "lon": -76.98119716666666, "fusion_lon": 0.0, "bike_id": "42a43989f700131527a1054427e308d6", "rental_uris": {"android": "https://dc.lft.to/lastmile_qr_scan", "ios": "https://dc.lft.to/lastmile_qr_scan"}, "is_reserved": 0, "type": "electric_bike", "is_disabled": 0, "fusion_lat": 0.0}, {"name": "cf2b5973f3b6351ce63ab84b3f4ad852", "lat": 38.87283133333333, "lon": -77.23318183333333, "fusion_lon": 0.0, "bike_id": "cf2b5973f3b6351ce63ab84b3f4ad852", "rental_uris": {"android": "https://dc.lft.to/lastmile_qr_scan", "ios": "https://dc.lft.to/lastmile_qr_scan"}, "is_reserved": 0, "type": "electric_bike", "is_disabled": 0, "fusion_lat": 0.0}, {"name": "c0cc5d969138e406a5cd1a1461853c10", "lat": 38.913217833333334, "lon": -76.98384616666667, "fusion_lon": 0.0, "bike_id": "c0cc5d969138e406a5cd1a1461853c10", "rental_uris": {"android": "https://dc.lft.to/lastmile_qr_scan", "ios": "https://dc.lft.to/lastmile_qr_scan"}, "is_reserved": 0, "type": "electric_bike", "is_disabled": 0, "fusion_lat": 0.0}, {"name": "fa7502d0e041d497cb3f79aa26791c8d", "lat": 38.91220283333333, "lon": -77.02796333333333, "fusion_lon": 0.0, "bike_id": "fa7502d0e041d497cb3f79aa26791c8d", "rental_uris": {"android": "https://dc.lft.to/lastmile_qr_scan", "ios": "https://dc.lft.to/lastmile_qr_scan"}, "is_reserved": 0, "type": "electric_scooter", "is_disabled": 0, "fusion_lat": 0.0}, {"name": "ea1d2d5e7070dbd9df3a6508df8acb58", "lat": 38.8536085, "lon": -76.98532333333333, "fusion_lon": 0.0, "bike_id": "ea1d2d5e7070dbd9df3a6508df8acb58", "rental_uris": {"android": "https://dc.lft.to/lastmile_qr_scan", "ios": "https://dc.lft.to/lastmile_qr_scan"}, "is_reserved": 0, "type": "electric_scooter", "is_disabled": 0, "fusion_lat": 0.0}, {"name": "dc9a9600857bdc8359ba4361b10db3ad", "lat": 38.892251, "lon": -77.043256, "fusion_lon": 0.0, "bike_id": "dc9a9600857bdc8359ba4361b10db3ad", "rental_uris": {"android": "https://dc.lft.to/lastmile_qr_scan", "ios": "https://dc.lft.to/lastmile_qr_scan"}, "is_reserved": 0, "type": "electric_scooter", "is_disabled": 0, "fusion_lat": 0.0}, {"name": "d0751b8e2a6749ba0d3c39f62a20f145", "lat": 38.89046966666667, "lon": -76.93752783333333, "fusion_lon": 0.0, "bike_id": "d0751b8e2a6749ba0d3c39f62a20f145", "rental_uris": {"android": "https://dc.lft.to/lastmile_qr_scan", "ios": "https://dc.lft.to/lastmile_qr_scan"}, "is_reserved": 0, "type": "electric_scooter", "is_disabled": 0, "fusion_lat": 0.0}, {"name": "cfa04e45826645fceef90b25fb2ffd2a", "lat": 38.91881166666667, "lon": -77.04311516666667, "fusion_lon": 0.0, "bike_id": "cfa04e45826645fceef90b25fb2ffd2a", "rental_uris": {"android": "https://dc.lft.to/lastmile_qr_scan", "ios": "https://dc.lft.to/lastmile_qr_scan"}, "is_reserved": 0, "type": "electric_scooter", "is_disabled": 0, "fusion_lat": 0.0}, {"name": "7567f8016c40475b0e4a18fa1ec94d06", "lat": 38.905986666666664, "lon": -77.04704233333334, "fusion_lon": 0.0, "bike_id": "7567f8016c40475b0e4a18fa1ec94d06", "rental_uris": {"android": "https://dc.lft.to/lastmile_qr_scan", "ios": "https://dc.lft.to/lastmile_qr_scan"}, "is_reserved": 0, "type": "electric_scooter", "is_disabled": 0, "fusion_lat": 0.0}, {"name": "e9b322bab21d805f074bf8ac60715a64", "lat": 38.917019, "lon": -77.00554283333334, "fusion_lon": 0.0, "bike_id": "e9b322bab21d805f074bf8ac60715a64", "rental_uris": {"android": "https://dc.lft.to/lastmile_qr_scan", "ios": "https://dc.lft.to/lastmile_qr_scan"}, "is_reserved": 0, "type": "electric_scooter", "is_disabled": 0, "fusion_lat": 0.0}, {"name": "98bc9b11d5abfc06fdf5c18f1008dbed", "lat": 38.86640766666667, "lon": -77.23198166666667, "fusion_lon": 0.0, "bike_id": "98bc9b11d5abfc06fdf5c18f1008dbed", "rental_uris": {"android": "https://dc.lft.to/lastmile_qr_scan", "ios": "https://dc.lft.to/lastmile_qr_scan"}, "is_reserved": 0, "type": "electric_bike", "is_disabled": 0, "fusion_lat": 0.0}, {"name": "60deaf81abaffb9c9b9ba611f5729b19", "lat": 38.92427983333333, "lon": -77.0448335, "fusion_lon": 0.0, "bike_id": "60deaf81abaffb9c9b9ba611f5729b19", "rental_uris": {"android": "https://dc.lft.to/lastmile_qr_scan", "ios": "https://dc.lft.to/lastmile_qr_scan"}, "is_reserved": 0, "type": "electric_scooter", "is_disabled": 0, "fusion_lat": 0.0}, {"name": "9dc2ed9f4e5dfa8aff6338cad3d46031", "lat": 38.9616455, "lon": -77.03243783333333, "fusion_lon": 0.0, "bike_id": "9dc2ed9f4e5dfa8aff6338cad3d46031", "rental_uris": {"android": "https://dc.lft.to/lastmile_qr_scan", "ios": "https://dc.lft.to/lastmile_qr_scan"}, "is_reserved": 0, "type": "electric_scooter", "is_disabled": 0, "fusion_lat": 0.0}, {"name": "1438ccc5fdf30510d6e12281f2b029af", "lat": 38.942234166666665, "lon": -77.02550083333334, "fusion_lon": 0.0, "bike_id": "1438ccc5fdf30510d6e12281f2b029af", "rental_uris": {"android": "https://dc.lft.to/lastmile_qr_scan", "ios": "https://dc.lft.to/lastmile_qr_scan"}, "is_reserved": 0, "type": "electric_scooter", "is_disabled": 0, "fusion_lat": 0.0}, {"name": "e29203e682fb58aecf44c11ca4e5221f", "lat": 38.9235235, "lon": -76.99954033333333, "fusion_lon": 0.0, "bike_id": "e29203e682fb58aecf44c11ca4e5221f", "rental_uris": {"android": "https://dc.lft.to/lastmile_qr_scan", "ios": "https://dc.lft.to/lastmile_qr_scan"}, "is_reserved": 0, "type": "electric_scooter", "is_disabled": 0, "fusion_lat": 0.0}, {"name": "69e48f1d3af1559c74f8bbcab460d966", "lat": 38.927461, "lon": -77.032709, "fusion_lon": 0.0, "bike_id": "69e48f1d3af1559c74f8bbcab460d966", "rental_uris": {"android": "https://dc.lft.to/lastmile_qr_scan", "ios": "https://dc.lft.to/lastmile_qr_scan"}, "is_reserved": 0, "type": "electric_scooter", "is_disabled": 0, "fusion_lat": 0.0}, {"name": "88d58032e71e3d651a660550dbb1ca31", "lat": 38.92116466666667, "lon": -77.03930066666666, "fusion_lon": 0.0, "bike_id": "88d58032e71e3d651a660550dbb1ca31", "rental_uris": {"android": "https://dc.lft.to/lastmile_qr_scan", "ios": "https://dc.lft.to/lastmile_qr_scan"}, "is_reserved": 0, "type": "electric_scooter", "is_disabled": 0, "fusion_lat": 0.0}, {"name": "8909926c2e4b231a43a29559f3737cc5", "lat": 38.92311866666667, "lon": -77.04325333333334, "fusion_lon": 0.0, "bike_id": "8909926c2e4b231a43a29559f3737cc5", "rental_uris": {"android": "https://dc.lft.to/lastmile_qr_scan", "ios": "https://dc.lft.to/lastmile_qr_scan"}, "is_reserved": 0, "type": "electric_scooter", "is_disabled": 0, "fusion_lat": 0.0}, {"name": "7fadd92aa67c6006a75fbfc4b5c25458", "lat": 38.901402833333336, "lon": -77.00068483333334, "fusion_lon": 0.0, "bike_id": "7fadd92aa67c6006a75fbfc4b5c25458", "rental_uris": {"android": "https://dc.lft.to/lastmile_qr_scan", "ios": "https://dc.lft.to/lastmile_qr_scan"}, "is_reserved": 0, "type": "electric_scooter", "is_disabled": 0, "fusion_lat": 0.0}, {"name": "878d8b3d8e9831b7a3442ac6a5c7a9a5", "lat": 38.88589233333333, "lon": -77.06074966666667, "fusion_lon": 0.0, "bike_id": "878d8b3d8e9831b7a3442ac6a5c7a9a5", "rental_uris": {"android": "https://dc.lft.to/lastmile_qr_scan", "ios": "https://dc.lft.to/lastmile_qr_scan"}, "is_reserved": 0, "type": "electric_bike", "is_disabled": 0, "fusion_lat": 0.0}, {"name": "a375d9c272496dee6dbf0369ed7779ad", "lat": 38.90017183333333, "lon": -76.997438, "fusion_lon": 0.0, "bike_id": "a375d9c272496dee6dbf0369ed7779ad", "rental_uris": {"android": "https://dc.lft.to/lastmile_qr_scan", "ios": "https://dc.lft.to/lastmile_qr_scan"}, "is_reserved": 0, "type": "electric_scooter", "is_disabled": 0, "fusion_lat": 0.0}, {"name": "dbebecfb0d3727367ebfda1660790b6c", "lat": 38.88733083333333, "lon": -77.0138775, "fusion_lon": 0.0, "bike_id": "dbebecfb0d3727367ebfda1660790b6c", "rental_uris": {"android": "https://dc.lft.to/lastmile_qr_scan", "ios": "https://dc.lft.to/lastmile_qr_scan"}, "is_reserved": 0, "type": "electric_scooter", "is_disabled": 0, "fusion_lat": 0.0}, {"name": "64094aeefa3335aa3dc280330d449dce", "lat": 39.02436566666667, "lon": -77.13100083333333, "fusion_lon": 0.0, "bike_id": "64094aeefa3335aa3dc280330d449dce", "rental_uris": {"android": "https://dc.lft.to/lastmile_qr_scan", "ios": "https://dc.lft.to/lastmile_qr_scan"}, "is_reserved": 0, "type": "electric_bike", "is_disabled": 0, "fusion_lat": 0.0}, {"name": "f6acce014a27daa074c7b20d421935c0", "lat": 38.937124833333336, "lon": -77.02431983333334, "fusion_lon": 0.0, "bike_id": "f6acce014a27daa074c7b20d421935c0", "rental_uris": {"android": "https://dc.lft.to/lastmile_qr_scan", "ios": "https://dc.lft.to/lastmile_qr_scan"}, "is_reserved": 0, "type": "electric_scooter", "is_disabled": 0, "fusion_lat": 0.0}, {"name": "fca3158b11aa1610052f2230b73a8fcd", "lat": 39.02891316666667, "lon": -77.09596966666666, "fusion_lon": 0.0, "bike_id": "fca3158b11aa1610052f2230b73a8fcd", "rental_uris": {"android": "https://dc.lft.to/lastmile_qr_scan", "ios": "https://dc.lft.to/lastmile_qr_scan"}, "is_reserved": 0, "type": "electric_bike", "is_disabled": 0, "fusion_lat": 0.0}, {"name": "a468f1f9a237104069924ed1c2e4774c", "lat": 38.90230833333333, "lon": -77.0457215, "fusion_lon": 0.0, "bike_id": "a468f1f9a237104069924ed1c2e4774c", "rental_uris": {"android": "https://dc.lft.to/lastmile_qr_scan", "ios": "https://dc.lft.to/lastmile_qr_scan"}, "is_reserved": 0, "type": "electric_scooter", "is_disabled": 0, "fusion_lat": 0.0}, {"name": "683c7db4ae3a94a9fa55e8d953c04c85", "lat": 38.882631833333335, "lon": -76.99503866666667, "fusion_lon": 0.0, "bike_id": "683c7db4ae3a94a9fa55e8d953c04c85", "rental_uris": {"android": "https://dc.lft.to/lastmile_qr_scan", "ios": "https://dc.lft.to/lastmile_qr_scan"}, "is_reserved": 0, "type": "electric_scooter", "is_disabled": 0, "fusion_lat": 0.0}, {"name": "c46352dae2902791e90542d688230a88", "lat": 38.94185233333333, "lon": -77.02490116666667, "fusion_lon": 0.0, "bike_id": "c46352dae2902791e90542d688230a88", "rental_uris": {"android": "https://dc.lft.to/lastmile_qr_scan", "ios": "https://dc.lft.to/lastmile_qr_scan"}, "is_reserved": 0, "type": "electric_scooter", "is_disabled": 0, "fusion_lat": 0.0}, {"name": "d9334108ad58ce49d9ad7d8ec9a99032", "lat": 38.90529866666667, "lon": -76.98304683333333, "fusion_lon": 0.0, "bike_id": "d9334108ad58ce49d9ad7d8ec9a99032", "rental_uris": {"android": "https://dc.lft.to/lastmile_qr_scan", "ios": "https://dc.lft.to/lastmile_qr_scan"}, "is_reserved": 0, "type": "electric_scooter", "is_disabled": 0, "fusion_lat": 0.0}, {"name": "d5cc973d4630b7eb0d678862d100fded", "lat": 38.939347833333336, "lon": -77.03592266666666, "fusion_lon": 0.0, "bike_id": "d5cc973d4630b7eb0d678862d100fded", "rental_uris": {"android": "https://dc.lft.to/lastmile_qr_scan", "ios": "https://dc.lft.to/lastmile_qr_scan"}, "is_reserved": 0, "type": "electric_scooter", "is_disabled": 0, "fusion_lat": 0.0}, {"name": "04af5315ce6f2cae55551949a5c6635f", "lat": 38.92520533333333, "lon": -77.03847433333334, "fusion_lon": 0.0, "bike_id": "04af5315ce6f2cae55551949a5c6635f", "rental_uris": {"android": "https://dc.lft.to/lastmile_qr_scan", "ios": "https://dc.lft.to/lastmile_qr_scan"}, "is_reserved": 0, "type": "electric_scooter", "is_disabled": 0, "fusion_lat": 0.0}, {"name": "45433c42a94514bf69459593ed0d69ef", "lat": 38.923243, "lon": -77.04314733333334, "fusion_lon": 0.0, "bike_id": "45433c42a94514bf69459593ed0d69ef", "rental_uris": {"android": "https://dc.lft.to/lastmile_qr_scan", "ios": "https://dc.lft.to/lastmile_qr_scan"}, "is_reserved": 0, "type": "electric_scooter", "is_disabled": 0, "fusion_lat": 0.0}, {"name": "052a0de169865057abdd9e5a97da66c8", "lat": 38.91916033333333, "lon": -77.04638183333333, "fusion_lon": 0.0, "bike_id": "052a0de169865057abdd9e5a97da66c8", "rental_uris": {"android": "https://dc.lft.to/lastmile_qr_scan", "ios": "https://dc.lft.to/lastmile_qr_scan"}, "is_reserved": 0, "type": "electric_scooter", "is_disabled": 0, "fusion_lat": 0.0}, {"name": "5637d803ea8679a6d094275a02cecc04", "lat": 38.8812195, "lon": -77.0140655, "fusion_lon": 0.0, "bike_id": "5637d803ea8679a6d094275a02cecc04", "rental_uris": {"android": "https://dc.lft.to/lastmile_qr_scan", "ios": "https://dc.lft.to/lastmile_qr_scan"}, "is_reserved": 0, "type": "electric_scooter", "is_disabled": 0, "fusion_lat": 0.0}, {"name": "6a7789c89b1f53fce1c5456cf09c0400", "lat": 38.8864015, "lon": -76.996164, "fusion_lon": 0.0, "bike_id": "6a7789c89b1f53fce1c5456cf09c0400", "rental_uris": {"android": "https://dc.lft.to/lastmile_qr_scan", "ios": "https://dc.lft.to/lastmile_qr_scan"}, "is_reserved": 0, "type": "electric_scooter", "is_disabled": 0, "fusion_lat": 0.0}, {"name": "05af1cf2268f6713f79cea418c99472b", "lat": 38.924032833333335, "lon": -77.02537933333333, "fusion_lon": 0.0, "bike_id": "05af1cf2268f6713f79cea418c99472b", "rental_uris": {"android": "https://dc.lft.to/lastmile_qr_scan", "ios": "https://dc.lft.to/lastmile_qr_scan"}, "is_reserved": 0, "type": "electric_scooter", "is_disabled": 0, "fusion_lat": 0.0}, {"name": "7e741713c29075325780598b6aea5e85", "lat": 38.836125, "lon": -77.003799, "fusion_lon": 0.0, "bike_id": "7e741713c29075325780598b6aea5e85", "rental_uris": {"android": "https://dc.lft.to/lastmile_qr_scan", "ios": "https://dc.lft.to/lastmile_qr_scan"}, "is_reserved": 0, "type": "electric_bike", "is_disabled": 0, "fusion_lat": 0.0}, {"name": "f38a5c5ae6a8e0faf10db636e53708fc", "lat": 38.9320075, "lon": -77.03853, "fusion_lon": 0.0, "bike_id": "f38a5c5ae6a8e0faf10db636e53708fc", "rental_uris": {"android": "https://dc.lft.to/lastmile_qr_scan", "ios": "https://dc.lft.to/lastmile_qr_scan"}, "is_reserved": 0, "type": "electric_scooter", "is_disabled": 0, "fusion_lat": 0.0}, {"name": "c34d86202c4e0fce3979335a55ba3098", "lat": 38.903709666666664, "lon": -77.03169483333333, "fusion_lon": 0.0, "bike_id": "c34d86202c4e0fce3979335a55ba3098", "rental_uris": {"android": "https://dc.lft.to/lastmile_qr_scan", "ios": "https://dc.lft.to/lastmile_qr_scan"}, "is_reserved": 0, "type": "electric_scooter", "is_disabled": 0, "fusion_lat": 0.0}, {"name": "e4e05363928ec069680125ab7a3fe910", "lat": 38.95534166666667, "lon": -76.96805833333333, "fusion_lon": 0.0, "bike_id": "e4e05363928ec069680125ab7a3fe910", "rental_uris": {"android": "https://dc.lft.to/lastmile_qr_scan", "ios": "https://dc.lft.to/lastmile_qr_scan"}, "is_reserved": 0, "type": "electric_bike", "is_disabled": 0, "fusion_lat": 0.0}, {"name": "87d05ae66c41da40564c800377bd806b", "lat": 38.92476816666667, "lon": -77.02553716666667, "fusion_lon": 0.0, "bike_id": "87d05ae66c41da40564c800377bd806b", "rental_uris": {"android": "https://dc.lft.to/lastmile_qr_scan", "ios": "https://dc.lft.to/lastmile_qr_scan"}, "is_reserved": 0, "type": "electric_scooter", "is_disabled": 0, "fusion_lat": 0.0}, {"name": "e6aae7f28af5c6a33202c46b488c23b5", "lat": 38.902399, "lon": -77.03273333333334, "fusion_lon": 0.0, "bike_id": "e6aae7f28af5c6a33202c46b488c23b5", "rental_uris": {"android": "https://dc.lft.to/lastmile_qr_scan", "ios": "https://dc.lft.to/lastmile_qr_scan"}, "is_reserved": 0, "type": "electric_scooter", "is_disabled": 0, "fusion_lat": 0.0}, {"name": "30d7a36113a3139558cf184a6b4403ab", "lat": 38.897228166666665, "lon": -77.04602766666666, "fusion_lon": 0.0, "bike_id": "30d7a36113a3139558cf184a6b4403ab", "rental_uris": {"android": "https://dc.lft.to/lastmile_qr_scan", "ios": "https://dc.lft.to/lastmile_qr_scan"}, "is_reserved": 0, "type": "electric_scooter", "is_disabled": 0, "fusion_lat": 0.0}, {"name": "d909e946061b2357e23670bcee88af3e", "lat": 38.90231933333333, "lon": -77.0534005, "fusion_lon": 0.0, "bike_id": "d909e946061b2357e23670bcee88af3e", "rental_uris": {"android": "https://dc.lft.to/lastmile_qr_scan", "ios": "https://dc.lft.to/lastmile_qr_scan"}, "is_reserved": 0, "type": "electric_scooter", "is_disabled": 0, "fusion_lat": 0.0}, {"name": "444fbf3e3ac2f85d79ba81a30f25893f", "lat": 38.91556583333333, "lon": -77.033226, "fusion_lon": 0.0, "bike_id": "444fbf3e3ac2f85d79ba81a30f25893f", "rental_uris": {"android": "https://dc.lft.to/lastmile_qr_scan", "ios": "https://dc.lft.to/lastmile_qr_scan"}, "is_reserved": 0, "type": "electric_scooter", "is_disabled": 0, "fusion_lat": 0.0}, {"name": "61da1f0234284113de3fbb45fbf4551f", "lat": 38.867001, "lon": -76.98396366666667, "fusion_lon": 0.0, "bike_id": "61da1f0234284113de3fbb45fbf4551f", "rental_uris": {"android": "https://dc.lft.to/lastmile_qr_scan", "ios": "https://dc.lft.to/lastmile_qr_scan"}, "is_reserved": 0, "type": "electric_scooter", "is_disabled": 0, "fusion_lat": 0.0}, {"name": "db034f4e9e07d42ca7beb62c981f6c41", "lat": 38.90491933333333, "lon": -77.043385, "fusion_lon": 0.0, "bike_id": "db034f4e9e07d42ca7beb62c981f6c41", "rental_uris": {"android": "https://dc.lft.to/lastmile_qr_scan", "ios": "https://dc.lft.to/lastmile_qr_scan"}, "is_reserved": 0, "type": "electric_scooter", "is_disabled": 0, "fusion_lat": 0.0}, {"name": "78b87f562a5c364b057e6070296879de", "lat": 38.91941633333333, "lon": -77.025225, "fusion_lon": 0.0, "bike_id": "78b87f562a5c364b057e6070296879de", "rental_uris": {"android": "https://dc.lft.to/lastmile_qr_scan", "ios": "https://dc.lft.to/lastmile_qr_scan"}, "is_reserved": 0, "type": "electric_scooter", "is_disabled": 0, "fusion_lat": 0.0}, {"name": "2b600d8804fd4d3d5bff44ced200b425", "lat": 38.9182685, "lon": -77.058838, "fusion_lon": 0.0, "bike_id": "2b600d8804fd4d3d5bff44ced200b425", "rental_uris": {"android": "https://dc.lft.to/lastmile_qr_scan", "ios": "https://dc.lft.to/lastmile_qr_scan"}, "is_reserved": 0, "type": "electric_scooter", "is_disabled": 0, "fusion_lat": 0.0}, {"name": "83f981b86a528ab45994e581a7345e50", "lat": 38.9001815, "lon": -77.0007595, "fusion_lon": 0.0, "bike_id": "83f981b86a528ab45994e581a7345e50", "rental_uris": {"android": "https://dc.lft.to/lastmile_qr_scan", "ios": "https://dc.lft.to/lastmile_qr_scan"}, "is_reserved": 0, "type": "electric_scooter", "is_disabled": 0, "fusion_lat": 0.0}, {"name": "ee7b42e614f3351b8362bdf9984c3405", "lat": 38.8864155, "lon": -76.95473316666667, "fusion_lon": 0.0, "bike_id": "ee7b42e614f3351b8362bdf9984c3405", "rental_uris": {"android": "https://dc.lft.to/lastmile_qr_scan", "ios": "https://dc.lft.to/lastmile_qr_scan"}, "is_reserved": 0, "type": "electric_scooter", "is_disabled": 0, "fusion_lat": 0.0}, {"name": "6b36d2069c33868fd42cfc15449fc432", "lat": 38.899802, "lon": -76.939874, "fusion_lon": 0.0, "bike_id": "6b36d2069c33868fd42cfc15449fc432", "rental_uris": {"android": "https://dc.lft.to/lastmile_qr_scan", "ios": "https://dc.lft.to/lastmile_qr_scan"}, "is_reserved": 0, "type": "electric_scooter", "is_disabled": 0, "fusion_lat": 0.0}, {"name": "2806154c06733dfa84e89af91f605412", "lat": 38.90388633333333, "lon": -76.98492016666667, "fusion_lon": 0.0, "bike_id": "2806154c06733dfa84e89af91f605412", "rental_uris": {"android": "https://dc.lft.to/lastmile_qr_scan", "ios": "https://dc.lft.to/lastmile_qr_scan"}, "is_reserved": 0, "type": "electric_scooter", "is_disabled": 0, "fusion_lat": 0.0}, {"name": "f83e722e773e04571f6b4ec8a440ceeb", "lat": 38.9167575, "lon": -77.0461925, "fusion_lon": 0.0, "bike_id": "f83e722e773e04571f6b4ec8a440ceeb", "rental_uris": {"android": "https://dc.lft.to/lastmile_qr_scan", "ios": "https://dc.lft.to/lastmile_qr_scan"}, "is_reserved": 0, "type": "electric_scooter", "is_disabled": 0, "fusion_lat": 0.0}, {"name": "48361c0429f241e07b623f50dc84fe5b", "lat": 38.90239366666667, "lon": -77.00196983333333, "fusion_lon": 0.0, "bike_id": "48361c0429f241e07b623f50dc84fe5b", "rental_uris": {"android": "https://dc.lft.to/lastmile_qr_scan", "ios": "https://dc.lft.to/lastmile_qr_scan"}, "is_reserved": 0, "type": "electric_scooter", "is_disabled": 0, "fusion_lat": 0.0}, {"name": "912074fd5152011efee1ce4a83e27f6b", "lat": 38.85881583333333, "lon": -76.990104, "fusion_lon": 0.0, "bike_id": "912074fd5152011efee1ce4a83e27f6b", "rental_uris": {"android": "https://dc.lft.to/lastmile_qr_scan", "ios": "https://dc.lft.to/lastmile_qr_scan"}, "is_reserved": 0, "type": "electric_scooter", "is_disabled": 0, "fusion_lat": 0.0}, {"name": "b2b12a6e14e18da1a9e46a7fdf24a044", "lat": 38.8910155, "lon": -77.18298433333334, "fusion_lon": 0.0, "bike_id": "b2b12a6e14e18da1a9e46a7fdf24a044", "rental_uris": {"android": "https://dc.lft.to/lastmile_qr_scan", "ios": "https://dc.lft.to/lastmile_qr_scan"}, "is_reserved": 0, "type": "electric_bike", "is_disabled": 0, "fusion_lat": 0.0}, {"name": "52da209e24c800dd10751517858cfb2f", "lat": 38.8673465, "lon": -76.98655066666667, "fusion_lon": 0.0, "bike_id": "52da209e24c800dd10751517858cfb2f", "rental_uris": {"android": "https://dc.lft.to/lastmile_qr_scan", "ios": "https://dc.lft.to/lastmile_qr_scan"}, "is_reserved": 0, "type": "electric_scooter", "is_disabled": 0, "fusion_lat": 0.0}, {"name": "869b86c7f14ea24b78bed030a445ea62", "lat": 38.917758, "lon": -77.03170283333333, "fusion_lon": 0.0, "bike_id": "869b86c7f14ea24b78bed030a445ea62", "rental_uris": {"android": "https://dc.lft.to/lastmile_qr_scan", "ios": "https://dc.lft.to/lastmile_qr_scan"}, "is_reserved": 0, "type": "electric_scooter", "is_disabled": 0, "fusion_lat": 0.0}, {"name": "852eeee2e9da9ae50bb67b5f1d2bb7bf", "lat": 38.915668333333336, "lon": -77.01174083333333, "fusion_lon": 0.0, "bike_id": "852eeee2e9da9ae50bb67b5f1d2bb7bf", "rental_uris": {"android": "https://dc.lft.to/lastmile_qr_scan", "ios": "https://dc.lft.to/lastmile_qr_scan"}, "is_reserved": 0, "type": "electric_scooter", "is_disabled": 0, "fusion_lat": 0.0}, {"name": "7ac8b93ca24323b681914ed323be7ff9", "lat": 38.914192166666666, "lon": -77.01801416666666, "fusion_lon": 0.0, "bike_id": "7ac8b93ca24323b681914ed323be7ff9", "rental_uris": {"android": "https://dc.lft.to/lastmile_qr_scan", "ios": "https://dc.lft.to/lastmile_qr_scan"}, "is_reserved": 0, "type": "electric_scooter", "is_disabled": 0, "fusion_lat": 0.0}, {"name": "74c7d9ace55dcb1e0fe127195d433a0e", "lat": 38.913210666666664, "lon": -77.03324966666666, "fusion_lon": 0.0, "bike_id": "74c7d9ace55dcb1e0fe127195d433a0e", "rental_uris": {"android": "https://dc.lft.to/lastmile_qr_scan", "ios": "https://dc.lft.to/lastmile_qr_scan"}, "is_reserved": 0, "type": "electric_scooter", "is_disabled": 0, "fusion_lat": 0.0}, {"name": "881b8666adce9361b67d3ecc8d949086", "lat": 38.90972933333333, "lon": -77.03366666666666, "fusion_lon": 0.0, "bike_id": "881b8666adce9361b67d3ecc8d949086", "rental_uris": {"android": "https://dc.lft.to/lastmile_qr_scan", "ios": "https://dc.lft.to/lastmile_qr_scan"}, "is_reserved": 0, "type": "electric_scooter", "is_disabled": 0, "fusion_lat": 0.0}, {"name": "47214406b19afb597cfebf53caa9a7dd", "lat": 38.8973175, "lon": -77.0516715, "fusion_lon": 0.0, "bike_id": "47214406b19afb597cfebf53caa9a7dd", "rental_uris": {"android": "https://dc.lft.to/lastmile_qr_scan", "ios": "https://dc.lft.to/lastmile_qr_scan"}, "is_reserved": 0, "type": "electric_scooter", "is_disabled": 0, "fusion_lat": 0.0}, {"name": "e25d69021307ade579c7a9b3b5b9edcf", "lat": 38.91543683333333, "lon": -77.03856183333333, "fusion_lon": 0.0, "bike_id": "e25d69021307ade579c7a9b3b5b9edcf", "rental_uris": {"android": "https://dc.lft.to/lastmile_qr_scan", "ios": "https://dc.lft.to/lastmile_qr_scan"}, "is_reserved": 0, "type": "electric_scooter", "is_disabled": 0, "fusion_lat": 0.0}, {"name": "5d82dd707755b36756b5946296e832a4", "lat": 38.90957816666667, "lon": -77.04539816666667, "fusion_lon": 0.0, "bike_id": "5d82dd707755b36756b5946296e832a4", "rental_uris": {"android": "https://dc.lft.to/lastmile_qr_scan", "ios": "https://dc.lft.to/lastmile_qr_scan"}, "is_reserved": 0, "type": "electric_scooter", "is_disabled": 0, "fusion_lat": 0.0}, {"name": "00017f79497898693bc7b90a5ac0b2dd", "lat": 38.87397283333333, "lon": -77.00027433333334, "fusion_lon": 0.0, "bike_id": "00017f79497898693bc7b90a5ac0b2dd", "rental_uris": {"android": "https://dc.lft.to/lastmile_qr_scan", "ios": "https://dc.lft.to/lastmile_qr_scan"}, "is_reserved": 0, "type": "electric_scooter", "is_disabled": 0, "fusion_lat": 0.0}, {"name": "7e6ffbba89123079080939e448db685f", "lat": 38.898323, "lon": -77.00758866666666, "fusion_lon": 0.0, "bike_id": "7e6ffbba89123079080939e448db685f", "rental_uris": {"android": "https://dc.lft.to/lastmile_qr_scan", "ios": "https://dc.lft.to/lastmile_qr_scan"}, "is_reserved": 0, "type": "electric_scooter", "is_disabled": 0, "fusion_lat": 0.0}, {"name": "1822c3987f47c082d3973ab176803271", "lat": 38.900531, "lon": -77.00060366666666, "fusion_lon": 0.0, "bike_id": "1822c3987f47c082d3973ab176803271", "rental_uris": {"android": "https://dc.lft.to/lastmile_qr_scan", "ios": "https://dc.lft.to/lastmile_qr_scan"}, "is_reserved": 0, "type": "electric_scooter", "is_disabled": 0, "fusion_lat": 0.0}, {"name": "526a1ee3ae7a08faee1daec8e19927a9", "lat": 38.93255283333333, "lon": -77.0293265, "fusion_lon": 0.0, "bike_id": "526a1ee3ae7a08faee1daec8e19927a9", "rental_uris": {"android": "https://dc.lft.to/lastmile_qr_scan", "ios": "https://dc.lft.to/lastmile_qr_scan"}, "is_reserved": 0, "type": "electric_scooter", "is_disabled": 0, "fusion_lat": 0.0}, {"name": "05b4dfa01e34a1f3101132e1c30f10f5", "lat": 38.923671166666665, "lon": -77.01816166666667, "fusion_lon": 0.0, "bike_id": "05b4dfa01e34a1f3101132e1c30f10f5", "rental_uris": {"android": "https://dc.lft.to/lastmile_qr_scan", "ios": "https://dc.lft.to/lastmile_qr_scan"}, "is_reserved": 0, "type": "electric_scooter", "is_disabled": 0, "fusion_lat": 0.0}, {"name": "925f1d3715d6f01f57627d676cac10ab", "lat": 38.95067433333333, "lon": -77.06653083333333, "fusion_lon": 0.0, "bike_id": "925f1d3715d6f01f57627d676cac10ab", "rental_uris": {"android": "https://dc.lft.to/lastmile_qr_scan", "ios": "https://dc.lft.to/lastmile_qr_scan"}, "is_reserved": 0, "type": "electric_bike", "is_disabled": 0, "fusion_lat": 0.0}, {"name": "7fa2178d685abd6440eebb3f9c7eab69", "lat": 38.934828833333334, "lon": -77.07263483333334, "fusion_lon": 0.0, "bike_id": "7fa2178d685abd6440eebb3f9c7eab69", "rental_uris": {"android": "https://dc.lft.to/lastmile_qr_scan", "ios": "https://dc.lft.to/lastmile_qr_scan"}, "is_reserved": 0, "type": "electric_scooter", "is_disabled": 0, "fusion_lat": 0.0}, {"name": "bd8d191b208963dcd9c7a7cf901e3930", "lat": 38.93488266666667, "lon": -77.0726925, "fusion_lon": 0.0, "bike_id": "bd8d191b208963dcd9c7a7cf901e3930", "rental_uris": {"android": "https://dc.lft.to/lastmile_qr_scan", "ios": "https://dc.lft.to/lastmile_qr_scan"}, "is_reserved": 0, "type": "electric_scooter", "is_disabled": 0, "fusion_lat": 0.0}, {"name": "203559b6b61f8554971c557b3703e718", "lat": 38.9141705, "lon": -77.01803283333334, "fusion_lon": 0.0, "bike_id": "203559b6b61f8554971c557b3703e718", "rental_uris": {"android": "https://dc.lft.to/lastmile_qr_scan", "ios": "https://dc.lft.to/lastmile_qr_scan"}, "is_reserved": 0, "type": "electric_scooter", "is_disabled": 0, "fusion_lat": 0.0}, {"name": "54a0dc9ac9bedb805062e990cd9c64e1", "lat": 38.91109216666667, "lon": -77.038309, "fusion_lon": 0.0, "bike_id": "54a0dc9ac9bedb805062e990cd9c64e1", "rental_uris": {"android": "https://dc.lft.to/lastmile_qr_scan", "ios": "https://dc.lft.to/lastmile_qr_scan"}, "is_reserved": 0, "type": "electric_scooter", "is_disabled": 0, "fusion_lat": 0.0}, {"name": "c95fb11557d2340280f4ecd30dcd7045", "lat": 38.916948166666664, "lon": -77.03724116666666, "fusion_lon": 0.0, "bike_id": "c95fb11557d2340280f4ecd30dcd7045", "rental_uris": {"android": "https://dc.lft.to/lastmile_qr_scan", "ios": "https://dc.lft.to/lastmile_qr_scan"}, "is_reserved": 0, "type": "electric_scooter", "is_disabled": 0, "fusion_lat": 0.0}, {"name": "c428297992c19a16ba4d8779557423c4", "lat": 38.875542, "lon": -77.0059095, "fusion_lon": 0.0, "bike_id": "c428297992c19a16ba4d8779557423c4", "rental_uris": {"android": "https://dc.lft.to/lastmile_qr_scan", "ios": "https://dc.lft.to/lastmile_qr_scan"}, "is_reserved": 0, "type": "electric_scooter", "is_disabled": 0, "fusion_lat": 0.0}, {"name": "39ef890074b766107efde119ef1254da", "lat": 38.96204016666667, "lon": -77.035091, "fusion_lon": 0.0, "bike_id": "39ef890074b766107efde119ef1254da", "rental_uris": {"android": "https://dc.lft.to/lastmile_qr_scan", "ios": "https://dc.lft.to/lastmile_qr_scan"}, "is_reserved": 0, "type": "electric_bike", "is_disabled": 0, "fusion_lat": 0.0}, {"name": "c33e313aad99d7ed5658dba2f94ba2e2", "lat": 38.945567833333335, "lon": -76.89537933333334, "fusion_lon": 0.0, "bike_id": "c33e313aad99d7ed5658dba2f94ba2e2", "rental_uris": {"android": "https://dc.lft.to/lastmile_qr_scan", "ios": "https://dc.lft.to/lastmile_qr_scan"}, "is_reserved": 0, "type": "electric_bike", "is_disabled": 0, "fusion_lat": 0.0}, {"name": "48d7188c00d21a45795b72f2f4de5ef9", "lat": 38.862476666666666, "lon": -76.99261933333334, "fusion_lon": 0.0, "bike_id": "48d7188c00d21a45795b72f2f4de5ef9", "rental_uris": {"android": "https://dc.lft.to/lastmile_qr_scan", "ios": "https://dc.lft.to/lastmile_qr_scan"}, "is_reserved": 0, "type": "electric_scooter", "is_disabled": 0, "fusion_lat": 0.0}, {"name": "0aef89b8956b538863e356a543ba1c28", "lat": 38.893443500000004, "lon": -76.99144966666667, "fusion_lon": 0.0, "bike_id": "0aef89b8956b538863e356a543ba1c28", "rental_uris": {"android": "https://dc.lft.to/lastmile_qr_scan", "ios": "https://dc.lft.to/lastmile_qr_scan"}, "is_reserved": 0, "type": "electric_scooter", "is_disabled": 0, "fusion_lat": 0.0}, {"name": "7d38ecdc082fb8cd244641225d68a7c0", "lat": 38.94417716666667, "lon": -77.06331283333333, "fusion_lon": 0.0, "bike_id": "7d38ecdc082fb8cd244641225d68a7c0", "rental_uris": {"android": "https://dc.lft.to/lastmile_qr_scan", "ios": "https://dc.lft.to/lastmile_qr_scan"}, "is_reserved": 0, "type": "electric_scooter", "is_disabled": 0, "fusion_lat": 0.0}, {"name": "452474197a999eee9bd83cd326b76753", "lat": 38.919405833333336, "lon": -77.0464635, "fusion_lon": 0.0, "bike_id": "452474197a999eee9bd83cd326b76753", "rental_uris": {"android": "https://dc.lft.to/lastmile_qr_scan", "ios": "https://dc.lft.to/lastmile_qr_scan"}, "is_reserved": 0, "type": "electric_scooter", "is_disabled": 0, "fusion_lat": 0.0}, {"name": "08d7702b71a4d62a94128f84b39c1816", "lat": 38.85512666666666, "lon": -76.98420066666667, "fusion_lon": 0.0, "bike_id": "08d7702b71a4d62a94128f84b39c1816", "rental_uris": {"android": "https://dc.lft.to/lastmile_qr_scan", "ios": "https://dc.lft.to/lastmile_qr_scan"}, "is_reserved": 0, "type": "electric_bike", "is_disabled": 0, "fusion_lat": 0.0}, {"name": "bb657820a0c49e78eafe8261c653ae75", "lat": 38.915719333333335, "lon": -77.031858, "fusion_lon": 0.0, "bike_id": "bb657820a0c49e78eafe8261c653ae75", "rental_uris": {"android": "https://dc.lft.to/lastmile_qr_scan", "ios": "https://dc.lft.to/lastmile_qr_scan"}, "is_reserved": 0, "type": "electric_scooter", "is_disabled": 0, "fusion_lat": 0.0}, {"name": "515e30ecfeb703a18cc2ff72c23f736b", "lat": 38.890152, "lon": -76.937317, "fusion_lon": 0.0, "bike_id": "515e30ecfeb703a18cc2ff72c23f736b", "rental_uris": {"android": "https://dc.lft.to/lastmile_qr_scan", "ios": "https://dc.lft.to/lastmile_qr_scan"}, "is_reserved": 0, "type": "electric_scooter", "is_disabled": 0, "fusion_lat": 0.0}, {"name": "6e51a14138410c45af7d61ffd03b9ad2", "lat": 38.9397075, "lon": -77.03256783333333, "fusion_lon": 0.0, "bike_id": "6e51a14138410c45af7d61ffd03b9ad2", "rental_uris": {"android": "https://dc.lft.to/lastmile_qr_scan", "ios": "https://dc.lft.to/lastmile_qr_scan"}, "is_reserved": 0, "type": "electric_scooter", "is_disabled": 0, "fusion_lat": 0.0}, {"name": "983b852fdd5b84abf110d13f4658309e", "lat": 38.8978955, "lon": -77.010985, "fusion_lon": 0.0, "bike_id": "983b852fdd5b84abf110d13f4658309e", "rental_uris": {"android": "https://dc.lft.to/lastmile_qr_scan", "ios": "https://dc.lft.to/lastmile_qr_scan"}, "is_reserved": 0, "type": "electric_scooter", "is_disabled": 0, "fusion_lat": 0.0}, {"name": "524da3d7a689458f9edac32615fd18a3", "lat": 38.90232816666666, "lon": -77.04515533333333, "fusion_lon": 0.0, "bike_id": "524da3d7a689458f9edac32615fd18a3", "rental_uris": {"android": "https://dc.lft.to/lastmile_qr_scan", "ios": "https://dc.lft.to/lastmile_qr_scan"}, "is_reserved": 0, "type": "electric_scooter", "is_disabled": 0, "fusion_lat": 0.0}, {"name": "a6c0cafe849d2387898f6f72dc83c17a", "lat": 38.94090533333333, "lon": -77.027302, "fusion_lon": 0.0, "bike_id": "a6c0cafe849d2387898f6f72dc83c17a", "rental_uris": {"android": "https://dc.lft.to/lastmile_qr_scan", "ios": "https://dc.lft.to/lastmile_qr_scan"}, "is_reserved": 0, "type": "electric_scooter", "is_disabled": 0, "fusion_lat": 0.0}, {"name": "9648b50285e33a76d19bf63a38e635c3", "lat": 38.9287985, "lon": -77.04310233333334, "fusion_lon": 0.0, "bike_id": "9648b50285e33a76d19bf63a38e635c3", "rental_uris": {"android": "https://dc.lft.to/lastmile_qr_scan", "ios": "https://dc.lft.to/lastmile_qr_scan"}, "is_reserved": 0, "type": "electric_bike", "is_disabled": 0, "fusion_lat": 0.0}, {"name": "fa234cc2bfe86a6a2f8fc23d76d409c2", "lat": 38.910439, "lon": -77.0399315, "fusion_lon": 0.0, "bike_id": "fa234cc2bfe86a6a2f8fc23d76d409c2", "rental_uris": {"android": "https://dc.lft.to/lastmile_qr_scan", "ios": "https://dc.lft.to/lastmile_qr_scan"}, "is_reserved": 0, "type": "electric_bike", "is_disabled": 0, "fusion_lat": 0.0}, {"name": "96dac6592f09eedf3d6dec2bf696cfb9", "lat": 38.8057655, "lon": -77.06862283333334, "fusion_lon": 0.0, "bike_id": "96dac6592f09eedf3d6dec2bf696cfb9", "rental_uris": {"android": "https://dc.lft.to/lastmile_qr_scan", "ios": "https://dc.lft.to/lastmile_qr_scan"}, "is_reserved": 0, "type": "electric_bike", "is_disabled": 0, "fusion_lat": 0.0}, {"name": "bd947350f468ea08eee7e7790978b545", "lat": 38.90147183333333, "lon": -77.04472816666667, "fusion_lon": 0.0, "bike_id": "bd947350f468ea08eee7e7790978b545", "rental_uris": {"android": "https://dc.lft.to/lastmile_qr_scan", "ios": "https://dc.lft.to/lastmile_qr_scan"}, "is_reserved": 0, "type": "electric_scooter", "is_disabled": 0, "fusion_lat": 0.0}, {"name": "e0dd30468d193c153d651de635ae4b2e", "lat": 38.94449083333333, "lon": -77.06354716666667, "fusion_lon": 0.0, "bike_id": "e0dd30468d193c153d651de635ae4b2e", "rental_uris": {"android": "https://dc.lft.to/lastmile_qr_scan", "ios": "https://dc.lft.to/lastmile_qr_scan"}, "is_reserved": 0, "type": "electric_scooter", "is_disabled": 0, "fusion_lat": 0.0}, {"name": "2b035807790c53d073c8906eea11d0cc", "lat": 38.9022075, "lon": -77.047153, "fusion_lon": 0.0, "bike_id": "2b035807790c53d073c8906eea11d0cc", "rental_uris": {"android": "https://dc.lft.to/lastmile_qr_scan", "ios": "https://dc.lft.to/lastmile_qr_scan"}, "is_reserved": 0, "type": "electric_scooter", "is_disabled": 0, "fusion_lat": 0.0}, {"name": "a1557404ba41d3bf2dec1e3a9c39a60d", "lat": 38.91623966666667, "lon": -77.02388916666666, "fusion_lon": 0.0, "bike_id": "a1557404ba41d3bf2dec1e3a9c39a60d", "rental_uris": {"android": "https://dc.lft.to/lastmile_qr_scan", "ios": "https://dc.lft.to/lastmile_qr_scan"}, "is_reserved": 0, "type": "electric_scooter", "is_disabled": 0, "fusion_lat": 0.0}, {"name": "b49ef02b29bea250a12e6dd4a9450b76", "lat": 38.93677066666667, "lon": -77.03263683333333, "fusion_lon": 0.0, "bike_id": "b49ef02b29bea250a12e6dd4a9450b76", "rental_uris": {"android": "https://dc.lft.to/lastmile_qr_scan", "ios": "https://dc.lft.to/lastmile_qr_scan"}, "is_reserved": 0, "type": "electric_scooter", "is_disabled": 0, "fusion_lat": 0.0}, {"name": "e2898b636839d00944f8a70c8e50953b", "lat": 38.852127833333334, "lon": -77.10128116666667, "fusion_lon": 0.0, "bike_id": "e2898b636839d00944f8a70c8e50953b", "rental_uris": {"android": "https://dc.lft.to/lastmile_qr_scan", "ios": "https://dc.lft.to/lastmile_qr_scan"}, "is_reserved": 0, "type": "electric_bike", "is_disabled": 0, "fusion_lat": 0.0}, {"name": "93d4d2d53e61c8d6d1612cdd2751db09", "lat": 38.915482833333336, "lon": -77.04346783333334, "fusion_lon": 0.0, "bike_id": "93d4d2d53e61c8d6d1612cdd2751db09", "rental_uris": {"android": "https://dc.lft.to/lastmile_qr_scan", "ios": "https://dc.lft.to/lastmile_qr_scan"}, "is_reserved": 0, "type": "electric_scooter", "is_disabled": 0, "fusion_lat": 0.0}, {"name": "140d9b9fa3e4071f00ce04e2c34ca43d", "lat": 38.974995666666665, "lon": -77.0169535, "fusion_lon": 0.0, "bike_id": "140d9b9fa3e4071f00ce04e2c34ca43d", "rental_uris": {"android": "https://dc.lft.to/lastmile_qr_scan", "ios": "https://dc.lft.to/lastmile_qr_scan"}, "is_reserved": 0, "type": "electric_scooter", "is_disabled": 0, "fusion_lat": 0.0}, {"name": "b39ca9e9266e04371d85a78f7a175621", "lat": 38.89221333333333, "lon": -77.01959416666666, "fusion_lon": 0.0, "bike_id": "b39ca9e9266e04371d85a78f7a175621", "rental_uris": {"android": "https://dc.lft.to/lastmile_qr_scan", "ios": "https://dc.lft.to/lastmile_qr_scan"}, "is_reserved": 0, "type": "electric_scooter", "is_disabled": 0, "fusion_lat": 0.0}, {"name": "2a457e25a087f81f4100d04d54d359d0", "lat": 38.90409983333333, "lon": -76.97327866666667, "fusion_lon": 0.0, "bike_id": "2a457e25a087f81f4100d04d54d359d0", "rental_uris": {"android": "https://dc.lft.to/lastmile_qr_scan", "ios": "https://dc.lft.to/lastmile_qr_scan"}, "is_reserved": 0, "type": "electric_scooter", "is_disabled": 0, "fusion_lat": 0.0}, {"name": "b749f1b8b7981615ee437c0679cc3a73", "lat": 38.9071545, "lon": -77.04234083333333, "fusion_lon": 0.0, "bike_id": "b749f1b8b7981615ee437c0679cc3a73", "rental_uris": {"android": "https://dc.lft.to/lastmile_qr_scan", "ios": "https://dc.lft.to/lastmile_qr_scan"}, "is_reserved": 0, "type": "electric_scooter", "is_disabled": 0, "fusion_lat": 0.0}, {"name": "33fa0fdc6afd7c3e07fc79e37afe674f", "lat": 38.90772283333333, "lon": -77.055487, "fusion_lon": 0.0, "bike_id": "33fa0fdc6afd7c3e07fc79e37afe674f", "rental_uris": {"android": "https://dc.lft.to/lastmile_qr_scan", "ios": "https://dc.lft.to/lastmile_qr_scan"}, "is_reserved": 0, "type": "electric_scooter", "is_disabled": 0, "fusion_lat": 0.0}, {"name": "a30d8a89cdd8b934255c4cecaae4b93a", "lat": 38.9156965, "lon": -77.03208216666667, "fusion_lon": 0.0, "bike_id": "a30d8a89cdd8b934255c4cecaae4b93a", "rental_uris": {"android": "https://dc.lft.to/lastmile_qr_scan", "ios": "https://dc.lft.to/lastmile_qr_scan"}, "is_reserved": 0, "type": "electric_scooter", "is_disabled": 0, "fusion_lat": 0.0}, {"name": "09965c5a0f41eba7fbea4d88025da108", "lat": 38.902643166666664, "lon": -77.04123716666666, "fusion_lon": 0.0, "bike_id": "09965c5a0f41eba7fbea4d88025da108", "rental_uris": {"android": "https://dc.lft.to/lastmile_qr_scan", "ios": "https://dc.lft.to/lastmile_qr_scan"}, "is_reserved": 0, "type": "electric_scooter", "is_disabled": 0, "fusion_lat": 0.0}, {"name": "e50ab40e32775089c2650cb265e2bd30", "lat": 38.8921785, "lon": -77.02369166666666, "fusion_lon": 0.0, "bike_id": "e50ab40e32775089c2650cb265e2bd30", "rental_uris": {"android": "https://dc.lft.to/lastmile_qr_scan", "ios": "https://dc.lft.to/lastmile_qr_scan"}, "is_reserved": 0, "type": "electric_scooter", "is_disabled": 0, "fusion_lat": 0.0}, {"name": "746c4bc4a2ae8e4d18c3f151de4f147a", "lat": 38.898770166666665, "lon": -76.93184166666667, "fusion_lon": 0.0, "bike_id": "746c4bc4a2ae8e4d18c3f151de4f147a", "rental_uris": {"android": "https://dc.lft.to/lastmile_qr_scan", "ios": "https://dc.lft.to/lastmile_qr_scan"}, "is_reserved": 0, "type": "electric_scooter", "is_disabled": 0, "fusion_lat": 0.0}, {"name": "995b3fa06395fdc422adc5533e61d019", "lat": 38.92365483333333, "lon": -77.0038415, "fusion_lon": 0.0, "bike_id": "995b3fa06395fdc422adc5533e61d019", "rental_uris": {"android": "https://dc.lft.to/lastmile_qr_scan", "ios": "https://dc.lft.to/lastmile_qr_scan"}, "is_reserved": 0, "type": "electric_scooter", "is_disabled": 0, "fusion_lat": 0.0}, {"name": "a0ae9280aba88312d5b1ee13d030a03e", "lat": 38.899817, "lon": -77.0557585, "fusion_lon": 0.0, "bike_id": "a0ae9280aba88312d5b1ee13d030a03e", "rental_uris": {"android": "https://dc.lft.to/lastmile_qr_scan", "ios": "https://dc.lft.to/lastmile_qr_scan"}, "is_reserved": 0, "type": "electric_scooter", "is_disabled": 0, "fusion_lat": 0.0}, {"name": "9e1a18700a4c612fcf537be0e2b718c1", "lat": 38.8984155, "lon": -77.0436725, "fusion_lon": 0.0, "bike_id": "9e1a18700a4c612fcf537be0e2b718c1", "rental_uris": {"android": "https://dc.lft.to/lastmile_qr_scan", "ios": "https://dc.lft.to/lastmile_qr_scan"}, "is_reserved": 0, "type": "electric_scooter", "is_disabled": 0, "fusion_lat": 0.0}, {"name": "9a65fef6881fbca9a0879880c49f41e4", "lat": 38.91928733333334, "lon": -77.0317815, "fusion_lon": 0.0, "bike_id": "9a65fef6881fbca9a0879880c49f41e4", "rental_uris": {"android": "https://dc.lft.to/lastmile_qr_scan", "ios": "https://dc.lft.to/lastmile_qr_scan"}, "is_reserved": 0, "type": "electric_scooter", "is_disabled": 0, "fusion_lat": 0.0}, {"name": "c1edbef011af1b7157196bdcbdc2a205", "lat": 38.892230833333336, "lon": -77.0397595, "fusion_lon": 0.0, "bike_id": "c1edbef011af1b7157196bdcbdc2a205", "rental_uris": {"android": "https://dc.lft.to/lastmile_qr_scan", "ios": "https://dc.lft.to/lastmile_qr_scan"}, "is_reserved": 0, "type": "electric_scooter", "is_disabled": 0, "fusion_lat": 0.0}, {"name": "a0032eb4937eb3a5f5c26d5a507d32cc", "lat": 38.886322666666665, "lon": -77.01531666666666, "fusion_lon": 0.0, "bike_id": "a0032eb4937eb3a5f5c26d5a507d32cc", "rental_uris": {"android": "https://dc.lft.to/lastmile_qr_scan", "ios": "https://dc.lft.to/lastmile_qr_scan"}, "is_reserved": 0, "type": "electric_scooter", "is_disabled": 0, "fusion_lat": 0.0}, {"name": "8cb91ec92cd9ced41fa841f42e7cc315", "lat": 38.90898466666667, "lon": -76.997709, "fusion_lon": 0.0, "bike_id": "8cb91ec92cd9ced41fa841f42e7cc315", "rental_uris": {"android": "https://dc.lft.to/lastmile_qr_scan", "ios": "https://dc.lft.to/lastmile_qr_scan"}, "is_reserved": 0, "type": "electric_scooter", "is_disabled": 0, "fusion_lat": 0.0}, {"name": "9ba38eab2121ba96cb59c577b1e1c0f7", "lat": 38.87681383333333, "lon": -77.017908, "fusion_lon": 0.0, "bike_id": "9ba38eab2121ba96cb59c577b1e1c0f7", "rental_uris": {"android": "https://dc.lft.to/lastmile_qr_scan", "ios": "https://dc.lft.to/lastmile_qr_scan"}, "is_reserved": 0, "type": "electric_scooter", "is_disabled": 0, "fusion_lat": 0.0}, {"name": "3de5b48259455ef8ccd8bf3ec10cff67", "lat": 38.917122666666664, "lon": -77.02764966666666, "fusion_lon": 0.0, "bike_id": "3de5b48259455ef8ccd8bf3ec10cff67", "rental_uris": {"android": "https://dc.lft.to/lastmile_qr_scan", "ios": "https://dc.lft.to/lastmile_qr_scan"}, "is_reserved": 0, "type": "electric_scooter", "is_disabled": 0, "fusion_lat": 0.0}, {"name": "a647bd32638b7b03bdd9f267780cccd3", "lat": 39.074934166666665, "lon": -77.11599216666667, "fusion_lon": 0.0, "bike_id": "a647bd32638b7b03bdd9f267780cccd3", "rental_uris": {"android": "https://dc.lft.to/lastmile_qr_scan", "ios": "https://dc.lft.to/lastmile_qr_scan"}, "is_reserved": 0, "type": "electric_bike", "is_disabled": 0, "fusion_lat": 0.0}, {"name": "cb11d4261211c651f9d285d7d933587e", "lat": 38.9435525, "lon": -77.077265, "fusion_lon": 0.0, "bike_id": "cb11d4261211c651f9d285d7d933587e", "rental_uris": {"android": "https://dc.lft.to/lastmile_qr_scan", "ios": "https://dc.lft.to/lastmile_qr_scan"}, "is_reserved": 0, "type": "electric_bike", "is_disabled": 0, "fusion_lat": 0.0}, {"name": "c052909625a882d4e9d1dd08882edd44", "lat": 38.929515333333335, "lon": -77.02980016666666, "fusion_lon": 0.0, "bike_id": "c052909625a882d4e9d1dd08882edd44", "rental_uris": {"android": "https://dc.lft.to/lastmile_qr_scan", "ios": "https://dc.lft.to/lastmile_qr_scan"}, "is_reserved": 0, "type": "electric_scooter", "is_disabled": 0, "fusion_lat": 0.0}, {"name": "6cefbb33c6aa5b17d1b2b69414535c9b", "lat": 38.876731166666666, "lon": -77.01445316666667, "fusion_lon": 0.0, "bike_id": "6cefbb33c6aa5b17d1b2b69414535c9b", "rental_uris": {"android": "https://dc.lft.to/lastmile_qr_scan", "ios": "https://dc.lft.to/lastmile_qr_scan"}, "is_reserved": 0, "type": "electric_bike", "is_disabled": 0, "fusion_lat": 0.0}, {"name": "2699e93f8cf0c202b302b4d8f884a0e6", "lat": 38.91684583333333, "lon": -77.02961616666667, "fusion_lon": 0.0, "bike_id": "2699e93f8cf0c202b302b4d8f884a0e6", "rental_uris": {"android": "https://dc.lft.to/lastmile_qr_scan", "ios": "https://dc.lft.to/lastmile_qr_scan"}, "is_reserved": 0, "type": "electric_scooter", "is_disabled": 0, "fusion_lat": 0.0}, {"name": "2321aa52fe7543e3a67c3531b3654a96", "lat": 38.906862, "lon": -77.0269315, "fusion_lon": 0.0, "bike_id": "2321aa52fe7543e3a67c3531b3654a96", "rental_uris": {"android": "https://dc.lft.to/lastmile_qr_scan", "ios": "https://dc.lft.to/lastmile_qr_scan"}, "is_reserved": 0, "type": "electric_scooter", "is_disabled": 0, "fusion_lat": 0.0}, {"name": "8a5fa54679bf32ecd4a434e1ccca4583", "lat": 38.88567716666667, "lon": -76.99802166666667, "fusion_lon": 0.0, "bike_id": "8a5fa54679bf32ecd4a434e1ccca4583", "rental_uris": {"android": "https://dc.lft.to/lastmile_qr_scan", "ios": "https://dc.lft.to/lastmile_qr_scan"}, "is_reserved": 0, "type": "electric_scooter", "is_disabled": 0, "fusion_lat": 0.0}, {"name": "02952afe1b3be89c4f92fe92e09e46c2", "lat": 38.8960665, "lon": -77.009257, "fusion_lon": 0.0, "bike_id": "02952afe1b3be89c4f92fe92e09e46c2", "rental_uris": {"android": "https://dc.lft.to/lastmile_qr_scan", "ios": "https://dc.lft.to/lastmile_qr_scan"}, "is_reserved": 0, "type": "electric_scooter", "is_disabled": 0, "fusion_lat": 0.0}, {"name": "2e1feb28a5bbdb8e0956e2799601ae80", "lat": 38.90028433333333, "lon": -76.98765383333334, "fusion_lon": 0.0, "bike_id": "2e1feb28a5bbdb8e0956e2799601ae80", "rental_uris": {"android": "https://dc.lft.to/lastmile_qr_scan", "ios": "https://dc.lft.to/lastmile_qr_scan"}, "is_reserved": 0, "type": "electric_scooter", "is_disabled": 0, "fusion_lat": 0.0}, {"name": "a247fb3cd4f494a2d3de057d2e2cc8f5", "lat": 38.9103775, "lon": -77.04813616666667, "fusion_lon": 0.0, "bike_id": "a247fb3cd4f494a2d3de057d2e2cc8f5", "rental_uris": {"android": "https://dc.lft.to/lastmile_qr_scan", "ios": "https://dc.lft.to/lastmile_qr_scan"}, "is_reserved": 0, "type": "electric_scooter", "is_disabled": 0, "fusion_lat": 0.0}, {"name": "8a3a2ef8daef7d11348a748175f55c7c", "lat": 38.97500433333333, "lon": -77.016913, "fusion_lon": 0.0, "bike_id": "8a3a2ef8daef7d11348a748175f55c7c", "rental_uris": {"android": "https://dc.lft.to/lastmile_qr_scan", "ios": "https://dc.lft.to/lastmile_qr_scan"}, "is_reserved": 0, "type": "electric_scooter", "is_disabled": 0, "fusion_lat": 0.0}, {"name": "06ae2443c30fba13e9ffba8f51997d3d", "lat": 38.901413166666664, "lon": -76.99822866666666, "fusion_lon": 0.0, "bike_id": "06ae2443c30fba13e9ffba8f51997d3d", "rental_uris": {"android": "https://dc.lft.to/lastmile_qr_scan", "ios": "https://dc.lft.to/lastmile_qr_scan"}, "is_reserved": 0, "type": "electric_scooter", "is_disabled": 0, "fusion_lat": 0.0}, {"name": "1f34e6d6ce82a1f29048024c2b4081bd", "lat": 38.9265525, "lon": -77.04132716666666, "fusion_lon": 0.0, "bike_id": "1f34e6d6ce82a1f29048024c2b4081bd", "rental_uris": {"android": "https://dc.lft.to/lastmile_qr_scan", "ios": "https://dc.lft.to/lastmile_qr_scan"}, "is_reserved": 0, "type": "electric_scooter", "is_disabled": 0, "fusion_lat": 0.0}, {"name": "11ba7a3339e20961dbf1b91c5cc79fe9", "lat": 38.897419, "lon": -77.00868783333334, "fusion_lon": 0.0, "bike_id": "11ba7a3339e20961dbf1b91c5cc79fe9", "rental_uris": {"android": "https://dc.lft.to/lastmile_qr_scan", "ios": "https://dc.lft.to/lastmile_qr_scan"}, "is_reserved": 0, "type": "electric_scooter", "is_disabled": 0, "fusion_lat": 0.0}, {"name": "e72f8cd9f0684be0fb48497df69de491", "lat": 38.89912483333333, "lon": -77.03926016666666, "fusion_lon": 0.0, "bike_id": "e72f8cd9f0684be0fb48497df69de491", "rental_uris": {"android": "https://dc.lft.to/lastmile_qr_scan", "ios": "https://dc.lft.to/lastmile_qr_scan"}, "is_reserved": 0, "type": "electric_bike", "is_disabled": 0, "fusion_lat": 0.0}, {"name": "681091665a26378cbe4491575fefba8a", "lat": 38.907212333333334, "lon": -77.03353916666667, "fusion_lon": 0.0, "bike_id": "681091665a26378cbe4491575fefba8a", "rental_uris": {"android": "https://dc.lft.to/lastmile_qr_scan", "ios": "https://dc.lft.to/lastmile_qr_scan"}, "is_reserved": 0, "type": "electric_scooter", "is_disabled": 0, "fusion_lat": 0.0}, {"name": "98d13f83f6aac174404d5f9dca859404", "lat": 38.974987666666664, "lon": -77.01693033333333, "fusion_lon": 0.0, "bike_id": "98d13f83f6aac174404d5f9dca859404", "rental_uris": {"android": "https://dc.lft.to/lastmile_qr_scan", "ios": "https://dc.lft.to/lastmile_qr_scan"}, "is_reserved": 0, "type": "electric_scooter", "is_disabled": 0, "fusion_lat": 0.0}, {"name": "309d4e0e334a1e347643f2c259ddbf6a", "lat": 38.923534833333335, "lon": -77.0205375, "fusion_lon": 0.0, "bike_id": "309d4e0e334a1e347643f2c259ddbf6a", "rental_uris": {"android": "https://dc.lft.to/lastmile_qr_scan", "ios": "https://dc.lft.to/lastmile_qr_scan"}, "is_reserved": 0, "type": "electric_scooter", "is_disabled": 0, "fusion_lat": 0.0}, {"name": "89cd599a2e1d7f1aa53e81c33fafd5b1", "lat": 38.844286833333335, "lon": -76.997024, "fusion_lon": 0.0, "bike_id": "89cd599a2e1d7f1aa53e81c33fafd5b1", "rental_uris": {"android": "https://dc.lft.to/lastmile_qr_scan", "ios": "https://dc.lft.to/lastmile_qr_scan"}, "is_reserved": 0, "type": "electric_scooter", "is_disabled": 0, "fusion_lat": 0.0}, {"name": "6cdbc4786f319779b0e1e958a9349e32", "lat": 38.91191383333334, "lon": -77.0383665, "fusion_lon": 0.0, "bike_id": "6cdbc4786f319779b0e1e958a9349e32", "rental_uris": {"android": "https://dc.lft.to/lastmile_qr_scan", "ios": "https://dc.lft.to/lastmile_qr_scan"}, "is_reserved": 0, "type": "electric_scooter", "is_disabled": 0, "fusion_lat": 0.0}, {"name": "3f2adb5a285cdec0b4be7165eb9fea09", "lat": 38.9122385, "lon": -77.00100166666667, "fusion_lon": 0.0, "bike_id": "3f2adb5a285cdec0b4be7165eb9fea09", "rental_uris": {"android": "https://dc.lft.to/lastmile_qr_scan", "ios": "https://dc.lft.to/lastmile_qr_scan"}, "is_reserved": 0, "type": "electric_bike", "is_disabled": 0, "fusion_lat": 0.0}, {"name": "3e7d127280ea9c84d364c4754a6a1250", "lat": 38.895577833333334, "lon": -77.01976433333333, "fusion_lon": 0.0, "bike_id": "3e7d127280ea9c84d364c4754a6a1250", "rental_uris": {"android": "https://dc.lft.to/lastmile_qr_scan", "ios": "https://dc.lft.to/lastmile_qr_scan"}, "is_reserved": 0, "type": "electric_scooter", "is_disabled": 0, "fusion_lat": 0.0}, {"name": "14efc4dc15efbde90fceae517502a160", "lat": 38.87653566666667, "lon": -77.00444266666666, "fusion_lon": 0.0, "bike_id": "14efc4dc15efbde90fceae517502a160", "rental_uris": {"android": "https://dc.lft.to/lastmile_qr_scan", "ios": "https://dc.lft.to/lastmile_qr_scan"}, "is_reserved": 0, "type": "electric_scooter", "is_disabled": 0, "fusion_lat": 0.0}, {"name": "72afefe3754dbf7dc01858d8d68d26b8", "lat": 38.905258, "lon": -77.05129966666667, "fusion_lon": 0.0, "bike_id": "72afefe3754dbf7dc01858d8d68d26b8", "rental_uris": {"android": "https://dc.lft.to/lastmile_qr_scan", "ios": "https://dc.lft.to/lastmile_qr_scan"}, "is_reserved": 0, "type": "electric_scooter", "is_disabled": 0, "fusion_lat": 0.0}, {"name": "80f1477d63ffc5e786376b19f725de57", "lat": 38.90068766666667, "lon": -77.00206383333334, "fusion_lon": 0.0, "bike_id": "80f1477d63ffc5e786376b19f725de57", "rental_uris": {"android": "https://dc.lft.to/lastmile_qr_scan", "ios": "https://dc.lft.to/lastmile_qr_scan"}, "is_reserved": 0, "type": "electric_scooter", "is_disabled": 0, "fusion_lat": 0.0}, {"name": "e92979c071fd75f7ee7e16acdd852709", "lat": 38.889890666666666, "lon": -77.00333333333333, "fusion_lon": 0.0, "bike_id": "e92979c071fd75f7ee7e16acdd852709", "rental_uris": {"android": "https://dc.lft.to/lastmile_qr_scan", "ios": "https://dc.lft.to/lastmile_qr_scan"}, "is_reserved": 0, "type": "electric_scooter", "is_disabled": 0, "fusion_lat": 0.0}, {"name": "787e0d8f3b8bf642685de87eda3f4a98", "lat": 38.87550483333333, "lon": -77.00567583333333, "fusion_lon": 0.0, "bike_id": "787e0d8f3b8bf642685de87eda3f4a98", "rental_uris": {"android": "https://dc.lft.to/lastmile_qr_scan", "ios": "https://dc.lft.to/lastmile_qr_scan"}, "is_reserved": 0, "type": "electric_scooter", "is_disabled": 0, "fusion_lat": 0.0}, {"name": "bedfe51dac606805f2740b377c8c76f3", "lat": 38.886107333333335, "lon": -77.00352733333334, "fusion_lon": 0.0, "bike_id": "bedfe51dac606805f2740b377c8c76f3", "rental_uris": {"android": "https://dc.lft.to/lastmile_qr_scan", "ios": "https://dc.lft.to/lastmile_qr_scan"}, "is_reserved": 0, "type": "electric_scooter", "is_disabled": 0, "fusion_lat": 0.0}, {"name": "7124d432e63b901f3e05da1430f468a4", "lat": 38.896081333333335, "lon": -77.022098, "fusion_lon": 0.0, "bike_id": "7124d432e63b901f3e05da1430f468a4", "rental_uris": {"android": "https://dc.lft.to/lastmile_qr_scan", "ios": "https://dc.lft.to/lastmile_qr_scan"}, "is_reserved": 0, "type": "electric_scooter", "is_disabled": 0, "fusion_lat": 0.0}, {"name": "59a6a2fd6b5968bffcccc8528133e317", "lat": 38.892225833333335, "lon": -77.04333483333333, "fusion_lon": 0.0, "bike_id": "59a6a2fd6b5968bffcccc8528133e317", "rental_uris": {"android": "https://dc.lft.to/lastmile_qr_scan", "ios": "https://dc.lft.to/lastmile_qr_scan"}, "is_reserved": 0, "type": "electric_scooter", "is_disabled": 0, "fusion_lat": 0.0}, {"name": "658c7d088fd8c2db2cf3f5e916c73d70", "lat": 38.85435533333333, "lon": -76.909705, "fusion_lon": 0.0, "bike_id": "658c7d088fd8c2db2cf3f5e916c73d70", "rental_uris": {"android": "https://dc.lft.to/lastmile_qr_scan", "ios": "https://dc.lft.to/lastmile_qr_scan"}, "is_reserved": 0, "type": "electric_bike", "is_disabled": 0, "fusion_lat": 0.0}, {"name": "a94236590339814ca1eb8399cc194fa3", "lat": 38.94624983333333, "lon": -77.03261883333333, "fusion_lon": 0.0, "bike_id": "a94236590339814ca1eb8399cc194fa3", "rental_uris": {"android": "https://dc.lft.to/lastmile_qr_scan", "ios": "https://dc.lft.to/lastmile_qr_scan"}, "is_reserved": 0, "type": "electric_scooter", "is_disabled": 0, "fusion_lat": 0.0}, {"name": "45d3ee58d614bb897665e1fe8c247ca3", "lat": 38.899110666666665, "lon": -76.93369316666667, "fusion_lon": 0.0, "bike_id": "45d3ee58d614bb897665e1fe8c247ca3", "rental_uris": {"android": "https://dc.lft.to/lastmile_qr_scan", "ios": "https://dc.lft.to/lastmile_qr_scan"}, "is_reserved": 0, "type": "electric_scooter", "is_disabled": 0, "fusion_lat": 0.0},