{"data": {"bikes": [{"rental_uris": {"android": "https://dc.lft.to/lastmile_qr_scan", "ios": "https://dc.lft.to/lastmile_qr_scan"}, "is_reserved": 0, "is_disabled": 0, "name": "e26a888dd30f6bf6c30c777c447a3938", "bike_id": "e26a888dd30f6bf6c30c777c447a3938", "fusion_lat": 0.0, "lon": -77.0279685, "type": "electric_scooter", "fusion_lon": 0.0, "lat": 38.962261166666664}, {"rental_uris": {"android": "https://dc.lft.to/lastmile_qr_scan", "ios": "https://dc.lft.to/lastmile_qr_scan"}, "is_reserved": 0, "is_disabled": 0, "name": "884a3e919981b37c42f4f7d72946d39d", "bike_id": "884a3e919981b37c42f4f7d72946d39d", "fusion_lat": 0.0, "lon": -76.9535925, "type": "electric_scooter", "fusion_lon": 0.0, "lat": 38.889566333333335}, {"rental_uris": {"android": "https://dc.lft.to/lastmile_qr_scan", "ios": "https://dc.lft.to/lastmile_qr_scan"}, "is_reserved": 0, "is_disabled": 0, "name": "00808bd9ea5677ae32bcbe601c385ec7", "bike_id": "00808bd9ea5677ae32bcbe601c385ec7", "fusion_lat": 0.0, "lon": -76.94256483333334, "type": "electric_scooter", "fusion_lon": 0.0, "lat": 38.898477}, {"rental_uris": {"android": "https://dc.lft.to/lastmile_qr_scan", "ios": "https://dc.lft.to/lastmile_qr_scan"}, "is_reserved": 0, "is_disabled": 0, "name": "415b4f31d21ff479d6e7f797f13b1b2f", "bike_id": "415b4f31d21ff479d6e7f797f13b1b2f", "fusion_lat": 0.0, "lon": -77.03193233333333, "type": "electric_scooter", "fusion_lon": 0.0, "lat": 38.922577}, {"rental_uris": {"android": "https://dc.lft.to/lastmile_qr_scan", "ios": "https://dc.lft.to/lastmile_qr_scan"}, "is_reserved": 0, "is_disabled": 0, "name": "109ff08fb1dc29c5213ec7f165f2cfb2", "bike_id": "109ff08fb1dc29c5213ec7f165f2cfb2", "fusion_lat": 0.0, "lon": -77.03855316666667, "type": "electric_scooter", "fusion_lon": 0.0, "lat": 38.91965183333333}, {"rental_uris": {"android": "https://dc.lft.to/lastmile_qr_scan", "ios": "https://dc.lft.to/lastmile_qr_scan"}, "is_reserved": 0, "is_disabled": 0, "name": "031b7b6504b321a64ff0347d871c6bf5", "bike_id": "031b7b6504b321a64ff0347d871c6bf5", "fusion_lat": 0.0, "lon": -76.99388916666666, "type": "electric_scooter", "fusion_lon": 0.0, "lat": 38.910095}, {"rental_uris": {"android": "https://dc.lft.to/lastmile_qr_scan", "ios": "https://dc.lft.to/lastmile_qr_scan"}, "is_reserved": 0, "is_disabled": 0, "name": "f309a3db9f46b583f08061b3165f7f35", "bike_id": "f309a3db9f46b583f08061b3165f7f35", "fusion_lat": 0.0, "lon": -77.03221183333333, "type": "electric_scooter", "fusion_lon": 0.0, "lat": 38.918454}, {"rental_uris": {"android": "https://dc.lft.to/lastmile_qr_scan", "ios": "https://dc.lft.to/lastmile_qr_scan"}, "is_reserved": 0, "is_disabled": 0, "name": "3e4fc9d05960ab891a2f41cfc74afbf5", "bike_id": "3e4fc9d05960ab891a2f41cfc74afbf5", "fusion_lat": 0.0, "lon": -77.09002, "type": "electric_bike", "fusion_lon": 0.0, "lat": 38.90907466666667}, {"rental_uris": {"android": "https://dc.lft.to/lastmile_qr_scan", "ios": "https://dc.lft.to/lastmile_qr_scan"}, "is_reserved": 0, "is_disabled": 0, "name": "69a7c060068749b8a32e7e6ce7be3160", "bike_id": "69a7c060068749b8a32e7e6ce7be3160", "fusion_lat": 0.0, "lon": -77.03332116666667, "type": "electric_scooter", "fusion_lon": 0.0, "lat": 38.935013166666664}, {"rental_uris": {"android": "https://dc.lft.to/lastmile_qr_scan", "ios": "https://dc.lft.to/lastmile_qr_scan"}, "is_reserved": 0, "is_disabled": 0, "name": "24c1b82848704dd107f37c83cd797f38", "bike_id": "24c1b82848704dd107f37c83cd797f38", "fusion_lat": 0.0, "lon": -77.02712883333334, "type": "electric_scooter", "fusion_lon": 0.0, "lat": 38.895506166666664}, {"rental_uris": {"android": "https://dc.lft.to/lastmile_qr_scan", "ios": "https://dc.lft.to/lastmile_qr_scan"}, "is_reserved": 0, "is_disabled": 0, "name": "7e6801e8e874e3366da5328f8e3da12d", "bike_id": "7e6801e8e874e3366da5328f8e3da12d", "fusion_lat": 0.0, "lon": -77.02199283333333, "type": "electric_scooter", "fusion_lon": 0.0, "lat": 38.91124766666667}, {"rental_uris": {"android": "https://dc.lft.to/lastmile_qr_scan", "ios": "https://dc.lft.to/lastmile_qr_scan"}, "is_reserved": 0, "is_disabled": 0, "name": "307aef01248f02c8160409fd919ea956", "bike_id": "307aef01248f02c8160409fd919ea956", "fusion_lat": 0.0, "lon": -77.0599935, "type": "electric_scooter", "fusion_lon": 0.0, "lat": 38.90227016666667}, {"rental_uris": {"android": "https://dc.lft.to/lastmile_qr_scan", "ios": "https://dc.lft.to/lastmile_qr_scan"}, "is_reserved": 0, "is_disabled": 0, "name": "a6d6cf312050bf803ab3f70043bdba04", "bike_id": "a6d6cf312050bf803ab3f70043bdba04", "fusion_lat": 0.0, "lon": -77.02002683333333, "type": "electric_scooter", "fusion_lon": 0.0, "lat": 38.9136285}, {"rental_uris": {"android": "https://dc.lft.to/lastmile_qr_scan", "ios": "https://dc.lft.to/lastmile_qr_scan"}, "is_reserved": 0, "is_disabled": 0, "name": "a2ed913e3b22da763c8ddf14b911fbbd", "bike_id": "a2ed913e3b22da763c8ddf14b911fbbd", "fusion_lat": 0.0, "lon": -77.05052583333334, "type": "electric_scooter", "fusion_lon": 0.0, "lat": 38.903557166666666}, {"rental_uris": {"android": "https://dc.lft.to/lastmile_qr_scan", "ios": "https://dc.lft.to/lastmile_qr_scan"}, "is_reserved": 0, "is_disabled": 0, "name": "11c7e194021a468cff1af7b1a37cfc99", "bike_id": "11c7e194021a468cff1af7b1a37cfc99", "fusion_lat": 0.0, "lon": -77.02547383333334, "type": "electric_scooter", "fusion_lon": 0.0, "lat": 38.920931}, {"rental_uris": {"android": "https://dc.lft.to/lastmile_qr_scan", "ios": "https://dc.lft.to/lastmile_qr_scan"}, "is_reserved": 0, "is_disabled": 0, "name": "1716fad401d31fe3c90432805a5e8be4", "bike_id": "1716fad401d31fe3c90432805a5e8be4", "fusion_lat": 0.0, "lon": -77.03849633333333, "type": "electric_scooter", "fusion_lon": 0.0, "lat": 38.90985083333333}, {"rental_uris": {"android": "https://dc.lft.to/lastmile_qr_scan", "ios": "https://dc.lft.to/lastmile_qr_scan"}, "is_reserved": 0, "is_disabled": 0, "name": "37130db88dddc0594fb81c9f8c1e8466", "bike_id": "37130db88dddc0594fb81c9f8c1e8466", "fusion_lat": 0.0, "lon": -77.02910483333334, "type": "electric_scooter", "fusion_lon": 0.0, "lat": 38.91655433333333}, {"rental_uris": {"android": "https://dc.lft.to/lastmile_qr_scan", "ios": "https://dc.lft.to/lastmile_qr_scan"}, "is_reserved": 0, "is_disabled": 0, "name": "5fc4e3b78bf95abd50dd867605e8b8b5", "bike_id": "5fc4e3b78bf95abd50dd867605e8b8b5", "fusion_lat": 0.0, "lon": -77.0684495, "type": "electric_scooter", "fusion_lon": 0.0, "lat": 38.90405466666667}, {"rental_uris": {"android": "https://dc.lft.to/lastmile_qr_scan", "ios": "https://dc.lft.to/lastmile_qr_scan"}, "is_reserved": 0, "is_disabled": 0, "name": "ea1e8f9e41700d57011fb06963b90d64", "bike_id": "ea1e8f9e41700d57011fb06963b90d64", "fusion_lat": 0.0, "lon": -76.98858833333334, "type": "electric_scooter", "fusion_lon": 0.0, "lat": 38.844179833333335}, {"rental_uris": {"android": "https://dc.lft.to/lastmile_qr_scan", "ios": "https://dc.lft.to/lastmile_qr_scan"}, "is_reserved": 0, "is_disabled": 0, "name": "3744e2d083f2957e07b5c9362ec7edb1", "bike_id": "3744e2d083f2957e07b5c9362ec7edb1", "fusion_lat": 0.0, "lon": -77.02593, "type": "electric_scooter", "fusion_lon": 0.0, "lat": 38.90705783333333}, {"rental_uris": {"android": "https://dc.lft.to/lastmile_qr_scan", "ios": "https://dc.lft.to/lastmile_qr_scan"}, "is_reserved": 0, "is_disabled": 0, "name": "03a9758797a99c02f2f900d50208ad14", "bike_id": "03a9758797a99c02f2f900d50208ad14", "fusion_lat": 0.0, "lon": -77.05895533333333, "type": "electric_scooter", "fusion_lon": 0.0, "lat": 38.936096666666664}, {"rental_uris": {"android": "https://dc.lft.to/lastmile_qr_scan", "ios": "https://dc.lft.to/lastmile_qr_scan"}, "is_reserved": 0, "is_disabled": 0, "name": "2bb5d56d5205b3eda9f01fc38a5df544", "bike_id": "2bb5d56d5205b3eda9f01fc38a5df544", "fusion_lat": 0.0, "lon": -77.03317683333333, "type": "electric_scooter", "fusion_lon": 0.0, "lat": 38.924417}, {"rental_uris": {"android": "https://dc.lft.to/lastmile_qr_scan", "ios": "https://dc.lft.to/lastmile_qr_scan"}, "is_reserved": 0, "is_disabled": 0, "name": "fcd155b226e1d6139c0d6f4a045c3322", "bike_id": "fcd155b226e1d6139c0d6f4a045c3322", "fusion_lat": 0.0, "lon": -76.98819666666667, "type": "electric_bike", "fusion_lon": 0.0, "lat": 38.84267966666667}, {"rental_uris": {"android": "https://dc.lft.to/lastmile_qr_scan", "ios": "https://dc.lft.to/lastmile_qr_scan"}, "is_reserved": 0, "is_disabled": 0, "name": "a9e1698e184595469df36c429ff79b53", "bike_id": "a9e1698e184595469df36c429ff79b53", "fusion_lat": 0.0, "lon": -77.03386566666667, "type": "electric_scooter", "fusion_lon": 0.0, "lat": 38.90136016666666}, {"rental_uris": {"android": "https://dc.lft.to/lastmile_qr_scan", "ios": "https://dc.lft.to/lastmile_qr_scan"}, "is_reserved": 0, "is_disabled": 0, "name": "a15737d890717ad3aceb2184dda6bade", "bike_id": "a15737d890717ad3aceb2184dda6bade", "fusion_lat": 0.0, "lon": -77.01905216666667, "type": "electric_scooter", "fusion_lon": 0.0, "lat": 38.9035715}, {"rental_uris": {"android": "https://dc.lft.to/lastmile_qr_scan", "ios": "https://dc.lft.to/lastmile_qr_scan"}, "is_reserved": 0, "is_disabled": 0, "name": "39f78fbcbd2cf526dac293c88cf08ac3", "bike_id": "39f78fbcbd2cf526dac293c88cf08ac3", "fusion_lat": 0.0, "lon": -77.02831483333334, "type": "electric_scooter", "fusion_lon": 0.0, "lat": 38.938828}, {"rental_uris": {"android": "https://dc.lft.to/lastmile_qr_scan", "ios": "https://dc.lft.to/lastmile_qr_scan"}, "is_reserved": 0, "is_disabled": 0, "name": "d97dbeeb17eba191ea41125b9006eef5", "bike_id": "d97dbeeb17eba191ea41125b9006eef5", "fusion_lat": 0.0, "lon": -77.03188783333333, "type": "electric_scooter", "fusion_lon": 0.0, "lat": 38.90981466666667}, {"rental_uris": {"android": "https://dc.lft.to/lastmile_qr_scan", "ios": "https://dc.lft.to/lastmile_qr_scan"}, "is_reserved": 0, "is_disabled": 0, "name": "fe3fd6d8209a98a90c49a3f3bd7b79f4", "bike_id": "fe3fd6d8209a98a90c49a3f3bd7b79f4", "fusion_lat": 0.0, "lon": -77.03451266666667, "type": "electric_scooter", "fusion_lon": 0.0, "lat": 38.918006166666665}, {"rental_uris": {"android": "https://dc.lft.to/lastmile_qr_scan", "ios": "https://dc.lft.to/lastmile_qr_scan"}, "is_reserved": 0, "is_disabled": 0, "name": "c457392d63e084a24619fc39d84b67f9", "bike_id": "c457392d63e084a24619fc39d84b67f9", "fusion_lat": 0.0, "lon": -77.02872116666667, "type": "electric_scooter", "fusion_lon": 0.0, "lat": 38.9168525}, {"rental_uris": {"android": "https://dc.lft.to/lastmile_qr_scan", "ios": "https://dc.lft.to/lastmile_qr_scan"}, "is_reserved": 0, "is_disabled": 0, "name": "712ab0db86548fca5f23a944abe9a4b2", "bike_id": "712ab0db86548fca5f23a944abe9a4b2", "fusion_lat": 0.0, "lon": -77.02412583333333, "type": "electric_scooter", "fusion_lon": 0.0, "lat": 38.900429833333334}, {"rental_uris": {"android": "https://dc.lft.to/lastmile_qr_scan", "ios": "https://dc.lft.to/lastmile_qr_scan"}, "is_reserved": 0, "is_disabled": 0, "name": "fc23ced3d43fb5a90b405dac6cab01e3", "bike_id": "fc23ced3d43fb5a90b405dac6cab01e3", "fusion_lat": 0.0, "lon": -77.0469265, "type": "electric_scooter", "fusion_lon": 0.0, "lat": 38.89610316666667}, {"rental_uris": {"android": "https://dc.lft.to/lastmile_qr_scan", "ios": "https://dc.lft.to/lastmile_qr_scan"}, "is_reserved": 0, "is_disabled": 0, "name": "23c590e0fece37a1910c135bb24edb9b", "bike_id": "23c590e0fece37a1910c135bb24edb9b", "fusion_lat": 0.0, "lon": -76.9868875, "type": "electric_bike", "fusion_lon": 0.0, "lat": 38.94467383333333}, {"rental_uris": {"android": "https://dc.lft.to/lastmile_qr_scan", "ios": "https://dc.lft.to/lastmile_qr_scan"}, "is_reserved": 0, "is_disabled": 0, "name": "c0373e352491fa786ad047e54159cacf", "bike_id": "c0373e352491fa786ad047e54159cacf", "fusion_lat": 0.0, "lon": -77.10215666666667, "type": "electric_bike", "fusion_lon": 0.0, "lat": 38.91998683333333}, {"rental_uris": {"android": "https://dc.lft.to/lastmile_qr_scan", "ios": "https://dc.lft.to/lastmile_qr_scan"}, "is_reserved": 0, "is_disabled": 0, "name": "362fa66786dd6a26f6da3be5b777a598", "bike_id": "362fa66786dd6a26f6da3be5b777a598", "fusion_lat": 0.0, "lon": -77.0175875, "type": "electric_bike", "fusion_lon": 0.0, "lat": 38.912721833333336}, {"rental_uris": {"android": "https://dc.lft.to/lastmile_qr_scan", "ios": "https://dc.lft.to/lastmile_qr_scan"}, "is_reserved": 0, "is_disabled": 0, "name": "7c5eb3ceb5303d6113cae839705aee00", "bike_id": "7c5eb3ceb5303d6113cae839705aee00", "fusion_lat": 0.0, "lon": -77.03084033333333, "type": "electric_scooter", "fusion_lon": 0.0, "lat": 38.916379}, {"rental_uris": {"android": "https://dc.lft.to/lastmile_qr_scan", "ios": "https://dc.lft.to/lastmile_qr_scan"}, "is_reserved": 0, "is_disabled": 0, "name": "5bc985f7d28ba40ee991048c1f8da01e", "bike_id": "5bc985f7d28ba40ee991048c1f8da01e", "fusion_lat": 0.0, "lon": -77.0320955, "type": "electric_scooter", "fusion_lon": 0.0, "lat": 38.9166785}, {"rental_uris": {"android": "https://dc.lft.to/lastmile_qr_scan", "ios": "https://dc.lft.to/lastmile_qr_scan"}, "is_reserved": 0, "is_disabled": 0, "name": "083b8e982cac4f9cb9f588d91ea64a57", "bike_id": "083b8e982cac4f9cb9f588d91ea64a57", "fusion_lat": 0.0, "lon": -76.98690783333333, "type": "electric_bike", "fusion_lon": 0.0, "lat": 38.944647333333336}, {"rental_uris": {"android": "https://dc.lft.to/lastmile_qr_scan", "ios": "https://dc.lft.to/lastmile_qr_scan"}, "is_reserved": 0, "is_disabled": 0, "name": "0735212d72e355a4001de57b671f79da", "bike_id": "0735212d72e355a4001de57b671f79da", "fusion_lat": 0.0, "lon": -77.02636783333334, "type": "electric_scooter", "fusion_lon": 0.0, "lat": 38.95188733333333}, {"rental_uris": {"android": "https://dc.lft.to/lastmile_qr_scan", "ios": "https://dc.lft.to/lastmile_qr_scan"}, "is_reserved": 0, "is_disabled": 0, "name": "d7415a2cf768e3a17c18856c6725fdff", "bike_id": "d7415a2cf768e3a17c18856c6725fdff", "fusion_lat": 0.0, "lon": -77.03519633333333, "type": "electric_scooter", "fusion_lon": 0.0, "lat": 38.922512166666664}, {"rental_uris": {"android": "https://dc.lft.to/lastmile_qr_scan", "ios": "https://dc.lft.to/lastmile_qr_scan"}, "is_reserved": 0, "is_disabled": 0, "name": "33133c0823dbb3adedbd6b9006618fa4", "bike_id": "33133c0823dbb3adedbd6b9006618fa4", "fusion_lat": 0.0, "lon": -77.022554, "type": "electric_bike", "fusion_lon": 0.0, "lat": 38.966804833333335}, {"rental_uris": {"android": "https://dc.lft.to/lastmile_qr_scan", "ios": "https://dc.lft.to/lastmile_qr_scan"}, "is_reserved": 0, "is_disabled": 0, "name": "845e04b9d0862cb50fc58dcef2e57900", "bike_id": "845e04b9d0862cb50fc58dcef2e57900", "fusion_lat": 0.0, "lon": -77.0306545, "type": "electric_scooter", "fusion_lon": 0.0, "lat": 38.922497666666665}, {"rental_uris": {"android": "https://dc.lft.to/lastmile_qr_scan", "ios": "https://dc.lft.to/lastmile_qr_scan"}, "is_reserved": 0, "is_disabled": 0, "name": "da9edd5dd033f0e879134875ff22c472", "bike_id": "da9edd5dd033f0e879134875ff22c472", "fusion_lat": 0.0, "lon": -77.028174, "type": "electric_scooter", "fusion_lon": 0.0, "lat": 38.904551833333336}, {"rental_uris": {"android": "https://dc.lft.to/lastmile_qr_scan", "ios": "https://dc.lft.to/lastmile_qr_scan"}, "is_reserved": 0, "is_disabled": 0, "name": "5847097765dbb20f9870b10389f954e2", "bike_id": "5847097765dbb20f9870b10389f954e2", "fusion_lat": 0.0, "lon": -77.04687866666667, "type": "electric_scooter", "fusion_lon": 0.0, "lat": 38.89604383333333}, {"rental_uris": {"android": "https://dc.lft.to/lastmile_qr_scan", "ios": "https://dc.lft.to/lastmile_qr_scan"}, "is_reserved": 0, "is_disabled": 0, "name": "29576d75a4b2d82b5a123f7e21b66f77", "bike_id": "29576d75a4b2d82b5a123f7e21b66f77", "fusion_lat": 0.0, "lon": -77.02962383333333, "type": "electric_scooter", "fusion_lon": 0.0, "lat": 38.9258855}, {"rental_uris": {"android": "https://dc.lft.to/lastmile_qr_scan", "ios": "https://dc.lft.to/lastmile_qr_scan"}, "is_reserved": 0, "is_disabled": 0, "name": "38af51580c6a5312fce24cf7ce1af0ed", "bike_id": "38af51580c6a5312fce24cf7ce1af0ed", "fusion_lat": 0.0, "lon": -76.96262166666666, "type": "electric_bike", "fusion_lon": 0.0, "lat": 38.96780483333333}, {"rental_uris": {"android": "https://dc.lft.to/lastmile_qr_scan", "ios": "https://dc.lft.to/lastmile_qr_scan"}, "is_reserved": 0, "is_disabled": 0, "name": "62e2841848390c0970c1bd2795f5d686", "bike_id": "62e2841848390c0970c1bd2795f5d686", "fusion_lat": 0.0, "lon": -77.04590066666667, "type": "electric_scooter", "fusion_lon": 0.0, "lat": 38.908674166666664}, {"rental_uris": {"android": "https://dc.lft.to/lastmile_qr_scan", "ios": "https://dc.lft.to/lastmile_qr_scan"}, "is_reserved": 0, "is_disabled": 0, "name": "8b9b0666ac8fefedbc65cce219a71a92", "bike_id": "8b9b0666ac8fefedbc65cce219a71a92", "fusion_lat": 0.0, "lon": -76.96092033333333, "type": "electric_bike", "fusion_lon": 0.0, "lat": 38.918561}, {"rental_uris": {"android": "https://dc.lft.to/lastmile_qr_scan", "ios": "https://dc.lft.to/lastmile_qr_scan"}, "is_reserved": 0, "is_disabled": 0, "name": "15d4f9561472f80b3c7db92855c1d132", "bike_id": "15d4f9561472f80b3c7db92855c1d132", "fusion_lat": 0.0, "lon": -77.0099125, "type": "electric_scooter", "fusion_lon": 0.0, "lat": 38.87291833333333}, {"rental_uris": {"android": "https://dc.lft.to/lastmile_qr_scan", "ios": "https://dc.lft.to/lastmile_qr_scan"}, "is_reserved": 0, "is_disabled": 0, "name": "dfda67b7a681d6f0ba10c116f56b8410", "bike_id": "dfda67b7a681d6f0ba10c116f56b8410", "fusion_lat": 0.0, "lon": -77.086205, "type": "electric_bike", "fusion_lon": 0.0, "lat": 38.93128566666667}, {"rental_uris": {"android": "https://dc.lft.to/lastmile_qr_scan", "ios": "https://dc.lft.to/lastmile_qr_scan"}, "is_reserved": 0, "is_disabled": 0, "name": "a0e86c867754660e3fa164f66bc393ec", "bike_id": "a0e86c867754660e3fa164f66bc393ec", "fusion_lat": 0.0, "lon": -77.03925066666666, "type": "electric_scooter", "fusion_lon": 0.0, "lat": 38.90371283333333}, {"rental_uris": {"android": "https://dc.lft.to/lastmile_qr_scan", "ios": "https://dc.lft.to/lastmile_qr_scan"}, "is_reserved": 0, "is_disabled": 0, "name": "2bebf437664334f679a783c3d86629fa", "bike_id": "2bebf437664334f679a783c3d86629fa", "fusion_lat": 0.0, "lon": -77.05333416666667, "type": "electric_scooter", "fusion_lon": 0.0, "lat": 38.901633}, {"rental_uris": {"android": "https://dc.lft.to/lastmile_qr_scan", "ios": "https://dc.lft.to/lastmile_qr_scan"}, "is_reserved": 0, "is_disabled": 0, "name": "c49cc1a00c631d85e22fd12ad570fc5e", "bike_id": "c49cc1a00c631d85e22fd12ad570fc5e", "fusion_lat": 0.0, "lon": -77.03215716666666, "type": "electric_scooter", "fusion_lon": 0.0, "lat": 38.90700133333333}, {"rental_uris": {"android": "https://dc.lft.to/lastmile_qr_scan", "ios": "https://dc.lft.to/lastmile_qr_scan"}, "is_reserved": 0, "is_disabled": 0, "name": "4b7cd8c55b77cdf6555bdb4640cc8e44", "bike_id": "4b7cd8c55b77cdf6555bdb4640cc8e44", "fusion_lat": 0.0, "lon": -77.02287283333334, "type": "electric_scooter", "fusion_lon": 0.0, "lat": 38.916734}, {"rental_uris": {"android": "https://dc.lft.to/lastmile_qr_scan", "ios": "https://dc.lft.to/lastmile_qr_scan"}, "is_reserved": 0, "is_disabled": 0, "name": "3035a12a6662e25396e4107180d19d5f", "bike_id": "3035a12a6662e25396e4107180d19d5f", "fusion_lat": 0.0, "lon": -76.99030683333334, "type": "electric_scooter", "fusion_lon": 0.0, "lat": 38.888774}, {"rental_uris": {"android": "https://dc.lft.to/lastmile_qr_scan", "ios": "https://dc.lft.to/lastmile_qr_scan"}, "is_reserved": 0, "is_disabled": 0, "name": "ddebc73b0c759bbb0b42772707b169ff", "bike_id": "ddebc73b0c759bbb0b42772707b169ff", "fusion_lat": 0.0, "lon": -77.06089833333333, "type": "electric_scooter", "fusion_lon": 0.0, "lat": 38.9023235}, {"rental_uris": {"android": "https://dc.lft.to/lastmile_qr_scan", "ios": "https://dc.lft.to/lastmile_qr_scan"}, "is_reserved": 0, "is_disabled": 0, "name": "f78a93665529b98245197b4cfb4345ca", "bike_id": "f78a93665529b98245197b4cfb4345ca", "fusion_lat": 0.0, "lon": -76.99510633333334, "type": "electric_scooter", "fusion_lon": 0.0, "lat": 38.8807995}, {"rental_uris": {"android": "https://dc.lft.to/lastmile_qr_scan", "ios": "https://dc.lft.to/lastmile_qr_scan"}, "is_reserved": 0, "is_disabled": 0, "name": "98411100c9c363a2073c3035be3e42b1", "bike_id": "98411100c9c363a2073c3035be3e42b1", "fusion_lat": 0.0, "lon": -77.23412016666667, "type": "electric_bike", "fusion_lon": 0.0, "lat": 38.8757915}, {"rental_uris": {"android": "https://dc.lft.to/lastmile_qr_scan", "ios": "https://dc.lft.to/lastmile_qr_scan"}, "is_reserved": 0, "is_disabled": 0, "name": "71830c71997503ff240a33279cfb90fa", "bike_id": "71830c71997503ff240a33279cfb90fa", "fusion_lat": 0.0, "lon": -77.03036666666667, "type": "electric_scooter", "fusion_lon": 0.0, "lat": 38.90853033333333}, {"rental_uris": {"android": "https://dc.lft.to/lastmile_qr_scan", "ios": "https://dc.lft.to/lastmile_qr_scan"}, "is_reserved": 0, "is_disabled": 0, "name": "9f72c7050f3d52934452a12faf9279f8", "bike_id": "9f72c7050f3d52934452a12faf9279f8", "fusion_lat": 0.0, "lon": -76.9949395, "type": "electric_scooter", "fusion_lon": 0.0, "lat": 38.890093}, {"rental_uris": {"android": "https://dc.lft.to/lastmile_qr_scan", "ios": "https://dc.lft.to/lastmile_qr_scan"}, "is_reserved": 0, "is_disabled": 0, "name": "b88ca64d5841eb332eb9c896fb443ed3", "bike_id": "b88ca64d5841eb332eb9c896fb443ed3", "fusion_lat": 0.0, "lon": -76.983757, "type": "electric_scooter", "fusion_lon": 0.0, "lat": 38.8603325}, {"rental_uris": {"android": "https://dc.lft.to/lastmile_qr_scan", "ios": "https://dc.lft.to/lastmile_qr_scan"}, "is_reserved": 0, "is_disabled": 0, "name": "350dc79d21635a9e41d3bb6facf3cd73", "bike_id": "350dc79d21635a9e41d3bb6facf3cd73", "fusion_lat": 0.0, "lon": -76.99104766666666, "type": "electric_scooter", "fusion_lon": 0.0, "lat": 38.857315166666666}, {"rental_uris": {"android": "https://dc.lft.to/lastmile_qr_scan", "ios": "https://dc.lft.to/lastmile_qr_scan"}, "is_reserved": 0, "is_disabled": 0, "name": "c0f06cdbff8fe8cb4aa92eeb9e71424b", "bike_id": "c0f06cdbff8fe8cb4aa92eeb9e71424b", "fusion_lat": 0.0, "lon": -77.0248675, "type": "electric_scooter", "fusion_lon": 0.0, "lat": 38.92065266666667}, {"rental_uris": {"android": "https://dc.lft.to/lastmile_qr_scan", "ios": "https://dc.lft.to/lastmile_qr_scan"}, "is_reserved": 0, "is_disabled": 0, "name": "df01de73da41121b4d9878d1f94a2c56", "bike_id": "df01de73da41121b4d9878d1f94a2c56", "fusion_lat": 0.0, "lon": -77.04332233333334, "type": "electric_scooter", "fusion_lon": 0.0, "lat": 38.922239833333336}, {"rental_uris": {"android": "https://dc.lft.to/lastmile_qr_scan", "ios": "https://dc.lft.to/lastmile_qr_scan"}, "is_reserved": 0, "is_disabled": 0, "name": "6d7f114397f775ef07fbaa5724629a45", "bike_id": "6d7f114397f775ef07fbaa5724629a45", "fusion_lat": 0.0, "lon": -77.04249233333333, "type": "electric_scooter", "fusion_lon": 0.0, "lat": 38.919597833333334}, {"rental_uris": {"android": "https://dc.lft.to/lastmile_qr_scan", "ios": "https://dc.lft.to/lastmile_qr_scan"}, "is_reserved": 0, "is_disabled": 0, "name": "9ecf3968f988f867f53aff0073105dce", "bike_id": "9ecf3968f988f867f53aff0073105dce", "fusion_lat": 0.0, "lon": -77.02277666666667, "type": "electric_scooter", "fusion_lon": 0.0, "lat": 38.916420333333335}, {"rental_uris": {"android": "https://dc.lft.to/lastmile_qr_scan", "ios": "https://dc.lft.to/lastmile_qr_scan"}, "is_reserved": 0, "is_disabled": 0, "name": "3740a8cfad7b7195ae420bd6521b3458", "bike_id": "3740a8cfad7b7195ae420bd6521b3458", "fusion_lat": 0.0, "lon": -77.02375033333334, "type": "electric_scooter", "fusion_lon": 0.0, "lat": 38.89217466666667}, {"rental_uris": {"android": "https://dc.lft.to/lastmile_qr_scan", "ios": "https://dc.lft.to/lastmile_qr_scan"}, "is_reserved": 0, "is_disabled": 0, "name": "8c8f43f5a09f6ef4c9a5a7f2eb787b00", "bike_id": "8c8f43f5a09f6ef4c9a5a7f2eb787b00", "fusion_lat": 0.0, "lon": -77.0481295, "type": "electric_scooter", "fusion_lon": 0.0, "lat": 38.91636533333333}, {"rental_uris": {"android": "https://dc.lft.to/lastmile_qr_scan", "ios": "https://dc.lft.to/lastmile_qr_scan"}, "is_reserved": 0, "is_disabled": 0, "name": "c27a433a6edcc801a246823cfa9f5ca6", "bike_id": "c27a433a6edcc801a246823cfa9f5ca6", "fusion_lat": 0.0, "lon": -77.03077466666667, "type": "electric_scooter", "fusion_lon": 0.0, "lat": 38.89965683333333}, {"rental_uris": {"android": "https://dc.lft.to/lastmile_qr_scan", "ios": "https://dc.lft.to/lastmile_qr_scan"}, "is_reserved": 0, "is_disabled": 0, "name": "1e323d8928a2656e3a0aeb66f620a9f5", "bike_id": "1e323d8928a2656e3a0aeb66f620a9f5", "fusion_lat": 0.0, "lon": -77.0280955, "type": "electric_scooter", "fusion_lon": 0.0, "lat": 38.90261433333333}, {"rental_uris": {"android": "https://dc.lft.to/lastmile_qr_scan", "ios": "https://dc.lft.to/lastmile_qr_scan"}, "is_reserved": 0, "is_disabled": 0, "name": "79fe9438e046baacc24ad96119a1c36b", "bike_id": "79fe9438e046baacc24ad96119a1c36b", "fusion_lat": 0.0, "lon": -77.03161733333333, "type": "electric_scooter", "fusion_lon": 0.0, "lat": 38.923685166666665}, {"rental_uris": {"android": "https://dc.lft.to/lastmile_qr_scan", "ios": "https://dc.lft.to/lastmile_qr_scan"}, "is_reserved": 0, "is_disabled": 0, "name": "7f4bf2626d5b9684c6449e617f085e60", "bike_id": "7f4bf2626d5b9684c6449e617f085e60", "fusion_lat": 0.0, "lon": -77.03398883333334, "type": "electric_scooter", "fusion_lon": 0.0, "lat": 38.90808616666666}, {"rental_uris": {"android": "https://dc.lft.to/lastmile_qr_scan", "ios": "https://dc.lft.to/lastmile_qr_scan"}, "is_reserved": 0, "is_disabled": 0, "name": "466420b6b5f252482529e71e1f908dbc", "bike_id": "466420b6b5f252482529e71e1f908dbc", "fusion_lat": 0.0, "lon": -76.98864516666667, "type": "electric_scooter", "fusion_lon": 0.0, "lat": 38.93475883333333}, {"rental_uris": {"android": "https://dc.lft.to/lastmile_qr_scan", "ios": "https://dc.lft.to/lastmile_qr_scan"}, "is_reserved": 0, "is_disabled": 0, "name": "0e0fc7632d0685ce8de9ce53891317ae", "bike_id": "0e0fc7632d0685ce8de9ce53891317ae", "fusion_lat": 0.0, "lon": -77.03196233333334, "type": "electric_scooter", "fusion_lon": 0.0, "lat": 38.915278666666666}, {"rental_uris": {"android": "https://dc.lft.to/lastmile_qr_scan", "ios": "https://dc.lft.to/lastmile_qr_scan"}, "is_reserved": 0, "is_disabled": 0, "name": "c787885f1173731cadd7167adc2f99ee", "bike_id": "c787885f1173731cadd7167adc2f99ee", "fusion_lat": 0.0, "lon": -77.02830966666667, "type": "electric_scooter", "fusion_lon": 0.0, "lat": 38.887327166666665}, {"rental_uris": {"android": "https://dc.lft.to/lastmile_qr_scan", "ios": "https://dc.lft.to/lastmile_qr_scan"}, "is_reserved": 0, "is_disabled": 0, "name": "0933eb66bf87336a9b82b6ceb96d9d9d", "bike_id": "0933eb66bf87336a9b82b6ceb96d9d9d", "fusion_lat": 0.0, "lon": -76.977212, "type": "electric_scooter", "fusion_lon": 0.0, "lat": 38.8881615}, {"rental_uris": {"android": "https://dc.lft.to/lastmile_qr_scan", "ios": "https://dc.lft.to/lastmile_qr_scan"}, "is_reserved": 0, "is_disabled": 0, "name": "3e8fb50b4640e4d1f772f632c8bf3534", "bike_id": "3e8fb50b4640e4d1f772f632c8bf3534", "fusion_lat": 0.0, "lon": -77.04672016666666, "type": "electric_scooter", "fusion_lon": 0.0, "lat": 38.903823333333335}, {"rental_uris": {"android": "https://dc.lft.to/lastmile_qr_scan", "ios": "https://dc.lft.to/lastmile_qr_scan"}, "is_reserved": 0, "is_disabled": 0, "name": "b984751d363017da8a522a961d3a60a1", "bike_id": "b984751d363017da8a522a961d3a60a1", "fusion_lat": 0.0, "lon": -77.04868466666667, "type": "electric_scooter", "fusion_lon": 0.0, "lat": 38.904825}, {"rental_uris": {"android": "https://dc.lft.to/lastmile_qr_scan", "ios": "https://dc.lft.to/lastmile_qr_scan"}, "is_reserved": 0, "is_disabled": 0, "name": "3eda34f0ba01360ed7b3e983bce253d3", "bike_id": "3eda34f0ba01360ed7b3e983bce253d3", "fusion_lat": 0.0, "lon": -77.03540966666667, "type": "electric_scooter", "fusion_lon": 0.0, "lat": 38.916987}, {"rental_uris": {"android": "https://dc.lft.to/lastmile_qr_scan", "ios": "https://dc.lft.to/lastmile_qr_scan"}, "is_reserved": 0, "is_disabled": 0, "name": "f0801550b0767d85463db079d93bcc1e", "bike_id": "f0801550b0767d85463db079d93bcc1e", "fusion_lat": 0.0, "lon": -77.04472383333334, "type": "electric_scooter", "fusion_lon": 0.0, "lat": 38.9246945}, {"rental_uris": {"android": "https://dc.lft.to/lastmile_qr_scan", "ios": "https://dc.lft.to/lastmile_qr_scan"}, "is_reserved": 0, "is_disabled": 0, "name": "dfee87860a0db0d69f35f4a2af16a931", "bike_id": "dfee87860a0db0d69f35f4a2af16a931", "fusion_lat": 0.0, "lon": -77.01204633333333, "type": "electric_bike", "fusion_lon": 0.0, "lat": 38.95069316666667}, {"rental_uris": {"android": "https://dc.lft.to/lastmile_qr_scan", "ios": "https://dc.lft.to/lastmile_qr_scan"}, "is_reserved": 0, "is_disabled": 0, "name": "022ccb08acdf5110ca91bbe5a915a8af", "bike_id": "022ccb08acdf5110ca91bbe5a915a8af", "fusion_lat": 0.0, "lon": -77.04267566666667, "type": "electric_scooter", "fusion_lon": 0.0, "lat": 38.922342}, {"rental_uris": {"android": "https://dc.lft.to/lastmile_qr_scan", "ios": "https://dc.lft.to/lastmile_qr_scan"}, "is_reserved": 0, "is_disabled": 0, "name": "a47857badbff5d9272360a453a844a61", "bike_id": "a47857badbff5d9272360a453a844a61", "fusion_lat": 0.0, "lon": -77.0219925, "type": "electric_scooter", "fusion_lon": 0.0, "lat": 38.91122}, {"rental_uris": {"android": "https://dc.lft.to/lastmile_qr_scan", "ios": "https://dc.lft.to/lastmile_qr_scan"}, "is_reserved": 0, "is_disabled": 0, "name": "b28afaf49043d1e254d5c592f4b9b750", "bike_id": "b28afaf49043d1e254d5c592f4b9b750", "fusion_lat": 0.0, "lon": -77.06299766666666, "type": "electric_scooter", "fusion_lon": 0.0, "lat": 38.9039775}, {"rental_uris": {"android": "https://dc.lft.to/lastmile_qr_scan", "ios": "https://dc.lft.to/lastmile_qr_scan"}, "is_reserved": 0, "is_disabled": 0, "name": "78ba5b30f842e1fab4cbdca251f53a36", "bike_id": "78ba5b30f842e1fab4cbdca251f53a36", "fusion_lat": 0.0, "lon": -77.02808916666666, "type": "electric_scooter", "fusion_lon": 0.0, "lat": 38.917431666666666}, {"rental_uris": {"android": "https://dc.lft.to/lastmile_qr_scan", "ios": "https://dc.lft.to/lastmile_qr_scan"}, "is_reserved": 0, "is_disabled": 0, "name": "caf741e2185ec5b6a469d3f703f6ad36", "bike_id": "caf741e2185ec5b6a469d3f703f6ad36", "fusion_lat": 0.0, "lon": -77.0149985, "type": "electric_scooter", "fusion_lon": 0.0, "lat": 38.8933815}, {"rental_uris": {"android": "https://dc.lft.to/lastmile_qr_scan", "ios": "https://dc.lft.to/lastmile_qr_scan"}, "is_reserved": 0, "is_disabled": 0, "name": "fe57554f0f6ab7b97e43dd20617e4c82", "bike_id": "fe57554f0f6ab7b97e43dd20617e4c82", "fusion_lat": 0.0, "lon": -77.02977083333333, "type": "electric_scooter", "fusion_lon": 0.0, "lat": 38.94293783333333}, {"rental_uris": {"android": "https://dc.lft.to/lastmile_qr_scan", "ios": "https://dc.lft.to/lastmile_qr_scan"}, "is_reserved": 0, "is_disabled": 0, "name": "d60a80710b1c77c484e2c79a6d90ebf1", "bike_id": "d60a80710b1c77c484e2c79a6d90ebf1", "fusion_lat": 0.0, "lon": -77.02019683333333, "type": "electric_scooter", "fusion_lon": 0.0, "lat": 38.915636}, {"rental_uris": {"android": "https://dc.lft.to/lastmile_qr_scan", "ios": "https://dc.lft.to/lastmile_qr_scan"}, "is_reserved": 0, "is_disabled": 0, "name": "024af7ed843d9a6c49e373d5209deced", "bike_id": "024af7ed843d9a6c49e373d5209deced", "fusion_lat": 0.0, "lon": -77.01112666666667, "type": "electric_scooter", "fusion_lon": 0.0, "lat": 38.895399166666664}, {"rental_uris": {"android": "https://dc.lft.to/lastmile_qr_scan", "ios": "https://dc.lft.to/lastmile_qr_scan"}, "is_reserved": 0, "is_disabled": 0, "name": "b0382e2d72dabcab7d6eeffba7ec71f6", "bike_id": "b0382e2d72dabcab7d6eeffba7ec71f6", "fusion_lat": 0.0, "lon": -77.03550516666667, "type": "electric_scooter", "fusion_lon": 0.0, "lat": 38.92415183333333}, {"rental_uris": {"android": "https://dc.lft.to/lastmile_qr_scan", "ios": "https://dc.lft.to/lastmile_qr_scan"}, "is_reserved": 0, "is_disabled": 0, "name": "56c27741c7b8e180586787121bfbcf0a", "bike_id": "56c27741c7b8e180586787121bfbcf0a", "fusion_lat": 0.0, "lon": -77.023701, "type": "electric_scooter", "fusion_lon": 0.0, "lat": 38.89220816666667}, {"rental_uris": {"android": "https://dc.lft.to/lastmile_qr_scan", "ios": "https://dc.lft.to/lastmile_qr_scan"}, "is_reserved": 0, "is_disabled": 0, "name": "be26dd90b2b16e965aae690203a9ba59", "bike_id": "be26dd90b2b16e965aae690203a9ba59", "fusion_lat": 0.0, "lon": -77.017798, "type": "electric_scooter", "fusion_lon": 0.0, "lat": 38.9199955}, {"rental_uris": {"android": "https://dc.lft.to/lastmile_qr_scan", "ios": "https://dc.lft.to/lastmile_qr_scan"}, "is_reserved": 0, "is_disabled": 0, "name": "a4909ba3ab248d18146235da3f118c2c", "bike_id": "a4909ba3ab248d18146235da3f118c2c", "fusion_lat": 0.0, "lon": -77.021487, "type": "electric_scooter", "fusion_lon": 0.0, "lat": 38.9235505}, {"rental_uris": {"android": "https://dc.lft.to/lastmile_qr_scan", "ios": "https://dc.lft.to/lastmile_qr_scan"}, "is_reserved": 0, "is_disabled": 0, "name": "6386f3935cf4d65313c453a545e30099", "bike_id": "6386f3935cf4d65313c453a545e30099", "fusion_lat": 0.0, "lon": -77.03967883333334, "type": "electric_scooter", "fusion_lon": 0.0, "lat": 38.902712333333334}, {"rental_uris": {"android": "https://dc.lft.to/lastmile_qr_scan", "ios": "https://dc.lft.to/lastmile_qr_scan"}, "is_reserved": 0, "is_disabled": 0, "name": "a012004ca6bf6d34bc4cb6a31d72642f", "bike_id": "a012004ca6bf6d34bc4cb6a31d72642f", "fusion_lat": 0.0, "lon": -77.01484633333334, "type": "electric_scooter", "fusion_lon": 0.0, "lat": 38.91409983333333}, {"rental_uris": {"android": "https://dc.lft.to/lastmile_qr_scan", "ios": "https://dc.lft.to/lastmile_qr_scan"}, "is_reserved": 0, "is_disabled": 0, "name": "82b77cc5529e9e69c4fe06591fd0f026", "bike_id": "82b77cc5529e9e69c4fe06591fd0f026", "fusion_lat": 0.0, "lon": -77.01980683333333, "type": "electric_scooter", "fusion_lon": 0.0, "lat": 38.887179333333336}, {"rental_uris": {"android": "https://dc.lft.to/lastmile_qr_scan", "ios": "https://dc.lft.to/lastmile_qr_scan"}, "is_reserved": 0, "is_disabled": 0, "name": "4105765fdb4ac5338d460ee71eb1c16e", "bike_id": "4105765fdb4ac5338d460ee71eb1c16e", "fusion_lat": 0.0, "lon": -76.95561383333333, "type": "electric_bike", "fusion_lon": 0.0, "lat": 38.985020666666664}, {"rental_uris": {"android": "https://dc.lft.to/lastmile_qr_scan", "ios": "https://dc.lft.to/lastmile_qr_scan"}, "is_reserved": 0, "is_disabled": 0, "name": "1c0c10072511e5b86cc1771c968ff114", "bike_id": "1c0c10072511e5b86cc1771c968ff114", "fusion_lat": 0.0, "lon": -77.02861, "type": "electric_scooter", "fusion_lon": 0.0, "lat": 38.935300833333336}, {"rental_uris": {"android": "https://dc.lft.to/lastmile_qr_scan", "ios": "https://dc.lft.to/lastmile_qr_scan"}, "is_reserved": 0, "is_disabled": 0, "name": "b9576b22b3ee1218fcd427d52c403f1c", "bike_id": "b9576b22b3ee1218fcd427d52c403f1c", "fusion_lat": 0.0, "lon": -77.026011, "type": "electric_scooter", "fusion_lon": 0.0, "lat": 38.920356166666664}, {"rental_uris": {"android": "https://dc.lft.to/lastmile_qr_scan", "ios": "https://dc.lft.to/lastmile_qr_scan"}, "is_reserved": 0, "is_disabled": 0, "name": "69e4d4dc53f2839a748cfaf747e97c31", "bike_id": "69e4d4dc53f2839a748cfaf747e97c31", "fusion_lat": 0.0, "lon": -77.03188016666667, "type": "electric_scooter", "fusion_lon": 0.0, "lat": 38.919263}, {"rental_uris": {"android": "https://dc.lft.to/lastmile_qr_scan", "ios": "https://dc.lft.to/lastmile_qr_scan"}, "is_reserved": 0, "is_disabled": 0, "name": "7ff356ed74c8c29b652bca367bf70587", "bike_id": "7ff356ed74c8c29b652bca367bf70587", "fusion_lat": 0.0, "lon": -77.05138283333334, "type": "electric_scooter", "fusion_lon": 0.0, "lat": 38.906527833333335}, {"rental_uris": {"android": "https://dc.lft.to/lastmile_qr_scan", "ios": "https://dc.lft.to/lastmile_qr_scan"}, "is_reserved": 0, "is_disabled": 0, "name": "b546d90cc2cd48a66a15ecf20577c7bc", "bike_id": "b546d90cc2cd48a66a15ecf20577c7bc", "fusion_lat": 0.0, "lon": -77.00621383333333, "type": "electric_scooter", "fusion_lon": 0.0, "lat": 38.8754075}, {"rental_uris": {"android": "https://dc.lft.to/lastmile_qr_scan", "ios": "https://dc.lft.to/lastmile_qr_scan"}, "is_reserved": 0, "is_disabled": 0, "name": "2d29770ee94bbde6526fde21989c1d7c", "bike_id": "2d29770ee94bbde6526fde21989c1d7c", "fusion_lat": 0.0, "lon": -77.03220416666667, "type": "electric_scooter", "fusion_lon": 0.0, "lat": 38.915992833333334}, {"rental_uris": {"android": "https://dc.lft.to/lastmile_qr_scan", "ios": "https://dc.lft.to/lastmile_qr_scan"}, "is_reserved": 0, "is_disabled": 0, "name": "c76fb8f3fb928b28ea50c5dc5702c6e7", "bike_id": "c76fb8f3fb928b28ea50c5dc5702c6e7", "fusion_lat": 0.0, "lon": -77.02326166666667, "type": "electric_scooter", "fusion_lon": 0.0, "lat": 38.91676283333334}, {"rental_uris": {"android": "https://dc.lft.to/lastmile_qr_scan", "ios": "https://dc.lft.to/lastmile_qr_scan"}, "is_reserved": 0, "is_disabled": 0, "name": "df3d5bd0cd92561dd4d93174d4563703", "bike_id": "df3d5bd0cd92561dd4d93174d4563703", "fusion_lat": 0.0, "lon": -77.0214795, "type": "electric_scooter", "fusion_lon": 0.0, "lat": 38.90482}, {"rental_uris": {"android": "https://dc.lft.to/lastmile_qr_scan", "ios": "https://dc.lft.to/lastmile_qr_scan"}, "is_reserved": 0, "is_disabled": 0, "name": "789153a1cb1862a683d34ce5331fe469", "bike_id": "789153a1cb1862a683d34ce5331fe469", "fusion_lat": 0.0, "lon": -77.03314316666666, "type": "electric_scooter", "fusion_lon": 0.0, "lat": 38.900415333333335}, {"rental_uris": {"android": "https://dc.lft.to/lastmile_qr_scan", "ios": "https://dc.lft.to/lastmile_qr_scan"}, "is_reserved": 0, "is_disabled": 0, "name": "8c1fc9116d93c420f80ad4782ca39be9", "bike_id": "8c1fc9116d93c420f80ad4782ca39be9", "fusion_lat": 0.0, "lon": -77.043472, "type": "electric_scooter", "fusion_lon": 0.0, "lat": 38.9130785}, {"rental_uris": {"android": "https://dc.lft.to/lastmile_qr_scan", "ios": "https://dc.lft.to/lastmile_qr_scan"}, "is_reserved": 0, "is_disabled": 0, "name": "6a92acceb39fc934220d70e40addba90", "bike_id": "6a92acceb39fc934220d70e40addba90", "fusion_lat": 0.0, "lon": -77.02658633333333, "type": "electric_scooter", "fusion_lon": 0.0, "lat": 38.92169916666667}, {"rental_uris": {"android": "https://dc.lft.to/lastmile_qr_scan", "ios": "https://dc.lft.to/lastmile_qr_scan"}, "is_reserved": 0, "is_disabled": 0, "name": "86f2818a092ecde57684774767789cf9", "bike_id": "86f2818a092ecde57684774767789cf9", "fusion_lat": 0.0, "lon": -77.02100233333333, "type": "electric_scooter", "fusion_lon": 0.0, "lat": 38.927136833333336}, {"rental_uris": {"android": "https://dc.lft.to/lastmile_qr_scan", "ios": "https://dc.lft.to/lastmile_qr_scan"}, "is_reserved": 0, "is_disabled": 0, "name": "987b9672585f7ca8d4a3ee1e944018b1", "bike_id": "987b9672585f7ca8d4a3ee1e944018b1", "fusion_lat": 0.0, "lon": -77.027005, "type": "electric_scooter", "fusion_lon": 0.0, "lat": 38.949800333333336}, {"rental_uris": {"android": "https://dc.lft.to/lastmile_qr_scan", "ios": "https://dc.lft.to/lastmile_qr_scan"}, "is_reserved": 0, "is_disabled": 0, "name": "0d71605f1f2d7c497f4a31ca9f0ccab9", "bike_id": "0d71605f1f2d7c497f4a31ca9f0ccab9", "fusion_lat": 0.0, "lon": -76.98497033333334, "type": "electric_scooter", "fusion_lon": 0.0, "lat": 38.860591}, {"rental_uris": {"android": "https://dc.lft.to/lastmile_qr_scan", "ios": "https://dc.lft.to/lastmile_qr_scan"}, "is_reserved": 0, "is_disabled": 0, "name": "d59bb8c3a3cbead3673c8dc6c3634993", "bike_id": "d59bb8c3a3cbead3673c8dc6c3634993", "fusion_lat": 0.0, "lon": -77.03380483333333, "type": "electric_scooter", "fusion_lon": 0.0, "lat": 38.9026785}, {"rental_uris": {"android": "https://dc.lft.to/lastmile_qr_scan", "ios": "https://dc.lft.to/lastmile_qr_scan"}, "is_reserved": 0, "is_disabled": 0, "name": "5484e7d9a726889288507c8120442067", "bike_id": "5484e7d9a726889288507c8120442067", "fusion_lat": 0.0, "lon": -77.03269033333333, "type": "electric_scooter", "fusion_lon": 0.0, "lat": 38.93416883333333}, {"rental_uris": {"android": "https://dc.lft.to/lastmile_qr_scan", "ios": "https://dc.lft.to/lastmile_qr_scan"}, "is_reserved": 0, "is_disabled": 0, "name": "c9097f91df19743233e88c55c84bd3ed", "bike_id": "c9097f91df19743233e88c55c84bd3ed", "fusion_lat": 0.0, "lon": -76.98691366666667, "type": "electric_bike", "fusion_lon": 0.0, "lat": 38.944694166666665}, {"rental_uris": {"android": "https://dc.lft.to/lastmile_qr_scan", "ios": "https://dc.lft.to/lastmile_qr_scan"}, "is_reserved": 0, "is_disabled": 0, "name": "566a97edeebf43bddf36f34a9d74b446", "bike_id": "566a97edeebf43bddf36f34a9d74b446", "fusion_lat": 0.0, "lon": -77.09819866666666, "type": "electric_bike", "fusion_lon": 0.0, "lat": 38.85016983333333}, {"rental_uris": {"android": "https://dc.lft.to/lastmile_qr_scan", "ios": "https://dc.lft.to/lastmile_qr_scan"}, "is_reserved": 0, "is_disabled": 0, "name": "68170e9665de38198b45348208d1ad0c", "bike_id": "68170e9665de38198b45348208d1ad0c", "fusion_lat": 0.0, "lon": -77.05120083333334, "type": "electric_scooter", "fusion_lon": 0.0, "lat": 38.92342466666667}, {"rental_uris": {"android": "https://dc.lft.to/lastmile_qr_scan", "ios": "https://dc.lft.to/lastmile_qr_scan"}, "is_reserved": 0, "is_disabled": 0, "name": "556e5b1cf148c7116e869f1c6d90f9be", "bike_id": "556e5b1cf148c7116e869f1c6d90f9be", "fusion_lat": 0.0, "lon": -77.03317866666667, "type": "electric_scooter", "fusion_lon": 0.0, "lat": 38.92145766666667}, {"rental_uris": {"android": "https://dc.lft.to/lastmile_qr_scan", "ios": "https://dc.lft.to/lastmile_qr_scan"}, "is_reserved": 0, "is_disabled": 0, "name": "dc3dcd7d6805ef8ebd615ac02d3a0585", "bike_id": "dc3dcd7d6805ef8ebd615ac02d3a0585", "fusion_lat": 0.0, "lon": -77.03380266666667, "type": "electric_scooter", "fusion_lon": 0.0, "lat": 38.92148516666666}, {"rental_uris": {"android": "https://dc.lft.to/lastmile_qr_scan", "ios": "https://dc.lft.to/lastmile_qr_scan"}, "is_reserved": 0, "is_disabled": 0, "name": "1f095c3fddabefd07567c48bc80faa14", "bike_id": "1f095c3fddabefd07567c48bc80faa14", "fusion_lat": 0.0, "lon": -77.0427705, "type": "electric_scooter", "fusion_lon": 0.0, "lat": 38.917865666666664}, {"rental_uris": {"android": "https://dc.lft.to/lastmile_qr_scan", "ios": "https://dc.lft.to/lastmile_qr_scan"}, "is_reserved": 0, "is_disabled": 0, "name": "dcde57b01ab40984f9875bf18c3ee156", "bike_id": "dcde57b01ab40984f9875bf18c3ee156", "fusion_lat": 0.0, "lon": -77.04535383333334, "type": "electric_scooter", "fusion_lon": 0.0, "lat": 38.899655833333334}, {"rental_uris": {"android": "https://dc.lft.to/lastmile_qr_scan", "ios": "https://dc.lft.to/lastmile_qr_scan"}, "is_reserved": 0, "is_disabled": 0, "name": "ecac17a9e5606e5030d597482e333de6", "bike_id": "ecac17a9e5606e5030d597482e333de6", "fusion_lat": 0.0, "lon": -77.004109, "type": "electric_bike", "fusion_lon": 0.0, "lat": 38.9854625}, {"rental_uris": {"android": "https://dc.lft.to/lastmile_qr_scan", "ios": "https://dc.lft.to/lastmile_qr_scan"}, "is_reserved": 0, "is_disabled": 0, "name": "297d946be9baba2da9aafe806b10d7ee", "bike_id": "297d946be9baba2da9aafe806b10d7ee", "fusion_lat": 0.0, "lon": -76.9909695, "type": "electric_bike", "fusion_lon": 0.0, "lat": 38.804805333333334}, {"rental_uris": {"android": "https://dc.lft.to/lastmile_qr_scan", "ios": "https://dc.lft.to/lastmile_qr_scan"}, "is_reserved": 0, "is_disabled": 0, "name": "e75e153a28b007e2b4c31ecfc3b3d528", "bike_id": "e75e153a28b007e2b4c31ecfc3b3d528", "fusion_lat": 0.0, "lon": -76.932138, "type": "electric_scooter", "fusion_lon": 0.0, "lat": 38.896658333333335}, {"rental_uris": {"android": "https://dc.lft.to/lastmile_qr_scan", "ios": "https://dc.lft.to/lastmile_qr_scan"}, "is_reserved": 0, "is_disabled": 0, "name": "09b0233c80020c059ba1a30cd61aa796", "bike_id": "09b0233c80020c059ba1a30cd61aa796", "fusion_lat": 0.0, "lon": -76.9863485, "type": "electric_scooter", "fusion_lon": 0.0, "lat": 38.880393166666664}, {"rental_uris": {"android": "https://dc.lft.to/lastmile_qr_scan", "ios": "https://dc.lft.to/lastmile_qr_scan"}, "is_reserved": 0, "is_disabled": 0, "name": "4b9d7649449522fafbe4b776fdaea4ad", "bike_id": "4b9d7649449522fafbe4b776fdaea4ad", "fusion_lat": 0.0, "lon": -77.02786883333333, "type": "electric_scooter", "fusion_lon": 0.0, "lat": 38.962188}, {"rental_uris": {"android": "https://dc.lft.to/lastmile_qr_scan", "ios": "https://dc.lft.to/lastmile_qr_scan"}, "is_reserved": 0, "is_disabled": 0, "name": "eb60eb4221e328eb2941c0ca31f8ca3a", "bike_id": "eb60eb4221e328eb2941c0ca31f8ca3a", "fusion_lat": 0.0, "lon": -77.01091216666667, "type": "electric_scooter", "fusion_lon": 0.0, "lat": 38.89537833333333}, {"rental_uris": {"android": "https://dc.lft.to/lastmile_qr_scan", "ios": "https://dc.lft.to/lastmile_qr_scan"}, "is_reserved": 0, "is_disabled": 0, "name": "cc7235c065818163d4284fc2efefad61", "bike_id": "cc7235c065818163d4284fc2efefad61", "fusion_lat": 0.0, "lon": -77.08028166666666, "type": "electric_bike", "fusion_lon": 0.0, "lat": 38.95768433333333}, {"rental_uris": {"android": "https://dc.lft.to/lastmile_qr_scan", "ios": "https://dc.lft.to/lastmile_qr_scan"}, "is_reserved": 0, "is_disabled": 0, "name": "0a895933ef58ec5c3e20d225c9ad21c5", "bike_id": "0a895933ef58ec5c3e20d225c9ad21c5", "fusion_lat": 0.0, "lon": -77.026669, "type": "electric_scooter", "fusion_lon": 0.0, "lat": 38.93872316666667}, {"rental_uris": {"android": "https://dc.lft.to/lastmile_qr_scan", "ios": "https://dc.lft.to/lastmile_qr_scan"}, "is_reserved": 0, "is_disabled": 0, "name": "2c41313876b8caed762f87aa0b85066f", "bike_id": "2c41313876b8caed762f87aa0b85066f", "fusion_lat": 0.0, "lon": -77.031766, "type": "electric_scooter", "fusion_lon": 0.0, "lat": 38.88387866666667}, {"rental_uris": {"android": "https://dc.lft.to/lastmile_qr_scan", "ios": "https://dc.lft.to/lastmile_qr_scan"}, "is_reserved": 0, "is_disabled": 0, "name": "bdeebce96a65ac0691b999fe601659bc", "bike_id": "bdeebce96a65ac0691b999fe601659bc", "fusion_lat": 0.0, "lon": -77.05814083333334, "type": "electric_scooter", "fusion_lon": 0.0, "lat": 38.90634683333333}, {"rental_uris": {"android": "https://dc.lft.to/lastmile_qr_scan", "ios": "https://dc.lft.to/lastmile_qr_scan"}, "is_reserved": 0, "is_disabled": 0, "name": "3284bf2cc27a27b4334007964484e622", "bike_id": "3284bf2cc27a27b4334007964484e622", "fusion_lat": 0.0, "lon": -77.05895666666666, "type": "electric_scooter", "fusion_lon": 0.0, "lat": 38.93608166666667}, {"rental_uris": {"android": "https://dc.lft.to/lastmile_qr_scan", "ios": "https://dc.lft.to/lastmile_qr_scan"}, "is_reserved": 0, "is_disabled": 0, "name": "c36834a9a87fb4823596293370cc65b5", "bike_id": "c36834a9a87fb4823596293370cc65b5", "fusion_lat": 0.0, "lon": -76.98358, "type": "electric_scooter", "fusion_lon": 0.0, "lat": 38.887324166666666}, {"rental_uris": {"android": "https://dc.lft.to/lastmile_qr_scan", "ios": "https://dc.lft.to/lastmile_qr_scan"}, "is_reserved": 0, "is_disabled": 0, "name": "5010044f82a51111c14721f9715404dd", "bike_id": "5010044f82a51111c14721f9715404dd", "fusion_lat": 0.0, "lon": -77.03255183333333, "type": "electric_scooter", "fusion_lon": 0.0, "lat": 38.93970266666667}, {"rental_uris": {"android": "https://dc.lft.to/lastmile_qr_scan", "ios": "https://dc.lft.to/lastmile_qr_scan"}, "is_reserved": 0, "is_disabled": 0, "name": "e40ce59cb72bd28a5fa2720ac3fc058a", "bike_id": "e40ce59cb72bd28a5fa2720ac3fc058a", "fusion_lat": 0.0, "lon": -77.04404416666667, "type": "electric_scooter", "fusion_lon": 0.0, "lat": 38.9295285}, {"rental_uris": {"android": "https://dc.lft.to/lastmile_qr_scan", "ios": "https://dc.lft.to/lastmile_qr_scan"}, "is_reserved": 0, "is_disabled": 0, "name": "ca6f463ead6a28339b4c677a3731fd17", "bike_id": "ca6f463ead6a28339b4c677a3731fd17", "fusion_lat": 0.0, "lon": -77.0272085, "type": "electric_scooter", "fusion_lon": 0.0, "lat": 38.90680033333334}, {"rental_uris": {"android": "https://dc.lft.to/lastmile_qr_scan", "ios": "https://dc.lft.to/lastmile_qr_scan"}, "is_reserved": 0, "is_disabled": 0, "name": "6a04453cfded633c7dda378f9cbdb026", "bike_id": "6a04453cfded633c7dda378f9cbdb026", "fusion_lat": 0.0, "lon": -77.0234135, "type": "electric_scooter", "fusion_lon": 0.0, "lat": 38.88136466666667}, {"rental_uris": {"android": "https://dc.lft.to/lastmile_qr_scan", "ios": "https://dc.lft.to/lastmile_qr_scan"}, "is_reserved": 0, "is_disabled": 0, "name": "d00970724b83eb85850eac386f6537fb", "bike_id": "d00970724b83eb85850eac386f6537fb", "fusion_lat": 0.0, "lon": -77.04157633333334, "type": "electric_scooter", "fusion_lon": 0.0, "lat": 38.916191}, {"rental_uris": {"android": "https://dc.lft.to/lastmile_qr_scan", "ios": "https://dc.lft.to/lastmile_qr_scan"}, "is_reserved": 0, "is_disabled": 0, "name": "52a2184b24dd6619114f9f1bc5818509", "bike_id": "52a2184b24dd6619114f9f1bc5818509", "fusion_lat": 0.0, "lon": -77.01427816666667, "type": "electric_scooter", "fusion_lon": 0.0, "lat": 38.928275166666666}, {"rental_uris": {"android": "https://dc.lft.to/lastmile_qr_scan", "ios": "https://dc.lft.to/lastmile_qr_scan"}, "is_reserved": 0, "is_disabled": 0, "name": "55f8fe21f41a82ea9bcd1759d458a60a", "bike_id": "55f8fe21f41a82ea9bcd1759d458a60a", "fusion_lat": 0.0, "lon": -77.03209716666667, "type": "electric_scooter", "fusion_lon": 0.0, "lat": 38.917744666666664}, {"rental_uris": {"android": "https://dc.lft.to/lastmile_qr_scan", "ios": "https://dc.lft.to/lastmile_qr_scan"}, "is_reserved": 0, "is_disabled": 0, "name": "c1f21e00948dbc4894fa4090d8c8586a", "bike_id": "c1f21e00948dbc4894fa4090d8c8586a", "fusion_lat": 0.0, "lon": -77.01906533333333, "type": "electric_scooter", "fusion_lon": 0.0, "lat": 38.921764333333336}, {"rental_uris": {"android": "https://dc.lft.to/lastmile_qr_scan", "ios": "https://dc.lft.to/lastmile_qr_scan"}, "is_reserved": 0, "is_disabled": 0, "name": "2cdd66a3b5cce56db17f85fcd22dc987", "bike_id": "2cdd66a3b5cce56db17f85fcd22dc987", "fusion_lat": 0.0, "lon": -77.00484933333334, "type": "electric_scooter", "fusion_lon": 0.0, "lat": 38.874742}, {"rental_uris": {"android": "https://dc.lft.to/lastmile_qr_scan", "ios": "https://dc.lft.to/lastmile_qr_scan"}, "is_reserved": 0, "is_disabled": 0, "name": "db3d489743e30a91b85d0840196de0ff", "bike_id": "db3d489743e30a91b85d0840196de0ff", "fusion_lat": 0.0, "lon": -76.97718783333333, "type": "electric_scooter", "fusion_lon": 0.0, "lat": 38.888190333333334}, {"rental_uris": {"android": "https://dc.lft.to/lastmile_qr_scan", "ios": "https://dc.lft.to/lastmile_qr_scan"}, "is_reserved": 0, "is_disabled": 0, "name": "1ee27ad6a4ce9b2b08b7716bea989fe4", "bike_id": "1ee27ad6a4ce9b2b08b7716bea989fe4", "fusion_lat": 0.0, "lon": -77.04681616666667, "type": "electric_scooter", "fusion_lon": 0.0, "lat": 38.89220483333333}, {"rental_uris": {"android": "https://dc.lft.to/lastmile_qr_scan", "ios": "https://dc.lft.to/lastmile_qr_scan"}, "is_reserved": 0, "is_disabled": 0, "name": "781a3e3e6359d0c6c9676c54c63b3de4", "bike_id": "781a3e3e6359d0c6c9676c54c63b3de4", "fusion_lat": 0.0, "lon": -77.0469405, "type": "electric_scooter", "fusion_lon": 0.0, "lat": 38.896067333333335}, {"rental_uris": {"android": "https://dc.lft.to/lastmile_qr_scan", "ios": "https://dc.lft.to/lastmile_qr_scan"}, "is_reserved": 0, "is_disabled": 0, "name": "3c59dec93a6e7cf13518114ec9fb42a9", "bike_id": "3c59dec93a6e7cf13518114ec9fb42a9", "fusion_lat": 0.0, "lon": -77.09105133333334, "type": "electric_scooter", "fusion_lon": 0.0, "lat": 38.930951666666665}, {"rental_uris": {"android": "https://dc.lft.to/lastmile_qr_scan", "ios": "https://dc.lft.to/lastmile_qr_scan"}, "is_reserved": 0, "is_disabled": 0, "name": "dce8133b348da9338f06f9d99e1d56a3", "bike_id": "dce8133b348da9338f06f9d99e1d56a3", "fusion_lat": 0.0, "lon": -77.027886, "type": "electric_scooter", "fusion_lon": 0.0, "lat": 38.96130816666667}, {"rental_uris": {"android": "https://dc.lft.to/lastmile_qr_scan", "ios": "https://dc.lft.to/lastmile_qr_scan"}, "is_reserved": 0, "is_disabled": 0, "name": "6c4d09f561dbe70ec031f986e9d4207f", "bike_id": "6c4d09f561dbe70ec031f986e9d4207f", "fusion_lat": 0.0, "lon": -77.05341716666666, "type": "electric_scooter", "fusion_lon": 0.0, "lat": 38.906478166666666}, {"rental_uris": {"android": "https://dc.lft.to/lastmile_qr_scan", "ios": "https://dc.lft.to/lastmile_qr_scan"}, "is_reserved": 0, "is_disabled": 0, "name": "a908d86b14b01628e3f10b7317ec4260", "bike_id": "a908d86b14b01628e3f10b7317ec4260", "fusion_lat": 0.0, "lon": -76.94653533333333, "type": "electric_scooter", "fusion_lon": 0.0, "lat": 38.8982595}, {"rental_uris": {"android": "https://dc.lft.to/lastmile_qr_scan", "ios": "https://dc.lft.to/lastmile_qr_scan"}, "is_reserved": 0, "is_disabled": 0, "name": "abac8b66656c33d98c67ebb0f98ff5b8", "bike_id": "abac8b66656c33d98c67ebb0f98ff5b8", "fusion_lat": 0.0, "lon": -77.02193166666666, "type": "electric_scooter", "fusion_lon": 0.0, "lat": 38.92488016666667}, {"rental_uris": {"android": "https://dc.lft.to/lastmile_qr_scan", "ios": "https://dc.lft.to/lastmile_qr_scan"}, "is_reserved": 0, "is_disabled": 0, "name": "94bf833e315a1d58b330510ebab4ca3e", "bike_id": "94bf833e315a1d58b330510ebab4ca3e", "fusion_lat": 0.0, "lon": -77.02153716666666, "type": "electric_scooter", "fusion_lon": 0.0, "lat": 38.941299666666666}, {"rental_uris": {"android": "https://dc.lft.to/lastmile_qr_scan", "ios": "https://dc.lft.to/lastmile_qr_scan"}, "is_reserved": 0, "is_disabled": 0, "name": "f2b54b2302721214ad7a795e431bcc4f", "bike_id": "f2b54b2302721214ad7a795e431bcc4f", "fusion_lat": 0.0, "lon": -77.02405883333333, "type": "electric_scooter", "fusion_lon": 0.0, "lat": 38.915653}, {"rental_uris": {"android": "https://dc.lft.to/lastmile_qr_scan", "ios": "https://dc.lft.to/lastmile_qr_scan"}, "is_reserved": 0, "is_disabled": 0, "name": "74b6bc77f16831a483254f01db0b2e9c", "bike_id": "74b6bc77f16831a483254f01db0b2e9c", "fusion_lat": 0.0, "lon": -77.02800416666666, "type": "electric_scooter", "fusion_lon": 0.0, "lat": 38.8922835}, {"rental_uris": {"android": "https://dc.lft.to/lastmile_qr_scan", "ios": "https://dc.lft.to/lastmile_qr_scan"}, "is_reserved": 0, "is_disabled": 0, "name": "a3c35ffeae3d1a586d5fd829f8d7a30c", "bike_id": "a3c35ffeae3d1a586d5fd829f8d7a30c", "fusion_lat": 0.0, "lon": -77.01507783333334, "type": "electric_scooter", "fusion_lon": 0.0, "lat": 38.89116766666667}, {"rental_uris": {"android": "https://dc.lft.to/lastmile_qr_scan", "ios": "https://dc.lft.to/lastmile_qr_scan"}, "is_reserved": 0, "is_disabled": 0, "name": "7c7a2159144757823151f550def980b4", "bike_id": "7c7a2159144757823151f550def980b4", "fusion_lat": 0.0, "lon": -76.907491, "type": "electric_bike", "fusion_lon": 0.0, "lat": 38.89622383333333}, {"rental_uris": {"android": "https://dc.lft.to/lastmile_qr_scan", "ios": "https://dc.lft.to/lastmile_qr_scan"}, "is_reserved": 0, "is_disabled": 0, "name": "59d5a331f06ce78d61d117f0985070ca", "bike_id": "59d5a331f06ce78d61d117f0985070ca", "fusion_lat": 0.0, "lon": -77.02982066666667, "type": "electric_scooter", "fusion_lon": 0.0, "lat": 38.921973666666666}, {"rental_uris": {"android": "https://dc.lft.to/lastmile_qr_scan", "ios": "https://dc.lft.to/lastmile_qr_scan"}, "is_reserved": 0, "is_disabled": 0, "name": "a6d8413403fe5674409bdd7b5e3074c8", "bike_id": "a6d8413403fe5674409bdd7b5e3074c8", "fusion_lat": 0.0, "lon": -76.98081283333333, "type": "electric_scooter", "fusion_lon": 0.0, "lat": 38.901741666666666}, {"rental_uris": {"android": "https://dc.lft.to/lastmile_qr_scan", "ios": "https://dc.lft.to/lastmile_qr_scan"}, "is_reserved": 0, "is_disabled": 0, "name": "a1d552bab757e355a0841a5094324a62", "bike_id": "a1d552bab757e355a0841a5094324a62", "fusion_lat": 0.0, "lon": -77.05616066666667, "type": "electric_scooter", "fusion_lon": 0.0, "lat": 38.931119833333334}, {"rental_uris": {"android": "https://dc.lft.to/lastmile_qr_scan", "ios": "https://dc.lft.to/lastmile_qr_scan"}, "is_reserved": 0, "is_disabled": 0, "name": "5ca44596cfc25f5dc220fc3416f287a5", "bike_id": "5ca44596cfc25f5dc220fc3416f287a5", "fusion_lat": 0.0, "lon": -77.02217966666667, "type": "electric_scooter", "fusion_lon": 0.0, "lat": 38.8871595}, {"rental_uris": {"android": "https://dc.lft.to/lastmile_qr_scan", "ios": "https://dc.lft.to/lastmile_qr_scan"}, "is_reserved": 0, "is_disabled": 0, "name": "d86331156a6a96db414501f2468b108a", "bike_id": "d86331156a6a96db414501f2468b108a", "fusion_lat": 0.0, "lon": -77.01670216666666, "type": "electric_bike", "fusion_lon": 0.0, "lat": 38.93838233333334}, {"rental_uris": {"android": "https://dc.lft.to/lastmile_qr_scan", "ios": "https://dc.lft.to/lastmile_qr_scan"}, "is_reserved": 0, "is_disabled": 0, "name": "0a4a7883ea93cf5730d4c8a32aa2a920", "bike_id": "0a4a7883ea93cf5730d4c8a32aa2a920", "fusion_lat": 0.0, "lon": -77.00613016666667, "type": "electric_bike", "fusion_lon": 0.0, "lat": 38.82404116666667}, {"rental_uris": {"android": "https://dc.lft.to/lastmile_qr_scan", "ios": "https://dc.lft.to/lastmile_qr_scan"}, "is_reserved": 0, "is_disabled": 0, "name": "02302de555b0b136732ac4ee86ae6bf3", "bike_id": "02302de555b0b136732ac4ee86ae6bf3", "fusion_lat": 0.0, "lon": -77.02187383333333, "type": "electric_scooter", "fusion_lon": 0.0, "lat": 38.901894}, {"rental_uris": {"android": "https://dc.lft.to/lastmile_qr_scan", "ios": "https://dc.lft.to/lastmile_qr_scan"}, "is_reserved": 0, "is_disabled": 0, "name": "4567d1e2b5a01957fd7810f1cde3f17f", "bike_id": "4567d1e2b5a01957fd7810f1cde3f17f", "fusion_lat": 0.0, "lon": -77.03691233333333, "type": "electric_scooter", "fusion_lon": 0.0, "lat": 38.92717433333333}, {"rental_uris": {"android": "https://dc.lft.to/lastmile_qr_scan", "ios": "https://dc.lft.to/lastmile_qr_scan"}, "is_reserved": 0, "is_disabled": 0, "name": "f27edb0e2e2b9c22115323ead63a97d9", "bike_id": "f27edb0e2e2b9c22115323ead63a97d9", "fusion_lat": 0.0, "lon": -76.924619, "type": "electric_scooter", "fusion_lon": 0.0, "lat": 38.88519183333333}, {"rental_uris": {"android": "https://dc.lft.to/lastmile_qr_scan", "ios": "https://dc.lft.to/lastmile_qr_scan"}, "is_reserved": 0, "is_disabled": 0, "name": "6b6fdc96784cba1bb27777a899f4514e", "bike_id": "6b6fdc96784cba1bb27777a899f4514e", "fusion_lat": 0.0, "lon": -77.01557783333334, "type": "electric_scooter", "fusion_lon": 0.0, "lat": 38.92790866666667}, {"rental_uris": {"android": "https://dc.lft.to/lastmile_qr_scan", "ios": "https://dc.lft.to/lastmile_qr_scan"}, "is_reserved": 0, "is_disabled": 0, "name": "c83ad9ca70f3dcad0fa2e250b0c62160", "bike_id": "c83ad9ca70f3dcad0fa2e250b0c62160", "fusion_lat": 0.0, "lon": -77.0487795, "type": "electric_scooter", "fusion_lon": 0.0, "lat": 38.91033316666667}, {"rental_uris": {"android": "https://dc.lft.to/lastmile_qr_scan", "ios": "https://dc.lft.to/lastmile_qr_scan"}, "is_reserved": 0, "is_disabled": 0, "name": "41d404fe8549a227cbbb7672f7882e7f", "bike_id": "41d404fe8549a227cbbb7672f7882e7f", "fusion_lat": 0.0, "lon": -77.02157066666666, "type": "electric_scooter", "fusion_lon": 0.0, "lat": 38.92602133333333}, {"rental_uris": {"android": "https://dc.lft.to/lastmile_qr_scan", "ios": "https://dc.lft.to/lastmile_qr_scan"}, "is_reserved": 0, "is_disabled": 0, "name": "3564a5c0ec83a10c8b64aac53aa168b2", "bike_id": "3564a5c0ec83a10c8b64aac53aa168b2", "fusion_lat": 0.0, "lon": -77.03502483333334, "type": "electric_scooter", "fusion_lon": 0.0, "lat": 38.9188125}, {"rental_uris": {"android": "https://dc.lft.to/lastmile_qr_scan", "ios": "https://dc.lft.to/lastmile_qr_scan"}, "is_reserved": 0, "is_disabled": 0, "name": "9c0bf48f313d4862e0340ec6a12d759a", "bike_id": "9c0bf48f313d4862e0340ec6a12d759a", "fusion_lat": 0.0, "lon": -77.02023433333333, "type": "electric_scooter", "fusion_lon": 0.0, "lat": 38.924297333333335}, {"rental_uris": {"android": "https://dc.lft.to/lastmile_qr_scan", "ios": "https://dc.lft.to/lastmile_qr_scan"}, "is_reserved": 0, "is_disabled": 0, "name": "432f47a3d9e96db122b01297720eb836", "bike_id": "432f47a3d9e96db122b01297720eb836", "fusion_lat": 0.0, "lon": -77.00613016666667, "type": "electric_scooter", "fusion_lon": 0.0, "lat": 38.8753855}, {"rental_uris": {"android": "https://dc.lft.to/lastmile_qr_scan", "ios": "https://dc.lft.to/lastmile_qr_scan"}, "is_reserved": 0, "is_disabled": 0, "name": "8eaeafada7142501fbe6bcc896fb6cd9", "bike_id": "8eaeafada7142501fbe6bcc896fb6cd9", "fusion_lat": 0.0, "lon": -77.0356885, "type": "electric_scooter", "fusion_lon": 0.0, "lat": 38.924709166666666}, {"rental_uris": {"android": "https://dc.lft.to/lastmile_qr_scan", "ios": "https://dc.lft.to/lastmile_qr_scan"}, "is_reserved": 0, "is_disabled": 0, "name": "56dbf2b3df5ca8ab39b092a2265a3ebb", "bike_id": "56dbf2b3df5ca8ab39b092a2265a3ebb", "fusion_lat": 0.0, "lon": -77.033774, "type": "electric_scooter", "fusion_lon": 0.0, "lat": 38.900332666666664}, {"rental_uris": {"android": "https://dc.lft.to/lastmile_qr_scan", "ios": "https://dc.lft.to/lastmile_qr_scan"}, "is_reserved": 0, "is_disabled": 0, "name": "2116d516cacf41c80b8c9df195622b09", "bike_id": "2116d516cacf41c80b8c9df195622b09", "fusion_lat": 0.0, "lon": -77.05490533333334, "type": "electric_scooter", "fusion_lon": 0.0, "lat": 38.908439333333334}, {"rental_uris": {"android": "https://dc.lft.to/lastmile_qr_scan", "ios": "https://dc.lft.to/lastmile_qr_scan"}, "is_reserved": 0, "is_disabled": 0, "name": "f763ee5573aa3afc1496991931c03a14", "bike_id": "f763ee5573aa3afc1496991931c03a14", "fusion_lat": 0.0, "lon": -77.02766883333334, "type": "electric_scooter", "fusion_lon": 0.0, "lat": 38.8984065}, {"rental_uris": {"android": "https://dc.lft.to/lastmile_qr_scan", "ios": "https://dc.lft.to/lastmile_qr_scan"}, "is_reserved": 0, "is_disabled": 0, "name": "5fa548da83697ecb61a541a0b473dae2", "bike_id": "5fa548da83697ecb61a541a0b473dae2", "fusion_lat": 0.0, "lon": -76.98210033333334, "type": "electric_bike", "fusion_lon": 0.0, "lat": 38.9850585}, {"rental_uris": {"android": "https://dc.lft.to/lastmile_qr_scan", "ios": "https://dc.lft.to/lastmile_qr_scan"}, "is_reserved": 0, "is_disabled": 0, "name": "823785d7429612868b84833a2e32ed9d", "bike_id": "823785d7429612868b84833a2e32ed9d", "fusion_lat": 0.0, "lon": -77.08724933333333, "type": "electric_bike", "fusion_lon": 0.0, "lat": 38.86238}, {"rental_uris": {"android": "https://dc.lft.to/lastmile_qr_scan", "ios": "https://dc.lft.to/lastmile_qr_scan"}, "is_reserved": 0, "is_disabled": 0, "name": "e49466121262bfe63f36c615e9e42e79", "bike_id": "e49466121262bfe63f36c615e9e42e79", "fusion_lat": 0.0, "lon": -77.00597233333333, "type": "electric_scooter", "fusion_lon": 0.0, "lat": 38.905716166666664}, {"rental_uris": {"android": "https://dc.lft.to/lastmile_qr_scan", "ios": "https://dc.lft.to/lastmile_qr_scan"}, "is_reserved": 0, "is_disabled": 0, "name": "c4ab7acb900491b9e95a606678fbb289", "bike_id": "c4ab7acb900491b9e95a606678fbb289", "fusion_lat": 0.0, "lon": -76.93595933333333, "type": "electric_scooter", "fusion_lon": 0.0, "lat": 38.909465833333336}, {"rental_uris": {"android": "https://dc.lft.to/lastmile_qr_scan", "ios": "https://dc.lft.to/lastmile_qr_scan"}, "is_reserved": 0, "is_disabled": 0, "name": "a2f45ef5a20bce9b4a2d5097d84e6c29", "bike_id": "a2f45ef5a20bce9b4a2d5097d84e6c29", "fusion_lat": 0.0, "lon": -77.02229066666666, "type": "electric_scooter", "fusion_lon": 0.0, "lat": 38.91254966666666}, {"rental_uris": {"android": "https://dc.lft.to/lastmile_qr_scan", "ios": "https://dc.lft.to/lastmile_qr_scan"}, "is_reserved": 0, "is_disabled": 0, "name": "b5c3522936dbbb0f5b7e7d393cfc58aa", "bike_id": "b5c3522936dbbb0f5b7e7d393cfc58aa", "fusion_lat": 0.0, "lon": -76.95157416666666, "type": "electric_bike", "fusion_lon": 0.0, "lat": 39.08442466666666}, {"rental_uris": {"android": "https://dc.lft.to/lastmile_qr_scan", "ios": "https://dc.lft.to/lastmile_qr_scan"}, "is_reserved": 0, "is_disabled": 0, "name": "3506874ba3283b34b735c1ac49e800fe", "bike_id": "3506874ba3283b34b735c1ac49e800fe", "fusion_lat": 0.0, "lon": -77.05003666666667, "type": "electric_scooter", "fusion_lon": 0.0, "lat": 38.8922905}, {"rental_uris": {"android": "https://dc.lft.to/lastmile_qr_scan", "ios": "https://dc.lft.to/lastmile_qr_scan"}, "is_reserved": 0, "is_disabled": 0, "name": "7cd750d74f444ee5bd9584b9215df555", "bike_id": "7cd750d74f444ee5bd9584b9215df555", "fusion_lat": 0.0, "lon": -77.01211666666667, "type": "electric_scooter", "fusion_lon": 0.0, "lat": 38.91822833333333}, {"rental_uris": {"android": "https://dc.lft.to/lastmile_qr_scan", "ios": "https://dc.lft.to/lastmile_qr_scan"}, "is_reserved": 0, "is_disabled": 0, "name": "0c64a70a3d02c7b3cb51794bb9d3dcf6", "bike_id": "0c64a70a3d02c7b3cb51794bb9d3dcf6", "fusion_lat": 0.0, "lon": -77.02796283333333, "type": "electric_scooter", "fusion_lon": 0.0, "lat": 38.93080916666667}, {"rental_uris": {"android": "https://dc.lft.to/lastmile_qr_scan", "ios": "https://dc.lft.to/lastmile_qr_scan"}, "is_reserved": 0, "is_disabled": 0, "name": "5f8fa2f925eb493a3d6f0f54232c96ae", "bike_id": "5f8fa2f925eb493a3d6f0f54232c96ae", "fusion_lat": 0.0, "lon": -77.0365835, "type": "electric_scooter", "fusion_lon": 0.0, "lat": 38.90273766666667}, {"rental_uris": {"android": "https://dc.lft.to/lastmile_qr_scan", "ios": "https://dc.lft.to/lastmile_qr_scan"}, "is_reserved": 0, "is_disabled": 0, "name": "42a140dbba93e274e88a50a2dac0331b", "bike_id": "42a140dbba93e274e88a50a2dac0331b", "fusion_lat": 0.0, "lon": -77.032476, "type": "electric_scooter", "fusion_lon": 0.0, "lat": 38.917152333333334}, {"rental_uris": {"android": "https://dc.lft.to/lastmile_qr_scan", "ios": "https://dc.lft.to/lastmile_qr_scan"}, "is_reserved": 0, "is_disabled": 0, "name": "ee8df45f5ed443c4e037f226740f0592", "bike_id": "ee8df45f5ed443c4e037f226740f0592", "fusion_lat": 0.0, "lon": -77.00158916666666, "type": "electric_scooter", "fusion_lon": 0.0, "lat": 38.821327833333335}, {"rental_uris": {"android": "https://dc.lft.to/lastmile_qr_scan", "ios": "https://dc.lft.to/lastmile_qr_scan"}, "is_reserved": 0, "is_disabled": 0, "name": "904f0d0ae8b9f1cd6a9a9fe4a93b525d", "bike_id": "904f0d0ae8b9f1cd6a9a9fe4a93b525d", "fusion_lat": 0.0, "lon": -77.00296766666666, "type": "electric_scooter", "fusion_lon": 0.0, "lat": 38.89201083333333}, {"rental_uris": {"android": "https://dc.lft.to/lastmile_qr_scan", "ios": "https://dc.lft.to/lastmile_qr_scan"}, "is_reserved": 0, "is_disabled": 0, "name": "7b2924e855b14671648a507708de357f", "bike_id": "7b2924e855b14671648a507708de357f", "fusion_lat": 0.0, "lon": -77.03066716666666, "type": "electric_scooter", "fusion_lon": 0.0, "lat": 38.898457}, {"rental_uris": {"android": "https://dc.lft.to/lastmile_qr_scan", "ios": "https://dc.lft.to/lastmile_qr_scan"}, "is_reserved": 0, "is_disabled": 0, "name": "73d9e4abfd49d536b333232ba4c9678a", "bike_id": "73d9e4abfd49d536b333232ba4c9678a", "fusion_lat": 0.0, "lon": -77.00291483333334, "type": "electric_scooter", "fusion_lon": 0.0, "lat": 38.903639166666665}, {"rental_uris": {"android": "https://dc.lft.to/lastmile_qr_scan", "ios": "https://dc.lft.to/lastmile_qr_scan"}, "is_reserved": 0, "is_disabled": 0, "name": "73a468ae70008fc4c4ff538d47cdac38", "bike_id": "73a468ae70008fc4c4ff538d47cdac38", "fusion_lat": 0.0, "lon": -77.06431133333334, "type": "electric_scooter", "fusion_lon": 0.0, "lat": 38.93562983333333}, {"rental_uris": {"android": "https://dc.lft.to/lastmile_qr_scan", "ios": "https://dc.lft.to/lastmile_qr_scan"}, "is_reserved": 0, "is_disabled": 0, "name": "eb5ab0ddc5dff62653c2a57b37dc7623", "bike_id": "eb5ab0ddc5dff62653c2a57b37dc7623", "fusion_lat": 0.0, "lon": -77.027145, "type": "electric_scooter", "fusion_lon": 0.0, "lat": 38.90664833333334}, {"rental_uris": {"android": "https://dc.lft.to/lastmile_qr_scan", "ios": "https://dc.lft.to/lastmile_qr_scan"}, "is_reserved": 0, "is_disabled": 0, "name": "dc71cc732a8dc24104e72a56be7be860", "bike_id": "dc71cc732a8dc24104e72a56be7be860", "fusion_lat": 0.0, "lon": -77.02103333333334, "type": "electric_scooter", "fusion_lon": 0.0, "lat": 38.927156333333336}, {"rental_uris": {"android": "https://dc.lft.to/lastmile_qr_scan", "ios": "https://dc.lft.to/lastmile_qr_scan"}, "is_reserved": 0, "is_disabled": 0, "name": "73bb4e38c4f115f6e6c51204b6866091", "bike_id": "73bb4e38c4f115f6e6c51204b6866091", "fusion_lat": 0.0, "lon": -77.02210283333334, "type": "electric_bike", "fusion_lon": 0.0, "lat": 38.96490283333333}, {"rental_uris": {"android": "https://dc.lft.to/lastmile_qr_scan", "ios": "https://dc.lft.to/lastmile_qr_scan"}, "is_reserved": 0, "is_disabled": 0, "name": "4e861d0d289eade10b195bc6349de2a0", "bike_id": "4e861d0d289eade10b195bc6349de2a0", "fusion_lat": 0.0, "lon": -77.018674, "type": "electric_scooter", "fusion_lon": 0.0, "lat": 38.95154083333333}, {"rental_uris": {"android": "https://dc.lft.to/lastmile_qr_scan", "ios": "https://dc.lft.to/lastmile_qr_scan"}, "is_reserved": 0, "is_disabled": 0, "name": "ac99cfcc78a29ad6684c0ac6ab04fec5", "bike_id": "ac99cfcc78a29ad6684c0ac6ab04fec5", "fusion_lat": 0.0, "lon": -77.0248975, "type": "electric_scooter", "fusion_lon": 0.0, "lat": 38.917496}, {"rental_uris": {"android": "https://dc.lft.to/lastmile_qr_scan", "ios": "https://dc.lft.to/lastmile_qr_scan"}, "is_reserved": 0, "is_disabled": 0, "name": "34693b229872a98f6eb497106741f6d2", "bike_id": "34693b229872a98f6eb497106741f6d2", "fusion_lat": 0.0, "lon": -77.02199133333333, "type": "electric_scooter", "fusion_lon": 0.0, "lat": 38.914834166666665}, {"rental_uris": {"android": "https://dc.lft.to/lastmile_qr_scan", "ios": "https://dc.lft.to/lastmile_qr_scan"}, "is_reserved": 0, "is_disabled": 0, "name": "c4ac27f7fe0146ed891f5ba0ed8e1a08", "bike_id": "c4ac27f7fe0146ed891f5ba0ed8e1a08", "fusion_lat": 0.0, "lon": -76.985648, "type": "electric_scooter", "fusion_lon": 0.0, "lat": 38.90704916666667}, {"rental_uris": {"android": "https://dc.lft.to/lastmile_qr_scan", "ios": "https://dc.lft.to/lastmile_qr_scan"}, "is_reserved": 0, "is_disabled": 0, "name": "7f02382cf38564903ec41a5e7218e83f", "bike_id": "7f02382cf38564903ec41a5e7218e83f", "fusion_lat": 0.0, "lon": -77.02809516666666, "type": "electric_scooter", "fusion_lon": 0.0, "lat": 38.93076633333333}, {"rental_uris": {"android": "https://dc.lft.to/lastmile_qr_scan", "ios": "https://dc.lft.to/lastmile_qr_scan"}, "is_reserved": 0, "is_disabled": 0, "name": "2b8f926a2985e1eef12acb1b79f45a93", "bike_id": "2b8f926a2985e1eef12acb1b79f45a93", "fusion_lat": 0.0, "lon": -77.04639733333333, "type": "electric_scooter", "fusion_lon": 0.0, "lat": 38.89221916666666}, {"rental_uris": {"android": "https://dc.lft.to/lastmile_qr_scan", "ios": "https://dc.lft.to/lastmile_qr_scan"}, "is_reserved": 0, "is_disabled": 0, "name": "5c0dba1cb928c1fefc171e325a96a2a0", "bike_id": "5c0dba1cb928c1fefc171e325a96a2a0", "fusion_lat": 0.0, "lon": -77.01068016666666, "type": "electric_scooter", "fusion_lon": 0.0, "lat": 38.92126666666667}, {"rental_uris": {"android": "https://dc.lft.to/lastmile_qr_scan", "ios": "https://dc.lft.to/lastmile_qr_scan"}, "is_reserved": 0, "is_disabled": 0, "name": "7b98a05b3c34417f7d3f7062bfc6d8fd", "bike_id": "7b98a05b3c34417f7d3f7062bfc6d8fd", "fusion_lat": 0.0, "lon": -77.026044, "type": "electric_scooter", "fusion_lon": 0.0, "lat": 38.9238885}, {"rental_uris": {"android": "https://dc.lft.to/lastmile_qr_scan", "ios": "https://dc.lft.to/lastmile_qr_scan"}, "is_reserved": 0, "is_disabled": 0, "name": "d4cd6f804c80e0fa4679bbf4a68fb1b4", "bike_id": "d4cd6f804c80e0fa4679bbf4a68fb1b4", "fusion_lat": 0.0, "lon": -77.053961, "type": "electric_scooter", "fusion_lon": 0.0, "lat": 38.90149316666667}, {"rental_uris": {"android": "https://dc.lft.to/lastmile_qr_scan", "ios": "https://dc.lft.to/lastmile_qr_scan"}, "is_reserved": 0, "is_disabled": 0, "name": "ba685cfd0c09e40200c0f95b146e4bbd", "bike_id": "ba685cfd0c09e40200c0f95b146e4bbd", "fusion_lat": 0.0, "lon": -77.04515233333333, "type": "electric_scooter", "fusion_lon": 0.0, "lat": 38.91285383333334}, {"rental_uris": {"android": "https://dc.lft.to/lastmile_qr_scan", "ios": "https://dc.lft.to/lastmile_qr_scan"}, "is_reserved": 0, "is_disabled": 0, "name": "75c0191f69e6ebb20c14faf02fd2719f", "bike_id": "75c0191f69e6ebb20c14faf02fd2719f", "fusion_lat": 0.0, "lon": -77.00531916666667, "type": "electric_scooter", "fusion_lon": 0.0, "lat": 38.874679}, {"rental_uris": {"android": "https://dc.lft.to/lastmile_qr_scan", "ios": "https://dc.lft.to/lastmile_qr_scan"}, "is_reserved": 0, "is_disabled": 0, "name": "d3d133d2b9c984537e0c17e013e8418f", "bike_id": "d3d133d2b9c984537e0c17e013e8418f", "fusion_lat": 0.0, "lon": -77.03395466666667, "type": "electric_scooter", "fusion_lon": 0.0, "lat": 38.938561666666665}, {"rental_uris": {"android": "https://dc.lft.to/lastmile_qr_scan", "ios": "https://dc.lft.to/lastmile_qr_scan"}, "is_reserved": 0, "is_disabled": 0, "name": "176e9d887c1b0c6e1948844c43ee240f", "bike_id": "176e9d887c1b0c6e1948844c43ee240f", "fusion_lat": 0.0, "lon": -76.9075255, "type": "electric_bike", "fusion_lon": 0.0, "lat": 38.896216}, {"rental_uris": {"android": "https://dc.lft.to/lastmile_qr_scan", "ios": "https://dc.lft.to/lastmile_qr_scan"}, "is_reserved": 0, "is_disabled": 0, "name": "10adda93b4773e56547d4c4dc81bff0e", "bike_id": "10adda93b4773e56547d4c4dc81bff0e", "fusion_lat": 0.0, "lon": -77.04881166666667, "type": "electric_scooter", "fusion_lon": 0.0, "lat": 38.893213833333334}, {"rental_uris": {"android": "https://dc.lft.to/lastmile_qr_scan", "ios": "https://dc.lft.to/lastmile_qr_scan"}, "is_reserved": 0, "is_disabled": 0, "name": "ef15ff301af56a6e0d258fbaad181abf", "bike_id": "ef15ff301af56a6e0d258fbaad181abf", "fusion_lat": 0.0, "lon": -77.027656, "type": "electric_scooter", "fusion_lon": 0.0, "lat": 38.95420883333333}, {"rental_uris": {"android": "https://dc.lft.to/lastmile_qr_scan", "ios": "https://dc.lft.to/lastmile_qr_scan"}, "is_reserved": 0, "is_disabled": 0, "name": "1130eef7e00e7bb88faffd46aa7a448a", "bike_id": "1130eef7e00e7bb88faffd46aa7a448a", "fusion_lat": 0.0, "lon": -77.0281855, "type": "electric_scooter", "fusion_lon": 0.0, "lat": 38.9143015}, {"rental_uris": {"android": "https://dc.lft.to/lastmile_qr_scan", "ios": "https://dc.lft.to/lastmile_qr_scan"}, "is_reserved": 0, "is_disabled": 0, "name": "e148147ed44f32cae2d1e6605dbbef17", "bike_id": "e148147ed44f32cae2d1e6605dbbef17", "fusion_lat": 0.0, "lon": -77.02294, "type": "electric_scooter", "fusion_lon": 0.0, "lat": 38.917721666666665}, {"rental_uris": {"android": "https://dc.lft.to/lastmile_qr_scan", "ios": "https://dc.lft.to/lastmile_qr_scan"}, "is_reserved": 0, "is_disabled": 0, "name": "eb3a9268944079cb476130e3d86a711b", "bike_id": "eb3a9268944079cb476130e3d86a711b", "fusion_lat": 0.0, "lon": -76.92591383333334, "type": "electric_scooter", "fusion_lon": 0.0, "lat": 38.8972435}, {"rental_uris": {"android": "https://dc.lft.to/lastmile_qr_scan", "ios": "https://dc.lft.to/lastmile_qr_scan"}, "is_reserved": 0, "is_disabled": 0, "name": "77e88b3b421ccc6d657b0cac18e1b60b", "bike_id": "77e88b3b421ccc6d657b0cac18e1b60b", "fusion_lat": 0.0, "lon": -77.0289225, "type": "electric_scooter", "fusion_lon": 0.0, "lat": 38.92678733333333}, {"rental_uris": {"android": "https://dc.lft.to/lastmile_qr_scan", "ios": "https://dc.lft.to/lastmile_qr_scan"}, "is_reserved": 0, "is_disabled": 0, "name": "c6ddf604a66958319c3069602e7f0a27", "bike_id": "c6ddf604a66958319c3069602e7f0a27", "fusion_lat": 0.0, "lon": -77.03543416666666, "type": "electric_scooter", "fusion_lon": 0.0, "lat": 38.924687}, {"rental_uris": {"android": "https://dc.lft.to/lastmile_qr_scan", "ios": "https://dc.lft.to/lastmile_qr_scan"}, "is_reserved": 0, "is_disabled": 0, "name": "c113b31439920afa12e8d367eec8fbc7", "bike_id": "c113b31439920afa12e8d367eec8fbc7", "fusion_lat": 0.0, "lon": -77.025325, "type": "electric_scooter", "fusion_lon": 0.0, "lat": 38.883259333333335}, {"rental_uris": {"android": "https://dc.lft.to/lastmile_qr_scan", "ios": "https://dc.lft.to/lastmile_qr_scan"}, "is_reserved": 0, "is_disabled": 0, "name": "f685484ab2648d6111fb16680fc3cdcc", "bike_id": "f685484ab2648d6111fb16680fc3cdcc", "fusion_lat": 0.0, "lon": -77.0400955, "type": "electric_scooter", "fusion_lon": 0.0, "lat": 38.92432633333333}, {"rental_uris": {"android": "https://dc.lft.to/lastmile_qr_scan", "ios": "https://dc.lft.to/lastmile_qr_scan"}, "is_reserved": 0, "is_disabled": 0, "name": "092cef51ff813ca41fffcf86b8ce543f", "bike_id": "092cef51ff813ca41fffcf86b8ce543f", "fusion_lat": 0.0, "lon": -76.986372, "type": "electric_scooter", "fusion_lon": 0.0, "lat": 38.8551175}, {"rental_uris": {"android": "https://dc.lft.to/lastmile_qr_scan", "ios": "https://dc.lft.to/lastmile_qr_scan"}, "is_reserved": 0, "is_disabled": 0, "name": "a0ebd44423d87503584f05c652b8d7c3", "bike_id": "a0ebd44423d87503584f05c652b8d7c3", "fusion_lat": 0.0, "lon": -77.043512, "type": "electric_scooter", "fusion_lon": 0.0, "lat": 38.897019666666665}, {"rental_uris": {"android": "https://dc.lft.to/lastmile_qr_scan", "ios": "https://dc.lft.to/lastmile_qr_scan"}, "is_reserved": 0, "is_disabled": 0, "name": "8a62dd584250b1d9156453bc2a6f5c71", "bike_id": "8a62dd584250b1d9156453bc2a6f5c71", "fusion_lat": 0.0, "lon": -77.03638516666666, "type": "electric_scooter", "fusion_lon": 0.0, "lat": 38.916305}, {"rental_uris": {"android": "https://dc.lft.to/lastmile_qr_scan", "ios": "https://dc.lft.to/lastmile_qr_scan"}, "is_reserved": 0, "is_disabled": 0, "name": "0d13d1100e57e323493fa74b2733223f", "bike_id": "0d13d1100e57e323493fa74b2733223f", "fusion_lat": 0.0, "lon": -76.98579433333333, "type": "electric_scooter", "fusion_lon": 0.0, "lat": 38.900086}, {"rental_uris": {"android": "https://dc.lft.to/lastmile_qr_scan", "ios": "https://dc.lft.to/lastmile_qr_scan"}, "is_reserved": 0, "is_disabled": 0, "name": "131633eff0d019544f1b1aff83de5fad", "bike_id": "131633eff0d019544f1b1aff83de5fad", "fusion_lat": 0.0, "lon": -77.02411633333334, "type": "electric_scooter", "fusion_lon": 0.0, "lat": 38.9127005}, {"rental_uris": {"android": "https://dc.lft.to/lastmile_qr_scan", "ios": "https://dc.lft.to/lastmile_qr_scan"}, "is_reserved": 0, "is_disabled": 0, "name": "a387067f26cc8f82c7a0340a7928a05c", "bike_id": "a387067f26cc8f82c7a0340a7928a05c", "fusion_lat": 0.0, "lon": -77.01848, "type": "electric_scooter", "fusion_lon": 0.0, "lat": 38.909555833333336}, {"rental_uris": {"android": "https://dc.lft.to/lastmile_qr_scan", "ios": "https://dc.lft.to/lastmile_qr_scan"}, "is_reserved": 0, "is_disabled": 0, "name": "ae4e5f7696f69bdf78ccbe5246ea71c1", "bike_id": "ae4e5f7696f69bdf78ccbe5246ea71c1", "fusion_lat": 0.0, "lon": -77.02292666666666, "type": "electric_scooter", "fusion_lon": 0.0, "lat": 38.91780383333333}, {"rental_uris": {"android": "https://dc.lft.to/lastmile_qr_scan", "ios": "https://dc.lft.to/lastmile_qr_scan"}, "is_reserved": 0, "is_disabled": 0, "name": "e50f44b5b6f9715ce481477c7f930563", "bike_id": "e50f44b5b6f9715ce481477c7f930563", "fusion_lat": 0.0, "lon": -77.02001, "type": "electric_scooter", "fusion_lon": 0.0, "lat": 38.900585666666665}, {"rental_uris": {"android": "https://dc.lft.to/lastmile_qr_scan", "ios": "https://dc.lft.to/lastmile_qr_scan"}, "is_reserved": 0, "is_disabled": 0, "name": "fe21e33df24c51aa058c86c310c0101a", "bike_id": "fe21e33df24c51aa058c86c310c0101a", "fusion_lat": 0.0, "lon": -77.00922933333334, "type": "electric_scooter", "fusion_lon": 0.0, "lat": 38.91375433333333}, {"rental_uris": {"android": "https://dc.lft.to/lastmile_qr_scan", "ios": "https://dc.lft.to/lastmile_qr_scan"}, "is_reserved": 0, "is_disabled": 0, "name": "cfb27346ea177342f9b73232e78ed9cc", "bike_id": "cfb27346ea177342f9b73232e78ed9cc", "fusion_lat": 0.0, "lon": -77.02938416666667, "type": "electric_scooter", "fusion_lon": 0.0, "lat": 38.92061616666667}, {"rental_uris": {"android": "https://dc.lft.to/lastmile_qr_scan", "ios": "https://dc.lft.to/lastmile_qr_scan"}, "is_reserved": 0, "is_disabled": 0, "name": "1d11dd89d461a4b7f445509c57c66af7", "bike_id": "1d11dd89d461a4b7f445509c57c66af7", "fusion_lat": 0.0, "lon": -77.03667716666666, "type": "electric_scooter", "fusion_lon": 0.0, "lat": 38.922731666666664}, {"rental_uris": {"android": "https://dc.lft.to/lastmile_qr_scan", "ios": "https://dc.lft.to/lastmile_qr_scan"}, "is_reserved": 0, "is_disabled": 0, "name": "d18179ea776dc9c044e9c89f65984875", "bike_id": "d18179ea776dc9c044e9c89f65984875", "fusion_lat": 0.0, "lon": -77.02355016666667, "type": "electric_scooter", "fusion_lon": 0.0, "lat": 38.920641}, {"rental_uris": {"android": "https://dc.lft.to/lastmile_qr_scan", "ios": "https://dc.lft.to/lastmile_qr_scan"}, "is_reserved": 0, "is_disabled": 0, "name": "637f98b3b01fded90b5e29ec87f8c2a3", "bike_id": "637f98b3b01fded90b5e29ec87f8c2a3", "fusion_lat": 0.0, "lon": -77.03202283333333, "type": "electric_scooter", "fusion_lon": 0.0, "lat": 38.9073115}, {"rental_uris": {"android": "https://dc.lft.to/lastmile_qr_scan", "ios": "https://dc.lft.to/lastmile_qr_scan"}, "is_reserved": 0, "is_disabled": 0, "name": "bec8125c79b75859d468f230416065ba", "bike_id": "bec8125c79b75859d468f230416065ba", "fusion_lat": 0.0, "lon": -77.06865983333333, "type": "electric_scooter", "fusion_lon": 0.0, "lat": 38.9302}, {"rental_uris": {"android": "https://dc.lft.to/lastmile_qr_scan", "ios": "https://dc.lft.to/lastmile_qr_scan"}, "is_reserved": 0, "is_disabled": 0, "name": "1fc5ba667b47388bdacdfb042baba0bb", "bike_id": "1fc5ba667b47388bdacdfb042baba0bb", "fusion_lat": 0.0, "lon": -77.096219, "type": "electric_bike", "fusion_lon": 0.0, "lat": 38.9743885}, {"rental_uris": {"android": "https://dc.lft.to/lastmile_qr_scan", "ios": "https://dc.lft.to/lastmile_qr_scan"}, "is_reserved": 0, "is_disabled": 0, "name": "c7189d02e99ec1f87da33c0bb5497e4d", "bike_id": "c7189d02e99ec1f87da33c0bb5497e4d", "fusion_lat": 0.0, "lon": -77.00234233333333, "type": "electric_scooter", "fusion_lon": 0.0, "lat": 38.87475166666667}, {"rental_uris": {"android": "https://dc.lft.to/lastmile_qr_scan", "ios": "https://dc.lft.to/lastmile_qr_scan"}, "is_reserved": 0, "is_disabled": 0, "name": "6f93b4c42897c8cffcff8c7b06e79552", "bike_id": "6f93b4c42897c8cffcff8c7b06e79552", "fusion_lat": 0.0, "lon": -76.953511, "type": "electric_bike", "fusion_lon": 0.0, "lat": 38.941707666666666}, {"rental_uris": {"android": "https://dc.lft.to/lastmile_qr_scan", "ios": "https://dc.lft.to/lastmile_qr_scan"}, "is_reserved": 0, "is_disabled": 0, "name": "ad127c4a450092e759f50b5f5e6cb8bd", "bike_id": "ad127c4a450092e759f50b5f5e6cb8bd", "fusion_lat": 0.0, "lon": -77.02569533333333, "type": "electric_scooter", "fusion_lon": 0.0, "lat": 38.94197233333333}, {"rental_uris": {"android": "https://dc.lft.to/lastmile_qr_scan", "ios": "https://dc.lft.to/lastmile_qr_scan"}, "is_reserved": 0, "is_disabled": 0, "name": "2511e232a6e3c0a93d72bc62c85864bb", "bike_id": "2511e232a6e3c0a93d72bc62c85864bb", "fusion_lat": 0.0, "lon": -77.031714, "type": "electric_scooter", "fusion_lon": 0.0, "lat": 38.91566366666667}, {"rental_uris": {"android": "https://dc.lft.to/lastmile_qr_scan", "ios": "https://dc.lft.to/lastmile_qr_scan"}, "is_reserved": 0, "is_disabled": 0, "name": "ce971ba1d46d0aaaaad64c0b09471ed1", "bike_id": "ce971ba1d46d0aaaaad64c0b09471ed1", "fusion_lat": 0.0, "lon": -77.00961216666667, "type": "electric_scooter", "fusion_lon": 0.0, "lat": 38.87460566666667}, {"rental_uris": {"android": "https://dc.lft.to/lastmile_qr_scan", "ios": "https://dc.lft.to/lastmile_qr_scan"}, "is_reserved": 0, "is_disabled": 0, "name": "da2215351985f048944ce8cfdff1c06c", "bike_id": "da2215351985f048944ce8cfdff1c06c", "fusion_lat": 0.0, "lon": -77.04170716666667, "type": "electric_scooter", "fusion_lon": 0.0, "lat": 38.90738783333333}, {"rental_uris": {"android": "https://dc.lft.to/lastmile_qr_scan", "ios": "https://dc.lft.to/lastmile_qr_scan"}, "is_reserved": 0, "is_disabled": 0, "name": "c43b1d680dba72528b9fac9be03006a7", "bike_id": "c43b1d680dba72528b9fac9be03006a7", "fusion_lat": 0.0, "lon": -77.03239816666667, "type": "electric_scooter", "fusion_lon": 0.0, "lat": 38.915637833333335}, {"rental_uris": {"android": "https://dc.lft.to/lastmile_qr_scan", "ios": "https://dc.lft.to/lastmile_qr_scan"}, "is_reserved": 0, "is_disabled": 0, "name": "3f683ab58155411d1b599550c6648d3e", "bike_id": "3f683ab58155411d1b599550c6648d3e", "fusion_lat": 0.0, "lon": -77.025255, "type": "electric_scooter", "fusion_lon": 0.0, "lat": 38.90653116666667}, {"rental_uris": {"android": "https://dc.lft.to/lastmile_qr_scan", "ios": "https://dc.lft.to/lastmile_qr_scan"}, "is_reserved": 0, "is_disabled": 0, "name": "49a3e8e5c9384adc1765d728ee7a0ae7", "bike_id": "49a3e8e5c9384adc1765d728ee7a0ae7", "fusion_lat": 0.0, "lon": -77.02126066666666, "type": "electric_scooter", "fusion_lon": 0.0, "lat": 38.923702666666664}, {"rental_uris": {"android": "https://dc.lft.to/lastmile_qr_scan", "ios": "https://dc.lft.to/lastmile_qr_scan"}, "is_reserved": 0, "is_disabled": 0, "name": "da6574aac61ab83d88a8d8050cf0a442", "bike_id": "da6574aac61ab83d88a8d8050cf0a442", "fusion_lat": 0.0, "lon": -77.04687833333334, "type": "electric_scooter", "fusion_lon": 0.0, "lat": 38.899608}, {"rental_uris": {"android": "https://dc.lft.to/lastmile_qr_scan", "ios": "https://dc.lft.to/lastmile_qr_scan"}, "is_reserved": 0, "is_disabled": 0, "name": "a92c48d98612cef954ffa86768954d86", "bike_id": "a92c48d98612cef954ffa86768954d86", "fusion_lat": 0.0, "lon": -77.03444066666667, "type": "electric_scooter", "fusion_lon": 0.0, "lat": 38.908113666666665}, {"rental_uris": {"android": "https://dc.lft.to/lastmile_qr_scan", "ios": "https://dc.lft.to/lastmile_qr_scan"}, "is_reserved": 0, "is_disabled": 0, "name": "fbec7acba5f59556768736d47b969791", "bike_id": "fbec7acba5f59556768736d47b969791", "fusion_lat": 0.0, "lon": -77.0402895, "type": "electric_scooter", "fusion_lon": 0.0, "lat": 38.91813633333334}, {"rental_uris": {"android": "https://dc.lft.to/lastmile_qr_scan", "ios": "https://dc.lft.to/lastmile_qr_scan"}, "is_reserved": 0, "is_disabled": 0, "name": "a8afd7337fca276f99a2587cc60001f8", "bike_id": "a8afd7337fca276f99a2587cc60001f8", "fusion_lat": 0.0, "lon": -77.04259416666666, "type": "electric_scooter", "fusion_lon": 0.0, "lat": 38.90935616666667}, {"rental_uris": {"android": "https://dc.lft.to/lastmile_qr_scan", "ios": "https://dc.lft.to/lastmile_qr_scan"}, "is_reserved": 0, "is_disabled": 0, "name": "ee72948a5b585e12871f203eb42cbbd5", "bike_id": "ee72948a5b585e12871f203eb42cbbd5", "fusion_lat": 0.0, "lon": -77.03448966666667, "type": "electric_scooter", "fusion_lon": 0.0, "lat": 38.917996333333335}, {"rental_uris": {"android": "https://dc.lft.to/lastmile_qr_scan", "ios": "https://dc.lft.to/lastmile_qr_scan"}, "is_reserved": 0, "is_disabled": 0, "name": "fe15c0133aa0ef43a08382e1e07ebaf6", "bike_id": "fe15c0133aa0ef43a08382e1e07ebaf6", "fusion_lat": 0.0, "lon": -76.9944375, "type": "electric_scooter", "fusion_lon": 0.0, "lat": 38.827694}, {"rental_uris": {"android": "https://dc.lft.to/lastmile_qr_scan", "ios": "https://dc.lft.to/lastmile_qr_scan"}, "is_reserved": 0, "is_disabled": 0, "name": "b61a2eae1d9563488fcdd330e8b98b8d", "bike_id": "b61a2eae1d9563488fcdd330e8b98b8d", "fusion_lat": 0.0, "lon": -77.06917066666666, "type": "electric_scooter", "fusion_lon": 0.0, "lat": 38.91656116666667}, {"rental_uris": {"android": "https://dc.lft.to/lastmile_qr_scan", "ios": "https://dc.lft.to/lastmile_qr_scan"}, "is_reserved": 0, "is_disabled": 0, "name": "d1c8bd21854ac0e60e2c2adeddda6c10", "bike_id": "d1c8bd21854ac0e60e2c2adeddda6c10", "fusion_lat": 0.0, "lon": -77.018736, "type": "electric_scooter", "fusion_lon": 0.0, "lat": 38.929122666666665}, {"rental_uris": {"android": "https://dc.lft.to/lastmile_qr_scan", "ios": "https://dc.lft.to/lastmile_qr_scan"}, "is_reserved": 0, "is_disabled": 0, "name": "a08753bded8e0247d171821290207d3d", "bike_id": "a08753bded8e0247d171821290207d3d", "fusion_lat": 0.0, "lon": -77.04135766666667, "type": "electric_scooter", "fusion_lon": 0.0, "lat": 38.906094}, {"rental_uris": {"android": "https://dc.lft.to/lastmile_qr_scan", "ios": "https://dc.lft.to/lastmile_qr_scan"}, "is_reserved": 0, "is_disabled": 0, "name": "3b71eccc079f1453da4852e231ffe702", "bike_id": "3b71eccc079f1453da4852e231ffe702", "fusion_lat": 0.0, "lon": -76.995102, "type": "electric_scooter", "fusion_lon": 0.0, "lat": 38.88341166666667}, {"rental_uris": {"android": "https://dc.lft.to/lastmile_qr_scan", "ios": "https://dc.lft.to/lastmile_qr_scan"}, "is_reserved": 0, "is_disabled": 0, "name": "88cc4b959001700911413a2d70b18625", "bike_id": "88cc4b959001700911413a2d70b18625", "fusion_lat": 0.0, "lon": -77.03276683333333, "type": "electric_scooter", "fusion_lon": 0.0, "lat": 38.937407666666665}, {"rental_uris": {"android": "https://dc.lft.to/lastmile_qr_scan", "ios": "https://dc.lft.to/lastmile_qr_scan"}, "is_reserved": 0, "is_disabled": 0, "name": "15ad5de5d303ddb1f5b7461ab7583ce6", "bike_id": "15ad5de5d303ddb1f5b7461ab7583ce6", "fusion_lat": 0.0, "lon": -77.040119, "type": "electric_scooter", "fusion_lon": 0.0, "lat": 38.91002866666667}, {"rental_uris": {"android": "https://dc.lft.to/lastmile_qr_scan", "ios": "https://dc.lft.to/lastmile_qr_scan"}, "is_reserved": 0, "is_disabled": 0, "name": "7a2caef86a5ca58dc28df22eda49a515", "bike_id": "7a2caef86a5ca58dc28df22eda49a515", "fusion_lat": 0.0, "lon": -77.0138955, "type": "electric_scooter", "fusion_lon": 0.0, "lat": 38.87892216666667}, {"rental_uris": {"android": "https://dc.lft.to/lastmile_qr_scan", "ios": "https://dc.lft.to/lastmile_qr_scan"}, "is_reserved": 0, "is_disabled": 0, "name": "57089d9981d0befd55d5e386aa7dc7ab", "bike_id": "57089d9981d0befd55d5e386aa7dc7ab", "fusion_lat": 0.0, "lon": -76.9888655, "type": "electric_scooter", "fusion_lon": 0.0, "lat": 38.9021025}, {"rental_uris": {"android": "https://dc.lft.to/lastmile_qr_scan", "ios": "https://dc.lft.to/lastmile_qr_scan"}, "is_reserved": 0, "is_disabled": 0, "name": "238d50d39e8533de4775a74fc51ed0a1", "bike_id": "238d50d39e8533de4775a74fc51ed0a1", "fusion_lat": 0.0, "lon": -77.01648416666667, "type": "electric_scooter", "fusion_lon": 0.0, "lat": 38.88108783333333}, {"rental_uris": {"android": "https://dc.lft.to/lastmile_qr_scan", "ios": "https://dc.lft.to/lastmile_qr_scan"}, "is_reserved": 0, "is_disabled": 0, "name": "30d0154362691a6f2cd2241b748cc4d1", "bike_id": "30d0154362691a6f2cd2241b748cc4d1", "fusion_lat": 0.0, "lon": -77.020645, "type": "electric_bike", "fusion_lon": 0.0, "lat": 38.9284095}, {"rental_uris": {"android": "https://dc.lft.to/lastmile_qr_scan", "ios": "https://dc.lft.to/lastmile_qr_scan"}, "is_reserved": 0, "is_disabled": 0, "name": "97c8d502425962fc367c0e02b10e5dc9", "bike_id": "97c8d502425962fc367c0e02b10e5dc9", "fusion_lat": 0.0, "lon": -77.02285166666667, "type": "electric_scooter", "fusion_lon": 0.0, "lat": 38.91780966666666}, {"rental_uris": {"android": "https://dc.lft.to/lastmile_qr_scan", "ios": "https://dc.lft.to/lastmile_qr_scan"}, "is_reserved": 0, "is_disabled": 0, "name": "d80bbfaa535942a8843663be19b5d879", "bike_id": "d80bbfaa535942a8843663be19b5d879", "fusion_lat": 0.0, "lon": -77.02803016666667, "type": "electric_scooter", "fusion_lon": 0.0, "lat": 38.92321}, {"rental_uris": {"android": "https://dc.lft.to/lastmile_qr_scan", "ios": "https://dc.lft.to/lastmile_qr_scan"}, "is_reserved": 0, "is_disabled": 0, "name": "7fdca2e5cfda6c3bb0ccdd5b6c77d09b", "bike_id": "7fdca2e5cfda6c3bb0ccdd5b6c77d09b", "fusion_lat": 0.0, "lon": -77.039549, "type": "electric_scooter", "fusion_lon": 0.0, "lat": 38.9002905}, {"rental_uris": {"android": "https://dc.lft.to/lastmile_qr_scan", "ios": "https://dc.lft.to/lastmile_qr_scan"}, "is_reserved": 0, "is_disabled": 0, "name": "038888cfcf6e98b89e0b702a091200b6", "bike_id": "038888cfcf6e98b89e0b702a091200b6", "fusion_lat": 0.0, "lon": -76.9952, "type": "electric_scooter", "fusion_lon": 0.0, "lat": 38.8837205}, {"rental_uris": {"android": "https://dc.lft.to/lastmile_qr_scan", "ios": "https://dc.lft.to/lastmile_qr_scan"}, "is_reserved": 0, "is_disabled": 0, "name": "c40f0beab03abfa77f98ffd3a26c476d", "bike_id": "c40f0beab03abfa77f98ffd3a26c476d", "fusion_lat": 0.0, "lon": -76.98618, "type": "electric_scooter", "fusion_lon": 0.0, "lat": 38.938226666666665}, {"rental_uris": {"android": "https://dc.lft.to/lastmile_qr_scan", "ios": "https://dc.lft.to/lastmile_qr_scan"}, "is_reserved": 0, "is_disabled": 0, "name": "37954fd85bb71f5d980ba0707cf2af2a", "bike_id": "37954fd85bb71f5d980ba0707cf2af2a", "fusion_lat": 0.0, "lon": -76.987186, "type": "electric_bike", "fusion_lon": 0.0, "lat": 38.86331033333333}, {"rental_uris": {"android": "https://dc.lft.to/lastmile_qr_scan", "ios": "https://dc.lft.to/lastmile_qr_scan"}, "is_reserved": 0, "is_disabled": 0, "name": "c839ec149304e91cd5d993d7a332b71b", "bike_id": "c839ec149304e91cd5d993d7a332b71b", "fusion_lat": 0.0, "lon": -77.028263, "type": "electric_scooter", "fusion_lon": 0.0, "lat": 38.89526983333333}, {"rental_uris": {"android": "https://dc.lft.to/lastmile_qr_scan", "ios": "https://dc.lft.to/lastmile_qr_scan"}, "is_reserved": 0, "is_disabled": 0, "name": "946e29abf653d24fa241958c1d60763c", "bike_id": "946e29abf653d24fa241958c1d60763c", "fusion_lat": 0.0, "lon": -77.095198, "type": "electric_bike", "fusion_lon": 0.0, "lat": 38.83809866666667}, {"rental_uris": {"android": "https://dc.lft.to/lastmile_qr_scan", "ios": "https://dc.lft.to/lastmile_qr_scan"}, "is_reserved": 0, "is_disabled": 0, "name": "b6ff76619fd106c1050b98f6b64337bc", "bike_id": "b6ff76619fd106c1050b98f6b64337bc", "fusion_lat": 0.0, "lon": -76.94384716666667, "type": "electric_scooter", "fusion_lon": 0.0, "lat": 38.891164833333335}, {"rental_uris": {"android": "https://dc.lft.to/lastmile_qr_scan", "ios": "https://dc.lft.to/lastmile_qr_scan"}, "is_reserved": 0, "is_disabled": 0, "name": "c80b7e97f3ed8b969b79208e5d06e1ad", "bike_id": "c80b7e97f3ed8b969b79208e5d06e1ad", "fusion_lat": 0.0, "lon": -77.02543533333333, "type": "electric_scooter", "fusion_lon": 0.0, "lat": 38.924051}, {"rental_uris": {"android": "https://dc.lft.to/lastmile_qr_scan", "ios": "https://dc.lft.to/lastmile_qr_scan"}, "is_reserved": 0, "is_disabled": 0, "name": "c4cd92b221e7c68e86b594bab3e062ac", "bike_id": "c4cd92b221e7c68e86b594bab3e062ac", "fusion_lat": 0.0, "lon": -77.05411966666667, "type": "electric_scooter", "fusion_lon": 0.0, "lat": 38.900715}, {"rental_uris": {"android": "https://dc.lft.to/lastmile_qr_scan", "ios": "https://dc.lft.to/lastmile_qr_scan"}, "is_reserved": 0, "is_disabled": 0, "name": "2fac12dc310080c8a2c3b0ba469c5929", "bike_id": "2fac12dc310080c8a2c3b0ba469c5929", "fusion_lat": 0.0, "lon": -77.06102366666667, "type": "electric_scooter", "fusion_lon": 0.0, "lat": 38.90526716666667}, {"rental_uris": {"android": "https://dc.lft.to/lastmile_qr_scan", "ios": "https://dc.lft.to/lastmile_qr_scan"}, "is_reserved": 0, "is_disabled": 0, "name": "ba8060ee66734238e2b4afabc1103f01", "bike_id": "ba8060ee66734238e2b4afabc1103f01", "fusion_lat": 0.0, "lon": -76.93008016666667, "type": "electric_scooter", "fusion_lon": 0.0, "lat": 38.907159}, {"rental_uris": {"android": "https://dc.lft.to/lastmile_qr_scan", "ios": "https://dc.lft.to/lastmile_qr_scan"}, "is_reserved": 0, "is_disabled": 0, "name": "e7254dfe1a7f7addd4627eed7a18edd2", "bike_id": "e7254dfe1a7f7addd4627eed7a18edd2", "fusion_lat": 0.0, "lon": -77.0242605, "type": "electric_bike", "fusion_lon": 0.0, "lat": 38.93690183333333}, {"rental_uris": {"android": "https://dc.lft.to/lastmile_qr_scan", "ios": "https://dc.lft.to/lastmile_qr_scan"}, "is_reserved": 0, "is_disabled": 0, "name": "286af33ec929796b69da3e15a574e367", "bike_id": "286af33ec929796b69da3e15a574e367", "fusion_lat": 0.0, "lon": -76.9652735, "type": "electric_scooter", "fusion_lon": 0.0, "lat": 38.87629883333334}, {"rental_uris": {"android": "https://dc.lft.to/lastmile_qr_scan", "ios": "https://dc.lft.to/lastmile_qr_scan"}, "is_reserved": 0, "is_disabled": 0, "name": "da65ec138465b7acc4db888e9cc15b08", "bike_id": "da65ec138465b7acc4db888e9cc15b08", "fusion_lat": 0.0, "lon": -76.982372, "type": "electric_scooter", "fusion_lon": 0.0, "lat": 38.86892266666667}, {"rental_uris": {"android": "https://dc.lft.to/lastmile_qr_scan", "ios": "https://dc.lft.to/lastmile_qr_scan"}, "is_reserved": 0, "is_disabled": 0, "name": "ecbf9034361c60d052a18f793bcd87df", "bike_id": "ecbf9034361c60d052a18f793bcd87df", "fusion_lat": 0.0, "lon": -77.04858633333333, "type": "electric_scooter", "fusion_lon": 0.0, "lat": 38.89953966666667}, {"rental_uris": {"android": "https://dc.lft.to/lastmile_qr_scan", "ios": "https://dc.lft.to/lastmile_qr_scan"}, "is_reserved": 0, "is_disabled": 0, "name": "d945fb58b9da842c27efe1b4cdc21b1b", "bike_id": "d945fb58b9da842c27efe1b4cdc21b1b", "fusion_lat": 0.0, "lon": -77.03857683333334, "type": "electric_scooter", "fusion_lon": 0.0, "lat": 38.91707183333333}, {"rental_uris": {"android": "https://dc.lft.to/lastmile_qr_scan", "ios": "https://dc.lft.to/lastmile_qr_scan"}, "is_reserved": 0, "is_disabled": 0, "name": "f130a50f4098be0b23a3306fe18aeba7", "bike_id": "f130a50f4098be0b23a3306fe18aeba7", "fusion_lat": 0.0, "lon": -76.99513183333333, "type": "electric_scooter", "fusion_lon": 0.0, "lat": 38.88790483333333}, {"rental_uris": {"android": "https://dc.lft.to/lastmile_qr_scan", "ios": "https://dc.lft.to/lastmile_qr_scan"}, "is_reserved": 0, "is_disabled": 0, "name": "f1212c7f1f417ec17ed84cafa4a31532", "bike_id": "f1212c7f1f417ec17ed84cafa4a31532", "fusion_lat": 0.0, "lon": -77.0569415, "type": "electric_scooter", "fusion_lon": 0.0, "lat": 38.906082}, {"rental_uris": {"android": "https://dc.lft.to/lastmile_qr_scan", "ios": "https://dc.lft.to/lastmile_qr_scan"}, "is_reserved": 0, "is_disabled": 0, "name": "1899a6c27ba2de98c15bcaa44e92163a", "bike_id": "1899a6c27ba2de98c15bcaa44e92163a", "fusion_lat": 0.0, "lon": -77.034102, "type": "electric_scooter", "fusion_lon": 0.0, "lat": 38.930928333333334}, {"rental_uris": {"android": "https://dc.lft.to/lastmile_qr_scan", "ios": "https://dc.lft.to/lastmile_qr_scan"}, "is_reserved": 0, "is_disabled": 0, "name": "ddcbb1a29ba4dbafaa0afe3d1b7f48e9", "bike_id": "ddcbb1a29ba4dbafaa0afe3d1b7f48e9", "fusion_lat": 0.0, "lon": -76.98988183333333, "type": "electric_scooter", "fusion_lon": 0.0, "lat": 38.864389333333335}, {"rental_uris": {"android": "https://dc.lft.to/lastmile_qr_scan", "ios": "https://dc.lft.to/lastmile_qr_scan"}, "is_reserved": 0, "is_disabled": 0, "name": "6f64aaf13b97065094c3891a98b080ba", "bike_id": "6f64aaf13b97065094c3891a98b080ba", "fusion_lat": 0.0, "lon": -77.01813633333333, "type": "electric_scooter", "fusion_lon": 0.0, "lat": 38.952276}, {"rental_uris": {"android": "https://dc.lft.to/lastmile_qr_scan", "ios": "https://dc.lft.to/lastmile_qr_scan"}, "is_reserved": 0, "is_disabled": 0, "name": "531d0609a0c48735f606cd0e06815d23", "bike_id": "531d0609a0c48735f606cd0e06815d23", "fusion_lat": 0.0, "lon": -77.04032283333333, "type": "electric_scooter", "fusion_lon": 0.0, "lat": 38.91805466666667}, {"rental_uris": {"android": "https://dc.lft.to/lastmile_qr_scan", "ios": "https://dc.lft.to/lastmile_qr_scan"}, "is_reserved": 0, "is_disabled": 0, "name": "4e9a57003de0b83dae87cf0cbd131c69", "bike_id": "4e9a57003de0b83dae87cf0cbd131c69", "fusion_lat": 0.0, "lon": -77.02968333333334, "type": "electric_scooter", "fusion_lon": 0.0, "lat": 38.89227416666667}, {"rental_uris": {"android": "https://dc.lft.to/lastmile_qr_scan", "ios": "https://dc.lft.to/lastmile_qr_scan"}, "is_reserved": 0, "is_disabled": 0, "name": "616cabca68a61b2e995bc35d1467f111", "bike_id": "616cabca68a61b2e995bc35d1467f111", "fusion_lat": 0.0, "lon": -77.026456, "type": "electric_scooter", "fusion_lon": 0.0, "lat": 38.930997166666664}, {"rental_uris": {"android": "https://dc.lft.to/lastmile_qr_scan", "ios": "https://dc.lft.to/lastmile_qr_scan"}, "is_reserved": 0, "is_disabled": 0, "name": "ff7887dce7d512b30d95a209bca3d708", "bike_id": "ff7887dce7d512b30d95a209bca3d708", "fusion_lat": 0.0, "lon": -77.02734166666667, "type": "electric_scooter", "fusion_lon": 0.0, "lat": 38.897741}, {"rental_uris": {"android": "https://dc.lft.to/lastmile_qr_scan", "ios": "https://dc.lft.to/lastmile_qr_scan"}, "is_reserved": 0, "is_disabled": 0, "name": "b85c2653f25f7a7e31e9137fbe0b594b", "bike_id": "b85c2653f25f7a7e31e9137fbe0b594b", "fusion_lat": 0.0, "lon": -77.010264, "type": "electric_bike", "fusion_lon": 0.0, "lat": 38.9559535}, {"rental_uris": {"android": "https://dc.lft.to/lastmile_qr_scan", "ios": "https://dc.lft.to/lastmile_qr_scan"}, "is_reserved": 0, "is_disabled": 0, "name": "326665292ec37fa6bfe855b5881f6d2d", "bike_id": "326665292ec37fa6bfe855b5881f6d2d", "fusion_lat": 0.0, "lon": -77.01290533333334, "type": "electric_scooter", "fusion_lon": 0.0, "lat": 38.89847233333333}, {"rental_uris": {"android": "https://dc.lft.to/lastmile_qr_scan", "ios": "https://dc.lft.to/lastmile_qr_scan"},