{"data": {"bikes": [{"name": "60b7e75b91784e6525e176f5fdc8e8ab", "fusion_lat": 0.0, "type": "electric_scooter", "lat": 38.88348533333333, "is_reserved": 0, "is_disabled": 0, "fusion_lon": 0.0, "bike_id": "60b7e75b91784e6525e176f5fdc8e8ab", "lon": -76.98554083333333, "rental_uris": {"ios": "https://dc.lft.to/lastmile_qr_scan", "android": "https://dc.lft.to/lastmile_qr_scan"}}, {"name": "436b50aaee14d90c587760b13c539058", "fusion_lat": 0.0, "type": "electric_scooter", "lat": 38.90384066666667, "is_reserved": 0, "is_disabled": 0, "fusion_lon": 0.0, "bike_id": "436b50aaee14d90c587760b13c539058", "lon": -77.04520233333334, "rental_uris": {"ios": "https://dc.lft.to/lastmile_qr_scan", "android": "https://dc.lft.to/lastmile_qr_scan"}}, {"name": "f850d871f2b2f237ad3f30e1cadf02a1", "fusion_lat": 0.0, "type": "electric_scooter", "lat": 38.924902, "is_reserved": 0, "is_disabled": 0, "fusion_lon": 0.0, "bike_id": "f850d871f2b2f237ad3f30e1cadf02a1", "lon": -77.026223, "rental_uris": {"ios": "https://dc.lft.to/lastmile_qr_scan", "android": "https://dc.lft.to/lastmile_qr_scan"}}, {"name": "a46f48a384ad40fc53f43180acf7fb05", "fusion_lat": 0.0, "type": "electric_scooter", "lat": 38.917064833333335, "is_reserved": 0, "is_disabled": 0, "fusion_lon": 0.0, "bike_id": "a46f48a384ad40fc53f43180acf7fb05", "lon": -77.0467745, "rental_uris": {"ios": "https://dc.lft.to/lastmile_qr_scan", "android": "https://dc.lft.to/lastmile_qr_scan"}}, {"name": "e944da47cddcf4e17d4b44185a7dad99", "fusion_lat": 0.0, "type": "electric_bike", "lat": 38.9367265, "is_reserved": 0, "is_disabled": 0, "fusion_lon": 0.0, "bike_id": "e944da47cddcf4e17d4b44185a7dad99", "lon": -76.95206866666666, "rental_uris": {"ios": "https://dc.lft.to/lastmile_qr_scan", "android": "https://dc.lft.to/lastmile_qr_scan"}}, {"name": "a74ec51cd12dd3c10069d4845b0fe2a0", "fusion_lat": 0.0, "type": "electric_scooter", "lat": 38.90111133333333, "is_reserved": 0, "is_disabled": 0, "fusion_lon": 0.0, "bike_id": "a74ec51cd12dd3c10069d4845b0fe2a0", "lon": -77.030487, "rental_uris": {"ios": "https://dc.lft.to/lastmile_qr_scan", "android": "https://dc.lft.to/lastmile_qr_scan"}}, {"name": "3a3e0a8593d67757afce0b07108fa90a", "fusion_lat": 0.0, "type": "electric_scooter", "lat": 38.9073565, "is_reserved": 0, "is_disabled": 0, "fusion_lon": 0.0, "bike_id": "3a3e0a8593d67757afce0b07108fa90a", "lon": -77.023201, "rental_uris": {"ios": "https://dc.lft.to/lastmile_qr_scan", "android": "https://dc.lft.to/lastmile_qr_scan"}}, {"name": "6e940a820e93de57016bd8105e7c5422", "fusion_lat": 0.0, "type": "electric_scooter", "lat": 38.925915, "is_reserved": 0, "is_disabled": 0, "fusion_lon": 0.0, "bike_id": "6e940a820e93de57016bd8105e7c5422", "lon": -77.02958616666666, "rental_uris": {"ios": "https://dc.lft.to/lastmile_qr_scan", "android": "https://dc.lft.to/lastmile_qr_scan"}}, {"name": "3e690c4ebb5765dc805efc90adf8a8ee", "fusion_lat": 0.0, "type": "electric_scooter", "lat": 38.899382333333335, "is_reserved": 0, "is_disabled": 0, "fusion_lon": 0.0, "bike_id": "3e690c4ebb5765dc805efc90adf8a8ee", "lon": -77.0313685, "rental_uris": {"ios": "https://dc.lft.to/lastmile_qr_scan", "android": "https://dc.lft.to/lastmile_qr_scan"}}, {"name": "fb401af713fcb6735a59b88b219b27c2", "fusion_lat": 0.0, "type": "electric_scooter", "lat": 38.9110895, "is_reserved": 0, "is_disabled": 0, "fusion_lon": 0.0, "bike_id": "fb401af713fcb6735a59b88b219b27c2", "lon": -77.03918083333333, "rental_uris": {"ios": "https://dc.lft.to/lastmile_qr_scan", "android": "https://dc.lft.to/lastmile_qr_scan"}}, {"name": "f6278760203d73ba053dc72216ed8bd8", "fusion_lat": 0.0, "type": "electric_scooter", "lat": 38.9027205, "is_reserved": 0, "is_disabled": 0, "fusion_lon": 0.0, "bike_id": "f6278760203d73ba053dc72216ed8bd8", "lon": -77.03147583333333, "rental_uris": {"ios": "https://dc.lft.to/lastmile_qr_scan", "android": "https://dc.lft.to/lastmile_qr_scan"}}, {"name": "ecbd0e7c8641c645b9064c65a3bf307d", "fusion_lat": 0.0, "type": "electric_bike", "lat": 38.86908916666667, "is_reserved": 0, "is_disabled": 0, "fusion_lon": 0.0, "bike_id": "ecbd0e7c8641c645b9064c65a3bf307d", "lon": -77.1318375, "rental_uris": {"ios": "https://dc.lft.to/lastmile_qr_scan", "android": "https://dc.lft.to/lastmile_qr_scan"}}, {"name": "6af7963617fea7bf71318d47339c0265", "fusion_lat": 0.0, "type": "electric_scooter", "lat": 38.90644566666667, "is_reserved": 0, "is_disabled": 0, "fusion_lon": 0.0, "bike_id": "6af7963617fea7bf71318d47339c0265", "lon": -76.98578333333333, "rental_uris": {"ios": "https://dc.lft.to/lastmile_qr_scan", "android": "https://dc.lft.to/lastmile_qr_scan"}}, {"name": "2b10d28cbaaf35c958582ea0e380bab6", "fusion_lat": 0.0, "type": "electric_scooter", "lat": 38.89221033333333, "is_reserved": 0, "is_disabled": 0, "fusion_lon": 0.0, "bike_id": "2b10d28cbaaf35c958582ea0e380bab6", "lon": -77.01371933333333, "rental_uris": {"ios": "https://dc.lft.to/lastmile_qr_scan", "android": "https://dc.lft.to/lastmile_qr_scan"}}, {"name": "17290b29f5d4e76fad9cc16b208dc107", "fusion_lat": 0.0, "type": "electric_scooter", "lat": 38.900526, "is_reserved": 0, "is_disabled": 0, "fusion_lon": 0.0, "bike_id": "17290b29f5d4e76fad9cc16b208dc107", "lon": -77.01662966666666, "rental_uris": {"ios": "https://dc.lft.to/lastmile_qr_scan", "android": "https://dc.lft.to/lastmile_qr_scan"}}, {"name": "d6a9ddd49dc18a9aa01f9fc1013f3873", "fusion_lat": 0.0, "type": "electric_scooter", "lat": 38.9009005, "is_reserved": 0, "is_disabled": 0, "fusion_lon": 0.0, "bike_id": "d6a9ddd49dc18a9aa01f9fc1013f3873", "lon": -77.0219785, "rental_uris": {"ios": "https://dc.lft.to/lastmile_qr_scan", "android": "https://dc.lft.to/lastmile_qr_scan"}}, {"name": "505e3851769b40a1f2ad8a0182dc70d2", "fusion_lat": 0.0, "type": "electric_scooter", "lat": 38.91252266666667, "is_reserved": 0, "is_disabled": 0, "fusion_lon": 0.0, "bike_id": "505e3851769b40a1f2ad8a0182dc70d2", "lon": -77.03657866666667, "rental_uris": {"ios": "https://dc.lft.to/lastmile_qr_scan", "android": "https://dc.lft.to/lastmile_qr_scan"}}, {"name": "623f55710a86d0bfa56975ec28a4542d", "fusion_lat": 0.0, "type": "electric_scooter", "lat": 38.84427983333333, "is_reserved": 0, "is_disabled": 0, "fusion_lon": 0.0, "bike_id": "623f55710a86d0bfa56975ec28a4542d", "lon": -76.997817, "rental_uris": {"ios": "https://dc.lft.to/lastmile_qr_scan", "android": "https://dc.lft.to/lastmile_qr_scan"}}, {"name": "77edddf284d2ae3294ff0e20aa026823", "fusion_lat": 0.0, "type": "electric_scooter", "lat": 38.89372866666667, "is_reserved": 0, "is_disabled": 0, "fusion_lon": 0.0, "bike_id": "77edddf284d2ae3294ff0e20aa026823", "lon": -76.94996683333333, "rental_uris": {"ios": "https://dc.lft.to/lastmile_qr_scan", "android": "https://dc.lft.to/lastmile_qr_scan"}}, {"name": "2858d17bc5c932be929c910f1e96d2c6", "fusion_lat": 0.0, "type": "electric_scooter", "lat": 38.92622433333333, "is_reserved": 0, "is_disabled": 0, "fusion_lon": 0.0, "bike_id": "2858d17bc5c932be929c910f1e96d2c6", "lon": -77.005749, "rental_uris": {"ios": "https://dc.lft.to/lastmile_qr_scan", "android": "https://dc.lft.to/lastmile_qr_scan"}}, {"name": "e2b0a4ce62d5334d843507bf092580eb", "fusion_lat": 0.0, "type": "electric_scooter", "lat": 38.925145, "is_reserved": 0, "is_disabled": 0, "fusion_lon": 0.0, "bike_id": "e2b0a4ce62d5334d843507bf092580eb", "lon": -77.02355916666667, "rental_uris": {"ios": "https://dc.lft.to/lastmile_qr_scan", "android": "https://dc.lft.to/lastmile_qr_scan"}}, {"name": "8c5c52c1fb11750f0ad412ab7b704902", "fusion_lat": 0.0, "type": "electric_scooter", "lat": 38.89596683333333, "is_reserved": 0, "is_disabled": 0, "fusion_lon": 0.0, "bike_id": "8c5c52c1fb11750f0ad412ab7b704902", "lon": -77.0281635, "rental_uris": {"ios": "https://dc.lft.to/lastmile_qr_scan", "android": "https://dc.lft.to/lastmile_qr_scan"}}, {"name": "a9209738c4127ed3b7b249e1c2d0d478", "fusion_lat": 0.0, "type": "electric_scooter", "lat": 38.884317, "is_reserved": 0, "is_disabled": 0, "fusion_lon": 0.0, "bike_id": "a9209738c4127ed3b7b249e1c2d0d478", "lon": -76.99661366666666, "rental_uris": {"ios": "https://dc.lft.to/lastmile_qr_scan", "android": "https://dc.lft.to/lastmile_qr_scan"}}, {"name": "c119afe8085e1eb2803f38de53bd73e7", "fusion_lat": 0.0, "type": "electric_scooter", "lat": 38.94603733333334, "is_reserved": 0, "is_disabled": 0, "fusion_lon": 0.0, "bike_id": "c119afe8085e1eb2803f38de53bd73e7", "lon": -77.02978283333333, "rental_uris": {"ios": "https://dc.lft.to/lastmile_qr_scan", "android": "https://dc.lft.to/lastmile_qr_scan"}}, {"name": "cf5dae4e2048a08f46db09fb405c8585", "fusion_lat": 0.0, "type": "electric_scooter", "lat": 38.900537, "is_reserved": 0, "is_disabled": 0, "fusion_lon": 0.0, "bike_id": "cf5dae4e2048a08f46db09fb405c8585", "lon": -77.00065316666667, "rental_uris": {"ios": "https://dc.lft.to/lastmile_qr_scan", "android": "https://dc.lft.to/lastmile_qr_scan"}}, {"name": "496cb73dad5961c67b9704414acc008d", "fusion_lat": 0.0, "type": "electric_scooter", "lat": 38.92571933333333, "is_reserved": 0, "is_disabled": 0, "fusion_lon": 0.0, "bike_id": "496cb73dad5961c67b9704414acc008d", "lon": -77.0437475, "rental_uris": {"ios": "https://dc.lft.to/lastmile_qr_scan", "android": "https://dc.lft.to/lastmile_qr_scan"}}, {"name": "3212751708d41ca86cef666d0cdcd037", "fusion_lat": 0.0, "type": "electric_scooter", "lat": 38.90391133333333, "is_reserved": 0, "is_disabled": 0, "fusion_lon": 0.0, "bike_id": "3212751708d41ca86cef666d0cdcd037", "lon": -77.038722, "rental_uris": {"ios": "https://dc.lft.to/lastmile_qr_scan", "android": "https://dc.lft.to/lastmile_qr_scan"}}, {"name": "d386b3684b0c9c3bd6a3d568bf50be29", "fusion_lat": 0.0, "type": "electric_scooter", "lat": 38.916047166666665, "is_reserved": 0, "is_disabled": 0, "fusion_lon": 0.0, "bike_id": "d386b3684b0c9c3bd6a3d568bf50be29", "lon": -77.04163933333334, "rental_uris": {"ios": "https://dc.lft.to/lastmile_qr_scan", "android": "https://dc.lft.to/lastmile_qr_scan"}}, {"name": "3a34b56f8ca77243e88d94f91d0e4cb7", "fusion_lat": 0.0, "type": "electric_scooter", "lat": 38.923637666666664, "is_reserved": 0, "is_disabled": 0, "fusion_lon": 0.0, "bike_id": "3a34b56f8ca77243e88d94f91d0e4cb7", "lon": -77.0508425, "rental_uris": {"ios": "https://dc.lft.to/lastmile_qr_scan", "android": "https://dc.lft.to/lastmile_qr_scan"}}, {"name": "02bf379f5e05d7b8031a307a2505fe9d", "fusion_lat": 0.0, "type": "electric_scooter", "lat": 38.883553, "is_reserved": 0, "is_disabled": 0, "fusion_lon": 0.0, "bike_id": "02bf379f5e05d7b8031a307a2505fe9d", "lon": -76.9961655, "rental_uris": {"ios": "https://dc.lft.to/lastmile_qr_scan", "android": "https://dc.lft.to/lastmile_qr_scan"}}, {"name": "91c0fbb92531259160b5da557db4fe12", "fusion_lat": 0.0, "type": "electric_scooter", "lat": 38.9360715, "is_reserved": 0, "is_disabled": 0, "fusion_lon": 0.0, "bike_id": "91c0fbb92531259160b5da557db4fe12", "lon": -77.05864516666666, "rental_uris": {"ios": "https://dc.lft.to/lastmile_qr_scan", "android": "https://dc.lft.to/lastmile_qr_scan"}}, {"name": "d95a5f4540e9a277e76d6bb38074feaf", "fusion_lat": 0.0, "type": "electric_scooter", "lat": 38.900561, "is_reserved": 0, "is_disabled": 0, "fusion_lon": 0.0, "bike_id": "d95a5f4540e9a277e76d6bb38074feaf", "lon": -77.00744316666666, "rental_uris": {"ios": "https://dc.lft.to/lastmile_qr_scan", "android": "https://dc.lft.to/lastmile_qr_scan"}}, {"name": "e22b9f9d12124c5785603dbd48db84a8", "fusion_lat": 0.0, "type": "electric_scooter", "lat": 38.923356166666665, "is_reserved": 0, "is_disabled": 0, "fusion_lon": 0.0, "bike_id": "e22b9f9d12124c5785603dbd48db84a8", "lon": -77.04177033333333, "rental_uris": {"ios": "https://dc.lft.to/lastmile_qr_scan", "android": "https://dc.lft.to/lastmile_qr_scan"}}, {"name": "8d7057aeaa979480f63f30068f8364a8", "fusion_lat": 0.0, "type": "electric_scooter", "lat": 38.903455666666666, "is_reserved": 0, "is_disabled": 0, "fusion_lon": 0.0, "bike_id": "8d7057aeaa979480f63f30068f8364a8", "lon": -77.053126, "rental_uris": {"ios": "https://dc.lft.to/lastmile_qr_scan", "android": "https://dc.lft.to/lastmile_qr_scan"}}, {"name": "a2a7c9bebfb86502e2078cb9fe2e220a", "fusion_lat": 0.0, "type": "electric_scooter", "lat": 38.90642616666667, "is_reserved": 0, "is_disabled": 0, "fusion_lon": 0.0, "bike_id": "a2a7c9bebfb86502e2078cb9fe2e220a", "lon": -77.0386715, "rental_uris": {"ios": "https://dc.lft.to/lastmile_qr_scan", "android": "https://dc.lft.to/lastmile_qr_scan"}}, {"name": "e1334454759fe5d01f2a9fada1542660", "fusion_lat": 0.0, "type": "electric_scooter", "lat": 38.887424833333334, "is_reserved": 0, "is_disabled": 0, "fusion_lon": 0.0, "bike_id": "e1334454759fe5d01f2a9fada1542660", "lon": -77.03212216666667, "rental_uris": {"ios": "https://dc.lft.to/lastmile_qr_scan", "android": "https://dc.lft.to/lastmile_qr_scan"}}, {"name": "553477003fc4ca64cffebbba02cd5e09", "fusion_lat": 0.0, "type": "electric_scooter", "lat": 38.92941033333334, "is_reserved": 0, "is_disabled": 0, "fusion_lon": 0.0, "bike_id": "553477003fc4ca64cffebbba02cd5e09", "lon": -77.03667316666667, "rental_uris": {"ios": "https://dc.lft.to/lastmile_qr_scan", "android": "https://dc.lft.to/lastmile_qr_scan"}}, {"name": "a759c697184590d0d136e193cdad883b", "fusion_lat": 0.0, "type": "electric_scooter", "lat": 38.90091416666667, "is_reserved": 0, "is_disabled": 0, "fusion_lon": 0.0, "bike_id": "a759c697184590d0d136e193cdad883b", "lon": -77.04194616666666, "rental_uris": {"ios": "https://dc.lft.to/lastmile_qr_scan", "android": "https://dc.lft.to/lastmile_qr_scan"}}, {"name": "5407dfbbe7624528a8e19baa22d176bb", "fusion_lat": 0.0, "type": "electric_scooter", "lat": 38.920437166666666, "is_reserved": 0, "is_disabled": 0, "fusion_lon": 0.0, "bike_id": "5407dfbbe7624528a8e19baa22d176bb", "lon": -77.07149583333333, "rental_uris": {"ios": "https://dc.lft.to/lastmile_qr_scan", "android": "https://dc.lft.to/lastmile_qr_scan"}}, {"name": "5f246b21de06291915aa8f17f46d2952", "fusion_lat": 0.0, "type": "electric_scooter", "lat": 38.917238833333336, "is_reserved": 0, "is_disabled": 0, "fusion_lon": 0.0, "bike_id": "5f246b21de06291915aa8f17f46d2952", "lon": -77.04173333333334, "rental_uris": {"ios": "https://dc.lft.to/lastmile_qr_scan", "android": "https://dc.lft.to/lastmile_qr_scan"}}, {"name": "70ed08baeb02fb23a70810b19057de9a", "fusion_lat": 0.0, "type": "electric_scooter", "lat": 38.92485666666666, "is_reserved": 0, "is_disabled": 0, "fusion_lon": 0.0, "bike_id": "70ed08baeb02fb23a70810b19057de9a", "lon": -77.05213266666667, "rental_uris": {"ios": "https://dc.lft.to/lastmile_qr_scan", "android": "https://dc.lft.to/lastmile_qr_scan"}}, {"name": "2ca1efe084f9409f09a2fafe6e581164", "fusion_lat": 0.0, "type": "electric_scooter", "lat": 38.959118833333335, "is_reserved": 0, "is_disabled": 0, "fusion_lon": 0.0, "bike_id": "2ca1efe084f9409f09a2fafe6e581164", "lon": -77.08079966666666, "rental_uris": {"ios": "https://dc.lft.to/lastmile_qr_scan", "android": "https://dc.lft.to/lastmile_qr_scan"}}, {"name": "540c853408411d04bebe6eec4bad8c73", "fusion_lat": 0.0, "type": "electric_scooter", "lat": 38.89534316666666, "is_reserved": 0, "is_disabled": 0, "fusion_lon": 0.0, "bike_id": "540c853408411d04bebe6eec4bad8c73", "lon": -77.032092, "rental_uris": {"ios": "https://dc.lft.to/lastmile_qr_scan", "android": "https://dc.lft.to/lastmile_qr_scan"}}, {"name": "7892909e5bddc5edc301ba52f4e81336", "fusion_lat": 0.0, "type": "electric_scooter", "lat": 38.956507, "is_reserved": 0, "is_disabled": 0, "fusion_lon": 0.0, "bike_id": "7892909e5bddc5edc301ba52f4e81336", "lon": -77.032878, "rental_uris": {"ios": "https://dc.lft.to/lastmile_qr_scan", "android": "https://dc.lft.to/lastmile_qr_scan"}}, {"name": "af13dcb88cd34f10a5b082664420b46b", "fusion_lat": 0.0, "type": "electric_scooter", "lat": 38.902861, "is_reserved": 0, "is_disabled": 0, "fusion_lon": 0.0, "bike_id": "af13dcb88cd34f10a5b082664420b46b", "lon": -77.0366755, "rental_uris": {"ios": "https://dc.lft.to/lastmile_qr_scan", "android": "https://dc.lft.to/lastmile_qr_scan"}}, {"name": "ce0a8ebbde7e3df227a66d383c9d2d93", "fusion_lat": 0.0, "type": "electric_scooter", "lat": 38.90272383333333, "is_reserved": 0, "is_disabled": 0, "fusion_lon": 0.0, "bike_id": "ce0a8ebbde7e3df227a66d383c9d2d93", "lon": -77.03852433333333, "rental_uris": {"ios": "https://dc.lft.to/lastmile_qr_scan", "android": "https://dc.lft.to/lastmile_qr_scan"}}, {"name": "551f4b769a1faee6fa7d46063c3aae8f", "fusion_lat": 0.0, "type": "electric_scooter", "lat": 38.85791566666666, "is_reserved": 0, "is_disabled": 0, "fusion_lon": 0.0, "bike_id": "551f4b769a1faee6fa7d46063c3aae8f", "lon": -76.99089883333333, "rental_uris": {"ios": "https://dc.lft.to/lastmile_qr_scan", "android": "https://dc.lft.to/lastmile_qr_scan"}}, {"name": "74b00e1d5a8ed726eda4345e4c8446ee", "fusion_lat": 0.0, "type": "electric_scooter", "lat": 38.91571866666666, "is_reserved": 0, "is_disabled": 0, "fusion_lon": 0.0, "bike_id": "74b00e1d5a8ed726eda4345e4c8446ee", "lon": -77.03189366666666, "rental_uris": {"ios": "https://dc.lft.to/lastmile_qr_scan", "android": "https://dc.lft.to/lastmile_qr_scan"}}, {"name": "3efa4f499287dcbb515f3ca94e614c5e", "fusion_lat": 0.0, "type": "electric_bike", "lat": 39.0038475, "is_reserved": 0, "is_disabled": 0, "fusion_lon": 0.0, "bike_id": "3efa4f499287dcbb515f3ca94e614c5e", "lon": -77.01295966666666, "rental_uris": {"ios": "https://dc.lft.to/lastmile_qr_scan", "android": "https://dc.lft.to/lastmile_qr_scan"}}, {"name": "38908c481c16e2fea91c8f52cd938f41", "fusion_lat": 0.0, "type": "electric_scooter", "lat": 38.9030235, "is_reserved": 0, "is_disabled": 0, "fusion_lon": 0.0, "bike_id": "38908c481c16e2fea91c8f52cd938f41", "lon": -77.02372866666667, "rental_uris": {"ios": "https://dc.lft.to/lastmile_qr_scan", "android": "https://dc.lft.to/lastmile_qr_scan"}}, {"name": "1ffc49b5685eff05718cc4c9d66b16fd", "fusion_lat": 0.0, "type": "electric_scooter", "lat": 38.894271, "is_reserved": 0, "is_disabled": 0, "fusion_lon": 0.0, "bike_id": "1ffc49b5685eff05718cc4c9d66b16fd", "lon": -76.93257266666667, "rental_uris": {"ios": "https://dc.lft.to/lastmile_qr_scan", "android": "https://dc.lft.to/lastmile_qr_scan"}}, {"name": "c739e97dcf518ef67df49b8b51b1a122", "fusion_lat": 0.0, "type": "electric_scooter", "lat": 38.933061, "is_reserved": 0, "is_disabled": 0, "fusion_lon": 0.0, "bike_id": "c739e97dcf518ef67df49b8b51b1a122", "lon": -77.03765666666666, "rental_uris": {"ios": "https://dc.lft.to/lastmile_qr_scan", "android": "https://dc.lft.to/lastmile_qr_scan"}}, {"name": "0729cadf58137122559ad7c1eac1deba", "fusion_lat": 0.0, "type": "electric_scooter", "lat": 38.93954466666667, "is_reserved": 0, "is_disabled": 0, "fusion_lon": 0.0, "bike_id": "0729cadf58137122559ad7c1eac1deba", "lon": -77.072455, "rental_uris": {"ios": "https://dc.lft.to/lastmile_qr_scan", "android": "https://dc.lft.to/lastmile_qr_scan"}}, {"name": "0e6ab3223c33f264264e4ac48089a5cd", "fusion_lat": 0.0, "type": "electric_scooter", "lat": 38.973993666666665, "is_reserved": 0, "is_disabled": 0, "fusion_lon": 0.0, "bike_id": "0e6ab3223c33f264264e4ac48089a5cd", "lon": -77.01813583333333, "rental_uris": {"ios": "https://dc.lft.to/lastmile_qr_scan", "android": "https://dc.lft.to/lastmile_qr_scan"}}, {"name": "bed553c9d5eb8cef6bb4cf540d369664", "fusion_lat": 0.0, "type": "electric_scooter", "lat": 38.936048666666665, "is_reserved": 0, "is_disabled": 0, "fusion_lon": 0.0, "bike_id": "bed553c9d5eb8cef6bb4cf540d369664", "lon": -77.05862333333333, "rental_uris": {"ios": "https://dc.lft.to/lastmile_qr_scan", "android": "https://dc.lft.to/lastmile_qr_scan"}}, {"name": "e89cbf82d0293b05f6e7007ea92571d9", "fusion_lat": 0.0, "type": "electric_scooter", "lat": 38.89621666666667, "is_reserved": 0, "is_disabled": 0, "fusion_lon": 0.0, "bike_id": "e89cbf82d0293b05f6e7007ea92571d9", "lon": -77.0446445, "rental_uris": {"ios": "https://dc.lft.to/lastmile_qr_scan", "android": "https://dc.lft.to/lastmile_qr_scan"}}, {"name": "901e5dae0e4180d5be8fa7d987cd1778", "fusion_lat": 0.0, "type": "electric_scooter", "lat": 38.896894833333334, "is_reserved": 0, "is_disabled": 0, "fusion_lon": 0.0, "bike_id": "901e5dae0e4180d5be8fa7d987cd1778", "lon": -77.004934, "rental_uris": {"ios": "https://dc.lft.to/lastmile_qr_scan", "android": "https://dc.lft.to/lastmile_qr_scan"}}, {"name": "3a55c728fcc33f6000473c3d92882cb1", "fusion_lat": 0.0, "type": "electric_bike", "lat": 39.03345783333334, "is_reserved": 0, "is_disabled": 0, "fusion_lon": 0.0, "bike_id": "3a55c728fcc33f6000473c3d92882cb1", "lon": -77.04907016666667, "rental_uris": {"ios": "https://dc.lft.to/lastmile_qr_scan", "android": "https://dc.lft.to/lastmile_qr_scan"}}, {"name": "d3ac8f420f2844369f1e9389ece6aa20", "fusion_lat": 0.0, "type": "electric_scooter", "lat": 38.92365933333333, "is_reserved": 0, "is_disabled": 0, "fusion_lon": 0.0, "bike_id": "d3ac8f420f2844369f1e9389ece6aa20", "lon": -77.01916133333333, "rental_uris": {"ios": "https://dc.lft.to/lastmile_qr_scan", "android": "https://dc.lft.to/lastmile_qr_scan"}}, {"name": "4a442bd49eb41a1f1f9d02cf8b04d3fb", "fusion_lat": 0.0, "type": "electric_scooter", "lat": 38.90524, "is_reserved": 0, "is_disabled": 0, "fusion_lon": 0.0, "bike_id": "4a442bd49eb41a1f1f9d02cf8b04d3fb", "lon": -77.04158216666667, "rental_uris": {"ios": "https://dc.lft.to/lastmile_qr_scan", "android": "https://dc.lft.to/lastmile_qr_scan"}}, {"name": "2335f60f675903b72c80b1716044f5c0", "fusion_lat": 0.0, "type": "electric_scooter", "lat": 38.910078666666664, "is_reserved": 0, "is_disabled": 0, "fusion_lon": 0.0, "bike_id": "2335f60f675903b72c80b1716044f5c0", "lon": -77.04423983333334, "rental_uris": {"ios": "https://dc.lft.to/lastmile_qr_scan", "android": "https://dc.lft.to/lastmile_qr_scan"}}, {"name": "ddda12b3cfc4a5bd43c3a9c0da6b8798", "fusion_lat": 0.0, "type": "electric_scooter", "lat": 38.906406, "is_reserved": 0, "is_disabled": 0, "fusion_lon": 0.0, "bike_id": "ddda12b3cfc4a5bd43c3a9c0da6b8798", "lon": -77.0514795, "rental_uris": {"ios": "https://dc.lft.to/lastmile_qr_scan", "android": "https://dc.lft.to/lastmile_qr_scan"}}, {"name": "2981ad9759c76bf1b891e644f346ee7f", "fusion_lat": 0.0, "type": "electric_scooter", "lat": 38.903591, "is_reserved": 0, "is_disabled": 0, "fusion_lon": 0.0, "bike_id": "2981ad9759c76bf1b891e644f346ee7f", "lon": -77.01867916666667, "rental_uris": {"ios": "https://dc.lft.to/lastmile_qr_scan", "android": "https://dc.lft.to/lastmile_qr_scan"}}, {"name": "b3ac7d5420e16e90cede75ac3bad7467", "fusion_lat": 0.0, "type": "electric_scooter", "lat": 38.94186416666667, "is_reserved": 0, "is_disabled": 0, "fusion_lon": 0.0, "bike_id": "b3ac7d5420e16e90cede75ac3bad7467", "lon": -77.02490983333334, "rental_uris": {"ios": "https://dc.lft.to/lastmile_qr_scan", "android": "https://dc.lft.to/lastmile_qr_scan"}}, {"name": "77365fd8d931c282c60d27152fff5a03", "fusion_lat": 0.0, "type": "electric_scooter", "lat": 38.92444033333334, "is_reserved": 0, "is_disabled": 0, "fusion_lon": 0.0, "bike_id": "77365fd8d931c282c60d27152fff5a03", "lon": -76.99333983333334, "rental_uris": {"ios": "https://dc.lft.to/lastmile_qr_scan", "android": "https://dc.lft.to/lastmile_qr_scan"}}, {"name": "c6580c5295f8f9de9b448afeb75212e7", "fusion_lat": 0.0, "type": "electric_scooter", "lat": 38.89876433333333, "is_reserved": 0, "is_disabled": 0, "fusion_lon": 0.0, "bike_id": "c6580c5295f8f9de9b448afeb75212e7", "lon": -77.03314666666667, "rental_uris": {"ios": "https://dc.lft.to/lastmile_qr_scan", "android": "https://dc.lft.to/lastmile_qr_scan"}}, {"name": "2b035025451a4b5c65da46539d3fa853", "fusion_lat": 0.0, "type": "electric_scooter", "lat": 38.923614666666666, "is_reserved": 0, "is_disabled": 0, "fusion_lon": 0.0, "bike_id": "2b035025451a4b5c65da46539d3fa853", "lon": -77.052436, "rental_uris": {"ios": "https://dc.lft.to/lastmile_qr_scan", "android": "https://dc.lft.to/lastmile_qr_scan"}}, {"name": "1841d2e59db3421dea874e5675956340", "fusion_lat": 0.0, "type": "electric_bike", "lat": 38.9612475, "is_reserved": 0, "is_disabled": 0, "fusion_lon": 0.0, "bike_id": "1841d2e59db3421dea874e5675956340", "lon": -77.03271766666667, "rental_uris": {"ios": "https://dc.lft.to/lastmile_qr_scan", "android": "https://dc.lft.to/lastmile_qr_scan"}}, {"name": "52db38f9ae978830349d4943152be59f", "fusion_lat": 0.0, "type": "electric_scooter", "lat": 38.9181495, "is_reserved": 0, "is_disabled": 0, "fusion_lon": 0.0, "bike_id": "52db38f9ae978830349d4943152be59f", "lon": -77.03999516666667, "rental_uris": {"ios": "https://dc.lft.to/lastmile_qr_scan", "android": "https://dc.lft.to/lastmile_qr_scan"}}, {"name": "29ae29dac3d479ab2258f784ee4eb90c", "fusion_lat": 0.0, "type": "electric_scooter", "lat": 38.919157, "is_reserved": 0, "is_disabled": 0, "fusion_lon": 0.0, "bike_id": "29ae29dac3d479ab2258f784ee4eb90c", "lon": -77.02162716666666, "rental_uris": {"ios": "https://dc.lft.to/lastmile_qr_scan", "android": "https://dc.lft.to/lastmile_qr_scan"}}, {"name": "bd55daa29f1852fb75c0579ef289cb97", "fusion_lat": 0.0, "type": "electric_scooter", "lat": 38.929795, "is_reserved": 0, "is_disabled": 0, "fusion_lon": 0.0, "bike_id": "bd55daa29f1852fb75c0579ef289cb97", "lon": -77.03267016666666, "rental_uris": {"ios": "https://dc.lft.to/lastmile_qr_scan", "android": "https://dc.lft.to/lastmile_qr_scan"}}, {"name": "fe4a070f8fc9175e97cab9e374eb21f3", "fusion_lat": 0.0, "type": "electric_scooter", "lat": 38.91733966666666, "is_reserved": 0, "is_disabled": 0, "fusion_lon": 0.0, "bike_id": "fe4a070f8fc9175e97cab9e374eb21f3", "lon": -77.01028983333333, "rental_uris": {"ios": "https://dc.lft.to/lastmile_qr_scan", "android": "https://dc.lft.to/lastmile_qr_scan"}}, {"name": "1e78468b4c63c16e9d07eaa9d3d6f5bc", "fusion_lat": 0.0, "type": "electric_scooter", "lat": 38.928036, "is_reserved": 0, "is_disabled": 0, "fusion_lon": 0.0, "bike_id": "1e78468b4c63c16e9d07eaa9d3d6f5bc", "lon": -77.03972066666667, "rental_uris": {"ios": "https://dc.lft.to/lastmile_qr_scan", "android": "https://dc.lft.to/lastmile_qr_scan"}}, {"name": "010213113db20a83f02cf050c3929a7f", "fusion_lat": 0.0, "type": "electric_scooter", "lat": 38.91942783333333, "is_reserved": 0, "is_disabled": 0, "fusion_lon": 0.0, "bike_id": "010213113db20a83f02cf050c3929a7f", "lon": -77.0449735, "rental_uris": {"ios": "https://dc.lft.to/lastmile_qr_scan", "android": "https://dc.lft.to/lastmile_qr_scan"}}, {"name": "ec1fdc968cb8a967b97c80a9441df9a2", "fusion_lat": 0.0, "type": "electric_scooter", "lat": 38.908909333333334, "is_reserved": 0, "is_disabled": 0, "fusion_lon": 0.0, "bike_id": "ec1fdc968cb8a967b97c80a9441df9a2", "lon": -77.0057705, "rental_uris": {"ios": "https://dc.lft.to/lastmile_qr_scan", "android": "https://dc.lft.to/lastmile_qr_scan"}}, {"name": "3aae119bdb21d82b75b83060d8f6467b", "fusion_lat": 0.0, "type": "electric_scooter", "lat": 38.89875966666666, "is_reserved": 0, "is_disabled": 0, "fusion_lon": 0.0, "bike_id": "3aae119bdb21d82b75b83060d8f6467b", "lon": -76.93156716666667, "rental_uris": {"ios": "https://dc.lft.to/lastmile_qr_scan", "android": "https://dc.lft.to/lastmile_qr_scan"}}, {"name": "45aec6625475fbd6dd2db9218a79c85a", "fusion_lat": 0.0, "type": "electric_scooter", "lat": 38.8948365, "is_reserved": 0, "is_disabled": 0, "fusion_lon": 0.0, "bike_id": "45aec6625475fbd6dd2db9218a79c85a", "lon": -77.02309183333334, "rental_uris": {"ios": "https://dc.lft.to/lastmile_qr_scan", "android": "https://dc.lft.to/lastmile_qr_scan"}}, {"name": "f564f56b45943b9656a30f855fd3ec09", "fusion_lat": 0.0, "type": "electric_scooter", "lat": 38.917571833333334, "is_reserved": 0, "is_disabled": 0, "fusion_lon": 0.0, "bike_id": "f564f56b45943b9656a30f855fd3ec09", "lon": -77.018812, "rental_uris": {"ios": "https://dc.lft.to/lastmile_qr_scan", "android": "https://dc.lft.to/lastmile_qr_scan"}}, {"name": "5a86f5e2e17cf90211cd9cdebe078299", "fusion_lat": 0.0, "type": "electric_scooter", "lat": 38.90864466666667, "is_reserved": 0, "is_disabled": 0, "fusion_lon": 0.0, "bike_id": "5a86f5e2e17cf90211cd9cdebe078299", "lon": -77.01326316666666, "rental_uris": {"ios": "https://dc.lft.to/lastmile_qr_scan", "android": "https://dc.lft.to/lastmile_qr_scan"}}, {"name": "9705f6f3b88aaa045f8ba3217c082db7", "fusion_lat": 0.0, "type": "electric_scooter", "lat": 38.910544333333334, "is_reserved": 0, "is_disabled": 0, "fusion_lon": 0.0, "bike_id": "9705f6f3b88aaa045f8ba3217c082db7", "lon": -77.04578216666667, "rental_uris": {"ios": "https://dc.lft.to/lastmile_qr_scan", "android": "https://dc.lft.to/lastmile_qr_scan"}}, {"name": "bada262a75b348b01cd3ea3823b75a5e", "fusion_lat": 0.0, "type": "electric_scooter", "lat": 38.929755666666665, "is_reserved": 0, "is_disabled": 0, "fusion_lon": 0.0, "bike_id": "bada262a75b348b01cd3ea3823b75a5e", "lon": -77.02613966666667, "rental_uris": {"ios": "https://dc.lft.to/lastmile_qr_scan", "android": "https://dc.lft.to/lastmile_qr_scan"}}, {"name": "223bfe228b9c6c1570ecdd01f8919c6a", "fusion_lat": 0.0, "type": "electric_bike", "lat": 38.89518233333333, "is_reserved": 0, "is_disabled": 0, "fusion_lon": 0.0, "bike_id": "223bfe228b9c6c1570ecdd01f8919c6a", "lon": -77.04352616666667, "rental_uris": {"ios": "https://dc.lft.to/lastmile_qr_scan", "android": "https://dc.lft.to/lastmile_qr_scan"}}, {"name": "9e32012cddd779a74cf25bb203be979d", "fusion_lat": 0.0, "type": "electric_scooter", "lat": 38.94198383333333, "is_reserved": 0, "is_disabled": 0, "fusion_lon": 0.0, "bike_id": "9e32012cddd779a74cf25bb203be979d", "lon": -77.02510583333333, "rental_uris": {"ios": "https://dc.lft.to/lastmile_qr_scan", "android": "https://dc.lft.to/lastmile_qr_scan"}}, {"name": "0df7ca3f98797e7f075b26c828c7dd7f", "fusion_lat": 0.0, "type": "electric_scooter", "lat": 38.901237, "is_reserved": 0, "is_disabled": 0, "fusion_lon": 0.0, "bike_id": "0df7ca3f98797e7f075b26c828c7dd7f", "lon": -77.03185566666667, "rental_uris": {"ios": "https://dc.lft.to/lastmile_qr_scan", "android": "https://dc.lft.to/lastmile_qr_scan"}}, {"name": "44c38ef0dd41a8b40477039c94dab64b", "fusion_lat": 0.0, "type": "electric_scooter", "lat": 38.89181033333333, "is_reserved": 0, "is_disabled": 0, "fusion_lon": 0.0, "bike_id": "44c38ef0dd41a8b40477039c94dab64b", "lon": -77.00329366666666, "rental_uris": {"ios": "https://dc.lft.to/lastmile_qr_scan", "android": "https://dc.lft.to/lastmile_qr_scan"}}, {"name": "c95ef7df05336fc749843cc9141c3438", "fusion_lat": 0.0, "type": "electric_scooter", "lat": 38.89887016666667, "is_reserved": 0, "is_disabled": 0, "fusion_lon": 0.0, "bike_id": "c95ef7df05336fc749843cc9141c3438", "lon": -77.0327715, "rental_uris": {"ios": "https://dc.lft.to/lastmile_qr_scan", "android": "https://dc.lft.to/lastmile_qr_scan"}}, {"name": "637f57fba77d78a3ec58d287b35bd73e", "fusion_lat": 0.0, "type": "electric_scooter", "lat": 38.908345833333335, "is_reserved": 0, "is_disabled": 0, "fusion_lon": 0.0, "bike_id": "637f57fba77d78a3ec58d287b35bd73e", "lon": -77.0367195, "rental_uris": {"ios": "https://dc.lft.to/lastmile_qr_scan", "android": "https://dc.lft.to/lastmile_qr_scan"}}, {"name": "9b5c3615b77465c45222b7910ca7b5e9", "fusion_lat": 0.0, "type": "electric_scooter", "lat": 38.92841516666667, "is_reserved": 0, "is_disabled": 0, "fusion_lon": 0.0, "bike_id": "9b5c3615b77465c45222b7910ca7b5e9", "lon": -77.05418583333334, "rental_uris": {"ios": "https://dc.lft.to/lastmile_qr_scan", "android": "https://dc.lft.to/lastmile_qr_scan"}}, {"name": "4af2a70d4323d0fb9bca3e6e3309742a", "fusion_lat": 0.0, "type": "electric_scooter", "lat": 38.91895816666667, "is_reserved": 0, "is_disabled": 0, "fusion_lon": 0.0, "bike_id": "4af2a70d4323d0fb9bca3e6e3309742a", "lon": -77.05292533333333, "rental_uris": {"ios": "https://dc.lft.to/lastmile_qr_scan", "android": "https://dc.lft.to/lastmile_qr_scan"}}, {"name": "b9aa1b39bd942182646af0587b25bad1", "fusion_lat": 0.0, "type": "electric_scooter", "lat": 38.9261615, "is_reserved": 0, "is_disabled": 0, "fusion_lon": 0.0, "bike_id": "b9aa1b39bd942182646af0587b25bad1", "lon": -77.02166733333334, "rental_uris": {"ios": "https://dc.lft.to/lastmile_qr_scan", "android": "https://dc.lft.to/lastmile_qr_scan"}}, {"name": "20e62e3e6943106bc5b07bbb56dc5387", "fusion_lat": 0.0, "type": "electric_scooter", "lat": 38.89490466666667, "is_reserved": 0, "is_disabled": 0, "fusion_lon": 0.0, "bike_id": "20e62e3e6943106bc5b07bbb56dc5387", "lon": -77.02396583333334, "rental_uris": {"ios": "https://dc.lft.to/lastmile_qr_scan", "android": "https://dc.lft.to/lastmile_qr_scan"}}, {"name": "5ed242a7c2456d3ce61d5e22e1b41639", "fusion_lat": 0.0, "type": "electric_bike", "lat": 38.82729333333333, "is_reserved": 0, "is_disabled": 0, "fusion_lon": 0.0, "bike_id": "5ed242a7c2456d3ce61d5e22e1b41639", "lon": -77.00868433333333, "rental_uris": {"ios": "https://dc.lft.to/lastmile_qr_scan", "android": "https://dc.lft.to/lastmile_qr_scan"}}, {"name": "fde49c2457499a5afacdba7c774b01e1", "fusion_lat": 0.0, "type": "electric_scooter", "lat": 38.89593166666667, "is_reserved": 0, "is_disabled": 0, "fusion_lon": 0.0, "bike_id": "fde49c2457499a5afacdba7c774b01e1", "lon": -77.02769266666667, "rental_uris": {"ios": "https://dc.lft.to/lastmile_qr_scan", "android": "https://dc.lft.to/lastmile_qr_scan"}}, {"name": "e6b180d4337da050c4e3d226567a2af9", "fusion_lat": 0.0, "type": "electric_scooter", "lat": 38.895131666666664, "is_reserved": 0, "is_disabled": 0, "fusion_lon": 0.0, "bike_id": "e6b180d4337da050c4e3d226567a2af9", "lon": -76.94890116666667, "rental_uris": {"ios": "https://dc.lft.to/lastmile_qr_scan", "android": "https://dc.lft.to/lastmile_qr_scan"}}, {"name": "fe24a809edcbd386d4b7f3f8b69316ea", "fusion_lat": 0.0, "type": "electric_scooter", "lat": 38.9236475, "is_reserved": 0, "is_disabled": 0, "fusion_lon": 0.0, "bike_id": "fe24a809edcbd386d4b7f3f8b69316ea", "lon": -77.05024816666666, "rental_uris": {"ios": "https://dc.lft.to/lastmile_qr_scan", "android": "https://dc.lft.to/lastmile_qr_scan"}}, {"name": "80891f2a29a209187e208dbe2a3dbf14", "fusion_lat": 0.0, "type": "electric_scooter", "lat": 38.8969005, "is_reserved": 0, "is_disabled": 0, "fusion_lon": 0.0, "bike_id": "80891f2a29a209187e208dbe2a3dbf14", "lon": -77.0120415, "rental_uris": {"ios": "https://dc.lft.to/lastmile_qr_scan", "android": "https://dc.lft.to/lastmile_qr_scan"}}, {"name": "6b695e497a9a9e1caafae1fcc5298130", "fusion_lat": 0.0, "type": "electric_scooter", "lat": 38.898264, "is_reserved": 0, "is_disabled": 0, "fusion_lon": 0.0, "bike_id": "6b695e497a9a9e1caafae1fcc5298130", "lon": -77.00357333333334, "rental_uris": {"ios": "https://dc.lft.to/lastmile_qr_scan", "android": "https://dc.lft.to/lastmile_qr_scan"}}, {"name": "14cbe1e54fbaf13fdcf56af668f33dbb", "fusion_lat": 0.0, "type": "electric_scooter", "lat": 38.88022766666667, "is_reserved": 0, "is_disabled": 0, "fusion_lon": 0.0, "bike_id": "14cbe1e54fbaf13fdcf56af668f33dbb", "lon": -76.93136116666666, "rental_uris": {"ios": "https://dc.lft.to/lastmile_qr_scan", "android": "https://dc.lft.to/lastmile_qr_scan"}}, {"name": "a3241d5e18164d93af5ceda11b127764", "fusion_lat": 0.0, "type": "electric_scooter", "lat": 38.898362166666665, "is_reserved": 0, "is_disabled": 0, "fusion_lon": 0.0, "bike_id": "a3241d5e18164d93af5ceda11b127764", "lon": -76.94642433333334, "rental_uris": {"ios": "https://dc.lft.to/lastmile_qr_scan", "android": "https://dc.lft.to/lastmile_qr_scan"}}, {"name": "9b09c2483407b0dcf64426feb83d237c", "fusion_lat": 0.0, "type": "electric_scooter", "lat": 38.9169415, "is_reserved": 0, "is_disabled": 0, "fusion_lon": 0.0, "bike_id": "9b09c2483407b0dcf64426feb83d237c", "lon": -77.0259665, "rental_uris": {"ios": "https://dc.lft.to/lastmile_qr_scan", "android": "https://dc.lft.to/lastmile_qr_scan"}}, {"name": "4f74c9d316749aed0702f60ad0f996ad", "fusion_lat": 0.0, "type": "electric_scooter", "lat": 38.902585, "is_reserved": 0, "is_disabled": 0, "fusion_lon": 0.0, "bike_id": "4f74c9d316749aed0702f60ad0f996ad", "lon": -77.0446605, "rental_uris": {"ios": "https://dc.lft.to/lastmile_qr_scan", "android": "https://dc.lft.to/lastmile_qr_scan"}}, {"name": "e3c22d434ce6555e9d646f6f2f330e77", "fusion_lat": 0.0, "type": "electric_scooter", "lat": 38.899848166666665, "is_reserved": 0, "is_disabled": 0, "fusion_lon": 0.0, "bike_id": "e3c22d434ce6555e9d646f6f2f330e77", "lon": -77.0294805, "rental_uris": {"ios": "https://dc.lft.to/lastmile_qr_scan", "android": "https://dc.lft.to/lastmile_qr_scan"}}, {"name": "3896850937b44cef89ccf66c663c1f23", "fusion_lat": 0.0, "type": "electric_scooter", "lat": 38.86075533333333, "is_reserved": 0, "is_disabled": 0, "fusion_lon": 0.0, "bike_id": "3896850937b44cef89ccf66c663c1f23", "lon": -76.967381, "rental_uris": {"ios": "https://dc.lft.to/lastmile_qr_scan", "android": "https://dc.lft.to/lastmile_qr_scan"}}, {"name": "1ee36fe69cc2cdc037dcbfd6b5cb3d4b", "fusion_lat": 0.0, "type": "electric_scooter", "lat": 38.948055833333335, "is_reserved": 0, "is_disabled": 0, "fusion_lon": 0.0, "bike_id": "1ee36fe69cc2cdc037dcbfd6b5cb3d4b", "lon": -77.07908783333333, "rental_uris": {"ios": "https://dc.lft.to/lastmile_qr_scan", "android": "https://dc.lft.to/lastmile_qr_scan"}}, {"name": "12397f037ee7530159c04d16f0f3e7be", "fusion_lat": 0.0, "type": "electric_bike", "lat": 38.9091345, "is_reserved": 0, "is_disabled": 0, "fusion_lon": 0.0, "bike_id": "12397f037ee7530159c04d16f0f3e7be", "lon": -77.07268316666666, "rental_uris": {"ios": "https://dc.lft.to/lastmile_qr_scan", "android": "https://dc.lft.to/lastmile_qr_scan"}}, {"name": "e23dd617f7f5c91fe84196626618ec9a", "fusion_lat": 0.0, "type": "electric_scooter", "lat": 38.92137666666667, "is_reserved": 0, "is_disabled": 0, "fusion_lon": 0.0, "bike_id": "e23dd617f7f5c91fe84196626618ec9a", "lon": -77.03904033333333, "rental_uris": {"ios": "https://dc.lft.to/lastmile_qr_scan", "android": "https://dc.lft.to/lastmile_qr_scan"}}, {"name": "95048f20fb3121162f4d1acf029fc0ed", "fusion_lat": 0.0, "type": "electric_scooter", "lat": 38.919393166666666, "is_reserved": 0, "is_disabled": 0, "fusion_lon": 0.0, "bike_id": "95048f20fb3121162f4d1acf029fc0ed", "lon": -77.04547483333333, "rental_uris": {"ios": "https://dc.lft.to/lastmile_qr_scan", "android": "https://dc.lft.to/lastmile_qr_scan"}}, {"name": "2e43051c75cddd5c7a7af8cbec5e65f2", "fusion_lat": 0.0, "type": "electric_bike", "lat": 38.89959966666667, "is_reserved": 0, "is_disabled": 0, "fusion_lon": 0.0, "bike_id": "2e43051c75cddd5c7a7af8cbec5e65f2", "lon": -77.04720116666667, "rental_uris": {"ios": "https://dc.lft.to/lastmile_qr_scan", "android": "https://dc.lft.to/lastmile_qr_scan"}}, {"name": "adf3895382055c164aec7708427f6d6b", "fusion_lat": 0.0, "type": "electric_scooter", "lat": 38.933688333333336, "is_reserved": 0, "is_disabled": 0, "fusion_lon": 0.0, "bike_id": "adf3895382055c164aec7708427f6d6b", "lon": -77.03443633333333, "rental_uris": {"ios": "https://dc.lft.to/lastmile_qr_scan", "android": "https://dc.lft.to/lastmile_qr_scan"}}, {"name": "82729b77ba8da3ff67270e72b7c54977", "fusion_lat": 0.0, "type": "electric_scooter", "lat": 38.90499716666667, "is_reserved": 0, "is_disabled": 0, "fusion_lon": 0.0, "bike_id": "82729b77ba8da3ff67270e72b7c54977", "lon": -77.04662866666666, "rental_uris": {"ios": "https://dc.lft.to/lastmile_qr_scan", "android": "https://dc.lft.to/lastmile_qr_scan"}}, {"name": "171c3c14cc1713b467da58812b6bcd1d", "fusion_lat": 0.0, "type": "electric_scooter", "lat": 38.8921975, "is_reserved": 0, "is_disabled": 0, "fusion_lon": 0.0, "bike_id": "171c3c14cc1713b467da58812b6bcd1d", "lon": -77.0309315, "rental_uris": {"ios": "https://dc.lft.to/lastmile_qr_scan", "android": "https://dc.lft.to/lastmile_qr_scan"}}, {"name": "cb82a8a347665df91187899b3f5db7eb", "fusion_lat": 0.0, "type": "electric_scooter", "lat": 38.931244166666666, "is_reserved": 0, "is_disabled": 0, "fusion_lon": 0.0, "bike_id": "cb82a8a347665df91187899b3f5db7eb", "lon": -77.03605683333333, "rental_uris": {"ios": "https://dc.lft.to/lastmile_qr_scan", "android": "https://dc.lft.to/lastmile_qr_scan"}}, {"name": "c57c556bcb54e7f1cd8c172d95d095a6", "fusion_lat": 0.0, "type": "electric_scooter", "lat": 38.93158833333333, "is_reserved": 0, "is_disabled": 0, "fusion_lon": 0.0, "bike_id": "c57c556bcb54e7f1cd8c172d95d095a6", "lon": -77.0388465, "rental_uris": {"ios": "https://dc.lft.to/lastmile_qr_scan", "android": "https://dc.lft.to/lastmile_qr_scan"}}, {"name": "e2ce8f61045364258bf1d56575a17a25", "fusion_lat": 0.0, "type": "electric_scooter", "lat": 38.8840005, "is_reserved": 0, "is_disabled": 0, "fusion_lon": 0.0, "bike_id": "e2ce8f61045364258bf1d56575a17a25", "lon": -76.930457, "rental_uris": {"ios": "https://dc.lft.to/lastmile_qr_scan", "android": "https://dc.lft.to/lastmile_qr_scan"}}, {"name": "432390c2bc3bd1f9c607d6c3d65b82ba", "fusion_lat": 0.0, "type": "electric_scooter", "lat": 38.9083855, "is_reserved": 0, "is_disabled": 0, "fusion_lon": 0.0, "bike_id": "432390c2bc3bd1f9c607d6c3d65b82ba", "lon": -76.99972783333334, "rental_uris": {"ios": "https://dc.lft.to/lastmile_qr_scan", "android": "https://dc.lft.to/lastmile_qr_scan"}}, {"name": "954475fa1ff3d7e049dea75029cce8f5", "fusion_lat": 0.0, "type": "electric_scooter", "lat": 38.91801366666667, "is_reserved": 0, "is_disabled": 0, "fusion_lon": 0.0, "bike_id": "954475fa1ff3d7e049dea75029cce8f5", "lon": -77.03167833333333, "rental_uris": {"ios": "https://dc.lft.to/lastmile_qr_scan", "android": "https://dc.lft.to/lastmile_qr_scan"}}, {"name": "60fe69762b460d9722aa148ce8c8e4bb", "fusion_lat": 0.0, "type": "electric_scooter", "lat": 38.9005235, "is_reserved": 0, "is_disabled": 0, "fusion_lon": 0.0, "bike_id": "60fe69762b460d9722aa148ce8c8e4bb", "lon": -77.043395, "rental_uris": {"ios": "https://dc.lft.to/lastmile_qr_scan", "android": "https://dc.lft.to/lastmile_qr_scan"}}, {"name": "4d34d5b60073c7e91d32bb1c9547b598", "fusion_lat": 0.0, "type": "electric_scooter", "lat": 38.9287005, "is_reserved": 0, "is_disabled": 0, "fusion_lon": 0.0, "bike_id": "4d34d5b60073c7e91d32bb1c9547b598", "lon": -77.013829, "rental_uris": {"ios": "https://dc.lft.to/lastmile_qr_scan", "android": "https://dc.lft.to/lastmile_qr_scan"}}, {"name": "dd6f736786e8d71df15f9d0209ca0164", "fusion_lat": 0.0, "type": "electric_scooter", "lat": 38.941821833333336, "is_reserved": 0, "is_disabled": 0, "fusion_lon": 0.0, "bike_id": "dd6f736786e8d71df15f9d0209ca0164", "lon": -77.02488566666666, "rental_uris": {"ios": "https://dc.lft.to/lastmile_qr_scan", "android": "https://dc.lft.to/lastmile_qr_scan"}}, {"name": "729b740f4a5d17cc7ddd01221deba27e", "fusion_lat": 0.0, "type": "electric_scooter", "lat": 38.907630166666664, "is_reserved": 0, "is_disabled": 0, "fusion_lon": 0.0, "bike_id": "729b740f4a5d17cc7ddd01221deba27e", "lon": -77.00026683333333, "rental_uris": {"ios": "https://dc.lft.to/lastmile_qr_scan", "android": "https://dc.lft.to/lastmile_qr_scan"}}, {"name": "d7914b437c78f365bb20fce979169a97", "fusion_lat": 0.0, "type": "electric_scooter", "lat": 38.895080666666665, "is_reserved": 0, "is_disabled": 0, "fusion_lon": 0.0, "bike_id": "d7914b437c78f365bb20fce979169a97", "lon": -77.01610383333333, "rental_uris": {"ios": "https://dc.lft.to/lastmile_qr_scan", "android": "https://dc.lft.to/lastmile_qr_scan"}}, {"name": "d5a3b6359a892730b7d56a583764cf39", "fusion_lat": 0.0, "type": "electric_scooter", "lat": 38.91618233333333, "is_reserved": 0, "is_disabled": 0, "fusion_lon": 0.0, "bike_id": "d5a3b6359a892730b7d56a583764cf39", "lon": -77.03855366666667, "rental_uris": {"ios": "https://dc.lft.to/lastmile_qr_scan", "android": "https://dc.lft.to/lastmile_qr_scan"}}, {"name": "bdbd82281def3f96e7919a185cb934f2", "fusion_lat": 0.0, "type": "electric_scooter", "lat": 38.89344716666667, "is_reserved": 0, "is_disabled": 0, "fusion_lon": 0.0, "bike_id": "bdbd82281def3f96e7919a185cb934f2", "lon": -77.04644583333334, "rental_uris": {"ios": "https://dc.lft.to/lastmile_qr_scan", "android": "https://dc.lft.to/lastmile_qr_scan"}}, {"name": "e75dc661b7008641fecb42359b7fa66b", "fusion_lat": 0.0, "type": "electric_bike", "lat": 38.94548233333333, "is_reserved": 0, "is_disabled": 0, "fusion_lon": 0.0, "bike_id": "e75dc661b7008641fecb42359b7fa66b", "lon": -76.8953795, "rental_uris": {"ios": "https://dc.lft.to/lastmile_qr_scan", "android": "https://dc.lft.to/lastmile_qr_scan"}}, {"name": "68ad6b14d6cd55932391222e8c85027a", "fusion_lat": 0.0, "type": "electric_scooter", "lat": 38.867006, "is_reserved": 0, "is_disabled": 0, "fusion_lon": 0.0, "bike_id": "68ad6b14d6cd55932391222e8c85027a", "lon": -76.987097, "rental_uris": {"ios": "https://dc.lft.to/lastmile_qr_scan", "android": "https://dc.lft.to/lastmile_qr_scan"}}, {"name": "ada304ddf9fabfa517993f13c3e861b3", "fusion_lat": 0.0, "type": "electric_bike", "lat": 38.973286, "is_reserved": 0, "is_disabled": 0, "fusion_lon": 0.0, "bike_id": "ada304ddf9fabfa517993f13c3e861b3", "lon": -77.021498, "rental_uris": {"ios": "https://dc.lft.to/lastmile_qr_scan", "android": "https://dc.lft.to/lastmile_qr_scan"}}, {"name": "19bb68f2ce14adaf97ffdde05a0360dc", "fusion_lat": 0.0, "type": "electric_scooter", "lat": 38.8948475, "is_reserved": 0, "is_disabled": 0, "fusion_lon": 0.0, "bike_id": "19bb68f2ce14adaf97ffdde05a0360dc", "lon": -76.94871883333333, "rental_uris": {"ios": "https://dc.lft.to/lastmile_qr_scan", "android": "https://dc.lft.to/lastmile_qr_scan"}}, {"name": "5ff72ddd84b1e93468ec6ed35b402d70", "fusion_lat": 0.0, "type": "electric_scooter", "lat": 38.91397716666667, "is_reserved": 0, "is_disabled": 0, "fusion_lon": 0.0, "bike_id": "5ff72ddd84b1e93468ec6ed35b402d70", "lon": -77.03907433333333, "rental_uris": {"ios": "https://dc.lft.to/lastmile_qr_scan", "android": "https://dc.lft.to/lastmile_qr_scan"}}, {"name": "4fadaf7afb56bda404b9a564834a0377", "fusion_lat": 0.0, "type": "electric_scooter", "lat": 38.898543333333336, "is_reserved": 0, "is_disabled": 0, "fusion_lon": 0.0, "bike_id": "4fadaf7afb56bda404b9a564834a0377", "lon": -76.99031566666666, "rental_uris": {"ios": "https://dc.lft.to/lastmile_qr_scan", "android": "https://dc.lft.to/lastmile_qr_scan"}}, {"name": "b259d756a45852490dd1e71d6a7eae64", "fusion_lat": 0.0, "type": "electric_scooter", "lat": 38.892869833333336, "is_reserved": 0, "is_disabled": 0, "fusion_lon": 0.0, "bike_id": "b259d756a45852490dd1e71d6a7eae64", "lon": -77.0321255, "rental_uris": {"ios": "https://dc.lft.to/lastmile_qr_scan", "android": "https://dc.lft.to/lastmile_qr_scan"}}, {"name": "bd77d33e96c22667d9319dc0e0269deb", "fusion_lat": 0.0, "type": "electric_scooter", "lat": 38.932585, "is_reserved": 0, "is_disabled": 0, "fusion_lon": 0.0, "bike_id": "bd77d33e96c22667d9319dc0e0269deb", "lon": -77.04006466666667, "rental_uris": {"ios": "https://dc.lft.to/lastmile_qr_scan", "android": "https://dc.lft.to/lastmile_qr_scan"}}, {"name": "d607d6746d1b067aedd3522e7e4f7a41", "fusion_lat": 0.0, "type": "electric_scooter", "lat": 38.901415, "is_reserved": 0, "is_disabled": 0, "fusion_lon": 0.0, "bike_id": "d607d6746d1b067aedd3522e7e4f7a41", "lon": -77.042914, "rental_uris": {"ios": "https://dc.lft.to/lastmile_qr_scan", "android": "https://dc.lft.to/lastmile_qr_scan"}}, {"name": "c80da77445080962b15599e63719f922", "fusion_lat": 0.0, "type": "electric_scooter", "lat": 38.89963683333333, "is_reserved": 0, "is_disabled": 0, "fusion_lon": 0.0, "bike_id": "c80da77445080962b15599e63719f922", "lon": -76.937707, "rental_uris": {"ios": "https://dc.lft.to/lastmile_qr_scan", "android": "https://dc.lft.to/lastmile_qr_scan"}}, {"name": "a4c4af91be24b18ecb71c70a191d170e", "fusion_lat": 0.0, "type": "electric_bike", "lat": 38.899052166666664, "is_reserved": 0, "is_disabled": 0, "fusion_lon": 0.0, "bike_id": "a4c4af91be24b18ecb71c70a191d170e", "lon": -77.039687, "rental_uris": {"ios": "https://dc.lft.to/lastmile_qr_scan", "android": "https://dc.lft.to/lastmile_qr_scan"}}, {"name": "01112e407aa985d2ecbf83f1c457ef4b", "fusion_lat": 0.0, "type": "electric_scooter", "lat": 38.934118, "is_reserved": 0, "is_disabled": 0, "fusion_lon": 0.0, "bike_id": "01112e407aa985d2ecbf83f1c457ef4b", "lon": -77.041856, "rental_uris": {"ios": "https://dc.lft.to/lastmile_qr_scan", "android": "https://dc.lft.to/lastmile_qr_scan"}}, {"name": "f236fd8cb8b48478278909fcc4741286", "fusion_lat": 0.0, "type": "electric_scooter", "lat": 38.910471666666666, "is_reserved": 0, "is_disabled": 0, "fusion_lon": 0.0, "bike_id": "f236fd8cb8b48478278909fcc4741286", "lon": -77.043698, "rental_uris": {"ios": "https://dc.lft.to/lastmile_qr_scan", "android": "https://dc.lft.to/lastmile_qr_scan"}}, {"name": "4cef48c99f8c1f24c7db0cb111bb6dcd", "fusion_lat": 0.0, "type": "electric_scooter", "lat": 38.90202583333333, "is_reserved": 0, "is_disabled": 0, "fusion_lon": 0.0, "bike_id": "4cef48c99f8c1f24c7db0cb111bb6dcd", "lon": -76.98207666666667, "rental_uris": {"ios": "https://dc.lft.to/lastmile_qr_scan", "android": "https://dc.lft.to/lastmile_qr_scan"}}, {"name": "4a5273920c045e7ce94dbf2dfd01dc35", "fusion_lat": 0.0, "type": "electric_scooter", "lat": 38.896893, "is_reserved": 0, "is_disabled": 0, "fusion_lon": 0.0, "bike_id": "4a5273920c045e7ce94dbf2dfd01dc35", "lon": -77.01894, "rental_uris": {"ios": "https://dc.lft.to/lastmile_qr_scan", "android": "https://dc.lft.to/lastmile_qr_scan"}}, {"name": "fdc845b76b04d6b1cebc3d6d215c6fe9", "fusion_lat": 0.0, "type": "electric_scooter", "lat": 38.905128166666664, "is_reserved": 0, "is_disabled": 0, "fusion_lon": 0.0, "bike_id": "fdc845b76b04d6b1cebc3d6d215c6fe9", "lon": -77.07014633333333, "rental_uris": {"ios": "https://dc.lft.to/lastmile_qr_scan", "android": "https://dc.lft.to/lastmile_qr_scan"}}, {"name": "c9be2e92f93ee5c141979b3443929486", "fusion_lat": 0.0, "type": "electric_scooter", "lat": 38.87678583333334, "is_reserved": 0, "is_disabled": 0, "fusion_lon": 0.0, "bike_id": "c9be2e92f93ee5c141979b3443929486", "lon": -77.00075583333333, "rental_uris": {"ios": "https://dc.lft.to/lastmile_qr_scan", "android": "https://dc.lft.to/lastmile_qr_scan"}}, {"name": "dd309ed89de7840d10ee0e7ad7729a37", "fusion_lat": 0.0, "type": "electric_scooter", "lat": 38.909889, "is_reserved": 0, "is_disabled": 0, "fusion_lon": 0.0, "bike_id": "dd309ed89de7840d10ee0e7ad7729a37", "lon": -77.00896616666667, "rental_uris": {"ios": "https://dc.lft.to/lastmile_qr_scan", "android": "https://dc.lft.to/lastmile_qr_scan"}}, {"name": "11b706973adbd9bdaf4c85b8717b9cd8", "fusion_lat": 0.0, "type": "electric_scooter", "lat": 38.89849733333333, "is_reserved": 0, "is_disabled": 0, "fusion_lon": 0.0, "bike_id": "11b706973adbd9bdaf4c85b8717b9cd8", "lon": -77.01614, "rental_uris": {"ios": "https://dc.lft.to/lastmile_qr_scan", "android": "https://dc.lft.to/lastmile_qr_scan"}}, {"name": "7a2612bb43c57186925e6d879d1a3ad6", "fusion_lat": 0.0, "type": "electric_bike", "lat": 38.88345983333333, "is_reserved": 0, "is_disabled": 0, "fusion_lon": 0.0, "bike_id": "7a2612bb43c57186925e6d879d1a3ad6", "lon": -77.182932, "rental_uris": {"ios": "https://dc.lft.to/lastmile_qr_scan", "android": "https://dc.lft.to/lastmile_qr_scan"}}, {"name": "2cbbd134b8eb3affe7f72907ea8e459c", "fusion_lat": 0.0, "type": "electric_scooter", "lat": 38.934915833333335, "is_reserved": 0, "is_disabled": 0, "fusion_lon": 0.0, "bike_id": "2cbbd134b8eb3affe7f72907ea8e459c", "lon": -77.032785, "rental_uris": {"ios": "https://dc.lft.to/lastmile_qr_scan", "android": "https://dc.lft.to/lastmile_qr_scan"}}, {"name": "18ca034bd1d957663b772ecafd4d2249", "fusion_lat": 0.0, "type": "electric_scooter", "lat": 38.94283983333333, "is_reserved": 0, "is_disabled": 0, "fusion_lon": 0.0, "bike_id": "18ca034bd1d957663b772ecafd4d2249", "lon": -77.02503066666667, "rental_uris": {"ios": "https://dc.lft.to/lastmile_qr_scan", "android": "https://dc.lft.to/lastmile_qr_scan"}}, {"name": "9779fd200b46839fe364a93d697b7bfa", "fusion_lat": 0.0, "type": "electric_scooter", "lat": 38.942728333333335, "is_reserved": 0, "is_disabled": 0, "fusion_lon": 0.0, "bike_id": "9779fd200b46839fe364a93d697b7bfa", "lon": -77.03258733333334, "rental_uris": {"ios": "https://dc.lft.to/lastmile_qr_scan", "android": "https://dc.lft.to/lastmile_qr_scan"}}, {"name": "cb72990d3e281a0878619d0e16b98e02", "fusion_lat": 0.0, "type": "electric_scooter", "lat": 38.897632, "is_reserved": 0, "is_disabled": 0, "fusion_lon": 0.0, "bike_id": "cb72990d3e281a0878619d0e16b98e02", "lon": -76.977213, "rental_uris": {"ios": "https://dc.lft.to/lastmile_qr_scan", "android": "https://dc.lft.to/lastmile_qr_scan"}}, {"name": "c15e71ce2eb6a26ff67a1a7521dfe904", "fusion_lat": 0.0, "type": "electric_scooter", "lat": 38.863756, "is_reserved": 0, "is_disabled": 0, "fusion_lon": 0.0, "bike_id": "c15e71ce2eb6a26ff67a1a7521dfe904", "lon": -76.99061233333333, "rental_uris": {"ios": "https://dc.lft.to/lastmile_qr_scan", "android": "https://dc.lft.to/lastmile_qr_scan"}}, {"name": "714bf597f1365b7a11b4d91b5318f78a", "fusion_lat": 0.0, "type": "electric_scooter", "lat": 38.916912833333335, "is_reserved": 0, "is_disabled": 0, "fusion_lon": 0.0, "bike_id": "714bf597f1365b7a11b4d91b5318f78a", "lon": -77.03002266666667, "rental_uris": {"ios": "https://dc.lft.to/lastmile_qr_scan", "android": "https://dc.lft.to/lastmile_qr_scan"}}, {"name": "d4c4b2e079ce45704fadb3cfb1963ab1", "fusion_lat": 0.0, "type": "electric_scooter", "lat": 38.91653683333333, "is_reserved": 0, "is_disabled": 0, "fusion_lon": 0.0, "bike_id": "d4c4b2e079ce45704fadb3cfb1963ab1", "lon": -77.02309283333334, "rental_uris": {"ios": "https://dc.lft.to/lastmile_qr_scan", "android": "https://dc.lft.to/lastmile_qr_scan"}}, {"name": "fa2d8601b200bc0e330cd1c8f916659d", "fusion_lat": 0.0, "type": "electric_bike", "lat": 38.8540365, "is_reserved": 0, "is_disabled": 0, "fusion_lon": 0.0, "bike_id": "fa2d8601b200bc0e330cd1c8f916659d", "lon": -77.1183075, "rental_uris": {"ios": "https://dc.lft.to/lastmile_qr_scan", "android": "https://dc.lft.to/lastmile_qr_scan"}}, {"name": "1f3fcf6b13ea4ff5f8fe8688ac228147", "fusion_lat": 0.0, "type": "electric_scooter", "lat": 38.89357116666667, "is_reserved": 0, "is_disabled": 0, "fusion_lon": 0.0, "bike_id": "1f3fcf6b13ea4ff5f8fe8688ac228147", "lon": -77.01998616666667, "rental_uris": {"ios": "https://dc.lft.to/lastmile_qr_scan", "android": "https://dc.lft.to/lastmile_qr_scan"}}, {"name": "41e1e3b378e2320de9b31a646688a6a6", "fusion_lat": 0.0, "type": "electric_scooter", "lat": 38.903955833333335, "is_reserved": 0, "is_disabled": 0, "fusion_lon": 0.0, "bike_id": "41e1e3b378e2320de9b31a646688a6a6", "lon": -77.0505245, "rental_uris": {"ios": "https://dc.lft.to/lastmile_qr_scan", "android": "https://dc.lft.to/lastmile_qr_scan"}}, {"name": "2d0cc6392d047859538eff555c59d541", "fusion_lat": 0.0, "type": "electric_scooter", "lat": 38.94053916666667, "is_reserved": 0, "is_disabled": 0, "fusion_lon": 0.0, "bike_id": "2d0cc6392d047859538eff555c59d541", "lon": -77.032832, "rental_uris": {"ios": "https://dc.lft.to/lastmile_qr_scan", "android": "https://dc.lft.to/lastmile_qr_scan"}}, {"name": "8a212c0a3b3e4d7f45f6812983c8f372", "fusion_lat": 0.0, "type": "electric_scooter", "lat": 38.91418616666667, "is_reserved": 0, "is_disabled": 0, "fusion_lon": 0.0, "bike_id": "8a212c0a3b3e4d7f45f6812983c8f372", "lon": -77.02647366666666, "rental_uris": {"ios": "https://dc.lft.to/lastmile_qr_scan", "android": "https://dc.lft.to/lastmile_qr_scan"}}, {"name": "9beed91f3bc9bccb77ddad40e87e9039", "fusion_lat": 0.0, "type": "electric_scooter", "lat": 38.92411533333333, "is_reserved": 0, "is_disabled": 0, "fusion_lon": 0.0, "bike_id": "9beed91f3bc9bccb77ddad40e87e9039", "lon": -77.0402895, "rental_uris": {"ios": "https://dc.lft.to/lastmile_qr_scan", "android": "https://dc.lft.to/lastmile_qr_scan"}}, {"name": "6cd63c7fe0bd606cd4d79f8eb4f4424b", "fusion_lat": 0.0, "type": "electric_scooter", "lat": 38.9051105, "is_reserved": 0, "is_disabled": 0, "fusion_lon": 0.0, "bike_id": "6cd63c7fe0bd606cd4d79f8eb4f4424b", "lon": -77.0522065, "rental_uris": {"ios": "https://dc.lft.to/lastmile_qr_scan", "android": "https://dc.lft.to/lastmile_qr_scan"}}, {"name": "e8fd7d8a03213b369710fe2ed71e8b10", "fusion_lat": 0.0, "type": "electric_bike", "lat": 39.03882083333333, "is_reserved": 0, "is_disabled": 0, "fusion_lon": 0.0, "bike_id": "e8fd7d8a03213b369710fe2ed71e8b10", "lon": -76.990429, "rental_uris": {"ios": "https://dc.lft.to/lastmile_qr_scan", "android": "https://dc.lft.to/lastmile_qr_scan"}}, {"name": "e4d49e5c20b80133f6b4289c55f6a8cc", "fusion_lat": 0.0, "type": "electric_scooter", "lat": 38.9080965, "is_reserved": 0, "is_disabled": 0, "fusion_lon": 0.0, "bike_id": "e4d49e5c20b80133f6b4289c55f6a8cc", "lon": -77.039363, "rental_uris": {"ios": "https://dc.lft.to/lastmile_qr_scan", "android": "https://dc.lft.to/lastmile_qr_scan"}}, {"name": "d292d982f6d762d2b590094909c17c72", "fusion_lat": 0.0, "type": "electric_scooter", "lat": 38.91721016666666, "is_reserved": 0, "is_disabled": 0, "fusion_lon": 0.0, "bike_id": "d292d982f6d762d2b590094909c17c72", "lon": -77.03351783333333, "rental_uris": {"ios": "https://dc.lft.to/lastmile_qr_scan", "android": "https://dc.lft.to/lastmile_qr_scan"}}, {"name": "85d97f06305b4115275d53ac17d5dbcf", "fusion_lat": 0.0, "type": "electric_scooter", "lat": 38.90367633333334, "is_reserved": 0, "is_disabled": 0, "fusion_lon": 0.0, "bike_id": "85d97f06305b4115275d53ac17d5dbcf", "lon": -77.02882533333333, "rental_uris": {"ios": "https://dc.lft.to/lastmile_qr_scan", "android": "https://dc.lft.to/lastmile_qr_scan"}}, {"name": "724ce9f57e39391d06aff12d5f75e7b5", "fusion_lat": 0.0, "type": "electric_scooter", "lat": 38.885082, "is_reserved": 0, "is_disabled": 0, "fusion_lon": 0.0, "bike_id": "724ce9f57e39391d06aff12d5f75e7b5", "lon": -77.0306725, "rental_uris": {"ios": "https://dc.lft.to/lastmile_qr_scan", "android": "https://dc.lft.to/lastmile_qr_scan"}}, {"name": "68c84c258c6e50deed67696b2f66480d", "fusion_lat": 0.0, "type": "electric_scooter", "lat": 38.9430485, "is_reserved": 0, "is_disabled": 0, "fusion_lon": 0.0, "bike_id": "68c84c258c6e50deed67696b2f66480d", "lon": -77.05930583333334, "rental_uris": {"ios": "https://dc.lft.to/lastmile_qr_scan", "android": "https://dc.lft.to/lastmile_qr_scan"}}, {"name": "f1e4c9e2e12640882c87ef198065e9da", "fusion_lat": 0.0, "type": "electric_scooter", "lat": 38.900597, "is_reserved": 0, "is_disabled": 0, "fusion_lon": 0.0, "bike_id": "f1e4c9e2e12640882c87ef198065e9da", "lon": -77.04505083333333, "rental_uris": {"ios": "https://dc.lft.to/lastmile_qr_scan", "android": "https://dc.lft.to/lastmile_qr_scan"}}, {"name": "a0ff1fccfdfa56ca234e473cb88ed271", "fusion_lat": 0.0, "type": "electric_scooter", "lat": 38.89089716666667, "is_reserved": 0, "is_disabled": 0, "fusion_lon": 0.0, "bike_id": "a0ff1fccfdfa56ca234e473cb88ed271", "lon": -76.98728233333334, "rental_uris": {"ios": "https://dc.lft.to/lastmile_qr_scan", "android": "https://dc.lft.to/lastmile_qr_scan"}}, {"name": "a24c94c9c9d8fb8f8a643a8b4ae30d61", "fusion_lat": 0.0, "type": "electric_scooter", "lat": 38.90470116666667, "is_reserved": 0, "is_disabled": 0, "fusion_lon": 0.0, "bike_id": "a24c94c9c9d8fb8f8a643a8b4ae30d61", "lon": -77.03545866666667, "rental_uris": {"ios": "https://dc.lft.to/lastmile_qr_scan", "android": "https://dc.lft.to/lastmile_qr_scan"}}, {"name": "b73b0bb603d5273fb719365d24019434", "fusion_lat": 0.0, "type": "electric_scooter", "lat": 38.9169235, "is_reserved": 0, "is_disabled": 0, "fusion_lon": 0.0, "bike_id": "b73b0bb603d5273fb719365d24019434", "lon": -77.0245935, "rental_uris": {"ios": "https://dc.lft.to/lastmile_qr_scan", "android": "https://dc.lft.to/lastmile_qr_scan"}}, {"name": "92defa1afae33d3925887f27fcc624bf", "fusion_lat": 0.0, "type": "electric_scooter", "lat": 38.90286416666667, "is_reserved": 0, "is_disabled": 0, "fusion_lon": 0.0, "bike_id": "92defa1afae33d3925887f27fcc624bf", "lon": -77.0366535, "rental_uris": {"ios": "https://dc.lft.to/lastmile_qr_scan", "android": "https://dc.lft.to/lastmile_qr_scan"}}, {"name": "2652ec5342f5f1bc9ad836d9e9cc2031", "fusion_lat": 0.0, "type": "electric_scooter", "lat": 38.90536216666667, "is_reserved": 0, "is_disabled": 0, "fusion_lon": 0.0, "bike_id": "2652ec5342f5f1bc9ad836d9e9cc2031", "lon": -77.044401, "rental_uris": {"ios": "https://dc.lft.to/lastmile_qr_scan", "android": "https://dc.lft.to/lastmile_qr_scan"}}, {"name": "155dc5ed18fd7231b0978b03b1d46080", "fusion_lat": 0.0, "type": "electric_scooter", "lat": 38.92686616666667, "is_reserved": 0, "is_disabled": 0, "fusion_lon": 0.0, "bike_id": "155dc5ed18fd7231b0978b03b1d46080", "lon": -77.03773466666667, "rental_uris": {"ios": "https://dc.lft.to/lastmile_qr_scan", "android": "https://dc.lft.to/lastmile_qr_scan"}}, {"name": "eb8d9fa401ef65db84f227351f94eb2f", "fusion_lat": 0.0, "type": "electric_scooter", "lat": 38.86219233333333, "is_reserved": 0, "is_disabled": 0, "fusion_lon": 0.0, "bike_id": "eb8d9fa401ef65db84f227351f94eb2f", "lon": -76.99494016666667, "rental_uris": {"ios": "https://dc.lft.to/lastmile_qr_scan", "android": "https://dc.lft.to/lastmile_qr_scan"}}, {"name": "bafe7ee4e4ee9910056d671175b7c720", "fusion_lat": 0.0, "type": "electric_scooter", "lat": 38.915628, "is_reserved": 0, "is_disabled": 0, "fusion_lon": 0.0, "bike_id": "bafe7ee4e4ee9910056d671175b7c720", "lon": -77.03955916666666, "rental_uris": {"ios": "https://dc.lft.to/lastmile_qr_scan", "android": "https://dc.lft.to/lastmile_qr_scan"}}, {"name": "732199258004af24e504c2804de26d15", "fusion_lat": 0.0, "type": "electric_scooter", "lat": 38.8962285, "is_reserved": 0, "is_disabled": 0, "fusion_lon": 0.0, "bike_id": "732199258004af24e504c2804de26d15", "lon": -76.99841266666667, "rental_uris": {"ios": "https://dc.lft.to/lastmile_qr_scan", "android": "https://dc.lft.to/lastmile_qr_scan"}}, {"name": "ca4f4ea0733a3386133d623611bed110", "fusion_lat": 0.0, "type": "electric_bike", "lat": 38.870975333333334, "is_reserved": 0, "is_disabled": 0, "fusion_lon": 0.0, "bike_id": "ca4f4ea0733a3386133d623611bed110", "lon": -77.01209816666666, "rental_uris": {"ios": "https://dc.lft.to/lastmile_qr_scan", "android": "https://dc.lft.to/lastmile_qr_scan"}}, {"name": "6fe41b0bd6ac40c219f2e07ac1322421", "fusion_lat": 0.0, "type": "electric_scooter", "lat": 38.932562833333336, "is_reserved": 0, "is_disabled": 0, "fusion_lon": 0.0, "bike_id": "6fe41b0bd6ac40c219f2e07ac1322421", "lon": -77.040003, "rental_uris": {"ios": "https://dc.lft.to/lastmile_qr_scan", "android": "https://dc.lft.to/lastmile_qr_scan"}}, {"name": "5826887c01e2ce1aefbaad33c590ffb7", "fusion_lat": 0.0, "type": "electric_scooter", "lat": 38.90649783333333, "is_reserved": 0, "is_disabled": 0, "fusion_lon": 0.0, "bike_id": "5826887c01e2ce1aefbaad33c590ffb7", "lon": -77.0250085, "rental_uris": {"ios": "https://dc.lft.to/lastmile_qr_scan", "android": "https://dc.lft.to/lastmile_qr_scan"}}, {"name": "8c9a3adf6c592e31b644eed38e4e37e1", "fusion_lat": 0.0, "type": "electric_bike", "lat": 38.802221833333334, "is_reserved": 0, "is_disabled": 0, "fusion_lon": 0.0, "bike_id": "8c9a3adf6c592e31b644eed38e4e37e1", "lon": -77.07912333333333, "rental_uris": {"ios": "https://dc.lft.to/lastmile_qr_scan", "android": "https://dc.lft.to/lastmile_qr_scan"}}, {"name": "decc163ceb9377c4b41cdd06a6823334", "fusion_lat": 0.0, "type": "electric_scooter", "lat": 38.9033735, "is_reserved": 0, "is_disabled": 0, "fusion_lon": 0.0, "bike_id": "decc163ceb9377c4b41cdd06a6823334", "lon": -76.99848833333333, "rental_uris": {"ios": "https://dc.lft.to/lastmile_qr_scan", "android": "https://dc.lft.to/lastmile_qr_scan"}}, {"name": "b24481770efc99937db9aba1fcb34873", "fusion_lat": 0.0, "type": "electric_scooter", "lat": 38.879221333333334, "is_reserved": 0, "is_disabled": 0, "fusion_lon": 0.0, "bike_id": "b24481770efc99937db9aba1fcb34873", "lon": -77.0170355, "rental_uris": {"ios": "https://dc.lft.to/lastmile_qr_scan", "android": "https://dc.lft.to/lastmile_qr_scan"}}, {"name": "a5b65e8f483cf1e5d8a5e3f017c231b9", "fusion_lat": 0.0, "type": "electric_bike", "lat": 38.906863333333334, "is_reserved": 0, "is_disabled": 0, "fusion_lon": 0.0, "bike_id": "a5b65e8f483cf1e5d8a5e3f017c231b9", "lon": -76.95188783333333, "rental_uris": {"ios": "https://dc.lft.to/lastmile_qr_scan", "android": "https://dc.lft.to/lastmile_qr_scan"}}, {"name": "163ffdc3ddec0ef8ad81524ad84b3af4", "fusion_lat": 0.0, "type": "electric_scooter", "lat": 38.9388905, "is_reserved": 0, "is_disabled": 0, "fusion_lon": 0.0, "bike_id": "163ffdc3ddec0ef8ad81524ad84b3af4", "lon": -77.0247655, "rental_uris": {"ios": "https://dc.lft.to/lastmile_qr_scan", "android": "https://dc.lft.to/lastmile_qr_scan"}}, {"name": "33ce7f92ff71bef923baa552b3a2aab2", "fusion_lat": 0.0, "type": "electric_scooter", "lat": 38.895129, "is_reserved": 0, "is_disabled": 0, "fusion_lon": 0.0, "bike_id": "33ce7f92ff71bef923baa552b3a2aab2", "lon": -77.0429, "rental_uris": {"ios": "https://dc.lft.to/lastmile_qr_scan", "android": "https://dc.lft.to/lastmile_qr_scan"}}, {"name": "b4516e0c8771a1f6fcd657b5dd901872", "fusion_lat": 0.0, "type": "electric_scooter", "lat": 38.902287666666666, "is_reserved": 0, "is_disabled": 0, "fusion_lon": 0.0, "bike_id": "b4516e0c8771a1f6fcd657b5dd901872", "lon": -77.04382983333333, "rental_uris": {"ios": "https://dc.lft.to/lastmile_qr_scan", "android": "https://dc.lft.to/lastmile_qr_scan"}}, {"name": "01e0a8d95bdf534e4d4b2cc1c4a1a259", "fusion_lat": 0.0, "type": "electric_scooter", "lat": 38.934185166666666, "is_reserved": 0, "is_disabled": 0, "fusion_lon": 0.0, "bike_id": "01e0a8d95bdf534e4d4b2cc1c4a1a259", "lon": -77.0726585, "rental_uris": {"ios": "https://dc.lft.to/lastmile_qr_scan", "android": "https://dc.lft.to/lastmile_qr_scan"}}, {"name": "d4e23db5bd126d2d30e0fab550f76b23", "fusion_lat": 0.0, "type": "electric_scooter", "lat": 38.89224566666667, "is_reserved": 0, "is_disabled": 0, "fusion_lon": 0.0, "bike_id": "d4e23db5bd126d2d30e0fab550f76b23", "lon": -77.0309165, "rental_uris": {"ios": "https://dc.lft.to/lastmile_qr_scan", "android": "https://dc.lft.to/lastmile_qr_scan"}}, {"name": "8f595a6492f916648a3bd70f999ce730", "fusion_lat": 0.0, "type": "electric_scooter", "lat": 38.89934, "is_reserved": 0, "is_disabled": 0, "fusion_lon": 0.0, "bike_id": "8f595a6492f916648a3bd70f999ce730", "lon": -77.031392, "rental_uris": {"ios": "https://dc.lft.to/lastmile_qr_scan", "android": "https://dc.lft.to/lastmile_qr_scan"}}, {"name": "a3a0455d39e658d4b9c65bb16984f063", "fusion_lat": 0.0, "type": "electric_scooter", "lat": 38.897208, "is_reserved": 0, "is_disabled": 0, "fusion_lon": 0.0, "bike_id": "a3a0455d39e658d4b9c65bb16984f063", "lon": -77.03083166666667, "rental_uris": {"ios": "https://dc.lft.to/lastmile_qr_scan", "android": "https://dc.lft.to/lastmile_qr_scan"}}, {"name": "1c59241dd5f05bb7f8f4a9b6f60fe193", "fusion_lat": 0.0, "type": "electric_scooter", "lat": 38.944526833333335, "is_reserved": 0, "is_disabled": 0, "fusion_lon": 0.0, "bike_id": "1c59241dd5f05bb7f8f4a9b6f60fe193", "lon": -77.06340516666667, "rental_uris": {"ios": "https://dc.lft.to/lastmile_qr_scan", "android": "https://dc.lft.to/lastmile_qr_scan"}}, {"name": "f4d80570657995a05ac6447d8c69eb7b", "fusion_lat": 0.0, "type": "electric_scooter", "lat": 38.906787, "is_reserved": 0, "is_disabled": 0, "fusion_lon": 0.0, "bike_id": "f4d80570657995a05ac6447d8c69eb7b", "lon": -77.0108555, "rental_uris": {"ios": "https://dc.lft.to/lastmile_qr_scan", "android": "https://dc.lft.to/lastmile_qr_scan"}}, {"name": "4bc482c269b136ae24e5b503f00cc42f", "fusion_lat": 0.0, "type": "electric_scooter", "lat": 38.912479, "is_reserved": 0, "is_disabled": 0, "fusion_lon": 0.0, "bike_id": "4bc482c269b136ae24e5b503f00cc42f", "lon": -77.03840016666666, "rental_uris": {"ios": "https://dc.lft.to/lastmile_qr_scan", "android": "https://dc.lft.to/lastmile_qr_scan"}}, {"name": "4f6d56ce0c11a307f2d02839ed97bd46", "fusion_lat": 0.0, "type": "electric_scooter", "lat": 38.90393066666667, "is_reserved": 0, "is_disabled": 0, "fusion_lon": 0.0, "bike_id": "4f6d56ce0c11a307f2d02839ed97bd46", "lon": -77.01095316666667, "rental_uris": {"ios": "https://dc.lft.to/lastmile_qr_scan", "android": "https://dc.lft.to/lastmile_qr_scan"}}, {"name": "a0cbece1e4e2163d6b824e0753ceb265", "fusion_lat": 0.0, "type": "electric_scooter", "lat": 38.9075285, "is_reserved": 0, "is_disabled": 0, "fusion_lon": 0.0, "bike_id": "a0cbece1e4e2163d6b824e0753ceb265", "lon": -77.03195333333333, "rental_uris": {"ios": "https://dc.lft.to/lastmile_qr_scan", "android": "https://dc.lft.to/lastmile_qr_scan"}}, {"name": "956bd2e9f79ac064854da624ce3495a3", "fusion_lat": 0.0, "type": "electric_bike", "lat": 38.87551833333333, "is_reserved": 0, "is_disabled": 0, "fusion_lon": 0.0, "bike_id": "956bd2e9f79ac064854da624ce3495a3", "lon": -76.96752716666667, "rental_uris": {"ios": "https://dc.lft.to/lastmile_qr_scan", "android": "https://dc.lft.to/lastmile_qr_scan"}}, {"name": "b9d563a159a99b7cc1b846980bc9b245", "fusion_lat": 0.0, "type": "electric_scooter", "lat": 38.92517766666667, "is_reserved": 0, "is_disabled": 0, "fusion_lon": 0.0, "bike_id": "b9d563a159a99b7cc1b846980bc9b245", "lon": -77.00213366666667, "rental_uris": {"ios": "https://dc.lft.to/lastmile_qr_scan", "android": "https://dc.lft.to/lastmile_qr_scan"}}, {"name": "f0692b69c0706167bb2ea43782e43fad", "fusion_lat": 0.0, "type": "electric_scooter", "lat": 38.900386, "is_reserved": 0, "is_disabled": 0, "fusion_lon": 0.0, "bike_id": "f0692b69c0706167bb2ea43782e43fad", "lon": -77.00633833333333, "rental_uris": {"ios": "https://dc.lft.to/lastmile_qr_scan", "android": "https://dc.lft.to/lastmile_qr_scan"}}, {"name": "4ae6e61595546898569822496d725fc4", "fusion_lat": 0.0, "type": "electric_scooter", "lat": 38.90738066666667, "is_reserved": 0, "is_disabled": 0, "fusion_lon": 0.0, "bike_id": "4ae6e61595546898569822496d725fc4", "lon": -77.04672333333333, "rental_uris": {"ios": "https://dc.lft.to/lastmile_qr_scan", "android": "https://dc.lft.to/lastmile_qr_scan"}}, {"name": "6ac21ce089a61d21dfa4c1a892a22018", "fusion_lat": 0.0, "type": "electric_scooter", "lat": 38.90249033333333, "is_reserved": 0, "is_disabled": 0, "fusion_lon": 0.0, "bike_id": "6ac21ce089a61d21dfa4c1a892a22018", "lon": -77.04628366666667, "rental_uris": {"ios": "https://dc.lft.to/lastmile_qr_scan", "android": "https://dc.lft.to/lastmile_qr_scan"}}, {"name": "84d5e432034cfcb17b43c1b0391849b5", "fusion_lat": 0.0, "type": "electric_scooter", "lat": 38.90157216666667, "is_reserved": 0, "is_disabled": 0, "fusion_lon": 0.0, "bike_id": "84d5e432034cfcb17b43c1b0391849b5", "lon": -77.0228985, "rental_uris": {"ios": "https://dc.lft.to/lastmile_qr_scan", "android": "https://dc.lft.to/lastmile_qr_scan"}}, {"name": "5f3d97858213acfbf0d36235bdcff3fd", "fusion_lat": 0.0, "type": "electric_scooter", "lat": 38.94277133333333, "is_reserved": 0, "is_disabled": 0, "fusion_lon": 0.0, "bike_id": "5f3d97858213acfbf0d36235bdcff3fd", "lon": -77.02501283333334, "rental_uris": {"ios": "https://dc.lft.to/lastmile_qr_scan", "android": "https://dc.lft.to/lastmile_qr_scan"}}, {"name": "369025d317a2901ee6dca5fea0d8c569", "fusion_lat": 0.0, "type": "electric_scooter", "lat": 38.892386, "is_reserved": 0, "is_disabled": 0, "fusion_lon": 0.0, "bike_id": "369025d317a2901ee6dca5fea0d8c569", "lon": -77.0338015, "rental_uris": {"ios": "https://dc.lft.to/lastmile_qr_scan", "android": "https://dc.lft.to/lastmile_qr_scan"}}, {"name": "37988fc02dd510cf75d04d78c200ee8b", "fusion_lat": 0.0, "type": "electric_scooter", "lat": 38.905483, "is_reserved": 0, "is_disabled": 0, "fusion_lon": 0.0, "bike_id": "37988fc02dd510cf75d04d78c200ee8b", "lon": -77.0454805, "rental_uris": {"ios": "https://dc.lft.to/lastmile_qr_scan", "android": "https://dc.lft.to/lastmile_qr_scan"}}, {"name": "a5fac3a78dd9beda42f4d88fded1ec27", "fusion_lat": 0.0, "type": "electric_scooter", "lat": 38.907414333333335, "is_reserved": 0, "is_disabled": 0, "fusion_lon": 0.0, "bike_id": "a5fac3a78dd9beda42f4d88fded1ec27", "lon": -77.02693783333333, "rental_uris": {"ios": "https://dc.lft.to/lastmile_qr_scan", "android": "https://dc.lft.to/lastmile_qr_scan"}}, {"name": "cac9ac317c4a8a8ae9173188d4f3b66f", "fusion_lat": 0.0, "type": "electric_scooter", "lat": 38.91021416666667, "is_reserved": 0, "is_disabled": 0, "fusion_lon": 0.0, "bike_id": "cac9ac317c4a8a8ae9173188d4f3b66f", "lon": -77.0486515, "rental_uris": {"ios": "https://dc.lft.to/lastmile_qr_scan", "android": "https://dc.lft.to/lastmile_qr_scan"}}, {"name": "638d8199c2d2355dfc22ac3bc694bab8", "fusion_lat": 0.0, "type": "electric_bike", "lat": 38.839362, "is_reserved": 0, "is_disabled": 0, "fusion_lon": 0.0, "bike_id": "638d8199c2d2355dfc22ac3bc694bab8", "lon": -77.07900816666667, "rental_uris": {"ios": "https://dc.lft.to/lastmile_qr_scan", "android": "https://dc.lft.to/lastmile_qr_scan"}}, {"name": "b67fe96dbb8bb083cf4df2b2dc15b899", "fusion_lat": 0.0, "type": "electric_scooter", "lat": 38.921799, "is_reserved": 0, "is_disabled": 0, "fusion_lon": 0.0, "bike_id": "b67fe96dbb8bb083cf4df2b2dc15b899", "lon": -77.0428285, "rental_uris": {"ios": "https://dc.lft.to/lastmile_qr_scan", "android": "https://dc.lft.to/lastmile_qr_scan"}}, {"name": "5998b21ab4e20042a8f8bb43af356431", "fusion_lat": 0.0, "type": "electric_scooter", "lat": 38.92309383333333, "is_reserved": 0, "is_disabled": 0, "fusion_lon": 0.0, "bike_id": "5998b21ab4e20042a8f8bb43af356431", "lon": -77.036594, "rental_uris": {"ios": "https://dc.lft.to/lastmile_qr_scan", "android": "https://dc.lft.to/lastmile_qr_scan"}}, {"name": "a9455ba853d899eeb1ec7cdf9215cb1a", "fusion_lat": 0.0, "type": "electric_scooter", "lat": 38.933180166666666, "is_reserved": 0, "is_disabled": 0, "fusion_lon": 0.0, "bike_id": "a9455ba853d899eeb1ec7cdf9215cb1a", "lon": -77.03447483333333, "rental_uris": {"ios": "https://dc.lft.to/lastmile_qr_scan", "android": "https://dc.lft.to/lastmile_qr_scan"}}, {"name": "1827160fcede2402bd1779fed10868d9", "fusion_lat": 0.0, "type": "electric_scooter", "lat": 38.9495915, "is_reserved": 0, "is_disabled": 0, "fusion_lon": 0.0, "bike_id": "1827160fcede2402bd1779fed10868d9", "lon": -77.02722316666667, "rental_uris": {"ios": "https://dc.lft.to/lastmile_qr_scan", "android": "https://dc.lft.to/lastmile_qr_scan"}}, {"name": "cc1c8ab6d4068c47e0af704d1fc0d2ac", "fusion_lat": 0.0, "type": "electric_scooter", "lat": 38.897706, "is_reserved": 0, "is_disabled": 0, "fusion_lon": 0.0, "bike_id": "cc1c8ab6d4068c47e0af704d1fc0d2ac", "lon": -77.03190983333333, "rental_uris": {"ios": "https://dc.lft.to/lastmile_qr_scan", "android": "https://dc.lft.to/lastmile_qr_scan"}}, {"name": "3179451cd167c22bcaeb4466c975859a", "fusion_lat": 0.0, "type": "electric_scooter", "lat": 38.905202, "is_reserved": 0, "is_disabled": 0, "fusion_lon": 0.0, "bike_id": "3179451cd167c22bcaeb4466c975859a", "lon": -77.04158666666666, "rental_uris": {"ios": "https://dc.lft.to/lastmile_qr_scan", "android": "https://dc.lft.to/lastmile_qr_scan"}}, {"name": "418bde0511b4e709feca116d33d11b38", "fusion_lat": 0.0, "type": "electric_scooter", "lat": 38.924262, "is_reserved": 0, "is_disabled": 0, "fusion_lon": 0.0, "bike_id": "418bde0511b4e709feca116d33d11b38", "lon": -77.0413335, "rental_uris": {"ios": "https://dc.lft.to/lastmile_qr_scan", "android": "https://dc.lft.to/lastmile_qr_scan"}}, {"name": "fd30ce32aa8350212d6352021eaaec60", "fusion_lat": 0.0, "type": "electric_scooter", "lat": 38.87014666666666, "is_reserved": 0, "is_disabled": 0, "fusion_lon": 0.0, "bike_id": "fd30ce32aa8350212d6352021eaaec60", "lon": -77.0122725, "rental_uris": {"ios": "https://dc.lft.to/lastmile_qr_scan", "android": "https://dc.lft.to/lastmile_qr_scan"}}, {"name": "65501120dbfd04c728b93dbdf8e8d9ee", "fusion_lat": 0.0, "type": "electric_bike", "lat": 38.96507883333334, "is_reserved": 0, "is_disabled": 0, "fusion_lon": 0.0, "bike_id": "65501120dbfd04c728b93dbdf8e8d9ee", "lon": -77.10334383333333, "rental_uris": {"ios": "https://dc.lft.to/lastmile_qr_scan", "android": "https://dc.lft.to/lastmile_qr_scan"}}, {"name": "88d5e238618f2ee1d349e72f229d152c", "fusion_lat": 0.0, "type": "electric_scooter", "lat": 38.9003335, "is_reserved": 0, "is_disabled": 0, "fusion_lon": 0.0, "bike_id": "88d5e238618f2ee1d349e72f229d152c", "lon": -77.0020955, "rental_uris": {"ios": "https://dc.lft.to/lastmile_qr_scan", "android": "https://dc.lft.to/lastmile_qr_scan"}}, {"name": "b8a5dd60df575720aa208687f5f66e3b", "fusion_lat": 0.0, "type": "electric_bike", "lat": 38.965476833333334, "is_reserved": 0, "is_disabled": 0, "fusion_lon": 0.0, "bike_id": "b8a5dd60df575720aa208687f5f66e3b", "lon": -77.035147, "rental_uris": {"ios": "https://dc.lft.to/lastmile_qr_scan", "android": "https://dc.lft.to/lastmile_qr_scan"}}, {"name": "f2cf5f768953ab25f79a08f6ed403dc2", "fusion_lat": 0.0, "type": "electric_scooter", "lat": 38.9032075, "is_reserved": 0, "is_disabled": 0, "fusion_lon": 0.0, "bike_id": "f2cf5f768953ab25f79a08f6ed403dc2", "lon": -77.03223666666666, "rental_uris": {"ios": "https://dc.lft.to/lastmile_qr_scan", "android": "https://dc.lft.to/lastmile_qr_scan"}}, {"name": "4ba9151527b5c8ada514227e0e31549d", "fusion_lat": 0.0, "type": "electric_bike", "lat": 38.820500833333334, "is_reserved": 0, "is_disabled": 0, "fusion_lon": 0.0, "bike_id": "4ba9151527b5c8ada514227e0e31549d", "lon": -77.05309466666667, "rental_uris": {"ios": "https://dc.lft.to/lastmile_qr_scan", "android": "https://dc.lft.to/lastmile_qr_scan"}}, {"name": "24efe30c1c7f63e3b229ebe2833412d3", "fusion_lat": 0.0, "type": "electric_scooter", "lat": 38.932792666666664, "is_reserved": 0, "is_disabled": 0, "fusion_lon": 0.0, "bike_id": "24efe30c1c7f63e3b229ebe2833412d3", "lon": -77.0350235, "rental_uris": {"ios": "https://dc.lft.to/lastmile_qr_scan", "android": "https://dc.lft.to/lastmile_qr_scan"}}, {"name": "e3a83b3d525a2d515c68b7d91baa13d0", "fusion_lat": 0.0, "type": "electric_scooter", "lat": 38.93075183333333, "is_reserved": 0, "is_disabled": 0, "fusion_lon": 0.0, "bike_id": "e3a83b3d525a2d515c68b7d91baa13d0", "lon": -77.03393766666667, "rental_uris": {"ios": "https://dc.lft.to/lastmile_qr_scan", "android": "https://dc.lft.to/lastmile_qr_scan"}}, {"name": "3ba5db897d3adb4b43f8a2a1389bb4c3", "fusion_lat": 0.0, "type": "electric_scooter", "lat": 38.91561016666667, "is_reserved": 0, "is_disabled": 0, "fusion_lon": 0.0, "bike_id": "3ba5db897d3adb4b43f8a2a1389bb4c3", "lon": -77.02239933333334, "rental_uris": {"ios": "https://dc.lft.to/lastmile_qr_scan", "android": "https://dc.lft.to/lastmile_qr_scan"}}, {"name": "fad2113c8a3a7d8240f1e6bcc1631432", "fusion_lat": 0.0, "type": "electric_scooter", "lat": 38.900620833333335, "is_reserved": 0, "is_disabled": 0, "fusion_lon": 0.0, "bike_id": "fad2113c8a3a7d8240f1e6bcc1631432", "lon": -77.03190933333333, "rental_uris": {"ios": "https://dc.lft.to/lastmile_qr_scan", "android": "https://dc.lft.to/lastmile_qr_scan"}}, {"name": "b2ed51742d9d8da2858b5fcba19e9dc4", "fusion_lat": 0.0, "type": "electric_scooter", "lat": 38.900648, "is_reserved": 0, "is_disabled": 0, "fusion_lon": 0.0, "bike_id": "b2ed51742d9d8da2858b5fcba19e9dc4", "lon": -77.0450625, "rental_uris": {"ios": "https://dc.lft.to/lastmile_qr_scan", "android": "https://dc.lft.to/lastmile_qr_scan"}}, {"name": "d41f64081a9162e212fbec039a85eaf6", "fusion_lat": 0.0, "type": "electric_scooter", "lat": 38.865676666666666, "is_reserved": 0, "is_disabled": 0, "fusion_lon": 0.0, "bike_id": "d41f64081a9162e212fbec039a85eaf6", "lon": -76.98552416666666, "rental_uris": {"ios": "https://dc.lft.to/lastmile_qr_scan", "android": "https://dc.lft.to/lastmile_qr_scan"}}, {"name": "647a7088d9231bc6198388ea2152873c", "fusion_lat": 0.0, "type": "electric_scooter", "lat": 38.89091116666667, "is_reserved": 0, "is_disabled": 0, "fusion_lon": 0.0, "bike_id": "647a7088d9231bc6198388ea2152873c", "lon": -76.997925, "rental_uris": {"ios": "https://dc.lft.to/lastmile_qr_scan", "android": "https://dc.lft.to/lastmile_qr_scan"}}, {"name": "a52895b6e781307d074b9917ba66dbc1", "fusion_lat": 0.0, "type": "electric_scooter", "lat": 38.898799, "is_reserved": 0, "is_disabled": 0, "fusion_lon": 0.0, "bike_id": "a52895b6e781307d074b9917ba66dbc1", "lon": -77.033326, "rental_uris": {"ios": "https://dc.lft.to/lastmile_qr_scan", "android": "https://dc.lft.to/lastmile_qr_scan"}}, {"name": "1fbc159e38e90d1df49e7cc4dca64cab", "fusion_lat": 0.0, "type": "electric_scooter", "lat": 38.90661583333333, "is_reserved": 0, "is_disabled": 0, "fusion_lon": 0.0, "bike_id": "1fbc159e38e90d1df49e7cc4dca64cab", "lon": -77.03865866666666, "rental_uris": {"ios": "https://dc.lft.to/lastmile_qr_scan", "android": "https://dc.lft.to/lastmile_qr_scan"}}, {"name": "0bc4018ae274a1aad7e3f088b79588f5", "fusion_lat": 0.0, "type": "electric_scooter", "lat": 38.89603566666667, "is_reserved": 0, "is_disabled": 0, "fusion_lon": 0.0, "bike_id": "0bc4018ae274a1aad7e3f088b79588f5", "lon": -77.01119116666666, "rental_uris": {"ios": "https://dc.lft.to/lastmile_qr_scan", "android": "https://dc.lft.to/lastmile_qr_scan"}}, {"name": "eb03f479be9a614606d54b11faa62b47", "fusion_lat": 0.0, "type": "electric_scooter", "lat": 38.92255766666667, "is_reserved": 0, "is_disabled": 0, "fusion_lon": 0.0, "bike_id": "eb03f479be9a614606d54b11faa62b47", "lon": -77.03472416666666, "rental_uris": {"ios": "https://dc.lft.to/lastmile_qr_scan", "android": "https://dc.lft.to/lastmile_qr_scan"}}, {"name": "77375c448e1afe28e35766c88ba5fbad", "fusion_lat": 0.0, "type": "electric_scooter", "lat": 38.92636733333333, "is_reserved": 0, "is_disabled": 0, "fusion_lon": 0.0, "bike_id": "77375c448e1afe28e35766c88ba5fbad", "lon": -77.034693, "rental_uris": {"ios": "https://dc.lft.to/lastmile_qr_scan", "android": "https://dc.lft.to/lastmile_qr_scan"}}, {"name": "4ad29e3f58a30b23d2f5172c74ce484a", "fusion_lat": 0.0, "type": "electric_scooter", "lat": 38.9297185, "is_reserved": 0, "is_disabled": 0, "fusion_lon": 0.0, "bike_id": "4ad29e3f58a30b23d2f5172c74ce484a", "lon": -77.00529583333334, "rental_uris": {"ios": "https://dc.lft.to/lastmile_qr_scan", "android": "https://dc.lft.to/lastmile_qr_scan"}}, {"name": "b0b9d20067e485648a7a8ee67e248cf5", "fusion_lat": 0.0, "type": "electric_scooter", "lat": 38.89889466666666, "is_reserved": 0, "is_disabled": 0, "fusion_lon": 0.0, "bike_id": "b0b9d20067e485648a7a8ee67e248cf5", "lon": -76.933035, "rental_uris": {"ios": "https://dc.lft.to/lastmile_qr_scan", "android": "https://dc.lft.to/lastmile_qr_scan"}}, {"name": "71e5bebe85be4023ad6988c1c70eda47", "fusion_lat": 0.0, "type": "electric_scooter", "lat": 38.90116416666667, "is_reserved": 0, "is_disabled": 0, "fusion_lon": 0.0, "bike_id": "71e5bebe85be4023ad6988c1c70eda47", "lon": -77.0501045, "rental_uris": {"ios": "https://dc.lft.to/lastmile_qr_scan", "android": "https://dc.lft.to/lastmile_qr_scan"}}, {"name": "bcc9649ad77c4e800f7b89d64263c7fe", "fusion_lat": 0.0, "type": "electric_scooter", "lat": 38.8901765, "is_reserved": 0, "is_disabled": 0, "fusion_lon": 0.0, "bike_id": "bcc9649ad77c4e800f7b89d64263c7fe", "lon": -76.93719116666666, "rental_uris": {"ios": "https://dc.lft.to/lastmile_qr_scan", "android": "https://dc.lft.to/lastmile_qr_scan"}}, {"name": "ac90d5188e8167ad850b483583724ef5", "fusion_lat": 0.0, "type": "electric_scooter", "lat": 38.9182485, "is_reserved": 0, "is_disabled": 0, "fusion_lon": 0.0, "bike_id": "ac90d5188e8167ad850b483583724ef5", "lon": -77.034496, "rental_uris": {"ios": "https://dc.lft.to/lastmile_qr_scan", "android": "https://dc.lft.to/lastmile_qr_scan"}}, {"name": "600e2e779d470191925927f28d378972", "fusion_lat": 0.0, "type": "electric_scooter", "lat": 38.90185666666667, "is_reserved": 0, "is_disabled": 0, "fusion_lon": 0.0, "bike_id": "600e2e779d470191925927f28d378972", "lon": -77.02253483333334, "rental_uris": {"ios": "https://dc.lft.to/lastmile_qr_scan", "android": "https://dc.lft.to/lastmile_qr_scan"}}, {"name": "0e506dbf4871bb1077fc8e4b86a16843", "fusion_lat": 0.0, "type": "electric_scooter", "lat": 38.9037405, "is_reserved": 0, "is_disabled": 0, "fusion_lon": 0.0, "bike_id": "0e506dbf4871bb1077fc8e4b86a16843", "lon": -77.031824, "rental_uris": {"ios": "https://dc.lft.to/lastmile_qr_scan", "android": "https://dc.lft.to/lastmile_qr_scan"}}, {"name": "3300f03efdda43c712ed69519f8d60fd", "fusion_lat": 0.0, "type": "electric_scooter", "lat": 38.888973166666666, "is_reserved": 0, "is_disabled": 0, "fusion_lon": 0.0, "bike_id": "3300f03efdda43c712ed69519f8d60fd", "lon": -77.03284483333333, "rental_uris": {"ios": "https://dc.lft.to/lastmile_qr_scan", "android": "https://dc.lft.to/lastmile_qr_scan"}}, {"name": "baa444973a39385c65843090832270d0", "fusion_lat": 0.0, "type": "electric_scooter", "lat": 38.90983, "is_reserved": 0, "is_disabled": 0, "fusion_lon": 0.0, "bike_id": "baa444973a39385c65843090832270d0", "lon": -77.06717933333333, "rental_uris": {"ios": "https://dc.lft.to/lastmile_qr_scan", "android": "https://dc.lft.to/lastmile_qr_scan"}}, {"name": "e9f289a4872af79ff220c33b4aece05c", "fusion_lat": 0.0, "type": "electric_scooter", "lat": 38.91868783333334, "is_reserved": 0, "is_disabled": 0, "fusion_lon": 0.0, "bike_id": "e9f289a4872af79ff220c33b4aece05c", "lon": -77.023161, "rental_uris": {"ios": "https://dc.lft.to/lastmile_qr_scan", "android": "https://dc.lft.to/lastmile_qr_scan"}}, {"name": "7a54b5e1ce254b35f8c6725887df314d", "fusion_lat": 0.0, "type": "electric_scooter", "lat": 38.90826233333333, "is_reserved": 0, "is_disabled": 0, "fusion_lon": 0.0, "bike_id": "7a54b5e1ce254b35f8c6725887df314d", "lon": -77.00027483333334, "rental_uris": {"ios": "https://dc.lft.to/lastmile_qr_scan", "android": "https://dc.lft.to/lastmile_qr_scan"}}, {"name": "aa6e11ed32adf03ad261b23228578cd0", "fusion_lat": 0.0, "type": "electric_scooter", "lat": 38.918306666666666, "is_reserved": 0, "is_disabled": 0, "fusion_lon": 0.0, "bike_id": "aa6e11ed32adf03ad261b23228578cd0", "lon": -77.02283616666666, "rental_uris": {"ios": "https://dc.lft.to/lastmile_qr_scan", "android": "https://dc.lft.to/lastmile_qr_scan"}}, {"name": "c424861185ab787f8f68988f0f8c0859", "fusion_lat": 0.0, "type": "electric_scooter", "lat": 38.896672833333334, "is_reserved": 0, "is_disabled": 0, "fusion_lon": 0.0, "bike_id": "c424861185ab787f8f68988f0f8c0859", "lon": -76.948487, "rental_uris": {"ios": "https://dc.lft.to/lastmile_qr_scan", "android": "https://dc.lft.to/lastmile_qr_scan"}}, {"name": "67402a92c2247b7b49cb48ec70760a0e", "fusion_lat": 0.0, "type": "electric_scooter", "lat": 38.942962666666666, "is_reserved": 0, "is_disabled": 0, "fusion_lon": 0.0, "bike_id": "67402a92c2247b7b49cb48ec70760a0e", "lon": -77.02167366666667, "rental_uris": {"ios": "https://dc.lft.to/lastmile_qr_scan", "android": "https://dc.lft.to/lastmile_qr_scan"}}, {"name": "45df9c03701a03925f3997243693e1c1", "fusion_lat": 0.0, "type": "electric_scooter", "lat": 38.90359983333333, "is_reserved": 0, "is_disabled": 0, "fusion_lon": 0.0, "bike_id": "45df9c03701a03925f3997243693e1c1", "lon": -77.04492833333333, "rental_uris": {"ios": "https://dc.lft.to/lastmile_qr_scan", "android": "https://dc.lft.to/lastmile_qr_scan"}}, {"name": "c1e1a52954c5f54b0a8bbb436b6b2871", "fusion_lat": 0.0, "type": "electric_scooter", "lat": 38.909621, "is_reserved": 0, "is_disabled": 0, "fusion_lon": 0.0, "bike_id": "c1e1a52954c5f54b0a8bbb436b6b2871", "lon": -77.03865, "rental_uris": {"ios": "https://dc.lft.to/lastmile_qr_scan", "android": "https://dc.lft.to/lastmile_qr_scan"}}, {"name": "9ce80dc4b3ed90400e4003b7a5ddd6f4", "fusion_lat": 0.0, "type": "electric_bike", "lat": 38.886394333333335, "is_reserved": 0, "is_disabled": 0, "fusion_lon": 0.0, "bike_id": "9ce80dc4b3ed90400e4003b7a5ddd6f4", "lon": -76.95465533333333, "rental_uris": {"ios": "https://dc.lft.to/lastmile_qr_scan", "android": "https://dc.lft.to/lastmile_qr_scan"}}, {"name": "349c629b94126897a12b5bd5a50c8239", "fusion_lat": 0.0, "type": "electric_scooter", "lat": 38.9068645, "is_reserved": 0, "is_disabled": 0, "fusion_lon": 0.0, "bike_id": "349c629b94126897a12b5bd5a50c8239", "lon": -77.02694566666666, "rental_uris": {"ios": "https://dc.lft.to/lastmile_qr_scan", "android": "https://dc.lft.to/lastmile_qr_scan"}}, {"name": "cf39c796345ebc3ac251e53ec55c6766", "fusion_lat": 0.0, "type": "electric_bike", "lat": 38.8983595, "is_reserved": 0, "is_disabled": 0, "fusion_lon": 0.0, "bike_id": "cf39c796345ebc3ac251e53ec55c6766", "lon": -77.11797566666667, "rental_uris": {"ios": "https://dc.lft.to/lastmile_qr_scan", "android": "https://dc.lft.to/lastmile_qr_scan"}}, {"name": "cdb69fa394a5f59749747ff4993c3eb6", "fusion_lat": 0.0, "type": "electric_scooter", "lat": 38.923834, "is_reserved": 0, "is_disabled": 0, "fusion_lon": 0.0, "bike_id": "cdb69fa394a5f59749747ff4993c3eb6", "lon": -77.0295345, "rental_uris": {"ios": "https://dc.lft.to/lastmile_qr_scan", "android": "https://dc.lft.to/lastmile_qr_scan"}}, {"name": "ac25a8d6eb04f270c698d7d6f3df904d", "fusion_lat": 0.0, "type": "electric_bike", "lat": 38.89678633333333, "is_reserved": 0, "is_disabled": 0, "fusion_lon": 0.0, "bike_id": "ac25a8d6eb04f270c698d7d6f3df904d", "lon": -76.940596, "rental_uris": {"ios": "https://dc.lft.to/lastmile_qr_scan", "android": "https://dc.lft.to/lastmile_qr_scan"}}, {"name": "d26428fdb5cb67f252784117a008c41a", "fusion_lat": 0.0, "type": "electric_scooter", "lat": 38.933695166666666, "is_reserved": 0, "is_disabled": 0, "fusion_lon": 0.0, "bike_id": "d26428fdb5cb67f252784117a008c41a", "lon": -77.057208, "rental_uris": {"ios": "https://dc.lft.to/lastmile_qr_scan", "android": "https://dc.lft.to/lastmile_qr_scan"}}, {"name": "e2bd3f3a7b41361ede918143b1f4d43b", "fusion_lat": 0.0, "type": "electric_scooter", "lat": 38.9127615, "is_reserved": 0, "is_disabled": 0, "fusion_lon": 0.0, "bike_id": "e2bd3f3a7b41361ede918143b1f4d43b", "lon": -77.0450685, "rental_uris": {"ios": "https://dc.lft.to/lastmile_qr_scan", "android": "https://dc.lft.to/lastmile_qr_scan"}}, {"name": "674ca696ba946ea04427ce086e38bf65", "fusion_lat": 0.0, "type": "electric_scooter", "lat": 38.866984333333335, "is_reserved": 0, "is_disabled": 0, "fusion_lon": 0.0, "bike_id": "674ca696ba946ea04427ce086e38bf65", "lon": -76.98713333333333, "rental_uris": {"ios": "https://dc.lft.to/lastmile_qr_scan", "android": "https://dc.lft.to/lastmile_qr_scan"}}, {"name": "3b2d0243cd5b057945745d2646a41be8", "fusion_lat": 0.0, "type": "electric_scooter", "lat": 38.90026733333333, "is_reserved": 0, "is_disabled": 0, "fusion_lon": 0.0, "bike_id": "3b2d0243cd5b057945745d2646a41be8", "lon": -76.99873583333333, "rental_uris": {"ios": "https://dc.lft.to/lastmile_qr_scan", "android": "https://dc.lft.to/lastmile_qr_scan"}}, {"name": "5653b19f870699da27623433d96d4aac", "fusion_lat": 0.0, "type": "electric_scooter", "lat": 38.921243833333335, "is_reserved": 0, "is_disabled": 0, "fusion_lon": 0.0, "bike_id": "5653b19f870699da27623433d96d4aac", "lon": -77.04574016666666, "rental_uris": {"ios": "https://dc.lft.to/lastmile_qr_scan", "android": "https://dc.lft.to/lastmile_qr_scan"}}, {"name": "0eee2a7cb6d54f6d732537f8b8a60d4f", "fusion_lat": 0.0, "type": "electric_scooter", "lat": 38.909836166666665, "is_reserved": 0, "is_disabled": 0, "fusion_lon": 0.0, "bike_id": "0eee2a7cb6d54f6d732537f8b8a60d4f", "lon": -77.04869016666666, "rental_uris": {"ios": "https://dc.lft.to/lastmile_qr_scan", "android": "https://dc.lft.to/lastmile_qr_scan"}}, {"name": "724eab057e2b6ca9cdf26bbf8d6d0369", "fusion_lat": 0.0, "type": "electric_scooter", "lat": 38.9198285, "is_reserved": 0, "is_disabled": 0, "fusion_lon": 0.0, "bike_id": "724eab057e2b6ca9cdf26bbf8d6d0369", "lon": -77.025064, "rental_uris": {"ios": "https://dc.lft.to/lastmile_qr_scan", "android": "https://dc.lft.to/lastmile_qr_scan"}}, {"name": "e9f7cbd76ceef5fb7fa4ad8f730915f1", "fusion_lat": 0.0, "type": "electric_scooter", "lat": 38.90951966666667, "is_reserved": 0, "is_disabled": 0, "fusion_lon": 0.0, "bike_id": "e9f7cbd76ceef5fb7fa4ad8f730915f1", "lon": -77.0432025, "rental_uris": {"ios": "https://dc.lft.to/lastmile_qr_scan", "android": "https://dc.lft.to/lastmile_qr_scan"}}, {"name": "52a472d6990f1f9f0960d18d00de0e3b", "fusion_lat": 0.0, "type": "electric_bike", "lat": 38.832359833333335, "is_reserved": 0, "is_disabled": 0, "fusion_lon": 0.0, "bike_id": "52a472d6990f1f9f0960d18d00de0e3b", "lon": -76.94616483333333, "rental_uris": {"ios": "https://dc.lft.to/lastmile_qr_scan", "android": "https://dc.lft.to/lastmile_qr_scan"}}, {"name": "fc724ac9d52609cd5dc98a7bbf4e7050", "fusion_lat": 0.0, "type": "electric_scooter", "lat": 38.89298683333333, "is_reserved": 0, "is_disabled": 0, "fusion_lon": 0.0, "bike_id": "fc724ac9d52609cd5dc98a7bbf4e7050", "lon": -76.9392775, "rental_uris": {"ios": "https://dc.lft.to/lastmile_qr_scan", "android": "https://dc.lft.to/lastmile_qr_scan"}}, {"name": "ad08736b712781193aa65f0d6c4f4c9f", "fusion_lat": 0.0, "type": "electric_scooter", "lat": 38.944446166666665, "is_reserved": 0, "is_disabled": 0, "fusion_lon": 0.0, "bike_id": "ad08736b712781193aa65f0d6c4f4c9f", "lon": -77.06344283333334, "rental_uris": {"ios": "https://dc.lft.to/lastmile_qr_scan", "android": "https://dc.lft.to/lastmile_qr_scan"}}, {"name": "e198c138ce319b912a93753530abafd8", "fusion_lat": 0.0, "type": "electric_scooter", "lat": 38.9396415, "is_reserved": 0, "is_disabled": 0, "fusion_lon": 0.0, "bike_id": "e198c138ce319b912a93753530abafd8", "lon": -77.02751033333334, "rental_uris": {"ios": "https://dc.lft.to/lastmile_qr_scan", "android": "https://dc.lft.to/lastmile_qr_scan"}}, {"name": "b974d54c8eb9728fa7ca7f1b540d385a", "fusion_lat": 0.0, "type": "electric_scooter", "lat": 38.89716633333333, "is_reserved": 0, "is_disabled": 0, "fusion_lon": 0.0, "bike_id": "b974d54c8eb9728fa7ca7f1b540d385a", "lon": -77.0079815, "rental_uris": {"ios": "https://dc.lft.to/lastmile_qr_scan", "android": "https://dc.lft.to/lastmile_qr_scan"}}, {"name": "d9883772a6607e4898ae8ffbcb252e48", "fusion_lat": 0.0, "type": "electric_scooter", "lat": 38.937856, "is_reserved": 0, "is_disabled": 0, "fusion_lon": 0.0, "bike_id": "d9883772a6607e4898ae8ffbcb252e48", "lon": -77.0599345, "rental_uris": {"ios": "https://dc.lft.to/lastmile_qr_scan", "android": "https://dc.lft.to/lastmile_qr_scan"}}, {"name": "54b077a9f1dc9f422df417d918a22ef2", "fusion_lat": 0.0, "type": "electric_scooter", "lat": 38.87648733333333, "is_reserved": 0, "is_disabled": 0, "fusion_lon": 0.0, "bike_id": "54b077a9f1dc9f422df417d918a22ef2", "lon": -76.965068, "rental_uris": {"ios": "https://dc.lft.to/lastmile_qr_scan", "android": "https://dc.lft.to/lastmile_qr_scan"}}, {"name": "5d089b1192a8c650119291f3ed27663e", "fusion_lat": 0.0, "type": "electric_scooter", "lat": 38.885278, "is_reserved": 0, "is_disabled": 0, "fusion_lon": 0.0, "bike_id": "5d089b1192a8c650119291f3ed27663e", "lon": -77.00575383333333, "rental_uris": {"ios": "https://dc.lft.to/lastmile_qr_scan", "android": "https://dc.lft.to/lastmile_qr_scan"}}, {"name": "1f5a0cb05eac423ebca12d5029cb3597", "fusion_lat": 0.0, "type": "electric_scooter", "lat": 38.938419, "is_reserved": 0, "is_disabled": 0, "fusion_lon": 0.0, "bike_id": "1f5a0cb05eac423ebca12d5029cb3597", "lon": -77.02488133333334, "rental_uris": {"ios": "https://dc.lft.to/lastmile_qr_scan", "android": "https://dc.lft.to/lastmile_qr_scan"}}, {"name": "3a2771363070f6393c9c014c07b463f5", "fusion_lat": 0.0, "type": "electric_scooter", "lat": 38.85799766666667, "is_reserved": 0, "is_disabled": 0, "fusion_lon": 0.0, "bike_id": "3a2771363070f6393c9c014c07b463f5", "lon": -76.986507, "rental_uris": {"ios": "https://dc.lft.to/lastmile_qr_scan", "android": "https://dc.lft.to/lastmile_qr_scan"}}, {"name": "3a0539fc6b58dbc210be43f0e5531c4e", "fusion_lat": 0.0, "type": "electric_scooter", "lat": 38.899919833333335, "is_reserved": 0, "is_disabled": 0, "fusion_lon": 0.0, "bike_id": "3a0539fc6b58dbc210be43f0e5531c4e", "lon": -77.02716833333334, "rental_uris": {"ios": "https://dc.lft.to/lastmile_qr_scan", "android": "https://dc.lft.to/lastmile_qr_scan"}}, {"name": "5745473f4e1e84438942e96f128a9fdb", "fusion_lat": 0.0, "type": "electric_scooter", "lat": 38.903813, "is_reserved": 0, "is_disabled": 0, "fusion_lon": 0.0, "bike_id": "5745473f4e1e84438942e96f128a9fdb", "lon": -77.04009633333334, "rental_uris": {"ios": "https://dc.lft.to/lastmile_qr_scan", "android": "https://dc.lft.to/lastmile_qr_scan"}}, {"name": "30e6ba003fc6e46a0decc8915b3cbbc8", "fusion_lat": 0.0, "type": "electric_scooter", "lat": 38.90682433333333, "is_reserved": 0, "is_disabled": 0, "fusion_lon": 0.0, "bike_id": "30e6ba003fc6e46a0decc8915b3cbbc8", "lon": -77.03851483333334, "rental_uris": {"ios": "https://dc.lft.to/lastmile_qr_scan", "android": "https://dc.lft.to/lastmile_qr_scan"}}, {"name": "712a3132c6807017d82d100f09acda2c", "fusion_lat": 0.0, "type": "electric_bike", "lat": 38.990599833333334, "is_reserved": 0, "is_disabled": 0, "fusion_lon": 0.0, "bike_id": "712a3132c6807017d82d100f09acda2c", "lon": -77.10028433333333, "rental_uris": {"ios": "https://dc.lft.to/lastmile_qr_scan", "android": "https://dc.lft.to/lastmile_qr_scan"}}, {"name": "8759609a7215cee866bb81a8b576c7ed", "fusion_lat": 0.0, "type": "electric_scooter", "lat": 38.929480166666664, "is_reserved": 0, "is_disabled": 0, "fusion_lon": 0.0, "bike_id": "8759609a7215cee866bb81a8b576c7ed", "lon": -77.03483533333333, "rental_uris": {"ios": "https://dc.lft.to/lastmile_qr_scan", "android": "https://dc.lft.to/lastmile_qr_scan"}}, {"name": "a12d9966eff58c09ac1b0fff5a773d69", "fusion_lat": 0.0, "type": "electric_scooter", "lat": 38.93944283333333, "is_reserved": 0, "is_disabled": 0, "fusion_lon": 0.0, "bike_id": "a12d9966eff58c09ac1b0fff5a773d69", "lon": -77.032604, "rental_uris": {"ios": "https://dc.lft.to/lastmile_qr_scan", "android": "https://dc.lft.to/lastmile_qr_scan"}}, {"name": "a7cd9585156a029fc95ced774e1b1568", "fusion_lat": 0.0, "type": "electric_scooter", "lat": 38.91114483333333, "is_reserved": 0, "is_disabled": 0, "fusion_lon": 0.0, "bike_id": "a7cd9585156a029fc95ced774e1b1568", "lon": -77.03714216666667, "rental_uris": {"ios": "https://dc.lft.to/lastmile_qr_scan", "android": "https://dc.lft.to/lastmile_qr_scan"}}, {"name": "b7f2cc437b4d4c5aad794697975a76dd", "fusion_lat": 0.0, "type": "electric_scooter", "lat": 38.902488166666664, "is_reserved": 0, "is_disabled": 0, "fusion_lon": 0.0, "bike_id": "b7f2cc437b4d4c5aad794697975a76dd", "lon": -77.04358516666667, "rental_uris": {"ios": "https://dc.lft.to/lastmile_qr_scan", "android": "https://dc.lft.to/lastmile_qr_scan"}}, {"name": "cd35d9ccfe712f4553eeb73ac2fe6d11", "fusion_lat": 0.0, "type": "electric_scooter", "lat": 38.922141333333336, "is_reserved": 0, "is_disabled": 0, "fusion_lon": 0.0, "bike_id": "cd35d9ccfe712f4553eeb73ac2fe6d11", "lon": -77.04249816666666, "rental_uris": {"ios": "https://dc.lft.to/lastmile_qr_scan", "android": "https://dc.lft.to/lastmile_qr_scan"}}, {"name": "edcb8db771f96485122ba0a55b3f4d56", "fusion_lat": 0.0, "type": "electric_scooter", "lat": 38.884950333333336, "is_reserved": 0, "is_disabled": 0, "fusion_lon": 0.0, "bike_id": "edcb8db771f96485122ba0a55b3f4d56", "lon": -77.02085266666667, "rental_uris": {"ios": "https://dc.lft.to/lastmile_qr_scan", "android": "https://dc.lft.to/lastmile_qr_scan"}}, {"name": "a248a7b26550b7973f0394b66779dc52", "fusion_lat": 0.0, "type": "electric_scooter", "lat": 38.92002, "is_reserved": 0, "is_disabled": 0, "fusion_lon": 0.0, "bike_id": "a248a7b26550b7973f0394b66779dc52", "lon": -77.0321215, "rental_uris": {"ios": "https://dc.lft.to/lastmile_qr_scan", "android": "https://dc.lft.to/lastmile_qr_scan"}}, {"name": "ccdc0eae86a521223560f590d54c87ed", "fusion_lat": 0.0, "type": "electric_scooter", "lat": 38.924361833333336, "is_reserved": 0, "is_disabled": 0, "fusion_lon": 0.0, "bike_id": "ccdc0eae86a521223560f590d54c87ed", "lon": -77.05214616666666, "rental_uris": {"ios": "https://dc.lft.to/lastmile_qr_scan", "android": "https://dc.lft.to/lastmile_qr_scan"}}, {"name": "2f148770ecd1a67a9cb8cd83c1378f0b", "fusion_lat": 0.0, "type": "electric_scooter", "lat": 38.86658116666667, "is_reserved": 0, "is_disabled": 0, "fusion_lon": 0.0, "bike_id": "2f148770ecd1a67a9cb8cd83c1378f0b", "lon": -76.98886383333334, "rental_uris": {"ios": "https://dc.lft.to/lastmile_qr_scan", "android": "https://dc.lft.to/lastmile_qr_scan"}}, {"name": "e2d8fbf84c6881cd4940eeb6a738fc1a", "fusion_lat": 0.0, "type": "electric_scooter", "lat": 38.89428816666667, "is_reserved": 0, "is_disabled": 0, "fusion_lon": 0.0, "bike_id": "e2d8fbf84c6881cd4940eeb6a738fc1a", "lon": -77.046573, "rental_uris": {"ios": "https://dc.lft.to/lastmile_qr_scan", "android": "https://dc.lft.to/lastmile_qr_scan"}},