{"data": {"bikes": [{"lon": -77.01256566666666, "is_disabled": 0, "lat": 38.90852916666667, "fusion_lat": 0.0, "is_reserved": 0, "rental_uris": {"ios": "https://dc.lft.to/lastmile_qr_scan", "android": "https://dc.lft.to/lastmile_qr_scan"}, "fusion_lon": 0.0, "type": "electric_scooter", "bike_id": "a2773935c225882262323ecc5606ce57", "name": "a2773935c225882262323ecc5606ce57"}, {"lon": -77.043838, "is_disabled": 0, "lat": 38.92110266666667, "fusion_lat": 0.0, "is_reserved": 0, "rental_uris": {"ios": "https://dc.lft.to/lastmile_qr_scan", "android": "https://dc.lft.to/lastmile_qr_scan"}, "fusion_lon": 0.0, "type": "electric_scooter", "bike_id": "b3bd550f6b363d0aad52a158e732be80", "name": "b3bd550f6b363d0aad52a158e732be80"}, {"lon": -76.97630066666666, "is_disabled": 0, "lat": 38.9015955, "fusion_lat": 0.0, "is_reserved": 0, "rental_uris": {"ios": "https://dc.lft.to/lastmile_qr_scan", "android": "https://dc.lft.to/lastmile_qr_scan"}, "fusion_lon": 0.0, "type": "electric_scooter", "bike_id": "b786b34071b75f0eff24be2fa0f054b7", "name": "b786b34071b75f0eff24be2fa0f054b7"}, {"lon": -77.02483033333333, "is_disabled": 0, "lat": 38.938804166666664, "fusion_lat": 0.0, "is_reserved": 0, "rental_uris": {"ios": "https://dc.lft.to/lastmile_qr_scan", "android": "https://dc.lft.to/lastmile_qr_scan"}, "fusion_lon": 0.0, "type": "electric_scooter", "bike_id": "4d76aa248a8ccd19f29e40ef9e9648c3", "name": "4d76aa248a8ccd19f29e40ef9e9648c3"}, {"lon": -77.01759033333333, "is_disabled": 0, "lat": 38.877203333333334, "fusion_lat": 0.0, "is_reserved": 0, "rental_uris": {"ios": "https://dc.lft.to/lastmile_qr_scan", "android": "https://dc.lft.to/lastmile_qr_scan"}, "fusion_lon": 0.0, "type": "electric_scooter", "bike_id": "48e26c96053b2e9257b5cae3e7ebd22f", "name": "48e26c96053b2e9257b5cae3e7ebd22f"}, {"lon": -76.9797475, "is_disabled": 0, "lat": 38.95373816666667, "fusion_lat": 0.0, "is_reserved": 0, "rental_uris": {"ios": "https://dc.lft.to/lastmile_qr_scan", "android": "https://dc.lft.to/lastmile_qr_scan"}, "fusion_lon": 0.0, "type": "electric_bike", "bike_id": "4a2e51d2bc2eed842d7207270157fc4a", "name": "4a2e51d2bc2eed842d7207270157fc4a"}, {"lon": -77.03291233333333, "is_disabled": 0, "lat": 38.909664, "fusion_lat": 0.0, "is_reserved": 0, "rental_uris": {"ios": "https://dc.lft.to/lastmile_qr_scan", "android": "https://dc.lft.to/lastmile_qr_scan"}, "fusion_lon": 0.0, "type": "electric_scooter", "bike_id": "15dd7d47fb2850a5577b97034933cca4", "name": "15dd7d47fb2850a5577b97034933cca4"}, {"lon": -77.04102733333333, "is_disabled": 0, "lat": 38.90882633333333, "fusion_lat": 0.0, "is_reserved": 0, "rental_uris": {"ios": "https://dc.lft.to/lastmile_qr_scan", "android": "https://dc.lft.to/lastmile_qr_scan"}, "fusion_lon": 0.0, "type": "electric_scooter", "bike_id": "17e9c5e2fd821cf02cefe79af574da06", "name": "17e9c5e2fd821cf02cefe79af574da06"}, {"lon": -77.00727666666667, "is_disabled": 0, "lat": 38.88497016666667, "fusion_lat": 0.0, "is_reserved": 0, "rental_uris": {"ios": "https://dc.lft.to/lastmile_qr_scan", "android": "https://dc.lft.to/lastmile_qr_scan"}, "fusion_lon": 0.0, "type": "electric_scooter", "bike_id": "9c6978860906763aa383a9265bb00bc7", "name": "9c6978860906763aa383a9265bb00bc7"}, {"lon": -76.96905316666667, "is_disabled": 0, "lat": 38.872998833333334, "fusion_lat": 0.0, "is_reserved": 0, "rental_uris": {"ios": "https://dc.lft.to/lastmile_qr_scan", "android": "https://dc.lft.to/lastmile_qr_scan"}, "fusion_lon": 0.0, "type": "electric_scooter", "bike_id": "dd200d1c0883a277859e532112c2c7d7", "name": "dd200d1c0883a277859e532112c2c7d7"}, {"lon": -77.04404333333333, "is_disabled": 0, "lat": 38.911224, "fusion_lat": 0.0, "is_reserved": 0, "rental_uris": {"ios": "https://dc.lft.to/lastmile_qr_scan", "android": "https://dc.lft.to/lastmile_qr_scan"}, "fusion_lon": 0.0, "type": "electric_scooter", "bike_id": "8e40a4a3aa25766d4c231075b45a8da2", "name": "8e40a4a3aa25766d4c231075b45a8da2"}, {"lon": -77.01952883333334, "is_disabled": 0, "lat": 38.92253266666667, "fusion_lat": 0.0, "is_reserved": 0, "rental_uris": {"ios": "https://dc.lft.to/lastmile_qr_scan", "android": "https://dc.lft.to/lastmile_qr_scan"}, "fusion_lon": 0.0, "type": "electric_scooter", "bike_id": "e023458649c0736954addcb05c844b75", "name": "e023458649c0736954addcb05c844b75"}, {"lon": -77.0465165, "is_disabled": 0, "lat": 38.8983285, "fusion_lat": 0.0, "is_reserved": 0, "rental_uris": {"ios": "https://dc.lft.to/lastmile_qr_scan", "android": "https://dc.lft.to/lastmile_qr_scan"}, "fusion_lon": 0.0, "type": "electric_scooter", "bike_id": "697a7e0a4b7be9b9b3c1604fb165b8a7", "name": "697a7e0a4b7be9b9b3c1604fb165b8a7"}, {"lon": -77.02279233333333, "is_disabled": 0, "lat": 38.89524483333334, "fusion_lat": 0.0, "is_reserved": 0, "rental_uris": {"ios": "https://dc.lft.to/lastmile_qr_scan", "android": "https://dc.lft.to/lastmile_qr_scan"}, "fusion_lon": 0.0, "type": "electric_scooter", "bike_id": "57e3924279e2ba3e3484e0d98d903e3b", "name": "57e3924279e2ba3e3484e0d98d903e3b"}, {"lon": -77.044942, "is_disabled": 0, "lat": 38.89829833333334, "fusion_lat": 0.0, "is_reserved": 0, "rental_uris": {"ios": "https://dc.lft.to/lastmile_qr_scan", "android": "https://dc.lft.to/lastmile_qr_scan"}, "fusion_lon": 0.0, "type": "electric_scooter", "bike_id": "7977c1306311cfa822c1f4bffba429f3", "name": "7977c1306311cfa822c1f4bffba429f3"}, {"lon": -77.06158616666667, "is_disabled": 0, "lat": 38.9052465, "fusion_lat": 0.0, "is_reserved": 0, "rental_uris": {"ios": "https://dc.lft.to/lastmile_qr_scan", "android": "https://dc.lft.to/lastmile_qr_scan"}, "fusion_lon": 0.0, "type": "electric_scooter", "bike_id": "9fd058c0929951f9f0949cfbd5aec37a", "name": "9fd058c0929951f9f0949cfbd5aec37a"}, {"lon": -77.03163433333333, "is_disabled": 0, "lat": 38.887436, "fusion_lat": 0.0, "is_reserved": 0, "rental_uris": {"ios": "https://dc.lft.to/lastmile_qr_scan", "android": "https://dc.lft.to/lastmile_qr_scan"}, "fusion_lon": 0.0, "type": "electric_scooter", "bike_id": "b3766a6217a93eb87b0e9937383621db", "name": "b3766a6217a93eb87b0e9937383621db"}, {"lon": -77.022111, "is_disabled": 0, "lat": 38.896095833333334, "fusion_lat": 0.0, "is_reserved": 0, "rental_uris": {"ios": "https://dc.lft.to/lastmile_qr_scan", "android": "https://dc.lft.to/lastmile_qr_scan"}, "fusion_lon": 0.0, "type": "electric_scooter", "bike_id": "d7a8f8399e32907ad1ad972baff1e030", "name": "d7a8f8399e32907ad1ad972baff1e030"}, {"lon": -77.02230066666667, "is_disabled": 0, "lat": 38.8802725, "fusion_lat": 0.0, "is_reserved": 0, "rental_uris": {"ios": "https://dc.lft.to/lastmile_qr_scan", "android": "https://dc.lft.to/lastmile_qr_scan"}, "fusion_lon": 0.0, "type": "electric_scooter", "bike_id": "8b8dd6df56bd089ac358637bfc264368", "name": "8b8dd6df56bd089ac358637bfc264368"}, {"lon": -77.04989583333334, "is_disabled": 0, "lat": 38.8984425, "fusion_lat": 0.0, "is_reserved": 0, "rental_uris": {"ios": "https://dc.lft.to/lastmile_qr_scan", "android": "https://dc.lft.to/lastmile_qr_scan"}, "fusion_lon": 0.0, "type": "electric_scooter", "bike_id": "5ac13588d1e94d51ea4d6d48a2c06b96", "name": "5ac13588d1e94d51ea4d6d48a2c06b96"}, {"lon": -77.0353365, "is_disabled": 0, "lat": 38.9217235, "fusion_lat": 0.0, "is_reserved": 0, "rental_uris": {"ios": "https://dc.lft.to/lastmile_qr_scan", "android": "https://dc.lft.to/lastmile_qr_scan"}, "fusion_lon": 0.0, "type": "electric_scooter", "bike_id": "bc229f9cd27c7c927f77b8dc06dfc0f9", "name": "bc229f9cd27c7c927f77b8dc06dfc0f9"}, {"lon": -77.0334625, "is_disabled": 0, "lat": 38.90285383333333, "fusion_lat": 0.0, "is_reserved": 0, "rental_uris": {"ios": "https://dc.lft.to/lastmile_qr_scan", "android": "https://dc.lft.to/lastmile_qr_scan"}, "fusion_lon": 0.0, "type": "electric_scooter", "bike_id": "60d7f6a4c1bddfe77427af52c49851b2", "name": "60d7f6a4c1bddfe77427af52c49851b2"}, {"lon": -77.044829, "is_disabled": 0, "lat": 38.8951825, "fusion_lat": 0.0, "is_reserved": 0, "rental_uris": {"ios": "https://dc.lft.to/lastmile_qr_scan", "android": "https://dc.lft.to/lastmile_qr_scan"}, "fusion_lon": 0.0, "type": "electric_scooter", "bike_id": "13e8af046aa11041ddcc334e2ff10d78", "name": "13e8af046aa11041ddcc334e2ff10d78"}, {"lon": -77.020222, "is_disabled": 0, "lat": 38.895417333333334, "fusion_lat": 0.0, "is_reserved": 0, "rental_uris": {"ios": "https://dc.lft.to/lastmile_qr_scan", "android": "https://dc.lft.to/lastmile_qr_scan"}, "fusion_lon": 0.0, "type": "electric_scooter", "bike_id": "05ce1956dda680829b96d18a496554c0", "name": "05ce1956dda680829b96d18a496554c0"}, {"lon": -77.05027383333334, "is_disabled": 0, "lat": 38.8924675, "fusion_lat": 0.0, "is_reserved": 0, "rental_uris": {"ios": "https://dc.lft.to/lastmile_qr_scan", "android": "https://dc.lft.to/lastmile_qr_scan"}, "fusion_lon": 0.0, "type": "electric_scooter", "bike_id": "757956cf91673047898b7917eda04e70", "name": "757956cf91673047898b7917eda04e70"}, {"lon": -77.039843, "is_disabled": 0, "lat": 38.8922995, "fusion_lat": 0.0, "is_reserved": 0, "rental_uris": {"ios": "https://dc.lft.to/lastmile_qr_scan", "android": "https://dc.lft.to/lastmile_qr_scan"}, "fusion_lon": 0.0, "type": "electric_scooter", "bike_id": "63dc83a9717235c36f597b55b50c091b", "name": "63dc83a9717235c36f597b55b50c091b"}, {"lon": -77.003392, "is_disabled": 0, "lat": 38.89359866666667, "fusion_lat": 0.0, "is_reserved": 0, "rental_uris": {"ios": "https://dc.lft.to/lastmile_qr_scan", "android": "https://dc.lft.to/lastmile_qr_scan"}, "fusion_lon": 0.0, "type": "electric_scooter", "bike_id": "3d3be04727565120b5098041e2a92ad0", "name": "3d3be04727565120b5098041e2a92ad0"}, {"lon": -77.0238765, "is_disabled": 0, "lat": 38.906949, "fusion_lat": 0.0, "is_reserved": 0, "rental_uris": {"ios": "https://dc.lft.to/lastmile_qr_scan", "android": "https://dc.lft.to/lastmile_qr_scan"}, "fusion_lon": 0.0, "type": "electric_scooter", "bike_id": "c08ffcd2919ecdf66757d3f5c400ad3a", "name": "c08ffcd2919ecdf66757d3f5c400ad3a"}, {"lon": -77.04005116666667, "is_disabled": 0, "lat": 38.934342666666666, "fusion_lat": 0.0, "is_reserved": 0, "rental_uris": {"ios": "https://dc.lft.to/lastmile_qr_scan", "android": "https://dc.lft.to/lastmile_qr_scan"}, "fusion_lon": 0.0, "type": "electric_scooter", "bike_id": "4fe44911a2fe4e52db13819ded8fffc6", "name": "4fe44911a2fe4e52db13819ded8fffc6"}, {"lon": -77.02197966666667, "is_disabled": 0, "lat": 38.9500965, "fusion_lat": 0.0, "is_reserved": 0, "rental_uris": {"ios": "https://dc.lft.to/lastmile_qr_scan", "android": "https://dc.lft.to/lastmile_qr_scan"}, "fusion_lon": 0.0, "type": "electric_scooter", "bike_id": "d84afec199ecf50feeb9bbb0c6829462", "name": "d84afec199ecf50feeb9bbb0c6829462"}, {"lon": -77.043683, "is_disabled": 0, "lat": 38.892259, "fusion_lat": 0.0, "is_reserved": 0, "rental_uris": {"ios": "https://dc.lft.to/lastmile_qr_scan", "android": "https://dc.lft.to/lastmile_qr_scan"}, "fusion_lon": 0.0, "type": "electric_scooter", "bike_id": "f4aad6f59996259e6840393efdc46a62", "name": "f4aad6f59996259e6840393efdc46a62"}, {"lon": -76.97908566666666, "is_disabled": 0, "lat": 38.90431, "fusion_lat": 0.0, "is_reserved": 0, "rental_uris": {"ios": "https://dc.lft.to/lastmile_qr_scan", "android": "https://dc.lft.to/lastmile_qr_scan"}, "fusion_lon": 0.0, "type": "electric_scooter", "bike_id": "fcee7571f4cf015ce86f395d78da1906", "name": "fcee7571f4cf015ce86f395d78da1906"}, {"lon": -77.02106433333333, "is_disabled": 0, "lat": 38.92185216666667, "fusion_lat": 0.0, "is_reserved": 0, "rental_uris": {"ios": "https://dc.lft.to/lastmile_qr_scan", "android": "https://dc.lft.to/lastmile_qr_scan"}, "fusion_lon": 0.0, "type": "electric_scooter", "bike_id": "6e5f53f6f7e86a00bebf5e18d4c61da3", "name": "6e5f53f6f7e86a00bebf5e18d4c61da3"}, {"lon": -77.01940866666666, "is_disabled": 0, "lat": 38.89836966666667, "fusion_lat": 0.0, "is_reserved": 0, "rental_uris": {"ios": "https://dc.lft.to/lastmile_qr_scan", "android": "https://dc.lft.to/lastmile_qr_scan"}, "fusion_lon": 0.0, "type": "electric_scooter", "bike_id": "3035dfab63992b16b982ac6bc5dd65f0", "name": "3035dfab63992b16b982ac6bc5dd65f0"}, {"lon": -76.94633266666666, "is_disabled": 0, "lat": 38.89863316666667, "fusion_lat": 0.0, "is_reserved": 0, "rental_uris": {"ios": "https://dc.lft.to/lastmile_qr_scan", "android": "https://dc.lft.to/lastmile_qr_scan"}, "fusion_lon": 0.0, "type": "electric_scooter", "bike_id": "cabe04bb36f3265d2167895363e003c0", "name": "cabe04bb36f3265d2167895363e003c0"}, {"lon": -77.07059616666666, "is_disabled": 0, "lat": 38.901075666666664, "fusion_lat": 0.0, "is_reserved": 0, "rental_uris": {"ios": "https://dc.lft.to/lastmile_qr_scan", "android": "https://dc.lft.to/lastmile_qr_scan"}, "fusion_lon": 0.0, "type": "electric_scooter", "bike_id": "c6bb397b90fc0b3e4a4f04f1ec0bc2bc", "name": "c6bb397b90fc0b3e4a4f04f1ec0bc2bc"}, {"lon": -76.94046166666666, "is_disabled": 0, "lat": 38.9786255, "fusion_lat": 0.0, "is_reserved": 0, "rental_uris": {"ios": "https://dc.lft.to/lastmile_qr_scan", "android": "https://dc.lft.to/lastmile_qr_scan"}, "fusion_lon": 0.0, "type": "electric_bike", "bike_id": "a93b320d3d24958550ea3f4cec08230c", "name": "a93b320d3d24958550ea3f4cec08230c"}, {"lon": -77.045084, "is_disabled": 0, "lat": 38.90375216666666, "fusion_lat": 0.0, "is_reserved": 0, "rental_uris": {"ios": "https://dc.lft.to/lastmile_qr_scan", "android": "https://dc.lft.to/lastmile_qr_scan"}, "fusion_lon": 0.0, "type": "electric_scooter", "bike_id": "732ce57729490e9024fe626669dba5db", "name": "732ce57729490e9024fe626669dba5db"}, {"lon": -77.030875, "is_disabled": 0, "lat": 38.90265983333333, "fusion_lat": 0.0, "is_reserved": 0, "rental_uris": {"ios": "https://dc.lft.to/lastmile_qr_scan", "android": "https://dc.lft.to/lastmile_qr_scan"}, "fusion_lon": 0.0, "type": "electric_scooter", "bike_id": "1c6cae0e97c3aee070233afae1ecf151", "name": "1c6cae0e97c3aee070233afae1ecf151"}, {"lon": -77.02405783333333, "is_disabled": 0, "lat": 38.91551533333333, "fusion_lat": 0.0, "is_reserved": 0, "rental_uris": {"ios": "https://dc.lft.to/lastmile_qr_scan", "android": "https://dc.lft.to/lastmile_qr_scan"}, "fusion_lon": 0.0, "type": "electric_scooter", "bike_id": "c7f6c837b8e77cf8aa25e6485e33c583", "name": "c7f6c837b8e77cf8aa25e6485e33c583"}, {"lon": -77.029527, "is_disabled": 0, "lat": 38.934600333333336, "fusion_lat": 0.0, "is_reserved": 0, "rental_uris": {"ios": "https://dc.lft.to/lastmile_qr_scan", "android": "https://dc.lft.to/lastmile_qr_scan"}, "fusion_lon": 0.0, "type": "electric_scooter", "bike_id": "0edc4262140c99b9dde8ed12c5bcd9f5", "name": "0edc4262140c99b9dde8ed12c5bcd9f5"}, {"lon": -77.02613883333333, "is_disabled": 0, "lat": 38.88774933333333, "fusion_lat": 0.0, "is_reserved": 0, "rental_uris": {"ios": "https://dc.lft.to/lastmile_qr_scan", "android": "https://dc.lft.to/lastmile_qr_scan"}, "fusion_lon": 0.0, "type": "electric_scooter", "bike_id": "79088215718be43ca3d5767162171d8c", "name": "79088215718be43ca3d5767162171d8c"}, {"lon": -77.0334265, "is_disabled": 0, "lat": 38.900163166666665, "fusion_lat": 0.0, "is_reserved": 0, "rental_uris": {"ios": "https://dc.lft.to/lastmile_qr_scan", "android": "https://dc.lft.to/lastmile_qr_scan"}, "fusion_lon": 0.0, "type": "electric_scooter", "bike_id": "ec285cce10fe0440ca31f09d86441620", "name": "ec285cce10fe0440ca31f09d86441620"}, {"lon": -76.94638283333333, "is_disabled": 0, "lat": 38.898694166666665, "fusion_lat": 0.0, "is_reserved": 0, "rental_uris": {"ios": "https://dc.lft.to/lastmile_qr_scan", "android": "https://dc.lft.to/lastmile_qr_scan"}, "fusion_lon": 0.0, "type": "electric_scooter", "bike_id": "98d2e0e428abdabd4484c3a09cba5ddb", "name": "98d2e0e428abdabd4484c3a09cba5ddb"}, {"lon": -76.98713533333333, "is_disabled": 0, "lat": 38.867041, "fusion_lat": 0.0, "is_reserved": 0, "rental_uris": {"ios": "https://dc.lft.to/lastmile_qr_scan", "android": "https://dc.lft.to/lastmile_qr_scan"}, "fusion_lon": 0.0, "type": "electric_scooter", "bike_id": "d76afff61b879207c883d66f642c31cd", "name": "d76afff61b879207c883d66f642c31cd"}, {"lon": -76.97175849999999, "is_disabled": 0, "lat": 38.878191666666666, "fusion_lat": 0.0, "is_reserved": 0, "rental_uris": {"ios": "https://dc.lft.to/lastmile_qr_scan", "android": "https://dc.lft.to/lastmile_qr_scan"}, "fusion_lon": 0.0, "type": "electric_scooter", "bike_id": "8b140affa7473187207cef9cca701b23", "name": "8b140affa7473187207cef9cca701b23"}, {"lon": -76.9936655, "is_disabled": 0, "lat": 38.9910335, "fusion_lat": 0.0, "is_reserved": 0, "rental_uris": {"ios": "https://dc.lft.to/lastmile_qr_scan", "android": "https://dc.lft.to/lastmile_qr_scan"}, "fusion_lon": 0.0, "type": "electric_bike", "bike_id": "f3b38b450fd2ef56b54243d63c2a58bc", "name": "f3b38b450fd2ef56b54243d63c2a58bc"}, {"lon": -77.0332045, "is_disabled": 0, "lat": 38.898442, "fusion_lat": 0.0, "is_reserved": 0, "rental_uris": {"ios": "https://dc.lft.to/lastmile_qr_scan", "android": "https://dc.lft.to/lastmile_qr_scan"}, "fusion_lon": 0.0, "type": "electric_scooter", "bike_id": "2d53c6521bfaae70aa8c35761496fe2a", "name": "2d53c6521bfaae70aa8c35761496fe2a"}, {"lon": -77.04253133333333, "is_disabled": 0, "lat": 38.909867, "fusion_lat": 0.0, "is_reserved": 0, "rental_uris": {"ios": "https://dc.lft.to/lastmile_qr_scan", "android": "https://dc.lft.to/lastmile_qr_scan"}, "fusion_lon": 0.0, "type": "electric_scooter", "bike_id": "afccf153b287c3b451bd821c11799cf8", "name": "afccf153b287c3b451bd821c11799cf8"}, {"lon": -77.0320995, "is_disabled": 0, "lat": 38.901195666666666, "fusion_lat": 0.0, "is_reserved": 0, "rental_uris": {"ios": "https://dc.lft.to/lastmile_qr_scan", "android": "https://dc.lft.to/lastmile_qr_scan"}, "fusion_lon": 0.0, "type": "electric_scooter", "bike_id": "ac14c1e9dda89d6c4a6738e463650852", "name": "ac14c1e9dda89d6c4a6738e463650852"}, {"lon": -77.00728483333333, "is_disabled": 0, "lat": 38.88498716666667, "fusion_lat": 0.0, "is_reserved": 0, "rental_uris": {"ios": "https://dc.lft.to/lastmile_qr_scan", "android": "https://dc.lft.to/lastmile_qr_scan"}, "fusion_lon": 0.0, "type": "electric_scooter", "bike_id": "77f3fd63505a26ab259c1e78046403ff", "name": "77f3fd63505a26ab259c1e78046403ff"}, {"lon": -77.03793616666667, "is_disabled": 0, "lat": 38.92629, "fusion_lat": 0.0, "is_reserved": 0, "rental_uris": {"ios": "https://dc.lft.to/lastmile_qr_scan", "android": "https://dc.lft.to/lastmile_qr_scan"}, "fusion_lon": 0.0, "type": "electric_scooter", "bike_id": "46661d50011a9993567849514e9e7d2f", "name": "46661d50011a9993567849514e9e7d2f"}, {"lon": -77.0450795, "is_disabled": 0, "lat": 38.89307083333333, "fusion_lat": 0.0, "is_reserved": 0, "rental_uris": {"ios": "https://dc.lft.to/lastmile_qr_scan", "android": "https://dc.lft.to/lastmile_qr_scan"}, "fusion_lon": 0.0, "type": "electric_scooter", "bike_id": "6dd3b7b796cff778cfcb8525e60f965e", "name": "6dd3b7b796cff778cfcb8525e60f965e"}, {"lon": -77.02464833333333, "is_disabled": 0, "lat": 38.91909416666667, "fusion_lat": 0.0, "is_reserved": 0, "rental_uris": {"ios": "https://dc.lft.to/lastmile_qr_scan", "android": "https://dc.lft.to/lastmile_qr_scan"}, "fusion_lon": 0.0, "type": "electric_scooter", "bike_id": "59dee6d8beeb04a7106197cdac5bfc28", "name": "59dee6d8beeb04a7106197cdac5bfc28"}, {"lon": -77.01754666666666, "is_disabled": 0, "lat": 38.903350833333334, "fusion_lat": 0.0, "is_reserved": 0, "rental_uris": {"ios": "https://dc.lft.to/lastmile_qr_scan", "android": "https://dc.lft.to/lastmile_qr_scan"}, "fusion_lon": 0.0, "type": "electric_scooter", "bike_id": "9b6a1276a66729a1a8a23074980b51d0", "name": "9b6a1276a66729a1a8a23074980b51d0"}, {"lon": -76.98178283333333, "is_disabled": 0, "lat": 38.91669566666667, "fusion_lat": 0.0, "is_reserved": 0, "rental_uris": {"ios": "https://dc.lft.to/lastmile_qr_scan", "android": "https://dc.lft.to/lastmile_qr_scan"}, "fusion_lon": 0.0, "type": "electric_scooter", "bike_id": "6184eba6952a50a32fdba0d5284cb354", "name": "6184eba6952a50a32fdba0d5284cb354"}, {"lon": -77.03286266666667, "is_disabled": 0, "lat": 38.92878416666667, "fusion_lat": 0.0, "is_reserved": 0, "rental_uris": {"ios": "https://dc.lft.to/lastmile_qr_scan", "android": "https://dc.lft.to/lastmile_qr_scan"}, "fusion_lon": 0.0, "type": "electric_scooter", "bike_id": "e9216c84b8a6c030a9bbeb233a1ad639", "name": "e9216c84b8a6c030a9bbeb233a1ad639"}, {"lon": -77.02349883333333, "is_disabled": 0, "lat": 38.9096935, "fusion_lat": 0.0, "is_reserved": 0, "rental_uris": {"ios": "https://dc.lft.to/lastmile_qr_scan", "android": "https://dc.lft.to/lastmile_qr_scan"}, "fusion_lon": 0.0, "type": "electric_scooter", "bike_id": "c988f73d827f8f64fdeaab14a5ceaea0", "name": "c988f73d827f8f64fdeaab14a5ceaea0"}, {"lon": -77.0319895, "is_disabled": 0, "lat": 38.920691, "fusion_lat": 0.0, "is_reserved": 0, "rental_uris": {"ios": "https://dc.lft.to/lastmile_qr_scan", "android": "https://dc.lft.to/lastmile_qr_scan"}, "fusion_lon": 0.0, "type": "electric_scooter", "bike_id": "aece88a88c0f8b925559897f2e0c5509", "name": "aece88a88c0f8b925559897f2e0c5509"}, {"lon": -77.06024433333333, "is_disabled": 0, "lat": 38.94462716666666, "fusion_lat": 0.0, "is_reserved": 0, "rental_uris": {"ios": "https://dc.lft.to/lastmile_qr_scan", "android": "https://dc.lft.to/lastmile_qr_scan"}, "fusion_lon": 0.0, "type": "electric_scooter", "bike_id": "b85ca949f535c80d4ce3945bb2647079", "name": "b85ca949f535c80d4ce3945bb2647079"}, {"lon": -77.03184416666667, "is_disabled": 0, "lat": 38.91101616666667, "fusion_lat": 0.0, "is_reserved": 0, "rental_uris": {"ios": "https://dc.lft.to/lastmile_qr_scan", "android": "https://dc.lft.to/lastmile_qr_scan"}, "fusion_lon": 0.0, "type": "electric_scooter", "bike_id": "51482e0c778e68df4e421ae63f96f790", "name": "51482e0c778e68df4e421ae63f96f790"}, {"lon": -77.03167016666667, "is_disabled": 0, "lat": 38.892322666666665, "fusion_lat": 0.0, "is_reserved": 0, "rental_uris": {"ios": "https://dc.lft.to/lastmile_qr_scan", "android": "https://dc.lft.to/lastmile_qr_scan"}, "fusion_lon": 0.0, "type": "electric_scooter", "bike_id": "91e2487151d423fbdc3039da2aec1556", "name": "91e2487151d423fbdc3039da2aec1556"}, {"lon": -77.024575, "is_disabled": 0, "lat": 38.908685166666665, "fusion_lat": 0.0, "is_reserved": 0, "rental_uris": {"ios": "https://dc.lft.to/lastmile_qr_scan", "android": "https://dc.lft.to/lastmile_qr_scan"}, "fusion_lon": 0.0, "type": "electric_scooter", "bike_id": "c87cbbf80a3eccd0fc7efb439ba89645", "name": "c87cbbf80a3eccd0fc7efb439ba89645"}, {"lon": -76.9717515, "is_disabled": 0, "lat": 38.8614, "fusion_lat": 0.0, "is_reserved": 0, "rental_uris": {"ios": "https://dc.lft.to/lastmile_qr_scan", "android": "https://dc.lft.to/lastmile_qr_scan"}, "fusion_lon": 0.0, "type": "electric_scooter", "bike_id": "a6b073b2cbae93e07cfb1b79afd844e8", "name": "a6b073b2cbae93e07cfb1b79afd844e8"}, {"lon": -77.07164983333334, "is_disabled": 0, "lat": 38.93822383333333, "fusion_lat": 0.0, "is_reserved": 0, "rental_uris": {"ios": "https://dc.lft.to/lastmile_qr_scan", "android": "https://dc.lft.to/lastmile_qr_scan"}, "fusion_lon": 0.0, "type": "electric_scooter", "bike_id": "77ff27f8040c73db81790c72f5f9fc16", "name": "77ff27f8040c73db81790c72f5f9fc16"}, {"lon": -77.06514266666667, "is_disabled": 0, "lat": 38.903973666666666, "fusion_lat": 0.0, "is_reserved": 0, "rental_uris": {"ios": "https://dc.lft.to/lastmile_qr_scan", "android": "https://dc.lft.to/lastmile_qr_scan"}, "fusion_lon": 0.0, "type": "electric_scooter", "bike_id": "a105733f60b09a19ae4d58f904877c5a", "name": "a105733f60b09a19ae4d58f904877c5a"}, {"lon": -77.05735133333333, "is_disabled": 0, "lat": 38.93369233333333, "fusion_lat": 0.0, "is_reserved": 0, "rental_uris": {"ios": "https://dc.lft.to/lastmile_qr_scan", "android": "https://dc.lft.to/lastmile_qr_scan"}, "fusion_lon": 0.0, "type": "electric_scooter", "bike_id": "e809c5a44fe7abb92890eccbee1cc54c", "name": "e809c5a44fe7abb92890eccbee1cc54c"}, {"lon": -77.02318633333333, "is_disabled": 0, "lat": 38.929405, "fusion_lat": 0.0, "is_reserved": 0, "rental_uris": {"ios": "https://dc.lft.to/lastmile_qr_scan", "android": "https://dc.lft.to/lastmile_qr_scan"}, "fusion_lon": 0.0, "type": "electric_scooter", "bike_id": "72466bcfe4e9b93b96f484a152afbe97", "name": "72466bcfe4e9b93b96f484a152afbe97"}, {"lon": -77.00209566666666, "is_disabled": 0, "lat": 38.9003765, "fusion_lat": 0.0, "is_reserved": 0, "rental_uris": {"ios": "https://dc.lft.to/lastmile_qr_scan", "android": "https://dc.lft.to/lastmile_qr_scan"}, "fusion_lon": 0.0, "type": "electric_scooter", "bike_id": "12c1571e1bda40e29ae908e634747b12", "name": "12c1571e1bda40e29ae908e634747b12"}, {"lon": -77.0399425, "is_disabled": 0, "lat": 38.901432, "fusion_lat": 0.0, "is_reserved": 0, "rental_uris": {"ios": "https://dc.lft.to/lastmile_qr_scan", "android": "https://dc.lft.to/lastmile_qr_scan"}, "fusion_lon": 0.0, "type": "electric_scooter", "bike_id": "d168fe7c1711e794fd4feace47c65f1a", "name": "d168fe7c1711e794fd4feace47c65f1a"}, {"lon": -77.041494, "is_disabled": 0, "lat": 38.905560666666666, "fusion_lat": 0.0, "is_reserved": 0, "rental_uris": {"ios": "https://dc.lft.to/lastmile_qr_scan", "android": "https://dc.lft.to/lastmile_qr_scan"}, "fusion_lon": 0.0, "type": "electric_scooter", "bike_id": "2d8fecdae9eafb3d36e14e6dfcceb289", "name": "2d8fecdae9eafb3d36e14e6dfcceb289"}, {"lon": -77.0215125, "is_disabled": 0, "lat": 38.9141255, "fusion_lat": 0.0, "is_reserved": 0, "rental_uris": {"ios": "https://dc.lft.to/lastmile_qr_scan", "android": "https://dc.lft.to/lastmile_qr_scan"}, "fusion_lon": 0.0, "type": "electric_scooter", "bike_id": "5ac090fe1fd3e36d78f4d8e351dd1d03", "name": "5ac090fe1fd3e36d78f4d8e351dd1d03"}, {"lon": -77.12528016666667, "is_disabled": 0, "lat": 39.05638033333334, "fusion_lat": 0.0, "is_reserved": 0, "rental_uris": {"ios": "https://dc.lft.to/lastmile_qr_scan", "android": "https://dc.lft.to/lastmile_qr_scan"}, "fusion_lon": 0.0, "type": "electric_bike", "bike_id": "46e9bb19923efa878cf230b8a603b314", "name": "46e9bb19923efa878cf230b8a603b314"}, {"lon": -77.03239933333333, "is_disabled": 0, "lat": 38.905521, "fusion_lat": 0.0, "is_reserved": 0, "rental_uris": {"ios": "https://dc.lft.to/lastmile_qr_scan", "android": "https://dc.lft.to/lastmile_qr_scan"}, "fusion_lon": 0.0, "type": "electric_scooter", "bike_id": "bf70650a0b1760c7a38dae82ffa8790b", "name": "bf70650a0b1760c7a38dae82ffa8790b"}, {"lon": -77.00239316666666, "is_disabled": 0, "lat": 38.874964166666665, "fusion_lat": 0.0, "is_reserved": 0, "rental_uris": {"ios": "https://dc.lft.to/lastmile_qr_scan", "android": "https://dc.lft.to/lastmile_qr_scan"}, "fusion_lon": 0.0, "type": "electric_scooter", "bike_id": "1156f4393432cd10e440b124a5e1e54c", "name": "1156f4393432cd10e440b124a5e1e54c"}, {"lon": -76.970311, "is_disabled": 0, "lat": 38.87360283333334, "fusion_lat": 0.0, "is_reserved": 0, "rental_uris": {"ios": "https://dc.lft.to/lastmile_qr_scan", "android": "https://dc.lft.to/lastmile_qr_scan"}, "fusion_lon": 0.0, "type": "electric_scooter", "bike_id": "41bbd49ec713a2c8983f072e64fea7ae", "name": "41bbd49ec713a2c8983f072e64fea7ae"}, {"lon": -77.0255795, "is_disabled": 0, "lat": 38.919209, "fusion_lat": 0.0, "is_reserved": 0, "rental_uris": {"ios": "https://dc.lft.to/lastmile_qr_scan", "android": "https://dc.lft.to/lastmile_qr_scan"}, "fusion_lon": 0.0, "type": "electric_scooter", "bike_id": "fad8c25709adcf369f5d293247d274db", "name": "fad8c25709adcf369f5d293247d274db"}, {"lon": -77.13939616666667, "is_disabled": 0, "lat": 38.873067666666664, "fusion_lat": 0.0, "is_reserved": 0, "rental_uris": {"ios": "https://dc.lft.to/lastmile_qr_scan", "android": "https://dc.lft.to/lastmile_qr_scan"}, "fusion_lon": 0.0, "type": "electric_bike", "bike_id": "e15072ff4e57df16ffd90fa81e1210b6", "name": "e15072ff4e57df16ffd90fa81e1210b6"}, {"lon": -76.97948133333334, "is_disabled": 0, "lat": 38.904369333333335, "fusion_lat": 0.0, "is_reserved": 0, "rental_uris": {"ios": "https://dc.lft.to/lastmile_qr_scan", "android": "https://dc.lft.to/lastmile_qr_scan"}, "fusion_lon": 0.0, "type": "electric_scooter", "bike_id": "fa59e5295d6c0a2459c1abd00e98aff2", "name": "fa59e5295d6c0a2459c1abd00e98aff2"}, {"lon": -77.01539683333333, "is_disabled": 0, "lat": 38.885993, "fusion_lat": 0.0, "is_reserved": 0, "rental_uris": {"ios": "https://dc.lft.to/lastmile_qr_scan", "android": "https://dc.lft.to/lastmile_qr_scan"}, "fusion_lon": 0.0, "type": "electric_scooter", "bike_id": "b13a4c544b5f33c851c4b4234a51f0c6", "name": "b13a4c544b5f33c851c4b4234a51f0c6"}, {"lon": -77.04360666666666, "is_disabled": 0, "lat": 38.9041845, "fusion_lat": 0.0, "is_reserved": 0, "rental_uris": {"ios": "https://dc.lft.to/lastmile_qr_scan", "android": "https://dc.lft.to/lastmile_qr_scan"}, "fusion_lon": 0.0, "type": "electric_scooter", "bike_id": "35316fd47f2051f09557c5dda0d28639", "name": "35316fd47f2051f09557c5dda0d28639"}, {"lon": -76.994087, "is_disabled": 0, "lat": 38.87786766666667, "fusion_lat": 0.0, "is_reserved": 0, "rental_uris": {"ios": "https://dc.lft.to/lastmile_qr_scan", "android": "https://dc.lft.to/lastmile_qr_scan"}, "fusion_lon": 0.0, "type": "electric_scooter", "bike_id": "98932e6443a243dbde3f9a3c2a9c8559", "name": "98932e6443a243dbde3f9a3c2a9c8559"}, {"lon": -77.024525, "is_disabled": 0, "lat": 38.91840216666667, "fusion_lat": 0.0, "is_reserved": 0, "rental_uris": {"ios": "https://dc.lft.to/lastmile_qr_scan", "android": "https://dc.lft.to/lastmile_qr_scan"}, "fusion_lon": 0.0, "type": "electric_scooter", "bike_id": "03ae34d628a8755f2860fd3027b1a6b3", "name": "03ae34d628a8755f2860fd3027b1a6b3"}, {"lon": -77.0018035, "is_disabled": 0, "lat": 38.8447405, "fusion_lat": 0.0, "is_reserved": 0, "rental_uris": {"ios": "https://dc.lft.to/lastmile_qr_scan", "android": "https://dc.lft.to/lastmile_qr_scan"}, "fusion_lon": 0.0, "type": "electric_bike", "bike_id": "05c6a6ad032c2f0902b748dbc1fd949a", "name": "05c6a6ad032c2f0902b748dbc1fd949a"}, {"lon": -76.9605715, "is_disabled": 0, "lat": 38.883353166666666, "fusion_lat": 0.0, "is_reserved": 0, "rental_uris": {"ios": "https://dc.lft.to/lastmile_qr_scan", "android": "https://dc.lft.to/lastmile_qr_scan"}, "fusion_lon": 0.0, "type": "electric_bike", "bike_id": "a16d8bd302ee766f8ea8f3b577a1fbef", "name": "a16d8bd302ee766f8ea8f3b577a1fbef"}, {"lon": -77.02029466666667, "is_disabled": 0, "lat": 38.924465166666664, "fusion_lat": 0.0, "is_reserved": 0, "rental_uris": {"ios": "https://dc.lft.to/lastmile_qr_scan", "android": "https://dc.lft.to/lastmile_qr_scan"}, "fusion_lon": 0.0, "type": "electric_scooter", "bike_id": "612c23c796b22b8fbc0f6b9e3c6f2ddd", "name": "612c23c796b22b8fbc0f6b9e3c6f2ddd"}, {"lon": -77.03847016666667, "is_disabled": 0, "lat": 38.921764, "fusion_lat": 0.0, "is_reserved": 0, "rental_uris": {"ios": "https://dc.lft.to/lastmile_qr_scan", "android": "https://dc.lft.to/lastmile_qr_scan"}, "fusion_lon": 0.0, "type": "electric_scooter", "bike_id": "cfda0287d1678ac02f9c97f2df061936", "name": "cfda0287d1678ac02f9c97f2df061936"}, {"lon": -77.029649, "is_disabled": 0, "lat": 38.92750816666667, "fusion_lat": 0.0, "is_reserved": 0, "rental_uris": {"ios": "https://dc.lft.to/lastmile_qr_scan", "android": "https://dc.lft.to/lastmile_qr_scan"}, "fusion_lon": 0.0, "type": "electric_scooter", "bike_id": "b6dd4f7f3397475d5c17344ca58924a1", "name": "b6dd4f7f3397475d5c17344ca58924a1"}, {"lon": -77.04184266666667, "is_disabled": 0, "lat": 38.90588616666667, "fusion_lat": 0.0, "is_reserved": 0, "rental_uris": {"ios": "https://dc.lft.to/lastmile_qr_scan", "android": "https://dc.lft.to/lastmile_qr_scan"}, "fusion_lon": 0.0, "type": "electric_scooter", "bike_id": "451086fde3a1aa7d38466a63e8c1fe2a", "name": "451086fde3a1aa7d38466a63e8c1fe2a"}, {"lon": -77.0449015, "is_disabled": 0, "lat": 38.931296, "fusion_lat": 0.0, "is_reserved": 0, "rental_uris": {"ios": "https://dc.lft.to/lastmile_qr_scan", "android": "https://dc.lft.to/lastmile_qr_scan"}, "fusion_lon": 0.0, "type": "electric_scooter", "bike_id": "493b3e0a1598533ae64c600c08161d05", "name": "493b3e0a1598533ae64c600c08161d05"}, {"lon": -77.0434545, "is_disabled": 0, "lat": 38.92191966666667, "fusion_lat": 0.0, "is_reserved": 0, "rental_uris": {"ios": "https://dc.lft.to/lastmile_qr_scan", "android": "https://dc.lft.to/lastmile_qr_scan"}, "fusion_lon": 0.0, "type": "electric_scooter", "bike_id": "49ab393ba4707eadc53af49a3ec220b4", "name": "49ab393ba4707eadc53af49a3ec220b4"}, {"lon": -76.93377166666667, "is_disabled": 0, "lat": 38.899149333333334, "fusion_lat": 0.0, "is_reserved": 0, "rental_uris": {"ios": "https://dc.lft.to/lastmile_qr_scan", "android": "https://dc.lft.to/lastmile_qr_scan"}, "fusion_lon": 0.0, "type": "electric_scooter", "bike_id": "e9c04b0780de605ccb75a8e5259f1bdc", "name": "e9c04b0780de605ccb75a8e5259f1bdc"}, {"lon": -77.027289, "is_disabled": 0, "lat": 38.955834833333334, "fusion_lat": 0.0, "is_reserved": 0, "rental_uris": {"ios": "https://dc.lft.to/lastmile_qr_scan", "android": "https://dc.lft.to/lastmile_qr_scan"}, "fusion_lon": 0.0, "type": "electric_scooter", "bike_id": "e2f62e585f4679ffc66a4ad4b2eec562", "name": "e2f62e585f4679ffc66a4ad4b2eec562"}, {"lon": -77.02716716666667, "is_disabled": 0, "lat": 38.89842266666667, "fusion_lat": 0.0, "is_reserved": 0, "rental_uris": {"ios": "https://dc.lft.to/lastmile_qr_scan", "android": "https://dc.lft.to/lastmile_qr_scan"}, "fusion_lon": 0.0, "type": "electric_scooter", "bike_id": "8878ddbe90e31c3ffca27704bc9d2298", "name": "8878ddbe90e31c3ffca27704bc9d2298"}, {"lon": -76.99005366666667, "is_disabled": 0, "lat": 38.865108, "fusion_lat": 0.0, "is_reserved": 0, "rental_uris": {"ios": "https://dc.lft.to/lastmile_qr_scan", "android": "https://dc.lft.to/lastmile_qr_scan"}, "fusion_lon": 0.0, "type": "electric_scooter", "bike_id": "1a736f5f250fa361162ffc761b0a7c77", "name": "1a736f5f250fa361162ffc761b0a7c77"}, {"lon": -77.08306583333334, "is_disabled": 0, "lat": 38.854446333333335, "fusion_lat": 0.0, "is_reserved": 0, "rental_uris": {"ios": "https://dc.lft.to/lastmile_qr_scan", "android": "https://dc.lft.to/lastmile_qr_scan"}, "fusion_lon": 0.0, "type": "electric_bike", "bike_id": "62679bda264dc18bcf845563e190c7ff", "name": "62679bda264dc18bcf845563e190c7ff"}, {"lon": -77.02612733333333, "is_disabled": 0, "lat": 38.9142135, "fusion_lat": 0.0, "is_reserved": 0, "rental_uris": {"ios": "https://dc.lft.to/lastmile_qr_scan", "android": "https://dc.lft.to/lastmile_qr_scan"}, "fusion_lon": 0.0, "type": "electric_scooter", "bike_id": "6da28b702dc3c2feae16ce9e708d929c", "name": "6da28b702dc3c2feae16ce9e708d929c"}, {"lon": -77.04465183333333, "is_disabled": 0, "lat": 38.90021566666667, "fusion_lat": 0.0, "is_reserved": 0, "rental_uris": {"ios": "https://dc.lft.to/lastmile_qr_scan", "android": "https://dc.lft.to/lastmile_qr_scan"}, "fusion_lon": 0.0, "type": "electric_scooter", "bike_id": "c3af2c4bdcb04525caad97fae155134c", "name": "c3af2c4bdcb04525caad97fae155134c"}, {"lon": -77.036342, "is_disabled": 0, "lat": 38.930566666666664, "fusion_lat": 0.0, "is_reserved": 0, "rental_uris": {"ios": "https://dc.lft.to/lastmile_qr_scan", "android": "https://dc.lft.to/lastmile_qr_scan"}, "fusion_lon": 0.0, "type": "electric_scooter", "bike_id": "bc376b82857750382f5c85173bc1e094", "name": "bc376b82857750382f5c85173bc1e094"}, {"lon": -77.0283025, "is_disabled": 0, "lat": 38.89629333333333, "fusion_lat": 0.0, "is_reserved": 0, "rental_uris": {"ios": "https://dc.lft.to/lastmile_qr_scan", "android": "https://dc.lft.to/lastmile_qr_scan"}, "fusion_lon": 0.0, "type": "electric_scooter", "bike_id": "695f293bc55ce8c86e12aa386d7b0393", "name": "695f293bc55ce8c86e12aa386d7b0393"}, {"lon": -77.22927166666666, "is_disabled": 0, "lat": 38.931968, "fusion_lat": 0.0, "is_reserved": 0, "rental_uris": {"ios": "https://dc.lft.to/lastmile_qr_scan", "android": "https://dc.lft.to/lastmile_qr_scan"}, "fusion_lon": 0.0, "type": "electric_bike", "bike_id": "9742250275862fd5937318b10b0b3acb", "name": "9742250275862fd5937318b10b0b3acb"}, {"lon": -77.0202945, "is_disabled": 0, "lat": 38.92164533333333, "fusion_lat": 0.0, "is_reserved": 0, "rental_uris": {"ios": "https://dc.lft.to/lastmile_qr_scan", "android": "https://dc.lft.to/lastmile_qr_scan"}, "fusion_lon": 0.0, "type": "electric_scooter", "bike_id": "2bcb142bc66e9460272f33ae710ae55a", "name": "2bcb142bc66e9460272f33ae710ae55a"}, {"lon": -76.99160116666667, "is_disabled": 0, "lat": 38.900451833333335, "fusion_lat": 0.0, "is_reserved": 0, "rental_uris": {"ios": "https://dc.lft.to/lastmile_qr_scan", "android": "https://dc.lft.to/lastmile_qr_scan"}, "fusion_lon": 0.0, "type": "electric_scooter", "bike_id": "be6abaa1577d87f43c98290a1d8b3d56", "name": "be6abaa1577d87f43c98290a1d8b3d56"}, {"lon": -77.04144683333334, "is_disabled": 0, "lat": 38.905503833333334, "fusion_lat": 0.0, "is_reserved": 0, "rental_uris": {"ios": "https://dc.lft.to/lastmile_qr_scan", "android": "https://dc.lft.to/lastmile_qr_scan"}, "fusion_lon": 0.0, "type": "electric_scooter", "bike_id": "be16ebbda3241c9b836db6fe8380e301", "name": "be16ebbda3241c9b836db6fe8380e301"}, {"lon": -77.02433566666667, "is_disabled": 0, "lat": 38.9237995, "fusion_lat": 0.0, "is_reserved": 0, "rental_uris": {"ios": "https://dc.lft.to/lastmile_qr_scan", "android": "https://dc.lft.to/lastmile_qr_scan"}, "fusion_lon": 0.0, "type": "electric_scooter", "bike_id": "52a9c4fb01da98065398b91db7faa381", "name": "52a9c4fb01da98065398b91db7faa381"}, {"lon": -77.026912, "is_disabled": 0, "lat": 38.90951466666667, "fusion_lat": 0.0, "is_reserved": 0, "rental_uris": {"ios": "https://dc.lft.to/lastmile_qr_scan", "android": "https://dc.lft.to/lastmile_qr_scan"}, "fusion_lon": 0.0, "type": "electric_scooter", "bike_id": "c92855d690985114c818349d9b01150c", "name": "c92855d690985114c818349d9b01150c"}, {"lon": -77.0326915, "is_disabled": 0, "lat": 38.90974083333333, "fusion_lat": 0.0, "is_reserved": 0, "rental_uris": {"ios": "https://dc.lft.to/lastmile_qr_scan", "android": "https://dc.lft.to/lastmile_qr_scan"}, "fusion_lon": 0.0, "type": "electric_scooter", "bike_id": "ab6f0994bb85ac78d8187f35fb529277", "name": "ab6f0994bb85ac78d8187f35fb529277"}, {"lon": -77.05338, "is_disabled": 0, "lat": 38.905028, "fusion_lat": 0.0, "is_reserved": 0, "rental_uris": {"ios": "https://dc.lft.to/lastmile_qr_scan", "android": "https://dc.lft.to/lastmile_qr_scan"}, "fusion_lon": 0.0, "type": "electric_scooter", "bike_id": "af02e1925bab49882d14b1f7e076031d", "name": "af02e1925bab49882d14b1f7e076031d"}, {"lon": -77.00058216666666, "is_disabled": 0, "lat": 38.876903166666665, "fusion_lat": 0.0, "is_reserved": 0, "rental_uris": {"ios": "https://dc.lft.to/lastmile_qr_scan", "android": "https://dc.lft.to/lastmile_qr_scan"}, "fusion_lon": 0.0, "type": "electric_scooter", "bike_id": "121bee02758592c4075e98863853247f", "name": "121bee02758592c4075e98863853247f"}, {"lon": -77.03184666666667, "is_disabled": 0, "lat": 38.90977733333333, "fusion_lat": 0.0, "is_reserved": 0, "rental_uris": {"ios": "https://dc.lft.to/lastmile_qr_scan", "android": "https://dc.lft.to/lastmile_qr_scan"}, "fusion_lon": 0.0, "type": "electric_scooter", "bike_id": "c360a9784443669272ec541ac7f4c69a", "name": "c360a9784443669272ec541ac7f4c69a"}, {"lon": -77.02933, "is_disabled": 0, "lat": 38.90154733333333, "fusion_lat": 0.0, "is_reserved": 0, "rental_uris": {"ios": "https://dc.lft.to/lastmile_qr_scan", "android": "https://dc.lft.to/lastmile_qr_scan"}, "fusion_lon": 0.0, "type": "electric_scooter", "bike_id": "2cae2eb2f1cc0ddd81dbb69bb030ef13", "name": "2cae2eb2f1cc0ddd81dbb69bb030ef13"}, {"lon": -76.95410283333334, "is_disabled": 0, "lat": 38.88421733333333, "fusion_lat": 0.0, "is_reserved": 0, "rental_uris": {"ios": "https://dc.lft.to/lastmile_qr_scan", "android": "https://dc.lft.to/lastmile_qr_scan"}, "fusion_lon": 0.0, "type": "electric_bike", "bike_id": "513dfdc9a6326b90bae3b1cb87b69d4b", "name": "513dfdc9a6326b90bae3b1cb87b69d4b"}, {"lon": -77.0034035, "is_disabled": 0, "lat": 38.8875065, "fusion_lat": 0.0, "is_reserved": 0, "rental_uris": {"ios": "https://dc.lft.to/lastmile_qr_scan", "android": "https://dc.lft.to/lastmile_qr_scan"}, "fusion_lon": 0.0, "type": "electric_scooter", "bike_id": "b1548503c6f14359bca9c5883852637d", "name": "b1548503c6f14359bca9c5883852637d"}, {"lon": -77.02151483333333, "is_disabled": 0, "lat": 38.87915666666667, "fusion_lat": 0.0, "is_reserved": 0, "rental_uris": {"ios": "https://dc.lft.to/lastmile_qr_scan", "android": "https://dc.lft.to/lastmile_qr_scan"}, "fusion_lon": 0.0, "type": "electric_scooter", "bike_id": "a715ac76c7c8a35f07e2e36c9216f2f4", "name": "a715ac76c7c8a35f07e2e36c9216f2f4"}, {"lon": -77.05856016666667, "is_disabled": 0, "lat": 38.93054033333333, "fusion_lat": 0.0, "is_reserved": 0, "rental_uris": {"ios": "https://dc.lft.to/lastmile_qr_scan", "android": "https://dc.lft.to/lastmile_qr_scan"}, "fusion_lon": 0.0, "type": "electric_scooter", "bike_id": "134366270a26f7f6ae79cb55b3800db0", "name": "134366270a26f7f6ae79cb55b3800db0"}, {"lon": -76.99790416666667, "is_disabled": 0, "lat": 38.908681333333334, "fusion_lat": 0.0, "is_reserved": 0, "rental_uris": {"ios": "https://dc.lft.to/lastmile_qr_scan", "android": "https://dc.lft.to/lastmile_qr_scan"}, "fusion_lon": 0.0, "type": "electric_scooter", "bike_id": "276c30232e50349a952dbbda8cbc3de9", "name": "276c30232e50349a952dbbda8cbc3de9"}, {"lon": -76.98061316666667, "is_disabled": 0, "lat": 38.901194333333336, "fusion_lat": 0.0, "is_reserved": 0, "rental_uris": {"ios": "https://dc.lft.to/lastmile_qr_scan", "android": "https://dc.lft.to/lastmile_qr_scan"}, "fusion_lon": 0.0, "type": "electric_bike", "bike_id": "2570465e74502951d97a6777f93fd6d9", "name": "2570465e74502951d97a6777f93fd6d9"}, {"lon": -77.06187316666667, "is_disabled": 0, "lat": 38.9034175, "fusion_lat": 0.0, "is_reserved": 0, "rental_uris": {"ios": "https://dc.lft.to/lastmile_qr_scan", "android": "https://dc.lft.to/lastmile_qr_scan"}, "fusion_lon": 0.0, "type": "electric_scooter", "bike_id": "a8a5440f839349229cd468ea32dd2e67", "name": "a8a5440f839349229cd468ea32dd2e67"}, {"lon": -77.02115966666666, "is_disabled": 0, "lat": 38.91742516666667, "fusion_lat": 0.0, "is_reserved": 0, "rental_uris": {"ios": "https://dc.lft.to/lastmile_qr_scan", "android": "https://dc.lft.to/lastmile_qr_scan"}, "fusion_lon": 0.0, "type": "electric_scooter", "bike_id": "5bc0fed9b647dd31e4c2d6832937f93d", "name": "5bc0fed9b647dd31e4c2d6832937f93d"}, {"lon": -77.0276505, "is_disabled": 0, "lat": 38.89635716666667, "fusion_lat": 0.0, "is_reserved": 0, "rental_uris": {"ios": "https://dc.lft.to/lastmile_qr_scan", "android": "https://dc.lft.to/lastmile_qr_scan"}, "fusion_lon": 0.0, "type": "electric_scooter", "bike_id": "078ed94913358164c684ef2ac3e5dd99", "name": "078ed94913358164c684ef2ac3e5dd99"}, {"lon": -77.005585, "is_disabled": 0, "lat": 38.87474, "fusion_lat": 0.0, "is_reserved": 0, "rental_uris": {"ios": "https://dc.lft.to/lastmile_qr_scan", "android": "https://dc.lft.to/lastmile_qr_scan"}, "fusion_lon": 0.0, "type": "electric_scooter", "bike_id": "848b858c9699894c56532f6f47a2e62d", "name": "848b858c9699894c56532f6f47a2e62d"}, {"lon": -77.035167, "is_disabled": 0, "lat": 38.92175966666667, "fusion_lat": 0.0, "is_reserved": 0, "rental_uris": {"ios": "https://dc.lft.to/lastmile_qr_scan", "android": "https://dc.lft.to/lastmile_qr_scan"}, "fusion_lon": 0.0, "type": "electric_scooter", "bike_id": "eb309689e47c19819da743315cbed9ea", "name": "eb309689e47c19819da743315cbed9ea"}, {"lon": -77.04130666666667, "is_disabled": 0, "lat": 38.90578466666667, "fusion_lat": 0.0, "is_reserved": 0, "rental_uris": {"ios": "https://dc.lft.to/lastmile_qr_scan", "android": "https://dc.lft.to/lastmile_qr_scan"}, "fusion_lon": 0.0, "type": "electric_scooter", "bike_id": "f34d52cc38aeadaf0d4439d4bb6bc6ad", "name": "f34d52cc38aeadaf0d4439d4bb6bc6ad"}, {"lon": -77.03179966666667, "is_disabled": 0, "lat": 38.89774633333333, "fusion_lat": 0.0, "is_reserved": 0, "rental_uris": {"ios": "https://dc.lft.to/lastmile_qr_scan", "android": "https://dc.lft.to/lastmile_qr_scan"}, "fusion_lon": 0.0, "type": "electric_scooter", "bike_id": "d5b533088286850a06cc8f72435c5cfb", "name": "d5b533088286850a06cc8f72435c5cfb"}, {"lon": -77.033387, "is_disabled": 0, "lat": 38.8925495, "fusion_lat": 0.0, "is_reserved": 0, "rental_uris": {"ios": "https://dc.lft.to/lastmile_qr_scan", "android": "https://dc.lft.to/lastmile_qr_scan"}, "fusion_lon": 0.0, "type": "electric_scooter", "bike_id": "d357dccf62408c108319cca96901ff72", "name": "d357dccf62408c108319cca96901ff72"}, {"lon": -77.03221083333334, "is_disabled": 0, "lat": 38.917114, "fusion_lat": 0.0, "is_reserved": 0, "rental_uris": {"ios": "https://dc.lft.to/lastmile_qr_scan", "android": "https://dc.lft.to/lastmile_qr_scan"}, "fusion_lon": 0.0, "type": "electric_scooter", "bike_id": "71ff815c5abff431c1a1af5ea2ce9662", "name": "71ff815c5abff431c1a1af5ea2ce9662"}, {"lon": -77.01762966666666, "is_disabled": 0, "lat": 38.88713383333333, "fusion_lat": 0.0, "is_reserved": 0, "rental_uris": {"ios": "https://dc.lft.to/lastmile_qr_scan", "android": "https://dc.lft.to/lastmile_qr_scan"}, "fusion_lon": 0.0, "type": "electric_scooter", "bike_id": "b2d781ef408669c31e600562f2ca7d6b", "name": "b2d781ef408669c31e600562f2ca7d6b"}, {"lon": -77.08859616666666, "is_disabled": 0, "lat": 38.91642733333333, "fusion_lat": 0.0, "is_reserved": 0, "rental_uris": {"ios": "https://dc.lft.to/lastmile_qr_scan", "android": "https://dc.lft.to/lastmile_qr_scan"}, "fusion_lon": 0.0, "type": "electric_scooter", "bike_id": "1a715f4d5897aededfcf5bb1f77c61d6", "name": "1a715f4d5897aededfcf5bb1f77c61d6"}, {"lon": -77.0725095, "is_disabled": 0, "lat": 38.93955033333334, "fusion_lat": 0.0, "is_reserved": 0, "rental_uris": {"ios": "https://dc.lft.to/lastmile_qr_scan", "android": "https://dc.lft.to/lastmile_qr_scan"}, "fusion_lon": 0.0, "type": "electric_scooter", "bike_id": "325d456621e610f87b673471d833f594", "name": "325d456621e610f87b673471d833f594"}, {"lon": -77.028798, "is_disabled": 0, "lat": 38.92486916666667, "fusion_lat": 0.0, "is_reserved": 0, "rental_uris": {"ios": "https://dc.lft.to/lastmile_qr_scan", "android": "https://dc.lft.to/lastmile_qr_scan"}, "fusion_lon": 0.0, "type": "electric_scooter", "bike_id": "8ae6bd8beee055293df049a8dc1b840f", "name": "8ae6bd8beee055293df049a8dc1b840f"}, {"lon": -77.01731033333333, "is_disabled": 0, "lat": 38.8875, "fusion_lat": 0.0, "is_reserved": 0, "rental_uris": {"ios": "https://dc.lft.to/lastmile_qr_scan", "android": "https://dc.lft.to/lastmile_qr_scan"}, "fusion_lon": 0.0, "type": "electric_scooter", "bike_id": "52f806cf38af41f81232cd53e168359c", "name": "52f806cf38af41f81232cd53e168359c"}, {"lon": -77.03333966666666, "is_disabled": 0, "lat": 38.91726283333333, "fusion_lat": 0.0, "is_reserved": 0, "rental_uris": {"ios": "https://dc.lft.to/lastmile_qr_scan", "android": "https://dc.lft.to/lastmile_qr_scan"}, "fusion_lon": 0.0, "type": "electric_scooter", "bike_id": "dfcaa700fed2d5c78ebd39e243572fb6", "name": "dfcaa700fed2d5c78ebd39e243572fb6"}, {"lon": -76.92046883333333, "is_disabled": 0, "lat": 38.89739066666667, "fusion_lat": 0.0, "is_reserved": 0, "rental_uris": {"ios": "https://dc.lft.to/lastmile_qr_scan", "android": "https://dc.lft.to/lastmile_qr_scan"}, "fusion_lon": 0.0, "type": "electric_bike", "bike_id": "d60bc208910b877333e9b713c3064a1d", "name": "d60bc208910b877333e9b713c3064a1d"}, {"lon": -77.00881233333334, "is_disabled": 0, "lat": 38.90073566666667, "fusion_lat": 0.0, "is_reserved": 0, "rental_uris": {"ios": "https://dc.lft.to/lastmile_qr_scan", "android": "https://dc.lft.to/lastmile_qr_scan"}, "fusion_lon": 0.0, "type": "electric_scooter", "bike_id": "76eeb241bae36b203c47f7f60b98d3c1", "name": "76eeb241bae36b203c47f7f60b98d3c1"}, {"lon": -77.03228266666666, "is_disabled": 0, "lat": 38.89982933333334, "fusion_lat": 0.0, "is_reserved": 0, "rental_uris": {"ios": "https://dc.lft.to/lastmile_qr_scan", "android": "https://dc.lft.to/lastmile_qr_scan"}, "fusion_lon": 0.0, "type": "electric_scooter", "bike_id": "e48a29ef6f02003830015ea2b68c8fc1", "name": "e48a29ef6f02003830015ea2b68c8fc1"}, {"lon": -77.04023533333333, "is_disabled": 0, "lat": 38.91716, "fusion_lat": 0.0, "is_reserved": 0, "rental_uris": {"ios": "https://dc.lft.to/lastmile_qr_scan", "android": "https://dc.lft.to/lastmile_qr_scan"}, "fusion_lon": 0.0, "type": "electric_scooter", "bike_id": "98e30ffd385cac425ab8a1541ef60b88", "name": "98e30ffd385cac425ab8a1541ef60b88"}, {"lon": -77.00799033333334, "is_disabled": 0, "lat": 38.9492325, "fusion_lat": 0.0, "is_reserved": 0, "rental_uris": {"ios": "https://dc.lft.to/lastmile_qr_scan", "android": "https://dc.lft.to/lastmile_qr_scan"}, "fusion_lon": 0.0, "type": "electric_bike", "bike_id": "045586b482e4810a051ac512dfa0c45b", "name": "045586b482e4810a051ac512dfa0c45b"}, {"lon": -76.99486933333333, "is_disabled": 0, "lat": 38.883413166666664, "fusion_lat": 0.0, "is_reserved": 0, "rental_uris": {"ios": "https://dc.lft.to/lastmile_qr_scan", "android": "https://dc.lft.to/lastmile_qr_scan"}, "fusion_lon": 0.0, "type": "electric_scooter", "bike_id": "cd5e5bb4a99ba6296165d0b80ff5aaaf", "name": "cd5e5bb4a99ba6296165d0b80ff5aaaf"}, {"lon": -77.01587516666666, "is_disabled": 0, "lat": 38.876494, "fusion_lat": 0.0, "is_reserved": 0, "rental_uris": {"ios": "https://dc.lft.to/lastmile_qr_scan", "android": "https://dc.lft.to/lastmile_qr_scan"}, "fusion_lon": 0.0, "type": "electric_scooter", "bike_id": "282fb8d75fa6fe71a02c099d6b793195", "name": "282fb8d75fa6fe71a02c099d6b793195"}, {"lon": -76.96530733333333, "is_disabled": 0, "lat": 38.8762335, "fusion_lat": 0.0, "is_reserved": 0, "rental_uris": {"ios": "https://dc.lft.to/lastmile_qr_scan", "android": "https://dc.lft.to/lastmile_qr_scan"}, "fusion_lon": 0.0, "type": "electric_scooter", "bike_id": "9e6ef696d185f22ae807ef4deb9a544a", "name": "9e6ef696d185f22ae807ef4deb9a544a"}, {"lon": -76.94632633333333, "is_disabled": 0, "lat": 38.898570666666664, "fusion_lat": 0.0, "is_reserved": 0, "rental_uris": {"ios": "https://dc.lft.to/lastmile_qr_scan", "android": "https://dc.lft.to/lastmile_qr_scan"}, "fusion_lon": 0.0, "type": "electric_scooter", "bike_id": "d8cf8fc61f6ff16d572e3a1edcc47570", "name": "d8cf8fc61f6ff16d572e3a1edcc47570"}, {"lon": -77.03578133333333, "is_disabled": 0, "lat": 38.9037875, "fusion_lat": 0.0, "is_reserved": 0, "rental_uris": {"ios": "https://dc.lft.to/lastmile_qr_scan", "android": "https://dc.lft.to/lastmile_qr_scan"}, "fusion_lon": 0.0, "type": "electric_scooter", "bike_id": "356414b6faf1417dd580483449561c50", "name": "356414b6faf1417dd580483449561c50"}, {"lon": -77.0208755, "is_disabled": 0, "lat": 38.88186116666667, "fusion_lat": 0.0, "is_reserved": 0, "rental_uris": {"ios": "https://dc.lft.to/lastmile_qr_scan", "android": "https://dc.lft.to/lastmile_qr_scan"}, "fusion_lon": 0.0, "type": "electric_scooter", "bike_id": "9c67fb67399932297ad1e5c9a45c27b3", "name": "9c67fb67399932297ad1e5c9a45c27b3"}, {"lon": -77.0400845, "is_disabled": 0, "lat": 38.9100495, "fusion_lat": 0.0, "is_reserved": 0, "rental_uris": {"ios": "https://dc.lft.to/lastmile_qr_scan", "android": "https://dc.lft.to/lastmile_qr_scan"}, "fusion_lon": 0.0, "type": "electric_scooter", "bike_id": "c00ac182008899bb3a9e8558e023c750", "name": "c00ac182008899bb3a9e8558e023c750"}, {"lon": -77.04467316666667, "is_disabled": 0, "lat": 38.90368466666666, "fusion_lat": 0.0, "is_reserved": 0, "rental_uris": {"ios": "https://dc.lft.to/lastmile_qr_scan", "android": "https://dc.lft.to/lastmile_qr_scan"}, "fusion_lon": 0.0, "type": "electric_scooter", "bike_id": "e4ff419782987c937210ee327027d72e", "name": "e4ff419782987c937210ee327027d72e"}, {"lon": -76.98819566666667, "is_disabled": 0, "lat": 38.90070466666667, "fusion_lat": 0.0, "is_reserved": 0, "rental_uris": {"ios": "https://dc.lft.to/lastmile_qr_scan", "android": "https://dc.lft.to/lastmile_qr_scan"}, "fusion_lon": 0.0, "type": "electric_scooter", "bike_id": "93fddfae5be01207c7ba694fd39d0483", "name": "93fddfae5be01207c7ba694fd39d0483"}, {"lon": -76.98603, "is_disabled": 0, "lat": 38.90019433333333, "fusion_lat": 0.0, "is_reserved": 0, "rental_uris": {"ios": "https://dc.lft.to/lastmile_qr_scan", "android": "https://dc.lft.to/lastmile_qr_scan"}, "fusion_lon": 0.0, "type": "electric_scooter", "bike_id": "77f6d2c0b166b875e91d0e56b600a7fc", "name": "77f6d2c0b166b875e91d0e56b600a7fc"}, {"lon": -77.04872383333333, "is_disabled": 0, "lat": 38.9097975, "fusion_lat": 0.0, "is_reserved": 0, "rental_uris": {"ios": "https://dc.lft.to/lastmile_qr_scan", "android": "https://dc.lft.to/lastmile_qr_scan"}, "fusion_lon": 0.0, "type": "electric_scooter", "bike_id": "682b883982b9b110e412b3b6c048c683", "name": "682b883982b9b110e412b3b6c048c683"}, {"lon": -77.005952, "is_disabled": 0, "lat": 38.8759925, "fusion_lat": 0.0, "is_reserved": 0, "rental_uris": {"ios": "https://dc.lft.to/lastmile_qr_scan", "android": "https://dc.lft.to/lastmile_qr_scan"}, "fusion_lon": 0.0, "type": "electric_scooter", "bike_id": "2125031855be823fc2628067fd58180b", "name": "2125031855be823fc2628067fd58180b"}, {"lon": -77.03381133333333, "is_disabled": 0, "lat": 38.899258, "fusion_lat": 0.0, "is_reserved": 0, "rental_uris": {"ios": "https://dc.lft.to/lastmile_qr_scan", "android": "https://dc.lft.to/lastmile_qr_scan"}, "fusion_lon": 0.0, "type": "electric_scooter", "bike_id": "d3608ed58c7af5fcdb42fccfcc2787b0", "name": "d3608ed58c7af5fcdb42fccfcc2787b0"}, {"lon": -77.05917416666666, "is_disabled": 0, "lat": 38.9027955, "fusion_lat": 0.0, "is_reserved": 0, "rental_uris": {"ios": "https://dc.lft.to/lastmile_qr_scan", "android": "https://dc.lft.to/lastmile_qr_scan"}, "fusion_lon": 0.0, "type": "electric_scooter", "bike_id": "331e400bfc46f5e6155c900bc905191c", "name": "331e400bfc46f5e6155c900bc905191c"}, {"lon": -77.06259283333333, "is_disabled": 0, "lat": 38.905754, "fusion_lat": 0.0, "is_reserved": 0, "rental_uris": {"ios": "https://dc.lft.to/lastmile_qr_scan", "android": "https://dc.lft.to/lastmile_qr_scan"}, "fusion_lon": 0.0, "type": "electric_scooter", "bike_id": "e7eecc7fdc6025b9b986067dfe2b8349", "name": "e7eecc7fdc6025b9b986067dfe2b8349"}, {"lon": -77.02855483333333, "is_disabled": 0, "lat": 38.893720333333334, "fusion_lat": 0.0, "is_reserved": 0, "rental_uris": {"ios": "https://dc.lft.to/lastmile_qr_scan", "android": "https://dc.lft.to/lastmile_qr_scan"}, "fusion_lon": 0.0, "type": "electric_scooter", "bike_id": "6f8a61ba2e01e51cb3c6f119cd0ef84e", "name": "6f8a61ba2e01e51cb3c6f119cd0ef84e"}, {"lon": -77.03178466666667, "is_disabled": 0, "lat": 38.9171205, "fusion_lat": 0.0, "is_reserved": 0, "rental_uris": {"ios": "https://dc.lft.to/lastmile_qr_scan", "android": "https://dc.lft.to/lastmile_qr_scan"}, "fusion_lon": 0.0, "type": "electric_scooter", "bike_id": "b98f6db341f2d423e62e3cbfe28f309f", "name": "b98f6db341f2d423e62e3cbfe28f309f"}, {"lon": -77.0384165, "is_disabled": 0, "lat": 38.94197416666667, "fusion_lat": 0.0, "is_reserved": 0, "rental_uris": {"ios": "https://dc.lft.to/lastmile_qr_scan", "android": "https://dc.lft.to/lastmile_qr_scan"}, "fusion_lon": 0.0, "type": "electric_scooter", "bike_id": "3fd9637356493198d482d6d007951c30", "name": "3fd9637356493198d482d6d007951c30"}, {"lon": -77.028228, "is_disabled": 0, "lat": 38.886600333333334, "fusion_lat": 0.0, "is_reserved": 0, "rental_uris": {"ios": "https://dc.lft.to/lastmile_qr_scan", "android": "https://dc.lft.to/lastmile_qr_scan"}, "fusion_lon": 0.0, "type": "electric_scooter", "bike_id": "74053388267d1d7e017ce90a457f6dd6", "name": "74053388267d1d7e017ce90a457f6dd6"}, {"lon": -77.0383255, "is_disabled": 0, "lat": 38.93132633333333, "fusion_lat": 0.0, "is_reserved": 0, "rental_uris": {"ios": "https://dc.lft.to/lastmile_qr_scan", "android": "https://dc.lft.to/lastmile_qr_scan"}, "fusion_lon": 0.0, "type": "electric_scooter", "bike_id": "fec5ee96f35a87bba0962638a827c587", "name": "fec5ee96f35a87bba0962638a827c587"}, {"lon": -77.01754933333333, "is_disabled": 0, "lat": 38.87692, "fusion_lat": 0.0, "is_reserved": 0, "rental_uris": {"ios": "https://dc.lft.to/lastmile_qr_scan", "android": "https://dc.lft.to/lastmile_qr_scan"}, "fusion_lon": 0.0, "type": "electric_scooter", "bike_id": "900b304e36abbe606abd43ba1361d556", "name": "900b304e36abbe606abd43ba1361d556"}, {"lon": -77.0222815, "is_disabled": 0, "lat": 38.892261833333336, "fusion_lat": 0.0, "is_reserved": 0, "rental_uris": {"ios": "https://dc.lft.to/lastmile_qr_scan", "android": "https://dc.lft.to/lastmile_qr_scan"}, "fusion_lon": 0.0, "type": "electric_scooter", "bike_id": "9b1f45075891f8e32a6dd4cf8b165bb0", "name": "9b1f45075891f8e32a6dd4cf8b165bb0"}, {"lon": -77.02819533333333, "is_disabled": 0, "lat": 38.90011283333333, "fusion_lat": 0.0, "is_reserved": 0, "rental_uris": {"ios": "https://dc.lft.to/lastmile_qr_scan", "android": "https://dc.lft.to/lastmile_qr_scan"}, "fusion_lon": 0.0, "type": "electric_scooter", "bike_id": "cef3d76c6ac1839f13330575ec99886f", "name": "cef3d76c6ac1839f13330575ec99886f"}, {"lon": -77.01210866666666, "is_disabled": 0, "lat": 38.8747605, "fusion_lat": 0.0, "is_reserved": 0, "rental_uris": {"ios": "https://dc.lft.to/lastmile_qr_scan", "android": "https://dc.lft.to/lastmile_qr_scan"}, "fusion_lon": 0.0, "type": "electric_scooter", "bike_id": "64edbd21590c1e2dd4a60f2209757365", "name": "64edbd21590c1e2dd4a60f2209757365"}, {"lon": -77.04177316666667, "is_disabled": 0, "lat": 38.90761916666666, "fusion_lat": 0.0, "is_reserved": 0, "rental_uris": {"ios": "https://dc.lft.to/lastmile_qr_scan", "android": "https://dc.lft.to/lastmile_qr_scan"}, "fusion_lon": 0.0, "type": "electric_scooter", "bike_id": "ecfabd8d186ad34faecf4644677da74e", "name": "ecfabd8d186ad34faecf4644677da74e"}, {"lon": -77.02207083333333, "is_disabled": 0, "lat": 38.89538483333333, "fusion_lat": 0.0, "is_reserved": 0, "rental_uris": {"ios": "https://dc.lft.to/lastmile_qr_scan", "android": "https://dc.lft.to/lastmile_qr_scan"}, "fusion_lon": 0.0, "type": "electric_scooter", "bike_id": "68a388c4abf62f1d05ffb95cf23fb56b", "name": "68a388c4abf62f1d05ffb95cf23fb56b"}, {"lon": -77.020477, "is_disabled": 0, "lat": 38.920953, "fusion_lat": 0.0, "is_reserved": 0, "rental_uris": {"ios": "https://dc.lft.to/lastmile_qr_scan", "android": "https://dc.lft.to/lastmile_qr_scan"}, "fusion_lon": 0.0, "type": "electric_scooter", "bike_id": "e6b4457269d49e75172ffc6ef808905a", "name": "e6b4457269d49e75172ffc6ef808905a"}, {"lon": -77.03736066666667, "is_disabled": 0, "lat": 38.92667083333333, "fusion_lat": 0.0, "is_reserved": 0, "rental_uris": {"ios": "https://dc.lft.to/lastmile_qr_scan", "android": "https://dc.lft.to/lastmile_qr_scan"}, "fusion_lon": 0.0, "type": "electric_scooter", "bike_id": "76320a1b982b86396e57c7d4a9e2e6c3", "name": "76320a1b982b86396e57c7d4a9e2e6c3"}, {"lon": -76.997015, "is_disabled": 0, "lat": 38.9079625, "fusion_lat": 0.0, "is_reserved": 0, "rental_uris": {"ios": "https://dc.lft.to/lastmile_qr_scan", "android": "https://dc.lft.to/lastmile_qr_scan"}, "fusion_lon": 0.0, "type": "electric_scooter", "bike_id": "057a0fa488dbfae1ef1de5350b5b935a", "name": "057a0fa488dbfae1ef1de5350b5b935a"}, {"lon": -77.04657983333334, "is_disabled": 0, "lat": 38.903962, "fusion_lat": 0.0, "is_reserved": 0, "rental_uris": {"ios": "https://dc.lft.to/lastmile_qr_scan", "android": "https://dc.lft.to/lastmile_qr_scan"}, "fusion_lon": 0.0, "type": "electric_scooter", "bike_id": "29bedcab099536937f38ee8d0c210a15", "name": "29bedcab099536937f38ee8d0c210a15"}, {"lon": -77.0416085, "is_disabled": 0, "lat": 38.90165983333333, "fusion_lat": 0.0, "is_reserved": 0, "rental_uris": {"ios": "https://dc.lft.to/lastmile_qr_scan", "android": "https://dc.lft.to/lastmile_qr_scan"}, "fusion_lon": 0.0, "type": "electric_scooter", "bike_id": "110ff218298462db3fc2cd7f94d23453", "name": "110ff218298462db3fc2cd7f94d23453"}, {"lon": -77.008116, "is_disabled": 0, "lat": 38.876735333333336, "fusion_lat": 0.0, "is_reserved": 0, "rental_uris": {"ios": "https://dc.lft.to/lastmile_qr_scan", "android": "https://dc.lft.to/lastmile_qr_scan"}, "fusion_lon": 0.0, "type": "electric_scooter", "bike_id": "ddafdbb604616e91e426c5401a6852d6", "name": "ddafdbb604616e91e426c5401a6852d6"}, {"lon": -76.965274, "is_disabled": 0, "lat": 38.876220833333335, "fusion_lat": 0.0, "is_reserved": 0, "rental_uris": {"ios": "https://dc.lft.to/lastmile_qr_scan", "android": "https://dc.lft.to/lastmile_qr_scan"}, "fusion_lon": 0.0, "type": "electric_scooter", "bike_id": "2f146676bc7a1f003b5cbb4b3db5c5f9", "name": "2f146676bc7a1f003b5cbb4b3db5c5f9"}, {"lon": -77.06332283333333, "is_disabled": 0, "lat": 38.921160666666665, "fusion_lat": 0.0, "is_reserved": 0, "rental_uris": {"ios": "https://dc.lft.to/lastmile_qr_scan", "android": "https://dc.lft.to/lastmile_qr_scan"}, "fusion_lon": 0.0, "type": "electric_scooter", "bike_id": "425157757a9320b2fc0cc5c593f08677", "name": "425157757a9320b2fc0cc5c593f08677"}, {"lon": -77.022059, "is_disabled": 0, "lat": 38.9113135, "fusion_lat": 0.0, "is_reserved": 0, "rental_uris": {"ios": "https://dc.lft.to/lastmile_qr_scan", "android": "https://dc.lft.to/lastmile_qr_scan"}, "fusion_lon": 0.0, "type": "electric_scooter", "bike_id": "9a4cdc160aff078c15894b6dcf414d03", "name": "9a4cdc160aff078c15894b6dcf414d03"}, {"lon": -77.01913466666667, "is_disabled": 0, "lat": 38.91731033333333, "fusion_lat": 0.0, "is_reserved": 0, "rental_uris": {"ios": "https://dc.lft.to/lastmile_qr_scan", "android": "https://dc.lft.to/lastmile_qr_scan"}, "fusion_lon": 0.0, "type": "electric_scooter", "bike_id": "834e61e991b199981478fc8552a886c8", "name": "834e61e991b199981478fc8552a886c8"}, {"lon": -77.04094566666667, "is_disabled": 0, "lat": 38.917346333333334, "fusion_lat": 0.0, "is_reserved": 0, "rental_uris": {"ios": "https://dc.lft.to/lastmile_qr_scan", "android": "https://dc.lft.to/lastmile_qr_scan"}, "fusion_lon": 0.0, "type": "electric_scooter", "bike_id": "c438dfc5e37f1e29b4e66a50473a63ff", "name": "c438dfc5e37f1e29b4e66a50473a63ff"}, {"lon": -76.93971733333333, "is_disabled": 0, "lat": 38.89324666666667, "fusion_lat": 0.0, "is_reserved": 0, "rental_uris": {"ios": "https://dc.lft.to/lastmile_qr_scan", "android": "https://dc.lft.to/lastmile_qr_scan"}, "fusion_lon": 0.0, "type": "electric_scooter", "bike_id": "daf26e89cd8842924e5d6014a5fd83d7", "name": "daf26e89cd8842924e5d6014a5fd83d7"}, {"lon": -77.043712, "is_disabled": 0, "lat": 38.89222483333333, "fusion_lat": 0.0, "is_reserved": 0, "rental_uris": {"ios": "https://dc.lft.to/lastmile_qr_scan", "android": "https://dc.lft.to/lastmile_qr_scan"}, "fusion_lon": 0.0, "type": "electric_scooter", "bike_id": "255d384e2d8342254807fa54ccc97291", "name": "255d384e2d8342254807fa54ccc97291"}, {"lon": -76.98274216666667, "is_disabled": 0, "lat": 38.8462405, "fusion_lat": 0.0, "is_reserved": 0, "rental_uris": {"ios": "https://dc.lft.to/lastmile_qr_scan", "android": "https://dc.lft.to/lastmile_qr_scan"}, "fusion_lon": 0.0, "type": "electric_scooter", "bike_id": "41b3170905bac0b05c7fbe69e7384080", "name": "41b3170905bac0b05c7fbe69e7384080"}, {"lon": -77.01601566666666, "is_disabled": 0, "lat": 38.89928883333333, "fusion_lat": 0.0, "is_reserved": 0, "rental_uris": {"ios": "https://dc.lft.to/lastmile_qr_scan", "android": "https://dc.lft.to/lastmile_qr_scan"}, "fusion_lon": 0.0, "type": "electric_scooter", "bike_id": "6fc23a5d8fd4f09cd5c539438ee53807", "name": "6fc23a5d8fd4f09cd5c539438ee53807"}, {"lon": -77.0167315, "is_disabled": 0, "lat": 38.92049216666667, "fusion_lat": 0.0, "is_reserved": 0, "rental_uris": {"ios": "https://dc.lft.to/lastmile_qr_scan", "android": "https://dc.lft.to/lastmile_qr_scan"}, "fusion_lon": 0.0, "type": "electric_scooter", "bike_id": "edc50eecebd3bc5e77e481b56f7fb8f3", "name": "edc50eecebd3bc5e77e481b56f7fb8f3"}, {"lon": -76.99492066666667, "is_disabled": 0, "lat": 38.86244283333333, "fusion_lat": 0.0, "is_reserved": 0, "rental_uris": {"ios": "https://dc.lft.to/lastmile_qr_scan", "android": "https://dc.lft.to/lastmile_qr_scan"}, "fusion_lon": 0.0, "type": "electric_scooter", "bike_id": "30961574b2edd3c5a412d73e4e2c2c40", "name": "30961574b2edd3c5a412d73e4e2c2c40"}, {"lon": -77.031854, "is_disabled": 0, "lat": 38.892444833333336, "fusion_lat": 0.0, "is_reserved": 0, "rental_uris": {"ios": "https://dc.lft.to/lastmile_qr_scan", "android": "https://dc.lft.to/lastmile_qr_scan"}, "fusion_lon": 0.0, "type": "electric_scooter", "bike_id": "7bde71c07b414defd737c297cd1108bd", "name": "7bde71c07b414defd737c297cd1108bd"}, {"lon": -77.04179516666666, "is_disabled": 0, "lat": 38.9262695, "fusion_lat": 0.0, "is_reserved": 0, "rental_uris": {"ios": "https://dc.lft.to/lastmile_qr_scan", "android": "https://dc.lft.to/lastmile_qr_scan"}, "fusion_lon": 0.0, "type": "electric_scooter", "bike_id": "fe2c66aa6956031e3936305d3a438c9e", "name": "fe2c66aa6956031e3936305d3a438c9e"}, {"lon": -77.040025, "is_disabled": 0, "lat": 38.9342995, "fusion_lat": 0.0, "is_reserved": 0, "rental_uris": {"ios": "https://dc.lft.to/lastmile_qr_scan", "android": "https://dc.lft.to/lastmile_qr_scan"}, "fusion_lon": 0.0, "type": "electric_scooter", "bike_id": "422a5a69a344b504f9974a53771f503e", "name": "422a5a69a344b504f9974a53771f503e"}, {"lon": -77.0527275, "is_disabled": 0, "lat": 38.9278755, "fusion_lat": 0.0, "is_reserved": 0, "rental_uris": {"ios": "https://dc.lft.to/lastmile_qr_scan", "android": "https://dc.lft.to/lastmile_qr_scan"}, "fusion_lon": 0.0, "type": "electric_scooter", "bike_id": "fd316f86180edeb4acfbe4b318e8ae7f", "name": "fd316f86180edeb4acfbe4b318e8ae7f"}, {"lon": -76.9914155, "is_disabled": 0, "lat": 38.90864466666667, "fusion_lat": 0.0, "is_reserved": 0, "rental_uris": {"ios": "https://dc.lft.to/lastmile_qr_scan", "android": "https://dc.lft.to/lastmile_qr_scan"}, "fusion_lon": 0.0, "type": "electric_bike", "bike_id": "2dac718b0eb5dde3419a310d0fc144d2", "name": "2dac718b0eb5dde3419a310d0fc144d2"}, {"lon": -76.994809, "is_disabled": 0, "lat": 38.891775833333334, "fusion_lat": 0.0, "is_reserved": 0, "rental_uris": {"ios": "https://dc.lft.to/lastmile_qr_scan", "android": "https://dc.lft.to/lastmile_qr_scan"}, "fusion_lon": 0.0, "type": "electric_scooter", "bike_id": "90ca2f20fa610ad459ebea786b071262", "name": "90ca2f20fa610ad459ebea786b071262"}, {"lon": -77.01410166666666, "is_disabled": 0, "lat": 38.9286535, "fusion_lat": 0.0, "is_reserved": 0, "rental_uris": {"ios": "https://dc.lft.to/lastmile_qr_scan", "android": "https://dc.lft.to/lastmile_qr_scan"}, "fusion_lon": 0.0, "type": "electric_scooter", "bike_id": "9f0c7388dbed7c07ea5b1ffbf78ca1e4", "name": "9f0c7388dbed7c07ea5b1ffbf78ca1e4"}, {"lon": -77.0346715, "is_disabled": 0, "lat": 38.908319166666665, "fusion_lat": 0.0, "is_reserved": 0, "rental_uris": {"ios": "https://dc.lft.to/lastmile_qr_scan", "android": "https://dc.lft.to/lastmile_qr_scan"}, "fusion_lon": 0.0, "type": "electric_scooter", "bike_id": "752a297c54ee4b4d9b18e270e882c739", "name": "752a297c54ee4b4d9b18e270e882c739"}, {"lon": -76.94894416666666, "is_disabled": 0, "lat": 38.8953485, "fusion_lat": 0.0, "is_reserved": 0, "rental_uris": {"ios": "https://dc.lft.to/lastmile_qr_scan", "android": "https://dc.lft.to/lastmile_qr_scan"}, "fusion_lon": 0.0, "type": "electric_scooter", "bike_id": "7b7f48802f5b13aabeabb6b95f6f1fb0", "name": "7b7f48802f5b13aabeabb6b95f6f1fb0"}, {"lon": -77.031901, "is_disabled": 0, "lat": 38.89248333333333, "fusion_lat": 0.0, "is_reserved": 0, "rental_uris": {"ios": "https://dc.lft.to/lastmile_qr_scan", "android": "https://dc.lft.to/lastmile_qr_scan"}, "fusion_lon": 0.0, "type": "electric_scooter", "bike_id": "c98914b272eb023a0c8eb97f5ae894f2", "name": "c98914b272eb023a0c8eb97f5ae894f2"}, {"lon": -77.032098, "is_disabled": 0, "lat": 38.892422833333335, "fusion_lat": 0.0, "is_reserved": 0, "rental_uris": {"ios": "https://dc.lft.to/lastmile_qr_scan", "android": "https://dc.lft.to/lastmile_qr_scan"}, "fusion_lon": 0.0, "type": "electric_scooter", "bike_id": "e71871cd0c1c86833a6ec91f0d3b3238", "name": "e71871cd0c1c86833a6ec91f0d3b3238"}, {"lon": -77.048686, "is_disabled": 0, "lat": 38.909769, "fusion_lat": 0.0, "is_reserved": 0, "rental_uris": {"ios": "https://dc.lft.to/lastmile_qr_scan", "android": "https://dc.lft.to/lastmile_qr_scan"}, "fusion_lon": 0.0, "type": "electric_scooter", "bike_id": "6112b461b907383464375443bd9790b5", "name": "6112b461b907383464375443bd9790b5"}, {"lon": -77.00064233333333, "is_disabled": 0, "lat": 38.87688516666667, "fusion_lat": 0.0, "is_reserved": 0, "rental_uris": {"ios": "https://dc.lft.to/lastmile_qr_scan", "android": "https://dc.lft.to/lastmile_qr_scan"}, "fusion_lon": 0.0, "type": "electric_scooter", "bike_id": "5ab5530dfcaacafacb7bc3598eaf5049", "name": "5ab5530dfcaacafacb7bc3598eaf5049"}, {"lon": -76.95663666666667, "is_disabled": 0, "lat": 38.884742333333335, "fusion_lat": 0.0, "is_reserved": 0, "rental_uris": {"ios": "https://dc.lft.to/lastmile_qr_scan", "android": "https://dc.lft.to/lastmile_qr_scan"}, "fusion_lon": 0.0, "type": "electric_bike", "bike_id": "b305d082096b1c7f66ffd860210bddea", "name": "b305d082096b1c7f66ffd860210bddea"}, {"lon": -77.03157, "is_disabled": 0, "lat": 38.91633366666667, "fusion_lat": 0.0, "is_reserved": 0, "rental_uris": {"ios": "https://dc.lft.to/lastmile_qr_scan", "android": "https://dc.lft.to/lastmile_qr_scan"}, "fusion_lon": 0.0, "type": "electric_scooter", "bike_id": "5f8ffcced2a9b382c9e2908cd27465b2", "name": "5f8ffcced2a9b382c9e2908cd27465b2"}, {"lon": -77.04302616666666, "is_disabled": 0, "lat": 39.034302333333336, "fusion_lat": 0.0, "is_reserved": 0, "rental_uris": {"ios": "https://dc.lft.to/lastmile_qr_scan", "android": "https://dc.lft.to/lastmile_qr_scan"}, "fusion_lon": 0.0, "type": "electric_bike", "bike_id": "7117fe428fc921cb0685dd5ffed62afa", "name": "7117fe428fc921cb0685dd5ffed62afa"}, {"lon": -77.04158483333333, "is_disabled": 0, "lat": 38.907459, "fusion_lat": 0.0, "is_reserved": 0, "rental_uris": {"ios": "https://dc.lft.to/lastmile_qr_scan", "android": "https://dc.lft.to/lastmile_qr_scan"}, "fusion_lon": 0.0, "type": "electric_scooter", "bike_id": "206aae90eb14033be31b5f6e3073e8f3", "name": "206aae90eb14033be31b5f6e3073e8f3"}, {"lon": -77.0436025, "is_disabled": 0, "lat": 38.910581, "fusion_lat": 0.0, "is_reserved": 0, "rental_uris": {"ios": "https://dc.lft.to/lastmile_qr_scan", "android": "https://dc.lft.to/lastmile_qr_scan"}, "fusion_lon": 0.0, "type": "electric_scooter", "bike_id": "9117be98e13b5289930469122ea361bd", "name": "9117be98e13b5289930469122ea361bd"}, {"lon": -76.977825, "is_disabled": 0, "lat": 38.9057485, "fusion_lat": 0.0, "is_reserved": 0, "rental_uris": {"ios": "https://dc.lft.to/lastmile_qr_scan", "android": "https://dc.lft.to/lastmile_qr_scan"}, "fusion_lon": 0.0, "type": "electric_scooter", "bike_id": "d5400b5f3668dddd3bfed9dc8c04e2b4", "name": "d5400b5f3668dddd3bfed9dc8c04e2b4"}, {"lon": -77.045976, "is_disabled": 0, "lat": 38.90288416666667, "fusion_lat": 0.0, "is_reserved": 0, "rental_uris": {"ios": "https://dc.lft.to/lastmile_qr_scan", "android": "https://dc.lft.to/lastmile_qr_scan"}, "fusion_lon": 0.0, "type": "electric_scooter", "bike_id": "c56bb8128b0764acec5fc9b9a2f3a72d", "name": "c56bb8128b0764acec5fc9b9a2f3a72d"}, {"lon": -77.012085, "is_disabled": 0, "lat": 38.906159, "fusion_lat": 0.0, "is_reserved": 0, "rental_uris": {"ios": "https://dc.lft.to/lastmile_qr_scan", "android": "https://dc.lft.to/lastmile_qr_scan"}, "fusion_lon": 0.0, "type": "electric_scooter", "bike_id": "71caea6fabd6b89a2fc70f9e1c632722", "name": "71caea6fabd6b89a2fc70f9e1c632722"}, {"lon": -77.01512116666666, "is_disabled": 0, "lat": 38.92675033333333, "fusion_lat": 0.0, "is_reserved": 0, "rental_uris": {"ios": "https://dc.lft.to/lastmile_qr_scan", "android": "https://dc.lft.to/lastmile_qr_scan"}, "fusion_lon": 0.0, "type": "electric_scooter", "bike_id": "9aff45dfd50b2e2d76c0474039cca84f", "name": "9aff45dfd50b2e2d76c0474039cca84f"}, {"lon": -77.04390883333333, "is_disabled": 0, "lat": 38.91666983333333, "fusion_lat": 0.0, "is_reserved": 0, "rental_uris": {"ios": "https://dc.lft.to/lastmile_qr_scan", "android": "https://dc.lft.to/lastmile_qr_scan"}, "fusion_lon": 0.0, "type": "electric_scooter", "bike_id": "755c917d54c9bfeeaa804be9da1ab2a9", "name": "755c917d54c9bfeeaa804be9da1ab2a9"}, {"lon": -76.9868885, "is_disabled": 0, "lat": 38.87761833333333, "fusion_lat": 0.0, "is_reserved": 0, "rental_uris": {"ios": "https://dc.lft.to/lastmile_qr_scan", "android": "https://dc.lft.to/lastmile_qr_scan"}, "fusion_lon": 0.0, "type": "electric_scooter", "bike_id": "e83c110f1be8bc0e9ca5b307531bc51e", "name": "e83c110f1be8bc0e9ca5b307531bc51e"}, {"lon": -77.03372233333333, "is_disabled": 0, "lat": 38.921655333333334, "fusion_lat": 0.0, "is_reserved": 0, "rental_uris": {"ios": "https://dc.lft.to/lastmile_qr_scan", "android": "https://dc.lft.to/lastmile_qr_scan"}, "fusion_lon": 0.0, "type": "electric_scooter", "bike_id": "51e700996352dec2dfb479d5b09eb643", "name": "51e700996352dec2dfb479d5b09eb643"}, {"lon": -77.02770633333333, "is_disabled": 0, "lat": 38.928709166666664, "fusion_lat": 0.0, "is_reserved": 0, "rental_uris": {"ios": "https://dc.lft.to/lastmile_qr_scan", "android": "https://dc.lft.to/lastmile_qr_scan"}, "fusion_lon": 0.0, "type": "electric_scooter", "bike_id": "a486b8ff900dc42c8b86187a963bf7d8", "name": "a486b8ff900dc42c8b86187a963bf7d8"}, {"lon": -76.99626216666667, "is_disabled": 0, "lat": 38.8844695, "fusion_lat": 0.0, "is_reserved": 0, "rental_uris": {"ios": "https://dc.lft.to/lastmile_qr_scan", "android": "https://dc.lft.to/lastmile_qr_scan"}, "fusion_lon": 0.0, "type": "electric_scooter", "bike_id": "ed1e38ede41a594217baf962cf0dd0b0", "name": "ed1e38ede41a594217baf962cf0dd0b0"}, {"lon": -77.03809133333333, "is_disabled": 0, "lat": 38.90231633333333, "fusion_lat": 0.0, "is_reserved": 0, "rental_uris": {"ios": "https://dc.lft.to/lastmile_qr_scan", "android": "https://dc.lft.to/lastmile_qr_scan"}, "fusion_lon": 0.0, "type": "electric_scooter", "bike_id": "891ddadec7702ca6051766cc2e83010c", "name": "891ddadec7702ca6051766cc2e83010c"}, {"lon": -76.94635866666667, "is_disabled": 0, "lat": 38.832494, "fusion_lat": 0.0, "is_reserved": 0, "rental_uris": {"ios": "https://dc.lft.to/lastmile_qr_scan", "android": "https://dc.lft.to/lastmile_qr_scan"}, "fusion_lon": 0.0, "type": "electric_bike", "bike_id": "6e1f1086ff0ee6f82cc2070b9ad7280b", "name": "6e1f1086ff0ee6f82cc2070b9ad7280b"}, {"lon": -77.024099, "is_disabled": 0, "lat": 38.91425233333333, "fusion_lat": 0.0, "is_reserved": 0, "rental_uris": {"ios": "https://dc.lft.to/lastmile_qr_scan", "android": "https://dc.lft.to/lastmile_qr_scan"}, "fusion_lon": 0.0, "type": "electric_scooter", "bike_id": "5b9eb4bf6c2987d1fb99bc97fce5fede", "name": "5b9eb4bf6c2987d1fb99bc97fce5fede"}, {"lon": -77.02308516666666, "is_disabled": 0, "lat": 38.92754333333333, "fusion_lat": 0.0, "is_reserved": 0, "rental_uris": {"ios": "https://dc.lft.to/lastmile_qr_scan", "android": "https://dc.lft.to/lastmile_qr_scan"}, "fusion_lon": 0.0, "type": "electric_scooter", "bike_id": "54fbb076c03c86af49d91acea81f240d", "name": "54fbb076c03c86af49d91acea81f240d"}, {"lon": -76.93026616666667, "is_disabled": 0, "lat": 38.895705666666665, "fusion_lat": 0.0, "is_reserved": 0, "rental_uris": {"ios": "https://dc.lft.to/lastmile_qr_scan", "android": "https://dc.lft.to/lastmile_qr_scan"}, "fusion_lon": 0.0, "type": "electric_scooter", "bike_id": "2d5525e34410726ac78e392da159ec5c", "name": "2d5525e34410726ac78e392da159ec5c"}, {"lon": -77.051514, "is_disabled": 0, "lat": 38.923781, "fusion_lat": 0.0, "is_reserved": 0, "rental_uris": {"ios": "https://dc.lft.to/lastmile_qr_scan", "android": "https://dc.lft.to/lastmile_qr_scan"}, "fusion_lon": 0.0, "type": "electric_scooter", "bike_id": "037762ac95a80d9b9e3c3e938f2ff98b", "name": "037762ac95a80d9b9e3c3e938f2ff98b"}, {"lon": -77.0447665, "is_disabled": 0, "lat": 38.903642833333336, "fusion_lat": 0.0, "is_reserved": 0, "rental_uris": {"ios": "https://dc.lft.to/lastmile_qr_scan", "android": "https://dc.lft.to/lastmile_qr_scan"}, "fusion_lon": 0.0, "type": "electric_scooter", "bike_id": "6f275a0bd49f186f993080c9fc2a0e70", "name": "6f275a0bd49f186f993080c9fc2a0e70"}, {"lon": -77.0089015, "is_disabled": 0, "lat": 38.92330066666667, "fusion_lat": 0.0, "is_reserved": 0, "rental_uris": {"ios": "https://dc.lft.to/lastmile_qr_scan", "android": "https://dc.lft.to/lastmile_qr_scan"}, "fusion_lon": 0.0, "type": "electric_scooter", "bike_id": "e37a50a5e9e00493ef9aebb423f64cfa", "name": "e37a50a5e9e00493ef9aebb423f64cfa"}, {"lon": -77.00727466666666, "is_disabled": 0, "lat": 38.88497483333333, "fusion_lat": 0.0, "is_reserved": 0, "rental_uris": {"ios": "https://dc.lft.to/lastmile_qr_scan", "android": "https://dc.lft.to/lastmile_qr_scan"}, "fusion_lon": 0.0, "type": "electric_scooter", "bike_id": "a84c460fb45b2f9c5aec73ca5efb4e96", "name": "a84c460fb45b2f9c5aec73ca5efb4e96"}, {"lon": -77.03211233333333, "is_disabled": 0, "lat": 38.91837833333334, "fusion_lat": 0.0, "is_reserved": 0, "rental_uris": {"ios": "https://dc.lft.to/lastmile_qr_scan", "android": "https://dc.lft.to/lastmile_qr_scan"}, "fusion_lon": 0.0, "type": "electric_scooter", "bike_id": "bc3aee2b5a765e40f4d7ce8e4b3a1037", "name": "bc3aee2b5a765e40f4d7ce8e4b3a1037"}, {"lon": -76.97922266666667, "is_disabled": 0, "lat": 38.91654833333333, "fusion_lat": 0.0, "is_reserved": 0, "rental_uris": {"ios": "https://dc.lft.to/lastmile_qr_scan", "android": "https://dc.lft.to/lastmile_qr_scan"}, "fusion_lon": 0.0, "type": "electric_scooter", "bike_id": "81b6ec8568cba1050c97109c43a925a9", "name": "81b6ec8568cba1050c97109c43a925a9"}, {"lon": -77.03229866666666, "is_disabled": 0, "lat": 38.91263416666666, "fusion_lat": 0.0, "is_reserved": 0, "rental_uris": {"ios": "https://dc.lft.to/lastmile_qr_scan", "android": "https://dc.lft.to/lastmile_qr_scan"}, "fusion_lon": 0.0, "type": "electric_scooter", "bike_id": "f25f9ebfaae7ac6c1469761c27147a0a", "name": "f25f9ebfaae7ac6c1469761c27147a0a"}, {"lon": -76.98697833333334, "is_disabled": 0, "lat": 38.86725833333333, "fusion_lat": 0.0, "is_reserved": 0, "rental_uris": {"ios": "https://dc.lft.to/lastmile_qr_scan", "android": "https://dc.lft.to/lastmile_qr_scan"}, "fusion_lon": 0.0, "type": "electric_scooter", "bike_id": "5e8e98eab97a893cf50a1182a859f4a8", "name": "5e8e98eab97a893cf50a1182a859f4a8"}, {"lon": -77.1405315, "is_disabled": 0, "lat": 38.98774433333333, "fusion_lat": 0.0, "is_reserved": 0, "rental_uris": {"ios": "https://dc.lft.to/lastmile_qr_scan", "android": "https://dc.lft.to/lastmile_qr_scan"}, "fusion_lon": 0.0, "type": "electric_bike", "bike_id": "c78ea0fdc3699359846cd1a6dc448e9c", "name": "c78ea0fdc3699359846cd1a6dc448e9c"}, {"lon": -77.00305166666666, "is_disabled": 0, "lat": 38.92031816666667, "fusion_lat": 0.0, "is_reserved": 0, "rental_uris": {"ios": "https://dc.lft.to/lastmile_qr_scan", "android": "https://dc.lft.to/lastmile_qr_scan"}, "fusion_lon": 0.0, "type": "electric_scooter", "bike_id": "dfc09c2040701aa34e54db578b64f12e", "name": "dfc09c2040701aa34e54db578b64f12e"}, {"lon": -77.00140266666666, "is_disabled": 0, "lat": 38.89743133333333, "fusion_lat": 0.0, "is_reserved": 0, "rental_uris": {"ios": "https://dc.lft.to/lastmile_qr_scan", "android": "https://dc.lft.to/lastmile_qr_scan"}, "fusion_lon": 0.0, "type": "electric_scooter", "bike_id": "1bfc52cf13a83a5004506a522d899698", "name": "1bfc52cf13a83a5004506a522d899698"}, {"lon": -77.02824383333333, "is_disabled": 0, "lat": 38.88624983333333, "fusion_lat": 0.0, "is_reserved": 0, "rental_uris": {"ios": "https://dc.lft.to/lastmile_qr_scan", "android": "https://dc.lft.to/lastmile_qr_scan"}, "fusion_lon": 0.0, "type": "electric_scooter", "bike_id": "62435b3bfe3a58e1efd3f0d06e1e3c9e", "name": "62435b3bfe3a58e1efd3f0d06e1e3c9e"}, {"lon": -77.02927816666667, "is_disabled": 0, "lat": 38.899881666666666, "fusion_lat": 0.0, "is_reserved": 0, "rental_uris": {"ios": "https://dc.lft.to/lastmile_qr_scan", "android": "https://dc.lft.to/lastmile_qr_scan"}, "fusion_lon": 0.0, "type": "electric_scooter", "bike_id": "1b9e13b5ec482ac11efa1952adcb95cc", "name": "1b9e13b5ec482ac11efa1952adcb95cc"}, {"lon": -77.01473733333333, "is_disabled": 0, "lat": 38.91877216666666, "fusion_lat": 0.0, "is_reserved": 0, "rental_uris": {"ios": "https://dc.lft.to/lastmile_qr_scan", "android": "https://dc.lft.to/lastmile_qr_scan"}, "fusion_lon": 0.0, "type": "electric_scooter", "bike_id": "35b3dc7e6701ba176a1726504426a0aa", "name": "35b3dc7e6701ba176a1726504426a0aa"}, {"lon": -76.947259, "is_disabled": 0, "lat": 38.89742483333333, "fusion_lat": 0.0, "is_reserved": 0, "rental_uris": {"ios": "https://dc.lft.to/lastmile_qr_scan", "android": "https://dc.lft.to/lastmile_qr_scan"}, "fusion_lon": 0.0, "type": "electric_scooter", "bike_id": "f326fbb2197d770d1c424442eee90695", "name": "f326fbb2197d770d1c424442eee90695"}, {"lon": -77.0468905, "is_disabled": 0, "lat": 38.89228683333333, "fusion_lat": 0.0, "is_reserved": 0, "rental_uris": {"ios": "https://dc.lft.to/lastmile_qr_scan", "android": "https://dc.lft.to/lastmile_qr_scan"}, "fusion_lon": 0.0, "type": "electric_scooter", "bike_id": "e25056b4e77e28cc48039d785f584f01", "name": "e25056b4e77e28cc48039d785f584f01"}, {"lon": -77.02137566666667, "is_disabled": 0, "lat": 38.919132833333336, "fusion_lat": 0.0, "is_reserved": 0, "rental_uris": {"ios": "https://dc.lft.to/lastmile_qr_scan", "android": "https://dc.lft.to/lastmile_qr_scan"}, "fusion_lon": 0.0, "type": "electric_scooter", "bike_id": "93e8683f9d19ca5a830179b95ccc07db", "name": "93e8683f9d19ca5a830179b95ccc07db"}, {"lon": -77.0316575, "is_disabled": 0, "lat": 38.89782433333333, "fusion_lat": 0.0, "is_reserved": 0, "rental_uris": {"ios": "https://dc.lft.to/lastmile_qr_scan", "android": "https://dc.lft.to/lastmile_qr_scan"}, "fusion_lon": 0.0, "type": "electric_scooter", "bike_id": "36823a3048231b6d87c823070a0f3cc7", "name": "36823a3048231b6d87c823070a0f3cc7"}, {"lon": -77.023073, "is_disabled": 0, "lat": 38.92900133333333, "fusion_lat": 0.0, "is_reserved": 0, "rental_uris": {"ios": "https://dc.lft.to/lastmile_qr_scan", "android": "https://dc.lft.to/lastmile_qr_scan"}, "fusion_lon": 0.0, "type": "electric_scooter", "bike_id": "6991d840fa3f8a5e5ab08a7993029353", "name": "6991d840fa3f8a5e5ab08a7993029353"}, {"lon": -77.06394216666666, "is_disabled": 0, "lat": 38.94421233333333, "fusion_lat": 0.0, "is_reserved": 0, "rental_uris": {"ios": "https://dc.lft.to/lastmile_qr_scan", "android": "https://dc.lft.to/lastmile_qr_scan"}, "fusion_lon": 0.0, "type": "electric_scooter", "bike_id": "0879428300e09e3a6b47c5fc4c53224c", "name": "0879428300e09e3a6b47c5fc4c53224c"}, {"lon": -77.03728783333334, "is_disabled": 0, "lat": 38.90263133333333, "fusion_lat": 0.0, "is_reserved": 0, "rental_uris": {"ios": "https://dc.lft.to/lastmile_qr_scan", "android": "https://dc.lft.to/lastmile_qr_scan"}, "fusion_lon": 0.0, "type": "electric_scooter", "bike_id": "c4f8d07c94137e8e27d716423073c850", "name": "c4f8d07c94137e8e27d716423073c850"}, {"lon": -77.002165, "is_disabled": 0, "lat": 38.82369166666667, "fusion_lat": 0.0, "is_reserved": 0, "rental_uris": {"ios": "https://dc.lft.to/lastmile_qr_scan", "android": "https://dc.lft.to/lastmile_qr_scan"}, "fusion_lon": 0.0, "type": "electric_bike", "bike_id": "310acd991646d3f74eb0d9ef75d981dd", "name": "310acd991646d3f74eb0d9ef75d981dd"}, {"lon": -77.02127, "is_disabled": 0, "lat": 38.90215416666667, "fusion_lat": 0.0, "is_reserved": 0, "rental_uris": {"ios": "https://dc.lft.to/lastmile_qr_scan", "android": "https://dc.lft.to/lastmile_qr_scan"}, "fusion_lon": 0.0, "type": "electric_scooter", "bike_id": "55deabd25c3a1b8c98dcdb56783eb751", "name": "55deabd25c3a1b8c98dcdb56783eb751"}, {"lon": -76.99967933333333, "is_disabled": 0, "lat": 38.87493416666667, "fusion_lat": 0.0, "is_reserved": 0, "rental_uris": {"ios": "https://dc.lft.to/lastmile_qr_scan", "android": "https://dc.lft.to/lastmile_qr_scan"}, "fusion_lon": 0.0, "type": "electric_scooter", "bike_id": "1e2b72828c75440a745bc3754ca6f7c6", "name": "1e2b72828c75440a745bc3754ca6f7c6"}, {"lon": -77.00926466666667, "is_disabled": 0, "lat": 38.91933516666667, "fusion_lat": 0.0, "is_reserved": 0, "rental_uris": {"ios": "https://dc.lft.to/lastmile_qr_scan", "android": "https://dc.lft.to/lastmile_qr_scan"}, "fusion_lon": 0.0, "type": "electric_scooter", "bike_id": "27a83eb4e6db6d13d47bade50b6de029", "name": "27a83eb4e6db6d13d47bade50b6de029"}, {"lon": -77.03364316666666, "is_disabled": 0, "lat": 38.924539833333334, "fusion_lat": 0.0, "is_reserved": 0, "rental_uris": {"ios": "https://dc.lft.to/lastmile_qr_scan", "android": "https://dc.lft.to/lastmile_qr_scan"}, "fusion_lon": 0.0, "type": "electric_scooter", "bike_id": "76ff8569cd5a6f2092bcf1e4f1e4976b", "name": "76ff8569cd5a6f2092bcf1e4f1e4976b"}, {"lon": -77.11831383333333, "is_disabled": 0, "lat": 38.8594015, "fusion_lat": 0.0, "is_reserved": 0, "rental_uris": {"ios": "https://dc.lft.to/lastmile_qr_scan", "android": "https://dc.lft.to/lastmile_qr_scan"}, "fusion_lon": 0.0, "type": "electric_bike", "bike_id": "48c4b5aef81a260b25be39c1f385124f", "name": "48c4b5aef81a260b25be39c1f385124f"}, {"lon": -77.0215695, "is_disabled": 0, "lat": 38.926029, "fusion_lat": 0.0, "is_reserved": 0, "rental_uris": {"ios": "https://dc.lft.to/lastmile_qr_scan", "android": "https://dc.lft.to/lastmile_qr_scan"}, "fusion_lon": 0.0, "type": "electric_scooter", "bike_id": "6266613dc7425517df4fb68151934840", "name": "6266613dc7425517df4fb68151934840"}, {"lon": -77.0419375, "is_disabled": 0, "lat": 38.92058333333333, "fusion_lat": 0.0, "is_reserved": 0, "rental_uris": {"ios": "https://dc.lft.to/lastmile_qr_scan", "android": "https://dc.lft.to/lastmile_qr_scan"}, "fusion_lon": 0.0, "type": "electric_scooter", "bike_id": "9766781fd8159b2def340633e6d6fc72", "name": "9766781fd8159b2def340633e6d6fc72"}, {"lon": -77.07269983333333, "is_disabled": 0, "lat": 38.911647333333335, "fusion_lat": 0.0, "is_reserved": 0, "rental_uris": {"ios": "https://dc.lft.to/lastmile_qr_scan", "android": "https://dc.lft.to/lastmile_qr_scan"}, "fusion_lon": 0.0, "type": "electric_scooter", "bike_id": "4b07b8a552b729b8bec74107b6424599", "name": "4b07b8a552b729b8bec74107b6424599"}, {"lon": -77.03259116666666, "is_disabled": 0, "lat": 38.939746, "fusion_lat": 0.0, "is_reserved": 0, "rental_uris": {"ios": "https://dc.lft.to/lastmile_qr_scan", "android": "https://dc.lft.to/lastmile_qr_scan"}, "fusion_lon": 0.0, "type": "electric_scooter", "bike_id": "73ae1203234d3ecfa8d0fbb966219c57", "name": "73ae1203234d3ecfa8d0fbb966219c57"}, {"lon": -77.05041083333333, "is_disabled": 0, "lat": 38.92340983333333, "fusion_lat": 0.0, "is_reserved": 0, "rental_uris": {"ios": "https://dc.lft.to/lastmile_qr_scan", "android": "https://dc.lft.to/lastmile_qr_scan"}, "fusion_lon": 0.0, "type": "electric_scooter", "bike_id": "3cb1895f634befadf7b233e3831e94dc", "name": "3cb1895f634befadf7b233e3831e94dc"}, {"lon": -77.01530183333334, "is_disabled": 0, "lat": 38.884947333333336, "fusion_lat": 0.0, "is_reserved": 0, "rental_uris": {"ios": "https://dc.lft.to/lastmile_qr_scan", "android": "https://dc.lft.to/lastmile_qr_scan"}, "fusion_lon": 0.0, "type": "electric_scooter", "bike_id": "de3006d7ef3695f08415d394ef552fac", "name": "de3006d7ef3695f08415d394ef552fac"}, {"lon": -77.01958283333333, "is_disabled": 0, "lat": 38.9241615, "fusion_lat": 0.0, "is_reserved": 0, "rental_uris": {"ios": "https://dc.lft.to/lastmile_qr_scan", "android": "https://dc.lft.to/lastmile_qr_scan"}, "fusion_lon": 0.0, "type": "electric_scooter", "bike_id": "49b4dfacc4a1aac780ef29ca4f994ea5", "name": "49b4dfacc4a1aac780ef29ca4f994ea5"}, {"lon": -76.985481, "is_disabled": 0, "lat": 38.866947333333336, "fusion_lat": 0.0, "is_reserved": 0, "rental_uris": {"ios": "https://dc.lft.to/lastmile_qr_scan", "android": "https://dc.lft.to/lastmile_qr_scan"}, "fusion_lon": 0.0, "type": "electric_scooter", "bike_id": "3742f629a6d672f3b7118584312d71d4", "name": "3742f629a6d672f3b7118584312d71d4"}, {"lon": -76.99497083333333, "is_disabled": 0, "lat": 38.8218225, "fusion_lat": 0.0, "is_reserved": 0, "rental_uris": {"ios": "https://dc.lft.to/lastmile_qr_scan", "android": "https://dc.lft.to/lastmile_qr_scan"}, "fusion_lon": 0.0, "type": "electric_bike", "bike_id": "f0168c8352a44b34fe2ad92d37f41724", "name": "f0168c8352a44b34fe2ad92d37f41724"}, {"lon": -76.99783933333333, "is_disabled": 0, "lat": 38.908978, "fusion_lat": 0.0, "is_reserved": 0, "rental_uris": {"ios": "https://dc.lft.to/lastmile_qr_scan", "android": "https://dc.lft.to/lastmile_qr_scan"}, "fusion_lon": 0.0, "type": "electric_scooter", "bike_id": "d793e80bba755264bd4c9989542dbb24", "name": "d793e80bba755264bd4c9989542dbb24"}, {"lon": -76.99752216666667, "is_disabled": 0, "lat": 38.877538, "fusion_lat": 0.0, "is_reserved": 0, "rental_uris": {"ios": "https://dc.lft.to/lastmile_qr_scan", "android": "https://dc.lft.to/lastmile_qr_scan"}, "fusion_lon": 0.0, "type": "electric_scooter", "bike_id": "c462645a71a393797359b5225a793478", "name": "c462645a71a393797359b5225a793478"}, {"lon": -77.07166166666667, "is_disabled": 0, "lat": 38.908767166666664, "fusion_lat": 0.0, "is_reserved": 0, "rental_uris": {"ios": "https://dc.lft.to/lastmile_qr_scan", "android": "https://dc.lft.to/lastmile_qr_scan"}, "fusion_lon": 0.0, "type": "electric_scooter", "bike_id": "d0cb70c7f78ea6d308cdfb4182d250df", "name": "d0cb70c7f78ea6d308cdfb4182d250df"}, {"lon": -76.99134133333334, "is_disabled": 0, "lat": 38.846424166666665, "fusion_lat": 0.0, "is_reserved": 0, "rental_uris": {"ios": "https://dc.lft.to/lastmile_qr_scan", "android": "https://dc.lft.to/lastmile_qr_scan"}, "fusion_lon": 0.0, "type": "electric_scooter", "bike_id": "1ae53905f7ef6f4729767ac67d9bfd8f", "name": "1ae53905f7ef6f4729767ac67d9bfd8f"}, {"lon": -77.01726316666667, "is_disabled": 0, "lat": 38.90280933333333, "fusion_lat": 0.0, "is_reserved": 0, "rental_uris": {"ios": "https://dc.lft.to/lastmile_qr_scan", "android": "https://dc.lft.to/lastmile_qr_scan"}, "fusion_lon": 0.0, "type": "electric_scooter", "bike_id": "095efd2f4e08ed6bdbfe683a0948db37", "name": "095efd2f4e08ed6bdbfe683a0948db37"}, {"lon": -76.94933516666667, "is_disabled": 0, "lat": 38.89358266666667, "fusion_lat": 0.0, "is_reserved": 0, "rental_uris": {"ios": "https://dc.lft.to/lastmile_qr_scan", "android": "https://dc.lft.to/lastmile_qr_scan"}, "fusion_lon": 0.0, "type": "electric_scooter", "bike_id": "878c43dcbacaaeb71c7d6acf4c94db7e", "name": "878c43dcbacaaeb71c7d6acf4c94db7e"}, {"lon": -77.00053783333334, "is_disabled": 0, "lat": 38.92329083333333, "fusion_lat": 0.0, "is_reserved": 0, "rental_uris": {"ios": "https://dc.lft.to/lastmile_qr_scan", "android": "https://dc.lft.to/lastmile_qr_scan"}, "fusion_lon": 0.0, "type": "electric_scooter", "bike_id": "8896fe8e118410e50bee2dca89b0bed8", "name": "8896fe8e118410e50bee2dca89b0bed8"}, {"lon": -76.94636683333333, "is_disabled": 0, "lat": 38.898391, "fusion_lat": 0.0, "is_reserved": 0, "rental_uris": {"ios": "https://dc.lft.to/lastmile_qr_scan", "android": "https://dc.lft.to/lastmile_qr_scan"}, "fusion_lon": 0.0, "type": "electric_scooter", "bike_id": "116ce44bbdebc366af95471f7ce6285b", "name": "116ce44bbdebc366af95471f7ce6285b"}, {"lon": -77.0177695, "is_disabled": 0, "lat": 38.91503516666667, "fusion_lat": 0.0, "is_reserved": 0, "rental_uris": {"ios": "https://dc.lft.to/lastmile_qr_scan", "android": "https://dc.lft.to/lastmile_qr_scan"}, "fusion_lon": 0.0, "type": "electric_scooter", "bike_id": "c8ad5ad4e774b632bef61d3a1855f371", "name": "c8ad5ad4e774b632bef61d3a1855f371"}, {"lon": -77.0425955, "is_disabled": 0, "lat": 38.9236285, "fusion_lat": 0.0, "is_reserved": 0, "rental_uris": {"ios": "https://dc.lft.to/lastmile_qr_scan", "android": "https://dc.lft.to/lastmile_qr_scan"}, "fusion_lon": 0.0, "type": "electric_scooter", "bike_id": "3bb142df4770f064d432e2ebe944f7c5", "name": "3bb142df4770f064d432e2ebe944f7c5"}, {"lon": -77.0325915, "is_disabled": 0, "lat": 38.939788, "fusion_lat": 0.0, "is_reserved": 0, "rental_uris": {"ios": "https://dc.lft.to/lastmile_qr_scan", "android": "https://dc.lft.to/lastmile_qr_scan"}, "fusion_lon": 0.0, "type": "electric_scooter", "bike_id": "24ba7cf71a06d2f4ae677555c940246a", "name": "24ba7cf71a06d2f4ae677555c940246a"}, {"lon": -77.03962933333334, "is_disabled": 0, "lat": 38.898731833333336, "fusion_lat": 0.0, "is_reserved": 0, "rental_uris": {"ios": "https://dc.lft.to/lastmile_qr_scan", "android": "https://dc.lft.to/lastmile_qr_scan"}, "fusion_lon": 0.0, "type": "electric_scooter", "bike_id": "1e0405d78fecf1a32e8f275681dc4c10", "name": "1e0405d78fecf1a32e8f275681dc4c10"}, {"lon": -77.02346483333334, "is_disabled": 0, "lat": 38.900029833333335, "fusion_lat": 0.0, "is_reserved": 0, "rental_uris": {"ios": "https://dc.lft.to/lastmile_qr_scan", "android": "https://dc.lft.to/lastmile_qr_scan"}, "fusion_lon": 0.0, "type": "electric_scooter", "bike_id": "e50e070d178f1d671013652af0e19cdd", "name": "e50e070d178f1d671013652af0e19cdd"}, {"lon": -77.10859616666667, "is_disabled": 0, "lat": 38.84604816666667, "fusion_lat": 0.0, "is_reserved": 0, "rental_uris": {"ios": "https://dc.lft.to/lastmile_qr_scan", "android": "https://dc.lft.to/lastmile_qr_scan"}, "fusion_lon": 0.0, "type": "electric_bike", "bike_id": "6e1ea78cfb0dc206efec0f56c21096d7", "name": "6e1ea78cfb0dc206efec0f56c21096d7"}, {"lon": -77.044916, "is_disabled": 0, "lat": 38.899563, "fusion_lat": 0.0, "is_reserved": 0, "rental_uris": {"ios": "https://dc.lft.to/lastmile_qr_scan", "android": "https://dc.lft.to/lastmile_qr_scan"}, "fusion_lon": 0.0, "type": "electric_scooter", "bike_id": "04cb879b1b79f284bd151fd9eb9cfe3c", "name": "04cb879b1b79f284bd151fd9eb9cfe3c"}, {"lon": -77.0067675, "is_disabled": 0, "lat": 38.8718405, "fusion_lat": 0.0, "is_reserved": 0, "rental_uris": {"ios": "https://dc.lft.to/lastmile_qr_scan", "android": "https://dc.lft.to/lastmile_qr_scan"}, "fusion_lon": 0.0, "type": "electric_scooter", "bike_id": "05c6f87b0d4bdfae5acaa79997ad983a", "name": "05c6f87b0d4bdfae5acaa79997ad983a"}, {"lon": -77.02125416666667, "is_disabled": 0, "lat": 38.91424, "fusion_lat": 0.0, "is_reserved": 0, "rental_uris": {"ios": "https://dc.lft.to/lastmile_qr_scan", "android": "https://dc.lft.to/lastmile_qr_scan"}, "fusion_lon": 0.0, "type": "electric_scooter", "bike_id": "601136380f74ae6d22ee4311901644ab", "name": "601136380f74ae6d22ee4311901644ab"}, {"lon": -77.02014433333333, "is_disabled": 0, "lat": 38.924295, "fusion_lat": 0.0, "is_reserved": 0, "rental_uris": {"ios": "https://dc.lft.to/lastmile_qr_scan", "android": "https://dc.lft.to/lastmile_qr_scan"}, "fusion_lon": 0.0, "type": "electric_scooter", "bike_id": "1902d2a93ede3d521d3ab327c87540e5", "name": "1902d2a93ede3d521d3ab327c87540e5"}, {"lon": -77.05153833333334, "is_disabled": 0, "lat": 38.92381966666667, "fusion_lat": 0.0, "is_reserved": 0, "rental_uris": {"ios": "https://dc.lft.to/lastmile_qr_scan", "android": "https://dc.lft.to/lastmile_qr_scan"}, "fusion_lon": 0.0, "type": "electric_scooter", "bike_id": "2596913420d613deb60260a8827d0dd5", "name": "2596913420d613deb60260a8827d0dd5"}, {"lon": -77.0115635, "is_disabled": 0, "lat": 38.956348166666665, "fusion_lat": 0.0, "is_reserved": 0, "rental_uris": {"ios": "https://dc.lft.to/lastmile_qr_scan", "android": "https://dc.lft.to/lastmile_qr_scan"}, "fusion_lon": 0.0, "type": "electric_scooter", "bike_id": "73902a308079a4cb77d08a42417f427e", "name": "73902a308079a4cb77d08a42417f427e"}, {"lon": -77.01144916666667, "is_disabled": 0, "lat": 38.92964583333333, "fusion_lat": 0.0, "is_reserved": 0, "rental_uris": {"ios": "https://dc.lft.to/lastmile_qr_scan", "android": "https://dc.lft.to/lastmile_qr_scan"}, "fusion_lon": 0.0, "type": "electric_scooter", "bike_id": "0335995915bbe0bf27d372ce2f18899b", "name": "0335995915bbe0bf27d372ce2f18899b"}, {"lon": -77.010013, "is_disabled": 0, "lat": 38.956603333333334, "fusion_lat": 0.0, "is_reserved": 0, "rental_uris": {"ios": "https://dc.lft.to/lastmile_qr_scan", "android": "https://dc.lft.to/lastmile_qr_scan"}, "fusion_lon": 0.0, "type": "electric_scooter", "bike_id": "deb94dccc0af5701cbfaa9bb0217d754", "name": "deb94dccc0af5701cbfaa9bb0217d754"}, {"lon": -77.03192483333333, "is_disabled": 0, "lat": 38.913281833333336, "fusion_lat": 0.0, "is_reserved": 0, "rental_uris": {"ios": "https://dc.lft.to/lastmile_qr_scan", "android": "https://dc.lft.to/lastmile_qr_scan"}, "fusion_lon": 0.0, "type": "electric_scooter", "bike_id": "0fc84fbcddfc9f01a9cb37681f1da6ed", "name": "0fc84fbcddfc9f01a9cb37681f1da6ed"}, {"lon": -77.0211415, "is_disabled": 0, "lat": 38.91741616666667, "fusion_lat": 0.0, "is_reserved": 0, "rental_uris": {"ios": "https://dc.lft.to/lastmile_qr_scan", "android": "https://dc.lft.to/lastmile_qr_scan"}, "fusion_lon": 0.0, "type": "electric_scooter", "bike_id": "011b280c48f14ff6f13aea8bcf11b834", "name": "011b280c48f14ff6f13aea8bcf11b834"}, {"lon": -77.00116666666666, "is_disabled": 0, "lat": 38.886578166666666, "fusion_lat": 0.0, "is_reserved": 0, "rental_uris": {"ios": "https://dc.lft.to/lastmile_qr_scan", "android": "https://dc.lft.to/lastmile_qr_scan"}, "fusion_lon": 0.0, "type": "electric_scooter", "bike_id": "7509b5142e6b924a773886d8b3e38975", "name": "7509b5142e6b924a773886d8b3e38975"}, {"lon": -77.02107233333334, "is_disabled": 0, "lat": 38.902080833333336, "fusion_lat": 0.0, "is_reserved": 0, "rental_uris": {"ios": "https://dc.lft.to/lastmile_qr_scan", "android": "https://dc.lft.to/lastmile_qr_scan"}, "fusion_lon": 0.0, "type": "electric_scooter", "bike_id": "87a56c19b17cddfb85947fddfcfad08f", "name": "87a56c19b17cddfb85947fddfcfad08f"}, {"lon": -77.02284183333333, "is_disabled": 0, "lat": 38.909119, "fusion_lat": 0.0, "is_reserved": 0, "rental_uris": {"ios": "https://dc.lft.to/lastmile_qr_scan", "android": "https://dc.lft.to/lastmile_qr_scan"}, "fusion_lon": 0.0, "type": "electric_scooter", "bike_id": "adbe9e8dd0efad3debeba6947ad1206b", "name": "adbe9e8dd0efad3debeba6947ad1206b"}, {"lon": -76.96538716666667, "is_disabled": 0, "lat": 38.874858, "fusion_lat": 0.0, "is_reserved": 0, "rental_uris": {"ios": "https://dc.lft.to/lastmile_qr_scan", "android": "https://dc.lft.to/lastmile_qr_scan"}, "fusion_lon": 0.0, "type": "electric_bike", "bike_id": "78260ec39d6bee9960ae9028511b8f5f", "name": "78260ec39d6bee9960ae9028511b8f5f"}, {"lon": -77.017824, "is_disabled": 0, "lat": 38.91509766666667, "fusion_lat": 0.0, "is_reserved": 0, "rental_uris": {"ios": "https://dc.lft.to/lastmile_qr_scan", "android": "https://dc.lft.to/lastmile_qr_scan"}, "fusion_lon": 0.0, "type": "electric_scooter", "bike_id": "0b5d6c517c79258c868d618a1762cf07", "name": "0b5d6c517c79258c868d618a1762cf07"}, {"lon": -77.06306383333333, "is_disabled": 0, "lat": 38.7985805, "fusion_lat": 0.0, "is_reserved": 0, "rental_uris": {"ios": "https://dc.lft.to/lastmile_qr_scan", "android": "https://dc.lft.to/lastmile_qr_scan"}, "fusion_lon": 0.0, "type": "electric_bike", "bike_id": "1eff22d0988caa44f5a8cdb8967e3d70", "name": "1eff22d0988caa44f5a8cdb8967e3d70"}, {"lon": -77.05436916666666, "is_disabled": 0, "lat": 38.89608316666666, "fusion_lat": 0.0, "is_reserved": 0, "rental_uris": {"ios": "https://dc.lft.to/lastmile_qr_scan", "android": "https://dc.lft.to/lastmile_qr_scan"}, "fusion_lon": 0.0, "type": "electric_scooter", "bike_id": "0b5531f44b840e2561bf6a24dc7bfe05", "name": "0b5531f44b840e2561bf6a24dc7bfe05"}, {"lon": -77.0726885, "is_disabled": 0, "lat": 38.934788, "fusion_lat": 0.0, "is_reserved": 0, "rental_uris": {"ios": "https://dc.lft.to/lastmile_qr_scan", "android": "https://dc.lft.to/lastmile_qr_scan"}, "fusion_lon": 0.0, "type": "electric_scooter", "bike_id": "b469a4daf62c47a8059cbfa759910eb2", "name": "b469a4daf62c47a8059cbfa759910eb2"}, {"lon": -77.00340466666667, "is_disabled": 0, "lat": 38.8936095, "fusion_lat": 0.0, "is_reserved": 0, "rental_uris": {"ios": "https://dc.lft.to/lastmile_qr_scan", "android": "https://dc.lft.to/lastmile_qr_scan"}, "fusion_lon": 0.0, "type": "electric_scooter", "bike_id": "aca5926cafdfdccd11747e99c83c9d0b", "name": "aca5926cafdfdccd11747e99c83c9d0b"}, {"lon": -77.022818, "is_disabled": 0, "lat": 38.89532083333334, "fusion_lat": 0.0, "is_reserved": 0, "rental_uris": {"ios": "https://dc.lft.to/lastmile_qr_scan", "android": "https://dc.lft.to/lastmile_qr_scan"}, "fusion_lon": 0.0, "type": "electric_scooter", "bike_id": "db6065cbb47028fcb83b36b35822affd", "name": "db6065cbb47028fcb83b36b35822affd"}, {"lon": -76.93020466666667, "is_disabled": 0, "lat": 38.901693, "fusion_lat": 0.0, "is_reserved": 0, "rental_uris": {"ios": "https://dc.lft.to/lastmile_qr_scan", "android": "https://dc.lft.to/lastmile_qr_scan"},