{"data": {"bikes": [{"rental_uris": {"android": "https://dc.lft.to/lastmile_qr_scan", "ios": "https://dc.lft.to/lastmile_qr_scan"}, "is_reserved": 0, "is_disabled": 0, "name": "4de2b8ed347239b877a21a784c373004", "bike_id": "4de2b8ed347239b877a21a784c373004", "fusion_lat": 0.0, "lon": -77.01967966666666, "type": "electric_scooter", "fusion_lon": 0.0, "lat": 38.9013155}, {"rental_uris": {"android": "https://dc.lft.to/lastmile_qr_scan", "ios": "https://dc.lft.to/lastmile_qr_scan"}, "is_reserved": 0, "is_disabled": 0, "name": "96c644e3652078697ec07ad85f3e5b43", "bike_id": "96c644e3652078697ec07ad85f3e5b43", "fusion_lat": 0.0, "lon": -77.03354733333333, "type": "electric_scooter", "fusion_lon": 0.0, "lat": 38.92163883333333}, {"rental_uris": {"android": "https://dc.lft.to/lastmile_qr_scan", "ios": "https://dc.lft.to/lastmile_qr_scan"}, "is_reserved": 0, "is_disabled": 0, "name": "57a1231597515840ddddead43f4195f2", "bike_id": "57a1231597515840ddddead43f4195f2", "fusion_lat": 0.0, "lon": -77.032109, "type": "electric_scooter", "fusion_lon": 0.0, "lat": 38.903819}, {"rental_uris": {"android": "https://dc.lft.to/lastmile_qr_scan", "ios": "https://dc.lft.to/lastmile_qr_scan"}, "is_reserved": 0, "is_disabled": 0, "name": "a81f627ce809d0dc4b7843436ef4d295", "bike_id": "a81f627ce809d0dc4b7843436ef4d295", "fusion_lat": 0.0, "lon": -77.02413333333334, "type": "electric_scooter", "fusion_lon": 0.0, "lat": 38.892193}, {"rental_uris": {"android": "https://dc.lft.to/lastmile_qr_scan", "ios": "https://dc.lft.to/lastmile_qr_scan"}, "is_reserved": 0, "is_disabled": 0, "name": "919ca402b903c80bd1a040119a6c1707", "bike_id": "919ca402b903c80bd1a040119a6c1707", "fusion_lat": 0.0, "lon": -77.02787233333333, "type": "electric_scooter", "fusion_lon": 0.0, "lat": 38.90284783333333}, {"rental_uris": {"android": "https://dc.lft.to/lastmile_qr_scan", "ios": "https://dc.lft.to/lastmile_qr_scan"}, "is_reserved": 0, "is_disabled": 0, "name": "08237ff1a82bef627277ad4e1fe66b37", "bike_id": "08237ff1a82bef627277ad4e1fe66b37", "fusion_lat": 0.0, "lon": -77.0433655, "type": "electric_scooter", "fusion_lon": 0.0, "lat": 38.898357}, {"rental_uris": {"android": "https://dc.lft.to/lastmile_qr_scan", "ios": "https://dc.lft.to/lastmile_qr_scan"}, "is_reserved": 0, "is_disabled": 0, "name": "20fcd54969303114044130a824851aff", "bike_id": "20fcd54969303114044130a824851aff", "fusion_lat": 0.0, "lon": -77.04463733333333, "type": "electric_scooter", "fusion_lon": 0.0, "lat": 38.902688833333336}, {"rental_uris": {"android": "https://dc.lft.to/lastmile_qr_scan", "ios": "https://dc.lft.to/lastmile_qr_scan"}, "is_reserved": 0, "is_disabled": 0, "name": "0feab794a3b78be0cc8617aec074a94e", "bike_id": "0feab794a3b78be0cc8617aec074a94e", "fusion_lat": 0.0, "lon": -77.0634985, "type": "electric_scooter", "fusion_lon": 0.0, "lat": 38.94436133333333}, {"rental_uris": {"android": "https://dc.lft.to/lastmile_qr_scan", "ios": "https://dc.lft.to/lastmile_qr_scan"}, "is_reserved": 0, "is_disabled": 0, "name": "96b583558c8fcb09c691ebde407f3133", "bike_id": "96b583558c8fcb09c691ebde407f3133", "fusion_lat": 0.0, "lon": -77.0441145, "type": "electric_scooter", "fusion_lon": 0.0, "lat": 38.925816}, {"rental_uris": {"android": "https://dc.lft.to/lastmile_qr_scan", "ios": "https://dc.lft.to/lastmile_qr_scan"}, "is_reserved": 0, "is_disabled": 0, "name": "425237066cf926fd69acacb40315e1ea", "bike_id": "425237066cf926fd69acacb40315e1ea", "fusion_lat": 0.0, "lon": -77.029963, "type": "electric_scooter", "fusion_lon": 0.0, "lat": 38.88321333333333}, {"rental_uris": {"android": "https://dc.lft.to/lastmile_qr_scan", "ios": "https://dc.lft.to/lastmile_qr_scan"}, "is_reserved": 0, "is_disabled": 0, "name": "ee1d4d1e90c3841ac4e72183c3ba6599", "bike_id": "ee1d4d1e90c3841ac4e72183c3ba6599", "fusion_lat": 0.0, "lon": -77.02317883333333, "type": "electric_scooter", "fusion_lon": 0.0, "lat": 38.9090385}, {"rental_uris": {"android": "https://dc.lft.to/lastmile_qr_scan", "ios": "https://dc.lft.to/lastmile_qr_scan"}, "is_reserved": 0, "is_disabled": 0, "name": "30a58c7512cc6cd7dffe5895ffd9e681", "bike_id": "30a58c7512cc6cd7dffe5895ffd9e681", "fusion_lat": 0.0, "lon": -77.04663233333333, "type": "electric_scooter", "fusion_lon": 0.0, "lat": 38.9001465}, {"rental_uris": {"android": "https://dc.lft.to/lastmile_qr_scan", "ios": "https://dc.lft.to/lastmile_qr_scan"}, "is_reserved": 0, "is_disabled": 0, "name": "db7e57d0a89a6dcc94bd92da1351070c", "bike_id": "db7e57d0a89a6dcc94bd92da1351070c", "fusion_lat": 0.0, "lon": -77.01734383333333, "type": "electric_scooter", "fusion_lon": 0.0, "lat": 38.91422816666667}, {"rental_uris": {"android": "https://dc.lft.to/lastmile_qr_scan", "ios": "https://dc.lft.to/lastmile_qr_scan"}, "is_reserved": 0, "is_disabled": 0, "name": "ea21ebdf38cdc16b3585110890a9be8d", "bike_id": "ea21ebdf38cdc16b3585110890a9be8d", "fusion_lat": 0.0, "lon": -77.0449325, "type": "electric_scooter", "fusion_lon": 0.0, "lat": 38.89751783333333}, {"rental_uris": {"android": "https://dc.lft.to/lastmile_qr_scan", "ios": "https://dc.lft.to/lastmile_qr_scan"}, "is_reserved": 0, "is_disabled": 0, "name": "2fa860f87ec51c47555e556e033a1ae2", "bike_id": "2fa860f87ec51c47555e556e033a1ae2", "fusion_lat": 0.0, "lon": -77.03543783333333, "type": "electric_scooter", "fusion_lon": 0.0, "lat": 38.904734166666664}, {"rental_uris": {"android": "https://dc.lft.to/lastmile_qr_scan", "ios": "https://dc.lft.to/lastmile_qr_scan"}, "is_reserved": 0, "is_disabled": 0, "name": "026a395c5f9190943b08d0a55406f4fc", "bike_id": "026a395c5f9190943b08d0a55406f4fc", "fusion_lat": 0.0, "lon": -77.00443816666667, "type": "electric_scooter", "fusion_lon": 0.0, "lat": 38.9156205}, {"rental_uris": {"android": "https://dc.lft.to/lastmile_qr_scan", "ios": "https://dc.lft.to/lastmile_qr_scan"}, "is_reserved": 0, "is_disabled": 0, "name": "9642bed7534c732e3939808b481892d4", "bike_id": "9642bed7534c732e3939808b481892d4", "fusion_lat": 0.0, "lon": -77.0078065, "type": "electric_scooter", "fusion_lon": 0.0, "lat": 38.90614}, {"rental_uris": {"android": "https://dc.lft.to/lastmile_qr_scan", "ios": "https://dc.lft.to/lastmile_qr_scan"}, "is_reserved": 0, "is_disabled": 0, "name": "1a7776e96a31826985b7da41175f5bed", "bike_id": "1a7776e96a31826985b7da41175f5bed", "fusion_lat": 0.0, "lon": -77.0256745, "type": "electric_scooter", "fusion_lon": 0.0, "lat": 38.887453}, {"rental_uris": {"android": "https://dc.lft.to/lastmile_qr_scan", "ios": "https://dc.lft.to/lastmile_qr_scan"}, "is_reserved": 0, "is_disabled": 0, "name": "138f18dccedc4570851a31d399ad57ed", "bike_id": "138f18dccedc4570851a31d399ad57ed", "fusion_lat": 0.0, "lon": -77.04123933333334, "type": "electric_scooter", "fusion_lon": 0.0, "lat": 38.90608116666667}, {"rental_uris": {"android": "https://dc.lft.to/lastmile_qr_scan", "ios": "https://dc.lft.to/lastmile_qr_scan"}, "is_reserved": 0, "is_disabled": 0, "name": "ec9fcfcf83518bbb0833e062fc08787e", "bike_id": "ec9fcfcf83518bbb0833e062fc08787e", "fusion_lat": 0.0, "lon": -77.026936, "type": "electric_scooter", "fusion_lon": 0.0, "lat": 38.916746333333336}, {"rental_uris": {"android": "https://dc.lft.to/lastmile_qr_scan", "ios": "https://dc.lft.to/lastmile_qr_scan"}, "is_reserved": 0, "is_disabled": 0, "name": "cebe3bd2284988a9401d41e3f38e42f8", "bike_id": "cebe3bd2284988a9401d41e3f38e42f8", "fusion_lat": 0.0, "lon": -77.03172883333333, "type": "electric_scooter", "fusion_lon": 0.0, "lat": 38.897854}, {"rental_uris": {"android": "https://dc.lft.to/lastmile_qr_scan", "ios": "https://dc.lft.to/lastmile_qr_scan"}, "is_reserved": 0, "is_disabled": 0, "name": "ffc406ecceb4c4292a22497033b3e378", "bike_id": "ffc406ecceb4c4292a22497033b3e378", "fusion_lat": 0.0, "lon": -77.0383425, "type": "electric_scooter", "fusion_lon": 0.0, "lat": 38.911204833333336}, {"rental_uris": {"android": "https://dc.lft.to/lastmile_qr_scan", "ios": "https://dc.lft.to/lastmile_qr_scan"}, "is_reserved": 0, "is_disabled": 0, "name": "037ce62a2174acc771dbf5b6eb12bf7e", "bike_id": "037ce62a2174acc771dbf5b6eb12bf7e", "fusion_lat": 0.0, "lon": -77.01014483333333, "type": "electric_scooter", "fusion_lon": 0.0, "lat": 38.914045}, {"rental_uris": {"android": "https://dc.lft.to/lastmile_qr_scan", "ios": "https://dc.lft.to/lastmile_qr_scan"}, "is_reserved": 0, "is_disabled": 0, "name": "e3219fb85e5a715370cbbd9a8eab2b60", "bike_id": "e3219fb85e5a715370cbbd9a8eab2b60", "fusion_lat": 0.0, "lon": -77.04068016666666, "type": "electric_scooter", "fusion_lon": 0.0, "lat": 38.90726433333333}, {"rental_uris": {"android": "https://dc.lft.to/lastmile_qr_scan", "ios": "https://dc.lft.to/lastmile_qr_scan"}, "is_reserved": 0, "is_disabled": 0, "name": "72320ab8d58c86c6eecb2880ddaf2ce6", "bike_id": "72320ab8d58c86c6eecb2880ddaf2ce6", "fusion_lat": 0.0, "lon": -77.05341833333334, "type": "electric_scooter", "fusion_lon": 0.0, "lat": 38.90646366666667}, {"rental_uris": {"android": "https://dc.lft.to/lastmile_qr_scan", "ios": "https://dc.lft.to/lastmile_qr_scan"}, "is_reserved": 0, "is_disabled": 0, "name": "53098cdf6706829db76e52881d2ec08f", "bike_id": "53098cdf6706829db76e52881d2ec08f", "fusion_lat": 0.0, "lon": -77.01748433333333, "type": "electric_scooter", "fusion_lon": 0.0, "lat": 38.93993666666667}, {"rental_uris": {"android": "https://dc.lft.to/lastmile_qr_scan", "ios": "https://dc.lft.to/lastmile_qr_scan"}, "is_reserved": 0, "is_disabled": 0, "name": "8d1485c3665cfb88bc1d98a9649002c3", "bike_id": "8d1485c3665cfb88bc1d98a9649002c3", "fusion_lat": 0.0, "lon": -77.02304583333333, "type": "electric_scooter", "fusion_lon": 0.0, "lat": 38.91734183333333}, {"rental_uris": {"android": "https://dc.lft.to/lastmile_qr_scan", "ios": "https://dc.lft.to/lastmile_qr_scan"}, "is_reserved": 0, "is_disabled": 0, "name": "2f3fb597e7c4328eeb70d079e2334fc1", "bike_id": "2f3fb597e7c4328eeb70d079e2334fc1", "fusion_lat": 0.0, "lon": -77.0176065, "type": "electric_scooter", "fusion_lon": 0.0, "lat": 38.90278333333333}, {"rental_uris": {"android": "https://dc.lft.to/lastmile_qr_scan", "ios": "https://dc.lft.to/lastmile_qr_scan"}, "is_reserved": 0, "is_disabled": 0, "name": "b2bb78ce28035f32f7f8aeaa2f8c234a", "bike_id": "b2bb78ce28035f32f7f8aeaa2f8c234a", "fusion_lat": 0.0, "lon": -77.02387733333333, "type": "electric_scooter", "fusion_lon": 0.0, "lat": 38.919594000000004}, {"rental_uris": {"android": "https://dc.lft.to/lastmile_qr_scan", "ios": "https://dc.lft.to/lastmile_qr_scan"}, "is_reserved": 0, "is_disabled": 0, "name": "7f68a1ab7039be05ca2416175d124712", "bike_id": "7f68a1ab7039be05ca2416175d124712", "fusion_lat": 0.0, "lon": -77.04405133333333, "type": "electric_scooter", "fusion_lon": 0.0, "lat": 38.909113166666664}, {"rental_uris": {"android": "https://dc.lft.to/lastmile_qr_scan", "ios": "https://dc.lft.to/lastmile_qr_scan"}, "is_reserved": 0, "is_disabled": 0, "name": "a81de4774577a36e4e219d01cc9a7914", "bike_id": "a81de4774577a36e4e219d01cc9a7914", "fusion_lat": 0.0, "lon": -76.96841783333333, "type": "electric_bike", "fusion_lon": 0.0, "lat": 38.955396}, {"rental_uris": {"android": "https://dc.lft.to/lastmile_qr_scan", "ios": "https://dc.lft.to/lastmile_qr_scan"}, "is_reserved": 0, "is_disabled": 0, "name": "9603423e6aa85672f8a7cce55099e468", "bike_id": "9603423e6aa85672f8a7cce55099e468", "fusion_lat": 0.0, "lon": -77.02995116666666, "type": "electric_scooter", "fusion_lon": 0.0, "lat": 38.901352}, {"rental_uris": {"android": "https://dc.lft.to/lastmile_qr_scan", "ios": "https://dc.lft.to/lastmile_qr_scan"}, "is_reserved": 0, "is_disabled": 0, "name": "980b30be150b2f0c7470c909f2701fec", "bike_id": "980b30be150b2f0c7470c909f2701fec", "fusion_lat": 0.0, "lon": -76.98556666666667, "type": "electric_scooter", "fusion_lon": 0.0, "lat": 38.896218166666664}, {"rental_uris": {"android": "https://dc.lft.to/lastmile_qr_scan", "ios": "https://dc.lft.to/lastmile_qr_scan"}, "is_reserved": 0, "is_disabled": 0, "name": "1465b19a1b501ff2333c487d72c8b529", "bike_id": "1465b19a1b501ff2333c487d72c8b529", "fusion_lat": 0.0, "lon": -77.02761016666666, "type": "electric_scooter", "fusion_lon": 0.0, "lat": 38.9541965}, {"rental_uris": {"android": "https://dc.lft.to/lastmile_qr_scan", "ios": "https://dc.lft.to/lastmile_qr_scan"}, "is_reserved": 0, "is_disabled": 0, "name": "a9eda7c8b12ce53d7fe3d8794dd7055a", "bike_id": "a9eda7c8b12ce53d7fe3d8794dd7055a", "fusion_lat": 0.0, "lon": -76.99488183333334, "type": "electric_scooter", "fusion_lon": 0.0, "lat": 38.894011166666665}, {"rental_uris": {"android": "https://dc.lft.to/lastmile_qr_scan", "ios": "https://dc.lft.to/lastmile_qr_scan"}, "is_reserved": 0, "is_disabled": 0, "name": "705a12b97143428dd6113a7aca85f601", "bike_id": "705a12b97143428dd6113a7aca85f601", "fusion_lat": 0.0, "lon": -77.07256866666667, "type": "electric_scooter", "fusion_lon": 0.0, "lat": 38.90784416666666}, {"rental_uris": {"android": "https://dc.lft.to/lastmile_qr_scan", "ios": "https://dc.lft.to/lastmile_qr_scan"}, "is_reserved": 0, "is_disabled": 0, "name": "7b80330cbd0ea7123840dab95b9484f7", "bike_id": "7b80330cbd0ea7123840dab95b9484f7", "fusion_lat": 0.0, "lon": -77.042082, "type": "electric_scooter", "fusion_lon": 0.0, "lat": 38.9090925}, {"rental_uris": {"android": "https://dc.lft.to/lastmile_qr_scan", "ios": "https://dc.lft.to/lastmile_qr_scan"}, "is_reserved": 0, "is_disabled": 0, "name": "2468feaea77a82ffc8400878371e1172", "bike_id": "2468feaea77a82ffc8400878371e1172", "fusion_lat": 0.0, "lon": -76.98356483333333, "type": "electric_scooter", "fusion_lon": 0.0, "lat": 38.91545516666667}, {"rental_uris": {"android": "https://dc.lft.to/lastmile_qr_scan", "ios": "https://dc.lft.to/lastmile_qr_scan"}, "is_reserved": 0, "is_disabled": 0, "name": "8293e136eac6cacd96deebaf58637099", "bike_id": "8293e136eac6cacd96deebaf58637099", "fusion_lat": 0.0, "lon": -77.045011, "type": "electric_scooter", "fusion_lon": 0.0, "lat": 38.892243666666666}, {"rental_uris": {"android": "https://dc.lft.to/lastmile_qr_scan", "ios": "https://dc.lft.to/lastmile_qr_scan"}, "is_reserved": 0, "is_disabled": 0, "name": "11826116b416f90ddb725d8477fe6b11", "bike_id": "11826116b416f90ddb725d8477fe6b11", "fusion_lat": 0.0, "lon": -77.059848, "type": "electric_bike", "fusion_lon": 0.0, "lat": 38.862204166666665}, {"rental_uris": {"android": "https://dc.lft.to/lastmile_qr_scan", "ios": "https://dc.lft.to/lastmile_qr_scan"}, "is_reserved": 0, "is_disabled": 0, "name": "d0929e166a0cecbe7d189ed3b7692e02", "bike_id": "d0929e166a0cecbe7d189ed3b7692e02", "fusion_lat": 0.0, "lon": -77.03755333333334, "type": "electric_scooter", "fusion_lon": 0.0, "lat": 38.90357866666667}, {"rental_uris": {"android": "https://dc.lft.to/lastmile_qr_scan", "ios": "https://dc.lft.to/lastmile_qr_scan"}, "is_reserved": 0, "is_disabled": 0, "name": "81a5ccdecde28b777fc4e75632fa7229", "bike_id": "81a5ccdecde28b777fc4e75632fa7229", "fusion_lat": 0.0, "lon": -76.98543266666667, "type": "electric_scooter", "fusion_lon": 0.0, "lat": 38.9059245}, {"rental_uris": {"android": "https://dc.lft.to/lastmile_qr_scan", "ios": "https://dc.lft.to/lastmile_qr_scan"}, "is_reserved": 0, "is_disabled": 0, "name": "8de83076de9c131527b3c754ca971098", "bike_id": "8de83076de9c131527b3c754ca971098", "fusion_lat": 0.0, "lon": -77.03841733333333, "type": "electric_scooter", "fusion_lon": 0.0, "lat": 38.90347633333333}, {"rental_uris": {"android": "https://dc.lft.to/lastmile_qr_scan", "ios": "https://dc.lft.to/lastmile_qr_scan"}, "is_reserved": 0, "is_disabled": 0, "name": "456853201f6244d1369766ad44e08737", "bike_id": "456853201f6244d1369766ad44e08737", "fusion_lat": 0.0, "lon": -76.935215, "type": "electric_scooter", "fusion_lon": 0.0, "lat": 38.878968666666665}, {"rental_uris": {"android": "https://dc.lft.to/lastmile_qr_scan", "ios": "https://dc.lft.to/lastmile_qr_scan"}, "is_reserved": 0, "is_disabled": 0, "name": "42503ab54bf0ab1684eb135b51747510", "bike_id": "42503ab54bf0ab1684eb135b51747510", "fusion_lat": 0.0, "lon": -77.0241365, "type": "electric_scooter", "fusion_lon": 0.0, "lat": 38.917117}, {"rental_uris": {"android": "https://dc.lft.to/lastmile_qr_scan", "ios": "https://dc.lft.to/lastmile_qr_scan"}, "is_reserved": 0, "is_disabled": 0, "name": "75861af4d455e79dc5f08e41d0490a41", "bike_id": "75861af4d455e79dc5f08e41d0490a41", "fusion_lat": 0.0, "lon": -76.97699833333333, "type": "electric_bike", "fusion_lon": 0.0, "lat": 38.822052666666664}, {"rental_uris": {"android": "https://dc.lft.to/lastmile_qr_scan", "ios": "https://dc.lft.to/lastmile_qr_scan"}, "is_reserved": 0, "is_disabled": 0, "name": "8f97a17ce216b2e954303417cb421cdd", "bike_id": "8f97a17ce216b2e954303417cb421cdd", "fusion_lat": 0.0, "lon": -77.01897116666666, "type": "electric_scooter", "fusion_lon": 0.0, "lat": 38.92319333333333}, {"rental_uris": {"android": "https://dc.lft.to/lastmile_qr_scan", "ios": "https://dc.lft.to/lastmile_qr_scan"}, "is_reserved": 0, "is_disabled": 0, "name": "9eee4340a8a6f541c943381c67c7a488", "bike_id": "9eee4340a8a6f541c943381c67c7a488", "fusion_lat": 0.0, "lon": -77.00756016666666, "type": "electric_scooter", "fusion_lon": 0.0, "lat": 38.898542}, {"rental_uris": {"android": "https://dc.lft.to/lastmile_qr_scan", "ios": "https://dc.lft.to/lastmile_qr_scan"}, "is_reserved": 0, "is_disabled": 0, "name": "da2b1355d2aa853609e83cae2b1d24d0", "bike_id": "da2b1355d2aa853609e83cae2b1d24d0", "fusion_lat": 0.0, "lon": -77.03577916666667, "type": "electric_scooter", "fusion_lon": 0.0, "lat": 38.908201166666665}, {"rental_uris": {"android": "https://dc.lft.to/lastmile_qr_scan", "ios": "https://dc.lft.to/lastmile_qr_scan"}, "is_reserved": 0, "is_disabled": 0, "name": "89c758aca2b3a4cdebdc02dec75984ef", "bike_id": "89c758aca2b3a4cdebdc02dec75984ef", "fusion_lat": 0.0, "lon": -77.0354015, "type": "electric_scooter", "fusion_lon": 0.0, "lat": 38.92630183333333}, {"rental_uris": {"android": "https://dc.lft.to/lastmile_qr_scan", "ios": "https://dc.lft.to/lastmile_qr_scan"}, "is_reserved": 0, "is_disabled": 0, "name": "74cba9ff4018ae738d64e2d00f5f0bbe", "bike_id": "74cba9ff4018ae738d64e2d00f5f0bbe", "fusion_lat": 0.0, "lon": -77.0638615, "type": "electric_scooter", "fusion_lon": 0.0, "lat": 38.90921216666667}, {"rental_uris": {"android": "https://dc.lft.to/lastmile_qr_scan", "ios": "https://dc.lft.to/lastmile_qr_scan"}, "is_reserved": 0, "is_disabled": 0, "name": "3efed586374872121d5629c4cf11b5f5", "bike_id": "3efed586374872121d5629c4cf11b5f5", "fusion_lat": 0.0, "lon": -77.02787816666667, "type": "electric_scooter", "fusion_lon": 0.0, "lat": 38.9613135}, {"rental_uris": {"android": "https://dc.lft.to/lastmile_qr_scan", "ios": "https://dc.lft.to/lastmile_qr_scan"}, "is_reserved": 0, "is_disabled": 0, "name": "95f1eddb55460e98ad4abf6e68672c5f", "bike_id": "95f1eddb55460e98ad4abf6e68672c5f", "fusion_lat": 0.0, "lon": -77.086222, "type": "electric_bike", "fusion_lon": 0.0, "lat": 38.93127716666667}, {"rental_uris": {"android": "https://dc.lft.to/lastmile_qr_scan", "ios": "https://dc.lft.to/lastmile_qr_scan"}, "is_reserved": 0, "is_disabled": 0, "name": "152f194c323914282188f588ee11316a", "bike_id": "152f194c323914282188f588ee11316a", "fusion_lat": 0.0, "lon": -77.102084, "type": "electric_bike", "fusion_lon": 0.0, "lat": 38.9199995}, {"rental_uris": {"android": "https://dc.lft.to/lastmile_qr_scan", "ios": "https://dc.lft.to/lastmile_qr_scan"}, "is_reserved": 0, "is_disabled": 0, "name": "221475efc6636f4bf4012f0a35715c79", "bike_id": "221475efc6636f4bf4012f0a35715c79", "fusion_lat": 0.0, "lon": -77.02637033333333, "type": "electric_scooter", "fusion_lon": 0.0, "lat": 38.9518965}, {"rental_uris": {"android": "https://dc.lft.to/lastmile_qr_scan", "ios": "https://dc.lft.to/lastmile_qr_scan"}, "is_reserved": 0, "is_disabled": 0, "name": "4c3097e296d3c2ac49337f509e783648", "bike_id": "4c3097e296d3c2ac49337f509e783648", "fusion_lat": 0.0, "lon": -77.03079333333334, "type": "electric_scooter", "fusion_lon": 0.0, "lat": 38.91629066666667}, {"rental_uris": {"android": "https://dc.lft.to/lastmile_qr_scan", "ios": "https://dc.lft.to/lastmile_qr_scan"}, "is_reserved": 0, "is_disabled": 0, "name": "0fe56ba6349a9917685131beb7cc1abf", "bike_id": "0fe56ba6349a9917685131beb7cc1abf", "fusion_lat": 0.0, "lon": -77.03065183333334, "type": "electric_scooter", "fusion_lon": 0.0, "lat": 38.922516}, {"rental_uris": {"android": "https://dc.lft.to/lastmile_qr_scan", "ios": "https://dc.lft.to/lastmile_qr_scan"}, "is_reserved": 0, "is_disabled": 0, "name": "4537445bfda7422e6be72eb601685280", "bike_id": "4537445bfda7422e6be72eb601685280", "fusion_lat": 0.0, "lon": -77.029635, "type": "electric_scooter", "fusion_lon": 0.0, "lat": 38.925930666666666}, {"rental_uris": {"android": "https://dc.lft.to/lastmile_qr_scan", "ios": "https://dc.lft.to/lastmile_qr_scan"}, "is_reserved": 0, "is_disabled": 0, "name": "59cba5f7e06bc0cce7538eb1dd0f98ce", "bike_id": "59cba5f7e06bc0cce7538eb1dd0f98ce", "fusion_lat": 0.0, "lon": -77.04687483333333, "type": "electric_scooter", "fusion_lon": 0.0, "lat": 38.8961415}, {"rental_uris": {"android": "https://dc.lft.to/lastmile_qr_scan", "ios": "https://dc.lft.to/lastmile_qr_scan"}, "is_reserved": 0, "is_disabled": 0, "name": "180394b051536be4fa303d1902bb30a7", "bike_id": "180394b051536be4fa303d1902bb30a7", "fusion_lat": 0.0, "lon": -77.02251566666666, "type": "electric_bike", "fusion_lon": 0.0, "lat": 38.96681683333333}, {"rental_uris": {"android": "https://dc.lft.to/lastmile_qr_scan", "ios": "https://dc.lft.to/lastmile_qr_scan"}, "is_reserved": 0, "is_disabled": 0, "name": "e3ad4cbe3d807b9c51686eeaab6c0c7a", "bike_id": "e3ad4cbe3d807b9c51686eeaab6c0c7a", "fusion_lat": 0.0, "lon": -76.98685583333334, "type": "electric_bike", "fusion_lon": 0.0, "lat": 38.9446895}, {"rental_uris": {"android": "https://dc.lft.to/lastmile_qr_scan", "ios": "https://dc.lft.to/lastmile_qr_scan"}, "is_reserved": 0, "is_disabled": 0, "name": "e5adb4471beb27337fe702dc10e0c048", "bike_id": "e5adb4471beb27337fe702dc10e0c048", "fusion_lat": 0.0, "lon": -77.0091925, "type": "electric_scooter", "fusion_lon": 0.0, "lat": 38.895503166666664}, {"rental_uris": {"android": "https://dc.lft.to/lastmile_qr_scan", "ios": "https://dc.lft.to/lastmile_qr_scan"}, "is_reserved": 0, "is_disabled": 0, "name": "506da012af2dc42f58a792c39cdd0bd6", "bike_id": "506da012af2dc42f58a792c39cdd0bd6", "fusion_lat": 0.0, "lon": -77.04275833333334, "type": "electric_bike", "fusion_lon": 0.0, "lat": 38.90033566666666}, {"rental_uris": {"android": "https://dc.lft.to/lastmile_qr_scan", "ios": "https://dc.lft.to/lastmile_qr_scan"}, "is_reserved": 0, "is_disabled": 0, "name": "a8deff4fbb7623ca735f0fc1abb34784", "bike_id": "a8deff4fbb7623ca735f0fc1abb34784", "fusion_lat": 0.0, "lon": -76.96264433333333, "type": "electric_bike", "fusion_lon": 0.0, "lat": 38.96787616666667}, {"rental_uris": {"android": "https://dc.lft.to/lastmile_qr_scan", "ios": "https://dc.lft.to/lastmile_qr_scan"}, "is_reserved": 0, "is_disabled": 0, "name": "b9a644e57cda374b16543b6f37dc3cbe", "bike_id": "b9a644e57cda374b16543b6f37dc3cbe", "fusion_lat": 0.0, "lon": -77.03837983333334, "type": "electric_scooter", "fusion_lon": 0.0, "lat": 38.903284166666666}, {"rental_uris": {"android": "https://dc.lft.to/lastmile_qr_scan", "ios": "https://dc.lft.to/lastmile_qr_scan"}, "is_reserved": 0, "is_disabled": 0, "name": "07838ed676a9177ed20c5646be81d10e", "bike_id": "07838ed676a9177ed20c5646be81d10e", "fusion_lat": 0.0, "lon": -77.00983933333333, "type": "electric_scooter", "fusion_lon": 0.0, "lat": 38.872870166666665}, {"rental_uris": {"android": "https://dc.lft.to/lastmile_qr_scan", "ios": "https://dc.lft.to/lastmile_qr_scan"}, "is_reserved": 0, "is_disabled": 0, "name": "b746b2a9b8d6bfb4a57daf1ab76aeac7", "bike_id": "b746b2a9b8d6bfb4a57daf1ab76aeac7", "fusion_lat": 0.0, "lon": -76.98820033333334, "type": "electric_bike", "fusion_lon": 0.0, "lat": 38.84275133333333}, {"rental_uris": {"android": "https://dc.lft.to/lastmile_qr_scan", "ios": "https://dc.lft.to/lastmile_qr_scan"}, "is_reserved": 0, "is_disabled": 0, "name": "0512ec7d0cc9dba0ffeddb1b0dedce58", "bike_id": "0512ec7d0cc9dba0ffeddb1b0dedce58", "fusion_lat": 0.0, "lon": -76.9608925, "type": "electric_bike", "fusion_lon": 0.0, "lat": 38.9185675}, {"rental_uris": {"android": "https://dc.lft.to/lastmile_qr_scan", "ios": "https://dc.lft.to/lastmile_qr_scan"}, "is_reserved": 0, "is_disabled": 0, "name": "a7de1ea28ec1dfad56a223ae3b1b0355", "bike_id": "a7de1ea28ec1dfad56a223ae3b1b0355", "fusion_lat": 0.0, "lon": -77.024538, "type": "electric_scooter", "fusion_lon": 0.0, "lat": 38.938044}, {"rental_uris": {"android": "https://dc.lft.to/lastmile_qr_scan", "ios": "https://dc.lft.to/lastmile_qr_scan"}, "is_reserved": 0, "is_disabled": 0, "name": "b13e36bfb486d0fc2a2b983cc23a0b3d", "bike_id": "b13e36bfb486d0fc2a2b983cc23a0b3d", "fusion_lat": 0.0, "lon": -76.99071116666667, "type": "electric_bike", "fusion_lon": 0.0, "lat": 38.94261316666667}, {"rental_uris": {"android": "https://dc.lft.to/lastmile_qr_scan", "ios": "https://dc.lft.to/lastmile_qr_scan"}, "is_reserved": 0, "is_disabled": 0, "name": "712cc7df6fab34cc95acb981f4dbfbc9", "bike_id": "712cc7df6fab34cc95acb981f4dbfbc9", "fusion_lat": 0.0, "lon": -77.0481255, "type": "electric_scooter", "fusion_lon": 0.0, "lat": 38.910428333333336}, {"rental_uris": {"android": "https://dc.lft.to/lastmile_qr_scan", "ios": "https://dc.lft.to/lastmile_qr_scan"}, "is_reserved": 0, "is_disabled": 0, "name": "b7adc7081f9010782b9961c548e536ab", "bike_id": "b7adc7081f9010782b9961c548e536ab", "fusion_lat": 0.0, "lon": -77.00623266666666, "type": "electric_scooter", "fusion_lon": 0.0, "lat": 38.871734000000004}, {"rental_uris": {"android": "https://dc.lft.to/lastmile_qr_scan", "ios": "https://dc.lft.to/lastmile_qr_scan"}, "is_reserved": 0, "is_disabled": 0, "name": "80ee1044719263f42e1bbcc71c389bff", "bike_id": "80ee1044719263f42e1bbcc71c389bff", "fusion_lat": 0.0, "lon": -77.01863483333334, "type": "electric_scooter", "fusion_lon": 0.0, "lat": 38.92916983333333}, {"rental_uris": {"android": "https://dc.lft.to/lastmile_qr_scan", "ios": "https://dc.lft.to/lastmile_qr_scan"}, "is_reserved": 0, "is_disabled": 0, "name": "297006f2ffc9608f4df47ecd2d1ca411", "bike_id": "297006f2ffc9608f4df47ecd2d1ca411", "fusion_lat": 0.0, "lon": -77.02091383333334, "type": "electric_scooter", "fusion_lon": 0.0, "lat": 38.900967333333334}, {"rental_uris": {"android": "https://dc.lft.to/lastmile_qr_scan", "ios": "https://dc.lft.to/lastmile_qr_scan"}, "is_reserved": 0, "is_disabled": 0, "name": "d817404114f453bf1019da0d7d5f054e", "bike_id": "d817404114f453bf1019da0d7d5f054e", "fusion_lat": 0.0, "lon": -77.02257883333333, "type": "electric_scooter", "fusion_lon": 0.0, "lat": 38.902107}, {"rental_uris": {"android": "https://dc.lft.to/lastmile_qr_scan", "ios": "https://dc.lft.to/lastmile_qr_scan"}, "is_reserved": 0, "is_disabled": 0, "name": "3c8c385b2b52a2a7cf18b386c04534d5", "bike_id": "3c8c385b2b52a2a7cf18b386c04534d5", "fusion_lat": 0.0, "lon": -77.00671266666667, "type": "electric_scooter", "fusion_lon": 0.0, "lat": 38.91117966666667}, {"rental_uris": {"android": "https://dc.lft.to/lastmile_qr_scan", "ios": "https://dc.lft.to/lastmile_qr_scan"}, "is_reserved": 0, "is_disabled": 0, "name": "cec46294c78663874f792d417313daad", "bike_id": "cec46294c78663874f792d417313daad", "fusion_lat": 0.0, "lon": -77.07448116666667, "type": "electric_scooter", "fusion_lon": 0.0, "lat": 38.937816}, {"rental_uris": {"android": "https://dc.lft.to/lastmile_qr_scan", "ios": "https://dc.lft.to/lastmile_qr_scan"}, "is_reserved": 0, "is_disabled": 0, "name": "07ab9629e41fb19abc57ebcc7e72398c", "bike_id": "07ab9629e41fb19abc57ebcc7e72398c", "fusion_lat": 0.0, "lon": -77.005738, "type": "electric_scooter", "fusion_lon": 0.0, "lat": 38.9057495}, {"rental_uris": {"android": "https://dc.lft.to/lastmile_qr_scan", "ios": "https://dc.lft.to/lastmile_qr_scan"}, "is_reserved": 0, "is_disabled": 0, "name": "7299bb6f091219602d6f12193f13f837", "bike_id": "7299bb6f091219602d6f12193f13f837", "fusion_lat": 0.0, "lon": -76.98838783333333, "type": "electric_scooter", "fusion_lon": 0.0, "lat": 38.90041166666666}, {"rental_uris": {"android": "https://dc.lft.to/lastmile_qr_scan", "ios": "https://dc.lft.to/lastmile_qr_scan"}, "is_reserved": 0, "is_disabled": 0, "name": "ad61b0ac7d11848a4cbaa5b5af043f44", "bike_id": "ad61b0ac7d11848a4cbaa5b5af043f44", "fusion_lat": 0.0, "lon": -77.01674383333334, "type": "electric_scooter", "fusion_lon": 0.0, "lat": 38.92040766666667}, {"rental_uris": {"android": "https://dc.lft.to/lastmile_qr_scan", "ios": "https://dc.lft.to/lastmile_qr_scan"}, "is_reserved": 0, "is_disabled": 0, "name": "4c2b59f9d37cdc9e6822ea885150fec1", "bike_id": "4c2b59f9d37cdc9e6822ea885150fec1", "fusion_lat": 0.0, "lon": -76.9730475, "type": "electric_scooter", "fusion_lon": 0.0, "lat": 38.919872833333336}, {"rental_uris": {"android": "https://dc.lft.to/lastmile_qr_scan", "ios": "https://dc.lft.to/lastmile_qr_scan"}, "is_reserved": 0, "is_disabled": 0, "name": "88404cec7aeeb260342bed1f04c8205a", "bike_id": "88404cec7aeeb260342bed1f04c8205a", "fusion_lat": 0.0, "lon": -77.046632, "type": "electric_scooter", "fusion_lon": 0.0, "lat": 38.90014683333333}, {"rental_uris": {"android": "https://dc.lft.to/lastmile_qr_scan", "ios": "https://dc.lft.to/lastmile_qr_scan"}, "is_reserved": 0, "is_disabled": 0, "name": "878f0cd753f5c3abbc869c770a48b939", "bike_id": "878f0cd753f5c3abbc869c770a48b939", "fusion_lat": 0.0, "lon": -77.04315783333334, "type": "electric_bike", "fusion_lon": 0.0, "lat": 39.0341935}, {"rental_uris": {"android": "https://dc.lft.to/lastmile_qr_scan", "ios": "https://dc.lft.to/lastmile_qr_scan"}, "is_reserved": 0, "is_disabled": 0, "name": "c5d4ec8c31571ea6c2c88dc6366d1365", "bike_id": "c5d4ec8c31571ea6c2c88dc6366d1365", "fusion_lat": 0.0, "lon": -77.04212066666666, "type": "electric_scooter", "fusion_lon": 0.0, "lat": 38.896112}, {"rental_uris": {"android": "https://dc.lft.to/lastmile_qr_scan", "ios": "https://dc.lft.to/lastmile_qr_scan"}, "is_reserved": 0, "is_disabled": 0, "name": "0c881f301dddf815c5c3306141f1f7ab", "bike_id": "0c881f301dddf815c5c3306141f1f7ab", "fusion_lat": 0.0, "lon": -77.00358, "type": "electric_scooter", "fusion_lon": 0.0, "lat": 38.91551333333334}, {"rental_uris": {"android": "https://dc.lft.to/lastmile_qr_scan", "ios": "https://dc.lft.to/lastmile_qr_scan"}, "is_reserved": 0, "is_disabled": 0, "name": "744a190c0f79e7288857c18f9ffb7ad6", "bike_id": "744a190c0f79e7288857c18f9ffb7ad6", "fusion_lat": 0.0, "lon": -77.01758966666667, "type": "electric_scooter", "fusion_lon": 0.0, "lat": 38.87686133333333}, {"rental_uris": {"android": "https://dc.lft.to/lastmile_qr_scan", "ios": "https://dc.lft.to/lastmile_qr_scan"}, "is_reserved": 0, "is_disabled": 0, "name": "e431c21a1310c713bd540a08a8d59323", "bike_id": "e431c21a1310c713bd540a08a8d59323", "fusion_lat": 0.0, "lon": -77.02439083333333, "type": "electric_scooter", "fusion_lon": 0.0, "lat": 38.92045133333333}, {"rental_uris": {"android": "https://dc.lft.to/lastmile_qr_scan", "ios": "https://dc.lft.to/lastmile_qr_scan"}, "is_reserved": 0, "is_disabled": 0, "name": "3746997daac2ffd4749a883b23d87957", "bike_id": "3746997daac2ffd4749a883b23d87957", "fusion_lat": 0.0, "lon": -77.00571866666667, "type": "electric_scooter", "fusion_lon": 0.0, "lat": 38.88512133333333}, {"rental_uris": {"android": "https://dc.lft.to/lastmile_qr_scan", "ios": "https://dc.lft.to/lastmile_qr_scan"}, "is_reserved": 0, "is_disabled": 0, "name": "692f7847d054721486c6e447b4977ed0", "bike_id": "692f7847d054721486c6e447b4977ed0", "fusion_lat": 0.0, "lon": -77.0232175, "type": "electric_scooter", "fusion_lon": 0.0, "lat": 38.87883183333334}, {"rental_uris": {"android": "https://dc.lft.to/lastmile_qr_scan", "ios": "https://dc.lft.to/lastmile_qr_scan"}, "is_reserved": 0, "is_disabled": 0, "name": "7b78cd52562680870afe266193e14f60", "bike_id": "7b78cd52562680870afe266193e14f60", "fusion_lat": 0.0, "lon": -77.02784766666667, "type": "electric_scooter", "fusion_lon": 0.0, "lat": 38.9276955}, {"rental_uris": {"android": "https://dc.lft.to/lastmile_qr_scan", "ios": "https://dc.lft.to/lastmile_qr_scan"}, "is_reserved": 0, "is_disabled": 0, "name": "35c9da55661fd0061cb66535008640c5", "bike_id": "35c9da55661fd0061cb66535008640c5", "fusion_lat": 0.0, "lon": -77.04002116666666, "type": "electric_scooter", "fusion_lon": 0.0, "lat": 38.90991533333333}, {"rental_uris": {"android": "https://dc.lft.to/lastmile_qr_scan", "ios": "https://dc.lft.to/lastmile_qr_scan"}, "is_reserved": 0, "is_disabled": 0, "name": "6f966603e9e196d4a3be7eda390ae9bb", "bike_id": "6f966603e9e196d4a3be7eda390ae9bb", "fusion_lat": 0.0, "lon": -76.979607, "type": "electric_bike", "fusion_lon": 0.0, "lat": 38.9204995}, {"rental_uris": {"android": "https://dc.lft.to/lastmile_qr_scan", "ios": "https://dc.lft.to/lastmile_qr_scan"}, "is_reserved": 0, "is_disabled": 0, "name": "b5e984cdddd93b4813e661e77202f45b", "bike_id": "b5e984cdddd93b4813e661e77202f45b", "fusion_lat": 0.0, "lon": -77.0330325, "type": "electric_scooter", "fusion_lon": 0.0, "lat": 38.92747}, {"rental_uris": {"android": "https://dc.lft.to/lastmile_qr_scan", "ios": "https://dc.lft.to/lastmile_qr_scan"}, "is_reserved": 0, "is_disabled": 0, "name": "311550109b9078cb129101a8a667a92e", "bike_id": "311550109b9078cb129101a8a667a92e", "fusion_lat": 0.0, "lon": -77.04557733333333, "type": "electric_scooter", "fusion_lon": 0.0, "lat": 38.91360683333333}, {"rental_uris": {"android": "https://dc.lft.to/lastmile_qr_scan", "ios": "https://dc.lft.to/lastmile_qr_scan"}, "is_reserved": 0, "is_disabled": 0, "name": "1d9fc614763c371cadf2ce129dcfe075", "bike_id": "1d9fc614763c371cadf2ce129dcfe075", "fusion_lat": 0.0, "lon": -77.02194533333333, "type": "electric_scooter", "fusion_lon": 0.0, "lat": 38.94511766666667}, {"rental_uris": {"android": "https://dc.lft.to/lastmile_qr_scan", "ios": "https://dc.lft.to/lastmile_qr_scan"}, "is_reserved": 0, "is_disabled": 0, "name": "55cf7bc64d52dcd5ff02cf62470661b6", "bike_id": "55cf7bc64d52dcd5ff02cf62470661b6", "fusion_lat": 0.0, "lon": -77.03989083333333, "type": "electric_scooter", "fusion_lon": 0.0, "lat": 38.933981333333335}, {"rental_uris": {"android": "https://dc.lft.to/lastmile_qr_scan", "ios": "https://dc.lft.to/lastmile_qr_scan"}, "is_reserved": 0, "is_disabled": 0, "name": "6a0f56d072271d63ec2994527cfe4311", "bike_id": "6a0f56d072271d63ec2994527cfe4311", "fusion_lat": 0.0, "lon": -77.02948166666667, "type": "electric_scooter", "fusion_lon": 0.0, "lat": 38.897400833333336}, {"rental_uris": {"android": "https://dc.lft.to/lastmile_qr_scan", "ios": "https://dc.lft.to/lastmile_qr_scan"}, "is_reserved": 0, "is_disabled": 0, "name": "18733d131c9e7aab1156770e4a222208", "bike_id": "18733d131c9e7aab1156770e4a222208", "fusion_lat": 0.0, "lon": -77.04812433333333, "type": "electric_scooter", "fusion_lon": 0.0, "lat": 38.90051616666667}, {"rental_uris": {"android": "https://dc.lft.to/lastmile_qr_scan", "ios": "https://dc.lft.to/lastmile_qr_scan"}, "is_reserved": 0, "is_disabled": 0, "name": "966e86c7d816a83b7f9a1e5e23e246b5", "bike_id": "966e86c7d816a83b7f9a1e5e23e246b5", "fusion_lat": 0.0, "lon": -76.98059016666667, "type": "electric_bike", "fusion_lon": 0.0, "lat": 38.97250716666667}, {"rental_uris": {"android": "https://dc.lft.to/lastmile_qr_scan", "ios": "https://dc.lft.to/lastmile_qr_scan"}, "is_reserved": 0, "is_disabled": 0, "name": "89eab2bfd86099dd50ea8168f65a5986", "bike_id": "89eab2bfd86099dd50ea8168f65a5986", "fusion_lat": 0.0, "lon": -77.01799233333334, "type": "electric_scooter", "fusion_lon": 0.0, "lat": 38.921514}, {"rental_uris": {"android": "https://dc.lft.to/lastmile_qr_scan", "ios": "https://dc.lft.to/lastmile_qr_scan"}, "is_reserved": 0, "is_disabled": 0, "name": "23bec4eb772515b0de185b8cf5221831", "bike_id": "23bec4eb772515b0de185b8cf5221831", "fusion_lat": 0.0, "lon": -77.00329216666667, "type": "electric_scooter", "fusion_lon": 0.0, "lat": 38.893549166666666}, {"rental_uris": {"android": "https://dc.lft.to/lastmile_qr_scan", "ios": "https://dc.lft.to/lastmile_qr_scan"}, "is_reserved": 0, "is_disabled": 0, "name": "ab3b6049992226d78b6767d4c77cdb45", "bike_id": "ab3b6049992226d78b6767d4c77cdb45", "fusion_lat": 0.0, "lon": -76.9868975, "type": "electric_bike", "fusion_lon": 0.0, "lat": 38.94474983333333}, {"rental_uris": {"android": "https://dc.lft.to/lastmile_qr_scan", "ios": "https://dc.lft.to/lastmile_qr_scan"}, "is_reserved": 0, "is_disabled": 0, "name": "975a71c25fe3100449c42b7586fd71bd", "bike_id": "975a71c25fe3100449c42b7586fd71bd", "fusion_lat": 0.0, "lon": -77.02828533333333, "type": "electric_scooter", "fusion_lon": 0.0, "lat": 38.93880816666667}, {"rental_uris": {"android": "https://dc.lft.to/lastmile_qr_scan", "ios": "https://dc.lft.to/lastmile_qr_scan"}, "is_reserved": 0, "is_disabled": 0, "name": "f2f42686fd06ffe039a6d451ba370ddf", "bike_id": "f2f42686fd06ffe039a6d451ba370ddf", "fusion_lat": 0.0, "lon": -76.985483, "type": "electric_bike", "fusion_lon": 0.0, "lat": 38.94170883333334}, {"rental_uris": {"android": "https://dc.lft.to/lastmile_qr_scan", "ios": "https://dc.lft.to/lastmile_qr_scan"}, "is_reserved": 0, "is_disabled": 0, "name": "44575b79c196cc058b417c11bb29eec9", "bike_id": "44575b79c196cc058b417c11bb29eec9", "fusion_lat": 0.0, "lon": -77.02790766666666, "type": "electric_scooter", "fusion_lon": 0.0, "lat": 38.8984685}, {"rental_uris": {"android": "https://dc.lft.to/lastmile_qr_scan", "ios": "https://dc.lft.to/lastmile_qr_scan"}, "is_reserved": 0, "is_disabled": 0, "name": "ff197247fbf9e565699e3ef972e54649", "bike_id": "ff197247fbf9e565699e3ef972e54649", "fusion_lat": 0.0, "lon": -77.02872716666667, "type": "electric_scooter", "fusion_lon": 0.0, "lat": 38.91712783333333}, {"rental_uris": {"android": "https://dc.lft.to/lastmile_qr_scan", "ios": "https://dc.lft.to/lastmile_qr_scan"}, "is_reserved": 0, "is_disabled": 0, "name": "068be2ef1110ba16145e85d7e99caa4f", "bike_id": "068be2ef1110ba16145e85d7e99caa4f", "fusion_lat": 0.0, "lon": -77.03857016666667, "type": "electric_scooter", "fusion_lon": 0.0, "lat": 38.917145166666664}, {"rental_uris": {"android": "https://dc.lft.to/lastmile_qr_scan", "ios": "https://dc.lft.to/lastmile_qr_scan"}, "is_reserved": 0, "is_disabled": 0, "name": "2abd0106a8ba1df1a5dfaf6be47ea5ba", "bike_id": "2abd0106a8ba1df1a5dfaf6be47ea5ba", "fusion_lat": 0.0, "lon": -77.023681, "type": "electric_scooter", "fusion_lon": 0.0, "lat": 38.900368666666665}, {"rental_uris": {"android": "https://dc.lft.to/lastmile_qr_scan", "ios": "https://dc.lft.to/lastmile_qr_scan"}, "is_reserved": 0, "is_disabled": 0, "name": "af8549269b0e02aadbece2b4199cefd1", "bike_id": "af8549269b0e02aadbece2b4199cefd1", "fusion_lat": 0.0, "lon": -77.038267, "type": "electric_scooter", "fusion_lon": 0.0, "lat": 38.90683}, {"rental_uris": {"android": "https://dc.lft.to/lastmile_qr_scan", "ios": "https://dc.lft.to/lastmile_qr_scan"}, "is_reserved": 0, "is_disabled": 0, "name": "cbf80917c8552f939c7c72924b5c3dfc", "bike_id": "cbf80917c8552f939c7c72924b5c3dfc", "fusion_lat": 0.0, "lon": -77.046944, "type": "electric_scooter", "fusion_lon": 0.0, "lat": 38.8961095}, {"rental_uris": {"android": "https://dc.lft.to/lastmile_qr_scan", "ios": "https://dc.lft.to/lastmile_qr_scan"}, "is_reserved": 0, "is_disabled": 0, "name": "812fbdb8ccb169a4a46baa89aa4c898d", "bike_id": "812fbdb8ccb169a4a46baa89aa4c898d", "fusion_lat": 0.0, "lon": -77.03375383333334, "type": "electric_scooter", "fusion_lon": 0.0, "lat": 38.901417}, {"rental_uris": {"android": "https://dc.lft.to/lastmile_qr_scan", "ios": "https://dc.lft.to/lastmile_qr_scan"}, "is_reserved": 0, "is_disabled": 0, "name": "fe4d136b870451cd20a0966eb85be677", "bike_id": "fe4d136b870451cd20a0966eb85be677", "fusion_lat": 0.0, "lon": -77.0161515, "type": "electric_scooter", "fusion_lon": 0.0, "lat": 38.899659}, {"rental_uris": {"android": "https://dc.lft.to/lastmile_qr_scan", "ios": "https://dc.lft.to/lastmile_qr_scan"}, "is_reserved": 0, "is_disabled": 0, "name": "d43060bfeaa1b062b978575024ff54df", "bike_id": "d43060bfeaa1b062b978575024ff54df", "fusion_lat": 0.0, "lon": -77.02820016666666, "type": "electric_scooter", "fusion_lon": 0.0, "lat": 38.929779833333335}, {"rental_uris": {"android": "https://dc.lft.to/lastmile_qr_scan", "ios": "https://dc.lft.to/lastmile_qr_scan"}, "is_reserved": 0, "is_disabled": 0, "name": "6666899da5267e34f972ef93da09a56a", "bike_id": "6666899da5267e34f972ef93da09a56a", "fusion_lat": 0.0, "lon": -77.04677266666667, "type": "electric_scooter", "fusion_lon": 0.0, "lat": 38.8956125}, {"rental_uris": {"android": "https://dc.lft.to/lastmile_qr_scan", "ios": "https://dc.lft.to/lastmile_qr_scan"}, "is_reserved": 0, "is_disabled": 0, "name": "601ca13e407f9323e7c38d7093e4636a", "bike_id": "601ca13e407f9323e7c38d7093e4636a", "fusion_lat": 0.0, "lon": -77.12977616666667, "type": "electric_bike", "fusion_lon": 0.0, "lat": 38.79984966666667}, {"rental_uris": {"android": "https://dc.lft.to/lastmile_qr_scan", "ios": "https://dc.lft.to/lastmile_qr_scan"}, "is_reserved": 0, "is_disabled": 0, "name": "c317cb6190cf69e642cf61fa489fb596", "bike_id": "c317cb6190cf69e642cf61fa489fb596", "fusion_lat": 0.0, "lon": -77.020183, "type": "electric_scooter", "fusion_lon": 0.0, "lat": 38.91568183333333}, {"rental_uris": {"android": "https://dc.lft.to/lastmile_qr_scan", "ios": "https://dc.lft.to/lastmile_qr_scan"}, "is_reserved": 0, "is_disabled": 0, "name": "8bed0d40371c46425783a3d1306c9014", "bike_id": "8bed0d40371c46425783a3d1306c9014", "fusion_lat": 0.0, "lon": -77.02837233333334, "type": "electric_bike", "fusion_lon": 0.0, "lat": 38.914092}, {"rental_uris": {"android": "https://dc.lft.to/lastmile_qr_scan", "ios": "https://dc.lft.to/lastmile_qr_scan"}, "is_reserved": 0, "is_disabled": 0, "name": "b402570c3377208b1839f56462639fa1", "bike_id": "b402570c3377208b1839f56462639fa1", "fusion_lat": 0.0, "lon": -77.03025483333333, "type": "electric_scooter", "fusion_lon": 0.0, "lat": 38.8784905}, {"rental_uris": {"android": "https://dc.lft.to/lastmile_qr_scan", "ios": "https://dc.lft.to/lastmile_qr_scan"}, "is_reserved": 0, "is_disabled": 0, "name": "b6502f94ac0941b2790303e796a7b70a", "bike_id": "b6502f94ac0941b2790303e796a7b70a", "fusion_lat": 0.0, "lon": -76.9877, "type": "electric_bike", "fusion_lon": 0.0, "lat": 38.857670666666664}, {"rental_uris": {"android": "https://dc.lft.to/lastmile_qr_scan", "ios": "https://dc.lft.to/lastmile_qr_scan"}, "is_reserved": 0, "is_disabled": 0, "name": "e8f61261b22f1380aaef7596826a1311", "bike_id": "e8f61261b22f1380aaef7596826a1311", "fusion_lat": 0.0, "lon": -76.98363866666666, "type": "electric_scooter", "fusion_lon": 0.0, "lat": 38.915452333333334}, {"rental_uris": {"android": "https://dc.lft.to/lastmile_qr_scan", "ios": "https://dc.lft.to/lastmile_qr_scan"}, "is_reserved": 0, "is_disabled": 0, "name": "c61d9ad2fb46fc518342fb7800a456ca", "bike_id": "c61d9ad2fb46fc518342fb7800a456ca", "fusion_lat": 0.0, "lon": -77.0342495, "type": "electric_scooter", "fusion_lon": 0.0, "lat": 38.904391}, {"rental_uris": {"android": "https://dc.lft.to/lastmile_qr_scan", "ios": "https://dc.lft.to/lastmile_qr_scan"}, "is_reserved": 0, "is_disabled": 0, "name": "4f5927483576893c82003168a9247eff", "bike_id": "4f5927483576893c82003168a9247eff", "fusion_lat": 0.0, "lon": -77.01113433333333, "type": "electric_scooter", "fusion_lon": 0.0, "lat": 38.885088333333336}, {"rental_uris": {"android": "https://dc.lft.to/lastmile_qr_scan", "ios": "https://dc.lft.to/lastmile_qr_scan"}, "is_reserved": 0, "is_disabled": 0, "name": "be6e095fb3188735311b7bf5b96eb1b7", "bike_id": "be6e095fb3188735311b7bf5b96eb1b7", "fusion_lat": 0.0, "lon": -76.97333583333334, "type": "electric_scooter", "fusion_lon": 0.0, "lat": 38.904110833333334}, {"rental_uris": {"android": "https://dc.lft.to/lastmile_qr_scan", "ios": "https://dc.lft.to/lastmile_qr_scan"}, "is_reserved": 0, "is_disabled": 0, "name": "b71d83846e58a8e645ec074b6c7c4298", "bike_id": "b71d83846e58a8e645ec074b6c7c4298", "fusion_lat": 0.0, "lon": -77.02281016666667, "type": "electric_scooter", "fusion_lon": 0.0, "lat": 38.917802}, {"rental_uris": {"android": "https://dc.lft.to/lastmile_qr_scan", "ios": "https://dc.lft.to/lastmile_qr_scan"}, "is_reserved": 0, "is_disabled": 0, "name": "911f879fe3d83013bba0af0dba8d2bae", "bike_id": "911f879fe3d83013bba0af0dba8d2bae", "fusion_lat": 0.0, "lon": -77.07273183333334, "type": "electric_scooter", "fusion_lon": 0.0, "lat": 38.93474066666667}, {"rental_uris": {"android": "https://dc.lft.to/lastmile_qr_scan", "ios": "https://dc.lft.to/lastmile_qr_scan"}, "is_reserved": 0, "is_disabled": 0, "name": "12624cc381008a9a67e7ef878d1dbb0d", "bike_id": "12624cc381008a9a67e7ef878d1dbb0d", "fusion_lat": 0.0, "lon": -76.97802816666666, "type": "electric_scooter", "fusion_lon": 0.0, "lat": 38.920360333333335}, {"rental_uris": {"android": "https://dc.lft.to/lastmile_qr_scan", "ios": "https://dc.lft.to/lastmile_qr_scan"}, "is_reserved": 0, "is_disabled": 0, "name": "f410aa3d215721ef74ef4d246105d7b1", "bike_id": "f410aa3d215721ef74ef4d246105d7b1", "fusion_lat": 0.0, "lon": -77.05929766666667, "type": "electric_scooter", "fusion_lon": 0.0, "lat": 38.943109666666665}, {"rental_uris": {"android": "https://dc.lft.to/lastmile_qr_scan", "ios": "https://dc.lft.to/lastmile_qr_scan"}, "is_reserved": 0, "is_disabled": 0, "name": "e39c2202c12d70d006a3ff81cbfd4f5e", "bike_id": "e39c2202c12d70d006a3ff81cbfd4f5e", "fusion_lat": 0.0, "lon": -77.01951116666666, "type": "electric_scooter", "fusion_lon": 0.0, "lat": 38.9232735}, {"rental_uris": {"android": "https://dc.lft.to/lastmile_qr_scan", "ios": "https://dc.lft.to/lastmile_qr_scan"}, "is_reserved": 0, "is_disabled": 0, "name": "330803d51fbbeaef5ecf02fb52ff0fba", "bike_id": "330803d51fbbeaef5ecf02fb52ff0fba", "fusion_lat": 0.0, "lon": -77.02022316666667, "type": "electric_scooter", "fusion_lon": 0.0, "lat": 38.924428666666664}, {"rental_uris": {"android": "https://dc.lft.to/lastmile_qr_scan", "ios": "https://dc.lft.to/lastmile_qr_scan"}, "is_reserved": 0, "is_disabled": 0, "name": "20fe1d08388c7762ab01288c4e49929f", "bike_id": "20fe1d08388c7762ab01288c4e49929f", "fusion_lat": 0.0, "lon": -77.036577, "type": "electric_scooter", "fusion_lon": 0.0, "lat": 38.92762466666667}, {"rental_uris": {"android": "https://dc.lft.to/lastmile_qr_scan", "ios": "https://dc.lft.to/lastmile_qr_scan"}, "is_reserved": 0, "is_disabled": 0, "name": "eac6de346e0b078f6839ce97f87a0d27", "bike_id": "eac6de346e0b078f6839ce97f87a0d27", "fusion_lat": 0.0, "lon": -77.037304, "type": "electric_scooter", "fusion_lon": 0.0, "lat": 38.928832}, {"rental_uris": {"android": "https://dc.lft.to/lastmile_qr_scan", "ios": "https://dc.lft.to/lastmile_qr_scan"}, "is_reserved": 0, "is_disabled": 0, "name": "9470f01b3bc19c208a5ee5492f4a9820", "bike_id": "9470f01b3bc19c208a5ee5492f4a9820", "fusion_lat": 0.0, "lon": -77.031231, "type": "electric_scooter", "fusion_lon": 0.0, "lat": 38.903742}, {"rental_uris": {"android": "https://dc.lft.to/lastmile_qr_scan", "ios": "https://dc.lft.to/lastmile_qr_scan"}, "is_reserved": 0, "is_disabled": 0, "name": "ed98c895c73636077b35136173679085", "bike_id": "ed98c895c73636077b35136173679085", "fusion_lat": 0.0, "lon": -77.02694016666666, "type": "electric_scooter", "fusion_lon": 0.0, "lat": 38.916756}, {"rental_uris": {"android": "https://dc.lft.to/lastmile_qr_scan", "ios": "https://dc.lft.to/lastmile_qr_scan"}, "is_reserved": 0, "is_disabled": 0, "name": "2460ce62c13b2c1754b75b50fafc5355", "bike_id": "2460ce62c13b2c1754b75b50fafc5355", "fusion_lat": 0.0, "lon": -77.0453915, "type": "electric_scooter", "fusion_lon": 0.0, "lat": 38.898275}, {"rental_uris": {"android": "https://dc.lft.to/lastmile_qr_scan", "ios": "https://dc.lft.to/lastmile_qr_scan"}, "is_reserved": 0, "is_disabled": 0, "name": "982f6a5be24cd384ddfd06ece29f797c", "bike_id": "982f6a5be24cd384ddfd06ece29f797c", "fusion_lat": 0.0, "lon": -77.02392566666667, "type": "electric_scooter", "fusion_lon": 0.0, "lat": 38.9195885}, {"rental_uris": {"android": "https://dc.lft.to/lastmile_qr_scan", "ios": "https://dc.lft.to/lastmile_qr_scan"}, "is_reserved": 0, "is_disabled": 0, "name": "772d464dfc66c46f13c21436d0fc5d3f", "bike_id": "772d464dfc66c46f13c21436d0fc5d3f", "fusion_lat": 0.0, "lon": -76.99846583333333, "type": "electric_scooter", "fusion_lon": 0.0, "lat": 38.896229}, {"rental_uris": {"android": "https://dc.lft.to/lastmile_qr_scan", "ios": "https://dc.lft.to/lastmile_qr_scan"}, "is_reserved": 0, "is_disabled": 0, "name": "e89c1f857915fdd6bff8a0e3c5cbc0dc", "bike_id": "e89c1f857915fdd6bff8a0e3c5cbc0dc", "fusion_lat": 0.0, "lon": -77.06568666666666, "type": "electric_bike", "fusion_lon": 0.0, "lat": 38.932667}, {"rental_uris": {"android": "https://dc.lft.to/lastmile_qr_scan", "ios": "https://dc.lft.to/lastmile_qr_scan"}, "is_reserved": 0, "is_disabled": 0, "name": "cd1bde2a325eda55eaff3c7d8120beb1", "bike_id": "cd1bde2a325eda55eaff3c7d8120beb1", "fusion_lat": 0.0, "lon": -77.03872866666667, "type": "electric_scooter", "fusion_lon": 0.0, "lat": 38.912692}, {"rental_uris": {"android": "https://dc.lft.to/lastmile_qr_scan", "ios": "https://dc.lft.to/lastmile_qr_scan"}, "is_reserved": 0, "is_disabled": 0, "name": "7c0f16c94007b7565ca2831964ab2dc4", "bike_id": "7c0f16c94007b7565ca2831964ab2dc4", "fusion_lat": 0.0, "lon": -77.0198845, "type": "electric_scooter", "fusion_lon": 0.0, "lat": 38.876025166666665}, {"rental_uris": {"android": "https://dc.lft.to/lastmile_qr_scan", "ios": "https://dc.lft.to/lastmile_qr_scan"}, "is_reserved": 0, "is_disabled": 0, "name": "2624e8506f0f1f6537c39d5e1bee865e", "bike_id": "2624e8506f0f1f6537c39d5e1bee865e", "fusion_lat": 0.0, "lon": -76.99518383333333, "type": "electric_scooter", "fusion_lon": 0.0, "lat": 38.8837405}, {"rental_uris": {"android": "https://dc.lft.to/lastmile_qr_scan", "ios": "https://dc.lft.to/lastmile_qr_scan"}, "is_reserved": 0, "is_disabled": 0, "name": "418e01c19284832a8cddc0832486a044", "bike_id": "418e01c19284832a8cddc0832486a044", "fusion_lat": 0.0, "lon": -77.05321016666667, "type": "electric_scooter", "fusion_lon": 0.0, "lat": 38.9050375}, {"rental_uris": {"android": "https://dc.lft.to/lastmile_qr_scan", "ios": "https://dc.lft.to/lastmile_qr_scan"}, "is_reserved": 0, "is_disabled": 0, "name": "a9e24155c207125ea39ecae20ede896e", "bike_id": "a9e24155c207125ea39ecae20ede896e", "fusion_lat": 0.0, "lon": -77.05204683333334, "type": "electric_scooter", "fusion_lon": 0.0, "lat": 38.902729}, {"rental_uris": {"android": "https://dc.lft.to/lastmile_qr_scan", "ios": "https://dc.lft.to/lastmile_qr_scan"}, "is_reserved": 0, "is_disabled": 0, "name": "e230cee71f056176d0307a4b8d1dacbb", "bike_id": "e230cee71f056176d0307a4b8d1dacbb", "fusion_lat": 0.0, "lon": -77.0591155, "type": "electric_scooter", "fusion_lon": 0.0, "lat": 38.903542333333334}, {"rental_uris": {"android": "https://dc.lft.to/lastmile_qr_scan", "ios": "https://dc.lft.to/lastmile_qr_scan"}, "is_reserved": 0, "is_disabled": 0, "name": "b34feac2c0a1bacedbe17fdcf7f343aa", "bike_id": "b34feac2c0a1bacedbe17fdcf7f343aa", "fusion_lat": 0.0, "lon": -77.04488966666666, "type": "electric_scooter", "fusion_lon": 0.0, "lat": 38.903751166666666}, {"rental_uris": {"android": "https://dc.lft.to/lastmile_qr_scan", "ios": "https://dc.lft.to/lastmile_qr_scan"}, "is_reserved": 0, "is_disabled": 0, "name": "a1021fb5c4d49aa6ffe1691f05d59fac", "bike_id": "a1021fb5c4d49aa6ffe1691f05d59fac", "fusion_lat": 0.0, "lon": -77.02634583333334, "type": "electric_scooter", "fusion_lon": 0.0, "lat": 38.930307}, {"rental_uris": {"android": "https://dc.lft.to/lastmile_qr_scan", "ios": "https://dc.lft.to/lastmile_qr_scan"}, "is_reserved": 0, "is_disabled": 0, "name": "c2efcb5e5fc0c5f6f722e6569ee700c3", "bike_id": "c2efcb5e5fc0c5f6f722e6569ee700c3", "fusion_lat": 0.0, "lon": -77.04568133333333, "type": "electric_scooter", "fusion_lon": 0.0, "lat": 38.913887}, {"rental_uris": {"android": "https://dc.lft.to/lastmile_qr_scan", "ios": "https://dc.lft.to/lastmile_qr_scan"}, "is_reserved": 0, "is_disabled": 0, "name": "9e5ac9497fa36680332da6d6035ff7c4", "bike_id": "9e5ac9497fa36680332da6d6035ff7c4", "fusion_lat": 0.0, "lon": -77.071747, "type": "electric_scooter", "fusion_lon": 0.0, "lat": 38.9076125}, {"rental_uris": {"android": "https://dc.lft.to/lastmile_qr_scan", "ios": "https://dc.lft.to/lastmile_qr_scan"}, "is_reserved": 0, "is_disabled": 0, "name": "e7d38e7b79d772718622ce52d2e5c359", "bike_id": "e7d38e7b79d772718622ce52d2e5c359", "fusion_lat": 0.0, "lon": -77.021131, "type": "electric_scooter", "fusion_lon": 0.0, "lat": 38.9060145}, {"rental_uris": {"android": "https://dc.lft.to/lastmile_qr_scan", "ios": "https://dc.lft.to/lastmile_qr_scan"}, "is_reserved": 0, "is_disabled": 0, "name": "ed63722d7f8fd258ca3010e966d5a6cc", "bike_id": "ed63722d7f8fd258ca3010e966d5a6cc", "fusion_lat": 0.0, "lon": -77.02785883333334, "type": "electric_scooter", "fusion_lon": 0.0, "lat": 38.962199}, {"rental_uris": {"android": "https://dc.lft.to/lastmile_qr_scan", "ios": "https://dc.lft.to/lastmile_qr_scan"}, "is_reserved": 0, "is_disabled": 0, "name": "a676fae8b44ff2f600b3986eb21118a3", "bike_id": "a676fae8b44ff2f600b3986eb21118a3", "fusion_lat": 0.0, "lon": -77.04352233333333, "type": "electric_scooter", "fusion_lon": 0.0, "lat": 38.90416233333333}, {"rental_uris": {"android": "https://dc.lft.to/lastmile_qr_scan", "ios": "https://dc.lft.to/lastmile_qr_scan"}, "is_reserved": 0, "is_disabled": 0, "name": "e2e44c80fa943987dadb72a8bb364e46", "bike_id": "e2e44c80fa943987dadb72a8bb364e46", "fusion_lat": 0.0, "lon": -77.02051666666667, "type": "electric_scooter", "fusion_lon": 0.0, "lat": 38.9217515}, {"rental_uris": {"android": "https://dc.lft.to/lastmile_qr_scan", "ios": "https://dc.lft.to/lastmile_qr_scan"}, "is_reserved": 0, "is_disabled": 0, "name": "fb9cef45bc1106c2fc4578025b4a9449", "bike_id": "fb9cef45bc1106c2fc4578025b4a9449", "fusion_lat": 0.0, "lon": -77.02698633333333, "type": "electric_scooter", "fusion_lon": 0.0, "lat": 38.949839833333336}, {"rental_uris": {"android": "https://dc.lft.to/lastmile_qr_scan", "ios": "https://dc.lft.to/lastmile_qr_scan"}, "is_reserved": 0, "is_disabled": 0, "name": "8f2d1e85e448a05688af49c63cb86208", "bike_id": "8f2d1e85e448a05688af49c63cb86208", "fusion_lat": 0.0, "lon": -77.03306533333334, "type": "electric_scooter", "fusion_lon": 0.0, "lat": 38.928900666666664}, {"rental_uris": {"android": "https://dc.lft.to/lastmile_qr_scan", "ios": "https://dc.lft.to/lastmile_qr_scan"}, "is_reserved": 0, "is_disabled": 0, "name": "12ec8fce7aaa113db855cf15b62df608", "bike_id": "12ec8fce7aaa113db855cf15b62df608", "fusion_lat": 0.0, "lon": -77.02151816666667, "type": "electric_scooter", "fusion_lon": 0.0, "lat": 38.88741816666667}, {"rental_uris": {"android": "https://dc.lft.to/lastmile_qr_scan", "ios": "https://dc.lft.to/lastmile_qr_scan"}, "is_reserved": 0, "is_disabled": 0, "name": "5434ea91df9ab9d73ed3177dd253c1f9", "bike_id": "5434ea91df9ab9d73ed3177dd253c1f9", "fusion_lat": 0.0, "lon": -77.02592466666667, "type": "electric_scooter", "fusion_lon": 0.0, "lat": 38.904374833333335}, {"rental_uris": {"android": "https://dc.lft.to/lastmile_qr_scan", "ios": "https://dc.lft.to/lastmile_qr_scan"}, "is_reserved": 0, "is_disabled": 0, "name": "39d11876726787b6bcde7fb42158d001", "bike_id": "39d11876726787b6bcde7fb42158d001", "fusion_lat": 0.0, "lon": -77.0388715, "type": "electric_scooter", "fusion_lon": 0.0, "lat": 38.906166666666664}, {"rental_uris": {"android": "https://dc.lft.to/lastmile_qr_scan", "ios": "https://dc.lft.to/lastmile_qr_scan"}, "is_reserved": 0, "is_disabled": 0, "name": "ec80bc8952d79b3a9dc413c440cd2dab", "bike_id": "ec80bc8952d79b3a9dc413c440cd2dab", "fusion_lat": 0.0, "lon": -77.04391166666667, "type": "electric_scooter", "fusion_lon": 0.0, "lat": 38.90136616666667}, {"rental_uris": {"android": "https://dc.lft.to/lastmile_qr_scan", "ios": "https://dc.lft.to/lastmile_qr_scan"}, "is_reserved": 0, "is_disabled": 0, "name": "2286d3439b9bebec7cfeac1ffb0eb5bf", "bike_id": "2286d3439b9bebec7cfeac1ffb0eb5bf", "fusion_lat": 0.0, "lon": -77.04737083333333, "type": "electric_scooter", "fusion_lon": 0.0, "lat": 38.900620833333335}, {"rental_uris": {"android": "https://dc.lft.to/lastmile_qr_scan", "ios": "https://dc.lft.to/lastmile_qr_scan"}, "is_reserved": 0, "is_disabled": 0, "name": "4aa6e29b56eda513b7091add4f6aeb03", "bike_id": "4aa6e29b56eda513b7091add4f6aeb03", "fusion_lat": 0.0, "lon": -77.04190816666667, "type": "electric_scooter", "fusion_lon": 0.0, "lat": 38.90532783333333}, {"rental_uris": {"android": "https://dc.lft.to/lastmile_qr_scan", "ios": "https://dc.lft.to/lastmile_qr_scan"}, "is_reserved": 0, "is_disabled": 0, "name": "8e901179e6c74666e40b0cf855f3a226", "bike_id": "8e901179e6c74666e40b0cf855f3a226", "fusion_lat": 0.0, "lon": -77.04686233333334, "type": "electric_scooter", "fusion_lon": 0.0, "lat": 38.89961683333333}, {"rental_uris": {"android": "https://dc.lft.to/lastmile_qr_scan", "ios": "https://dc.lft.to/lastmile_qr_scan"}, "is_reserved": 0, "is_disabled": 0, "name": "512aa429eb0f520004467cefce625ca0", "bike_id": "512aa429eb0f520004467cefce625ca0", "fusion_lat": 0.0, "lon": -76.97436466666667, "type": "electric_bike", "fusion_lon": 0.0, "lat": 38.8558895}, {"rental_uris": {"android": "https://dc.lft.to/lastmile_qr_scan", "ios": "https://dc.lft.to/lastmile_qr_scan"}, "is_reserved": 0, "is_disabled": 0, "name": "e958eed750e0113736fb9f7c059871e9", "bike_id": "e958eed750e0113736fb9f7c059871e9", "fusion_lat": 0.0, "lon": -77.032737, "type": "electric_scooter", "fusion_lon": 0.0, "lat": 38.9156415}, {"rental_uris": {"android": "https://dc.lft.to/lastmile_qr_scan", "ios": "https://dc.lft.to/lastmile_qr_scan"}, "is_reserved": 0, "is_disabled": 0, "name": "13094204ac62182be99d3147020f9153", "bike_id": "13094204ac62182be99d3147020f9153", "fusion_lat": 0.0, "lon": -77.0402925, "type": "electric_scooter", "fusion_lon": 0.0, "lat": 38.91808733333333}, {"rental_uris": {"android": "https://dc.lft.to/lastmile_qr_scan", "ios": "https://dc.lft.to/lastmile_qr_scan"}, "is_reserved": 0, "is_disabled": 0, "name": "b2eddb2081bbf16f9185a150cf0c36be", "bike_id": "b2eddb2081bbf16f9185a150cf0c36be", "fusion_lat": 0.0, "lon": -77.021184, "type": "electric_scooter", "fusion_lon": 0.0, "lat": 38.923781166666664}, {"rental_uris": {"android": "https://dc.lft.to/lastmile_qr_scan", "ios": "https://dc.lft.to/lastmile_qr_scan"}, "is_reserved": 0, "is_disabled": 0, "name": "6c89a12999c1a8ca56562522cdcdb044", "bike_id": "6c89a12999c1a8ca56562522cdcdb044", "fusion_lat": 0.0, "lon": -77.01867116666666, "type": "electric_scooter", "fusion_lon": 0.0, "lat": 38.929139666666664}, {"rental_uris": {"android": "https://dc.lft.to/lastmile_qr_scan", "ios": "https://dc.lft.to/lastmile_qr_scan"}, "is_reserved": 0, "is_disabled": 0, "name": "5560897fd513570cf60f220f2df3a045", "bike_id": "5560897fd513570cf60f220f2df3a045", "fusion_lat": 0.0, "lon": -77.06914783333333, "type": "electric_scooter", "fusion_lon": 0.0, "lat": 38.91658966666667}, {"rental_uris": {"android": "https://dc.lft.to/lastmile_qr_scan", "ios": "https://dc.lft.to/lastmile_qr_scan"}, "is_reserved": 0, "is_disabled": 0, "name": "019f3e0442acfd4310eaf46c23ff56dd", "bike_id": "019f3e0442acfd4310eaf46c23ff56dd", "fusion_lat": 0.0, "lon": -77.03190966666666, "type": "electric_scooter", "fusion_lon": 0.0, "lat": 38.9102295}, {"rental_uris": {"android": "https://dc.lft.to/lastmile_qr_scan", "ios": "https://dc.lft.to/lastmile_qr_scan"}, "is_reserved": 0, "is_disabled": 0, "name": "82691f00882e1c6d43e6a27067f51938", "bike_id": "82691f00882e1c6d43e6a27067f51938", "fusion_lat": 0.0, "lon": -77.0414745, "type": "electric_scooter", "fusion_lon": 0.0, "lat": 38.906072}, {"rental_uris": {"android": "https://dc.lft.to/lastmile_qr_scan", "ios": "https://dc.lft.to/lastmile_qr_scan"}, "is_reserved": 0, "is_disabled": 0, "name": "b23f22ee3fc398a2d63823e28fb4e97a", "bike_id": "b23f22ee3fc398a2d63823e28fb4e97a", "fusion_lat": 0.0, "lon": -77.0344485, "type": "electric_scooter", "fusion_lon": 0.0, "lat": 38.90489566666667}, {"rental_uris": {"android": "https://dc.lft.to/lastmile_qr_scan", "ios": "https://dc.lft.to/lastmile_qr_scan"}, "is_reserved": 0, "is_disabled": 0, "name": "0168ca4f6a77971b3bb55ab13ce251ef", "bike_id": "0168ca4f6a77971b3bb55ab13ce251ef", "fusion_lat": 0.0, "lon": -77.0253675, "type": "electric_scooter", "fusion_lon": 0.0, "lat": 38.9064745}, {"rental_uris": {"android": "https://dc.lft.to/lastmile_qr_scan", "ios": "https://dc.lft.to/lastmile_qr_scan"}, "is_reserved": 0, "is_disabled": 0, "name": "de758e53f62519866d120a6733f20876", "bike_id": "de758e53f62519866d120a6733f20876", "fusion_lat": 0.0, "lon": -77.04917733333333, "type": "electric_scooter", "fusion_lon": 0.0, "lat": 38.90504466666667}, {"rental_uris": {"android": "https://dc.lft.to/lastmile_qr_scan", "ios": "https://dc.lft.to/lastmile_qr_scan"}, "is_reserved": 0, "is_disabled": 0, "name": "4162db02a776180355febf28b81356a3", "bike_id": "4162db02a776180355febf28b81356a3", "fusion_lat": 0.0, "lon": -77.02331433333333, "type": "electric_scooter", "fusion_lon": 0.0, "lat": 38.9429045}, {"rental_uris": {"android": "https://dc.lft.to/lastmile_qr_scan", "ios": "https://dc.lft.to/lastmile_qr_scan"}, "is_reserved": 0, "is_disabled": 0, "name": "72dd91fb742d9ed26cefa43cbc6c2f73", "bike_id": "72dd91fb742d9ed26cefa43cbc6c2f73", "fusion_lat": 0.0, "lon": -77.03333066666667, "type": "electric_scooter", "fusion_lon": 0.0, "lat": 38.8989725}, {"rental_uris": {"android": "https://dc.lft.to/lastmile_qr_scan", "ios": "https://dc.lft.to/lastmile_qr_scan"}, "is_reserved": 0, "is_disabled": 0, "name": "96c9b9ec67c2b9e809b0f11720393d90", "bike_id": "96c9b9ec67c2b9e809b0f11720393d90", "fusion_lat": 0.0, "lon": -77.02267516666667, "type": "electric_scooter", "fusion_lon": 0.0, "lat": 38.89990233333333}, {"rental_uris": {"android": "https://dc.lft.to/lastmile_qr_scan", "ios": "https://dc.lft.to/lastmile_qr_scan"}, "is_reserved": 0, "is_disabled": 0, "name": "3a18869e2e4b4343b04c732c90c1497c", "bike_id": "3a18869e2e4b4343b04c732c90c1497c", "fusion_lat": 0.0, "lon": -77.03229833333333, "type": "electric_scooter", "fusion_lon": 0.0, "lat": 38.896759333333335}, {"rental_uris": {"android": "https://dc.lft.to/lastmile_qr_scan", "ios": "https://dc.lft.to/lastmile_qr_scan"}, "is_reserved": 0, "is_disabled": 0, "name": "e37373bc71a648edeca3cacb00406c0f", "bike_id": "e37373bc71a648edeca3cacb00406c0f", "fusion_lat": 0.0, "lon": -77.04520716666667, "type": "electric_scooter", "fusion_lon": 0.0, "lat": 38.89988433333333}, {"rental_uris": {"android": "https://dc.lft.to/lastmile_qr_scan", "ios": "https://dc.lft.to/lastmile_qr_scan"}, "is_reserved": 0, "is_disabled": 0, "name": "3022d4916f410ec8fa234d616d5a26a5", "bike_id": "3022d4916f410ec8fa234d616d5a26a5", "fusion_lat": 0.0, "lon": -77.02998166666667, "type": "electric_bike", "fusion_lon": 0.0, "lat": 38.9003215}, {"rental_uris": {"android": "https://dc.lft.to/lastmile_qr_scan", "ios": "https://dc.lft.to/lastmile_qr_scan"}, "is_reserved": 0, "is_disabled": 0, "name": "cc4922fce4e4eb6a09e4d3fb7ec1c913", "bike_id": "cc4922fce4e4eb6a09e4d3fb7ec1c913", "fusion_lat": 0.0, "lon": -77.03172283333333, "type": "electric_scooter", "fusion_lon": 0.0, "lat": 38.91421666666667}, {"rental_uris": {"android": "https://dc.lft.to/lastmile_qr_scan", "ios": "https://dc.lft.to/lastmile_qr_scan"}, "is_reserved": 0, "is_disabled": 0, "name": "d19eb472ead7d26911f60f7d7bd50a66", "bike_id": "d19eb472ead7d26911f60f7d7bd50a66", "fusion_lat": 0.0, "lon": -77.04305116666667, "type": "electric_scooter", "fusion_lon": 0.0, "lat": 38.923321333333334}, {"rental_uris": {"android": "https://dc.lft.to/lastmile_qr_scan", "ios": "https://dc.lft.to/lastmile_qr_scan"}, "is_reserved": 0, "is_disabled": 0, "name": "93a5d30e5b9ef1251d67e958bc761a05", "bike_id": "93a5d30e5b9ef1251d67e958bc761a05", "fusion_lat": 0.0, "lon": -77.04585483333334, "type": "electric_scooter", "fusion_lon": 0.0, "lat": 38.902574}, {"rental_uris": {"android": "https://dc.lft.to/lastmile_qr_scan", "ios": "https://dc.lft.to/lastmile_qr_scan"}, "is_reserved": 0, "is_disabled": 0, "name": "36570522c5e6752f61af57bc15597f66", "bike_id": "36570522c5e6752f61af57bc15597f66", "fusion_lat": 0.0, "lon": -77.05196883333333, "type": "electric_scooter", "fusion_lon": 0.0, "lat": 38.9030305}, {"rental_uris": {"android": "https://dc.lft.to/lastmile_qr_scan", "ios": "https://dc.lft.to/lastmile_qr_scan"}, "is_reserved": 0, "is_disabled": 0, "name": "64279f2a32cd50cd1a00e324d1425dbb", "bike_id": "64279f2a32cd50cd1a00e324d1425dbb", "fusion_lat": 0.0, "lon": -76.98016233333334, "type": "electric_bike", "fusion_lon": 0.0, "lat": 38.853185}, {"rental_uris": {"android": "https://dc.lft.to/lastmile_qr_scan", "ios": "https://dc.lft.to/lastmile_qr_scan"}, "is_reserved": 0, "is_disabled": 0, "name": "89d85b30a4d2edbb9e783003d903ca6a", "bike_id": "89d85b30a4d2edbb9e783003d903ca6a", "fusion_lat": 0.0, "lon": -77.0062185, "type": "electric_scooter", "fusion_lon": 0.0, "lat": 38.90577033333334}, {"rental_uris": {"android": "https://dc.lft.to/lastmile_qr_scan", "ios": "https://dc.lft.to/lastmile_qr_scan"}, "is_reserved": 0, "is_disabled": 0, "name": "aa33429b8d028ee4d5bc46096ba1727a", "bike_id": "aa33429b8d028ee4d5bc46096ba1727a", "fusion_lat": 0.0, "lon": -77.0449975, "type": "electric_scooter", "fusion_lon": 0.0, "lat": 38.8922225}, {"rental_uris": {"android": "https://dc.lft.to/lastmile_qr_scan", "ios": "https://dc.lft.to/lastmile_qr_scan"}, "is_reserved": 0, "is_disabled": 0, "name": "4dc9ee1e2d0d015aad66fe8b7e742538", "bike_id": "4dc9ee1e2d0d015aad66fe8b7e742538", "fusion_lat": 0.0, "lon": -77.03301183333333, "type": "electric_scooter", "fusion_lon": 0.0, "lat": 38.900137666666666}, {"rental_uris": {"android": "https://dc.lft.to/lastmile_qr_scan", "ios": "https://dc.lft.to/lastmile_qr_scan"}, "is_reserved": 0, "is_disabled": 0, "name": "0af79be4adbe64c3708fdac32e5c8e14", "bike_id": "0af79be4adbe64c3708fdac32e5c8e14", "fusion_lat": 0.0, "lon": -77.02486416666666, "type": "electric_scooter", "fusion_lon": 0.0, "lat": 38.94189383333333}, {"rental_uris": {"android": "https://dc.lft.to/lastmile_qr_scan", "ios": "https://dc.lft.to/lastmile_qr_scan"}, "is_reserved": 0, "is_disabled": 0, "name": "b8d89bfd65980b890c037e69c3d8784b", "bike_id": "b8d89bfd65980b890c037e69c3d8784b", "fusion_lat": 0.0, "lon": -77.04656366666667, "type": "electric_scooter", "fusion_lon": 0.0, "lat": 38.89336733333333}, {"rental_uris": {"android": "https://dc.lft.to/lastmile_qr_scan", "ios": "https://dc.lft.to/lastmile_qr_scan"}, "is_reserved": 0, "is_disabled": 0, "name": "70bcf0fe887e13477edeab7b42450c5d", "bike_id": "70bcf0fe887e13477edeab7b42450c5d", "fusion_lat": 0.0, "lon": -76.9824855, "type": "electric_bike", "fusion_lon": 0.0, "lat": 38.95245366666666}, {"rental_uris": {"android": "https://dc.lft.to/lastmile_qr_scan", "ios": "https://dc.lft.to/lastmile_qr_scan"}, "is_reserved": 0, "is_disabled": 0, "name": "36262e7bfc0d8e8e4d992ce4f6f752f8", "bike_id": "36262e7bfc0d8e8e4d992ce4f6f752f8", "fusion_lat": 0.0, "lon": -77.03667983333334, "type": "electric_scooter", "fusion_lon": 0.0, "lat": 38.915659}, {"rental_uris": {"android": "https://dc.lft.to/lastmile_qr_scan", "ios": "https://dc.lft.to/lastmile_qr_scan"}, "is_reserved": 0, "is_disabled": 0, "name": "3d5c5ff4ee8f38ae1f630b87cc8e9351", "bike_id": "3d5c5ff4ee8f38ae1f630b87cc8e9351", "fusion_lat": 0.0, "lon": -77.03195816666667, "type": "electric_scooter", "fusion_lon": 0.0, "lat": 38.9205355}, {"rental_uris": {"android": "https://dc.lft.to/lastmile_qr_scan", "ios": "https://dc.lft.to/lastmile_qr_scan"}, "is_reserved": 0, "is_disabled": 0, "name": "9771683e6ed6b2bc195efba5c7deca44", "bike_id": "9771683e6ed6b2bc195efba5c7deca44", "fusion_lat": 0.0, "lon": -77.03648216666667, "type": "electric_scooter", "fusion_lon": 0.0, "lat": 38.906775}, {"rental_uris": {"android": "https://dc.lft.to/lastmile_qr_scan", "ios": "https://dc.lft.to/lastmile_qr_scan"}, "is_reserved": 0, "is_disabled": 0, "name": "049039cb66135916aabf244393634440", "bike_id": "049039cb66135916aabf244393634440", "fusion_lat": 0.0, "lon": -77.05269166666666, "type": "electric_scooter", "fusion_lon": 0.0, "lat": 38.90144683333333}, {"rental_uris": {"android": "https://dc.lft.to/lastmile_qr_scan", "ios": "https://dc.lft.to/lastmile_qr_scan"}, "is_reserved": 0, "is_disabled": 0, "name": "d6e25cd76e56d9eb977a27af37d7aa2e", "bike_id": "d6e25cd76e56d9eb977a27af37d7aa2e", "fusion_lat": 0.0, "lon": -77.00074566666666, "type": "electric_scooter", "fusion_lon": 0.0, "lat": 38.876574833333336}, {"rental_uris": {"android": "https://dc.lft.to/lastmile_qr_scan", "ios": "https://dc.lft.to/lastmile_qr_scan"}, "is_reserved": 0, "is_disabled": 0, "name": "b359766b365104d86a2db9c7eae96afd", "bike_id": "b359766b365104d86a2db9c7eae96afd", "fusion_lat": 0.0, "lon": -76.975307, "type": "electric_bike", "fusion_lon": 0.0, "lat": 38.903331333333334}, {"rental_uris": {"android": "https://dc.lft.to/lastmile_qr_scan", "ios": "https://dc.lft.to/lastmile_qr_scan"}, "is_reserved": 0, "is_disabled": 0, "name": "c79ac4cc452d86b32f11d68a8e33af08", "bike_id": "c79ac4cc452d86b32f11d68a8e33af08", "fusion_lat": 0.0, "lon": -76.99332366666667, "type": "electric_scooter", "fusion_lon": 0.0, "lat": 38.9057825}, {"rental_uris": {"android": "https://dc.lft.to/lastmile_qr_scan", "ios": "https://dc.lft.to/lastmile_qr_scan"}, "is_reserved": 0, "is_disabled": 0, "name": "a1d6feb8666869cd8367741a5ca84584", "bike_id": "a1d6feb8666869cd8367741a5ca84584", "fusion_lat": 0.0, "lon": -77.03063383333334, "type": "electric_scooter", "fusion_lon": 0.0, "lat": 38.90005766666667}, {"rental_uris": {"android": "https://dc.lft.to/lastmile_qr_scan", "ios": "https://dc.lft.to/lastmile_qr_scan"}, "is_reserved": 0, "is_disabled": 0, "name": "5ccb20b00e7cba89484f07d996aa499a", "bike_id": "5ccb20b00e7cba89484f07d996aa499a", "fusion_lat": 0.0, "lon": -77.050073, "type": "electric_scooter", "fusion_lon": 0.0, "lat": 38.89227916666667}, {"rental_uris": {"android": "https://dc.lft.to/lastmile_qr_scan", "ios": "https://dc.lft.to/lastmile_qr_scan"}, "is_reserved": 0, "is_disabled": 0, "name": "a75042dfd70cae77230959dde6261c34", "bike_id": "a75042dfd70cae77230959dde6261c34", "fusion_lat": 0.0, "lon": -77.046265, "type": "electric_scooter", "fusion_lon": 0.0, "lat": 38.90450516666667}, {"rental_uris": {"android": "https://dc.lft.to/lastmile_qr_scan", "ios": "https://dc.lft.to/lastmile_qr_scan"}, "is_reserved": 0, "is_disabled": 0, "name": "498e5ad9c61ecc343e70e842b3b38441", "bike_id": "498e5ad9c61ecc343e70e842b3b38441", "fusion_lat": 0.0, "lon": -77.03650083333333, "type": "electric_scooter", "fusion_lon": 0.0, "lat": 38.903918166666664}, {"rental_uris": {"android": "https://dc.lft.to/lastmile_qr_scan", "ios": "https://dc.lft.to/lastmile_qr_scan"}, "is_reserved": 0, "is_disabled": 0, "name": "14c884af2ccfc93e6b6dcf86034cfad4", "bike_id": "14c884af2ccfc93e6b6dcf86034cfad4", "fusion_lat": 0.0, "lon": -77.01887916666666, "type": "electric_scooter", "fusion_lon": 0.0, "lat": 38.914890166666666}, {"rental_uris": {"android": "https://dc.lft.to/lastmile_qr_scan", "ios": "https://dc.lft.to/lastmile_qr_scan"}, "is_reserved": 0, "is_disabled": 0, "name": "06b778ac282e0e12052ef42e79521cd7", "bike_id": "06b778ac282e0e12052ef42e79521cd7", "fusion_lat": 0.0, "lon": -76.9519365, "type": "electric_scooter", "fusion_lon": 0.0, "lat": 38.90516016666667}, {"rental_uris": {"android": "https://dc.lft.to/lastmile_qr_scan", "ios": "https://dc.lft.to/lastmile_qr_scan"}, "is_reserved": 0, "is_disabled": 0, "name": "b88eaa6d33a70aee18d5481f11f70eb9", "bike_id": "b88eaa6d33a70aee18d5481f11f70eb9", "fusion_lat": 0.0, "lon": -77.04165583333334, "type": "electric_scooter", "fusion_lon": 0.0, "lat": 38.91712283333333}, {"rental_uris": {"android": "https://dc.lft.to/lastmile_qr_scan", "ios": "https://dc.lft.to/lastmile_qr_scan"}, "is_reserved": 0, "is_disabled": 0, "name": "0e0e11682e1fa8a34d21f7aba51226a3", "bike_id": "0e0e11682e1fa8a34d21f7aba51226a3", "fusion_lat": 0.0, "lon": -76.99278283333334, "type": "electric_bike", "fusion_lon": 0.0, "lat": 38.9726285}, {"rental_uris": {"android": "https://dc.lft.to/lastmile_qr_scan", "ios": "https://dc.lft.to/lastmile_qr_scan"}, "is_reserved": 0, "is_disabled": 0, "name": "ce6db2058b7f25e26a8853bb00c593c9", "bike_id": "ce6db2058b7f25e26a8853bb00c593c9", "fusion_lat": 0.0, "lon": -77.02881316666667, "type": "electric_scooter", "fusion_lon": 0.0, "lat": 38.913499}, {"rental_uris": {"android": "https://dc.lft.to/lastmile_qr_scan", "ios": "https://dc.lft.to/lastmile_qr_scan"}, "is_reserved": 0, "is_disabled": 0, "name": "e93c6b018bf920240430e998165e19e2", "bike_id": "e93c6b018bf920240430e998165e19e2", "fusion_lat": 0.0, "lon": -76.99692083333333, "type": "electric_bike", "fusion_lon": 0.0, "lat": 38.83869033333333}, {"rental_uris": {"android": "https://dc.lft.to/lastmile_qr_scan", "ios": "https://dc.lft.to/lastmile_qr_scan"}, "is_reserved": 0, "is_disabled": 0, "name": "75f4d1aee00266899f4786d4f047cda3", "bike_id": "75f4d1aee00266899f4786d4f047cda3", "fusion_lat": 0.0, "lon": -77.02572216666667, "type": "electric_scooter", "fusion_lon": 0.0, "lat": 38.90369316666666}, {"rental_uris": {"android": "https://dc.lft.to/lastmile_qr_scan", "ios": "https://dc.lft.to/lastmile_qr_scan"}, "is_reserved": 0, "is_disabled": 0, "name": "3ad96a871957548cefacea309e265a77", "bike_id": "3ad96a871957548cefacea309e265a77", "fusion_lat": 0.0, "lon": -77.021213, "type": "electric_scooter", "fusion_lon": 0.0, "lat": 38.91739533333333}, {"rental_uris": {"android": "https://dc.lft.to/lastmile_qr_scan", "ios": "https://dc.lft.to/lastmile_qr_scan"}, "is_reserved": 0, "is_disabled": 0, "name": "578b431020e76db86dd5674c2dcbd903", "bike_id": "578b431020e76db86dd5674c2dcbd903", "fusion_lat": 0.0, "lon": -77.03308433333333, "type": "electric_scooter", "fusion_lon": 0.0, "lat": 38.921668833333335}, {"rental_uris": {"android": "https://dc.lft.to/lastmile_qr_scan", "ios": "https://dc.lft.to/lastmile_qr_scan"}, "is_reserved": 0, "is_disabled": 0, "name": "e9df611479e13e6f724fad1df3117110", "bike_id": "e9df611479e13e6f724fad1df3117110", "fusion_lat": 0.0, "lon": -76.9869055, "type": "electric_bike", "fusion_lon": 0.0, "lat": 38.944730166666666}, {"rental_uris": {"android": "https://dc.lft.to/lastmile_qr_scan", "ios": "https://dc.lft.to/lastmile_qr_scan"}, "is_reserved": 0, "is_disabled": 0, "name": "bfaa85ccbf0d34fcf7d659cc2cbd278f", "bike_id": "bfaa85ccbf0d34fcf7d659cc2cbd278f", "fusion_lat": 0.0, "lon": -77.033744, "type": "electric_scooter", "fusion_lon": 0.0, "lat": 38.92164016666667}, {"rental_uris": {"android": "https://dc.lft.to/lastmile_qr_scan", "ios": "https://dc.lft.to/lastmile_qr_scan"}, "is_reserved": 0, "is_disabled": 0, "name": "680cd334cafe3c0375b406f6dd50e4ab", "bike_id": "680cd334cafe3c0375b406f6dd50e4ab", "fusion_lat": 0.0, "lon": -77.098218, "type": "electric_bike", "fusion_lon": 0.0, "lat": 38.85018816666667}, {"rental_uris": {"android": "https://dc.lft.to/lastmile_qr_scan", "ios": "https://dc.lft.to/lastmile_qr_scan"}, "is_reserved": 0, "is_disabled": 0, "name": "a92bea63776f45c6b74c1afc9f756244", "bike_id": "a92bea63776f45c6b74c1afc9f756244", "fusion_lat": 0.0, "lon": -77.04517383333334, "type": "electric_scooter", "fusion_lon": 0.0, "lat": 38.8996625}, {"rental_uris": {"android": "https://dc.lft.to/lastmile_qr_scan", "ios": "https://dc.lft.to/lastmile_qr_scan"}, "is_reserved": 0, "is_disabled": 0, "name": "5600332547da7996e70c9d12b42799f6", "bike_id": "5600332547da7996e70c9d12b42799f6", "fusion_lat": 0.0, "lon": -77.04272916666666, "type": "electric_scooter", "fusion_lon": 0.0, "lat": 38.917886833333334}, {"rental_uris": {"android": "https://dc.lft.to/lastmile_qr_scan", "ios": "https://dc.lft.to/lastmile_qr_scan"}, "is_reserved": 0, "is_disabled": 0, "name": "04e119d17534b3ebbd2670902937f18f", "bike_id": "04e119d17534b3ebbd2670902937f18f", "fusion_lat": 0.0, "lon": -76.93206016666667, "type": "electric_scooter", "fusion_lon": 0.0, "lat": 38.896662666666664}, {"rental_uris": {"android": "https://dc.lft.to/lastmile_qr_scan", "ios": "https://dc.lft.to/lastmile_qr_scan"}, "is_reserved": 0, "is_disabled": 0, "name": "d15d6ea3ec33f7d98fe12e206261e045", "bike_id": "d15d6ea3ec33f7d98fe12e206261e045", "fusion_lat": 0.0, "lon": -76.98628966666666, "type": "electric_scooter", "fusion_lon": 0.0, "lat": 38.8804265}, {"rental_uris": {"android": "https://dc.lft.to/lastmile_qr_scan", "ios": "https://dc.lft.to/lastmile_qr_scan"}, "is_reserved": 0, "is_disabled": 0, "name": "59472cd3a8049ff10c86f163b3fdb29a", "bike_id": "59472cd3a8049ff10c86f163b3fdb29a", "fusion_lat": 0.0, "lon": -77.02786616666667, "type": "electric_scooter", "fusion_lon": 0.0, "lat": 38.962152}, {"rental_uris": {"android": "https://dc.lft.to/lastmile_qr_scan", "ios": "https://dc.lft.to/lastmile_qr_scan"}, "is_reserved": 0, "is_disabled": 0, "name": "dd1741c0914400791dc0a1657d591a51", "bike_id": "dd1741c0914400791dc0a1657d591a51", "fusion_lat": 0.0, "lon": -77.0110275, "type": "electric_scooter", "fusion_lon": 0.0, "lat": 38.89537116666666}, {"rental_uris": {"android": "https://dc.lft.to/lastmile_qr_scan", "ios": "https://dc.lft.to/lastmile_qr_scan"}, "is_reserved": 0, "is_disabled": 0, "name": "dd133414f6d8a251b3381493897184b1", "bike_id": "dd133414f6d8a251b3381493897184b1", "fusion_lat": 0.0, "lon": -76.9909485, "type": "electric_bike", "fusion_lon": 0.0, "lat": 38.804801}, {"rental_uris": {"android": "https://dc.lft.to/lastmile_qr_scan", "ios": "https://dc.lft.to/lastmile_qr_scan"}, "is_reserved": 0, "is_disabled": 0, "name": "f9fafa6e5fa5cc1600497eebd5e0c51f", "bike_id": "f9fafa6e5fa5cc1600497eebd5e0c51f", "fusion_lat": 0.0, "lon": -77.04680883333333, "type": "electric_bike", "fusion_lon": 0.0, "lat": 38.901360333333336}, {"rental_uris": {"android": "https://dc.lft.to/lastmile_qr_scan", "ios": "https://dc.lft.to/lastmile_qr_scan"}, "is_reserved": 0, "is_disabled": 0, "name": "72474eabd8c77f061b15c5f42b2263d8", "bike_id": "72474eabd8c77f061b15c5f42b2263d8", "fusion_lat": 0.0, "lon": -77.0511705, "type": "electric_scooter", "fusion_lon": 0.0, "lat": 38.923474}, {"rental_uris": {"android": "https://dc.lft.to/lastmile_qr_scan", "ios": "https://dc.lft.to/lastmile_qr_scan"}, "is_reserved": 0, "is_disabled": 0, "name": "3b9143230557f406308667fa062cb6cf", "bike_id": "3b9143230557f406308667fa062cb6cf", "fusion_lat": 0.0, "lon": -77.0802425, "type": "electric_bike", "fusion_lon": 0.0, "lat": 38.95776333333333}, {"rental_uris": {"android": "https://dc.lft.to/lastmile_qr_scan", "ios": "https://dc.lft.to/lastmile_qr_scan"}, "is_reserved": 0, "is_disabled": 0, "name": "dd918db85abc7f56d64852037ea1069b", "bike_id": "dd918db85abc7f56d64852037ea1069b", "fusion_lat": 0.0, "lon": -77.007105, "type": "electric_bike", "fusion_lon": 0.0, "lat": 38.94600533333333}, {"rental_uris": {"android": "https://dc.lft.to/lastmile_qr_scan", "ios": "https://dc.lft.to/lastmile_qr_scan"}, "is_reserved": 0, "is_disabled": 0, "name": "105ed8e63e9ab06b8b1724814e870dfe", "bike_id": "105ed8e63e9ab06b8b1724814e870dfe", "fusion_lat": 0.0, "lon": -77.022388, "type": "electric_scooter", "fusion_lon": 0.0, "lat": 38.89617483333333}, {"rental_uris": {"android": "https://dc.lft.to/lastmile_qr_scan", "ios": "https://dc.lft.to/lastmile_qr_scan"}, "is_reserved": 0, "is_disabled": 0, "name": "05e2a2eebe93d4de3508e627bddacab8", "bike_id": "05e2a2eebe93d4de3508e627bddacab8", "fusion_lat": 0.0, "lon": -77.01732683333333, "type": "electric_scooter", "fusion_lon": 0.0, "lat": 38.88593866666667}, {"rental_uris": {"android": "https://dc.lft.to/lastmile_qr_scan", "ios": "https://dc.lft.to/lastmile_qr_scan"}, "is_reserved": 0, "is_disabled": 0, "name": "3e393c30b03f060444ea5aa20562539f", "bike_id": "3e393c30b03f060444ea5aa20562539f", "fusion_lat": 0.0, "lon": -77.03838083333333, "type": "electric_scooter", "fusion_lon": 0.0, "lat": 38.90374466666667}, {"rental_uris": {"android": "https://dc.lft.to/lastmile_qr_scan", "ios": "https://dc.lft.to/lastmile_qr_scan"}, "is_reserved": 0, "is_disabled": 0, "name": "2a72877a72b93da6ef04b75c2c86d8a9", "bike_id": "2a72877a72b93da6ef04b75c2c86d8a9", "fusion_lat": 0.0, "lon": -77.023682, "type": "electric_scooter", "fusion_lon": 0.0, "lat": 38.9030745}, {"rental_uris": {"android": "https://dc.lft.to/lastmile_qr_scan", "ios": "https://dc.lft.to/lastmile_qr_scan"}, "is_reserved": 0, "is_disabled": 0, "name": "5657c0f41057be794799a53d11b16824", "bike_id": "5657c0f41057be794799a53d11b16824", "fusion_lat": 0.0, "lon": -77.018831, "type": "electric_scooter", "fusion_lon": 0.0, "lat": 38.90556683333333}, {"rental_uris": {"android": "https://dc.lft.to/lastmile_qr_scan", "ios": "https://dc.lft.to/lastmile_qr_scan"}, "is_reserved": 0, "is_disabled": 0, "name": "32e950ed769205071de2dc6dd722e232", "bike_id": "32e950ed769205071de2dc6dd722e232", "fusion_lat": 0.0, "lon": -77.074901, "type": "electric_scooter", "fusion_lon": 0.0, "lat": 38.923085}, {"rental_uris": {"android": "https://dc.lft.to/lastmile_qr_scan", "ios": "https://dc.lft.to/lastmile_qr_scan"}, "is_reserved": 0, "is_disabled": 0, "name": "eaf1ad978b021b02a93a5651d474b31c", "bike_id": "eaf1ad978b021b02a93a5651d474b31c", "fusion_lat": 0.0, "lon": -77.039485, "type": "electric_scooter", "fusion_lon": 0.0, "lat": 38.908383666666666}, {"rental_uris": {"android": "https://dc.lft.to/lastmile_qr_scan", "ios": "https://dc.lft.to/lastmile_qr_scan"}, "is_reserved": 0, "is_disabled": 0, "name": "8a6b604a4077ab32888cb13ec43e43cb", "bike_id": "8a6b604a4077ab32888cb13ec43e43cb", "fusion_lat": 0.0, "lon": -77.04015483333333, "type": "electric_scooter", "fusion_lon": 0.0, "lat": 38.92176516666667}, {"rental_uris": {"android": "https://dc.lft.to/lastmile_qr_scan", "ios": "https://dc.lft.to/lastmile_qr_scan"}, "is_reserved": 0, "is_disabled": 0, "name": "8cffcdeb90d44f25d2466151a5f1e8a9", "bike_id": "8cffcdeb90d44f25d2466151a5f1e8a9", "fusion_lat": 0.0, "lon": -77.0114445, "type": "electric_bike", "fusion_lon": 0.0, "lat": 38.952262}, {"rental_uris": {"android": "https://dc.lft.to/lastmile_qr_scan", "ios": "https://dc.lft.to/lastmile_qr_scan"}, "is_reserved": 0, "is_disabled": 0, "name": "1b07490310ed36c87f4b475f8ac2cd32", "bike_id": "1b07490310ed36c87f4b475f8ac2cd32", "fusion_lat": 0.0, "lon": -77.0292335, "type": "electric_scooter", "fusion_lon": 0.0, "lat": 38.9165745}, {"rental_uris": {"android": "https://dc.lft.to/lastmile_qr_scan", "ios": "https://dc.lft.to/lastmile_qr_scan"}, "is_reserved": 0, "is_disabled": 0, "name": "b98ae2dc553048cbfb70c682ebf66166", "bike_id": "b98ae2dc553048cbfb70c682ebf66166", "fusion_lat": 0.0, "lon": -77.03276933333333, "type": "electric_scooter", "fusion_lon": 0.0, "lat": 38.898777833333334}, {"rental_uris": {"android": "https://dc.lft.to/lastmile_qr_scan", "ios": "https://dc.lft.to/lastmile_qr_scan"}, "is_reserved": 0, "is_disabled": 0, "name": "25fbfd2dff349d92b9420e7b4089fa74", "bike_id": "25fbfd2dff349d92b9420e7b4089fa74", "fusion_lat": 0.0, "lon": -76.96541233333333, "type": "electric_scooter", "fusion_lon": 0.0, "lat": 38.918549166666665}, {"rental_uris": {"android": "https://dc.lft.to/lastmile_qr_scan", "ios": "https://dc.lft.to/lastmile_qr_scan"}, "is_reserved": 0, "is_disabled": 0, "name": "a75d1c0ea95fa071d6698cc0705f1666", "bike_id": "a75d1c0ea95fa071d6698cc0705f1666", "fusion_lat": 0.0, "lon": -77.01715116666666, "type": "electric_scooter", "fusion_lon": 0.0, "lat": 38.97489983333333}, {"rental_uris": {"android": "https://dc.lft.to/lastmile_qr_scan", "ios": "https://dc.lft.to/lastmile_qr_scan"}, "is_reserved": 0, "is_disabled": 0, "name": "1a89bd39bc31a0bcc7943d3c369e1f74", "bike_id": "1a89bd39bc31a0bcc7943d3c369e1f74", "fusion_lat": 0.0, "lon": -77.03664216666667, "type": "electric_scooter", "fusion_lon": 0.0, "lat": 38.92211833333333}, {"rental_uris": {"android": "https://dc.lft.to/lastmile_qr_scan", "ios": "https://dc.lft.to/lastmile_qr_scan"}, "is_reserved": 0, "is_disabled": 0, "name": "a505b2142084ade293b15d364e208e43", "bike_id": "a505b2142084ade293b15d364e208e43", "fusion_lat": 0.0, "lon": -77.087231, "type": "electric_bike", "fusion_lon": 0.0, "lat": 38.862423166666666}, {"rental_uris": {"android": "https://dc.lft.to/lastmile_qr_scan", "ios": "https://dc.lft.to/lastmile_qr_scan"}, "is_reserved": 0, "is_disabled": 0, "name": "1b82019657d6b090a5737507bef9cb03", "bike_id": "1b82019657d6b090a5737507bef9cb03", "fusion_lat": 0.0, "lon": -76.9820655, "type": "electric_bike", "fusion_lon": 0.0, "lat": 38.985058}, {"rental_uris": {"android": "https://dc.lft.to/lastmile_qr_scan", "ios": "https://dc.lft.to/lastmile_qr_scan"}, "is_reserved": 0, "is_disabled": 0, "name": "e237331f8c35e73e59f5980af85139ca", "bike_id": "e237331f8c35e73e59f5980af85139ca", "fusion_lat": 0.0, "lon": -77.0201515, "type": "electric_scooter", "fusion_lon": 0.0, "lat": 38.924446}, {"rental_uris": {"android": "https://dc.lft.to/lastmile_qr_scan", "ios": "https://dc.lft.to/lastmile_qr_scan"}, "is_reserved": 0, "is_disabled": 0, "name": "f2d535d9e72ca0d482314c65ef9ec6c7", "bike_id": "f2d535d9e72ca0d482314c65ef9ec6c7", "fusion_lat": 0.0, "lon": -77.00589966666666, "type": "electric_scooter", "fusion_lon": 0.0, "lat": 38.8754825}, {"rental_uris": {"android": "https://dc.lft.to/lastmile_qr_scan", "ios": "https://dc.lft.to/lastmile_qr_scan"}, "is_reserved": 0, "is_disabled": 0, "name": "680f361ceb1fe2d24f03f35236edaf68", "bike_id": "680f361ceb1fe2d24f03f35236edaf68", "fusion_lat": 0.0, "lon": -77.02594816666667, "type": "electric_scooter", "fusion_lon": 0.0, "lat": 38.8962975}, {"rental_uris": {"android": "https://dc.lft.to/lastmile_qr_scan", "ios": "https://dc.lft.to/lastmile_qr_scan"}, "is_reserved": 0, "is_disabled": 0, "name": "2e2662f411df604cbebffeb1971e940a", "bike_id": "2e2662f411df604cbebffeb1971e940a", "fusion_lat": 0.0, "lon": -77.035658, "type": "electric_scooter", "fusion_lon": 0.0, "lat": 38.9247695}, {"rental_uris": {"android": "https://dc.lft.to/lastmile_qr_scan", "ios": "https://dc.lft.to/lastmile_qr_scan"}, "is_reserved": 0, "is_disabled": 0, "name": "19cbded412846536cba10e2a5146c058", "bike_id": "19cbded412846536cba10e2a5146c058", "fusion_lat": 0.0, "lon": -77.02793116666666, "type": "electric_scooter", "fusion_lon": 0.0, "lat": 38.8984285}, {"rental_uris": {"android": "https://dc.lft.to/lastmile_qr_scan", "ios": "https://dc.lft.to/lastmile_qr_scan"}, "is_reserved": 0, "is_disabled": 0, "name": "929d2a44c1eae3394f20595935c549fa", "bike_id": "929d2a44c1eae3394f20595935c549fa", "fusion_lat": 0.0, "lon": -77.054898, "type": "electric_scooter", "fusion_lon": 0.0, "lat": 38.908451}, {"rental_uris": {"android": "https://dc.lft.to/lastmile_qr_scan", "ios": "https://dc.lft.to/lastmile_qr_scan"}, "is_reserved": 0, "is_disabled": 0, "name": "76f4f4e9852c31ce3268d137703902b9", "bike_id": "76f4f4e9852c31ce3268d137703902b9", "fusion_lat": 0.0, "lon": -77.038335, "type": "electric_scooter", "fusion_lon": 0.0, "lat": 38.904159666666665}, {"rental_uris": {"android": "https://dc.lft.to/lastmile_qr_scan", "ios": "https://dc.lft.to/lastmile_qr_scan"}, "is_reserved": 0, "is_disabled": 0, "name": "029450fe270367775a0a6751f178eb32", "bike_id": "029450fe270367775a0a6751f178eb32", "fusion_lat": 0.0, "lon": -77.032005, "type": "electric_scooter", "fusion_lon": 0.0, "lat": 38.920664333333335}, {"rental_uris": {"android": "https://dc.lft.to/lastmile_qr_scan", "ios": "https://dc.lft.to/lastmile_qr_scan"}, "is_reserved": 0, "is_disabled": 0, "name": "d77ffeda47c16509aee5714e68347574", "bike_id": "d77ffeda47c16509aee5714e68347574", "fusion_lat": 0.0, "lon": -77.0488125, "type": "electric_scooter", "fusion_lon": 0.0, "lat": 38.91031016666667}, {"rental_uris": {"android": "https://dc.lft.to/lastmile_qr_scan", "ios": "https://dc.lft.to/lastmile_qr_scan"}, "is_reserved": 0, "is_disabled": 0, "name": "5189f963662a8a2319cad0fd0f323c12", "bike_id": "5189f963662a8a2319cad0fd0f323c12", "fusion_lat": 0.0, "lon": -77.0215735, "type": "electric_scooter", "fusion_lon": 0.0, "lat": 38.92602516666667}, {"rental_uris": {"android": "https://dc.lft.to/lastmile_qr_scan", "ios": "https://dc.lft.to/lastmile_qr_scan"}, "is_reserved": 0, "is_disabled": 0, "name": "f7d665658c3f21366d606b7fa6b91199", "bike_id": "f7d665658c3f21366d606b7fa6b91199", "fusion_lat": 0.0, "lon": -77.00049116666666, "type": "electric_scooter", "fusion_lon": 0.0, "lat": 38.87881766666667}, {"rental_uris": {"android": "https://dc.lft.to/lastmile_qr_scan", "ios": "https://dc.lft.to/lastmile_qr_scan"}, "is_reserved": 0, "is_disabled": 0, "name": "7056414affaea827e7a0692ceda28031", "bike_id": "7056414affaea827e7a0692ceda28031", "fusion_lat": 0.0, "lon": -77.04129166666667, "type": "electric_scooter", "fusion_lon": 0.0, "lat": 38.902716}, {"rental_uris": {"android": "https://dc.lft.to/lastmile_qr_scan", "ios": "https://dc.lft.to/lastmile_qr_scan"}, "is_reserved": 0, "is_disabled": 0, "name": "36e2c9785b61143cb968e6eea94078fc", "bike_id": "36e2c9785b61143cb968e6eea94078fc", "fusion_lat": 0.0, "lon": -77.011964, "type": "electric_scooter", "fusion_lon": 0.0, "lat": 38.900250666666665}, {"rental_uris": {"android": "https://dc.lft.to/lastmile_qr_scan", "ios": "https://dc.lft.to/lastmile_qr_scan"}, "is_reserved": 0, "is_disabled": 0, "name": "e651f30c50a49fee45c5ae0aeae8c1a9", "bike_id": "e651f30c50a49fee45c5ae0aeae8c1a9", "fusion_lat": 0.0, "lon": -77.02156966666666, "type": "electric_scooter", "fusion_lon": 0.0, "lat": 38.926018666666664}, {"rental_uris": {"android": "https://dc.lft.to/lastmile_qr_scan", "ios": "https://dc.lft.to/lastmile_qr_scan"}, "is_reserved": 0, "is_disabled": 0, "name": "13a8e52e2e4864c774c96cf2b421bbb7", "bike_id": "13a8e52e2e4864c774c96cf2b421bbb7", "fusion_lat": 0.0, "lon": -76.94464933333333, "type": "electric_scooter", "fusion_lon": 0.0, "lat": 38.890284333333334}, {"rental_uris": {"android": "https://dc.lft.to/lastmile_qr_scan", "ios": "https://dc.lft.to/lastmile_qr_scan"}, "is_reserved": 0, "is_disabled": 0, "name": "e8e580b467091f51ebd67a92ac3ba057", "bike_id": "e8e580b467091f51ebd67a92ac3ba057", "fusion_lat": 0.0, "lon": -77.03206533333334, "type": "electric_scooter", "fusion_lon": 0.0, "lat": 38.89235583333333}, {"rental_uris": {"android": "https://dc.lft.to/lastmile_qr_scan", "ios": "https://dc.lft.to/lastmile_qr_scan"}, "is_reserved": 0, "is_disabled": 0, "name": "f1df2e6fde664a45c8909e3e35540e5d", "bike_id": "f1df2e6fde664a45c8909e3e35540e5d", "fusion_lat": 0.0, "lon": -77.03296733333333, "type": "electric_scooter", "fusion_lon": 0.0, "lat": 38.95619216666667}, {"rental_uris": {"android": "https://dc.lft.to/lastmile_qr_scan", "ios": "https://dc.lft.to/lastmile_qr_scan"}, "is_reserved": 0, "is_disabled": 0, "name": "2e71472dcafd77ef85e7b5cfe7e0303b", "bike_id": "2e71472dcafd77ef85e7b5cfe7e0303b", "fusion_lat": 0.0, "lon": -77.05352983333333, "type": "electric_scooter", "fusion_lon": 0.0, "lat": 38.903844666666664}, {"rental_uris": {"android": "https://dc.lft.to/lastmile_qr_scan", "ios": "https://dc.lft.to/lastmile_qr_scan"}, "is_reserved": 0, "is_disabled": 0, "name": "09f8be77b6da86d2e92e2c2b36a03c03", "bike_id": "09f8be77b6da86d2e92e2c2b36a03c03", "fusion_lat": 0.0, "lon": -77.013378, "type": "electric_scooter", "fusion_lon": 0.0, "lat": 38.926441}, {"rental_uris": {"android": "https://dc.lft.to/lastmile_qr_scan", "ios": "https://dc.lft.to/lastmile_qr_scan"}, "is_reserved": 0, "is_disabled": 0, "name": "c260cfa0c03a25b85d647c61ecc481d6", "bike_id": "c260cfa0c03a25b85d647c61ecc481d6", "fusion_lat": 0.0, "lon": -77.021144, "type": "electric_scooter", "fusion_lon": 0.0, "lat": 38.91793283333333}, {"rental_uris": {"android": "https://dc.lft.to/lastmile_qr_scan", "ios": "https://dc.lft.to/lastmile_qr_scan"}, "is_reserved": 0, "is_disabled": 0, "name": "457181896e3daa78cca44b023dd7e3ad", "bike_id": "457181896e3daa78cca44b023dd7e3ad", "fusion_lat": 0.0, "lon": -77.01992033333333, "type": "electric_scooter", "fusion_lon": 0.0, "lat": 38.8858655}, {"rental_uris": {"android": "https://dc.lft.to/lastmile_qr_scan", "ios": "https://dc.lft.to/lastmile_qr_scan"}, "is_reserved": 0, "is_disabled": 0, "name": "91fe0741960ec0f5bd6ad4cde2cfce66", "bike_id": "91fe0741960ec0f5bd6ad4cde2cfce66", "fusion_lat": 0.0, "lon": -77.0226455, "type": "electric_scooter", "fusion_lon": 0.0, "lat": 38.924187833333335}, {"rental_uris": {"android": "https://dc.lft.to/lastmile_qr_scan", "ios": "https://dc.lft.to/lastmile_qr_scan"}, "is_reserved": 0, "is_disabled": 0, "name": "f5ae5945bee4c2e72dd8158bb69ffef0", "bike_id": "f5ae5945bee4c2e72dd8158bb69ffef0", "fusion_lat": 0.0, "lon": -77.03461483333334, "type": "electric_scooter", "fusion_lon": 0.0, "lat": 38.9157785}, {"rental_uris": {"android": "https://dc.lft.to/lastmile_qr_scan", "ios": "https://dc.lft.to/lastmile_qr_scan"}, "is_reserved": 0, "is_disabled": 0, "name": "5d0f5fce8d037953809b6c2c73712ddc", "bike_id": "5d0f5fce8d037953809b6c2c73712ddc", "fusion_lat": 0.0, "lon": -77.02985766666667, "type": "electric_scooter", "fusion_lon": 0.0, "lat": 38.916963333333335}, {"rental_uris": {"android": "https://dc.lft.to/lastmile_qr_scan", "ios": "https://dc.lft.to/lastmile_qr_scan"}, "is_reserved": 0, "is_disabled": 0, "name": "c0ffefb5a1e41dd1cccfd8b0d2ff609b", "bike_id": "c0ffefb5a1e41dd1cccfd8b0d2ff609b", "fusion_lat": 0.0, "lon": -76.9837245, "type": "electric_scooter", "fusion_lon": 0.0, "lat": 38.8926425}, {"rental_uris": {"android": "https://dc.lft.to/lastmile_qr_scan", "ios": "https://dc.lft.to/lastmile_qr_scan"}, "is_reserved": 0, "is_disabled": 0, "name": "90848dc70ed20a6590787de8bc3e7a12", "bike_id": "90848dc70ed20a6590787de8bc3e7a12", "fusion_lat": 0.0, "lon": -77.0383025, "type": "electric_scooter", "fusion_lon": 0.0, "lat": 38.911183666666666}, {"rental_uris": {"android": "https://dc.lft.to/lastmile_qr_scan", "ios": "https://dc.lft.to/lastmile_qr_scan"}, "is_reserved": 0, "is_disabled": 0, "name": "1a12c996e765abfecae1a0ae0b63e9f3", "bike_id": "1a12c996e765abfecae1a0ae0b63e9f3", "fusion_lat": 0.0, "lon": -77.04995033333333, "type": "electric_scooter", "fusion_lon": 0.0, "lat": 38.899142}, {"rental_uris": {"android": "https://dc.lft.to/lastmile_qr_scan", "ios": "https://dc.lft.to/lastmile_qr_scan"}, "is_reserved": 0, "is_disabled": 0, "name": "da3e917e208f26c2ae89210a7b72208b", "bike_id": "da3e917e208f26c2ae89210a7b72208b", "fusion_lat": 0.0, "lon": -77.07166433333333, "type": "electric_scooter", "fusion_lon": 0.0, "lat": 38.90870916666667}, {"rental_uris": {"android": "https://dc.lft.to/lastmile_qr_scan", "ios": "https://dc.lft.to/lastmile_qr_scan"}, "is_reserved": 0, "is_disabled": 0, "name": "f41c9b8d61cb7f2424c1979d2bb2eb5f", "bike_id": "f41c9b8d61cb7f2424c1979d2bb2eb5f", "fusion_lat": 0.0, "lon": -76.95738966666667, "type": "electric_scooter", "fusion_lon": 0.0, "lat": 38.88392183333333}, {"rental_uris": {"android": "https://dc.lft.to/lastmile_qr_scan", "ios": "https://dc.lft.to/lastmile_qr_scan"}, "is_reserved": 0, "is_disabled": 0, "name": "3c09a85eb668b3908c9439dfbc0a1066", "bike_id": "3c09a85eb668b3908c9439dfbc0a1066", "fusion_lat": 0.0, "lon": -77.03333833333333, "type": "electric_scooter", "fusion_lon": 0.0, "lat": 38.921603166666664}, {"rental_uris": {"android": "https://dc.lft.to/lastmile_qr_scan", "ios": "https://dc.lft.to/lastmile_qr_scan"}, "is_reserved": 0, "is_disabled": 0, "name": "2b85356e28ed0f88fd8247a192780e26", "bike_id": "2b85356e28ed0f88fd8247a192780e26", "fusion_lat": 0.0, "lon": -77.04136933333334, "type": "electric_scooter", "fusion_lon": 0.0, "lat": 38.909067666666665}, {"rental_uris": {"android": "https://dc.lft.to/lastmile_qr_scan", "ios": "https://dc.lft.to/lastmile_qr_scan"}, "is_reserved": 0, "is_disabled": 0, "name": "c42e4be0e8b109ecc59cef5be73966d1", "bike_id": "c42e4be0e8b109ecc59cef5be73966d1", "fusion_lat": 0.0, "lon": -77.04324933333334, "type": "electric_scooter", "fusion_lon": 0.0, "lat": 38.892224}, {"rental_uris": {"android": "https://dc.lft.to/lastmile_qr_scan", "ios": "https://dc.lft.to/lastmile_qr_scan"}, "is_reserved": 0, "is_disabled": 0, "name": "58e8f6ad2f93457986ef6860dcd8caf4", "bike_id": "58e8f6ad2f93457986ef6860dcd8caf4", "fusion_lat": 0.0, "lon": -76.99569216666667, "type": "electric_scooter", "fusion_lon": 0.0, "lat": 38.900214166666665}, {"rental_uris": {"android": "https://dc.lft.to/lastmile_qr_scan", "ios": "https://dc.lft.to/lastmile_qr_scan"}, "is_reserved": 0, "is_disabled": 0, "name": "85c6f02e5c2c6fa7098ed51ad730957a", "bike_id": "85c6f02e5c2c6fa7098ed51ad730957a", "fusion_lat": 0.0, "lon": -77.04055366666667, "type": "electric_scooter", "fusion_lon": 0.0, "lat": 38.92671516666667}, {"rental_uris": {"android": "https://dc.lft.to/lastmile_qr_scan", "ios": "https://dc.lft.to/lastmile_qr_scan"}, "is_reserved": 0, "is_disabled": 0, "name": "5132823dcffd2dd4b1079ac0a401b3c9", "bike_id": "5132823dcffd2dd4b1079ac0a401b3c9", "fusion_lat": 0.0, "lon": -77.0150035, "type": "electric_scooter", "fusion_lon": 0.0, "lat": 38.893580666666665}, {"rental_uris": {"android": "https://dc.lft.to/lastmile_qr_scan", "ios": "https://dc.lft.to/lastmile_qr_scan"}, "is_reserved": 0, "is_disabled": 0, "name": "2cd23c4f57e5d5fbad1065218c311577", "bike_id": "2cd23c4f57e5d5fbad1065218c311577", "fusion_lat": 0.0, "lon": -77.02208216666666, "type": "electric_scooter", "fusion_lon": 0.0, "lat": 38.894167833333334}, {"rental_uris": {"android": "https://dc.lft.to/lastmile_qr_scan", "ios": "https://dc.lft.to/lastmile_qr_scan"}, "is_reserved": 0, "is_disabled": 0, "name": "3063f85653d859e578d7d3212e1368d3", "bike_id": "3063f85653d859e578d7d3212e1368d3", "fusion_lat": 0.0, "lon": -77.04487933333333, "type": "electric_scooter", "fusion_lon": 0.0, "lat": 38.89945683333333}, {"rental_uris": {"android": "https://dc.lft.to/lastmile_qr_scan", "ios": "https://dc.lft.to/lastmile_qr_scan"}, "is_reserved": 0, "is_disabled": 0, "name": "cc2620731afb8b62b5f39fd3485de8ec", "bike_id": "cc2620731afb8b62b5f39fd3485de8ec", "fusion_lat": 0.0, "lon": -77.03386266666666, "type": "electric_scooter", "fusion_lon": 0.0, "lat": 38.9246705}, {"rental_uris": {"android": "https://dc.lft.to/lastmile_qr_scan", "ios": "https://dc.lft.to/lastmile_qr_scan"}, "is_reserved": 0, "is_disabled": 0, "name": "cfd74cc77c6e976b93c57813c0882745", "bike_id": "cfd74cc77c6e976b93c57813c0882745", "fusion_lat": 0.0, "lon": -77.07753066666666, "type": "electric_bike", "fusion_lon": 0.0, "lat": 38.84192633333333}, {"rental_uris": {"android": "https://dc.lft.to/lastmile_qr_scan", "ios": "https://dc.lft.to/lastmile_qr_scan"}, "is_reserved": 0, "is_disabled": 0, "name": "fe05ebaa8486ba1821fa1b05abf337b0", "bike_id": "fe05ebaa8486ba1821fa1b05abf337b0", "fusion_lat": 0.0, "lon": -77.00383316666667, "type": "electric_bike", "fusion_lon": 0.0, "lat": 38.834285}, {"rental_uris": {"android": "https://dc.lft.to/lastmile_qr_scan", "ios": "https://dc.lft.to/lastmile_qr_scan"}, "is_reserved": 0, "is_disabled": 0, "name": "f05cae384e68ac24329e632dd2236484", "bike_id": "f05cae384e68ac24329e632dd2236484", "fusion_lat": 0.0, "lon": -77.02687866666666, "type": "electric_scooter", "fusion_lon": 0.0, "lat": 38.93082533333333}, {"rental_uris": {"android": "https://dc.lft.to/lastmile_qr_scan", "ios": "https://dc.lft.to/lastmile_qr_scan"}, "is_reserved": 0, "is_disabled": 0, "name": "f943cbfe4d900dbe017d69b0c49bce68", "bike_id": "f943cbfe4d900dbe017d69b0c49bce68", "fusion_lat": 0.0, "lon": -77.01955816666667, "type": "electric_scooter", "fusion_lon": 0.0, "lat": 38.923277166666665}, {"rental_uris": {"android": "https://dc.lft.to/lastmile_qr_scan", "ios": "https://dc.lft.to/lastmile_qr_scan"}, "is_reserved": 0, "is_disabled": 0, "name": "3937389341e7c092bd020d407efd447e", "bike_id": "3937389341e7c092bd020d407efd447e", "fusion_lat": 0.0, "lon": -77.023158, "type": "electric_scooter", "fusion_lon": 0.0, "lat": 38.894696333333336}, {"rental_uris": {"android": "https://dc.lft.to/lastmile_qr_scan", "ios": "https://dc.lft.to/lastmile_qr_scan"}, "is_reserved": 0, "is_disabled": 0, "name": "431b23e248fe8d801a4b90ac31b99f6e", "bike_id": "431b23e248fe8d801a4b90ac31b99f6e", "fusion_lat": 0.0, "lon": -77.05152933333333, "type": "electric_scooter", "fusion_lon": 0.0, "lat": 38.923747}, {"rental_uris": {"android": "https://dc.lft.to/lastmile_qr_scan", "ios": "https://dc.lft.to/lastmile_qr_scan"},