{"data": {"bikes": [{"rental_uris": {"ios": "https://dc.lft.to/lastmile_qr_scan", "android": "https://dc.lft.to/lastmile_qr_scan"}, "lon": -77.0222615, "type": "electric_scooter", "fusion_lat": 0.0, "lat": 38.893514, "name": "78af075fe4e212b91935c107cb79404f", "fusion_lon": 0.0, "bike_id": "78af075fe4e212b91935c107cb79404f", "is_disabled": 0, "is_reserved": 0}, {"rental_uris": {"ios": "https://dc.lft.to/lastmile_qr_scan", "android": "https://dc.lft.to/lastmile_qr_scan"}, "lon": -76.93310916666667, "type": "electric_scooter", "fusion_lat": 0.0, "lat": 38.898732333333335, "name": "6e7cc7c12a150f177f5ad7bc7f841f74", "fusion_lon": 0.0, "bike_id": "6e7cc7c12a150f177f5ad7bc7f841f74", "is_disabled": 0, "is_reserved": 0}, {"rental_uris": {"ios": "https://dc.lft.to/lastmile_qr_scan", "android": "https://dc.lft.to/lastmile_qr_scan"}, "lon": -77.09553916666667, "type": "electric_scooter", "fusion_lat": 0.0, "lat": 38.916599, "name": "40698c1267cca69538ab1629cf0b5e77", "fusion_lon": 0.0, "bike_id": "40698c1267cca69538ab1629cf0b5e77", "is_disabled": 0, "is_reserved": 0}, {"rental_uris": {"ios": "https://dc.lft.to/lastmile_qr_scan", "android": "https://dc.lft.to/lastmile_qr_scan"}, "lon": -76.98584466666667, "type": "electric_scooter", "fusion_lat": 0.0, "lat": 38.90662866666667, "name": "cac870759c2f63980e680a4ddfa5b42e", "fusion_lon": 0.0, "bike_id": "cac870759c2f63980e680a4ddfa5b42e", "is_disabled": 0, "is_reserved": 0}, {"rental_uris": {"ios": "https://dc.lft.to/lastmile_qr_scan", "android": "https://dc.lft.to/lastmile_qr_scan"}, "lon": -77.01223933333333, "type": "electric_scooter", "fusion_lat": 0.0, "lat": 38.9097735, "name": "fbfd98770c7cacdbd9215c2b33d7fa91", "fusion_lon": 0.0, "bike_id": "fbfd98770c7cacdbd9215c2b33d7fa91", "is_disabled": 0, "is_reserved": 0}, {"rental_uris": {"ios": "https://dc.lft.to/lastmile_qr_scan", "android": "https://dc.lft.to/lastmile_qr_scan"}, "lon": -77.01756416666667, "type": "electric_scooter", "fusion_lat": 0.0, "lat": 38.876872666666664, "name": "4612643e7d2df5c3ffb5a8905b2ec03d", "fusion_lon": 0.0, "bike_id": "4612643e7d2df5c3ffb5a8905b2ec03d", "is_disabled": 0, "is_reserved": 0}, {"rental_uris": {"ios": "https://dc.lft.to/lastmile_qr_scan", "android": "https://dc.lft.to/lastmile_qr_scan"}, "lon": -77.0315765, "type": "electric_scooter", "fusion_lat": 0.0, "lat": 38.91189, "name": "b22241e412ac9c2a316c450a6c87aa93", "fusion_lon": 0.0, "bike_id": "b22241e412ac9c2a316c450a6c87aa93", "is_disabled": 0, "is_reserved": 0}, {"rental_uris": {"ios": "https://dc.lft.to/lastmile_qr_scan", "android": "https://dc.lft.to/lastmile_qr_scan"}, "lon": -77.058593, "type": "electric_scooter", "fusion_lat": 0.0, "lat": 38.93598033333333, "name": "6898695d790152eaea5835804098e1be", "fusion_lon": 0.0, "bike_id": "6898695d790152eaea5835804098e1be", "is_disabled": 0, "is_reserved": 0}, {"rental_uris": {"ios": "https://dc.lft.to/lastmile_qr_scan", "android": "https://dc.lft.to/lastmile_qr_scan"}, "lon": -76.99945766666667, "type": "electric_scooter", "fusion_lat": 0.0, "lat": 38.897479833333335, "name": "ccbd1467359dfa5896b781fe41bba47b", "fusion_lon": 0.0, "bike_id": "ccbd1467359dfa5896b781fe41bba47b", "is_disabled": 0, "is_reserved": 0}, {"rental_uris": {"ios": "https://dc.lft.to/lastmile_qr_scan", "android": "https://dc.lft.to/lastmile_qr_scan"}, "lon": -77.02222, "type": "electric_scooter", "fusion_lat": 0.0, "lat": 38.89220316666667, "name": "2f334216c9faf359cb6246b1f1cf14c3", "fusion_lon": 0.0, "bike_id": "2f334216c9faf359cb6246b1f1cf14c3", "is_disabled": 0, "is_reserved": 0}, {"rental_uris": {"ios": "https://dc.lft.to/lastmile_qr_scan", "android": "https://dc.lft.to/lastmile_qr_scan"}, "lon": -77.0217785, "type": "electric_scooter", "fusion_lat": 0.0, "lat": 38.894778333333335, "name": "bb8ff7e5df8028341c7dbdf772d53d7f", "fusion_lon": 0.0, "bike_id": "bb8ff7e5df8028341c7dbdf772d53d7f", "is_disabled": 0, "is_reserved": 0}, {"rental_uris": {"ios": "https://dc.lft.to/lastmile_qr_scan", "android": "https://dc.lft.to/lastmile_qr_scan"}, "lon": -76.98817983333333, "type": "electric_scooter", "fusion_lat": 0.0, "lat": 38.90337816666667, "name": "17e3609bf7cc034c801f4f9f442cdd28", "fusion_lon": 0.0, "bike_id": "17e3609bf7cc034c801f4f9f442cdd28", "is_disabled": 0, "is_reserved": 0}, {"rental_uris": {"ios": "https://dc.lft.to/lastmile_qr_scan", "android": "https://dc.lft.to/lastmile_qr_scan"}, "lon": -77.02753416666667, "type": "electric_scooter", "fusion_lat": 0.0, "lat": 38.923820666666664, "name": "7c177913accf5f3116f41d83664253e7", "fusion_lon": 0.0, "bike_id": "7c177913accf5f3116f41d83664253e7", "is_disabled": 0, "is_reserved": 0}, {"rental_uris": {"ios": "https://dc.lft.to/lastmile_qr_scan", "android": "https://dc.lft.to/lastmile_qr_scan"}, "lon": -77.04406816666666, "type": "electric_scooter", "fusion_lat": 0.0, "lat": 38.913082, "name": "dc315a85187c3dd594e2825e0badf00b", "fusion_lon": 0.0, "bike_id": "dc315a85187c3dd594e2825e0badf00b", "is_disabled": 0, "is_reserved": 0}, {"rental_uris": {"ios": "https://dc.lft.to/lastmile_qr_scan", "android": "https://dc.lft.to/lastmile_qr_scan"}, "lon": -76.93174183333333, "type": "electric_scooter", "fusion_lat": 0.0, "lat": 38.898833, "name": "42a3fee197dc55aed67010bca48b3e34", "fusion_lon": 0.0, "bike_id": "42a3fee197dc55aed67010bca48b3e34", "is_disabled": 0, "is_reserved": 0}, {"rental_uris": {"ios": "https://dc.lft.to/lastmile_qr_scan", "android": "https://dc.lft.to/lastmile_qr_scan"}, "lon": -77.01362566666667, "type": "electric_scooter", "fusion_lat": 0.0, "lat": 38.886461, "name": "4637a803a9362346b2091070585b2fb0", "fusion_lon": 0.0, "bike_id": "4637a803a9362346b2091070585b2fb0", "is_disabled": 0, "is_reserved": 0}, {"rental_uris": {"ios": "https://dc.lft.to/lastmile_qr_scan", "android": "https://dc.lft.to/lastmile_qr_scan"}, "lon": -77.04288066666666, "type": "electric_scooter", "fusion_lat": 0.0, "lat": 38.895275166666664, "name": "eeb663944b9ffab2711fb91e33c1ec32", "fusion_lon": 0.0, "bike_id": "eeb663944b9ffab2711fb91e33c1ec32", "is_disabled": 0, "is_reserved": 0}, {"rental_uris": {"ios": "https://dc.lft.to/lastmile_qr_scan", "android": "https://dc.lft.to/lastmile_qr_scan"}, "lon": -77.08190466666667, "type": "electric_bike", "fusion_lat": 0.0, "lat": 38.92203583333333, "name": "4ef9378e69aeb73be6ca58a004dafe93", "fusion_lon": 0.0, "bike_id": "4ef9378e69aeb73be6ca58a004dafe93", "is_disabled": 0, "is_reserved": 0}, {"rental_uris": {"ios": "https://dc.lft.to/lastmile_qr_scan", "android": "https://dc.lft.to/lastmile_qr_scan"}, "lon": -77.02376583333333, "type": "electric_scooter", "fusion_lat": 0.0, "lat": 38.93608316666667, "name": "9e6abfd6d2cac38416f7aad79a6fe114", "fusion_lon": 0.0, "bike_id": "9e6abfd6d2cac38416f7aad79a6fe114", "is_disabled": 0, "is_reserved": 0}, {"rental_uris": {"ios": "https://dc.lft.to/lastmile_qr_scan", "android": "https://dc.lft.to/lastmile_qr_scan"}, "lon": -77.04873816666667, "type": "electric_scooter", "fusion_lat": 0.0, "lat": 38.905917, "name": "1acd304724be04c0754ed57b9b35a7fc", "fusion_lon": 0.0, "bike_id": "1acd304724be04c0754ed57b9b35a7fc", "is_disabled": 0, "is_reserved": 0}, {"rental_uris": {"ios": "https://dc.lft.to/lastmile_qr_scan", "android": "https://dc.lft.to/lastmile_qr_scan"}, "lon": -76.95182016666666, "type": "electric_bike", "fusion_lat": 0.0, "lat": 38.90685366666666, "name": "ead248756efb8bf1712fb21a331b80ff", "fusion_lon": 0.0, "bike_id": "ead248756efb8bf1712fb21a331b80ff", "is_disabled": 0, "is_reserved": 0}, {"rental_uris": {"ios": "https://dc.lft.to/lastmile_qr_scan", "android": "https://dc.lft.to/lastmile_qr_scan"}, "lon": -77.01112733333333, "type": "electric_scooter", "fusion_lat": 0.0, "lat": 38.903531666666666, "name": "c06b50e9948cd7a4d62e8e6672ba7ecb", "fusion_lon": 0.0, "bike_id": "c06b50e9948cd7a4d62e8e6672ba7ecb", "is_disabled": 0, "is_reserved": 0}, {"rental_uris": {"ios": "https://dc.lft.to/lastmile_qr_scan", "android": "https://dc.lft.to/lastmile_qr_scan"}, "lon": -77.00187383333333, "type": "electric_scooter", "fusion_lat": 0.0, "lat": 38.90034633333333, "name": "d0ad87f31077f333e318fc523d9ab706", "fusion_lon": 0.0, "bike_id": "d0ad87f31077f333e318fc523d9ab706", "is_disabled": 0, "is_reserved": 0}, {"rental_uris": {"ios": "https://dc.lft.to/lastmile_qr_scan", "android": "https://dc.lft.to/lastmile_qr_scan"}, "lon": -77.0631035, "type": "electric_scooter", "fusion_lat": 0.0, "lat": 38.94374583333333, "name": "5da02d7abb48a81189b3f95327c051e6", "fusion_lon": 0.0, "bike_id": "5da02d7abb48a81189b3f95327c051e6", "is_disabled": 0, "is_reserved": 0}, {"rental_uris": {"ios": "https://dc.lft.to/lastmile_qr_scan", "android": "https://dc.lft.to/lastmile_qr_scan"}, "lon": -77.03669933333333, "type": "electric_scooter", "fusion_lat": 0.0, "lat": 38.91866733333333, "name": "c52c1366582d50f7d67ebdea9d56946e", "fusion_lon": 0.0, "bike_id": "c52c1366582d50f7d67ebdea9d56946e", "is_disabled": 0, "is_reserved": 0}, {"rental_uris": {"ios": "https://dc.lft.to/lastmile_qr_scan", "android": "https://dc.lft.to/lastmile_qr_scan"}, "lon": -76.98008266666666, "type": "electric_bike", "fusion_lat": 0.0, "lat": 38.90002333333333, "name": "cefc811e2069d2d6f48c7a57825f8e17", "fusion_lon": 0.0, "bike_id": "cefc811e2069d2d6f48c7a57825f8e17", "is_disabled": 0, "is_reserved": 0}, {"rental_uris": {"ios": "https://dc.lft.to/lastmile_qr_scan", "android": "https://dc.lft.to/lastmile_qr_scan"}, "lon": -76.87494066666666, "type": "electric_bike", "fusion_lat": 0.0, "lat": 38.990875, "name": "57a7bee95903b828ab69189473002554", "fusion_lon": 0.0, "bike_id": "57a7bee95903b828ab69189473002554", "is_disabled": 0, "is_reserved": 0}, {"rental_uris": {"ios": "https://dc.lft.to/lastmile_qr_scan", "android": "https://dc.lft.to/lastmile_qr_scan"}, "lon": -77.0246845, "type": "electric_scooter", "fusion_lat": 0.0, "lat": 38.938145666666664, "name": "af3d1bc565ecdb15a91558a73cd40926", "fusion_lon": 0.0, "bike_id": "af3d1bc565ecdb15a91558a73cd40926", "is_disabled": 0, "is_reserved": 0}, {"rental_uris": {"ios": "https://dc.lft.to/lastmile_qr_scan", "android": "https://dc.lft.to/lastmile_qr_scan"}, "lon": -77.00876183333334, "type": "electric_scooter", "fusion_lat": 0.0, "lat": 38.879146, "name": "4df2477510a7aec89d78430f052c26d0", "fusion_lon": 0.0, "bike_id": "4df2477510a7aec89d78430f052c26d0", "is_disabled": 0, "is_reserved": 0}, {"rental_uris": {"ios": "https://dc.lft.to/lastmile_qr_scan", "android": "https://dc.lft.to/lastmile_qr_scan"}, "lon": -77.11219316666667, "type": "electric_bike", "fusion_lat": 0.0, "lat": 38.828702166666666, "name": "1421405980860d3a362fdf05e31e75ce", "fusion_lon": 0.0, "bike_id": "1421405980860d3a362fdf05e31e75ce", "is_disabled": 0, "is_reserved": 0}, {"rental_uris": {"ios": "https://dc.lft.to/lastmile_qr_scan", "android": "https://dc.lft.to/lastmile_qr_scan"}, "lon": -76.99180883333334, "type": "electric_scooter", "fusion_lat": 0.0, "lat": 38.9045395, "name": "4d1cdd77eda34c1c2e4901a15b0ed32e", "fusion_lon": 0.0, "bike_id": "4d1cdd77eda34c1c2e4901a15b0ed32e", "is_disabled": 0, "is_reserved": 0}, {"rental_uris": {"ios": "https://dc.lft.to/lastmile_qr_scan", "android": "https://dc.lft.to/lastmile_qr_scan"}, "lon": -77.027411, "type": "electric_scooter", "fusion_lat": 0.0, "lat": 38.88148733333333, "name": "a612753cdfeacc7736c404a3e7848ae0", "fusion_lon": 0.0, "bike_id": "a612753cdfeacc7736c404a3e7848ae0", "is_disabled": 0, "is_reserved": 0}, {"rental_uris": {"ios": "https://dc.lft.to/lastmile_qr_scan", "android": "https://dc.lft.to/lastmile_qr_scan"}, "lon": -77.049497, "type": "electric_scooter", "fusion_lat": 0.0, "lat": 38.91593733333333, "name": "ab2ea4bdab28c4db00b372c14b762ca7", "fusion_lon": 0.0, "bike_id": "ab2ea4bdab28c4db00b372c14b762ca7", "is_disabled": 0, "is_reserved": 0}, {"rental_uris": {"ios": "https://dc.lft.to/lastmile_qr_scan", "android": "https://dc.lft.to/lastmile_qr_scan"}, "lon": -77.03984183333333, "type": "electric_scooter", "fusion_lat": 0.0, "lat": 38.89219583333333, "name": "6d32850068879fd18338b640600a95cc", "fusion_lon": 0.0, "bike_id": "6d32850068879fd18338b640600a95cc", "is_disabled": 0, "is_reserved": 0}, {"rental_uris": {"ios": "https://dc.lft.to/lastmile_qr_scan", "android": "https://dc.lft.to/lastmile_qr_scan"}, "lon": -77.021517, "type": "electric_scooter", "fusion_lat": 0.0, "lat": 38.925985, "name": "917068cc55c61d3b63edd61b907759a6", "fusion_lon": 0.0, "bike_id": "917068cc55c61d3b63edd61b907759a6", "is_disabled": 0, "is_reserved": 0}, {"rental_uris": {"ios": "https://dc.lft.to/lastmile_qr_scan", "android": "https://dc.lft.to/lastmile_qr_scan"}, "lon": -77.07902916666667, "type": "electric_bike", "fusion_lat": 0.0, "lat": 38.839328, "name": "6fd7217023c8108994aec93b5bcc864d", "fusion_lon": 0.0, "bike_id": "6fd7217023c8108994aec93b5bcc864d", "is_disabled": 0, "is_reserved": 0}, {"rental_uris": {"ios": "https://dc.lft.to/lastmile_qr_scan", "android": "https://dc.lft.to/lastmile_qr_scan"}, "lon": -77.00651983333333, "type": "electric_scooter", "fusion_lat": 0.0, "lat": 38.876386833333335, "name": "fd515c8b0fcfa1089a4dbd08df18ac68", "fusion_lon": 0.0, "bike_id": "fd515c8b0fcfa1089a4dbd08df18ac68", "is_disabled": 0, "is_reserved": 0}, {"rental_uris": {"ios": "https://dc.lft.to/lastmile_qr_scan", "android": "https://dc.lft.to/lastmile_qr_scan"}, "lon": -76.93603983333334, "type": "electric_bike", "fusion_lat": 0.0, "lat": 38.97073783333333, "name": "1bb0bfe41dfc8e1746804ce86487888f", "fusion_lon": 0.0, "bike_id": "1bb0bfe41dfc8e1746804ce86487888f", "is_disabled": 0, "is_reserved": 0}, {"rental_uris": {"ios": "https://dc.lft.to/lastmile_qr_scan", "android": "https://dc.lft.to/lastmile_qr_scan"}, "lon": -76.99966383333333, "type": "electric_scooter", "fusion_lat": 0.0, "lat": 38.90135466666667, "name": "354b6f00f999606460fca0e65886cb41", "fusion_lon": 0.0, "bike_id": "354b6f00f999606460fca0e65886cb41", "is_disabled": 0, "is_reserved": 0}, {"rental_uris": {"ios": "https://dc.lft.to/lastmile_qr_scan", "android": "https://dc.lft.to/lastmile_qr_scan"}, "lon": -77.050963, "type": "electric_scooter", "fusion_lat": 0.0, "lat": 38.9052035, "name": "10f4396debb3fd46f3a460abd99182f2", "fusion_lon": 0.0, "bike_id": "10f4396debb3fd46f3a460abd99182f2", "is_disabled": 0, "is_reserved": 0}, {"rental_uris": {"ios": "https://dc.lft.to/lastmile_qr_scan", "android": "https://dc.lft.to/lastmile_qr_scan"}, "lon": -77.0246575, "type": "electric_scooter", "fusion_lat": 0.0, "lat": 38.938494666666664, "name": "10d501438d457670aa89ef8f9dc9fc13", "fusion_lon": 0.0, "bike_id": "10d501438d457670aa89ef8f9dc9fc13", "is_disabled": 0, "is_reserved": 0}, {"rental_uris": {"ios": "https://dc.lft.to/lastmile_qr_scan", "android": "https://dc.lft.to/lastmile_qr_scan"}, "lon": -76.99791783333333, "type": "electric_scooter", "fusion_lat": 0.0, "lat": 38.90873216666667, "name": "232d9d4696e6cdc2053c86064c78cb30", "fusion_lon": 0.0, "bike_id": "232d9d4696e6cdc2053c86064c78cb30", "is_disabled": 0, "is_reserved": 0}, {"rental_uris": {"ios": "https://dc.lft.to/lastmile_qr_scan", "android": "https://dc.lft.to/lastmile_qr_scan"}, "lon": -76.9808245, "type": "electric_bike", "fusion_lat": 0.0, "lat": 38.9028645, "name": "1a9e6a8eff21bee1cf1e0a6a0af6116a", "fusion_lon": 0.0, "bike_id": "1a9e6a8eff21bee1cf1e0a6a0af6116a", "is_disabled": 0, "is_reserved": 0}, {"rental_uris": {"ios": "https://dc.lft.to/lastmile_qr_scan", "android": "https://dc.lft.to/lastmile_qr_scan"}, "lon": -77.0125505, "type": "electric_scooter", "fusion_lat": 0.0, "lat": 38.899637, "name": "6c1024e0d537e6f82d151daeedcc271b", "fusion_lon": 0.0, "bike_id": "6c1024e0d537e6f82d151daeedcc271b", "is_disabled": 0, "is_reserved": 0}, {"rental_uris": {"ios": "https://dc.lft.to/lastmile_qr_scan", "android": "https://dc.lft.to/lastmile_qr_scan"}, "lon": -77.0433375, "type": "electric_scooter", "fusion_lat": 0.0, "lat": 38.90804683333333, "name": "1fa0222eff24cf908dd98798a6163bad", "fusion_lon": 0.0, "bike_id": "1fa0222eff24cf908dd98798a6163bad", "is_disabled": 0, "is_reserved": 0}, {"rental_uris": {"ios": "https://dc.lft.to/lastmile_qr_scan", "android": "https://dc.lft.to/lastmile_qr_scan"}, "lon": -76.98714566666666, "type": "electric_scooter", "fusion_lat": 0.0, "lat": 38.862630333333335, "name": "59542452506839d9c30fc4d723e9ed67", "fusion_lon": 0.0, "bike_id": "59542452506839d9c30fc4d723e9ed67", "is_disabled": 0, "is_reserved": 0}, {"rental_uris": {"ios": "https://dc.lft.to/lastmile_qr_scan", "android": "https://dc.lft.to/lastmile_qr_scan"}, "lon": -77.07334983333334, "type": "electric_scooter", "fusion_lat": 0.0, "lat": 38.935532333333335, "name": "82d0fa47f60ec75ecce07c673dd0daaa", "fusion_lon": 0.0, "bike_id": "82d0fa47f60ec75ecce07c673dd0daaa", "is_disabled": 0, "is_reserved": 0}, {"rental_uris": {"ios": "https://dc.lft.to/lastmile_qr_scan", "android": "https://dc.lft.to/lastmile_qr_scan"}, "lon": -76.99147016666667, "type": "electric_scooter", "fusion_lat": 0.0, "lat": 38.9003705, "name": "36475e9f53578bf2e904c842e8c76e80", "fusion_lon": 0.0, "bike_id": "36475e9f53578bf2e904c842e8c76e80", "is_disabled": 0, "is_reserved": 0}, {"rental_uris": {"ios": "https://dc.lft.to/lastmile_qr_scan", "android": "https://dc.lft.to/lastmile_qr_scan"}, "lon": -77.01179566666667, "type": "electric_scooter", "fusion_lat": 0.0, "lat": 38.900237833333335, "name": "1496e26a0802355725338e4228db0bbf", "fusion_lon": 0.0, "bike_id": "1496e26a0802355725338e4228db0bbf", "is_disabled": 0, "is_reserved": 0}, {"rental_uris": {"ios": "https://dc.lft.to/lastmile_qr_scan", "android": "https://dc.lft.to/lastmile_qr_scan"}, "lon": -77.041888, "type": "electric_scooter", "fusion_lat": 0.0, "lat": 38.90055133333333, "name": "5618f479b66a90ad4d2b4f270e6f424e", "fusion_lon": 0.0, "bike_id": "5618f479b66a90ad4d2b4f270e6f424e", "is_disabled": 0, "is_reserved": 0}, {"rental_uris": {"ios": "https://dc.lft.to/lastmile_qr_scan", "android": "https://dc.lft.to/lastmile_qr_scan"}, "lon": -77.04184566666666, "type": "electric_scooter", "fusion_lat": 0.0, "lat": 38.92011016666667, "name": "40aada2e36f5b54f64338817d91980a8", "fusion_lon": 0.0, "bike_id": "40aada2e36f5b54f64338817d91980a8", "is_disabled": 0, "is_reserved": 0}, {"rental_uris": {"ios": "https://dc.lft.to/lastmile_qr_scan", "android": "https://dc.lft.to/lastmile_qr_scan"}, "lon": -77.1359625, "type": "electric_bike", "fusion_lat": 0.0, "lat": 39.05345616666666, "name": "6ff2b43326ee5199bcac612cad55a948", "fusion_lon": 0.0, "bike_id": "6ff2b43326ee5199bcac612cad55a948", "is_disabled": 0, "is_reserved": 0}, {"rental_uris": {"ios": "https://dc.lft.to/lastmile_qr_scan", "android": "https://dc.lft.to/lastmile_qr_scan"}, "lon": -77.038774, "type": "electric_scooter", "fusion_lat": 0.0, "lat": 38.93242983333333, "name": "7edcd52d4410dc1d1965c319ee5378eb", "fusion_lon": 0.0, "bike_id": "7edcd52d4410dc1d1965c319ee5378eb", "is_disabled": 0, "is_reserved": 0}, {"rental_uris": {"ios": "https://dc.lft.to/lastmile_qr_scan", "android": "https://dc.lft.to/lastmile_qr_scan"}, "lon": -77.06362666666666, "type": "electric_scooter", "fusion_lat": 0.0, "lat": 38.909251, "name": "f4e64deff7ccd0b5d92d947e5a664ab8", "fusion_lon": 0.0, "bike_id": "f4e64deff7ccd0b5d92d947e5a664ab8", "is_disabled": 0, "is_reserved": 0}, {"rental_uris": {"ios": "https://dc.lft.to/lastmile_qr_scan", "android": "https://dc.lft.to/lastmile_qr_scan"}, "lon": -77.03202533333334, "type": "electric_scooter", "fusion_lat": 0.0, "lat": 38.91535283333333, "name": "ae2d50d50161393049efe6dc6c690595", "fusion_lon": 0.0, "bike_id": "ae2d50d50161393049efe6dc6c690595", "is_disabled": 0, "is_reserved": 0}, {"rental_uris": {"ios": "https://dc.lft.to/lastmile_qr_scan", "android": "https://dc.lft.to/lastmile_qr_scan"}, "lon": -77.0114245, "type": "electric_scooter", "fusion_lat": 0.0, "lat": 38.8953165, "name": "0c1830c4545a48377ffc211a416ec31f", "fusion_lon": 0.0, "bike_id": "0c1830c4545a48377ffc211a416ec31f", "is_disabled": 0, "is_reserved": 0}, {"rental_uris": {"ios": "https://dc.lft.to/lastmile_qr_scan", "android": "https://dc.lft.to/lastmile_qr_scan"}, "lon": -77.00741166666667, "type": "electric_scooter", "fusion_lat": 0.0, "lat": 38.89831016666667, "name": "a48d0ab27ab282ec9b1ff154aeae150d", "fusion_lon": 0.0, "bike_id": "a48d0ab27ab282ec9b1ff154aeae150d", "is_disabled": 0, "is_reserved": 0}, {"rental_uris": {"ios": "https://dc.lft.to/lastmile_qr_scan", "android": "https://dc.lft.to/lastmile_qr_scan"}, "lon": -76.90813816666666, "type": "electric_bike", "fusion_lat": 0.0, "lat": 38.994539, "name": "54503d8b11dd93c7e5f64b25ce5652ca", "fusion_lon": 0.0, "bike_id": "54503d8b11dd93c7e5f64b25ce5652ca", "is_disabled": 0, "is_reserved": 0}, {"rental_uris": {"ios": "https://dc.lft.to/lastmile_qr_scan", "android": "https://dc.lft.to/lastmile_qr_scan"}, "lon": -76.96020333333334, "type": "electric_bike", "fusion_lat": 0.0, "lat": 38.870029333333335, "name": "e9ef0c46544ab13954aa8a4e0a28e26a", "fusion_lon": 0.0, "bike_id": "e9ef0c46544ab13954aa8a4e0a28e26a", "is_disabled": 0, "is_reserved": 0}, {"rental_uris": {"ios": "https://dc.lft.to/lastmile_qr_scan", "android": "https://dc.lft.to/lastmile_qr_scan"}, "lon": -77.04359033333333, "type": "electric_scooter", "fusion_lat": 0.0, "lat": 38.923503833333335, "name": "821f473c830dc141423b47511c3f5149", "fusion_lon": 0.0, "bike_id": "821f473c830dc141423b47511c3f5149", "is_disabled": 0, "is_reserved": 0}, {"rental_uris": {"ios": "https://dc.lft.to/lastmile_qr_scan", "android": "https://dc.lft.to/lastmile_qr_scan"}, "lon": -77.04818316666666, "type": "electric_scooter", "fusion_lat": 0.0, "lat": 38.9133435, "name": "c0d948750e0edd21d4d6488d3d94ff96", "fusion_lon": 0.0, "bike_id": "c0d948750e0edd21d4d6488d3d94ff96", "is_disabled": 0, "is_reserved": 0}, {"rental_uris": {"ios": "https://dc.lft.to/lastmile_qr_scan", "android": "https://dc.lft.to/lastmile_qr_scan"}, "lon": -77.02581283333333, "type": "electric_scooter", "fusion_lat": 0.0, "lat": 38.88733366666666, "name": "219af5e743370959dcbed5cf963029cd", "fusion_lon": 0.0, "bike_id": "219af5e743370959dcbed5cf963029cd", "is_disabled": 0, "is_reserved": 0}, {"rental_uris": {"ios": "https://dc.lft.to/lastmile_qr_scan", "android": "https://dc.lft.to/lastmile_qr_scan"}, "lon": -77.02698483333333, "type": "electric_scooter", "fusion_lat": 0.0, "lat": 38.9259345, "name": "791f83034d9e06966ab18432f047d7e0", "fusion_lon": 0.0, "bike_id": "791f83034d9e06966ab18432f047d7e0", "is_disabled": 0, "is_reserved": 0}, {"rental_uris": {"ios": "https://dc.lft.to/lastmile_qr_scan", "android": "https://dc.lft.to/lastmile_qr_scan"}, "lon": -77.08193233333333, "type": "electric_scooter", "fusion_lat": 0.0, "lat": 38.949261166666666, "name": "ba9eb29c58169666c00acbebca077ef0", "fusion_lon": 0.0, "bike_id": "ba9eb29c58169666c00acbebca077ef0", "is_disabled": 0, "is_reserved": 0}, {"rental_uris": {"ios": "https://dc.lft.to/lastmile_qr_scan", "android": "https://dc.lft.to/lastmile_qr_scan"}, "lon": -77.03948866666667, "type": "electric_scooter", "fusion_lat": 0.0, "lat": 38.90271633333333, "name": "5c647baaaff77b8b65f323ff68826acc", "fusion_lon": 0.0, "bike_id": "5c647baaaff77b8b65f323ff68826acc", "is_disabled": 0, "is_reserved": 0}, {"rental_uris": {"ios": "https://dc.lft.to/lastmile_qr_scan", "android": "https://dc.lft.to/lastmile_qr_scan"}, "lon": -77.04331133333334, "type": "electric_scooter", "fusion_lat": 0.0, "lat": 38.8922265, "name": "facab5122e9e3dce7ab7c9fdf8e76984", "fusion_lon": 0.0, "bike_id": "facab5122e9e3dce7ab7c9fdf8e76984", "is_disabled": 0, "is_reserved": 0}, {"rental_uris": {"ios": "https://dc.lft.to/lastmile_qr_scan", "android": "https://dc.lft.to/lastmile_qr_scan"}, "lon": -76.9994865, "type": "electric_scooter", "fusion_lat": 0.0, "lat": 38.84292716666667, "name": "c1d499f87cea5215fba65c39a17aee80", "fusion_lon": 0.0, "bike_id": "c1d499f87cea5215fba65c39a17aee80", "is_disabled": 0, "is_reserved": 0}, {"rental_uris": {"ios": "https://dc.lft.to/lastmile_qr_scan", "android": "https://dc.lft.to/lastmile_qr_scan"}, "lon": -77.04063833333333, "type": "electric_scooter", "fusion_lat": 0.0, "lat": 38.92657233333333, "name": "7c8ecb3fbf45947a824fbe8d9987fd70", "fusion_lon": 0.0, "bike_id": "7c8ecb3fbf45947a824fbe8d9987fd70", "is_disabled": 0, "is_reserved": 0}, {"rental_uris": {"ios": "https://dc.lft.to/lastmile_qr_scan", "android": "https://dc.lft.to/lastmile_qr_scan"}, "lon": -77.0093035, "type": "electric_scooter", "fusion_lat": 0.0, "lat": 38.87196616666667, "name": "9b859e9b4927175ca32c6e7d26fec3d4", "fusion_lon": 0.0, "bike_id": "9b859e9b4927175ca32c6e7d26fec3d4", "is_disabled": 0, "is_reserved": 0}, {"rental_uris": {"ios": "https://dc.lft.to/lastmile_qr_scan", "android": "https://dc.lft.to/lastmile_qr_scan"}, "lon": -77.06885666666666, "type": "electric_scooter", "fusion_lat": 0.0, "lat": 38.940282833333335, "name": "57850de94935f7e92137cde9f79a8ca1", "fusion_lon": 0.0, "bike_id": "57850de94935f7e92137cde9f79a8ca1", "is_disabled": 0, "is_reserved": 0}, {"rental_uris": {"ios": "https://dc.lft.to/lastmile_qr_scan", "android": "https://dc.lft.to/lastmile_qr_scan"}, "lon": -77.04365433333334, "type": "electric_scooter", "fusion_lat": 0.0, "lat": 38.91105233333333, "name": "6a94ee522ae812f532090389641068a3", "fusion_lon": 0.0, "bike_id": "6a94ee522ae812f532090389641068a3", "is_disabled": 0, "is_reserved": 0}, {"rental_uris": {"ios": "https://dc.lft.to/lastmile_qr_scan", "android": "https://dc.lft.to/lastmile_qr_scan"}, "lon": -77.06367466666667, "type": "electric_scooter", "fusion_lat": 0.0, "lat": 38.909336833333334, "name": "4811acf5eb4256081a1bff2780947c3e", "fusion_lon": 0.0, "bike_id": "4811acf5eb4256081a1bff2780947c3e", "is_disabled": 0, "is_reserved": 0}, {"rental_uris": {"ios": "https://dc.lft.to/lastmile_qr_scan", "android": "https://dc.lft.to/lastmile_qr_scan"}, "lon": -77.04131433333333, "type": "electric_scooter", "fusion_lat": 0.0, "lat": 38.92201166666667, "name": "f0b4a2c21415303122bbcefb76204503", "fusion_lon": 0.0, "bike_id": "f0b4a2c21415303122bbcefb76204503", "is_disabled": 0, "is_reserved": 0}, {"rental_uris": {"ios": "https://dc.lft.to/lastmile_qr_scan", "android": "https://dc.lft.to/lastmile_qr_scan"}, "lon": -77.0434065, "type": "electric_scooter", "fusion_lat": 0.0, "lat": 38.91047833333333, "name": "02d1a5053fcd052fd80288c039ece9ce", "fusion_lon": 0.0, "bike_id": "02d1a5053fcd052fd80288c039ece9ce", "is_disabled": 0, "is_reserved": 0}, {"rental_uris": {"ios": "https://dc.lft.to/lastmile_qr_scan", "android": "https://dc.lft.to/lastmile_qr_scan"}, "lon": -77.0705065, "type": "electric_bike", "fusion_lat": 0.0, "lat": 38.824426833333334, "name": "f712fef4f94d5aeeb0b9ffe1778ad722", "fusion_lon": 0.0, "bike_id": "f712fef4f94d5aeeb0b9ffe1778ad722", "is_disabled": 0, "is_reserved": 0}, {"rental_uris": {"ios": "https://dc.lft.to/lastmile_qr_scan", "android": "https://dc.lft.to/lastmile_qr_scan"}, "lon": -77.01753833333333, "type": "electric_scooter", "fusion_lat": 0.0, "lat": 38.884050333333334, "name": "9b1762cb144a8d09e770074870b85626", "fusion_lon": 0.0, "bike_id": "9b1762cb144a8d09e770074870b85626", "is_disabled": 0, "is_reserved": 0}, {"rental_uris": {"ios": "https://dc.lft.to/lastmile_qr_scan", "android": "https://dc.lft.to/lastmile_qr_scan"}, "lon": -77.0172125, "type": "electric_scooter", "fusion_lat": 0.0, "lat": 38.9025035, "name": "569e7d30911c78888f3789662b66a2ad", "fusion_lon": 0.0, "bike_id": "569e7d30911c78888f3789662b66a2ad", "is_disabled": 0, "is_reserved": 0}, {"rental_uris": {"ios": "https://dc.lft.to/lastmile_qr_scan", "android": "https://dc.lft.to/lastmile_qr_scan"}, "lon": -77.07319616666666, "type": "electric_scooter", "fusion_lat": 0.0, "lat": 38.924895666666664, "name": "751cab197975708c234c5d47dbb089a2", "fusion_lon": 0.0, "bike_id": "751cab197975708c234c5d47dbb089a2", "is_disabled": 0, "is_reserved": 0}, {"rental_uris": {"ios": "https://dc.lft.to/lastmile_qr_scan", "android": "https://dc.lft.to/lastmile_qr_scan"}, "lon": -77.07541233333333, "type": "electric_scooter", "fusion_lat": 0.0, "lat": 38.9207835, "name": "3b507fe312eda7e6da0b17c5804e6e5a", "fusion_lon": 0.0, "bike_id": "3b507fe312eda7e6da0b17c5804e6e5a", "is_disabled": 0, "is_reserved": 0}, {"rental_uris": {"ios": "https://dc.lft.to/lastmile_qr_scan", "android": "https://dc.lft.to/lastmile_qr_scan"}, "lon": -77.02227383333333, "type": "electric_scooter", "fusion_lat": 0.0, "lat": 38.891924, "name": "b6bf20e8bb096b52d273330448c88918", "fusion_lon": 0.0, "bike_id": "b6bf20e8bb096b52d273330448c88918", "is_disabled": 0, "is_reserved": 0}, {"rental_uris": {"ios": "https://dc.lft.to/lastmile_qr_scan", "android": "https://dc.lft.to/lastmile_qr_scan"}, "lon": -77.03210683333333, "type": "electric_scooter", "fusion_lat": 0.0, "lat": 38.91105183333333, "name": "e27d222c3068f416ac25c0fe80d054e5", "fusion_lon": 0.0, "bike_id": "e27d222c3068f416ac25c0fe80d054e5", "is_disabled": 0, "is_reserved": 0}, {"rental_uris": {"ios": "https://dc.lft.to/lastmile_qr_scan", "android": "https://dc.lft.to/lastmile_qr_scan"}, "lon": -77.07560366666667, "type": "electric_scooter", "fusion_lat": 0.0, "lat": 38.91431583333333, "name": "241bd8d0f5efa766a973ca6f5395d4b3", "fusion_lon": 0.0, "bike_id": "241bd8d0f5efa766a973ca6f5395d4b3", "is_disabled": 0, "is_reserved": 0}, {"rental_uris": {"ios": "https://dc.lft.to/lastmile_qr_scan", "android": "https://dc.lft.to/lastmile_qr_scan"}, "lon": -77.036356, "type": "electric_scooter", "fusion_lat": 0.0, "lat": 38.92919466666667, "name": "20e0cfb2fdccfed6a8935ea3b2ac69cf", "fusion_lon": 0.0, "bike_id": "20e0cfb2fdccfed6a8935ea3b2ac69cf", "is_disabled": 0, "is_reserved": 0}, {"rental_uris": {"ios": "https://dc.lft.to/lastmile_qr_scan", "android": "https://dc.lft.to/lastmile_qr_scan"}, "lon": -77.0379575, "type": "electric_scooter", "fusion_lat": 0.0, "lat": 38.925659833333334, "name": "ecea64dcbb495eb2ea75aa8d143f541b", "fusion_lon": 0.0, "bike_id": "ecea64dcbb495eb2ea75aa8d143f541b", "is_disabled": 0, "is_reserved": 0}, {"rental_uris": {"ios": "https://dc.lft.to/lastmile_qr_scan", "android": "https://dc.lft.to/lastmile_qr_scan"}, "lon": -77.02807666666666, "type": "electric_scooter", "fusion_lat": 0.0, "lat": 38.8964865, "name": "3e7e70033eaee184ade23ec2dd3b0d37", "fusion_lon": 0.0, "bike_id": "3e7e70033eaee184ade23ec2dd3b0d37", "is_disabled": 0, "is_reserved": 0}, {"rental_uris": {"ios": "https://dc.lft.to/lastmile_qr_scan", "android": "https://dc.lft.to/lastmile_qr_scan"}, "lon": -76.992567, "type": "electric_scooter", "fusion_lat": 0.0, "lat": 38.91969433333333, "name": "932d935d37c8a5b713214da44dc34718", "fusion_lon": 0.0, "bike_id": "932d935d37c8a5b713214da44dc34718", "is_disabled": 0, "is_reserved": 0}, {"rental_uris": {"ios": "https://dc.lft.to/lastmile_qr_scan", "android": "https://dc.lft.to/lastmile_qr_scan"}, "lon": -77.05509016666667, "type": "electric_scooter", "fusion_lat": 0.0, "lat": 38.929712333333335, "name": "6c0a8df5a49a6fcc5bc8fa1fd2f7024c", "fusion_lon": 0.0, "bike_id": "6c0a8df5a49a6fcc5bc8fa1fd2f7024c", "is_disabled": 0, "is_reserved": 0}, {"rental_uris": {"ios": "https://dc.lft.to/lastmile_qr_scan", "android": "https://dc.lft.to/lastmile_qr_scan"}, "lon": -77.03137283333334, "type": "electric_scooter", "fusion_lat": 0.0, "lat": 38.911233833333334, "name": "efea954a078e7f4b9b68796a500d4ef8", "fusion_lon": 0.0, "bike_id": "efea954a078e7f4b9b68796a500d4ef8", "is_disabled": 0, "is_reserved": 0}, {"rental_uris": {"ios": "https://dc.lft.to/lastmile_qr_scan", "android": "https://dc.lft.to/lastmile_qr_scan"}, "lon": -77.0318765, "type": "electric_scooter", "fusion_lat": 0.0, "lat": 38.88735066666667, "name": "02903c08ec6c2f2a652b6d0bf749e8a0", "fusion_lon": 0.0, "bike_id": "02903c08ec6c2f2a652b6d0bf749e8a0", "is_disabled": 0, "is_reserved": 0}, {"rental_uris": {"ios": "https://dc.lft.to/lastmile_qr_scan", "android": "https://dc.lft.to/lastmile_qr_scan"}, "lon": -77.11521083333334, "type": "electric_bike", "fusion_lat": 0.0, "lat": 38.85489033333333, "name": "222ef94be26e322559c7e94324568005", "fusion_lon": 0.0, "bike_id": "222ef94be26e322559c7e94324568005", "is_disabled": 0, "is_reserved": 0}, {"rental_uris": {"ios": "https://dc.lft.to/lastmile_qr_scan", "android": "https://dc.lft.to/lastmile_qr_scan"}, "lon": -77.00694416666667, "type": "electric_scooter", "fusion_lat": 0.0, "lat": 38.878312333333334, "name": "045e4fc37c40354a110a48ea3308b11c", "fusion_lon": 0.0, "bike_id": "045e4fc37c40354a110a48ea3308b11c", "is_disabled": 0, "is_reserved": 0}, {"rental_uris": {"ios": "https://dc.lft.to/lastmile_qr_scan", "android": "https://dc.lft.to/lastmile_qr_scan"}, "lon": -77.04472883333334, "type": "electric_scooter", "fusion_lat": 0.0, "lat": 38.9111565, "name": "439f9dfba471283e5acf56097ccb381e", "fusion_lon": 0.0, "bike_id": "439f9dfba471283e5acf56097ccb381e", "is_disabled": 0, "is_reserved": 0}, {"rental_uris": {"ios": "https://dc.lft.to/lastmile_qr_scan", "android": "https://dc.lft.to/lastmile_qr_scan"}, "lon": -76.98192233333333, "type": "electric_scooter", "fusion_lat": 0.0, "lat": 38.90388466666667, "name": "e55c333a07f017cca16a96fbc0ae6136", "fusion_lon": 0.0, "bike_id": "e55c333a07f017cca16a96fbc0ae6136", "is_disabled": 0, "is_reserved": 0}, {"rental_uris": {"ios": "https://dc.lft.to/lastmile_qr_scan", "android": "https://dc.lft.to/lastmile_qr_scan"}, "lon": -77.0286, "type": "electric_scooter", "fusion_lat": 0.0, "lat": 38.8983295, "name": "64240e5a59ad28724a216425de3dc2c1", "fusion_lon": 0.0, "bike_id": "64240e5a59ad28724a216425de3dc2c1", "is_disabled": 0, "is_reserved": 0}, {"rental_uris": {"ios": "https://dc.lft.to/lastmile_qr_scan", "android": "https://dc.lft.to/lastmile_qr_scan"}, "lon": -77.125022, "type": "electric_bike", "fusion_lat": 0.0, "lat": 39.02419066666667, "name": "19ef7f4be3c982cbc0e07a43b6330afd", "fusion_lon": 0.0, "bike_id": "19ef7f4be3c982cbc0e07a43b6330afd", "is_disabled": 0, "is_reserved": 0}, {"rental_uris": {"ios": "https://dc.lft.to/lastmile_qr_scan", "android": "https://dc.lft.to/lastmile_qr_scan"}, "lon": -77.043795, "type": "electric_scooter", "fusion_lat": 0.0, "lat": 38.91657433333334, "name": "ed51e18a473ff25ac56ebe4b4f8b2cc3", "fusion_lon": 0.0, "bike_id": "ed51e18a473ff25ac56ebe4b4f8b2cc3", "is_disabled": 0, "is_reserved": 0}, {"rental_uris": {"ios": "https://dc.lft.to/lastmile_qr_scan", "android": "https://dc.lft.to/lastmile_qr_scan"}, "lon": -77.04127816666667, "type": "electric_scooter", "fusion_lat": 0.0, "lat": 38.900132666666664, "name": "4d6679bf4c9752a047d131a46c05cb45", "fusion_lon": 0.0, "bike_id": "4d6679bf4c9752a047d131a46c05cb45", "is_disabled": 0, "is_reserved": 0}, {"rental_uris": {"ios": "https://dc.lft.to/lastmile_qr_scan", "android": "https://dc.lft.to/lastmile_qr_scan"}, "lon": -76.9575245, "type": "electric_scooter", "fusion_lat": 0.0, "lat": 38.88428666666667, "name": "fcd5891c13e6d8ef3624b390e0245d5f", "fusion_lon": 0.0, "bike_id": "fcd5891c13e6d8ef3624b390e0245d5f", "is_disabled": 0, "is_reserved": 0}, {"rental_uris": {"ios": "https://dc.lft.to/lastmile_qr_scan", "android": "https://dc.lft.to/lastmile_qr_scan"}, "lon": -77.03404083333334, "type": "electric_scooter", "fusion_lat": 0.0, "lat": 38.92264566666667, "name": "e348c87b980b9b448bae9b02f92d2ad7", "fusion_lon": 0.0, "bike_id": "e348c87b980b9b448bae9b02f92d2ad7", "is_disabled": 0, "is_reserved": 0}, {"rental_uris": {"ios": "https://dc.lft.to/lastmile_qr_scan", "android": "https://dc.lft.to/lastmile_qr_scan"}, "lon": -77.05222216666667, "type": "electric_scooter", "fusion_lat": 0.0, "lat": 38.92587483333333, "name": "1f9b54c5acb3dbcceb084c23b325c08f", "fusion_lon": 0.0, "bike_id": "1f9b54c5acb3dbcceb084c23b325c08f", "is_disabled": 0, "is_reserved": 0}, {"rental_uris": {"ios": "https://dc.lft.to/lastmile_qr_scan", "android": "https://dc.lft.to/lastmile_qr_scan"}, "lon": -77.05496116666667, "type": "electric_scooter", "fusion_lat": 0.0, "lat": 38.929691, "name": "e588e828324007f0e779b2e775a8f919", "fusion_lon": 0.0, "bike_id": "e588e828324007f0e779b2e775a8f919", "is_disabled": 0, "is_reserved": 0}, {"rental_uris": {"ios": "https://dc.lft.to/lastmile_qr_scan", "android": "https://dc.lft.to/lastmile_qr_scan"}, "lon": -77.05000633333333, "type": "electric_scooter", "fusion_lat": 0.0, "lat": 38.8922705, "name": "da09d232573ae44e53504386b484d03b", "fusion_lon": 0.0, "bike_id": "da09d232573ae44e53504386b484d03b", "is_disabled": 0, "is_reserved": 0}, {"rental_uris": {"ios": "https://dc.lft.to/lastmile_qr_scan", "android": "https://dc.lft.to/lastmile_qr_scan"}, "lon": -77.02480583333333, "type": "electric_scooter", "fusion_lat": 0.0, "lat": 38.9170775, "name": "974a0115d0b478d12840a084a82dc53d", "fusion_lon": 0.0, "bike_id": "974a0115d0b478d12840a084a82dc53d", "is_disabled": 0, "is_reserved": 0}, {"rental_uris": {"ios": "https://dc.lft.to/lastmile_qr_scan", "android": "https://dc.lft.to/lastmile_qr_scan"}, "lon": -77.04289583333333, "type": "electric_bike", "fusion_lat": 0.0, "lat": 38.91691483333334, "name": "a354c1ddc7af71c494574fd614ede745", "fusion_lon": 0.0, "bike_id": "a354c1ddc7af71c494574fd614ede745", "is_disabled": 0, "is_reserved": 0}, {"rental_uris": {"ios": "https://dc.lft.to/lastmile_qr_scan", "android": "https://dc.lft.to/lastmile_qr_scan"}, "lon": -77.0297185, "type": "electric_scooter", "fusion_lat": 0.0, "lat": 38.90645983333334, "name": "3f262758e8bf18be6141a1d87c2f9dbf", "fusion_lon": 0.0, "bike_id": "3f262758e8bf18be6141a1d87c2f9dbf", "is_disabled": 0, "is_reserved": 0}, {"rental_uris": {"ios": "https://dc.lft.to/lastmile_qr_scan", "android": "https://dc.lft.to/lastmile_qr_scan"}, "lon": -77.02612883333333, "type": "electric_scooter", "fusion_lat": 0.0, "lat": 38.9168325, "name": "f2b905a7fdcf572f714266b90ad79695", "fusion_lon": 0.0, "bike_id": "f2b905a7fdcf572f714266b90ad79695", "is_disabled": 0, "is_reserved": 0}, {"rental_uris": {"ios": "https://dc.lft.to/lastmile_qr_scan", "android": "https://dc.lft.to/lastmile_qr_scan"}, "lon": -77.02712316666667, "type": "electric_scooter", "fusion_lat": 0.0, "lat": 38.92478033333333, "name": "468b17323c0a36e25e17c61c42756673", "fusion_lon": 0.0, "bike_id": "468b17323c0a36e25e17c61c42756673", "is_disabled": 0, "is_reserved": 0}, {"rental_uris": {"ios": "https://dc.lft.to/lastmile_qr_scan", "android": "https://dc.lft.to/lastmile_qr_scan"}, "lon": -77.04826333333334, "type": "electric_scooter", "fusion_lat": 0.0, "lat": 38.89614316666667, "name": "b637d26d0c40161fcbea81b8f51edcdf", "fusion_lon": 0.0, "bike_id": "b637d26d0c40161fcbea81b8f51edcdf", "is_disabled": 0, "is_reserved": 0}, {"rental_uris": {"ios": "https://dc.lft.to/lastmile_qr_scan", "android": "https://dc.lft.to/lastmile_qr_scan"}, "lon": -77.03082366666666, "type": "electric_scooter", "fusion_lat": 0.0, "lat": 38.93471566666667, "name": "b3b403bc0f867e45994f7230df1502a4", "fusion_lon": 0.0, "bike_id": "b3b403bc0f867e45994f7230df1502a4", "is_disabled": 0, "is_reserved": 0}, {"rental_uris": {"ios": "https://dc.lft.to/lastmile_qr_scan", "android": "https://dc.lft.to/lastmile_qr_scan"}, "lon": -77.008546, "type": "electric_scooter", "fusion_lat": 0.0, "lat": 38.92593083333333, "name": "9d05d41bec21111e6c81a1046276a7f3", "fusion_lon": 0.0, "bike_id": "9d05d41bec21111e6c81a1046276a7f3", "is_disabled": 0, "is_reserved": 0}, {"rental_uris": {"ios": "https://dc.lft.to/lastmile_qr_scan", "android": "https://dc.lft.to/lastmile_qr_scan"}, "lon": -76.93793233333334, "type": "electric_scooter", "fusion_lat": 0.0, "lat": 38.912892, "name": "f5e1ee35f589042b32700fb0793842e6", "fusion_lon": 0.0, "bike_id": "f5e1ee35f589042b32700fb0793842e6", "is_disabled": 0, "is_reserved": 0}, {"rental_uris": {"ios": "https://dc.lft.to/lastmile_qr_scan", "android": "https://dc.lft.to/lastmile_qr_scan"}, "lon": -76.978916, "type": "electric_scooter", "fusion_lat": 0.0, "lat": 38.91671783333334, "name": "cda2b27e3f8151524b829a005fa327ff", "fusion_lon": 0.0, "bike_id": "cda2b27e3f8151524b829a005fa327ff", "is_disabled": 0, "is_reserved": 0}, {"rental_uris": {"ios": "https://dc.lft.to/lastmile_qr_scan", "android": "https://dc.lft.to/lastmile_qr_scan"}, "lon": -77.01753216666667, "type": "electric_scooter", "fusion_lat": 0.0, "lat": 38.938909333333335, "name": "ca87e25b6b66ab52d79cee24b89d9990", "fusion_lon": 0.0, "bike_id": "ca87e25b6b66ab52d79cee24b89d9990", "is_disabled": 0, "is_reserved": 0}, {"rental_uris": {"ios": "https://dc.lft.to/lastmile_qr_scan", "android": "https://dc.lft.to/lastmile_qr_scan"}, "lon": -76.98772766666667, "type": "electric_scooter", "fusion_lat": 0.0, "lat": 38.911675833333334, "name": "8802fa9d2a0e80a29a580f8d34342478", "fusion_lon": 0.0, "bike_id": "8802fa9d2a0e80a29a580f8d34342478", "is_disabled": 0, "is_reserved": 0}, {"rental_uris": {"ios": "https://dc.lft.to/lastmile_qr_scan", "android": "https://dc.lft.to/lastmile_qr_scan"}, "lon": -76.9954815, "type": "electric_scooter", "fusion_lat": 0.0, "lat": 38.926686, "name": "c5a5669c97717eb7bad86d7dacac537a", "fusion_lon": 0.0, "bike_id": "c5a5669c97717eb7bad86d7dacac537a", "is_disabled": 0, "is_reserved": 0}, {"rental_uris": {"ios": "https://dc.lft.to/lastmile_qr_scan", "android": "https://dc.lft.to/lastmile_qr_scan"}, "lon": -77.12742216666666, "type": "electric_bike", "fusion_lat": 0.0, "lat": 38.88817216666666, "name": "7768010db9a2fc3cba990cc1e6f10a46", "fusion_lon": 0.0, "bike_id": "7768010db9a2fc3cba990cc1e6f10a46", "is_disabled": 0, "is_reserved": 0}, {"rental_uris": {"ios": "https://dc.lft.to/lastmile_qr_scan", "android": "https://dc.lft.to/lastmile_qr_scan"}, "lon": -77.05130583333333, "type": "electric_scooter", "fusion_lat": 0.0, "lat": 38.902273, "name": "07c1b736a569425cb5bf640eed726fda", "fusion_lon": 0.0, "bike_id": "07c1b736a569425cb5bf640eed726fda", "is_disabled": 0, "is_reserved": 0}, {"rental_uris": {"ios": "https://dc.lft.to/lastmile_qr_scan", "android": "https://dc.lft.to/lastmile_qr_scan"}, "lon": -77.04953816666666, "type": "electric_scooter", "fusion_lat": 0.0, "lat": 38.896586666666664, "name": "8f82091a6886d914b43d11281434f6a7", "fusion_lon": 0.0, "bike_id": "8f82091a6886d914b43d11281434f6a7", "is_disabled": 0, "is_reserved": 0}, {"rental_uris": {"ios": "https://dc.lft.to/lastmile_qr_scan", "android": "https://dc.lft.to/lastmile_qr_scan"}, "lon": -77.0836845, "type": "electric_scooter", "fusion_lat": 0.0, "lat": 38.930309666666666, "name": "53ce7adb765d6b7b9a2a6e5d8df69408", "fusion_lon": 0.0, "bike_id": "53ce7adb765d6b7b9a2a6e5d8df69408", "is_disabled": 0, "is_reserved": 0}, {"rental_uris": {"ios": "https://dc.lft.to/lastmile_qr_scan", "android": "https://dc.lft.to/lastmile_qr_scan"}, "lon": -77.05093433333333, "type": "electric_scooter", "fusion_lat": 0.0, "lat": 38.90492233333333, "name": "445bb69ab1b87362d95d5c5a836ef531", "fusion_lon": 0.0, "bike_id": "445bb69ab1b87362d95d5c5a836ef531", "is_disabled": 0, "is_reserved": 0}, {"rental_uris": {"ios": "https://dc.lft.to/lastmile_qr_scan", "android": "https://dc.lft.to/lastmile_qr_scan"}, "lon": -77.04614483333333, "type": "electric_scooter", "fusion_lat": 0.0, "lat": 38.915682333333336, "name": "4058d53577c71ce1673bd8ba7625977f", "fusion_lon": 0.0, "bike_id": "4058d53577c71ce1673bd8ba7625977f", "is_disabled": 0, "is_reserved": 0}, {"rental_uris": {"ios": "https://dc.lft.to/lastmile_qr_scan", "android": "https://dc.lft.to/lastmile_qr_scan"}, "lon": -77.004214, "type": "electric_scooter", "fusion_lat": 0.0, "lat": 38.9176385, "name": "909833db707ebd7dcd878721ae083c15", "fusion_lon": 0.0, "bike_id": "909833db707ebd7dcd878721ae083c15", "is_disabled": 0, "is_reserved": 0}, {"rental_uris": {"ios": "https://dc.lft.to/lastmile_qr_scan", "android": "https://dc.lft.to/lastmile_qr_scan"}, "lon": -77.02938333333333, "type": "electric_scooter", "fusion_lat": 0.0, "lat": 38.9045925, "name": "623f806867656c6437ad14600e2fd3a6", "fusion_lon": 0.0, "bike_id": "623f806867656c6437ad14600e2fd3a6", "is_disabled": 0, "is_reserved": 0}, {"rental_uris": {"ios": "https://dc.lft.to/lastmile_qr_scan", "android": "https://dc.lft.to/lastmile_qr_scan"}, "lon": -77.02873233333334, "type": "electric_scooter", "fusion_lat": 0.0, "lat": 38.905655333333335, "name": "b894215df1b59976f1805dac5b18cdf1", "fusion_lon": 0.0, "bike_id": "b894215df1b59976f1805dac5b18cdf1", "is_disabled": 0, "is_reserved": 0}, {"rental_uris": {"ios": "https://dc.lft.to/lastmile_qr_scan", "android": "https://dc.lft.to/lastmile_qr_scan"}, "lon": -77.0317465, "type": "electric_bike", "fusion_lat": 0.0, "lat": 38.9154845, "name": "6d98c01d60d26732f0f39ada9c1792c3", "fusion_lon": 0.0, "bike_id": "6d98c01d60d26732f0f39ada9c1792c3", "is_disabled": 0, "is_reserved": 0}, {"rental_uris": {"ios": "https://dc.lft.to/lastmile_qr_scan", "android": "https://dc.lft.to/lastmile_qr_scan"}, "lon": -77.10684566666667, "type": "electric_bike", "fusion_lat": 0.0, "lat": 38.935768, "name": "7a024572b30c9b8094482ee2da64b4bd", "fusion_lon": 0.0, "bike_id": "7a024572b30c9b8094482ee2da64b4bd", "is_disabled": 0, "is_reserved": 0}, {"rental_uris": {"ios": "https://dc.lft.to/lastmile_qr_scan", "android": "https://dc.lft.to/lastmile_qr_scan"}, "lon": -77.03952133333334, "type": "electric_scooter", "fusion_lat": 0.0, "lat": 38.898975, "name": "246908b6c87ae2288c8b828b74398970", "fusion_lon": 0.0, "bike_id": "246908b6c87ae2288c8b828b74398970", "is_disabled": 0, "is_reserved": 0}, {"rental_uris": {"ios": "https://dc.lft.to/lastmile_qr_scan", "android": "https://dc.lft.to/lastmile_qr_scan"}, "lon": -77.04250166666667, "type": "electric_scooter", "fusion_lat": 0.0, "lat": 38.9026935, "name": "4d12ce87da41a14db5e6b71c01514f53", "fusion_lon": 0.0, "bike_id": "4d12ce87da41a14db5e6b71c01514f53", "is_disabled": 0, "is_reserved": 0}, {"rental_uris": {"ios": "https://dc.lft.to/lastmile_qr_scan", "android": "https://dc.lft.to/lastmile_qr_scan"}, "lon": -77.03256216666666, "type": "electric_scooter", "fusion_lat": 0.0, "lat": 38.925450833333336, "name": "9f90e4c2cfe97414f388539ecee80622", "fusion_lon": 0.0, "bike_id": "9f90e4c2cfe97414f388539ecee80622", "is_disabled": 0, "is_reserved": 0}, {"rental_uris": {"ios": "https://dc.lft.to/lastmile_qr_scan", "android": "https://dc.lft.to/lastmile_qr_scan"}, "lon": -77.04332083333334, "type": "electric_scooter", "fusion_lat": 0.0, "lat": 38.8958085, "name": "28a842a4055ecbb3edc541846f3659c0", "fusion_lon": 0.0, "bike_id": "28a842a4055ecbb3edc541846f3659c0", "is_disabled": 0, "is_reserved": 0}, {"rental_uris": {"ios": "https://dc.lft.to/lastmile_qr_scan", "android": "https://dc.lft.to/lastmile_qr_scan"}, "lon": -77.06688683333333, "type": "electric_scooter", "fusion_lat": 0.0, "lat": 38.9051095, "name": "fd37a51d5b2d8c7a3b09f789887936ad", "fusion_lon": 0.0, "bike_id": "fd37a51d5b2d8c7a3b09f789887936ad", "is_disabled": 0, "is_reserved": 0}, {"rental_uris": {"ios": "https://dc.lft.to/lastmile_qr_scan", "android": "https://dc.lft.to/lastmile_qr_scan"}, "lon": -77.031931, "type": "electric_scooter", "fusion_lat": 0.0, "lat": 38.91800666666666, "name": "2e53f45cb8fd8b15e754bd5bf46027ca", "fusion_lon": 0.0, "bike_id": "2e53f45cb8fd8b15e754bd5bf46027ca", "is_disabled": 0, "is_reserved": 0}, {"rental_uris": {"ios": "https://dc.lft.to/lastmile_qr_scan", "android": "https://dc.lft.to/lastmile_qr_scan"}, "lon": -76.94877933333333, "type": "electric_scooter", "fusion_lat": 0.0, "lat": 38.894974166666664, "name": "19860cb5f2db63c903f8488a69017a4c", "fusion_lon": 0.0, "bike_id": "19860cb5f2db63c903f8488a69017a4c", "is_disabled": 0, "is_reserved": 0}, {"rental_uris": {"ios": "https://dc.lft.to/lastmile_qr_scan", "android": "https://dc.lft.to/lastmile_qr_scan"}, "lon": -77.04669416666667, "type": "electric_scooter", "fusion_lat": 0.0, "lat": 38.91483983333333, "name": "6f63b9e0a15bc6d82ba4617af3c41779", "fusion_lon": 0.0, "bike_id": "6f63b9e0a15bc6d82ba4617af3c41779", "is_disabled": 0, "is_reserved": 0}, {"rental_uris": {"ios": "https://dc.lft.to/lastmile_qr_scan", "android": "https://dc.lft.to/lastmile_qr_scan"}, "lon": -77.0065765, "type": "electric_scooter", "fusion_lat": 0.0, "lat": 38.9446145, "name": "5fae8f373a352d334874c4f041437a12", "fusion_lon": 0.0, "bike_id": "5fae8f373a352d334874c4f041437a12", "is_disabled": 0, "is_reserved": 0}, {"rental_uris": {"ios": "https://dc.lft.to/lastmile_qr_scan", "android": "https://dc.lft.to/lastmile_qr_scan"}, "lon": -77.03457283333333, "type": "electric_scooter", "fusion_lat": 0.0, "lat": 38.916804166666665, "name": "9f1b2166b7a946f9f6c1db3d9de62612", "fusion_lon": 0.0, "bike_id": "9f1b2166b7a946f9f6c1db3d9de62612", "is_disabled": 0, "is_reserved": 0}, {"rental_uris": {"ios": "https://dc.lft.to/lastmile_qr_scan", "android": "https://dc.lft.to/lastmile_qr_scan"}, "lon": -77.03432033333333, "type": "electric_scooter", "fusion_lat": 0.0, "lat": 38.908026, "name": "ce6b43d8d33d4e81bcfef22aa70336dd", "fusion_lon": 0.0, "bike_id": "ce6b43d8d33d4e81bcfef22aa70336dd", "is_disabled": 0, "is_reserved": 0}, {"rental_uris": {"ios": "https://dc.lft.to/lastmile_qr_scan", "android": "https://dc.lft.to/lastmile_qr_scan"}, "lon": -77.02790783333333, "type": "electric_scooter", "fusion_lat": 0.0, "lat": 38.88735766666667, "name": "e05936d57bf00726b087f1d3c31480b2", "fusion_lon": 0.0, "bike_id": "e05936d57bf00726b087f1d3c31480b2", "is_disabled": 0, "is_reserved": 0}, {"rental_uris": {"ios": "https://dc.lft.to/lastmile_qr_scan", "android": "https://dc.lft.to/lastmile_qr_scan"}, "lon": -76.99003033333334, "type": "electric_scooter", "fusion_lat": 0.0, "lat": 38.903927333333336, "name": "798cdd10b82b4e251149ce2fc50cf58d", "fusion_lon": 0.0, "bike_id": "798cdd10b82b4e251149ce2fc50cf58d", "is_disabled": 0, "is_reserved": 0}, {"rental_uris": {"ios": "https://dc.lft.to/lastmile_qr_scan", "android": "https://dc.lft.to/lastmile_qr_scan"}, "lon": -77.03290433333333, "type": "electric_scooter", "fusion_lat": 0.0, "lat": 38.909688, "name": "c1a0e0ec54a7ac230bab1169660f9518", "fusion_lon": 0.0, "bike_id": "c1a0e0ec54a7ac230bab1169660f9518", "is_disabled": 0, "is_reserved": 0}, {"rental_uris": {"ios": "https://dc.lft.to/lastmile_qr_scan", "android": "https://dc.lft.to/lastmile_qr_scan"}, "lon": -77.00968316666666, "type": "electric_scooter", "fusion_lat": 0.0, "lat": 38.914141, "name": "bf18f4763dfcba6c30e260d44f01c214", "fusion_lon": 0.0, "bike_id": "bf18f4763dfcba6c30e260d44f01c214", "is_disabled": 0, "is_reserved": 0}, {"rental_uris": {"ios": "https://dc.lft.to/lastmile_qr_scan", "android": "https://dc.lft.to/lastmile_qr_scan"}, "lon": -76.94856616666667, "type": "electric_scooter", "fusion_lat": 0.0, "lat": 38.89586533333333, "name": "0cd2b54fcf7b5825996323f7551280ae", "fusion_lon": 0.0, "bike_id": "0cd2b54fcf7b5825996323f7551280ae", "is_disabled": 0, "is_reserved": 0}, {"rental_uris": {"ios": "https://dc.lft.to/lastmile_qr_scan", "android": "https://dc.lft.to/lastmile_qr_scan"}, "lon": -77.16224666666666, "type": "electric_bike", "fusion_lat": 0.0, "lat": 38.886601166666665, "name": "4c25ee407338041474ccde228b83b437", "fusion_lon": 0.0, "bike_id": "4c25ee407338041474ccde228b83b437", "is_disabled": 0, "is_reserved": 0}, {"rental_uris": {"ios": "https://dc.lft.to/lastmile_qr_scan", "android": "https://dc.lft.to/lastmile_qr_scan"}, "lon": -76.91662766666667, "type": "electric_bike", "fusion_lat": 0.0, "lat": 38.86867633333333, "name": "192bbf65c80bf2b84d9c30fe7107fe02", "fusion_lon": 0.0, "bike_id": "192bbf65c80bf2b84d9c30fe7107fe02", "is_disabled": 0, "is_reserved": 0}, {"rental_uris": {"ios": "https://dc.lft.to/lastmile_qr_scan", "android": "https://dc.lft.to/lastmile_qr_scan"}, "lon": -77.01071583333334, "type": "electric_scooter", "fusion_lat": 0.0, "lat": 38.87470016666666, "name": "298c5684f598eaa600f2f1e3e9b34e12", "fusion_lon": 0.0, "bike_id": "298c5684f598eaa600f2f1e3e9b34e12", "is_disabled": 0, "is_reserved": 0}, {"rental_uris": {"ios": "https://dc.lft.to/lastmile_qr_scan", "android": "https://dc.lft.to/lastmile_qr_scan"}, "lon": -77.02811483333333, "type": "electric_scooter", "fusion_lat": 0.0, "lat": 38.91062983333333, "name": "55f18d4936ce68b4825727bd4441360a", "fusion_lon": 0.0, "bike_id": "55f18d4936ce68b4825727bd4441360a", "is_disabled": 0, "is_reserved": 0}, {"rental_uris": {"ios": "https://dc.lft.to/lastmile_qr_scan", "android": "https://dc.lft.to/lastmile_qr_scan"}, "lon": -77.017898, "type": "electric_scooter", "fusion_lat": 0.0, "lat": 38.94114066666667, "name": "dcc80d5fd629aa9d8e55d18e55c142b7", "fusion_lon": 0.0, "bike_id": "dcc80d5fd629aa9d8e55d18e55c142b7", "is_disabled": 0, "is_reserved": 0}, {"rental_uris": {"ios": "https://dc.lft.to/lastmile_qr_scan", "android": "https://dc.lft.to/lastmile_qr_scan"}, "lon": -76.997759, "type": "electric_scooter", "fusion_lat": 0.0, "lat": 38.84427433333333, "name": "a7958d6c3849e4848eedfb80bf4ebc5a", "fusion_lon": 0.0, "bike_id": "a7958d6c3849e4848eedfb80bf4ebc5a", "is_disabled": 0, "is_reserved": 0}, {"rental_uris": {"ios": "https://dc.lft.to/lastmile_qr_scan", "android": "https://dc.lft.to/lastmile_qr_scan"}, "lon": -77.047448, "type": "electric_scooter", "fusion_lat": 0.0, "lat": 38.9051905, "name": "6f5c40151d8694746ddc42cf5c24e1d3", "fusion_lon": 0.0, "bike_id": "6f5c40151d8694746ddc42cf5c24e1d3", "is_disabled": 0, "is_reserved": 0}, {"rental_uris": {"ios": "https://dc.lft.to/lastmile_qr_scan", "android": "https://dc.lft.to/lastmile_qr_scan"}, "lon": -77.03264, "type": "electric_scooter", "fusion_lat": 0.0, "lat": 38.9441555, "name": "c11fd9cbdb3e63f03d2a67cd1c88f310", "fusion_lon": 0.0, "bike_id": "c11fd9cbdb3e63f03d2a67cd1c88f310", "is_disabled": 0, "is_reserved": 0}, {"rental_uris": {"ios": "https://dc.lft.to/lastmile_qr_scan", "android": "https://dc.lft.to/lastmile_qr_scan"}, "lon": -77.0218275, "type": "electric_scooter", "fusion_lat": 0.0, "lat": 38.89773566666667, "name": "0d1943c2493ee3802952cb6b12396ac6", "fusion_lon": 0.0, "bike_id": "0d1943c2493ee3802952cb6b12396ac6", "is_disabled": 0, "is_reserved": 0}, {"rental_uris": {"ios": "https://dc.lft.to/lastmile_qr_scan", "android": "https://dc.lft.to/lastmile_qr_scan"}, "lon": -77.02021133333334, "type": "electric_scooter", "fusion_lat": 0.0, "lat": 38.932468166666666, "name": "2e6c7ba26977193216fb4924c267c37e", "fusion_lon": 0.0, "bike_id": "2e6c7ba26977193216fb4924c267c37e", "is_disabled": 0, "is_reserved": 0}, {"rental_uris": {"ios": "https://dc.lft.to/lastmile_qr_scan", "android": "https://dc.lft.to/lastmile_qr_scan"}, "lon": -77.02588683333333, "type": "electric_scooter", "fusion_lat": 0.0, "lat": 38.892534833333336, "name": "27add66e227595d3992eb1e88cb09d1b", "fusion_lon": 0.0, "bike_id": "27add66e227595d3992eb1e88cb09d1b", "is_disabled": 0, "is_reserved": 0}, {"rental_uris": {"ios": "https://dc.lft.to/lastmile_qr_scan", "android": "https://dc.lft.to/lastmile_qr_scan"}, "lon": -77.05614533333333, "type": "electric_bike", "fusion_lat": 0.0, "lat": 38.924065666666664, "name": "f684c769474a24ece956a681631434c4", "fusion_lon": 0.0, "bike_id": "f684c769474a24ece956a681631434c4", "is_disabled": 0, "is_reserved": 0}, {"rental_uris": {"ios": "https://dc.lft.to/lastmile_qr_scan", "android": "https://dc.lft.to/lastmile_qr_scan"}, "lon": -77.04008083333333, "type": "electric_scooter", "fusion_lat": 0.0, "lat": 38.90992133333334, "name": "f30bc1953d8b0c3b85cc18dc7252f80f", "fusion_lon": 0.0, "bike_id": "f30bc1953d8b0c3b85cc18dc7252f80f", "is_disabled": 0, "is_reserved": 0}, {"rental_uris": {"ios": "https://dc.lft.to/lastmile_qr_scan", "android": "https://dc.lft.to/lastmile_qr_scan"}, "lon": -77.048637, "type": "electric_scooter", "fusion_lat": 0.0, "lat": 38.9084685, "name": "2b1d2a9f0fb37a7e2cdf3c85fc256c40", "fusion_lon": 0.0, "bike_id": "2b1d2a9f0fb37a7e2cdf3c85fc256c40", "is_disabled": 0, "is_reserved": 0}, {"rental_uris": {"ios": "https://dc.lft.to/lastmile_qr_scan", "android": "https://dc.lft.to/lastmile_qr_scan"}, "lon": -77.058144, "type": "electric_scooter", "fusion_lat": 0.0, "lat": 38.934499, "name": "7fd65c9cc91b47e55cc0524c7bf57ecf", "fusion_lon": 0.0, "bike_id": "7fd65c9cc91b47e55cc0524c7bf57ecf", "is_disabled": 0, "is_reserved": 0}, {"rental_uris": {"ios": "https://dc.lft.to/lastmile_qr_scan", "android": "https://dc.lft.to/lastmile_qr_scan"}, "lon": -77.032258, "type": "electric_scooter", "fusion_lat": 0.0, "lat": 38.92671166666667, "name": "7b7f57a7639ee87eb71345c570c526e4", "fusion_lon": 0.0, "bike_id": "7b7f57a7639ee87eb71345c570c526e4", "is_disabled": 0, "is_reserved": 0}, {"rental_uris": {"ios": "https://dc.lft.to/lastmile_qr_scan", "android": "https://dc.lft.to/lastmile_qr_scan"}, "lon": -76.9740615, "type": "electric_scooter", "fusion_lat": 0.0, "lat": 38.9015865, "name": "b3bf6e71180530a98d0190b521044576", "fusion_lon": 0.0, "bike_id": "b3bf6e71180530a98d0190b521044576", "is_disabled": 0, "is_reserved": 0}, {"rental_uris": {"ios": "https://dc.lft.to/lastmile_qr_scan", "android": "https://dc.lft.to/lastmile_qr_scan"}, "lon": -76.97491883333333, "type": "electric_bike", "fusion_lat": 0.0, "lat": 38.920039333333335, "name": "578768b916c7f7d2f820d92f99c20ce2", "fusion_lon": 0.0, "bike_id": "578768b916c7f7d2f820d92f99c20ce2", "is_disabled": 0, "is_reserved": 0}, {"rental_uris": {"ios": "https://dc.lft.to/lastmile_qr_scan", "android": "https://dc.lft.to/lastmile_qr_scan"}, "lon": -77.042905, "type": "electric_scooter", "fusion_lat": 0.0, "lat": 38.908010833333336, "name": "2dcd219785f18320fba2f47e380d0d45", "fusion_lon": 0.0, "bike_id": "2dcd219785f18320fba2f47e380d0d45", "is_disabled": 0, "is_reserved": 0}, {"rental_uris": {"ios": "https://dc.lft.to/lastmile_qr_scan", "android": "https://dc.lft.to/lastmile_qr_scan"}, "lon": -76.99783616666667, "type": "electric_scooter", "fusion_lat": 0.0, "lat": 38.908730166666665, "name": "b35d89c4b5d71a472734f2b1cea3c800", "fusion_lon": 0.0, "bike_id": "b35d89c4b5d71a472734f2b1cea3c800", "is_disabled": 0, "is_reserved": 0}, {"rental_uris": {"ios": "https://dc.lft.to/lastmile_qr_scan", "android": "https://dc.lft.to/lastmile_qr_scan"}, "lon": -76.937179, "type": "electric_scooter", "fusion_lat": 0.0, "lat": 38.8958645, "name": "49d283a9c85991aa86af92cea56f682d", "fusion_lon": 0.0, "bike_id": "49d283a9c85991aa86af92cea56f682d", "is_disabled": 0, "is_reserved": 0}, {"rental_uris": {"ios": "https://dc.lft.to/lastmile_qr_scan", "android": "https://dc.lft.to/lastmile_qr_scan"}, "lon": -77.02387783333333, "type": "electric_scooter", "fusion_lat": 0.0, "lat": 38.913721833333334, "name": "5b69c6e289040ea314165eddcdbc0683", "fusion_lon": 0.0, "bike_id": "5b69c6e289040ea314165eddcdbc0683", "is_disabled": 0, "is_reserved": 0}, {"rental_uris": {"ios": "https://dc.lft.to/lastmile_qr_scan", "android": "https://dc.lft.to/lastmile_qr_scan"}, "lon": -77.04112966666666, "type": "electric_scooter", "fusion_lat": 0.0, "lat": 38.92446783333333, "name": "d569345d029d4e80385ccb93dd5dffb3", "fusion_lon": 0.0, "bike_id": "d569345d029d4e80385ccb93dd5dffb3", "is_disabled": 0, "is_reserved": 0}, {"rental_uris": {"ios": "https://dc.lft.to/lastmile_qr_scan", "android": "https://dc.lft.to/lastmile_qr_scan"}, "lon": -77.03414983333333, "type": "electric_scooter", "fusion_lat": 0.0, "lat": 38.935363, "name": "931e2b622fdf43ad0952a4b584188bf2", "fusion_lon": 0.0, "bike_id": "931e2b622fdf43ad0952a4b584188bf2", "is_disabled": 0, "is_reserved": 0}, {"rental_uris": {"ios": "https://dc.lft.to/lastmile_qr_scan", "android": "https://dc.lft.to/lastmile_qr_scan"}, "lon": -77.00652916666667, "type": "electric_scooter", "fusion_lat": 0.0, "lat": 38.87176183333333, "name": "0892037db717e195a52309b353faefc2", "fusion_lon": 0.0, "bike_id": "0892037db717e195a52309b353faefc2", "is_disabled": 0, "is_reserved": 0}, {"rental_uris": {"ios": "https://dc.lft.to/lastmile_qr_scan", "android": "https://dc.lft.to/lastmile_qr_scan"}, "lon": -77.03220483333334, "type": "electric_scooter", "fusion_lat": 0.0, "lat": 38.9386855, "name": "0d7c34677b10bef03afc9a4578e7b652", "fusion_lon": 0.0, "bike_id": "0d7c34677b10bef03afc9a4578e7b652", "is_disabled": 0, "is_reserved": 0}, {"rental_uris": {"ios": "https://dc.lft.to/lastmile_qr_scan", "android": "https://dc.lft.to/lastmile_qr_scan"}, "lon": -77.04597966666667, "type": "electric_scooter", "fusion_lat": 0.0, "lat": 38.9018355, "name": "507c9d7e849505c7cbd8efacfff752c0", "fusion_lon": 0.0, "bike_id": "507c9d7e849505c7cbd8efacfff752c0", "is_disabled": 0, "is_reserved": 0}, {"rental_uris": {"ios": "https://dc.lft.to/lastmile_qr_scan", "android": "https://dc.lft.to/lastmile_qr_scan"}, "lon": -77.0502805, "type": "electric_scooter", "fusion_lat": 0.0, "lat": 38.896527166666665, "name": "a49ee0dfc30903ab9e7c517b5e3d6676", "fusion_lon": 0.0, "bike_id": "a49ee0dfc30903ab9e7c517b5e3d6676", "is_disabled": 0, "is_reserved": 0}, {"rental_uris": {"ios": "https://dc.lft.to/lastmile_qr_scan", "android": "https://dc.lft.to/lastmile_qr_scan"}, "lon": -77.04687916666667, "type": "electric_scooter", "fusion_lat": 0.0, "lat": 38.896047333333335, "name": "9965bf8c56060fc2614badfe0646b2f6", "fusion_lon": 0.0, "bike_id": "9965bf8c56060fc2614badfe0646b2f6", "is_disabled": 0, "is_reserved": 0}, {"rental_uris": {"ios": "https://dc.lft.to/lastmile_qr_scan", "android": "https://dc.lft.to/lastmile_qr_scan"}, "lon": -76.9733285, "type": "electric_bike", "fusion_lat": 0.0, "lat": 38.850591, "name": "90ae101ab8c7b316ac200d1edd6656fe", "fusion_lon": 0.0, "bike_id": "90ae101ab8c7b316ac200d1edd6656fe", "is_disabled": 0, "is_reserved": 0}, {"rental_uris": {"ios": "https://dc.lft.to/lastmile_qr_scan", "android": "https://dc.lft.to/lastmile_qr_scan"}, "lon": -77.03931083333333, "type": "electric_scooter", "fusion_lat": 0.0, "lat": 38.902772166666665, "name": "5e6ddc1f04b5baa169af81664e16b439", "fusion_lon": 0.0, "bike_id": "5e6ddc1f04b5baa169af81664e16b439", "is_disabled": 0, "is_reserved": 0}, {"rental_uris": {"ios": "https://dc.lft.to/lastmile_qr_scan", "android": "https://dc.lft.to/lastmile_qr_scan"}, "lon": -77.06273383333334, "type": "electric_scooter", "fusion_lat": 0.0, "lat": 38.9054515, "name": "df82d47dc7c2aafd41cddde12d7df91d", "fusion_lon": 0.0, "bike_id": "df82d47dc7c2aafd41cddde12d7df91d", "is_disabled": 0, "is_reserved": 0}, {"rental_uris": {"ios": "https://dc.lft.to/lastmile_qr_scan", "android": "https://dc.lft.to/lastmile_qr_scan"}, "lon": -77.05425116666666, "type": "electric_scooter", "fusion_lat": 0.0, "lat": 38.928393166666666, "name": "d2d478bef0ccc7bbcde25dfdd9de9b26", "fusion_lon": 0.0, "bike_id": "d2d478bef0ccc7bbcde25dfdd9de9b26", "is_disabled": 0, "is_reserved": 0}, {"rental_uris": {"ios": "https://dc.lft.to/lastmile_qr_scan", "android": "https://dc.lft.to/lastmile_qr_scan"}, "lon": -77.04357516666667, "type": "electric_scooter", "fusion_lat": 0.0, "lat": 38.921172166666665, "name": "e6bd433f2dfdf2cc634c2e445ac1994c", "fusion_lon": 0.0, "bike_id": "e6bd433f2dfdf2cc634c2e445ac1994c", "is_disabled": 0, "is_reserved": 0}, {"rental_uris": {"ios": "https://dc.lft.to/lastmile_qr_scan", "android": "https://dc.lft.to/lastmile_qr_scan"}, "lon": -76.97722333333333, "type": "electric_scooter", "fusion_lat": 0.0, "lat": 38.8724165, "name": "22ee560f06f548996c1940da7e172baf", "fusion_lon": 0.0, "bike_id": "22ee560f06f548996c1940da7e172baf", "is_disabled": 0, "is_reserved": 0}, {"rental_uris": {"ios": "https://dc.lft.to/lastmile_qr_scan", "android": "https://dc.lft.to/lastmile_qr_scan"}, "lon": -77.03675466666667, "type": "electric_scooter", "fusion_lat": 0.0, "lat": 38.929887, "name": "78df48ab2900b285708a3dd714a3dc9a", "fusion_lon": 0.0, "bike_id": "78df48ab2900b285708a3dd714a3dc9a", "is_disabled": 0, "is_reserved": 0}, {"rental_uris": {"ios": "https://dc.lft.to/lastmile_qr_scan", "android": "https://dc.lft.to/lastmile_qr_scan"}, "lon": -77.02419566666667, "type": "electric_scooter", "fusion_lat": 0.0, "lat": 38.91823816666667, "name": "44e6800529ae03229b4ab2564bbb5864", "fusion_lon": 0.0, "bike_id": "44e6800529ae03229b4ab2564bbb5864", "is_disabled": 0, "is_reserved": 0}, {"rental_uris": {"ios": "https://dc.lft.to/lastmile_qr_scan", "android": "https://dc.lft.to/lastmile_qr_scan"}, "lon": -77.0245525, "type": "electric_scooter", "fusion_lat": 0.0, "lat": 38.97931616666666, "name": "357f50e20fea13686f0aea15e7638279", "fusion_lon": 0.0, "bike_id": "357f50e20fea13686f0aea15e7638279", "is_disabled": 0, "is_reserved": 0}, {"rental_uris": {"ios": "https://dc.lft.to/lastmile_qr_scan", "android": "https://dc.lft.to/lastmile_qr_scan"}, "lon": -77.0240805, "type": "electric_scooter", "fusion_lat": 0.0, "lat": 38.934923833333336, "name": "5889500a87d56510bff75806f9f73f5d", "fusion_lon": 0.0, "bike_id": "5889500a87d56510bff75806f9f73f5d", "is_disabled": 0, "is_reserved": 0}, {"rental_uris": {"ios": "https://dc.lft.to/lastmile_qr_scan", "android": "https://dc.lft.to/lastmile_qr_scan"}, "lon": -77.044306, "type": "electric_scooter", "fusion_lat": 0.0, "lat": 38.91006633333333, "name": "952038525e95e1cb0c96289aae2112b2", "fusion_lon": 0.0, "bike_id": "952038525e95e1cb0c96289aae2112b2", "is_disabled": 0, "is_reserved": 0}, {"rental_uris": {"ios": "https://dc.lft.to/lastmile_qr_scan", "android": "https://dc.lft.to/lastmile_qr_scan"}, "lon": -77.00104916666666, "type": "electric_scooter", "fusion_lat": 0.0, "lat": 38.89426316666667, "name": "da317f87eace9eacae5196cdeea1b2ce", "fusion_lon": 0.0, "bike_id": "da317f87eace9eacae5196cdeea1b2ce", "is_disabled": 0, "is_reserved": 0}, {"rental_uris": {"ios": "https://dc.lft.to/lastmile_qr_scan", "android": "https://dc.lft.to/lastmile_qr_scan"}, "lon": -77.024436, "type": "electric_scooter", "fusion_lat": 0.0, "lat": 38.93743766666667, "name": "3da319216baf4a459ee2d10d373dd2ed", "fusion_lon": 0.0, "bike_id": "3da319216baf4a459ee2d10d373dd2ed", "is_disabled": 0, "is_reserved": 0}, {"rental_uris": {"ios": "https://dc.lft.to/lastmile_qr_scan", "android": "https://dc.lft.to/lastmile_qr_scan"}, "lon": -76.98180483333333, "type": "electric_scooter", "fusion_lat": 0.0, "lat": 38.8958625, "name": "258d70fdd3299f8026087d13b776ee26", "fusion_lon": 0.0, "bike_id": "258d70fdd3299f8026087d13b776ee26", "is_disabled": 0, "is_reserved": 0}, {"rental_uris": {"ios": "https://dc.lft.to/lastmile_qr_scan", "android": "https://dc.lft.to/lastmile_qr_scan"}, "lon": -76.909575, "type": "electric_bike", "fusion_lat": 0.0, "lat": 38.854262166666665, "name": "fc6475e82bde782537c30d054037d059", "fusion_lon": 0.0, "bike_id": "fc6475e82bde782537c30d054037d059", "is_disabled": 0, "is_reserved": 0}, {"rental_uris": {"ios": "https://dc.lft.to/lastmile_qr_scan", "android": "https://dc.lft.to/lastmile_qr_scan"}, "lon": -77.02355716666666, "type": "electric_scooter", "fusion_lat": 0.0, "lat": 38.924983166666664, "name": "eb7ebba577e752bbd8d20080162bbaf6", "fusion_lon": 0.0, "bike_id": "eb7ebba577e752bbd8d20080162bbaf6", "is_disabled": 0, "is_reserved": 0}, {"rental_uris": {"ios": "https://dc.lft.to/lastmile_qr_scan", "android": "https://dc.lft.to/lastmile_qr_scan"}, "lon": -77.03294566666666, "type": "electric_scooter", "fusion_lat": 0.0, "lat": 38.918037, "name": "1c4a98ed817c1293579e3799c83e1a2b", "fusion_lon": 0.0, "bike_id": "1c4a98ed817c1293579e3799c83e1a2b", "is_disabled": 0, "is_reserved": 0}, {"rental_uris": {"ios": "https://dc.lft.to/lastmile_qr_scan", "android": "https://dc.lft.to/lastmile_qr_scan"}, "lon": -77.03673266666667, "type": "electric_scooter", "fusion_lat": 0.0, "lat": 38.93923933333333, "name": "e61ab60c4c0215fb89d1e4883e2fa946", "fusion_lon": 0.0, "bike_id": "e61ab60c4c0215fb89d1e4883e2fa946", "is_disabled": 0, "is_reserved": 0}, {"rental_uris": {"ios": "https://dc.lft.to/lastmile_qr_scan", "android": "https://dc.lft.to/lastmile_qr_scan"}, "lon": -77.0130875, "type": "electric_scooter", "fusion_lat": 0.0, "lat": 38.921183, "name": "a511e5aab10a7937ed4e0b458128d0e8", "fusion_lon": 0.0, "bike_id": "a511e5aab10a7937ed4e0b458128d0e8", "is_disabled": 0, "is_reserved": 0}, {"rental_uris": {"ios": "https://dc.lft.to/lastmile_qr_scan", "android": "https://dc.lft.to/lastmile_qr_scan"}, "lon": -76.94894666666667, "type": "electric_scooter", "fusion_lat": 0.0, "lat": 38.895280666666665, "name": "3b325dd74c6cfeec89a6accb5039b9c9", "fusion_lon": 0.0, "bike_id": "3b325dd74c6cfeec89a6accb5039b9c9", "is_disabled": 0, "is_reserved": 0}, {"rental_uris": {"ios": "https://dc.lft.to/lastmile_qr_scan", "android": "https://dc.lft.to/lastmile_qr_scan"}, "lon": -77.03550433333334, "type": "electric_scooter", "fusion_lat": 0.0, "lat": 38.9169175, "name": "02fc84f8705509bb91bed0fdfe135ea3", "fusion_lon": 0.0, "bike_id": "02fc84f8705509bb91bed0fdfe135ea3", "is_disabled": 0, "is_reserved": 0}, {"rental_uris": {"ios": "https://dc.lft.to/lastmile_qr_scan", "android": "https://dc.lft.to/lastmile_qr_scan"}, "lon": -77.027261, "type": "electric_scooter", "fusion_lat": 0.0, "lat": 38.91693016666667, "name": "e2f380cd5b74825ee0467d80abe03ef6", "fusion_lon": 0.0, "bike_id": "e2f380cd5b74825ee0467d80abe03ef6", "is_disabled": 0, "is_reserved": 0}, {"rental_uris": {"ios": "https://dc.lft.to/lastmile_qr_scan", "android": "https://dc.lft.to/lastmile_qr_scan"}, "lon": -77.036456, "type": "electric_scooter", "fusion_lat": 0.0, "lat": 38.902833666666666, "name": "7071a86c2c261429e4d7d9d466b9e1f9", "fusion_lon": 0.0, "bike_id": "7071a86c2c261429e4d7d9d466b9e1f9", "is_disabled": 0, "is_reserved": 0}, {"rental_uris": {"ios": "https://dc.lft.to/lastmile_qr_scan", "android": "https://dc.lft.to/lastmile_qr_scan"}, "lon": -77.0716625, "type": "electric_scooter", "fusion_lat": 0.0, "lat": 38.91448833333333, "name": "0228636c0d935b82e4693a0519827d4c", "fusion_lon": 0.0, "bike_id": "0228636c0d935b82e4693a0519827d4c", "is_disabled": 0, "is_reserved": 0}, {"rental_uris": {"ios": "https://dc.lft.to/lastmile_qr_scan", "android": "https://dc.lft.to/lastmile_qr_scan"}, "lon": -77.069426, "type": "electric_scooter", "fusion_lat": 0.0, "lat": 38.905172666666665, "name": "6123165e36bf670012bbeb08e83e06b4", "fusion_lon": 0.0, "bike_id": "6123165e36bf670012bbeb08e83e06b4", "is_disabled": 0, "is_reserved": 0}, {"rental_uris": {"ios": "https://dc.lft.to/lastmile_qr_scan", "android": "https://dc.lft.to/lastmile_qr_scan"}, "lon": -77.0420115, "type": "electric_scooter", "fusion_lat": 0.0, "lat": 38.911029666666664, "name": "20b4bb7b3202f09556bd461a76e05b05", "fusion_lon": 0.0, "bike_id": "20b4bb7b3202f09556bd461a76e05b05", "is_disabled": 0, "is_reserved": 0}, {"rental_uris": {"ios": "https://dc.lft.to/lastmile_qr_scan", "android": "https://dc.lft.to/lastmile_qr_scan"}, "lon": -77.03021066666666, "type": "electric_scooter", "fusion_lat": 0.0, "lat": 38.90479233333333, "name": "92157ff86ec022a38c8a8e4372358597", "fusion_lon": 0.0, "bike_id": "92157ff86ec022a38c8a8e4372358597", "is_disabled": 0, "is_reserved": 0}, {"rental_uris": {"ios": "https://dc.lft.to/lastmile_qr_scan", "android": "https://dc.lft.to/lastmile_qr_scan"}, "lon": -77.032487, "type": "electric_scooter", "fusion_lat": 0.0, "lat": 38.927708, "name": "14b53609a3921408449fd525142f5bdf", "fusion_lon": 0.0, "bike_id": "14b53609a3921408449fd525142f5bdf", "is_disabled": 0, "is_reserved": 0}, {"rental_uris": {"ios": "https://dc.lft.to/lastmile_qr_scan", "android": "https://dc.lft.to/lastmile_qr_scan"}, "lon": -77.03553083333334, "type": "electric_scooter", "fusion_lat": 0.0, "lat": 38.91799, "name": "04fa1d6da77ceed47a93fafb0fb1c09e", "fusion_lon": 0.0, "bike_id": "04fa1d6da77ceed47a93fafb0fb1c09e", "is_disabled": 0, "is_reserved": 0}, {"rental_uris": {"ios": "https://dc.lft.to/lastmile_qr_scan", "android": "https://dc.lft.to/lastmile_qr_scan"}, "lon": -77.00765166666666, "type": "electric_scooter", "fusion_lat": 0.0, "lat": 38.906587333333334, "name": "2d2eccbbb2321f5c8893ab7e437f358a", "fusion_lon": 0.0, "bike_id": "2d2eccbbb2321f5c8893ab7e437f358a", "is_disabled": 0, "is_reserved": 0}, {"rental_uris": {"ios": "https://dc.lft.to/lastmile_qr_scan", "android": "https://dc.lft.to/lastmile_qr_scan"}, "lon": -77.01359716666667, "type": "electric_scooter", "fusion_lat": 0.0, "lat": 38.863693833333336, "name": "9b92aaedc8c4bbd1b2552a0263b88c43", "fusion_lon": 0.0, "bike_id": "9b92aaedc8c4bbd1b2552a0263b88c43", "is_disabled": 0, "is_reserved": 0}, {"rental_uris": {"ios": "https://dc.lft.to/lastmile_qr_scan", "android": "https://dc.lft.to/lastmile_qr_scan"}, "lon": -77.04347316666667, "type": "electric_scooter", "fusion_lat": 0.0, "lat": 38.8964695, "name": "1144442b7655c99734fde4b1794b2ed3", "fusion_lon": 0.0, "bike_id": "1144442b7655c99734fde4b1794b2ed3", "is_disabled": 0, "is_reserved": 0}, {"rental_uris": {"ios": "https://dc.lft.to/lastmile_qr_scan", "android": "https://dc.lft.to/lastmile_qr_scan"}, "lon": -77.02580366666666, "type": "electric_scooter", "fusion_lat": 0.0, "lat": 38.899719166666664, "name": "2d98aac22900561f066653df1dd94f90", "fusion_lon": 0.0, "bike_id": "2d98aac22900561f066653df1dd94f90", "is_disabled": 0, "is_reserved": 0}, {"rental_uris": {"ios": "https://dc.lft.to/lastmile_qr_scan", "android": "https://dc.lft.to/lastmile_qr_scan"}, "lon": -77.05375866666667, "type": "electric_bike", "fusion_lat": 0.0, "lat": 38.9039845, "name": "461ad558df204488a60a31379b8bf03d", "fusion_lon": 0.0, "bike_id": "461ad558df204488a60a31379b8bf03d", "is_disabled": 0, "is_reserved": 0}, {"rental_uris": {"ios": "https://dc.lft.to/lastmile_qr_scan", "android": "https://dc.lft.to/lastmile_qr_scan"}, "lon": -77.01174633333333, "type": "electric_scooter", "fusion_lat": 0.0, "lat": 38.900318, "name": "43173a2cdfe8b41440ebfb86a9e81de7", "fusion_lon": 0.0, "bike_id": "43173a2cdfe8b41440ebfb86a9e81de7", "is_disabled": 0, "is_reserved": 0}, {"rental_uris": {"ios": "https://dc.lft.to/lastmile_qr_scan", "android": "https://dc.lft.to/lastmile_qr_scan"}, "lon": -77.0404985, "type": "electric_scooter", "fusion_lat": 0.0, "lat": 38.902711333333336, "name": "13dc9f4a71637c6d914162b3666b77fb", "fusion_lon": 0.0, "bike_id": "13dc9f4a71637c6d914162b3666b77fb", "is_disabled": 0, "is_reserved": 0}, {"rental_uris": {"ios": "https://dc.lft.to/lastmile_qr_scan", "android": "https://dc.lft.to/lastmile_qr_scan"}, "lon": -77.0326185, "type": "electric_scooter", "fusion_lat": 0.0, "lat": 38.9390005, "name": "abd4bb0fa231d5a2a61033dadb89b181", "fusion_lon": 0.0, "bike_id": "abd4bb0fa231d5a2a61033dadb89b181", "is_disabled": 0, "is_reserved": 0}, {"rental_uris": {"ios": "https://dc.lft.to/lastmile_qr_scan", "android": "https://dc.lft.to/lastmile_qr_scan"}, "lon": -77.05706583333334, "type": "electric_scooter", "fusion_lat": 0.0, "lat": 38.9054745, "name": "4b27a0f32582550cb85caa7ae9e24de4", "fusion_lon": 0.0, "bike_id": "4b27a0f32582550cb85caa7ae9e24de4", "is_disabled": 0, "is_reserved": 0}, {"rental_uris": {"ios": "https://dc.lft.to/lastmile_qr_scan", "android": "https://dc.lft.to/lastmile_qr_scan"}, "lon": -76.97880733333334, "type": "electric_scooter", "fusion_lat": 0.0, "lat": 38.8850305, "name": "3483d1fa07a47e706ca575b37dca2fa8", "fusion_lon": 0.0, "bike_id": "3483d1fa07a47e706ca575b37dca2fa8", "is_disabled": 0, "is_reserved": 0}, {"rental_uris": {"ios": "https://dc.lft.to/lastmile_qr_scan", "android": "https://dc.lft.to/lastmile_qr_scan"}, "lon": -77.010826, "type": "electric_scooter", "fusion_lat": 0.0, "lat": 38.894513, "name": "85149cd825ccce05ffb4455681885c7a", "fusion_lon": 0.0, "bike_id": "85149cd825ccce05ffb4455681885c7a", "is_disabled": 0, "is_reserved": 0}, {"rental_uris": {"ios": "https://dc.lft.to/lastmile_qr_scan", "android": "https://dc.lft.to/lastmile_qr_scan"}, "lon": -76.9869585, "type": "electric_scooter", "fusion_lat": 0.0, "lat": 38.907036833333336, "name": "47ab06abd16d130c251c20604e1370ee", "fusion_lon": 0.0, "bike_id": "47ab06abd16d130c251c20604e1370ee", "is_disabled": 0, "is_reserved": 0}, {"rental_uris": {"ios": "https://dc.lft.to/lastmile_qr_scan", "android": "https://dc.lft.to/lastmile_qr_scan"}, "lon": -77.03860816666666, "type": "electric_scooter", "fusion_lat": 0.0, "lat": 38.92010333333333, "name": "79c3cd6cfd6f3a6c4f8b3b0d3e1b4f0c", "fusion_lon": 0.0, "bike_id": "79c3cd6cfd6f3a6c4f8b3b0d3e1b4f0c", "is_disabled": 0, "is_reserved": 0}, {"rental_uris": {"ios": "https://dc.lft.to/lastmile_qr_scan", "android": "https://dc.lft.to/lastmile_qr_scan"}, "lon": -77.0351605, "type": "electric_bike", "fusion_lat": 0.0, "lat": 38.9653425, "name": "4f94d00d9b4b1a534ac8e966faf2e5e0", "fusion_lon": 0.0, "bike_id": "4f94d00d9b4b1a534ac8e966faf2e5e0", "is_disabled": 0, "is_reserved": 0}, {"rental_uris": {"ios": "https://dc.lft.to/lastmile_qr_scan", "android": "https://dc.lft.to/lastmile_qr_scan"}, "lon": -77.06524433333334, "type": "electric_bike", "fusion_lat": 0.0, "lat": 38.90447966666667, "name": "84c709d0b5d36e20793e8e2d42c04f20", "fusion_lon": 0.0, "bike_id": "84c709d0b5d36e20793e8e2d42c04f20", "is_disabled": 0, "is_reserved": 0}, {"rental_uris": {"ios": "https://dc.lft.to/lastmile_qr_scan", "android": "https://dc.lft.to/lastmile_qr_scan"}, "lon": -77.05019883333334, "type": "electric_scooter", "fusion_lat": 0.0, "lat": 38.896510666666664, "name": "b21f1916b358696ceeca608289a9c933", "fusion_lon": 0.0, "bike_id": "b21f1916b358696ceeca608289a9c933", "is_disabled": 0, "is_reserved": 0}, {"rental_uris": {"ios": "https://dc.lft.to/lastmile_qr_scan", "android": "https://dc.lft.to/lastmile_qr_scan"}, "lon": -76.984105, "type": "electric_scooter", "fusion_lat": 0.0, "lat": 38.913850333333336, "name": "051b9af2d940d5883387a3c4730cb2ff", "fusion_lon": 0.0, "bike_id": "051b9af2d940d5883387a3c4730cb2ff", "is_disabled": 0, "is_reserved": 0}, {"rental_uris": {"ios": "https://dc.lft.to/lastmile_qr_scan", "android": "https://dc.lft.to/lastmile_qr_scan"}, "lon": -77.114269, "type": "electric_bike", "fusion_lat": 0.0, "lat": 38.8524395, "name": "ac56616aeb19fd894436c229a5f94b03", "fusion_lon": 0.0, "bike_id": "ac56616aeb19fd894436c229a5f94b03", "is_disabled": 0, "is_reserved": 0}, {"rental_uris": {"ios": "https://dc.lft.to/lastmile_qr_scan", "android": "https://dc.lft.to/lastmile_qr_scan"}, "lon": -77.03173616666666, "type": "electric_scooter", "fusion_lat": 0.0, "lat": 38.91715533333333, "name": "46c474269c172007474cc4aff3e4ff8d", "fusion_lon": 0.0, "bike_id": "46c474269c172007474cc4aff3e4ff8d", "is_disabled": 0, "is_reserved": 0}, {"rental_uris": {"ios": "https://dc.lft.to/lastmile_qr_scan", "android": "https://dc.lft.to/lastmile_qr_scan"}, "lon": -77.03192383333334, "type": "electric_scooter", "fusion_lat": 0.0, "lat": 38.9125095, "name": "e3e7fed06a806a80a5108a9623d5b705", "fusion_lon": 0.0, "bike_id": "e3e7fed06a806a80a5108a9623d5b705", "is_disabled": 0, "is_reserved": 0}, {"rental_uris": {"ios": "https://dc.lft.to/lastmile_qr_scan", "android": "https://dc.lft.to/lastmile_qr_scan"}, "lon": -77.00300716666666, "type": "electric_scooter", "fusion_lat": 0.0, "lat": 38.9092, "name": "67b00308565d34a29222d986aa03987e", "fusion_lon": 0.0, "bike_id": "67b00308565d34a29222d986aa03987e", "is_disabled": 0, "is_reserved": 0}, {"rental_uris": {"ios": "https://dc.lft.to/lastmile_qr_scan", "android": "https://dc.lft.to/lastmile_qr_scan"}, "lon": -76.99383783333333, "type": "electric_scooter", "fusion_lat": 0.0, "lat": 38.887174333333334, "name": "fd1d90508bde0c772737337a24aa243b", "fusion_lon": 0.0, "bike_id": "fd1d90508bde0c772737337a24aa243b", "is_disabled": 0, "is_reserved": 0}, {"rental_uris": {"ios": "https://dc.lft.to/lastmile_qr_scan", "android": "https://dc.lft.to/lastmile_qr_scan"}, "lon": -77.002254, "type": "electric_scooter", "fusion_lat": 0.0, "lat": 38.90568233333333, "name": "69014025b917c978408bf974015281ff", "fusion_lon": 0.0, "bike_id": "69014025b917c978408bf974015281ff", "is_disabled": 0, "is_reserved": 0}, {"rental_uris": {"ios": "https://dc.lft.to/lastmile_qr_scan", "android": "https://dc.lft.to/lastmile_qr_scan"}, "lon": -76.96777816666666, "type": "electric_scooter", "fusion_lat": 0.0, "lat": 38.86132933333333, "name": "81e4a8aab09b6790fb5f54966ee6970b", "fusion_lon": 0.0, "bike_id": "81e4a8aab09b6790fb5f54966ee6970b", "is_disabled": 0, "is_reserved": 0}, {"rental_uris": {"ios": "https://dc.lft.to/lastmile_qr_scan", "android": "https://dc.lft.to/lastmile_qr_scan"}, "lon": -77.043735, "type": "electric_scooter", "fusion_lat": 0.0, "lat": 38.9212325, "name": "1d78aeaba5d4c2d245b61679810545ab", "fusion_lon": 0.0, "bike_id": "1d78aeaba5d4c2d245b61679810545ab", "is_disabled": 0, "is_reserved": 0}, {"rental_uris": {"ios": "https://dc.lft.to/lastmile_qr_scan", "android": "https://dc.lft.to/lastmile_qr_scan"}, "lon": -77.12626916666666, "type": "electric_bike", "fusion_lat": 0.0, "lat": 39.05809516666667, "name": "d25ea5714445f8d4b518dec5db929d12", "fusion_lon": 0.0, "bike_id": "d25ea5714445f8d4b518dec5db929d12", "is_disabled": 0, "is_reserved": 0}, {"rental_uris": {"ios": "https://dc.lft.to/lastmile_qr_scan", "android": "https://dc.lft.to/lastmile_qr_scan"}, "lon": -76.978278, "type": "electric_bike", "fusion_lat": 0.0, "lat": 38.84609116666667, "name": "e87667ed5bc150454f1b78bfd4588967", "fusion_lon": 0.0, "bike_id": "e87667ed5bc150454f1b78bfd4588967", "is_disabled": 0, "is_reserved": 0}, {"rental_uris": {"ios": "https://dc.lft.to/lastmile_qr_scan", "android": "https://dc.lft.to/lastmile_qr_scan"}, "lon": -77.1784585, "type": "electric_bike", "fusion_lat": 0.0, "lat": 39.08903633333333, "name": "7e9d4cea3784d1aef9cdc0a85b3ce1d4", "fusion_lon": 0.0, "bike_id": "7e9d4cea3784d1aef9cdc0a85b3ce1d4", "is_disabled": 0, "is_reserved": 0}, {"rental_uris": {"ios": "https://dc.lft.to/lastmile_qr_scan", "android": "https://dc.lft.to/lastmile_qr_scan"}, "lon": -77.00286666666666, "type": "electric_bike", "fusion_lat": 0.0, "lat": 38.95223283333333, "name": "58e350f76fc5940931bc6b094a896f88", "fusion_lon": 0.0, "bike_id": "58e350f76fc5940931bc6b094a896f88", "is_disabled": 0, "is_reserved": 0}, {"rental_uris": {"ios": "https://dc.lft.to/lastmile_qr_scan", "android": "https://dc.lft.to/lastmile_qr_scan"}, "lon": -77.0139735, "type": "electric_scooter", "fusion_lat": 0.0, "lat": 38.92832583333333, "name": "aff81489fbd6343fbcdf3cc3a87f24c7", "fusion_lon": 0.0, "bike_id": "aff81489fbd6343fbcdf3cc3a87f24c7", "is_disabled": 0, "is_reserved": 0}, {"rental_uris": {"ios": "https://dc.lft.to/lastmile_qr_scan", "android": "https://dc.lft.to/lastmile_qr_scan"}, "lon": -77.03862116666667, "type": "electric_scooter", "fusion_lat": 0.0, "lat": 38.90965383333333, "name": "7f786dfee570e78a173cdcf3bc1ed475", "fusion_lon": 0.0, "bike_id": "7f786dfee570e78a173cdcf3bc1ed475", "is_disabled": 0, "is_reserved": 0}, {"rental_uris": {"ios": "https://dc.lft.to/lastmile_qr_scan", "android": "https://dc.lft.to/lastmile_qr_scan"}, "lon": -77.03319666666667, "type": "electric_scooter", "fusion_lat": 0.0, "lat": 38.901376, "name": "f21a773c01e5de7fcd39dacb10517a98", "fusion_lon": 0.0, "bike_id": "f21a773c01e5de7fcd39dacb10517a98", "is_disabled": 0, "is_reserved": 0}, {"rental_uris": {"ios": "https://dc.lft.to/lastmile_qr_scan", "android": "https://dc.lft.to/lastmile_qr_scan"}, "lon": -76.978255, "type": "electric_scooter", "fusion_lat": 0.0, "lat": 38.895157166666664, "name": "35d6b97440d96cfc30eaba44460ebb92", "fusion_lon": 0.0, "bike_id": "35d6b97440d96cfc30eaba44460ebb92", "is_disabled": 0, "is_reserved": 0}, {"rental_uris": {"ios": "https://dc.lft.to/lastmile_qr_scan", "android": "https://dc.lft.to/lastmile_qr_scan"}, "lon": -77.06753066666667, "type": "electric_scooter", "fusion_lat": 0.0, "lat": 38.91562716666667, "name": "28536e53a7bfe377673cb84c4bc599fe", "fusion_lon": 0.0, "bike_id": "28536e53a7bfe377673cb84c4bc599fe", "is_disabled": 0, "is_reserved": 0}, {"rental_uris": {"ios": "https://dc.lft.to/lastmile_qr_scan", "android": "https://dc.lft.to/lastmile_qr_scan"}, "lon": -77.03190416666666, "type": "electric_scooter", "fusion_lat": 0.0, "lat": 38.91593533333333, "name": "f347f5a96dbe64e0bdfe9ec6f1a4a74c", "fusion_lon": 0.0, "bike_id": "f347f5a96dbe64e0bdfe9ec6f1a4a74c", "is_disabled": 0, "is_reserved": 0}, {"rental_uris": {"ios": "https://dc.lft.to/lastmile_qr_scan", "android": "https://dc.lft.to/lastmile_qr_scan"}, "lon": -76.974268, "type": "electric_bike", "fusion_lat": 0.0, "lat": 38.93203833333333, "name": "d446e0a72755bb40c95966e3bdc2aac3", "fusion_lon": 0.0, "bike_id": "d446e0a72755bb40c95966e3bdc2aac3", "is_disabled": 0, "is_reserved": 0}, {"rental_uris": {"ios": "https://dc.lft.to/lastmile_qr_scan", "android": "https://dc.lft.to/lastmile_qr_scan"}, "lon": -77.0423875, "type": "electric_scooter", "fusion_lat": 0.0, "lat": 38.9221065, "name": "cc3421fe55eb2ffc85f4d71c553f6ec4", "fusion_lon": 0.0, "bike_id": "cc3421fe55eb2ffc85f4d71c553f6ec4", "is_disabled": 0, "is_reserved": 0}, {"rental_uris": {"ios": "https://dc.lft.to/lastmile_qr_scan", "android": "https://dc.lft.to/lastmile_qr_scan"}, "lon": -77.02691516666667, "type": "electric_scooter", "fusion_lat": 0.0, "lat": 38.905991666666665, "name": "ba2b494f991f6001fd8aa243aff767ca", "fusion_lon": 0.0, "bike_id": "ba2b494f991f6001fd8aa243aff767ca", "is_disabled": 0, "is_reserved": 0}, {"rental_uris": {"ios": "https://dc.lft.to/lastmile_qr_scan", "android": "https://dc.lft.to/lastmile_qr_scan"}, "lon": -77.0250155, "type": "electric_scooter", "fusion_lat": 0.0, "lat": 38.907201666666666, "name": "728bbbe61e33953478af1068a3a6d3f7", "fusion_lon": 0.0, "bike_id": "728bbbe61e33953478af1068a3a6d3f7", "is_disabled": 0, "is_reserved": 0}, {"rental_uris": {"ios": "https://dc.lft.to/lastmile_qr_scan", "android": "https://dc.lft.to/lastmile_qr_scan"}, "lon": -76.94996933333333, "type": "electric_scooter", "fusion_lat": 0.0, "lat": 38.893729, "name": "cf9847ef60ad7c0e242642f929e953c3", "fusion_lon": 0.0, "bike_id": "cf9847ef60ad7c0e242642f929e953c3", "is_disabled": 0, "is_reserved": 0}, {"rental_uris": {"ios": "https://dc.lft.to/lastmile_qr_scan", "android": "https://dc.lft.to/lastmile_qr_scan"}, "lon": -77.18430766666667, "type": "electric_bike", "fusion_lat": 0.0, "lat": 39.11365466666667, "name": "f43271838529b69b23685f6607c276ac", "fusion_lon": 0.0, "bike_id": "f43271838529b69b23685f6607c276ac", "is_disabled": 0, "is_reserved": 0}, {"rental_uris": {"ios": "https://dc.lft.to/lastmile_qr_scan", "android": "https://dc.lft.to/lastmile_qr_scan"}, "lon": -77.18292783333334, "type": "electric_bike", "fusion_lat": 0.0, "lat": 38.883446166666666, "name": "16035522d59ac766a103a36d9c7c9965", "fusion_lon": 0.0, "bike_id": "16035522d59ac766a103a36d9c7c9965", "is_disabled": 0, "is_reserved": 0}, {"rental_uris": {"ios": "https://dc.lft.to/lastmile_qr_scan", "android": "https://dc.lft.to/lastmile_qr_scan"}, "lon": -77.0389305, "type": "electric_scooter", "fusion_lat": 0.0, "lat": 38.94392083333334, "name": "90c61ad5ed3a1d5cc1b95ef226863844", "fusion_lon": 0.0, "bike_id": "90c61ad5ed3a1d5cc1b95ef226863844", "is_disabled": 0, "is_reserved": 0}, {"rental_uris": {"ios": "https://dc.lft.to/lastmile_qr_scan", "android": "https://dc.lft.to/lastmile_qr_scan"}, "lon": -76.99064233333333, "type": "electric_scooter", "fusion_lat": 0.0, "lat": 38.863566, "name": "161b7a8665816af15d00b68b954a829c", "fusion_lon": 0.0, "bike_id": "161b7a8665816af15d00b68b954a829c", "is_disabled": 0, "is_reserved": 0}, {"rental_uris": {"ios": "https://dc.lft.to/lastmile_qr_scan", "android": "https://dc.lft.to/lastmile_qr_scan"}, "lon": -77.00370483333333, "type": "electric_bike", "fusion_lat": 0.0, "lat": 38.83604583333333, "name": "abf5e28768394b79a8021f43e0b895bf", "fusion_lon": 0.0, "bike_id": "abf5e28768394b79a8021f43e0b895bf", "is_disabled": 0, "is_reserved": 0}, {"rental_uris": {"ios": "https://dc.lft.to/lastmile_qr_scan", "android": "https://dc.lft.to/lastmile_qr_scan"}, "lon": -77.03197, "type": "electric_scooter", "fusion_lat": 0.0, "lat": 38.9125085, "name": "68f8fe1ec5baed279dac1d6ffa5308d9", "fusion_lon": 0.0, "bike_id": "68f8fe1ec5baed279dac1d6ffa5308d9", "is_disabled": 0, "is_reserved": 0}, {"rental_uris": {"ios": "https://dc.lft.to/lastmile_qr_scan", "android": "https://dc.lft.to/lastmile_qr_scan"}, "lon": -76.970024, "type": "electric_bike", "fusion_lat": 0.0, "lat": 38.86369033333333, "name": "d65ab2d318911fe17771f0b7f17bdcb8", "fusion_lon": 0.0, "bike_id": "d65ab2d318911fe17771f0b7f17bdcb8", "is_disabled": 0, "is_reserved": 0}, {"rental_uris": {"ios": "https://dc.lft.to/lastmile_qr_scan", "android": "https://dc.lft.to/lastmile_qr_scan"}, "lon": -77.028884, "type": "electric_scooter", "fusion_lat": 0.0, "lat": 38.90714216666667, "name": "0ac5f07915740b13cfa90541e77b6efb", "fusion_lon": 0.0, "bike_id": "0ac5f07915740b13cfa90541e77b6efb", "is_disabled": 0, "is_reserved": 0}, {"rental_uris": {"ios": "https://dc.lft.to/lastmile_qr_scan", "android": "https://dc.lft.to/lastmile_qr_scan"}, "lon": -76.93161266666667, "type": "electric_bike", "fusion_lat": 0.0, "lat": 38.9086135, "name": "1193581c96c93fc01e205854b1e8b3b3", "fusion_lon": 0.0, "bike_id": "1193581c96c93fc01e205854b1e8b3b3", "is_disabled": 0, "is_reserved": 0}, {"rental_uris": {"ios": "https://dc.lft.to/lastmile_qr_scan", "android": "https://dc.lft.to/lastmile_qr_scan"}, "lon": -77.02816183333333, "type": "electric_scooter", "fusion_lat": 0.0, "lat": 38.961250166666666, "name": "8f5b7ced231bdfb3c8357b38f9072578", "fusion_lon": 0.0, "bike_id": "8f5b7ced231bdfb3c8357b38f9072578", "is_disabled": 0, "is_reserved": 0}, {"rental_uris": {"ios": "https://dc.lft.to/lastmile_qr_scan", "android": "https://dc.lft.to/lastmile_qr_scan"}, "lon": -77.0293705, "type": "electric_scooter", "fusion_lat": 0.0, "lat": 38.92060083333333, "name": "d6761b4d7a0a067c1f0fbda63d1b2579", "fusion_lon": 0.0, "bike_id": "d6761b4d7a0a067c1f0fbda63d1b2579", "is_disabled": 0, "is_reserved": 0}, {"rental_uris": {"ios": "https://dc.lft.to/lastmile_qr_scan", "android": "https://dc.lft.to/lastmile_qr_scan"}, "lon": -77.01158883333333, "type": "electric_scooter", "fusion_lat": 0.0, "lat": 38.9002835, "name": "33965622245ff4151a26706cd31bbf84", "fusion_lon": 0.0, "bike_id": "33965622245ff4151a26706cd31bbf84", "is_disabled": 0, "is_reserved": 0}, {"rental_uris": {"ios": "https://dc.lft.to/lastmile_qr_scan", "android": "https://dc.lft.to/lastmile_qr_scan"}, "lon": -77.02655466666667, "type": "electric_scooter", "fusion_lat": 0.0, "lat": 38.91692066666667, "name": "aa25810dc94bfcd88a6a9706e569d6bb", "fusion_lon": 0.0, "bike_id": "aa25810dc94bfcd88a6a9706e569d6bb", "is_disabled": 0, "is_reserved": 0}, {"rental_uris": {"ios": "https://dc.lft.to/lastmile_qr_scan", "android": "https://dc.lft.to/lastmile_qr_scan"}, "lon": -77.03831833333334, "type": "electric_scooter", "fusion_lat": 0.0, "lat": 38.9082845, "name": "b006b7c10932b296ed2d3cf08db46f2d", "fusion_lon": 0.0, "bike_id": "b006b7c10932b296ed2d3cf08db46f2d", "is_disabled": 0, "is_reserved": 0}, {"rental_uris": {"ios": "https://dc.lft.to/lastmile_qr_scan", "android": "https://dc.lft.to/lastmile_qr_scan"}, "lon": -76.98881233333333, "type": "electric_scooter", "fusion_lat": 0.0, "lat": 38.8665695, "name": "21bcc49f9e93807e54d464915066b468", "fusion_lon": 0.0, "bike_id": "21bcc49f9e93807e54d464915066b468", "is_disabled": 0, "is_reserved": 0}, {"rental_uris": {"ios": "https://dc.lft.to/lastmile_qr_scan", "android": "https://dc.lft.to/lastmile_qr_scan"}, "lon": -77.04688466666667, "type": "electric_scooter", "fusion_lat": 0.0, "lat": 38.897378833333335, "name": "0ee813866bf7ce6def26a66a3c35b47b", "fusion_lon": 0.0, "bike_id": "0ee813866bf7ce6def26a66a3c35b47b", "is_disabled": 0, "is_reserved": 0}, {"rental_uris": {"ios": "https://dc.lft.to/lastmile_qr_scan", "android": "https://dc.lft.to/lastmile_qr_scan"}, "lon": -77.08542, "type": "electric_bike", "fusion_lat": 0.0, "lat": 38.85620216666667, "name": "486f633270985c679c375bcce897996c", "fusion_lon": 0.0, "bike_id": "486f633270985c679c375bcce897996c", "is_disabled": 0, "is_reserved": 0}, {"rental_uris": {"ios": "https://dc.lft.to/lastmile_qr_scan", "android": "https://dc.lft.to/lastmile_qr_scan"}, "lon": -76.941798, "type": "electric_scooter", "fusion_lat": 0.0, "lat": 38.88217016666667, "name": "b0d2ec67489ae4c6f65d9ee34632dd2b", "fusion_lon": 0.0, "bike_id": "b0d2ec67489ae4c6f65d9ee34632dd2b", "is_disabled": 0, "is_reserved": 0}, {"rental_uris": {"ios": "https://dc.lft.to/lastmile_qr_scan", "android": "https://dc.lft.to/lastmile_qr_scan"}, "lon": -76.987094, "type": "electric_scooter", "fusion_lat": 0.0, "lat": 38.862594, "name": "06a2ba63708b08aa529993b10563c3fe", "fusion_lon": 0.0, "bike_id": "06a2ba63708b08aa529993b10563c3fe", "is_disabled": 0, "is_reserved": 0}, {"rental_uris": {"ios": "https://dc.lft.to/lastmile_qr_scan", "android": "https://dc.lft.to/lastmile_qr_scan"}, "lon": -77.03863033333333, "type": "electric_scooter", "fusion_lat": 0.0, "lat": 38.91557183333333, "name": "c48f15092b9a165c59071fc2deaaab8a", "fusion_lon": 0.0, "bike_id": "c48f15092b9a165c59071fc2deaaab8a", "is_disabled": 0, "is_reserved": 0}, {"rental_uris": {"ios": "https://dc.lft.to/lastmile_qr_scan", "android": "https://dc.lft.to/lastmile_qr_scan"}, "lon": -77.0362355, "type": "electric_scooter", "fusion_lat": 0.0, "lat": 38.932561166666666, "name": "c5772fded48ba02b9aa76d1e26ecb88a", "fusion_lon": 0.0, "bike_id": "c5772fded48ba02b9aa76d1e26ecb88a", "is_disabled": 0, "is_reserved": 0}, {"rental_uris": {"ios": "https://dc.lft.to/lastmile_qr_scan", "android": "https://dc.lft.to/lastmile_qr_scan"}, "lon": -76.99501516666666, "type": "electric_scooter", "fusion_lat": 0.0, "lat": 38.8800925, "name": "d9582139253e7a5da6fff4ce9b119c9e", "fusion_lon": 0.0, "bike_id": "d9582139253e7a5da6fff4ce9b119c9e", "is_disabled": 0, "is_reserved": 0}, {"rental_uris": {"ios": "https://dc.lft.to/lastmile_qr_scan", "android": "https://dc.lft.to/lastmile_qr_scan"}, "lon": -77.04256383333333, "type": "electric_scooter", "fusion_lat": 0.0, "lat": 38.9220455, "name": "e8d7b4683dae9098d7fd0fb23a4b934f", "fusion_lon": 0.0, "bike_id": "e8d7b4683dae9098d7fd0fb23a4b934f", "is_disabled": 0, "is_reserved": 0}, {"rental_uris": {"ios": "https://dc.lft.to/lastmile_qr_scan", "android": "https://dc.lft.to/lastmile_qr_scan"}, "lon": -76.9914265, "type": "electric_scooter", "fusion_lat": 0.0, "lat": 38.900344, "name": "319c53bbf17e45936f55a052854442fa", "fusion_lon": 0.0, "bike_id": "319c53bbf17e45936f55a052854442fa", "is_disabled": 0, "is_reserved": 0}, {"rental_uris": {"ios": "https://dc.lft.to/lastmile_qr_scan", "android": "https://dc.lft.to/lastmile_qr_scan"}, "lon": -77.05472983333334, "type": "electric_scooter", "fusion_lat": 0.0, "lat": 38.9209015, "name": "1c73a4585e08cfae27ab5404fa8c9d21", "fusion_lon": 0.0, "bike_id": "1c73a4585e08cfae27ab5404fa8c9d21", "is_disabled": 0, "is_reserved": 0}, {"rental_uris": {"ios": "https://dc.lft.to/lastmile_qr_scan", "android": "https://dc.lft.to/lastmile_qr_scan"}, "lon": -77.05100483333334, "type": "electric_scooter", "fusion_lat": 0.0, "lat": 38.90516016666667, "name": "2ffce5114356f40771ec3fd89187efa0", "fusion_lon": 0.0, "bike_id": "2ffce5114356f40771ec3fd89187efa0", "is_disabled": 0, "is_reserved": 0}, {"rental_uris": {"ios": "https://dc.lft.to/lastmile_qr_scan", "android": "https://dc.lft.to/lastmile_qr_scan"}, "lon": -76.95528583333333, "type": "electric_scooter", "fusion_lat": 0.0, "lat": 38.8877675, "name": "f61ca4873d167c55c58386db21773deb", "fusion_lon": 0.0, "bike_id": "f61ca4873d167c55c58386db21773deb", "is_disabled": 0, "is_reserved": 0}, {"rental_uris": {"ios": "https://dc.lft.to/lastmile_qr_scan", "android": "https://dc.lft.to/lastmile_qr_scan"}, "lon": -77.020958, "type": "electric_scooter", "fusion_lat": 0.0, "lat": 38.914214666666666, "name": "d56b536daac44418c2cc37f74cf2d484", "fusion_lon": 0.0, "bike_id": "d56b536daac44418c2cc37f74cf2d484", "is_disabled": 0, "is_reserved": 0}, {"rental_uris": {"ios": "https://dc.lft.to/lastmile_qr_scan", "android": "https://dc.lft.to/lastmile_qr_scan"}, "lon": -77.06014283333333, "type": "electric_scooter", "fusion_lat": 0.0, "lat": 38.91258583333333, "name": "828270478457be165dbde121e1a3e82c", "fusion_lon": 0.0, "bike_id": "828270478457be165dbde121e1a3e82c", "is_disabled": 0, "is_reserved": 0}, {"rental_uris": {"ios": "https://dc.lft.to/lastmile_qr_scan", "android": "https://dc.lft.to/lastmile_qr_scan"}, "lon": -77.0220175, "type": "electric_scooter", "fusion_lat": 0.0, "lat": 38.8960825, "name": "3d411a1e334a689e707224428d828a3d", "fusion_lon": 0.0, "bike_id": "3d411a1e334a689e707224428d828a3d", "is_disabled": 0, "is_reserved": 0}, {"rental_uris": {"ios": "https://dc.lft.to/lastmile_qr_scan", "android": "https://dc.lft.to/lastmile_qr_scan"}, "lon": -77.04607083333333, "type": "electric_scooter", "fusion_lat": 0.0, "lat": 38.903827166666666, "name": "a82f6579a01ec4d5f7bd5bc122e5a09a", "fusion_lon": 0.0, "bike_id": "a82f6579a01ec4d5f7bd5bc122e5a09a", "is_disabled": 0, "is_reserved": 0}, {"rental_uris": {"ios": "https://dc.lft.to/lastmile_qr_scan", "android": "https://dc.lft.to/lastmile_qr_scan"}, "lon": -77.0018655, "type": "electric_scooter", "fusion_lat": 0.0, "lat": 38.873876833333334, "name": "9b9d0aae365950e407c52863a9f9b68b", "fusion_lon": 0.0, "bike_id": "9b9d0aae365950e407c52863a9f9b68b", "is_disabled": 0, "is_reserved": 0}, {"rental_uris": {"ios": "https://dc.lft.to/lastmile_qr_scan", "android": "https://dc.lft.to/lastmile_qr_scan"}, "lon": -77.0222605, "type": "electric_scooter", "fusion_lat": 0.0, "lat": 38.892192666666666, "name": "37cbfead1386149f5027d576ec0b975f", "fusion_lon": 0.0, "bike_id": "37cbfead1386149f5027d576ec0b975f", "is_disabled": 0, "is_reserved": 0}, {"rental_uris": {"ios": "https://dc.lft.to/lastmile_qr_scan", "android": "https://dc.lft.to/lastmile_qr_scan"}, "lon": -77.03183533333333, "type": "electric_scooter", "fusion_lat": 0.0, "lat": 38.912743, "name": "1701abecc826d49db79ff8e289ce0421", "fusion_lon": 0.0, "bike_id": "1701abecc826d49db79ff8e289ce0421", "is_disabled": 0, "is_reserved": 0}, {"rental_uris": {"ios": "https://dc.lft.to/lastmile_qr_scan", "android": "https://dc.lft.to/lastmile_qr_scan"}, "lon": -76.966269, "type": "electric_bike", "fusion_lat": 0.0, "lat": 38.94201266666666, "name": "4f1e463253c87413fe7363f49b22b80e", "fusion_lon": 0.0, "bike_id": "4f1e463253c87413fe7363f49b22b80e", "is_disabled": 0, "is_reserved": 0}, {"rental_uris": {"ios": "https://dc.lft.to/lastmile_qr_scan", "android": "https://dc.lft.to/lastmile_qr_scan"}, "lon": -77.01984683333333, "type": "electric_scooter", "fusion_lat": 0.0, "lat": 38.91518466666667, "name": "9972366c58240e2e4a21bf795a9a17b7", "fusion_lon": 0.0, "bike_id": "9972366c58240e2e4a21bf795a9a17b7", "is_disabled": 0, "is_reserved": 0}, {"rental_uris": {"ios": "https://dc.lft.to/lastmile_qr_scan", "android": "https://dc.lft.to/lastmile_qr_scan"}, "lon": -77.03194433333333, "type": "electric_scooter", "fusion_lat": 0.0, "lat": 38.8996105, "name": "db9d3dea1d87bccebb1859ae8588a33e", "fusion_lon": 0.0, "bike_id": "db9d3dea1d87bccebb1859ae8588a33e", "is_disabled": 0, "is_reserved": 0}, {"rental_uris": {"ios": "https://dc.lft.to/lastmile_qr_scan", "android": "https://dc.lft.to/lastmile_qr_scan"}, "lon": -76.928896, "type": "electric_scooter", "fusion_lat": 0.0, "lat": 38.8932795, "name": "6b203736d0d8ed9d01fe14b02a382742", "fusion_lon": 0.0, "bike_id": "6b203736d0d8ed9d01fe14b02a382742", "is_disabled": 0, "is_reserved": 0}, {"rental_uris": {"ios": "https://dc.lft.to/lastmile_qr_scan", "android": "https://dc.lft.to/lastmile_qr_scan"}, "lon": -77.04685916666666, "type": "electric_scooter", "fusion_lat": 0.0, "lat": 38.89219633333333, "name": "3b7d1b6eff54857f4925fddc11bf64ee", "fusion_lon": 0.0, "bike_id": "3b7d1b6eff54857f4925fddc11bf64ee", "is_disabled": 0, "is_reserved": 0}, {"rental_uris": {"ios": "https://dc.lft.to/lastmile_qr_scan", "android": "https://dc.lft.to/lastmile_qr_scan"}, "lon": -77.02779933333333, "type": "electric_scooter", "fusion_lat": 0.0, "lat": 38.89220266666667, "name": "b39a1d47aa14659d9ae1b43b2f52eede", "fusion_lon": 0.0, "bike_id": "b39a1d47aa14659d9ae1b43b2f52eede", "is_disabled": 0, "is_reserved": 0}, {"rental_uris": {"ios": "https://dc.lft.to/lastmile_qr_scan", "android": "https://dc.lft.to/lastmile_qr_scan"}, "lon": -77.02702366666666, "type": "electric_scooter", "fusion_lat": 0.0, "lat": 38.94977183333334, "name": "ee6c3fa68985b62307b4bcfcc3dcb500", "fusion_lon": 0.0, "bike_id": "ee6c3fa68985b62307b4bcfcc3dcb500", "is_disabled": 0, "is_reserved": 0}, {"rental_uris": {"ios": "https://dc.lft.to/lastmile_qr_scan", "android": "https://dc.lft.to/lastmile_qr_scan"}, "lon": -77.01051483333333, "type": "electric_scooter", "fusion_lat": 0.0, "lat": 38.87934683333334, "name": "778e57aa0ffa05f501a07745481288b6", "fusion_lon": 0.0, "bike_id": "778e57aa0ffa05f501a07745481288b6", "is_disabled": 0, "is_reserved": 0}, {"rental_uris": {"ios": "https://dc.lft.to/lastmile_qr_scan", "android": "https://dc.lft.to/lastmile_qr_scan"},