{"data": {"bikes": [{"fusion_lat": 0.0, "bike_id": "051ecb728a47c67950a46e3d3f7cc068", "fusion_lon": 0.0, "lon": -77.02449783333333, "lat": 38.902514333333336, "is_reserved": 0, "is_disabled": 0, "rental_uris": {"android": "https://dc.lft.to/lastmile_qr_scan", "ios": "https://dc.lft.to/lastmile_qr_scan"}, "name": "051ecb728a47c67950a46e3d3f7cc068", "type": "electric_scooter"}, {"fusion_lat": 0.0, "bike_id": "981c7d1b2fc5604f00ba15f81d686fd6", "fusion_lon": 0.0, "lon": -77.048948, "lat": 38.892289833333336, "is_reserved": 0, "is_disabled": 0, "rental_uris": {"android": "https://dc.lft.to/lastmile_qr_scan", "ios": "https://dc.lft.to/lastmile_qr_scan"}, "name": "981c7d1b2fc5604f00ba15f81d686fd6", "type": "electric_scooter"}, {"fusion_lat": 0.0, "bike_id": "8902ee58011347cb2d44a2733d5de345", "fusion_lon": 0.0, "lon": -77.03505283333334, "lat": 38.92145816666667, "is_reserved": 0, "is_disabled": 0, "rental_uris": {"android": "https://dc.lft.to/lastmile_qr_scan", "ios": "https://dc.lft.to/lastmile_qr_scan"}, "name": "8902ee58011347cb2d44a2733d5de345", "type": "electric_scooter"}, {"fusion_lat": 0.0, "bike_id": "92d93162cfde08534fba8718ce10ddd6", "fusion_lon": 0.0, "lon": -77.05042233333333, "lat": 38.905311, "is_reserved": 0, "is_disabled": 0, "rental_uris": {"android": "https://dc.lft.to/lastmile_qr_scan", "ios": "https://dc.lft.to/lastmile_qr_scan"}, "name": "92d93162cfde08534fba8718ce10ddd6", "type": "electric_scooter"}, {"fusion_lat": 0.0, "bike_id": "1eb83c51957f8b9f9900c7412d5fe301", "fusion_lon": 0.0, "lon": -77.011334, "lat": 38.89367716666667, "is_reserved": 0, "is_disabled": 0, "rental_uris": {"android": "https://dc.lft.to/lastmile_qr_scan", "ios": "https://dc.lft.to/lastmile_qr_scan"}, "name": "1eb83c51957f8b9f9900c7412d5fe301", "type": "electric_scooter"}, {"fusion_lat": 0.0, "bike_id": "4d5bfe9e558ab5a38791f3e7cb571ae8", "fusion_lon": 0.0, "lon": -77.03198516666667, "lat": 38.916269, "is_reserved": 0, "is_disabled": 0, "rental_uris": {"android": "https://dc.lft.to/lastmile_qr_scan", "ios": "https://dc.lft.to/lastmile_qr_scan"}, "name": "4d5bfe9e558ab5a38791f3e7cb571ae8", "type": "electric_scooter"}, {"fusion_lat": 0.0, "bike_id": "14ce49d26e31cad542794f370c119fc8", "fusion_lon": 0.0, "lon": -77.00607133333334, "lat": 38.905807, "is_reserved": 0, "is_disabled": 0, "rental_uris": {"android": "https://dc.lft.to/lastmile_qr_scan", "ios": "https://dc.lft.to/lastmile_qr_scan"}, "name": "14ce49d26e31cad542794f370c119fc8", "type": "electric_scooter"}, {"fusion_lat": 0.0, "bike_id": "5f9663f5ad410df20574d7c2163da1bd", "fusion_lon": 0.0, "lon": -77.03178883333334, "lat": 38.8963005, "is_reserved": 0, "is_disabled": 0, "rental_uris": {"android": "https://dc.lft.to/lastmile_qr_scan", "ios": "https://dc.lft.to/lastmile_qr_scan"}, "name": "5f9663f5ad410df20574d7c2163da1bd", "type": "electric_scooter"}, {"fusion_lat": 0.0, "bike_id": "822ea00619df4b7025dc96f218af8a4d", "fusion_lon": 0.0, "lon": -76.99724216666667, "lat": 38.84546266666667, "is_reserved": 0, "is_disabled": 0, "rental_uris": {"android": "https://dc.lft.to/lastmile_qr_scan", "ios": "https://dc.lft.to/lastmile_qr_scan"}, "name": "822ea00619df4b7025dc96f218af8a4d", "type": "electric_scooter"}, {"fusion_lat": 0.0, "bike_id": "3cf052389bb1c025958390329bac2de9", "fusion_lon": 0.0, "lon": -77.04214483333334, "lat": 38.921317, "is_reserved": 0, "is_disabled": 0, "rental_uris": {"android": "https://dc.lft.to/lastmile_qr_scan", "ios": "https://dc.lft.to/lastmile_qr_scan"}, "name": "3cf052389bb1c025958390329bac2de9", "type": "electric_scooter"}, {"fusion_lat": 0.0, "bike_id": "702f67c1020e4eb5d5feef6d7d61740a", "fusion_lon": 0.0, "lon": -77.024707, "lat": 38.918175, "is_reserved": 0, "is_disabled": 0, "rental_uris": {"android": "https://dc.lft.to/lastmile_qr_scan", "ios": "https://dc.lft.to/lastmile_qr_scan"}, "name": "702f67c1020e4eb5d5feef6d7d61740a", "type": "electric_scooter"}, {"fusion_lat": 0.0, "bike_id": "ad181cfddf921fd47d8f66a044a0ef8f", "fusion_lon": 0.0, "lon": -77.02695483333333, "lat": 38.918684666666664, "is_reserved": 0, "is_disabled": 0, "rental_uris": {"android": "https://dc.lft.to/lastmile_qr_scan", "ios": "https://dc.lft.to/lastmile_qr_scan"}, "name": "ad181cfddf921fd47d8f66a044a0ef8f", "type": "electric_scooter"}, {"fusion_lat": 0.0, "bike_id": "9493c5b49879c3cc40a5128a32c54ed3", "fusion_lon": 0.0, "lon": -77.0420255, "lat": 38.92062166666667, "is_reserved": 0, "is_disabled": 0, "rental_uris": {"android": "https://dc.lft.to/lastmile_qr_scan", "ios": "https://dc.lft.to/lastmile_qr_scan"}, "name": "9493c5b49879c3cc40a5128a32c54ed3", "type": "electric_scooter"}, {"fusion_lat": 0.0, "bike_id": "1b7dc95765ad8759dacccc157b574ca2", "fusion_lon": 0.0, "lon": -76.97655116666667, "lat": 38.89872733333333, "is_reserved": 0, "is_disabled": 0, "rental_uris": {"android": "https://dc.lft.to/lastmile_qr_scan", "ios": "https://dc.lft.to/lastmile_qr_scan"}, "name": "1b7dc95765ad8759dacccc157b574ca2", "type": "electric_bike"}, {"fusion_lat": 0.0, "bike_id": "d62e2f841712ca948a097cf4798e76eb", "fusion_lon": 0.0, "lon": -77.07792066666667, "lat": 38.9960735, "is_reserved": 0, "is_disabled": 0, "rental_uris": {"android": "https://dc.lft.to/lastmile_qr_scan", "ios": "https://dc.lft.to/lastmile_qr_scan"}, "name": "d62e2f841712ca948a097cf4798e76eb", "type": "electric_bike"}, {"fusion_lat": 0.0, "bike_id": "de4b52456c51c9a70c83112ef46216bb", "fusion_lon": 0.0, "lon": -77.0300775, "lat": 38.934878833333336, "is_reserved": 0, "is_disabled": 0, "rental_uris": {"android": "https://dc.lft.to/lastmile_qr_scan", "ios": "https://dc.lft.to/lastmile_qr_scan"}, "name": "de4b52456c51c9a70c83112ef46216bb", "type": "electric_bike"}, {"fusion_lat": 0.0, "bike_id": "a00cf02cedcc5577a6d211985defba03", "fusion_lon": 0.0, "lon": -77.0299965, "lat": 39.0419645, "is_reserved": 0, "is_disabled": 0, "rental_uris": {"android": "https://dc.lft.to/lastmile_qr_scan", "ios": "https://dc.lft.to/lastmile_qr_scan"}, "name": "a00cf02cedcc5577a6d211985defba03", "type": "electric_bike"}, {"fusion_lat": 0.0, "bike_id": "e6bba89b0dcf78858f0a6621ab30a675", "fusion_lon": 0.0, "lon": -77.04660666666666, "lat": 38.9088815, "is_reserved": 0, "is_disabled": 0, "rental_uris": {"android": "https://dc.lft.to/lastmile_qr_scan", "ios": "https://dc.lft.to/lastmile_qr_scan"}, "name": "e6bba89b0dcf78858f0a6621ab30a675", "type": "electric_scooter"}, {"fusion_lat": 0.0, "bike_id": "f3263646d577a6e2f1991fa0256efc03", "fusion_lon": 0.0, "lon": -77.03105, "lat": 38.8922685, "is_reserved": 0, "is_disabled": 0, "rental_uris": {"android": "https://dc.lft.to/lastmile_qr_scan", "ios": "https://dc.lft.to/lastmile_qr_scan"}, "name": "f3263646d577a6e2f1991fa0256efc03", "type": "electric_scooter"}, {"fusion_lat": 0.0, "bike_id": "90100d96af402392f4dd9db7f1ae3259", "fusion_lon": 0.0, "lon": -77.04174383333333, "lat": 38.9176825, "is_reserved": 0, "is_disabled": 0, "rental_uris": {"android": "https://dc.lft.to/lastmile_qr_scan", "ios": "https://dc.lft.to/lastmile_qr_scan"}, "name": "90100d96af402392f4dd9db7f1ae3259", "type": "electric_scooter"}, {"fusion_lat": 0.0, "bike_id": "60f18e1cd72a6ae554e707bc97f9c9ed", "fusion_lon": 0.0, "lon": -77.026025, "lat": 38.97574, "is_reserved": 0, "is_disabled": 0, "rental_uris": {"android": "https://dc.lft.to/lastmile_qr_scan", "ios": "https://dc.lft.to/lastmile_qr_scan"}, "name": "60f18e1cd72a6ae554e707bc97f9c9ed", "type": "electric_scooter"}, {"fusion_lat": 0.0, "bike_id": "d426855b74c9db2f3ada98124b3ed811", "fusion_lon": 0.0, "lon": -77.03188916666667, "lat": 38.915784333333335, "is_reserved": 0, "is_disabled": 0, "rental_uris": {"android": "https://dc.lft.to/lastmile_qr_scan", "ios": "https://dc.lft.to/lastmile_qr_scan"}, "name": "d426855b74c9db2f3ada98124b3ed811", "type": "electric_scooter"}, {"fusion_lat": 0.0, "bike_id": "74818a75449942e6ec57ba03ca3926b2", "fusion_lon": 0.0, "lon": -76.98891066666667, "lat": 38.91341883333333, "is_reserved": 0, "is_disabled": 0, "rental_uris": {"android": "https://dc.lft.to/lastmile_qr_scan", "ios": "https://dc.lft.to/lastmile_qr_scan"}, "name": "74818a75449942e6ec57ba03ca3926b2", "type": "electric_scooter"}, {"fusion_lat": 0.0, "bike_id": "795dccbfb61200bd4ba52e15d6579cfc", "fusion_lon": 0.0, "lon": -77.0338475, "lat": 38.902660166666664, "is_reserved": 0, "is_disabled": 0, "rental_uris": {"android": "https://dc.lft.to/lastmile_qr_scan", "ios": "https://dc.lft.to/lastmile_qr_scan"}, "name": "795dccbfb61200bd4ba52e15d6579cfc", "type": "electric_scooter"}, {"fusion_lat": 0.0, "bike_id": "0594b36027b6c379737cd7d048f51b52", "fusion_lon": 0.0, "lon": -77.02168133333333, "lat": 38.94296, "is_reserved": 0, "is_disabled": 0, "rental_uris": {"android": "https://dc.lft.to/lastmile_qr_scan", "ios": "https://dc.lft.to/lastmile_qr_scan"}, "name": "0594b36027b6c379737cd7d048f51b52", "type": "electric_scooter"}, {"fusion_lat": 0.0, "bike_id": "d6795d097f5be53071f7cd19aaa094b1", "fusion_lon": 0.0, "lon": -77.040884, "lat": 38.915643333333335, "is_reserved": 0, "is_disabled": 0, "rental_uris": {"android": "https://dc.lft.to/lastmile_qr_scan", "ios": "https://dc.lft.to/lastmile_qr_scan"}, "name": "d6795d097f5be53071f7cd19aaa094b1", "type": "electric_scooter"}, {"fusion_lat": 0.0, "bike_id": "a2ea42dba37d3e6e37e90367ec29f318", "fusion_lon": 0.0, "lon": -77.0318315, "lat": 38.91823216666667, "is_reserved": 0, "is_disabled": 0, "rental_uris": {"android": "https://dc.lft.to/lastmile_qr_scan", "ios": "https://dc.lft.to/lastmile_qr_scan"}, "name": "a2ea42dba37d3e6e37e90367ec29f318", "type": "electric_scooter"}, {"fusion_lat": 0.0, "bike_id": "f5bb361f55bf168009be88d97ec1204c", "fusion_lon": 0.0, "lon": -77.02350583333333, "lat": 38.93534283333334, "is_reserved": 0, "is_disabled": 0, "rental_uris": {"android": "https://dc.lft.to/lastmile_qr_scan", "ios": "https://dc.lft.to/lastmile_qr_scan"}, "name": "f5bb361f55bf168009be88d97ec1204c", "type": "electric_scooter"}, {"fusion_lat": 0.0, "bike_id": "5fb8d36574a6f7fd63f3bd6df4dacf43", "fusion_lon": 0.0, "lon": -77.07918416666666, "lat": 38.94635616666667, "is_reserved": 0, "is_disabled": 0, "rental_uris": {"android": "https://dc.lft.to/lastmile_qr_scan", "ios": "https://dc.lft.to/lastmile_qr_scan"}, "name": "5fb8d36574a6f7fd63f3bd6df4dacf43", "type": "electric_scooter"}, {"fusion_lat": 0.0, "bike_id": "e76991bbf5b2e67dd1d2c4ef5ba933ff", "fusion_lon": 0.0, "lon": -77.03333166666667, "lat": 38.90123783333333, "is_reserved": 0, "is_disabled": 0, "rental_uris": {"android": "https://dc.lft.to/lastmile_qr_scan", "ios": "https://dc.lft.to/lastmile_qr_scan"}, "name": "e76991bbf5b2e67dd1d2c4ef5ba933ff", "type": "electric_scooter"}, {"fusion_lat": 0.0, "bike_id": "4a53ab286a29d7af6d37313054324028", "fusion_lon": 0.0, "lon": -77.02502033333333, "lat": 38.9192145, "is_reserved": 0, "is_disabled": 0, "rental_uris": {"android": "https://dc.lft.to/lastmile_qr_scan", "ios": "https://dc.lft.to/lastmile_qr_scan"}, "name": "4a53ab286a29d7af6d37313054324028", "type": "electric_scooter"}, {"fusion_lat": 0.0, "bike_id": "051bcd748fa4ecd8d014e52ea39f3a8a", "fusion_lon": 0.0, "lon": -77.04265183333334, "lat": 38.922368166666665, "is_reserved": 0, "is_disabled": 0, "rental_uris": {"android": "https://dc.lft.to/lastmile_qr_scan", "ios": "https://dc.lft.to/lastmile_qr_scan"}, "name": "051bcd748fa4ecd8d014e52ea39f3a8a", "type": "electric_scooter"}, {"fusion_lat": 0.0, "bike_id": "84e6e05641296635be41a8543e9f808f", "fusion_lon": 0.0, "lon": -77.04373366666667, "lat": 38.89222816666667, "is_reserved": 0, "is_disabled": 0, "rental_uris": {"android": "https://dc.lft.to/lastmile_qr_scan", "ios": "https://dc.lft.to/lastmile_qr_scan"}, "name": "84e6e05641296635be41a8543e9f808f", "type": "electric_scooter"}, {"fusion_lat": 0.0, "bike_id": "3d5065423a6acc04e6f022547f5d0c8d", "fusion_lon": 0.0, "lon": -77.02553083333333, "lat": 38.90360233333333, "is_reserved": 0, "is_disabled": 0, "rental_uris": {"android": "https://dc.lft.to/lastmile_qr_scan", "ios": "https://dc.lft.to/lastmile_qr_scan"}, "name": "3d5065423a6acc04e6f022547f5d0c8d", "type": "electric_scooter"}, {"fusion_lat": 0.0, "bike_id": "11f59ac4591c0dde2bef4b2be6056e91", "fusion_lon": 0.0, "lon": -76.99010533333333, "lat": 38.88268033333333, "is_reserved": 0, "is_disabled": 0, "rental_uris": {"android": "https://dc.lft.to/lastmile_qr_scan", "ios": "https://dc.lft.to/lastmile_qr_scan"}, "name": "11f59ac4591c0dde2bef4b2be6056e91", "type": "electric_scooter"}, {"fusion_lat": 0.0, "bike_id": "e08753e6fcdf013ec2804b831f4596ce", "fusion_lon": 0.0, "lon": -77.031652, "lat": 38.89220916666667, "is_reserved": 0, "is_disabled": 0, "rental_uris": {"android": "https://dc.lft.to/lastmile_qr_scan", "ios": "https://dc.lft.to/lastmile_qr_scan"}, "name": "e08753e6fcdf013ec2804b831f4596ce", "type": "electric_scooter"}, {"fusion_lat": 0.0, "bike_id": "9bb41e118eb80a5b9cae6c98cb84875c", "fusion_lon": 0.0, "lon": -77.03316966666667, "lat": 38.9032425, "is_reserved": 0, "is_disabled": 0, "rental_uris": {"android": "https://dc.lft.to/lastmile_qr_scan", "ios": "https://dc.lft.to/lastmile_qr_scan"}, "name": "9bb41e118eb80a5b9cae6c98cb84875c", "type": "electric_scooter"}, {"fusion_lat": 0.0, "bike_id": "afc633e98be2a11ed51e414c30bdca6a", "fusion_lon": 0.0, "lon": -77.12526516666667, "lat": 39.056326166666665, "is_reserved": 0, "is_disabled": 0, "rental_uris": {"android": "https://dc.lft.to/lastmile_qr_scan", "ios": "https://dc.lft.to/lastmile_qr_scan"}, "name": "afc633e98be2a11ed51e414c30bdca6a", "type": "electric_bike"}, {"fusion_lat": 0.0, "bike_id": "d9c64564ea417a3774ed40adf48f421d", "fusion_lon": 0.0, "lon": -77.02568766666667, "lat": 38.898982333333336, "is_reserved": 0, "is_disabled": 0, "rental_uris": {"android": "https://dc.lft.to/lastmile_qr_scan", "ios": "https://dc.lft.to/lastmile_qr_scan"}, "name": "d9c64564ea417a3774ed40adf48f421d", "type": "electric_scooter"}, {"fusion_lat": 0.0, "bike_id": "bbdd2d5f308dbd79c61f6911c546ec49", "fusion_lon": 0.0, "lon": -77.024842, "lat": 38.916935, "is_reserved": 0, "is_disabled": 0, "rental_uris": {"android": "https://dc.lft.to/lastmile_qr_scan", "ios": "https://dc.lft.to/lastmile_qr_scan"}, "name": "bbdd2d5f308dbd79c61f6911c546ec49", "type": "electric_scooter"}, {"fusion_lat": 0.0, "bike_id": "80dd3eb54dfbf707024e6fbfb59dc8cd", "fusion_lon": 0.0, "lon": -76.99930266666667, "lat": 38.84313916666667, "is_reserved": 0, "is_disabled": 0, "rental_uris": {"android": "https://dc.lft.to/lastmile_qr_scan", "ios": "https://dc.lft.to/lastmile_qr_scan"}, "name": "80dd3eb54dfbf707024e6fbfb59dc8cd", "type": "electric_scooter"}, {"fusion_lat": 0.0, "bike_id": "160b7f2bec5c82c5d644977f54ad8d35", "fusion_lon": 0.0, "lon": -77.02844233333333, "lat": 38.934205666666664, "is_reserved": 0, "is_disabled": 0, "rental_uris": {"android": "https://dc.lft.to/lastmile_qr_scan", "ios": "https://dc.lft.to/lastmile_qr_scan"}, "name": "160b7f2bec5c82c5d644977f54ad8d35", "type": "electric_scooter"}, {"fusion_lat": 0.0, "bike_id": "9d4a393d230483b3c1538df57515ec57", "fusion_lon": 0.0, "lon": -77.03470666666666, "lat": 38.90282633333333, "is_reserved": 0, "is_disabled": 0, "rental_uris": {"android": "https://dc.lft.to/lastmile_qr_scan", "ios": "https://dc.lft.to/lastmile_qr_scan"}, "name": "9d4a393d230483b3c1538df57515ec57", "type": "electric_scooter"}, {"fusion_lat": 0.0, "bike_id": "cc144220d0a91cfd41b7d255b3502e86", "fusion_lon": 0.0, "lon": -77.07452016666667, "lat": 38.945100333333336, "is_reserved": 0, "is_disabled": 0, "rental_uris": {"android": "https://dc.lft.to/lastmile_qr_scan", "ios": "https://dc.lft.to/lastmile_qr_scan"}, "name": "cc144220d0a91cfd41b7d255b3502e86", "type": "electric_scooter"}, {"fusion_lat": 0.0, "bike_id": "1c851d376911aaef0eb9b51946418ea6", "fusion_lon": 0.0, "lon": -77.032001, "lat": 38.9037315, "is_reserved": 0, "is_disabled": 0, "rental_uris": {"android": "https://dc.lft.to/lastmile_qr_scan", "ios": "https://dc.lft.to/lastmile_qr_scan"}, "name": "1c851d376911aaef0eb9b51946418ea6", "type": "electric_scooter"}, {"fusion_lat": 0.0, "bike_id": "0b5477de3d2da5553150682b61907b6f", "fusion_lon": 0.0, "lon": -77.03205033333333, "lat": 38.913889833333336, "is_reserved": 0, "is_disabled": 0, "rental_uris": {"android": "https://dc.lft.to/lastmile_qr_scan", "ios": "https://dc.lft.to/lastmile_qr_scan"}, "name": "0b5477de3d2da5553150682b61907b6f", "type": "electric_scooter"}, {"fusion_lat": 0.0, "bike_id": "f99970954cf152a7a532ae59fec5a0d4", "fusion_lon": 0.0, "lon": -77.03938333333333, "lat": 38.8989565, "is_reserved": 0, "is_disabled": 0, "rental_uris": {"android": "https://dc.lft.to/lastmile_qr_scan", "ios": "https://dc.lft.to/lastmile_qr_scan"}, "name": "f99970954cf152a7a532ae59fec5a0d4", "type": "electric_scooter"}, {"fusion_lat": 0.0, "bike_id": "fad45069e99fa4a6fc154276d66cbf16", "fusion_lon": 0.0, "lon": -77.03444816666666, "lat": 38.90978783333333, "is_reserved": 0, "is_disabled": 0, "rental_uris": {"android": "https://dc.lft.to/lastmile_qr_scan", "ios": "https://dc.lft.to/lastmile_qr_scan"}, "name": "fad45069e99fa4a6fc154276d66cbf16", "type": "electric_scooter"}, {"fusion_lat": 0.0, "bike_id": "7e96b73f29fff32451ba43f8bae61cbb", "fusion_lon": 0.0, "lon": -77.04675483333334, "lat": 38.89230533333333, "is_reserved": 0, "is_disabled": 0, "rental_uris": {"android": "https://dc.lft.to/lastmile_qr_scan", "ios": "https://dc.lft.to/lastmile_qr_scan"}, "name": "7e96b73f29fff32451ba43f8bae61cbb", "type": "electric_scooter"}, {"fusion_lat": 0.0, "bike_id": "d1d62fcdba4e5905de23b85de2b2c79b", "fusion_lon": 0.0, "lon": -77.03294933333333, "lat": 38.91040566666667, "is_reserved": 0, "is_disabled": 0, "rental_uris": {"android": "https://dc.lft.to/lastmile_qr_scan", "ios": "https://dc.lft.to/lastmile_qr_scan"}, "name": "d1d62fcdba4e5905de23b85de2b2c79b", "type": "electric_scooter"}, {"fusion_lat": 0.0, "bike_id": "2126b4b4682f0b901fd5e99b2544b542", "fusion_lon": 0.0, "lon": -77.04473483333334, "lat": 38.90541, "is_reserved": 0, "is_disabled": 0, "rental_uris": {"android": "https://dc.lft.to/lastmile_qr_scan", "ios": "https://dc.lft.to/lastmile_qr_scan"}, "name": "2126b4b4682f0b901fd5e99b2544b542", "type": "electric_scooter"}, {"fusion_lat": 0.0, "bike_id": "64c2f0736a9581b63fab3035d13056cf", "fusion_lon": 0.0, "lon": -77.05039116666667, "lat": 38.923661333333335, "is_reserved": 0, "is_disabled": 0, "rental_uris": {"android": "https://dc.lft.to/lastmile_qr_scan", "ios": "https://dc.lft.to/lastmile_qr_scan"}, "name": "64c2f0736a9581b63fab3035d13056cf", "type": "electric_scooter"}, {"fusion_lat": 0.0, "bike_id": "29472cc0a87a7d63f4f1a615db1a4d6f", "fusion_lon": 0.0, "lon": -77.02088566666667, "lat": 38.929103166666664, "is_reserved": 0, "is_disabled": 0, "rental_uris": {"android": "https://dc.lft.to/lastmile_qr_scan", "ios": "https://dc.lft.to/lastmile_qr_scan"}, "name": "29472cc0a87a7d63f4f1a615db1a4d6f", "type": "electric_scooter"}, {"fusion_lat": 0.0, "bike_id": "5dc0a2a19896b3d7b15c5c3b29313eba", "fusion_lon": 0.0, "lon": -77.0320745, "lat": 38.916400333333335, "is_reserved": 0, "is_disabled": 0, "rental_uris": {"android": "https://dc.lft.to/lastmile_qr_scan", "ios": "https://dc.lft.to/lastmile_qr_scan"}, "name": "5dc0a2a19896b3d7b15c5c3b29313eba", "type": "electric_scooter"}, {"fusion_lat": 0.0, "bike_id": "fba45f9194d1ab97553776c7d097df7a", "fusion_lon": 0.0, "lon": -77.053865, "lat": 38.927535666666664, "is_reserved": 0, "is_disabled": 0, "rental_uris": {"android": "https://dc.lft.to/lastmile_qr_scan", "ios": "https://dc.lft.to/lastmile_qr_scan"}, "name": "fba45f9194d1ab97553776c7d097df7a", "type": "electric_scooter"}, {"fusion_lat": 0.0, "bike_id": "187c1687031f7659088e8786c0e86568", "fusion_lon": 0.0, "lon": -77.050031, "lat": 38.89197016666667, "is_reserved": 0, "is_disabled": 0, "rental_uris": {"android": "https://dc.lft.to/lastmile_qr_scan", "ios": "https://dc.lft.to/lastmile_qr_scan"}, "name": "187c1687031f7659088e8786c0e86568", "type": "electric_scooter"}, {"fusion_lat": 0.0, "bike_id": "96e3c96532d85e4ebd5ea56945c2ab11", "fusion_lon": 0.0, "lon": -76.97856216666666, "lat": 38.90721583333333, "is_reserved": 0, "is_disabled": 0, "rental_uris": {"android": "https://dc.lft.to/lastmile_qr_scan", "ios": "https://dc.lft.to/lastmile_qr_scan"}, "name": "96e3c96532d85e4ebd5ea56945c2ab11", "type": "electric_scooter"}, {"fusion_lat": 0.0, "bike_id": "3d1d90a2fe92cd179626fc16ac7f39d3", "fusion_lon": 0.0, "lon": -77.01780716666667, "lat": 38.88596733333333, "is_reserved": 0, "is_disabled": 0, "rental_uris": {"android": "https://dc.lft.to/lastmile_qr_scan", "ios": "https://dc.lft.to/lastmile_qr_scan"}, "name": "3d1d90a2fe92cd179626fc16ac7f39d3", "type": "electric_scooter"}, {"fusion_lat": 0.0, "bike_id": "5a113eb247daae8d7f03c9859131baf6", "fusion_lon": 0.0, "lon": -77.03556933333333, "lat": 38.93384316666667, "is_reserved": 0, "is_disabled": 0, "rental_uris": {"android": "https://dc.lft.to/lastmile_qr_scan", "ios": "https://dc.lft.to/lastmile_qr_scan"}, "name": "5a113eb247daae8d7f03c9859131baf6", "type": "electric_scooter"}, {"fusion_lat": 0.0, "bike_id": "8c5ed932cb59c732dfbdb66f12a1bf10", "fusion_lon": 0.0, "lon": -76.95048083333333, "lat": 38.89307983333333, "is_reserved": 0, "is_disabled": 0, "rental_uris": {"android": "https://dc.lft.to/lastmile_qr_scan", "ios": "https://dc.lft.to/lastmile_qr_scan"}, "name": "8c5ed932cb59c732dfbdb66f12a1bf10", "type": "electric_scooter"}, {"fusion_lat": 0.0, "bike_id": "41c1b8c5acf197a2a95b87568581caa1", "fusion_lon": 0.0, "lon": -76.99594516666667, "lat": 38.950717166666664, "is_reserved": 0, "is_disabled": 0, "rental_uris": {"android": "https://dc.lft.to/lastmile_qr_scan", "ios": "https://dc.lft.to/lastmile_qr_scan"}, "name": "41c1b8c5acf197a2a95b87568581caa1", "type": "electric_bike"}, {"fusion_lat": 0.0, "bike_id": "35be17d04a744cf04c84dcbe18edbce7", "fusion_lon": 0.0, "lon": -77.03713816666667, "lat": 38.926513666666665, "is_reserved": 0, "is_disabled": 0, "rental_uris": {"android": "https://dc.lft.to/lastmile_qr_scan", "ios": "https://dc.lft.to/lastmile_qr_scan"}, "name": "35be17d04a744cf04c84dcbe18edbce7", "type": "electric_scooter"}, {"fusion_lat": 0.0, "bike_id": "93e4afb358249ec4fee81d4193fb9793", "fusion_lon": 0.0, "lon": -77.02385783333334, "lat": 38.892367666666665, "is_reserved": 0, "is_disabled": 0, "rental_uris": {"android": "https://dc.lft.to/lastmile_qr_scan", "ios": "https://dc.lft.to/lastmile_qr_scan"}, "name": "93e4afb358249ec4fee81d4193fb9793", "type": "electric_scooter"}, {"fusion_lat": 0.0, "bike_id": "7fa43877ffaf830d0a6985cbca33b913", "fusion_lon": 0.0, "lon": -77.0003295, "lat": 38.967864666666664, "is_reserved": 0, "is_disabled": 0, "rental_uris": {"android": "https://dc.lft.to/lastmile_qr_scan", "ios": "https://dc.lft.to/lastmile_qr_scan"}, "name": "7fa43877ffaf830d0a6985cbca33b913", "type": "electric_bike"}, {"fusion_lat": 0.0, "bike_id": "3f1a60878b88ba05a7475cf8035395db", "fusion_lon": 0.0, "lon": -77.03670266666667, "lat": 38.92271683333333, "is_reserved": 0, "is_disabled": 0, "rental_uris": {"android": "https://dc.lft.to/lastmile_qr_scan", "ios": "https://dc.lft.to/lastmile_qr_scan"}, "name": "3f1a60878b88ba05a7475cf8035395db", "type": "electric_scooter"}, {"fusion_lat": 0.0, "bike_id": "5562d31d0a886741bf6dee5b3af7215b", "fusion_lon": 0.0, "lon": -77.03877833333334, "lat": 38.92966216666667, "is_reserved": 0, "is_disabled": 0, "rental_uris": {"android": "https://dc.lft.to/lastmile_qr_scan", "ios": "https://dc.lft.to/lastmile_qr_scan"}, "name": "5562d31d0a886741bf6dee5b3af7215b", "type": "electric_scooter"}, {"fusion_lat": 0.0, "bike_id": "4d73e21b0e5a57814198ceb4fc0cc1b8", "fusion_lon": 0.0, "lon": -77.03319366666666, "lat": 38.90118533333333, "is_reserved": 0, "is_disabled": 0, "rental_uris": {"android": "https://dc.lft.to/lastmile_qr_scan", "ios": "https://dc.lft.to/lastmile_qr_scan"}, "name": "4d73e21b0e5a57814198ceb4fc0cc1b8", "type": "electric_scooter"}, {"fusion_lat": 0.0, "bike_id": "1c532f61ca5fdd2e06d213ee658bd396", "fusion_lon": 0.0, "lon": -77.03666633333333, "lat": 38.92141133333333, "is_reserved": 0, "is_disabled": 0, "rental_uris": {"android": "https://dc.lft.to/lastmile_qr_scan", "ios": "https://dc.lft.to/lastmile_qr_scan"}, "name": "1c532f61ca5fdd2e06d213ee658bd396", "type": "electric_scooter"}, {"fusion_lat": 0.0, "bike_id": "1ebc04dacb2f1d70576568c34888435b", "fusion_lon": 0.0, "lon": -77.03186466666666, "lat": 38.91744683333334, "is_reserved": 0, "is_disabled": 0, "rental_uris": {"android": "https://dc.lft.to/lastmile_qr_scan", "ios": "https://dc.lft.to/lastmile_qr_scan"}, "name": "1ebc04dacb2f1d70576568c34888435b", "type": "electric_scooter"}, {"fusion_lat": 0.0, "bike_id": "b0e957f7aebd3f69485b9eb96e6859a3", "fusion_lon": 0.0, "lon": -77.02656016666667, "lat": 38.927793333333334, "is_reserved": 0, "is_disabled": 0, "rental_uris": {"android": "https://dc.lft.to/lastmile_qr_scan", "ios": "https://dc.lft.to/lastmile_qr_scan"}, "name": "b0e957f7aebd3f69485b9eb96e6859a3", "type": "electric_scooter"}, {"fusion_lat": 0.0, "bike_id": "2b432f2815786a1025ada70b1e211e30", "fusion_lon": 0.0, "lon": -77.05683083333334, "lat": 38.86486516666667, "is_reserved": 0, "is_disabled": 0, "rental_uris": {"android": "https://dc.lft.to/lastmile_qr_scan", "ios": "https://dc.lft.to/lastmile_qr_scan"}, "name": "2b432f2815786a1025ada70b1e211e30", "type": "electric_bike"}, {"fusion_lat": 0.0, "bike_id": "91ac787f4d895dfdfe5066b8878b57b8", "fusion_lon": 0.0, "lon": -77.02804333333333, "lat": 38.91129466666667, "is_reserved": 0, "is_disabled": 0, "rental_uris": {"android": "https://dc.lft.to/lastmile_qr_scan", "ios": "https://dc.lft.to/lastmile_qr_scan"}, "name": "91ac787f4d895dfdfe5066b8878b57b8", "type": "electric_scooter"}, {"fusion_lat": 0.0, "bike_id": "bf1f74e2bde0c27b8380ff16bd81d866", "fusion_lon": 0.0, "lon": -77.05043883333333, "lat": 38.92363483333333, "is_reserved": 0, "is_disabled": 0, "rental_uris": {"android": "https://dc.lft.to/lastmile_qr_scan", "ios": "https://dc.lft.to/lastmile_qr_scan"}, "name": "bf1f74e2bde0c27b8380ff16bd81d866", "type": "electric_scooter"}, {"fusion_lat": 0.0, "bike_id": "4e6bc56c2d2f0e597a213f9b668e31f6", "fusion_lon": 0.0, "lon": -77.00198116666667, "lat": 38.90240683333333, "is_reserved": 0, "is_disabled": 0, "rental_uris": {"android": "https://dc.lft.to/lastmile_qr_scan", "ios": "https://dc.lft.to/lastmile_qr_scan"}, "name": "4e6bc56c2d2f0e597a213f9b668e31f6", "type": "electric_scooter"}, {"fusion_lat": 0.0, "bike_id": "205356f1a350b9937a97c7f0e9c37769", "fusion_lon": 0.0, "lon": -77.0301405, "lat": 38.895988333333335, "is_reserved": 0, "is_disabled": 0, "rental_uris": {"android": "https://dc.lft.to/lastmile_qr_scan", "ios": "https://dc.lft.to/lastmile_qr_scan"}, "name": "205356f1a350b9937a97c7f0e9c37769", "type": "electric_scooter"}, {"fusion_lat": 0.0, "bike_id": "3fa9c11358102ee578321bda70315781", "fusion_lon": 0.0, "lon": -76.96257166666666, "lat": 38.8824755, "is_reserved": 0, "is_disabled": 0, "rental_uris": {"android": "https://dc.lft.to/lastmile_qr_scan", "ios": "https://dc.lft.to/lastmile_qr_scan"}, "name": "3fa9c11358102ee578321bda70315781", "type": "electric_bike"}, {"fusion_lat": 0.0, "bike_id": "bd15b5e6a0bfe3ce641b3db59a0100bc", "fusion_lon": 0.0, "lon": -76.97329933333333, "lat": 38.90413866666667, "is_reserved": 0, "is_disabled": 0, "rental_uris": {"android": "https://dc.lft.to/lastmile_qr_scan", "ios": "https://dc.lft.to/lastmile_qr_scan"}, "name": "bd15b5e6a0bfe3ce641b3db59a0100bc", "type": "electric_scooter"}, {"fusion_lat": 0.0, "bike_id": "2f87c1908d85dfd18a02ed51a708dd95", "fusion_lon": 0.0, "lon": -77.04168533333333, "lat": 38.901335833333334, "is_reserved": 0, "is_disabled": 0, "rental_uris": {"android": "https://dc.lft.to/lastmile_qr_scan", "ios": "https://dc.lft.to/lastmile_qr_scan"}, "name": "2f87c1908d85dfd18a02ed51a708dd95", "type": "electric_scooter"}, {"fusion_lat": 0.0, "bike_id": "c38b3b58e8f9718e340f493acf02e742", "fusion_lon": 0.0, "lon": -77.0219955, "lat": 38.91099666666667, "is_reserved": 0, "is_disabled": 0, "rental_uris": {"android": "https://dc.lft.to/lastmile_qr_scan", "ios": "https://dc.lft.to/lastmile_qr_scan"}, "name": "c38b3b58e8f9718e340f493acf02e742", "type": "electric_scooter"}, {"fusion_lat": 0.0, "bike_id": "e6b9f0e174ef1cff74a8d800314a0727", "fusion_lon": 0.0, "lon": -77.0066565, "lat": 38.89999916666667, "is_reserved": 0, "is_disabled": 0, "rental_uris": {"android": "https://dc.lft.to/lastmile_qr_scan", "ios": "https://dc.lft.to/lastmile_qr_scan"}, "name": "e6b9f0e174ef1cff74a8d800314a0727", "type": "electric_scooter"}, {"fusion_lat": 0.0, "bike_id": "14518edf3af8da9399561446bde86117", "fusion_lon": 0.0, "lon": -77.02463383333334, "lat": 38.941986166666666, "is_reserved": 0, "is_disabled": 0, "rental_uris": {"android": "https://dc.lft.to/lastmile_qr_scan", "ios": "https://dc.lft.to/lastmile_qr_scan"}, "name": "14518edf3af8da9399561446bde86117", "type": "electric_scooter"}, {"fusion_lat": 0.0, "bike_id": "3e29cc68d0fb61a6a9cabe0b16033280", "fusion_lon": 0.0, "lon": -77.039208, "lat": 38.9184045, "is_reserved": 0, "is_disabled": 0, "rental_uris": {"android": "https://dc.lft.to/lastmile_qr_scan", "ios": "https://dc.lft.to/lastmile_qr_scan"}, "name": "3e29cc68d0fb61a6a9cabe0b16033280", "type": "electric_scooter"}, {"fusion_lat": 0.0, "bike_id": "c48530127bdc29caf1fff7492f9cc4dd", "fusion_lon": 0.0, "lon": -77.024713, "lat": 38.938554333333336, "is_reserved": 0, "is_disabled": 0, "rental_uris": {"android": "https://dc.lft.to/lastmile_qr_scan", "ios": "https://dc.lft.to/lastmile_qr_scan"}, "name": "c48530127bdc29caf1fff7492f9cc4dd", "type": "electric_scooter"}, {"fusion_lat": 0.0, "bike_id": "9820b8c39db328cdd42af23b35aec576", "fusion_lon": 0.0, "lon": -77.02968966666667, "lat": 38.91680866666667, "is_reserved": 0, "is_disabled": 0, "rental_uris": {"android": "https://dc.lft.to/lastmile_qr_scan", "ios": "https://dc.lft.to/lastmile_qr_scan"}, "name": "9820b8c39db328cdd42af23b35aec576", "type": "electric_scooter"}, {"fusion_lat": 0.0, "bike_id": "f188a0ee60fbd75c1f6fbf6655eb3c78", "fusion_lon": 0.0, "lon": -77.001274, "lat": 38.894682333333336, "is_reserved": 0, "is_disabled": 0, "rental_uris": {"android": "https://dc.lft.to/lastmile_qr_scan", "ios": "https://dc.lft.to/lastmile_qr_scan"}, "name": "f188a0ee60fbd75c1f6fbf6655eb3c78", "type": "electric_scooter"}, {"fusion_lat": 0.0, "bike_id": "8e5b0661d89391925e367c02dff426e9", "fusion_lon": 0.0, "lon": -77.01852783333334, "lat": 38.89939666666667, "is_reserved": 0, "is_disabled": 0, "rental_uris": {"android": "https://dc.lft.to/lastmile_qr_scan", "ios": "https://dc.lft.to/lastmile_qr_scan"}, "name": "8e5b0661d89391925e367c02dff426e9", "type": "electric_bike"}, {"fusion_lat": 0.0, "bike_id": "174aecf148342f8fde1ef2e39421982f", "fusion_lon": 0.0, "lon": -76.9851055, "lat": 38.86013233333333, "is_reserved": 0, "is_disabled": 0, "rental_uris": {"android": "https://dc.lft.to/lastmile_qr_scan", "ios": "https://dc.lft.to/lastmile_qr_scan"}, "name": "174aecf148342f8fde1ef2e39421982f", "type": "electric_scooter"}, {"fusion_lat": 0.0, "bike_id": "9814ae5480f33f636ac9ead8f02df028", "fusion_lon": 0.0, "lon": -77.018974, "lat": 38.932974, "is_reserved": 0, "is_disabled": 0, "rental_uris": {"android": "https://dc.lft.to/lastmile_qr_scan", "ios": "https://dc.lft.to/lastmile_qr_scan"}, "name": "9814ae5480f33f636ac9ead8f02df028", "type": "electric_scooter"}, {"fusion_lat": 0.0, "bike_id": "b085bbb025b9126e05d32f3bc58da36d", "fusion_lon": 0.0, "lon": -77.02185716666666, "lat": 38.9208355, "is_reserved": 0, "is_disabled": 0, "rental_uris": {"android": "https://dc.lft.to/lastmile_qr_scan", "ios": "https://dc.lft.to/lastmile_qr_scan"}, "name": "b085bbb025b9126e05d32f3bc58da36d", "type": "electric_scooter"}, {"fusion_lat": 0.0, "bike_id": "bd636b70dd9da51a8f8d10d9f5158c9f", "fusion_lon": 0.0, "lon": -76.9305855, "lat": 38.901549833333334, "is_reserved": 0, "is_disabled": 0, "rental_uris": {"android": "https://dc.lft.to/lastmile_qr_scan", "ios": "https://dc.lft.to/lastmile_qr_scan"}, "name": "bd636b70dd9da51a8f8d10d9f5158c9f", "type": "electric_scooter"}, {"fusion_lat": 0.0, "bike_id": "92db218eaa3fef0995e5b39692ef9aea", "fusion_lon": 0.0, "lon": -76.97222266666667, "lat": 38.90033066666667, "is_reserved": 0, "is_disabled": 0, "rental_uris": {"android": "https://dc.lft.to/lastmile_qr_scan", "ios": "https://dc.lft.to/lastmile_qr_scan"}, "name": "92db218eaa3fef0995e5b39692ef9aea", "type": "electric_bike"}, {"fusion_lat": 0.0, "bike_id": "638d351a623ad0579a8ab3facd724fe1", "fusion_lon": 0.0, "lon": -76.996486, "lat": 38.89679483333333, "is_reserved": 0, "is_disabled": 0, "rental_uris": {"android": "https://dc.lft.to/lastmile_qr_scan", "ios": "https://dc.lft.to/lastmile_qr_scan"}, "name": "638d351a623ad0579a8ab3facd724fe1", "type": "electric_scooter"}, {"fusion_lat": 0.0, "bike_id": "b51cbef4eb880c5af75ae29c961d8f6e", "fusion_lon": 0.0, "lon": -77.04768383333334, "lat": 38.921415833333334, "is_reserved": 0, "is_disabled": 0, "rental_uris": {"android": "https://dc.lft.to/lastmile_qr_scan", "ios": "https://dc.lft.to/lastmile_qr_scan"}, "name": "b51cbef4eb880c5af75ae29c961d8f6e", "type": "electric_scooter"}, {"fusion_lat": 0.0, "bike_id": "abf069f233a41465b52e025d7f099fe9", "fusion_lon": 0.0, "lon": -77.04502216666667, "lat": 38.892235166666666, "is_reserved": 0, "is_disabled": 0, "rental_uris": {"android": "https://dc.lft.to/lastmile_qr_scan", "ios": "https://dc.lft.to/lastmile_qr_scan"}, "name": "abf069f233a41465b52e025d7f099fe9", "type": "electric_scooter"}, {"fusion_lat": 0.0, "bike_id": "7d6338e3cff4f7f03483610d0c2ac2fd", "fusion_lon": 0.0, "lon": -77.01857816666667, "lat": 38.91494183333333, "is_reserved": 0, "is_disabled": 0, "rental_uris": {"android": "https://dc.lft.to/lastmile_qr_scan", "ios": "https://dc.lft.to/lastmile_qr_scan"}, "name": "7d6338e3cff4f7f03483610d0c2ac2fd", "type": "electric_scooter"}, {"fusion_lat": 0.0, "bike_id": "3c4a3dc8ad3ec0a9a9d617ff42f5c4e3", "fusion_lon": 0.0, "lon": -76.99474116666667, "lat": 38.862157, "is_reserved": 0, "is_disabled": 0, "rental_uris": {"android": "https://dc.lft.to/lastmile_qr_scan", "ios": "https://dc.lft.to/lastmile_qr_scan"}, "name": "3c4a3dc8ad3ec0a9a9d617ff42f5c4e3", "type": "electric_scooter"}, {"fusion_lat": 0.0, "bike_id": "7ed6b459a752fc28f83f4aa8ec96f60d", "fusion_lon": 0.0, "lon": -77.0710185, "lat": 38.91970966666667, "is_reserved": 0, "is_disabled": 0, "rental_uris": {"android": "https://dc.lft.to/lastmile_qr_scan", "ios": "https://dc.lft.to/lastmile_qr_scan"}, "name": "7ed6b459a752fc28f83f4aa8ec96f60d", "type": "electric_scooter"}, {"fusion_lat": 0.0, "bike_id": "8d00a91bfa6d7ed9a597139448c515c5", "fusion_lon": 0.0, "lon": -77.04278333333333, "lat": 38.91116316666667, "is_reserved": 0, "is_disabled": 0, "rental_uris": {"android": "https://dc.lft.to/lastmile_qr_scan", "ios": "https://dc.lft.to/lastmile_qr_scan"}, "name": "8d00a91bfa6d7ed9a597139448c515c5", "type": "electric_scooter"}, {"fusion_lat": 0.0, "bike_id": "10a3a23ebc5695c482e0beae2e4f42c6", "fusion_lon": 0.0, "lon": -77.032849, "lat": 38.9285495, "is_reserved": 0, "is_disabled": 0, "rental_uris": {"android": "https://dc.lft.to/lastmile_qr_scan", "ios": "https://dc.lft.to/lastmile_qr_scan"}, "name": "10a3a23ebc5695c482e0beae2e4f42c6", "type": "electric_scooter"}, {"fusion_lat": 0.0, "bike_id": "91939227f9c2d8da59370219576a5d86", "fusion_lon": 0.0, "lon": -77.03328, "lat": 38.94715, "is_reserved": 0, "is_disabled": 0, "rental_uris": {"android": "https://dc.lft.to/lastmile_qr_scan", "ios": "https://dc.lft.to/lastmile_qr_scan"}, "name": "91939227f9c2d8da59370219576a5d86", "type": "electric_scooter"}, {"fusion_lat": 0.0, "bike_id": "4729f73572268837e41ceea19745c190", "fusion_lon": 0.0, "lon": -76.99867683333333, "lat": 38.900226833333335, "is_reserved": 0, "is_disabled": 0, "rental_uris": {"android": "https://dc.lft.to/lastmile_qr_scan", "ios": "https://dc.lft.to/lastmile_qr_scan"}, "name": "4729f73572268837e41ceea19745c190", "type": "electric_scooter"}, {"fusion_lat": 0.0, "bike_id": "c0fab7e9f3a5b7373f0fd534f7144ae7", "fusion_lon": 0.0, "lon": -76.98615916666667, "lat": 38.9382635, "is_reserved": 0, "is_disabled": 0, "rental_uris": {"android": "https://dc.lft.to/lastmile_qr_scan", "ios": "https://dc.lft.to/lastmile_qr_scan"}, "name": "c0fab7e9f3a5b7373f0fd534f7144ae7", "type": "electric_scooter"}, {"fusion_lat": 0.0, "bike_id": "e96919bf19249814054fb31ea26ed7db", "fusion_lon": 0.0, "lon": -77.01985916666666, "lat": 38.90400233333333, "is_reserved": 0, "is_disabled": 0, "rental_uris": {"android": "https://dc.lft.to/lastmile_qr_scan", "ios": "https://dc.lft.to/lastmile_qr_scan"}, "name": "e96919bf19249814054fb31ea26ed7db", "type": "electric_scooter"}, {"fusion_lat": 0.0, "bike_id": "4fa8c4c8563a551b20481d8bd0ae3447", "fusion_lon": 0.0, "lon": -77.04792083333334, "lat": 38.904899, "is_reserved": 0, "is_disabled": 0, "rental_uris": {"android": "https://dc.lft.to/lastmile_qr_scan", "ios": "https://dc.lft.to/lastmile_qr_scan"}, "name": "4fa8c4c8563a551b20481d8bd0ae3447", "type": "electric_scooter"}, {"fusion_lat": 0.0, "bike_id": "fafea3701deb585b5852229bc374f4e5", "fusion_lon": 0.0, "lon": -77.032634, "lat": 38.931072, "is_reserved": 0, "is_disabled": 0, "rental_uris": {"android": "https://dc.lft.to/lastmile_qr_scan", "ios": "https://dc.lft.to/lastmile_qr_scan"}, "name": "fafea3701deb585b5852229bc374f4e5", "type": "electric_scooter"}, {"fusion_lat": 0.0, "bike_id": "04e687aad9ea4f3f1fee7d9ff859a821", "fusion_lon": 0.0, "lon": -77.0355065, "lat": 38.9240885, "is_reserved": 0, "is_disabled": 0, "rental_uris": {"android": "https://dc.lft.to/lastmile_qr_scan", "ios": "https://dc.lft.to/lastmile_qr_scan"}, "name": "04e687aad9ea4f3f1fee7d9ff859a821", "type": "electric_scooter"}, {"fusion_lat": 0.0, "bike_id": "2d47d56322582062203c0f2c4a2ab0bc", "fusion_lon": 0.0, "lon": -76.9809075, "lat": 38.90406883333333, "is_reserved": 0, "is_disabled": 0, "rental_uris": {"android": "https://dc.lft.to/lastmile_qr_scan", "ios": "https://dc.lft.to/lastmile_qr_scan"}, "name": "2d47d56322582062203c0f2c4a2ab0bc", "type": "electric_scooter"}, {"fusion_lat": 0.0, "bike_id": "e14ea46d6440bce04e1eb90cc725dfcc", "fusion_lon": 0.0, "lon": -77.02528, "lat": 38.918163, "is_reserved": 0, "is_disabled": 0, "rental_uris": {"android": "https://dc.lft.to/lastmile_qr_scan", "ios": "https://dc.lft.to/lastmile_qr_scan"}, "name": "e14ea46d6440bce04e1eb90cc725dfcc", "type": "electric_scooter"}, {"fusion_lat": 0.0, "bike_id": "86fe9bba774130553f11266e0dff36dc", "fusion_lon": 0.0, "lon": -77.01779233333333, "lat": 38.885985, "is_reserved": 0, "is_disabled": 0, "rental_uris": {"android": "https://dc.lft.to/lastmile_qr_scan", "ios": "https://dc.lft.to/lastmile_qr_scan"}, "name": "86fe9bba774130553f11266e0dff36dc", "type": "electric_scooter"}, {"fusion_lat": 0.0, "bike_id": "344bc4f58180edf8cf5df0eb5e213677", "fusion_lon": 0.0, "lon": -77.0283825, "lat": 38.887476, "is_reserved": 0, "is_disabled": 0, "rental_uris": {"android": "https://dc.lft.to/lastmile_qr_scan", "ios": "https://dc.lft.to/lastmile_qr_scan"}, "name": "344bc4f58180edf8cf5df0eb5e213677", "type": "electric_scooter"}, {"fusion_lat": 0.0, "bike_id": "d3ece5d877591fd2766fe5e378cbb48d", "fusion_lon": 0.0, "lon": -77.11608966666667, "lat": 38.854868333333336, "is_reserved": 0, "is_disabled": 0, "rental_uris": {"android": "https://dc.lft.to/lastmile_qr_scan", "ios": "https://dc.lft.to/lastmile_qr_scan"}, "name": "d3ece5d877591fd2766fe5e378cbb48d", "type": "electric_bike"}, {"fusion_lat": 0.0, "bike_id": "8a49ea79e1291f3a1fa7c50578a20970", "fusion_lon": 0.0, "lon": -77.07366816666666, "lat": 38.961841, "is_reserved": 0, "is_disabled": 0, "rental_uris": {"android": "https://dc.lft.to/lastmile_qr_scan", "ios": "https://dc.lft.to/lastmile_qr_scan"}, "name": "8a49ea79e1291f3a1fa7c50578a20970", "type": "electric_bike"}, {"fusion_lat": 0.0, "bike_id": "db39bde829ec879a8a464a2c4df65162", "fusion_lon": 0.0, "lon": -77.03740716666667, "lat": 38.939668, "is_reserved": 0, "is_disabled": 0, "rental_uris": {"android": "https://dc.lft.to/lastmile_qr_scan", "ios": "https://dc.lft.to/lastmile_qr_scan"}, "name": "db39bde829ec879a8a464a2c4df65162", "type": "electric_bike"}, {"fusion_lat": 0.0, "bike_id": "a461a067bf40ce3fa248f408fcd15694", "fusion_lon": 0.0, "lon": -77.02202466666667, "lat": 38.922375, "is_reserved": 0, "is_disabled": 0, "rental_uris": {"android": "https://dc.lft.to/lastmile_qr_scan", "ios": "https://dc.lft.to/lastmile_qr_scan"}, "name": "a461a067bf40ce3fa248f408fcd15694", "type": "electric_scooter"}, {"fusion_lat": 0.0, "bike_id": "d0247b005a957f3b9e3bb4519e88f7bb", "fusion_lon": 0.0, "lon": -77.0760745, "lat": 38.92062466666667, "is_reserved": 0, "is_disabled": 0, "rental_uris": {"android": "https://dc.lft.to/lastmile_qr_scan", "ios": "https://dc.lft.to/lastmile_qr_scan"}, "name": "d0247b005a957f3b9e3bb4519e88f7bb", "type": "electric_scooter"}, {"fusion_lat": 0.0, "bike_id": "b01f68bfa81dfca08162a1035e6769f9", "fusion_lon": 0.0, "lon": -77.051797, "lat": 38.9031445, "is_reserved": 0, "is_disabled": 0, "rental_uris": {"android": "https://dc.lft.to/lastmile_qr_scan", "ios": "https://dc.lft.to/lastmile_qr_scan"}, "name": "b01f68bfa81dfca08162a1035e6769f9", "type": "electric_scooter"}, {"fusion_lat": 0.0, "bike_id": "9bbf6f797ede2c9a2993253876a3adc5", "fusion_lon": 0.0, "lon": -77.0033025, "lat": 38.8936485, "is_reserved": 0, "is_disabled": 0, "rental_uris": {"android": "https://dc.lft.to/lastmile_qr_scan", "ios": "https://dc.lft.to/lastmile_qr_scan"}, "name": "9bbf6f797ede2c9a2993253876a3adc5", "type": "electric_scooter"}, {"fusion_lat": 0.0, "bike_id": "753b202d7b9f383c09498ef5e6ddd0d5", "fusion_lon": 0.0, "lon": -77.04185266666667, "lat": 38.892518333333335, "is_reserved": 0, "is_disabled": 0, "rental_uris": {"android": "https://dc.lft.to/lastmile_qr_scan", "ios": "https://dc.lft.to/lastmile_qr_scan"}, "name": "753b202d7b9f383c09498ef5e6ddd0d5", "type": "electric_scooter"}, {"fusion_lat": 0.0, "bike_id": "5736b9f1ca3e25dd5a6f9d72e8668489", "fusion_lon": 0.0, "lon": -77.03847183333333, "lat": 38.92163383333333, "is_reserved": 0, "is_disabled": 0, "rental_uris": {"android": "https://dc.lft.to/lastmile_qr_scan", "ios": "https://dc.lft.to/lastmile_qr_scan"}, "name": "5736b9f1ca3e25dd5a6f9d72e8668489", "type": "electric_scooter"}, {"fusion_lat": 0.0, "bike_id": "d680dbfd6db9ce18081de70e0c0a6110", "fusion_lon": 0.0, "lon": -77.03266733333334, "lat": 38.936545333333335, "is_reserved": 0, "is_disabled": 0, "rental_uris": {"android": "https://dc.lft.to/lastmile_qr_scan", "ios": "https://dc.lft.to/lastmile_qr_scan"}, "name": "d680dbfd6db9ce18081de70e0c0a6110", "type": "electric_scooter"}, {"fusion_lat": 0.0, "bike_id": "735755fd2d27d20c3b697da1130283e1", "fusion_lon": 0.0, "lon": -77.01297933333333, "lat": 38.930364833333336, "is_reserved": 0, "is_disabled": 0, "rental_uris": {"android": "https://dc.lft.to/lastmile_qr_scan", "ios": "https://dc.lft.to/lastmile_qr_scan"}, "name": "735755fd2d27d20c3b697da1130283e1", "type": "electric_scooter"}, {"fusion_lat": 0.0, "bike_id": "0657e9f3bd33cdfc757a89a154c8d5a7", "fusion_lon": 0.0, "lon": -77.002392, "lat": 38.9524305, "is_reserved": 0, "is_disabled": 0, "rental_uris": {"android": "https://dc.lft.to/lastmile_qr_scan", "ios": "https://dc.lft.to/lastmile_qr_scan"}, "name": "0657e9f3bd33cdfc757a89a154c8d5a7", "type": "electric_scooter"}, {"fusion_lat": 0.0, "bike_id": "9073fb7f8288a718b1c46c6bdbb25d30", "fusion_lon": 0.0, "lon": -77.03760616666666, "lat": 38.90672033333333, "is_reserved": 0, "is_disabled": 0, "rental_uris": {"android": "https://dc.lft.to/lastmile_qr_scan", "ios": "https://dc.lft.to/lastmile_qr_scan"}, "name": "9073fb7f8288a718b1c46c6bdbb25d30", "type": "electric_scooter"}, {"fusion_lat": 0.0, "bike_id": "cfd68e65d7e0339ade65837ccbaac677", "fusion_lon": 0.0, "lon": -77.0610115, "lat": 38.93708866666667, "is_reserved": 0, "is_disabled": 0, "rental_uris": {"android": "https://dc.lft.to/lastmile_qr_scan", "ios": "https://dc.lft.to/lastmile_qr_scan"}, "name": "cfd68e65d7e0339ade65837ccbaac677", "type": "electric_scooter"}, {"fusion_lat": 0.0, "bike_id": "64792d11a2dc9375e53b193e9bbeaa35", "fusion_lon": 0.0, "lon": -77.03375633333333, "lat": 38.92147166666667, "is_reserved": 0, "is_disabled": 0, "rental_uris": {"android": "https://dc.lft.to/lastmile_qr_scan", "ios": "https://dc.lft.to/lastmile_qr_scan"}, "name": "64792d11a2dc9375e53b193e9bbeaa35", "type": "electric_scooter"}, {"fusion_lat": 0.0, "bike_id": "34c30d6c4c21c20d4f0dba9c639fe533", "fusion_lon": 0.0, "lon": -77.0365055, "lat": 38.90461466666667, "is_reserved": 0, "is_disabled": 0, "rental_uris": {"android": "https://dc.lft.to/lastmile_qr_scan", "ios": "https://dc.lft.to/lastmile_qr_scan"}, "name": "34c30d6c4c21c20d4f0dba9c639fe533", "type": "electric_scooter"}, {"fusion_lat": 0.0, "bike_id": "40da0d04215d1f3c78b586b58b451c0d", "fusion_lon": 0.0, "lon": -77.08807716666666, "lat": 38.862238, "is_reserved": 0, "is_disabled": 0, "rental_uris": {"android": "https://dc.lft.to/lastmile_qr_scan", "ios": "https://dc.lft.to/lastmile_qr_scan"}, "name": "40da0d04215d1f3c78b586b58b451c0d", "type": "electric_bike"}, {"fusion_lat": 0.0, "bike_id": "0cd069306539280a310710066d1ca0fa", "fusion_lon": 0.0, "lon": -77.04486366666667, "lat": 38.901424666666664, "is_reserved": 0, "is_disabled": 0, "rental_uris": {"android": "https://dc.lft.to/lastmile_qr_scan", "ios": "https://dc.lft.to/lastmile_qr_scan"}, "name": "0cd069306539280a310710066d1ca0fa", "type": "electric_scooter"}, {"fusion_lat": 0.0, "bike_id": "8988cabb4641bd49a18120f746707023", "fusion_lon": 0.0, "lon": -77.04676883333333, "lat": 38.8946095, "is_reserved": 0, "is_disabled": 0, "rental_uris": {"android": "https://dc.lft.to/lastmile_qr_scan", "ios": "https://dc.lft.to/lastmile_qr_scan"}, "name": "8988cabb4641bd49a18120f746707023", "type": "electric_scooter"}, {"fusion_lat": 0.0, "bike_id": "a7ad78fe87bf87fbb9c44f9aff1ed4bb", "fusion_lon": 0.0, "lon": -77.04635533333334, "lat": 38.921199, "is_reserved": 0, "is_disabled": 0, "rental_uris": {"android": "https://dc.lft.to/lastmile_qr_scan", "ios": "https://dc.lft.to/lastmile_qr_scan"}, "name": "a7ad78fe87bf87fbb9c44f9aff1ed4bb", "type": "electric_scooter"}, {"fusion_lat": 0.0, "bike_id": "f9cec09c3621464931e7f7eef4b1eb64", "fusion_lon": 0.0, "lon": -76.94884333333333, "lat": 38.8951215, "is_reserved": 0, "is_disabled": 0, "rental_uris": {"android": "https://dc.lft.to/lastmile_qr_scan", "ios": "https://dc.lft.to/lastmile_qr_scan"}, "name": "f9cec09c3621464931e7f7eef4b1eb64", "type": "electric_scooter"}, {"fusion_lat": 0.0, "bike_id": "5daa4b2feb2ef3da99a5935c9fd0fcae", "fusion_lon": 0.0, "lon": -77.02421733333334, "lat": 38.920497166666664, "is_reserved": 0, "is_disabled": 0, "rental_uris": {"android": "https://dc.lft.to/lastmile_qr_scan", "ios": "https://dc.lft.to/lastmile_qr_scan"}, "name": "5daa4b2feb2ef3da99a5935c9fd0fcae", "type": "electric_scooter"}, {"fusion_lat": 0.0, "bike_id": "2468e51f322537f98a28705eb2f93dbd", "fusion_lon": 0.0, "lon": -77.04153283333333, "lat": 38.91814133333333, "is_reserved": 0, "is_disabled": 0, "rental_uris": {"android": "https://dc.lft.to/lastmile_qr_scan", "ios": "https://dc.lft.to/lastmile_qr_scan"}, "name": "2468e51f322537f98a28705eb2f93dbd", "type": "electric_scooter"}, {"fusion_lat": 0.0, "bike_id": "8534e47bfaa1374a782ca2742c7ea857", "fusion_lon": 0.0, "lon": -77.029754, "lat": 38.89630783333333, "is_reserved": 0, "is_disabled": 0, "rental_uris": {"android": "https://dc.lft.to/lastmile_qr_scan", "ios": "https://dc.lft.to/lastmile_qr_scan"}, "name": "8534e47bfaa1374a782ca2742c7ea857", "type": "electric_scooter"}, {"fusion_lat": 0.0, "bike_id": "6b8f6471a66b11e6327077f23022eb00", "fusion_lon": 0.0, "lon": -77.04156916666666, "lat": 38.9160515, "is_reserved": 0, "is_disabled": 0, "rental_uris": {"android": "https://dc.lft.to/lastmile_qr_scan", "ios": "https://dc.lft.to/lastmile_qr_scan"}, "name": "6b8f6471a66b11e6327077f23022eb00", "type": "electric_scooter"}, {"fusion_lat": 0.0, "bike_id": "0429c9ff27536154d8daf7364f2e2158", "fusion_lon": 0.0, "lon": -77.0270695, "lat": 38.9114035, "is_reserved": 0, "is_disabled": 0, "rental_uris": {"android": "https://dc.lft.to/lastmile_qr_scan", "ios": "https://dc.lft.to/lastmile_qr_scan"}, "name": "0429c9ff27536154d8daf7364f2e2158", "type": "electric_scooter"}, {"fusion_lat": 0.0, "bike_id": "f90d600b9f1aefed9f9c761010acfe39", "fusion_lon": 0.0, "lon": -77.035769, "lat": 38.92328066666666, "is_reserved": 0, "is_disabled": 0, "rental_uris": {"android": "https://dc.lft.to/lastmile_qr_scan", "ios": "https://dc.lft.to/lastmile_qr_scan"}, "name": "f90d600b9f1aefed9f9c761010acfe39", "type": "electric_scooter"}, {"fusion_lat": 0.0, "bike_id": "d64ec1aed8db2e98d33bbfc83a5fb6bd", "fusion_lon": 0.0, "lon": -76.9947825, "lat": 38.886100666666664, "is_reserved": 0, "is_disabled": 0, "rental_uris": {"android": "https://dc.lft.to/lastmile_qr_scan", "ios": "https://dc.lft.to/lastmile_qr_scan"}, "name": "d64ec1aed8db2e98d33bbfc83a5fb6bd", "type": "electric_scooter"}, {"fusion_lat": 0.0, "bike_id": "f5701d43f76207c51c6acf3768716247", "fusion_lon": 0.0, "lon": -77.0174345, "lat": 38.88400633333333, "is_reserved": 0, "is_disabled": 0, "rental_uris": {"android": "https://dc.lft.to/lastmile_qr_scan", "ios": "https://dc.lft.to/lastmile_qr_scan"}, "name": "f5701d43f76207c51c6acf3768716247", "type": "electric_scooter"}, {"fusion_lat": 0.0, "bike_id": "be8d31ed818316c5f77af75341d45848", "fusion_lon": 0.0, "lon": -77.041318, "lat": 38.923388333333335, "is_reserved": 0, "is_disabled": 0, "rental_uris": {"android": "https://dc.lft.to/lastmile_qr_scan", "ios": "https://dc.lft.to/lastmile_qr_scan"}, "name": "be8d31ed818316c5f77af75341d45848", "type": "electric_scooter"}, {"fusion_lat": 0.0, "bike_id": "174cd9fec76fa1d006fe23d4f0f72f0f", "fusion_lon": 0.0, "lon": -77.01398766666667, "lat": 38.89220233333333, "is_reserved": 0, "is_disabled": 0, "rental_uris": {"android": "https://dc.lft.to/lastmile_qr_scan", "ios": "https://dc.lft.to/lastmile_qr_scan"}, "name": "174cd9fec76fa1d006fe23d4f0f72f0f", "type": "electric_scooter"}, {"fusion_lat": 0.0, "bike_id": "ff032b8b0f67eeb7503188a2963acc8f", "fusion_lon": 0.0, "lon": -77.05658166666667, "lat": 38.89547616666667, "is_reserved": 0, "is_disabled": 0, "rental_uris": {"android": "https://dc.lft.to/lastmile_qr_scan", "ios": "https://dc.lft.to/lastmile_qr_scan"}, "name": "ff032b8b0f67eeb7503188a2963acc8f", "type": "electric_scooter"}, {"fusion_lat": 0.0, "bike_id": "558d5cd7ad948227df18b9cfd1154f24", "fusion_lon": 0.0, "lon": -77.04874666666667, "lat": 38.892357833333335, "is_reserved": 0, "is_disabled": 0, "rental_uris": {"android": "https://dc.lft.to/lastmile_qr_scan", "ios": "https://dc.lft.to/lastmile_qr_scan"}, "name": "558d5cd7ad948227df18b9cfd1154f24", "type": "electric_scooter"}, {"fusion_lat": 0.0, "bike_id": "38a74f39aa8013e513d6de2b6a8cf81c", "fusion_lon": 0.0, "lon": -77.051343, "lat": 38.906063, "is_reserved": 0, "is_disabled": 0, "rental_uris": {"android": "https://dc.lft.to/lastmile_qr_scan", "ios": "https://dc.lft.to/lastmile_qr_scan"}, "name": "38a74f39aa8013e513d6de2b6a8cf81c", "type": "electric_scooter"}, {"fusion_lat": 0.0, "bike_id": "895b1867ef4b55ae9362825eb7be22c7", "fusion_lon": 0.0, "lon": -77.02069583333333, "lat": 38.927013, "is_reserved": 0, "is_disabled": 0, "rental_uris": {"android": "https://dc.lft.to/lastmile_qr_scan", "ios": "https://dc.lft.to/lastmile_qr_scan"}, "name": "895b1867ef4b55ae9362825eb7be22c7", "type": "electric_scooter"}, {"fusion_lat": 0.0, "bike_id": "741ca0fa51b4907e91c082f7a223085e", "fusion_lon": 0.0, "lon": -77.02302233333333, "lat": 38.94088966666666, "is_reserved": 0, "is_disabled": 0, "rental_uris": {"android": "https://dc.lft.to/lastmile_qr_scan", "ios": "https://dc.lft.to/lastmile_qr_scan"}, "name": "741ca0fa51b4907e91c082f7a223085e", "type": "electric_scooter"}, {"fusion_lat": 0.0, "bike_id": "9e5c2c28ea9ba3805ad58af79dad7d7d", "fusion_lon": 0.0, "lon": -77.02819866666667, "lat": 38.8874255, "is_reserved": 0, "is_disabled": 0, "rental_uris": {"android": "https://dc.lft.to/lastmile_qr_scan", "ios": "https://dc.lft.to/lastmile_qr_scan"}, "name": "9e5c2c28ea9ba3805ad58af79dad7d7d", "type": "electric_scooter"}, {"fusion_lat": 0.0, "bike_id": "6240a6aa9ed2f2f033e8b43d7dff6476", "fusion_lon": 0.0, "lon": -77.0045075, "lat": 38.8766655, "is_reserved": 0, "is_disabled": 0, "rental_uris": {"android": "https://dc.lft.to/lastmile_qr_scan", "ios": "https://dc.lft.to/lastmile_qr_scan"}, "name": "6240a6aa9ed2f2f033e8b43d7dff6476", "type": "electric_scooter"}, {"fusion_lat": 0.0, "bike_id": "f0e9e9de48dcf656d726d452eed6c9a1", "fusion_lon": 0.0, "lon": -76.9979525, "lat": 38.885586833333335, "is_reserved": 0, "is_disabled": 0, "rental_uris": {"android": "https://dc.lft.to/lastmile_qr_scan", "ios": "https://dc.lft.to/lastmile_qr_scan"}, "name": "f0e9e9de48dcf656d726d452eed6c9a1", "type": "electric_scooter"}, {"fusion_lat": 0.0, "bike_id": "3b622e3028bd3c8311a84ebe7f0fcad9", "fusion_lon": 0.0, "lon": -76.97387316666666, "lat": 38.90557183333333, "is_reserved": 0, "is_disabled": 0, "rental_uris": {"android": "https://dc.lft.to/lastmile_qr_scan", "ios": "https://dc.lft.to/lastmile_qr_scan"}, "name": "3b622e3028bd3c8311a84ebe7f0fcad9", "type": "electric_scooter"}, {"fusion_lat": 0.0, "bike_id": "03d8f16bd3358d625aa785e5a3e4160e", "fusion_lon": 0.0, "lon": -77.03418416666666, "lat": 38.92243333333333, "is_reserved": 0, "is_disabled": 0, "rental_uris": {"android": "https://dc.lft.to/lastmile_qr_scan", "ios": "https://dc.lft.to/lastmile_qr_scan"}, "name": "03d8f16bd3358d625aa785e5a3e4160e", "type": "electric_scooter"}, {"fusion_lat": 0.0, "bike_id": "dafa4c1449c412cebf01e08eca6bc424", "fusion_lon": 0.0, "lon": -77.03498716666667, "lat": 38.93758166666667, "is_reserved": 0, "is_disabled": 0, "rental_uris": {"android": "https://dc.lft.to/lastmile_qr_scan", "ios": "https://dc.lft.to/lastmile_qr_scan"}, "name": "dafa4c1449c412cebf01e08eca6bc424", "type": "electric_scooter"}, {"fusion_lat": 0.0, "bike_id": "d11eb2cde79b0b6cf1ec17bf2dbbd0e6", "fusion_lon": 0.0, "lon": -77.06335483333334, "lat": 38.906804, "is_reserved": 0, "is_disabled": 0, "rental_uris": {"android": "https://dc.lft.to/lastmile_qr_scan", "ios": "https://dc.lft.to/lastmile_qr_scan"}, "name": "d11eb2cde79b0b6cf1ec17bf2dbbd0e6", "type": "electric_scooter"}, {"fusion_lat": 0.0, "bike_id": "55931bc525b2fa05bf0e088f163c35d9", "fusion_lon": 0.0, "lon": -77.120747, "lat": 38.854220833333336, "is_reserved": 0, "is_disabled": 0, "rental_uris": {"android": "https://dc.lft.to/lastmile_qr_scan", "ios": "https://dc.lft.to/lastmile_qr_scan"}, "name": "55931bc525b2fa05bf0e088f163c35d9", "type": "electric_bike"}, {"fusion_lat": 0.0, "bike_id": "a76db5f74648f8923d2a37e60b464201", "fusion_lon": 0.0, "lon": -77.03258733333334, "lat": 38.9156095, "is_reserved": 0, "is_disabled": 0, "rental_uris": {"android": "https://dc.lft.to/lastmile_qr_scan", "ios": "https://dc.lft.to/lastmile_qr_scan"}, "name": "a76db5f74648f8923d2a37e60b464201", "type": "electric_scooter"}, {"fusion_lat": 0.0, "bike_id": "e23d1c0cc4795c4bbce1ff7ffbec556b", "fusion_lon": 0.0, "lon": -77.10535966666667, "lat": 38.855137, "is_reserved": 0, "is_disabled": 0, "rental_uris": {"android": "https://dc.lft.to/lastmile_qr_scan", "ios": "https://dc.lft.to/lastmile_qr_scan"}, "name": "e23d1c0cc4795c4bbce1ff7ffbec556b", "type": "electric_bike"}, {"fusion_lat": 0.0, "bike_id": "f2016c55a69f411112209e0002347aa5", "fusion_lon": 0.0, "lon": -76.94633833333333, "lat": 38.898354499999996, "is_reserved": 0, "is_disabled": 0, "rental_uris": {"android": "https://dc.lft.to/lastmile_qr_scan", "ios": "https://dc.lft.to/lastmile_qr_scan"}, "name": "f2016c55a69f411112209e0002347aa5", "type": "electric_scooter"}, {"fusion_lat": 0.0, "bike_id": "09a97e1d03e90215da3d7dd7caa691fd", "fusion_lon": 0.0, "lon": -77.03245816666667, "lat": 38.9338335, "is_reserved": 0, "is_disabled": 0, "rental_uris": {"android": "https://dc.lft.to/lastmile_qr_scan", "ios": "https://dc.lft.to/lastmile_qr_scan"}, "name": "09a97e1d03e90215da3d7dd7caa691fd", "type": "electric_scooter"}, {"fusion_lat": 0.0, "bike_id": "a18fc184a61792528e9cdf1281e731fb", "fusion_lon": 0.0, "lon": -77.03196683333333, "lat": 38.9205765, "is_reserved": 0, "is_disabled": 0, "rental_uris": {"android": "https://dc.lft.to/lastmile_qr_scan", "ios": "https://dc.lft.to/lastmile_qr_scan"}, "name": "a18fc184a61792528e9cdf1281e731fb", "type": "electric_scooter"}, {"fusion_lat": 0.0, "bike_id": "cb41e32d4e7265429fc6157ee9985c49", "fusion_lon": 0.0, "lon": -77.02199716666667, "lat": 38.900212333333336, "is_reserved": 0, "is_disabled": 0, "rental_uris": {"android": "https://dc.lft.to/lastmile_qr_scan", "ios": "https://dc.lft.to/lastmile_qr_scan"}, "name": "cb41e32d4e7265429fc6157ee9985c49", "type": "electric_scooter"}, {"fusion_lat": 0.0, "bike_id": "d276bb303f95d9da698c5422a117fe1a", "fusion_lon": 0.0, "lon": -77.048777, "lat": 38.905281, "is_reserved": 0, "is_disabled": 0, "rental_uris": {"android": "https://dc.lft.to/lastmile_qr_scan", "ios": "https://dc.lft.to/lastmile_qr_scan"}, "name": "d276bb303f95d9da698c5422a117fe1a", "type": "electric_scooter"}, {"fusion_lat": 0.0, "bike_id": "01b576f8db86a82f04be79137c94012c", "fusion_lon": 0.0, "lon": -76.97531183333334, "lat": 38.922326166666664, "is_reserved": 0, "is_disabled": 0, "rental_uris": {"android": "https://dc.lft.to/lastmile_qr_scan", "ios": "https://dc.lft.to/lastmile_qr_scan"}, "name": "01b576f8db86a82f04be79137c94012c", "type": "electric_scooter"}, {"fusion_lat": 0.0, "bike_id": "5365970b58b7a615d46d4e7db742e3d9", "fusion_lon": 0.0, "lon": -77.03073333333333, "lat": 38.8803655, "is_reserved": 0, "is_disabled": 0, "rental_uris": {"android": "https://dc.lft.to/lastmile_qr_scan", "ios": "https://dc.lft.to/lastmile_qr_scan"}, "name": "5365970b58b7a615d46d4e7db742e3d9", "type": "electric_scooter"}, {"fusion_lat": 0.0, "bike_id": "2a694f38c711a223c0ff644e93ed909e", "fusion_lon": 0.0, "lon": -77.04982016666666, "lat": 39.03553866666667, "is_reserved": 0, "is_disabled": 0, "rental_uris": {"android": "https://dc.lft.to/lastmile_qr_scan", "ios": "https://dc.lft.to/lastmile_qr_scan"}, "name": "2a694f38c711a223c0ff644e93ed909e", "type": "electric_bike"}, {"fusion_lat": 0.0, "bike_id": "667c1afa183b5c1883989d7407c6c1ff", "fusion_lon": 0.0, "lon": -77.01319883333333, "lat": 38.9295465, "is_reserved": 0, "is_disabled": 0, "rental_uris": {"android": "https://dc.lft.to/lastmile_qr_scan", "ios": "https://dc.lft.to/lastmile_qr_scan"}, "name": "667c1afa183b5c1883989d7407c6c1ff", "type": "electric_scooter"}, {"fusion_lat": 0.0, "bike_id": "9f716363bda2ff744ea1de67261b4c3e", "fusion_lon": 0.0, "lon": -77.02730333333334, "lat": 38.94380066666667, "is_reserved": 0, "is_disabled": 0, "rental_uris": {"android": "https://dc.lft.to/lastmile_qr_scan", "ios": "https://dc.lft.to/lastmile_qr_scan"}, "name": "9f716363bda2ff744ea1de67261b4c3e", "type": "electric_scooter"}, {"fusion_lat": 0.0, "bike_id": "1cd5e014d8d0646dd42d834017c9afbe", "fusion_lon": 0.0, "lon": -76.98943066666666, "lat": 38.865542, "is_reserved": 0, "is_disabled": 0, "rental_uris": {"android": "https://dc.lft.to/lastmile_qr_scan", "ios": "https://dc.lft.to/lastmile_qr_scan"}, "name": "1cd5e014d8d0646dd42d834017c9afbe", "type": "electric_scooter"}, {"fusion_lat": 0.0, "bike_id": "28f2ac9899f9535783f99d1ebc71d5ff", "fusion_lon": 0.0, "lon": -77.0154105, "lat": 38.94134066666667, "is_reserved": 0, "is_disabled": 0, "rental_uris": {"android": "https://dc.lft.to/lastmile_qr_scan", "ios": "https://dc.lft.to/lastmile_qr_scan"}, "name": "28f2ac9899f9535783f99d1ebc71d5ff", "type": "electric_scooter"}, {"fusion_lat": 0.0, "bike_id": "572a11245d88e3086ef956e42e333565", "fusion_lon": 0.0, "lon": -77.04341616666666, "lat": 38.933315, "is_reserved": 0, "is_disabled": 0, "rental_uris": {"android": "https://dc.lft.to/lastmile_qr_scan", "ios": "https://dc.lft.to/lastmile_qr_scan"}, "name": "572a11245d88e3086ef956e42e333565", "type": "electric_scooter"}, {"fusion_lat": 0.0, "bike_id": "a96445c0afe6a45e2676ee39fd0bc42a", "fusion_lon": 0.0, "lon": -77.000435, "lat": 38.908119166666665, "is_reserved": 0, "is_disabled": 0, "rental_uris": {"android": "https://dc.lft.to/lastmile_qr_scan", "ios": "https://dc.lft.to/lastmile_qr_scan"}, "name": "a96445c0afe6a45e2676ee39fd0bc42a", "type": "electric_scooter"}, {"fusion_lat": 0.0, "bike_id": "66115d92e48c885c1971b644588476c4", "fusion_lon": 0.0, "lon": -77.02769683333334, "lat": 38.892246166666666, "is_reserved": 0, "is_disabled": 0, "rental_uris": {"android": "https://dc.lft.to/lastmile_qr_scan", "ios": "https://dc.lft.to/lastmile_qr_scan"}, "name": "66115d92e48c885c1971b644588476c4", "type": "electric_scooter"}, {"fusion_lat": 0.0, "bike_id": "650bd1763a8addc375a93e8a3873b292", "fusion_lon": 0.0, "lon": -77.03839016666667, "lat": 38.9038285, "is_reserved": 0, "is_disabled": 0, "rental_uris": {"android": "https://dc.lft.to/lastmile_qr_scan", "ios": "https://dc.lft.to/lastmile_qr_scan"}, "name": "650bd1763a8addc375a93e8a3873b292", "type": "electric_scooter"}, {"fusion_lat": 0.0, "bike_id": "65c78dff724006060936540b426f4db6", "fusion_lon": 0.0, "lon": -77.01203483333333, "lat": 38.885518, "is_reserved": 0, "is_disabled": 0, "rental_uris": {"android": "https://dc.lft.to/lastmile_qr_scan", "ios": "https://dc.lft.to/lastmile_qr_scan"}, "name": "65c78dff724006060936540b426f4db6", "type": "electric_scooter"}, {"fusion_lat": 0.0, "bike_id": "39a1926ac3a1312e58637774acabde48", "fusion_lon": 0.0, "lon": -77.0418485, "lat": 38.89939116666667, "is_reserved": 0, "is_disabled": 0, "rental_uris": {"android": "https://dc.lft.to/lastmile_qr_scan", "ios": "https://dc.lft.to/lastmile_qr_scan"}, "name": "39a1926ac3a1312e58637774acabde48", "type": "electric_scooter"}, {"fusion_lat": 0.0, "bike_id": "25ff8b4e743466d48f72486cb985702c", "fusion_lon": 0.0, "lon": -77.01561216666667, "lat": 38.876131666666666, "is_reserved": 0, "is_disabled": 0, "rental_uris": {"android": "https://dc.lft.to/lastmile_qr_scan", "ios": "https://dc.lft.to/lastmile_qr_scan"}, "name": "25ff8b4e743466d48f72486cb985702c", "type": "electric_scooter"}, {"fusion_lat": 0.0, "bike_id": "05448a4ee15d4003d72844e0f3295596", "fusion_lon": 0.0, "lon": -77.0238875, "lat": 38.916643666666666, "is_reserved": 0, "is_disabled": 0, "rental_uris": {"android": "https://dc.lft.to/lastmile_qr_scan", "ios": "https://dc.lft.to/lastmile_qr_scan"}, "name": "05448a4ee15d4003d72844e0f3295596", "type": "electric_scooter"}, {"fusion_lat": 0.0, "bike_id": "589c21214abdb896a94845beb6a5b9a7", "fusion_lon": 0.0, "lon": -77.03204366666667, "lat": 38.9095065, "is_reserved": 0, "is_disabled": 0, "rental_uris": {"android": "https://dc.lft.to/lastmile_qr_scan", "ios": "https://dc.lft.to/lastmile_qr_scan"}, "name": "589c21214abdb896a94845beb6a5b9a7", "type": "electric_scooter"}, {"fusion_lat": 0.0, "bike_id": "86e18484bd495951fce9d30354e60916", "fusion_lon": 0.0, "lon": -77.1072565, "lat": 38.96494933333334, "is_reserved": 0, "is_disabled": 0, "rental_uris": {"android": "https://dc.lft.to/lastmile_qr_scan", "ios": "https://dc.lft.to/lastmile_qr_scan"}, "name": "86e18484bd495951fce9d30354e60916", "type": "electric_bike"}, {"fusion_lat": 0.0, "bike_id": "6787c8920b291dfb13c864f75b74d6c9", "fusion_lon": 0.0, "lon": -77.01491966666667, "lat": 38.91767133333333, "is_reserved": 0, "is_disabled": 0, "rental_uris": {"android": "https://dc.lft.to/lastmile_qr_scan", "ios": "https://dc.lft.to/lastmile_qr_scan"}, "name": "6787c8920b291dfb13c864f75b74d6c9", "type": "electric_scooter"}, {"fusion_lat": 0.0, "bike_id": "04fc52b55563025d6fa842c3aefd7c57", "fusion_lon": 0.0, "lon": -77.0112325, "lat": 38.900128, "is_reserved": 0, "is_disabled": 0, "rental_uris": {"android": "https://dc.lft.to/lastmile_qr_scan", "ios": "https://dc.lft.to/lastmile_qr_scan"}, "name": "04fc52b55563025d6fa842c3aefd7c57", "type": "electric_scooter"}, {"fusion_lat": 0.0, "bike_id": "1c1bbc57c73261417b62bfbac5f69e05", "fusion_lon": 0.0, "lon": -77.02794283333333, "lat": 38.93081466666667, "is_reserved": 0, "is_disabled": 0, "rental_uris": {"android": "https://dc.lft.to/lastmile_qr_scan", "ios": "https://dc.lft.to/lastmile_qr_scan"}, "name": "1c1bbc57c73261417b62bfbac5f69e05", "type": "electric_scooter"}, {"fusion_lat": 0.0, "bike_id": "b1a18b425c0c184472186b0b67e34055", "fusion_lon": 0.0, "lon": -77.01039383333334, "lat": 38.897309666666665, "is_reserved": 0, "is_disabled": 0, "rental_uris": {"android": "https://dc.lft.to/lastmile_qr_scan", "ios": "https://dc.lft.to/lastmile_qr_scan"}, "name": "b1a18b425c0c184472186b0b67e34055", "type": "electric_scooter"}, {"fusion_lat": 0.0, "bike_id": "5c92f4a70cd79aa85c965c165cde8405", "fusion_lon": 0.0, "lon": -77.04159683333333, "lat": 38.8958555, "is_reserved": 0, "is_disabled": 0, "rental_uris": {"android": "https://dc.lft.to/lastmile_qr_scan", "ios": "https://dc.lft.to/lastmile_qr_scan"}, "name": "5c92f4a70cd79aa85c965c165cde8405", "type": "electric_bike"}, {"fusion_lat": 0.0, "bike_id": "d16f4a63a1670fbbac9ee45715ebc8cb", "fusion_lon": 0.0, "lon": -77.05373366666667, "lat": 38.92760083333334, "is_reserved": 0, "is_disabled": 0, "rental_uris": {"android": "https://dc.lft.to/lastmile_qr_scan", "ios": "https://dc.lft.to/lastmile_qr_scan"}, "name": "d16f4a63a1670fbbac9ee45715ebc8cb", "type": "electric_scooter"}, {"fusion_lat": 0.0, "bike_id": "5ff6ff60311c6c0bb27d0d3c2944bef8", "fusion_lon": 0.0, "lon": -77.041093, "lat": 38.902216333333335, "is_reserved": 0, "is_disabled": 0, "rental_uris": {"android": "https://dc.lft.to/lastmile_qr_scan", "ios": "https://dc.lft.to/lastmile_qr_scan"}, "name": "5ff6ff60311c6c0bb27d0d3c2944bef8", "type": "electric_scooter"}, {"fusion_lat": 0.0, "bike_id": "98945d8e3f5c0c3f32e5a24ed3c396cd", "fusion_lon": 0.0, "lon": -77.03461183333333, "lat": 38.904334166666665, "is_reserved": 0, "is_disabled": 0, "rental_uris": {"android": "https://dc.lft.to/lastmile_qr_scan", "ios": "https://dc.lft.to/lastmile_qr_scan"}, "name": "98945d8e3f5c0c3f32e5a24ed3c396cd", "type": "electric_scooter"}, {"fusion_lat": 0.0, "bike_id": "da832955ce098c533e1dd9710d504c8a", "fusion_lon": 0.0, "lon": -76.93055383333333, "lat": 38.89854533333333, "is_reserved": 0, "is_disabled": 0, "rental_uris": {"android": "https://dc.lft.to/lastmile_qr_scan", "ios": "https://dc.lft.to/lastmile_qr_scan"}, "name": "da832955ce098c533e1dd9710d504c8a", "type": "electric_scooter"}, {"fusion_lat": 0.0, "bike_id": "4aa10386e9f68a88c08cee0bf12ea394", "fusion_lon": 0.0, "lon": -77.02437016666667, "lat": 38.9374855, "is_reserved": 0, "is_disabled": 0, "rental_uris": {"android": "https://dc.lft.to/lastmile_qr_scan", "ios": "https://dc.lft.to/lastmile_qr_scan"}, "name": "4aa10386e9f68a88c08cee0bf12ea394", "type": "electric_scooter"}, {"fusion_lat": 0.0, "bike_id": "ea598a568b0af88258268230645549fb", "fusion_lon": 0.0, "lon": -76.98707383333333, "lat": 38.867009, "is_reserved": 0, "is_disabled": 0, "rental_uris": {"android": "https://dc.lft.to/lastmile_qr_scan", "ios": "https://dc.lft.to/lastmile_qr_scan"}, "name": "ea598a568b0af88258268230645549fb", "type": "electric_scooter"}, {"fusion_lat": 0.0, "bike_id": "4695a32ba1f1c2cc37cf514d6a8d174e", "fusion_lon": 0.0, "lon": -76.98228983333334, "lat": 38.86894383333333, "is_reserved": 0, "is_disabled": 0, "rental_uris": {"android": "https://dc.lft.to/lastmile_qr_scan", "ios": "https://dc.lft.to/lastmile_qr_scan"}, "name": "4695a32ba1f1c2cc37cf514d6a8d174e", "type": "electric_scooter"}, {"fusion_lat": 0.0, "bike_id": "0f671f3cc9afe039d82708f023b466e3", "fusion_lon": 0.0, "lon": -77.03272783333334, "lat": 38.91999783333333, "is_reserved": 0, "is_disabled": 0, "rental_uris": {"android": "https://dc.lft.to/lastmile_qr_scan", "ios": "https://dc.lft.to/lastmile_qr_scan"}, "name": "0f671f3cc9afe039d82708f023b466e3", "type": "electric_scooter"}, {"fusion_lat": 0.0, "bike_id": "0b6e689b716967d0c0c1db3e97f3ae20", "fusion_lon": 0.0, "lon": -76.99930466666666, "lat": 38.843166333333336, "is_reserved": 0, "is_disabled": 0, "rental_uris": {"android": "https://dc.lft.to/lastmile_qr_scan", "ios": "https://dc.lft.to/lastmile_qr_scan"}, "name": "0b6e689b716967d0c0c1db3e97f3ae20", "type": "electric_scooter"}, {"fusion_lat": 0.0, "bike_id": "3ea7743bc6e2c26bf5d001c5e149180b", "fusion_lon": 0.0, "lon": -77.04861766666667, "lat": 38.8922515, "is_reserved": 0, "is_disabled": 0, "rental_uris": {"android": "https://dc.lft.to/lastmile_qr_scan", "ios": "https://dc.lft.to/lastmile_qr_scan"}, "name": "3ea7743bc6e2c26bf5d001c5e149180b", "type": "electric_scooter"}, {"fusion_lat": 0.0, "bike_id": "03f94661b8534a63ef68a566a0c50cec", "fusion_lon": 0.0, "lon": -77.11451233333334, "lat": 38.882009333333336, "is_reserved": 0, "is_disabled": 0, "rental_uris": {"android": "https://dc.lft.to/lastmile_qr_scan", "ios": "https://dc.lft.to/lastmile_qr_scan"}, "name": "03f94661b8534a63ef68a566a0c50cec", "type": "electric_bike"}, {"fusion_lat": 0.0, "bike_id": "2a0dffbb94d0679f9f999316ec10f777", "fusion_lon": 0.0, "lon": -77.02052366666666, "lat": 38.95757783333333, "is_reserved": 0, "is_disabled": 0, "rental_uris": {"android": "https://dc.lft.to/lastmile_qr_scan", "ios": "https://dc.lft.to/lastmile_qr_scan"}, "name": "2a0dffbb94d0679f9f999316ec10f777", "type": "electric_bike"}, {"fusion_lat": 0.0, "bike_id": "c943e11c484b9f5588f412037e5a5db5", "fusion_lon": 0.0, "lon": -77.04511333333333, "lat": 38.903635, "is_reserved": 0, "is_disabled": 0, "rental_uris": {"android": "https://dc.lft.to/lastmile_qr_scan", "ios": "https://dc.lft.to/lastmile_qr_scan"}, "name": "c943e11c484b9f5588f412037e5a5db5", "type": "electric_scooter"}, {"fusion_lat": 0.0, "bike_id": "7ec8cd37cee35dc2f5c599867d3271e6", "fusion_lon": 0.0, "lon": -77.0344155, "lat": 38.917995833333336, "is_reserved": 0, "is_disabled": 0, "rental_uris": {"android": "https://dc.lft.to/lastmile_qr_scan", "ios": "https://dc.lft.to/lastmile_qr_scan"}, "name": "7ec8cd37cee35dc2f5c599867d3271e6", "type": "electric_scooter"}, {"fusion_lat": 0.0, "bike_id": "0656c92a34544e5d05c90a652696ce4f", "fusion_lon": 0.0, "lon": -77.064483, "lat": 38.905218166666664, "is_reserved": 0, "is_disabled": 0, "rental_uris": {"android": "https://dc.lft.to/lastmile_qr_scan", "ios": "https://dc.lft.to/lastmile_qr_scan"}, "name": "0656c92a34544e5d05c90a652696ce4f", "type": "electric_scooter"}, {"fusion_lat": 0.0, "bike_id": "8133324a87fddce421fc196558e77527", "fusion_lon": 0.0, "lon": -77.049781, "lat": 39.06296533333333, "is_reserved": 0, "is_disabled": 0, "rental_uris": {"android": "https://dc.lft.to/lastmile_qr_scan", "ios": "https://dc.lft.to/lastmile_qr_scan"}, "name": "8133324a87fddce421fc196558e77527", "type": "electric_bike"}, {"fusion_lat": 0.0, "bike_id": "9ec73d117fb5f523abd8ecde6b1977bc", "fusion_lon": 0.0, "lon": -77.03862933333333, "lat": 38.92019, "is_reserved": 0, "is_disabled": 0, "rental_uris": {"android": "https://dc.lft.to/lastmile_qr_scan", "ios": "https://dc.lft.to/lastmile_qr_scan"}, "name": "9ec73d117fb5f523abd8ecde6b1977bc", "type": "electric_scooter"}, {"fusion_lat": 0.0, "bike_id": "14dbc3bf1e3472ceeb334d3365faa062", "fusion_lon": 0.0, "lon": -77.03659083333334, "lat": 38.916511666666665, "is_reserved": 0, "is_disabled": 0, "rental_uris": {"android": "https://dc.lft.to/lastmile_qr_scan", "ios": "https://dc.lft.to/lastmile_qr_scan"}, "name": "14dbc3bf1e3472ceeb334d3365faa062", "type": "electric_scooter"}, {"fusion_lat": 0.0, "bike_id": "bb16d690a3ca89ae10c59642cb261cfe", "fusion_lon": 0.0, "lon": -77.025561, "lat": 38.941718333333334, "is_reserved": 0, "is_disabled": 0, "rental_uris": {"android": "https://dc.lft.to/lastmile_qr_scan", "ios": "https://dc.lft.to/lastmile_qr_scan"}, "name": "bb16d690a3ca89ae10c59642cb261cfe", "type": "electric_scooter"}, {"fusion_lat": 0.0, "bike_id": "ebcb63b517813f74cbde7697cd6b0c2a", "fusion_lon": 0.0, "lon": -77.002098, "lat": 38.91462833333333, "is_reserved": 0, "is_disabled": 0, "rental_uris": {"android": "https://dc.lft.to/lastmile_qr_scan", "ios": "https://dc.lft.to/lastmile_qr_scan"}, "name": "ebcb63b517813f74cbde7697cd6b0c2a", "type": "electric_scooter"}, {"fusion_lat": 0.0, "bike_id": "771c04d26799912e0ad64121c3c3612b", "fusion_lon": 0.0, "lon": -77.01762866666667, "lat": 38.88730266666666, "is_reserved": 0, "is_disabled": 0, "rental_uris": {"android": "https://dc.lft.to/lastmile_qr_scan", "ios": "https://dc.lft.to/lastmile_qr_scan"}, "name": "771c04d26799912e0ad64121c3c3612b", "type": "electric_scooter"}, {"fusion_lat": 0.0, "bike_id": "826f064255ec4c0a678d3d8e63ff2200", "fusion_lon": 0.0, "lon": -76.978581, "lat": 38.8830695, "is_reserved": 0, "is_disabled": 0, "rental_uris": {"android": "https://dc.lft.to/lastmile_qr_scan", "ios": "https://dc.lft.to/lastmile_qr_scan"}, "name": "826f064255ec4c0a678d3d8e63ff2200", "type": "electric_scooter"}, {"fusion_lat": 0.0, "bike_id": "9065eae5cbf2121af81ba701938d12e2", "fusion_lon": 0.0, "lon": -77.031843, "lat": 38.91132416666667, "is_reserved": 0, "is_disabled": 0, "rental_uris": {"android": "https://dc.lft.to/lastmile_qr_scan", "ios": "https://dc.lft.to/lastmile_qr_scan"}, "name": "9065eae5cbf2121af81ba701938d12e2", "type": "electric_scooter"}, {"fusion_lat": 0.0, "bike_id": "e27d6dd26c29bde9c27b717713c403ca", "fusion_lon": 0.0, "lon": -77.07619333333334, "lat": 38.965792666666665, "is_reserved": 0, "is_disabled": 0, "rental_uris": {"android": "https://dc.lft.to/lastmile_qr_scan", "ios": "https://dc.lft.to/lastmile_qr_scan"}, "name": "e27d6dd26c29bde9c27b717713c403ca", "type": "electric_bike"}, {"fusion_lat": 0.0, "bike_id": "1324af50fa77db61dc6515ec52dc3419", "fusion_lon": 0.0, "lon": -77.02585783333333, "lat": 38.91817416666667, "is_reserved": 0, "is_disabled": 0, "rental_uris": {"android": "https://dc.lft.to/lastmile_qr_scan", "ios": "https://dc.lft.to/lastmile_qr_scan"}, "name": "1324af50fa77db61dc6515ec52dc3419", "type": "electric_scooter"}, {"fusion_lat": 0.0, "bike_id": "45893d5473c9899b08490bdd01410f65", "fusion_lon": 0.0, "lon": -77.04488816666667, "lat": 38.92242316666667, "is_reserved": 0, "is_disabled": 0, "rental_uris": {"android": "https://dc.lft.to/lastmile_qr_scan", "ios": "https://dc.lft.to/lastmile_qr_scan"}, "name": "45893d5473c9899b08490bdd01410f65", "type": "electric_scooter"}, {"fusion_lat": 0.0, "bike_id": "5552c217ee593ef165f2e4c5a0e8094c", "fusion_lon": 0.0, "lon": -77.03220916666666, "lat": 38.925857, "is_reserved": 0, "is_disabled": 0, "rental_uris": {"android": "https://dc.lft.to/lastmile_qr_scan", "ios": "https://dc.lft.to/lastmile_qr_scan"}, "name": "5552c217ee593ef165f2e4c5a0e8094c", "type": "electric_scooter"}, {"fusion_lat": 0.0, "bike_id": "4af9238056940375cc0afd2d80714ad6", "fusion_lon": 0.0, "lon": -77.01405533333333, "lat": 38.88125, "is_reserved": 0, "is_disabled": 0, "rental_uris": {"android": "https://dc.lft.to/lastmile_qr_scan", "ios": "https://dc.lft.to/lastmile_qr_scan"}, "name": "4af9238056940375cc0afd2d80714ad6", "type": "electric_scooter"}, {"fusion_lat": 0.0, "bike_id": "b1017101d4506a41646ee6abdf9c7218", "fusion_lon": 0.0, "lon": -77.02378566666667, "lat": 38.917325166666664, "is_reserved": 0, "is_disabled": 0, "rental_uris": {"android": "https://dc.lft.to/lastmile_qr_scan", "ios": "https://dc.lft.to/lastmile_qr_scan"}, "name": "b1017101d4506a41646ee6abdf9c7218", "type": "electric_scooter"}, {"fusion_lat": 0.0, "bike_id": "5f261c73885e089382cc047f615449e7", "fusion_lon": 0.0, "lon": -77.03086183333333, "lat": 38.91063833333333, "is_reserved": 0, "is_disabled": 0, "rental_uris": {"android": "https://dc.lft.to/lastmile_qr_scan", "ios": "https://dc.lft.to/lastmile_qr_scan"}, "name": "5f261c73885e089382cc047f615449e7", "type": "electric_scooter"}, {"fusion_lat": 0.0, "bike_id": "28aa2678b31c1aca76aec9c52ccb078c", "fusion_lon": 0.0, "lon": -76.95747883333334, "lat": 38.884288833333336, "is_reserved": 0, "is_disabled": 0, "rental_uris": {"android": "https://dc.lft.to/lastmile_qr_scan", "ios": "https://dc.lft.to/lastmile_qr_scan"}, "name": "28aa2678b31c1aca76aec9c52ccb078c", "type": "electric_scooter"}, {"fusion_lat": 0.0, "bike_id": "d51360618f34550f0f0dc19f5b7d6b27", "fusion_lon": 0.0, "lon": -76.997936, "lat": 38.82910183333333, "is_reserved": 0, "is_disabled": 0, "rental_uris": {"android": "https://dc.lft.to/lastmile_qr_scan", "ios": "https://dc.lft.to/lastmile_qr_scan"}, "name": "d51360618f34550f0f0dc19f5b7d6b27", "type": "electric_bike"}, {"fusion_lat": 0.0, "bike_id": "41020b1e0653adff3944dfc197e0ca23", "fusion_lon": 0.0, "lon": -77.0209715, "lat": 38.932615166666665, "is_reserved": 0, "is_disabled": 0, "rental_uris": {"android": "https://dc.lft.to/lastmile_qr_scan", "ios": "https://dc.lft.to/lastmile_qr_scan"}, "name": "41020b1e0653adff3944dfc197e0ca23", "type": "electric_scooter"}, {"fusion_lat": 0.0, "bike_id": "25b1eae17cd9f938cc3d66a35d74472a", "fusion_lon": 0.0, "lon": -77.03607333333333, "lat": 38.936828, "is_reserved": 0, "is_disabled": 0, "rental_uris": {"android": "https://dc.lft.to/lastmile_qr_scan", "ios": "https://dc.lft.to/lastmile_qr_scan"}, "name": "25b1eae17cd9f938cc3d66a35d74472a", "type": "electric_scooter"}, {"fusion_lat": 0.0, "bike_id": "169728420564a8a4215ac3f1b487b54e", "fusion_lon": 0.0, "lon": -77.02958316666667, "lat": 38.922901333333336, "is_reserved": 0, "is_disabled": 0, "rental_uris": {"android": "https://dc.lft.to/lastmile_qr_scan", "ios": "https://dc.lft.to/lastmile_qr_scan"}, "name": "169728420564a8a4215ac3f1b487b54e", "type": "electric_scooter"}, {"fusion_lat": 0.0, "bike_id": "7c3f8d3288031c4622a04d5823e9d5b8", "fusion_lon": 0.0, "lon": -77.117076, "lat": 38.867473833333335, "is_reserved": 0, "is_disabled": 0, "rental_uris": {"android": "https://dc.lft.to/lastmile_qr_scan", "ios": "https://dc.lft.to/lastmile_qr_scan"}, "name": "7c3f8d3288031c4622a04d5823e9d5b8", "type": "electric_bike"}, {"fusion_lat": 0.0, "bike_id": "0e5a614ff2ffbecfc6563080f2f14260", "fusion_lon": 0.0, "lon": -77.022211, "lat": 38.93554833333334, "is_reserved": 0, "is_disabled": 0, "rental_uris": {"android": "https://dc.lft.to/lastmile_qr_scan", "ios": "https://dc.lft.to/lastmile_qr_scan"}, "name": "0e5a614ff2ffbecfc6563080f2f14260", "type": "electric_scooter"}, {"fusion_lat": 0.0, "bike_id": "61c37c607d640cd27c11a70a8aab17f9", "fusion_lon": 0.0, "lon": -77.02312616666667, "lat": 38.894983, "is_reserved": 0, "is_disabled": 0, "rental_uris": {"android": "https://dc.lft.to/lastmile_qr_scan", "ios": "https://dc.lft.to/lastmile_qr_scan"}, "name": "61c37c607d640cd27c11a70a8aab17f9", "type": "electric_scooter"}, {"fusion_lat": 0.0, "bike_id": "48adec607c15d1303f4a8b4e66dab36b", "fusion_lon": 0.0, "lon": -77.0286465, "lat": 38.921421, "is_reserved": 0, "is_disabled": 0, "rental_uris": {"android": "https://dc.lft.to/lastmile_qr_scan", "ios": "https://dc.lft.to/lastmile_qr_scan"}, "name": "48adec607c15d1303f4a8b4e66dab36b", "type": "electric_bike"}, {"fusion_lat": 0.0, "bike_id": "a25764d307bad9434b4542ee076121c2", "fusion_lon": 0.0, "lon": -77.04475383333333, "lat": 38.90244666666667, "is_reserved": 0, "is_disabled": 0, "rental_uris": {"android": "https://dc.lft.to/lastmile_qr_scan", "ios": "https://dc.lft.to/lastmile_qr_scan"}, "name": "a25764d307bad9434b4542ee076121c2", "type": "electric_scooter"}, {"fusion_lat": 0.0, "bike_id": "f3332d4fdf2b4e4629d7cebfbc9a43ab", "fusion_lon": 0.0, "lon": -77.03625166666667, "lat": 38.936797, "is_reserved": 0, "is_disabled": 0, "rental_uris": {"android": "https://dc.lft.to/lastmile_qr_scan", "ios": "https://dc.lft.to/lastmile_qr_scan"}, "name": "f3332d4fdf2b4e4629d7cebfbc9a43ab", "type": "electric_scooter"}, {"fusion_lat": 0.0, "bike_id": "08a2944e2214a8833243d732118be3fd", "fusion_lon": 0.0, "lon": -77.02122266666667, "lat": 38.935789166666666, "is_reserved": 0, "is_disabled": 0, "rental_uris": {"android": "https://dc.lft.to/lastmile_qr_scan", "ios": "https://dc.lft.to/lastmile_qr_scan"}, "name": "08a2944e2214a8833243d732118be3fd", "type": "electric_scooter"}, {"fusion_lat": 0.0, "bike_id": "00918e8a087a9b369881acde7480da59", "fusion_lon": 0.0, "lon": -76.99144883333334, "lat": 38.8859785, "is_reserved": 0, "is_disabled": 0, "rental_uris": {"android": "https://dc.lft.to/lastmile_qr_scan", "ios": "https://dc.lft.to/lastmile_qr_scan"}, "name": "00918e8a087a9b369881acde7480da59", "type": "electric_scooter"}, {"fusion_lat": 0.0, "bike_id": "075ccd50d58b14e1e2064eb05b9aade3", "fusion_lon": 0.0, "lon": -77.0432375, "lat": 38.90882533333333, "is_reserved": 0, "is_disabled": 0, "rental_uris": {"android": "https://dc.lft.to/lastmile_qr_scan", "ios": "https://dc.lft.to/lastmile_qr_scan"}, "name": "075ccd50d58b14e1e2064eb05b9aade3", "type": "electric_scooter"}, {"fusion_lat": 0.0, "bike_id": "d76702d14e783f8ac7c41b3d69880e59", "fusion_lon": 0.0, "lon": -77.03948466666667, "lat": 38.908175, "is_reserved": 0, "is_disabled": 0, "rental_uris": {"android": "https://dc.lft.to/lastmile_qr_scan", "ios": "https://dc.lft.to/lastmile_qr_scan"}, "name": "d76702d14e783f8ac7c41b3d69880e59", "type": "electric_scooter"}, {"fusion_lat": 0.0, "bike_id": "0e6eb15a51a20c6d052edc80c4d06058", "fusion_lon": 0.0, "lon": -77.02214466666666, "lat": 38.924685, "is_reserved": 0, "is_disabled": 0, "rental_uris": {"android": "https://dc.lft.to/lastmile_qr_scan", "ios": "https://dc.lft.to/lastmile_qr_scan"}, "name": "0e6eb15a51a20c6d052edc80c4d06058", "type": "electric_scooter"}, {"fusion_lat": 0.0, "bike_id": "06372883e42c6148b6b38321acb4d06e", "fusion_lon": 0.0, "lon": -77.067752, "lat": 38.904983, "is_reserved": 0, "is_disabled": 0, "rental_uris": {"android": "https://dc.lft.to/lastmile_qr_scan", "ios": "https://dc.lft.to/lastmile_qr_scan"}, "name": "06372883e42c6148b6b38321acb4d06e", "type": "electric_scooter"}, {"fusion_lat": 0.0, "bike_id": "ac98b99949dea7686ebb58ea0270fd9a", "fusion_lon": 0.0, "lon": -77.13098266666667, "lat": 39.024357, "is_reserved": 0, "is_disabled": 0, "rental_uris": {"android": "https://dc.lft.to/lastmile_qr_scan", "ios": "https://dc.lft.to/lastmile_qr_scan"}, "name": "ac98b99949dea7686ebb58ea0270fd9a", "type": "electric_bike"}, {"fusion_lat": 0.0, "bike_id": "5a034057da86579c4db3c4eb7e9828a9", "fusion_lon": 0.0, "lon": -77.01925366666667, "lat": 38.9221895, "is_reserved": 0, "is_disabled": 0, "rental_uris": {"android": "https://dc.lft.to/lastmile_qr_scan", "ios": "https://dc.lft.to/lastmile_qr_scan"}, "name": "5a034057da86579c4db3c4eb7e9828a9", "type": "electric_scooter"}, {"fusion_lat": 0.0, "bike_id": "7b3e16a29d3d27513604285695d8dedf", "fusion_lon": 0.0, "lon": -77.03385033333333, "lat": 38.90991733333333, "is_reserved": 0, "is_disabled": 0, "rental_uris": {"android": "https://dc.lft.to/lastmile_qr_scan", "ios": "https://dc.lft.to/lastmile_qr_scan"}, "name": "7b3e16a29d3d27513604285695d8dedf", "type": "electric_scooter"}, {"fusion_lat": 0.0, "bike_id": "056bd5f30a848167a549580057c0ef2c", "fusion_lon": 0.0, "lon": -77.03688683333333, "lat": 38.902713, "is_reserved": 0, "is_disabled": 0, "rental_uris": {"android": "https://dc.lft.to/lastmile_qr_scan", "ios": "https://dc.lft.to/lastmile_qr_scan"}, "name": "056bd5f30a848167a549580057c0ef2c", "type": "electric_scooter"}, {"fusion_lat": 0.0, "bike_id": "7d0205a79c971ecd51dfe5a278f1584c", "fusion_lon": 0.0, "lon": -76.99382866666667, "lat": 38.899038166666664, "is_reserved": 0, "is_disabled": 0, "rental_uris": {"android": "https://dc.lft.to/lastmile_qr_scan", "ios": "https://dc.lft.to/lastmile_qr_scan"}, "name": "7d0205a79c971ecd51dfe5a278f1584c", "type": "electric_scooter"}, {"fusion_lat": 0.0, "bike_id": "cfb36a0b2efa8bb7b02032715364f77a", "fusion_lon": 0.0, "lon": -77.03283616666667, "lat": 38.93764783333334, "is_reserved": 0, "is_disabled": 0, "rental_uris": {"android": "https://dc.lft.to/lastmile_qr_scan", "ios": "https://dc.lft.to/lastmile_qr_scan"}, "name": "cfb36a0b2efa8bb7b02032715364f77a", "type": "electric_scooter"}, {"fusion_lat": 0.0, "bike_id": "6c5f2804a38b7571624a765963a302a6", "fusion_lon": 0.0, "lon": -76.9852315, "lat": 38.8668655, "is_reserved": 0, "is_disabled": 0, "rental_uris": {"android": "https://dc.lft.to/lastmile_qr_scan", "ios": "https://dc.lft.to/lastmile_qr_scan"}, "name": "6c5f2804a38b7571624a765963a302a6", "type": "electric_scooter"}, {"fusion_lat": 0.0, "bike_id": "33afeeed7a84071784e55036bc5e4529", "fusion_lon": 0.0, "lon": -77.02184666666666, "lat": 38.909738, "is_reserved": 0, "is_disabled": 0, "rental_uris": {"android": "https://dc.lft.to/lastmile_qr_scan", "ios": "https://dc.lft.to/lastmile_qr_scan"}, "name": "33afeeed7a84071784e55036bc5e4529", "type": "electric_scooter"}, {"fusion_lat": 0.0, "bike_id": "cd171ca52391bd70de0853d63bd9a218", "fusion_lon": 0.0, "lon": -77.03946933333333, "lat": 38.904648, "is_reserved": 0, "is_disabled": 0, "rental_uris": {"android": "https://dc.lft.to/lastmile_qr_scan", "ios": "https://dc.lft.to/lastmile_qr_scan"}, "name": "cd171ca52391bd70de0853d63bd9a218", "type": "electric_scooter"}, {"fusion_lat": 0.0, "bike_id": "1afaca8221d2d0a4a3153b313c2c0dc5", "fusion_lon": 0.0, "lon": -76.99673533333333, "lat": 38.838327166666666, "is_reserved": 0, "is_disabled": 0, "rental_uris": {"android": "https://dc.lft.to/lastmile_qr_scan", "ios": "https://dc.lft.to/lastmile_qr_scan"}, "name": "1afaca8221d2d0a4a3153b313c2c0dc5", "type": "electric_bike"}, {"fusion_lat": 0.0, "bike_id": "dc9d3d29b92074adb7aca0dd99174ed3", "fusion_lon": 0.0, "lon": -76.97717516666667, "lat": 38.88818783333333, "is_reserved": 0, "is_disabled": 0, "rental_uris": {"android": "https://dc.lft.to/lastmile_qr_scan", "ios": "https://dc.lft.to/lastmile_qr_scan"}, "name": "dc9d3d29b92074adb7aca0dd99174ed3", "type": "electric_scooter"}, {"fusion_lat": 0.0, "bike_id": "3173b4ea9f8844bc317dee67052880a7", "fusion_lon": 0.0, "lon": -77.023474, "lat": 38.96608483333333, "is_reserved": 0, "is_disabled": 0, "rental_uris": {"android": "https://dc.lft.to/lastmile_qr_scan", "ios": "https://dc.lft.to/lastmile_qr_scan"}, "name": "3173b4ea9f8844bc317dee67052880a7", "type": "electric_scooter"}, {"fusion_lat": 0.0, "bike_id": "fc1793cf4e70af4e1cbd47f37c4af235", "fusion_lon": 0.0, "lon": -76.994584, "lat": 38.90370866666667, "is_reserved": 0, "is_disabled": 0, "rental_uris": {"android": "https://dc.lft.to/lastmile_qr_scan", "ios": "https://dc.lft.to/lastmile_qr_scan"}, "name": "fc1793cf4e70af4e1cbd47f37c4af235", "type": "electric_scooter"}, {"fusion_lat": 0.0, "bike_id": "a8362721b26897a8fa371c0bd349e2b4", "fusion_lon": 0.0, "lon": -77.0304335, "lat": 38.917060166666666, "is_reserved": 0, "is_disabled": 0, "rental_uris": {"android": "https://dc.lft.to/lastmile_qr_scan", "ios": "https://dc.lft.to/lastmile_qr_scan"}, "name": "a8362721b26897a8fa371c0bd349e2b4", "type": "electric_scooter"}, {"fusion_lat": 0.0, "bike_id": "547c42ac8c92c53fdf2734a14661e3a9", "fusion_lon": 0.0, "lon": -77.0335125, "lat": 38.9026905, "is_reserved": 0, "is_disabled": 0, "rental_uris": {"android": "https://dc.lft.to/lastmile_qr_scan", "ios": "https://dc.lft.to/lastmile_qr_scan"}, "name": "547c42ac8c92c53fdf2734a14661e3a9", "type": "electric_scooter"}, {"fusion_lat": 0.0, "bike_id": "9f5b01ba21904bb48902eb60c09aedb3", "fusion_lon": 0.0, "lon": -77.02378933333334, "lat": 38.91290733333334, "is_reserved": 0, "is_disabled": 0, "rental_uris": {"android": "https://dc.lft.to/lastmile_qr_scan", "ios": "https://dc.lft.to/lastmile_qr_scan"}, "name": "9f5b01ba21904bb48902eb60c09aedb3", "type": "electric_scooter"}, {"fusion_lat": 0.0, "bike_id": "9ed05b249095c2e7faca5b307cdea89b", "fusion_lon": 0.0, "lon": -77.0472015, "lat": 38.9032195, "is_reserved": 0, "is_disabled": 0, "rental_uris": {"android": "https://dc.lft.to/lastmile_qr_scan", "ios": "https://dc.lft.to/lastmile_qr_scan"}, "name": "9ed05b249095c2e7faca5b307cdea89b", "type": "electric_scooter"}, {"fusion_lat": 0.0, "bike_id": "75d607c1162894444e7ff56f37b1a314", "fusion_lon": 0.0, "lon": -77.02590533333333, "lat": 38.94208, "is_reserved": 0, "is_disabled": 0, "rental_uris": {"android": "https://dc.lft.to/lastmile_qr_scan", "ios": "https://dc.lft.to/lastmile_qr_scan"}, "name": "75d607c1162894444e7ff56f37b1a314", "type": "electric_scooter"}, {"fusion_lat": 0.0, "bike_id": "a5d423453a55bf54b001968cd09ddb07", "fusion_lon": 0.0, "lon": -77.03257633333334, "lat": 38.93086266666667, "is_reserved": 0, "is_disabled": 0, "rental_uris": {"android": "https://dc.lft.to/lastmile_qr_scan", "ios": "https://dc.lft.to/lastmile_qr_scan"}, "name": "a5d423453a55bf54b001968cd09ddb07", "type": "electric_scooter"}, {"fusion_lat": 0.0, "bike_id": "2f397716d66e0a5561ebd9d2584c81af", "fusion_lon": 0.0, "lon": -77.020717, "lat": 38.92406866666666, "is_reserved": 0, "is_disabled": 0, "rental_uris": {"android": "https://dc.lft.to/lastmile_qr_scan", "ios": "https://dc.lft.to/lastmile_qr_scan"}, "name": "2f397716d66e0a5561ebd9d2584c81af", "type": "electric_scooter"}, {"fusion_lat": 0.0, "bike_id": "4d85b59fd24177363e592e7a337e3b00", "fusion_lon": 0.0, "lon": -77.02829283333334, "lat": 38.887286333333336, "is_reserved": 0, "is_disabled": 0, "rental_uris": {"android": "https://dc.lft.to/lastmile_qr_scan", "ios": "https://dc.lft.to/lastmile_qr_scan"}, "name": "4d85b59fd24177363e592e7a337e3b00", "type": "electric_scooter"}, {"fusion_lat": 0.0, "bike_id": "8dca34b0e04abc223c2ce1f31f36288c", "fusion_lon": 0.0, "lon": -77.0217585, "lat": 38.89476966666667, "is_reserved": 0, "is_disabled": 0, "rental_uris": {"android": "https://dc.lft.to/lastmile_qr_scan", "ios": "https://dc.lft.to/lastmile_qr_scan"}, "name": "8dca34b0e04abc223c2ce1f31f36288c", "type": "electric_scooter"}, {"fusion_lat": 0.0, "bike_id": "5518ea8e761da4846795f578400835a9", "fusion_lon": 0.0, "lon": -77.02572, "lat": 38.89045466666666, "is_reserved": 0, "is_disabled": 0, "rental_uris": {"android": "https://dc.lft.to/lastmile_qr_scan", "ios": "https://dc.lft.to/lastmile_qr_scan"}, "name": "5518ea8e761da4846795f578400835a9", "type": "electric_scooter"}, {"fusion_lat": 0.0, "bike_id": "533c9971c39f0bc41ce30d51cc242a94", "fusion_lon": 0.0, "lon": -77.03194583333334, "lat": 38.9135645, "is_reserved": 0, "is_disabled": 0, "rental_uris": {"android": "https://dc.lft.to/lastmile_qr_scan", "ios": "https://dc.lft.to/lastmile_qr_scan"}, "name": "533c9971c39f0bc41ce30d51cc242a94", "type": "electric_scooter"}, {"fusion_lat": 0.0, "bike_id": "50081e02ea0a0acec22d6068ce3c0865", "fusion_lon": 0.0, "lon": -76.93320533333333, "lat": 38.90053016666667, "is_reserved": 0, "is_disabled": 0, "rental_uris": {"android": "https://dc.lft.to/lastmile_qr_scan", "ios": "https://dc.lft.to/lastmile_qr_scan"}, "name": "50081e02ea0a0acec22d6068ce3c0865", "type": "electric_scooter"}, {"fusion_lat": 0.0, "bike_id": "a1b96e9829f566965157ac61ea0249eb", "fusion_lon": 0.0, "lon": -77.031772, "lat": 38.90968633333333, "is_reserved": 0, "is_disabled": 0, "rental_uris": {"android": "https://dc.lft.to/lastmile_qr_scan", "ios": "https://dc.lft.to/lastmile_qr_scan"}, "name": "a1b96e9829f566965157ac61ea0249eb", "type": "electric_scooter"}, {"fusion_lat": 0.0, "bike_id": "3e0e9f720b1828ebbaf1fc148aac2cdb", "fusion_lon": 0.0, "lon": -77.04647766666666, "lat": 38.91422166666667, "is_reserved": 0, "is_disabled": 0, "rental_uris": {"android": "https://dc.lft.to/lastmile_qr_scan", "ios": "https://dc.lft.to/lastmile_qr_scan"}, "name": "3e0e9f720b1828ebbaf1fc148aac2cdb", "type": "electric_scooter"}, {"fusion_lat": 0.0, "bike_id": "0e79c29777a722d260c023c5ac6bfda5", "fusion_lon": 0.0, "lon": -77.033261, "lat": 38.901180333333336, "is_reserved": 0, "is_disabled": 0, "rental_uris": {"android": "https://dc.lft.to/lastmile_qr_scan", "ios": "https://dc.lft.to/lastmile_qr_scan"}, "name": "0e79c29777a722d260c023c5ac6bfda5", "type": "electric_scooter"}, {"fusion_lat": 0.0, "bike_id": "8efd99fa6e505c906a2d5e8c6ef1db75", "fusion_lon": 0.0, "lon": -77.02658333333333, "lat": 38.917075, "is_reserved": 0, "is_disabled": 0, "rental_uris": {"android": "https://dc.lft.to/lastmile_qr_scan", "ios": "https://dc.lft.to/lastmile_qr_scan"}, "name": "8efd99fa6e505c906a2d5e8c6ef1db75", "type": "electric_scooter"}, {"fusion_lat": 0.0, "bike_id": "9e9f773aeee1a9b800421289882680a1", "fusion_lon": 0.0, "lon": -76.99390783333334, "lat": 38.8920985, "is_reserved": 0, "is_disabled": 0, "rental_uris": {"android": "https://dc.lft.to/lastmile_qr_scan", "ios": "https://dc.lft.to/lastmile_qr_scan"}, "name": "9e9f773aeee1a9b800421289882680a1", "type": "electric_scooter"}, {"fusion_lat": 0.0, "bike_id": "de40fe1fc6bb52109903749b7e532458", "fusion_lon": 0.0, "lon": -77.02777966666666, "lat": 38.88744833333333, "is_reserved": 0, "is_disabled": 0, "rental_uris": {"android": "https://dc.lft.to/lastmile_qr_scan", "ios": "https://dc.lft.to/lastmile_qr_scan"}, "name": "de40fe1fc6bb52109903749b7e532458", "type": "electric_scooter"}, {"fusion_lat": 0.0, "bike_id": "6474fabda8f6c5634bfa3589d47b29a2", "fusion_lon": 0.0, "lon": -77.00885566666666, "lat": 38.9611755, "is_reserved": 0, "is_disabled": 0, "rental_uris": {"android": "https://dc.lft.to/lastmile_qr_scan", "ios": "https://dc.lft.to/lastmile_qr_scan"}, "name": "6474fabda8f6c5634bfa3589d47b29a2", "type": "electric_scooter"}, {"fusion_lat": 0.0, "bike_id": "c15c3b13484c0bc731424dc651dfcc05", "fusion_lon": 0.0, "lon": -77.01608133333333, "lat": 38.87691516666667, "is_reserved": 0, "is_disabled": 0, "rental_uris": {"android": "https://dc.lft.to/lastmile_qr_scan", "ios": "https://dc.lft.to/lastmile_qr_scan"}, "name": "c15c3b13484c0bc731424dc651dfcc05", "type": "electric_scooter"}, {"fusion_lat": 0.0, "bike_id": "07b5dd46a0933efa7dace435da3826c3", "fusion_lon": 0.0, "lon": -77.03276116666666, "lat": 38.8984845, "is_reserved": 0, "is_disabled": 0, "rental_uris": {"android": "https://dc.lft.to/lastmile_qr_scan", "ios": "https://dc.lft.to/lastmile_qr_scan"}, "name": "07b5dd46a0933efa7dace435da3826c3", "type": "electric_scooter"}, {"fusion_lat": 0.0, "bike_id": "8fca24839482dc075d3c7a26e8e36431", "fusion_lon": 0.0, "lon": -77.03221883333333, "lat": 38.914038833333336, "is_reserved": 0, "is_disabled": 0, "rental_uris": {"android": "https://dc.lft.to/lastmile_qr_scan", "ios": "https://dc.lft.to/lastmile_qr_scan"}, "name": "8fca24839482dc075d3c7a26e8e36431", "type": "electric_scooter"}, {"fusion_lat": 0.0, "bike_id": "5a19987b3b9774cc1baf9c54b128843e", "fusion_lon": 0.0, "lon": -76.998818, "lat": 38.92053033333333, "is_reserved": 0, "is_disabled": 0, "rental_uris": {"android": "https://dc.lft.to/lastmile_qr_scan", "ios": "https://dc.lft.to/lastmile_qr_scan"}, "name": "5a19987b3b9774cc1baf9c54b128843e", "type": "electric_scooter"}, {"fusion_lat": 0.0, "bike_id": "a1db7df714f75f72391051a49953200d", "fusion_lon": 0.0, "lon": -77.00130666666666, "lat": 38.87374333333333, "is_reserved": 0, "is_disabled": 0, "rental_uris": {"android": "https://dc.lft.to/lastmile_qr_scan", "ios": "https://dc.lft.to/lastmile_qr_scan"}, "name": "a1db7df714f75f72391051a49953200d", "type": "electric_scooter"}, {"fusion_lat": 0.0, "bike_id": "a1bb42eec0549c3e292f70baf6cb6dd3", "fusion_lon": 0.0, "lon": -76.9935155, "lat": 38.84505, "is_reserved": 0, "is_disabled": 0, "rental_uris": {"android": "https://dc.lft.to/lastmile_qr_scan", "ios": "https://dc.lft.to/lastmile_qr_scan"}, "name": "a1bb42eec0549c3e292f70baf6cb6dd3", "type": "electric_bike"}, {"fusion_lat": 0.0, "bike_id": "f34961b27dfe872f11ed68d0d1b813a4", "fusion_lon": 0.0, "lon": -77.0589595, "lat": 38.90321633333333, "is_reserved": 0, "is_disabled": 0, "rental_uris": {"android": "https://dc.lft.to/lastmile_qr_scan", "ios": "https://dc.lft.to/lastmile_qr_scan"}, "name": "f34961b27dfe872f11ed68d0d1b813a4", "type": "electric_scooter"}, {"fusion_lat": 0.0, "bike_id": "c2316125ba18c30f934ab1794344bc74", "fusion_lon": 0.0, "lon": -77.03108666666667, "lat": 38.915633666666665, "is_reserved": 0, "is_disabled": 0, "rental_uris": {"android": "https://dc.lft.to/lastmile_qr_scan", "ios": "https://dc.lft.to/lastmile_qr_scan"}, "name": "c2316125ba18c30f934ab1794344bc74", "type": "electric_scooter"}, {"fusion_lat": 0.0, "bike_id": "f1917217dcd55c152b72f930174b97a8", "fusion_lon": 0.0, "lon": -76.9836765, "lat": 38.915449833333334, "is_reserved": 0, "is_disabled": 0, "rental_uris": {"android": "https://dc.lft.to/lastmile_qr_scan", "ios": "https://dc.lft.to/lastmile_qr_scan"}, "name": "f1917217dcd55c152b72f930174b97a8", "type": "electric_scooter"}, {"fusion_lat": 0.0, "bike_id": "20bdb7759e9406dcc3634b73d7f3044e", "fusion_lon": 0.0, "lon": -77.02647383333333, "lat": 38.93864966666667, "is_reserved": 0, "is_disabled": 0, "rental_uris": {"android": "https://dc.lft.to/lastmile_qr_scan", "ios": "https://dc.lft.to/lastmile_qr_scan"}, "name": "20bdb7759e9406dcc3634b73d7f3044e", "type": "electric_scooter"}, {"fusion_lat": 0.0, "bike_id": "1af96950f107197014601133245b11d6", "fusion_lon": 0.0, "lon": -77.0816815, "lat": 38.85571266666667, "is_reserved": 0, "is_disabled": 0, "rental_uris": {"android": "https://dc.lft.to/lastmile_qr_scan", "ios": "https://dc.lft.to/lastmile_qr_scan"}, "name": "1af96950f107197014601133245b11d6", "type": "electric_bike"}, {"fusion_lat": 0.0, "bike_id": "2cc1f7207ee51730a9acdad092c090dc", "fusion_lon": 0.0, "lon": -77.05752983333333, "lat": 38.924792333333336, "is_reserved": 0, "is_disabled": 0, "rental_uris": {"android": "https://dc.lft.to/lastmile_qr_scan", "ios": "https://dc.lft.to/lastmile_qr_scan"}, "name": "2cc1f7207ee51730a9acdad092c090dc", "type": "electric_bike"}, {"fusion_lat": 0.0, "bike_id": "592b225b68acac06732e1ace7e33b828", "fusion_lon": 0.0, "lon": -77.035089, "lat": 38.92330183333333, "is_reserved": 0, "is_disabled": 0, "rental_uris": {"android": "https://dc.lft.to/lastmile_qr_scan", "ios": "https://dc.lft.to/lastmile_qr_scan"}, "name": "592b225b68acac06732e1ace7e33b828", "type": "electric_scooter"}, {"fusion_lat": 0.0, "bike_id": "5d7819f6ccdf8cd36a5a5190e0aaa327", "fusion_lon": 0.0, "lon": -77.0330935, "lat": 38.90033, "is_reserved": 0, "is_disabled": 0, "rental_uris": {"android": "https://dc.lft.to/lastmile_qr_scan", "ios": "https://dc.lft.to/lastmile_qr_scan"}, "name": "5d7819f6ccdf8cd36a5a5190e0aaa327", "type": "electric_scooter"}, {"fusion_lat": 0.0, "bike_id": "e5615ec946f0a817d70d0e3bc58fd017", "fusion_lon": 0.0, "lon": -77.057422, "lat": 38.93347983333334, "is_reserved": 0, "is_disabled": 0, "rental_uris": {"android": "https://dc.lft.to/lastmile_qr_scan", "ios": "https://dc.lft.to/lastmile_qr_scan"}, "name": "e5615ec946f0a817d70d0e3bc58fd017", "type": "electric_scooter"}, {"fusion_lat": 0.0, "bike_id": "13d3473b1832f14ee1fb88af6a5b4bb6", "fusion_lon": 0.0, "lon": -77.03536133333333, "lat": 38.9248305, "is_reserved": 0, "is_disabled": 0, "rental_uris": {"android": "https://dc.lft.to/lastmile_qr_scan", "ios": "https://dc.lft.to/lastmile_qr_scan"}, "name": "13d3473b1832f14ee1fb88af6a5b4bb6", "type": "electric_scooter"}, {"fusion_lat": 0.0, "bike_id": "d806ad1ac48d34e53d9f599c41dea8f9", "fusion_lon": 0.0, "lon": -76.99074516666667, "lat": 38.8981165, "is_reserved": 0, "is_disabled": 0, "rental_uris": {"android": "https://dc.lft.to/lastmile_qr_scan", "ios": "https://dc.lft.to/lastmile_qr_scan"}, "name": "d806ad1ac48d34e53d9f599c41dea8f9", "type": "electric_bike"}, {"fusion_lat": 0.0, "bike_id": "9af644ed4fa2dedf4a8b0aeed4609884", "fusion_lon": 0.0, "lon": -77.00379466666666, "lat": 38.876362666666665, "is_reserved": 0, "is_disabled": 0, "rental_uris": {"android": "https://dc.lft.to/lastmile_qr_scan", "ios": "https://dc.lft.to/lastmile_qr_scan"}, "name": "9af644ed4fa2dedf4a8b0aeed4609884", "type": "electric_scooter"}, {"fusion_lat": 0.0, "bike_id": "1bb3fb7f78dc408ac8217cda9946a057", "fusion_lon": 0.0, "lon": -76.9692235, "lat": 38.93031366666666, "is_reserved": 0, "is_disabled": 0, "rental_uris": {"android": "https://dc.lft.to/lastmile_qr_scan", "ios": "https://dc.lft.to/lastmile_qr_scan"}, "name": "1bb3fb7f78dc408ac8217cda9946a057", "type": "electric_scooter"}, {"fusion_lat": 0.0, "bike_id": "b480209af5463b1921ca28109ec86048", "fusion_lon": 0.0, "lon": -77.02742583333334, "lat": 38.9169645, "is_reserved": 0, "is_disabled": 0, "rental_uris": {"android": "https://dc.lft.to/lastmile_qr_scan", "ios": "https://dc.lft.to/lastmile_qr_scan"}, "name": "b480209af5463b1921ca28109ec86048", "type": "electric_scooter"},