{"data": {"bikes": [{"is_disabled": 0, "is_reserved": 0, "fusion_lat": 0.0, "lat": 38.896626, "fusion_lon": 0.0, "rental_uris": {"ios": "https://dc.lft.to/lastmile_qr_scan", "android": "https://dc.lft.to/lastmile_qr_scan"}, "lon": -77.04891766666667, "bike_id": "35e6205101cdb06827d13fe3ea8512d5", "type": "electric_scooter", "name": "35e6205101cdb06827d13fe3ea8512d5"}, {"is_disabled": 0, "is_reserved": 0, "fusion_lat": 0.0, "lat": 38.899828666666664, "fusion_lon": 0.0, "rental_uris": {"ios": "https://dc.lft.to/lastmile_qr_scan", "android": "https://dc.lft.to/lastmile_qr_scan"}, "lon": -77.009157, "bike_id": "d2c0abd26437e7d6be3f298939865a94", "type": "electric_scooter", "name": "d2c0abd26437e7d6be3f298939865a94"}, {"is_disabled": 0, "is_reserved": 0, "fusion_lat": 0.0, "lat": 38.866673, "fusion_lon": 0.0, "rental_uris": {"ios": "https://dc.lft.to/lastmile_qr_scan", "android": "https://dc.lft.to/lastmile_qr_scan"}, "lon": -77.01042283333334, "bike_id": "6faaf3a4354a714d27a85f2fcc410c51", "type": "electric_scooter", "name": "6faaf3a4354a714d27a85f2fcc410c51"}, {"is_disabled": 0, "is_reserved": 0, "fusion_lat": 0.0, "lat": 38.88521733333333, "fusion_lon": 0.0, "rental_uris": {"ios": "https://dc.lft.to/lastmile_qr_scan", "android": "https://dc.lft.to/lastmile_qr_scan"}, "lon": -76.99804283333333, "bike_id": "00bcfdc697d431b979ed6e64fe744e8a", "type": "electric_scooter", "name": "00bcfdc697d431b979ed6e64fe744e8a"}, {"is_disabled": 0, "is_reserved": 0, "fusion_lat": 0.0, "lat": 38.96529866666667, "fusion_lon": 0.0, "rental_uris": {"ios": "https://dc.lft.to/lastmile_qr_scan", "android": "https://dc.lft.to/lastmile_qr_scan"}, "lon": -77.03412033333333, "bike_id": "3241a1579d7c03dd7009338105f6d97d", "type": "electric_bike", "name": "3241a1579d7c03dd7009338105f6d97d"}, {"is_disabled": 0, "is_reserved": 0, "fusion_lat": 0.0, "lat": 38.87172966666667, "fusion_lon": 0.0, "rental_uris": {"ios": "https://dc.lft.to/lastmile_qr_scan", "android": "https://dc.lft.to/lastmile_qr_scan"}, "lon": -77.233944, "bike_id": "9489ad718a73ad2bfbc9719c80982f76", "type": "electric_bike", "name": "9489ad718a73ad2bfbc9719c80982f76"}, {"is_disabled": 0, "is_reserved": 0, "fusion_lat": 0.0, "lat": 38.90723883333333, "fusion_lon": 0.0, "rental_uris": {"ios": "https://dc.lft.to/lastmile_qr_scan", "android": "https://dc.lft.to/lastmile_qr_scan"}, "lon": -77.02535266666666, "bike_id": "0cc1b303b686421a0f703c5181486fdb", "type": "electric_scooter", "name": "0cc1b303b686421a0f703c5181486fdb"}, {"is_disabled": 0, "is_reserved": 0, "fusion_lat": 0.0, "lat": 38.900306666666665, "fusion_lon": 0.0, "rental_uris": {"ios": "https://dc.lft.to/lastmile_qr_scan", "android": "https://dc.lft.to/lastmile_qr_scan"}, "lon": -77.03373366666666, "bike_id": "65e5599bcd62096b0047a6f309db4984", "type": "electric_scooter", "name": "65e5599bcd62096b0047a6f309db4984"}, {"is_disabled": 0, "is_reserved": 0, "fusion_lat": 0.0, "lat": 38.90190666666667, "fusion_lon": 0.0, "rental_uris": {"ios": "https://dc.lft.to/lastmile_qr_scan", "android": "https://dc.lft.to/lastmile_qr_scan"}, "lon": -77.0486895, "bike_id": "2cae0fddf9dc35fc676026d2a8b98434", "type": "electric_scooter", "name": "2cae0fddf9dc35fc676026d2a8b98434"}, {"is_disabled": 0, "is_reserved": 0, "fusion_lat": 0.0, "lat": 38.80737, "fusion_lon": 0.0, "rental_uris": {"ios": "https://dc.lft.to/lastmile_qr_scan", "android": "https://dc.lft.to/lastmile_qr_scan"}, "lon": -77.09685866666666, "bike_id": "fc0c9e82c6119942171833ff74ff01df", "type": "electric_bike", "name": "fc0c9e82c6119942171833ff74ff01df"}, {"is_disabled": 0, "is_reserved": 0, "fusion_lat": 0.0, "lat": 38.932681, "fusion_lon": 0.0, "rental_uris": {"ios": "https://dc.lft.to/lastmile_qr_scan", "android": "https://dc.lft.to/lastmile_qr_scan"}, "lon": -77.03482966666667, "bike_id": "f8d1c54153ee0c8e3dff243683311746", "type": "electric_scooter", "name": "f8d1c54153ee0c8e3dff243683311746"}, {"is_disabled": 0, "is_reserved": 0, "fusion_lat": 0.0, "lat": 38.99992483333333, "fusion_lon": 0.0, "rental_uris": {"ios": "https://dc.lft.to/lastmile_qr_scan", "android": "https://dc.lft.to/lastmile_qr_scan"}, "lon": -76.9180575, "bike_id": "11201f48f6d6f572141dd9c73008947f", "type": "electric_bike", "name": "11201f48f6d6f572141dd9c73008947f"}, {"is_disabled": 0, "is_reserved": 0, "fusion_lat": 0.0, "lat": 38.91920416666667, "fusion_lon": 0.0, "rental_uris": {"ios": "https://dc.lft.to/lastmile_qr_scan", "android": "https://dc.lft.to/lastmile_qr_scan"}, "lon": -77.033131, "bike_id": "f13db5293cb50a337ddf6ea498b01f8d", "type": "electric_scooter", "name": "f13db5293cb50a337ddf6ea498b01f8d"}, {"is_disabled": 0, "is_reserved": 0, "fusion_lat": 0.0, "lat": 38.937023, "fusion_lon": 0.0, "rental_uris": {"ios": "https://dc.lft.to/lastmile_qr_scan", "android": "https://dc.lft.to/lastmile_qr_scan"}, "lon": -77.0560065, "bike_id": "7d3d92a794d441a9387fc519daea0106", "type": "electric_scooter", "name": "7d3d92a794d441a9387fc519daea0106"}, {"is_disabled": 0, "is_reserved": 0, "fusion_lat": 0.0, "lat": 38.93097216666666, "fusion_lon": 0.0, "rental_uris": {"ios": "https://dc.lft.to/lastmile_qr_scan", "android": "https://dc.lft.to/lastmile_qr_scan"}, "lon": -77.02661633333334, "bike_id": "917ddd2110fa92c3cbb41abe50267760", "type": "electric_scooter", "name": "917ddd2110fa92c3cbb41abe50267760"}, {"is_disabled": 0, "is_reserved": 0, "fusion_lat": 0.0, "lat": 38.89357966666667, "fusion_lon": 0.0, "rental_uris": {"ios": "https://dc.lft.to/lastmile_qr_scan", "android": "https://dc.lft.to/lastmile_qr_scan"}, "lon": -76.941086, "bike_id": "c0a239759e86036ca346f85c801454ca", "type": "electric_scooter", "name": "c0a239759e86036ca346f85c801454ca"}, {"is_disabled": 0, "is_reserved": 0, "fusion_lat": 0.0, "lat": 38.897066333333335, "fusion_lon": 0.0, "rental_uris": {"ios": "https://dc.lft.to/lastmile_qr_scan", "android": "https://dc.lft.to/lastmile_qr_scan"}, "lon": -77.04888833333334, "bike_id": "8615d6dc32109261c81fbbf0577d665d", "type": "electric_scooter", "name": "8615d6dc32109261c81fbbf0577d665d"}, {"is_disabled": 0, "is_reserved": 0, "fusion_lat": 0.0, "lat": 38.855138333333336, "fusion_lon": 0.0, "rental_uris": {"ios": "https://dc.lft.to/lastmile_qr_scan", "android": "https://dc.lft.to/lastmile_qr_scan"}, "lon": -76.99154033333333, "bike_id": "7b9c064bf256f894e6a9af80770dedb6", "type": "electric_scooter", "name": "7b9c064bf256f894e6a9af80770dedb6"}, {"is_disabled": 0, "is_reserved": 0, "fusion_lat": 0.0, "lat": 38.92429883333333, "fusion_lon": 0.0, "rental_uris": {"ios": "https://dc.lft.to/lastmile_qr_scan", "android": "https://dc.lft.to/lastmile_qr_scan"}, "lon": -77.02986133333333, "bike_id": "04c14200e3c6590c8a7ce0afc0f75ba6", "type": "electric_scooter", "name": "04c14200e3c6590c8a7ce0afc0f75ba6"}, {"is_disabled": 0, "is_reserved": 0, "fusion_lat": 0.0, "lat": 38.930212833333336, "fusion_lon": 0.0, "rental_uris": {"ios": "https://dc.lft.to/lastmile_qr_scan", "android": "https://dc.lft.to/lastmile_qr_scan"}, "lon": -77.03803283333333, "bike_id": "1746d6d54a3fb9d99e61679eeb6a822a", "type": "electric_scooter", "name": "1746d6d54a3fb9d99e61679eeb6a822a"}, {"is_disabled": 0, "is_reserved": 0, "fusion_lat": 0.0, "lat": 38.92219516666667, "fusion_lon": 0.0, "rental_uris": {"ios": "https://dc.lft.to/lastmile_qr_scan", "android": "https://dc.lft.to/lastmile_qr_scan"}, "lon": -77.032926, "bike_id": "536e67e32995c9edcda453decce810fb", "type": "electric_scooter", "name": "536e67e32995c9edcda453decce810fb"}, {"is_disabled": 0, "is_reserved": 0, "fusion_lat": 0.0, "lat": 38.904711, "fusion_lon": 0.0, "rental_uris": {"ios": "https://dc.lft.to/lastmile_qr_scan", "android": "https://dc.lft.to/lastmile_qr_scan"}, "lon": -76.95047733333334, "bike_id": "9b621f27ffaf5355870a976969c41b37", "type": "electric_scooter", "name": "9b621f27ffaf5355870a976969c41b37"}, {"is_disabled": 0, "is_reserved": 0, "fusion_lat": 0.0, "lat": 38.895121833333334, "fusion_lon": 0.0, "rental_uris": {"ios": "https://dc.lft.to/lastmile_qr_scan", "android": "https://dc.lft.to/lastmile_qr_scan"}, "lon": -77.02282033333333, "bike_id": "7e6b83c143fdedb420f7f85c694bf741", "type": "electric_scooter", "name": "7e6b83c143fdedb420f7f85c694bf741"}, {"is_disabled": 0, "is_reserved": 0, "fusion_lat": 0.0, "lat": 38.9206955, "fusion_lon": 0.0, "rental_uris": {"ios": "https://dc.lft.to/lastmile_qr_scan", "android": "https://dc.lft.to/lastmile_qr_scan"}, "lon": -77.02568983333333, "bike_id": "f0ef77b7f12bee37829ae4ce6ea7c662", "type": "electric_scooter", "name": "f0ef77b7f12bee37829ae4ce6ea7c662"}, {"is_disabled": 0, "is_reserved": 0, "fusion_lat": 0.0, "lat": 38.901308666666665, "fusion_lon": 0.0, "rental_uris": {"ios": "https://dc.lft.to/lastmile_qr_scan", "android": "https://dc.lft.to/lastmile_qr_scan"}, "lon": -77.03940816666666, "bike_id": "a301d939551bd04aa70119f745d5444f", "type": "electric_scooter", "name": "a301d939551bd04aa70119f745d5444f"}, {"is_disabled": 0, "is_reserved": 0, "fusion_lat": 0.0, "lat": 38.904373666666665, "fusion_lon": 0.0, "rental_uris": {"ios": "https://dc.lft.to/lastmile_qr_scan", "android": "https://dc.lft.to/lastmile_qr_scan"}, "lon": -77.0288915, "bike_id": "3aef7c7a7bdbd99d69df64a7bbc5fd2f", "type": "electric_scooter", "name": "3aef7c7a7bdbd99d69df64a7bbc5fd2f"}, {"is_disabled": 0, "is_reserved": 0, "fusion_lat": 0.0, "lat": 38.91884133333333, "fusion_lon": 0.0, "rental_uris": {"ios": "https://dc.lft.to/lastmile_qr_scan", "android": "https://dc.lft.to/lastmile_qr_scan"}, "lon": -77.034894, "bike_id": "e4fd3a734f2f4b312bfc155fc887ffe3", "type": "electric_scooter", "name": "e4fd3a734f2f4b312bfc155fc887ffe3"}, {"is_disabled": 0, "is_reserved": 0, "fusion_lat": 0.0, "lat": 38.89423933333333, "fusion_lon": 0.0, "rental_uris": {"ios": "https://dc.lft.to/lastmile_qr_scan", "android": "https://dc.lft.to/lastmile_qr_scan"}, "lon": -77.055941, "bike_id": "15fbff0e9483229a22837bafb2efaece", "type": "electric_scooter", "name": "15fbff0e9483229a22837bafb2efaece"}, {"is_disabled": 0, "is_reserved": 0, "fusion_lat": 0.0, "lat": 38.96027133333333, "fusion_lon": 0.0, "rental_uris": {"ios": "https://dc.lft.to/lastmile_qr_scan", "android": "https://dc.lft.to/lastmile_qr_scan"}, "lon": -77.03395616666667, "bike_id": "530c959d190003742313fdb67311630d", "type": "electric_bike", "name": "530c959d190003742313fdb67311630d"}, {"is_disabled": 0, "is_reserved": 0, "fusion_lat": 0.0, "lat": 38.87608266666667, "fusion_lon": 0.0, "rental_uris": {"ios": "https://dc.lft.to/lastmile_qr_scan", "android": "https://dc.lft.to/lastmile_qr_scan"}, "lon": -77.00600733333333, "bike_id": "ecaaf9d224f2c9e47a58cc682aa1574c", "type": "electric_scooter", "name": "ecaaf9d224f2c9e47a58cc682aa1574c"}, {"is_disabled": 0, "is_reserved": 0, "fusion_lat": 0.0, "lat": 38.8242545, "fusion_lon": 0.0, "rental_uris": {"ios": "https://dc.lft.to/lastmile_qr_scan", "android": "https://dc.lft.to/lastmile_qr_scan"}, "lon": -77.12040066666667, "bike_id": "866635b32154e2085c6d655d09dc885e", "type": "electric_bike", "name": "866635b32154e2085c6d655d09dc885e"}, {"is_disabled": 0, "is_reserved": 0, "fusion_lat": 0.0, "lat": 38.86567316666667, "fusion_lon": 0.0, "rental_uris": {"ios": "https://dc.lft.to/lastmile_qr_scan", "android": "https://dc.lft.to/lastmile_qr_scan"}, "lon": -76.974665, "bike_id": "aa85b556810b952bd26a726b105626b5", "type": "electric_bike", "name": "aa85b556810b952bd26a726b105626b5"}, {"is_disabled": 0, "is_reserved": 0, "fusion_lat": 0.0, "lat": 38.9294525, "fusion_lon": 0.0, "rental_uris": {"ios": "https://dc.lft.to/lastmile_qr_scan", "android": "https://dc.lft.to/lastmile_qr_scan"}, "lon": -77.05494183333333, "bike_id": "84ea060c7b3f02e2389ee707026771ac", "type": "electric_scooter", "name": "84ea060c7b3f02e2389ee707026771ac"}, {"is_disabled": 0, "is_reserved": 0, "fusion_lat": 0.0, "lat": 38.88220116666667, "fusion_lon": 0.0, "rental_uris": {"ios": "https://dc.lft.to/lastmile_qr_scan", "android": "https://dc.lft.to/lastmile_qr_scan"}, "lon": -76.99732566666667, "bike_id": "212508873f29ffb2e876ee58bab72a47", "type": "electric_scooter", "name": "212508873f29ffb2e876ee58bab72a47"}, {"is_disabled": 0, "is_reserved": 0, "fusion_lat": 0.0, "lat": 38.856364666666664, "fusion_lon": 0.0, "rental_uris": {"ios": "https://dc.lft.to/lastmile_qr_scan", "android": "https://dc.lft.to/lastmile_qr_scan"}, "lon": -77.06835766666667, "bike_id": "b2ff86753a4b5af31f62aad6518850ef", "type": "electric_bike", "name": "b2ff86753a4b5af31f62aad6518850ef"}, {"is_disabled": 0, "is_reserved": 0, "fusion_lat": 0.0, "lat": 38.9459745, "fusion_lon": 0.0, "rental_uris": {"ios": "https://dc.lft.to/lastmile_qr_scan", "android": "https://dc.lft.to/lastmile_qr_scan"}, "lon": -77.0267115, "bike_id": "98a315660361d141bf907e7bbf7f42ad", "type": "electric_scooter", "name": "98a315660361d141bf907e7bbf7f42ad"}, {"is_disabled": 0, "is_reserved": 0, "fusion_lat": 0.0, "lat": 38.898852833333336, "fusion_lon": 0.0, "rental_uris": {"ios": "https://dc.lft.to/lastmile_qr_scan", "android": "https://dc.lft.to/lastmile_qr_scan"}, "lon": -77.021689, "bike_id": "63531950e14795e746aba4e8957b9082", "type": "electric_scooter", "name": "63531950e14795e746aba4e8957b9082"}, {"is_disabled": 0, "is_reserved": 0, "fusion_lat": 0.0, "lat": 38.951840833333335, "fusion_lon": 0.0, "rental_uris": {"ios": "https://dc.lft.to/lastmile_qr_scan", "android": "https://dc.lft.to/lastmile_qr_scan"}, "lon": -77.02612633333334, "bike_id": "1396ad0ba6853a2138d4aa2066be68e2", "type": "electric_scooter", "name": "1396ad0ba6853a2138d4aa2066be68e2"}, {"is_disabled": 0, "is_reserved": 0, "fusion_lat": 0.0, "lat": 38.91519266666667, "fusion_lon": 0.0, "rental_uris": {"ios": "https://dc.lft.to/lastmile_qr_scan", "android": "https://dc.lft.to/lastmile_qr_scan"}, "lon": -76.98352783333333, "bike_id": "7cc3ffbda49e568c3fa7f0265e052ba8", "type": "electric_scooter", "name": "7cc3ffbda49e568c3fa7f0265e052ba8"}, {"is_disabled": 0, "is_reserved": 0, "fusion_lat": 0.0, "lat": 38.89851933333333, "fusion_lon": 0.0, "rental_uris": {"ios": "https://dc.lft.to/lastmile_qr_scan", "android": "https://dc.lft.to/lastmile_qr_scan"}, "lon": -76.94641666666666, "bike_id": "3999def16e640fade74f79d54e82bea7", "type": "electric_scooter", "name": "3999def16e640fade74f79d54e82bea7"}, {"is_disabled": 0, "is_reserved": 0, "fusion_lat": 0.0, "lat": 38.896815333333336, "fusion_lon": 0.0, "rental_uris": {"ios": "https://dc.lft.to/lastmile_qr_scan", "android": "https://dc.lft.to/lastmile_qr_scan"}, "lon": -77.05152633333333, "bike_id": "b8915e3d4a6149da4a59344e1ee938c6", "type": "electric_scooter", "name": "b8915e3d4a6149da4a59344e1ee938c6"}, {"is_disabled": 0, "is_reserved": 0, "fusion_lat": 0.0, "lat": 38.924841, "fusion_lon": 0.0, "rental_uris": {"ios": "https://dc.lft.to/lastmile_qr_scan", "android": "https://dc.lft.to/lastmile_qr_scan"}, "lon": -77.051021, "bike_id": "9f43c02bdd45d70e32bd3f9902206f80", "type": "electric_scooter", "name": "9f43c02bdd45d70e32bd3f9902206f80"}, {"is_disabled": 0, "is_reserved": 0, "fusion_lat": 0.0, "lat": 38.898183833333334, "fusion_lon": 0.0, "rental_uris": {"ios": "https://dc.lft.to/lastmile_qr_scan", "android": "https://dc.lft.to/lastmile_qr_scan"}, "lon": -77.00215966666667, "bike_id": "2afbd6357cc58f817c1fc3191a5d9d72", "type": "electric_scooter", "name": "2afbd6357cc58f817c1fc3191a5d9d72"}, {"is_disabled": 0, "is_reserved": 0, "fusion_lat": 0.0, "lat": 38.914024166666664, "fusion_lon": 0.0, "rental_uris": {"ios": "https://dc.lft.to/lastmile_qr_scan", "android": "https://dc.lft.to/lastmile_qr_scan"}, "lon": -77.01224533333334, "bike_id": "6a5065c39205636f9e4d049ca22671e1", "type": "electric_scooter", "name": "6a5065c39205636f9e4d049ca22671e1"}, {"is_disabled": 0, "is_reserved": 0, "fusion_lat": 0.0, "lat": 38.89829683333333, "fusion_lon": 0.0, "rental_uris": {"ios": "https://dc.lft.to/lastmile_qr_scan", "android": "https://dc.lft.to/lastmile_qr_scan"}, "lon": -76.94632416666667, "bike_id": "ce8c19f890d557d374e2e3047ff106fa", "type": "electric_scooter", "name": "ce8c19f890d557d374e2e3047ff106fa"}, {"is_disabled": 0, "is_reserved": 0, "fusion_lat": 0.0, "lat": 38.870620333333335, "fusion_lon": 0.0, "rental_uris": {"ios": "https://dc.lft.to/lastmile_qr_scan", "android": "https://dc.lft.to/lastmile_qr_scan"}, "lon": -76.979382, "bike_id": "acd1f6da306f5988258da797fa8c70ab", "type": "electric_scooter", "name": "acd1f6da306f5988258da797fa8c70ab"}, {"is_disabled": 0, "is_reserved": 0, "fusion_lat": 0.0, "lat": 38.938725, "fusion_lon": 0.0, "rental_uris": {"ios": "https://dc.lft.to/lastmile_qr_scan", "android": "https://dc.lft.to/lastmile_qr_scan"}, "lon": -77.03043233333334, "bike_id": "2e8f4eac9565550057ca3f64434c9d27", "type": "electric_scooter", "name": "2e8f4eac9565550057ca3f64434c9d27"}, {"is_disabled": 0, "is_reserved": 0, "fusion_lat": 0.0, "lat": 38.92206083333333, "fusion_lon": 0.0, "rental_uris": {"ios": "https://dc.lft.to/lastmile_qr_scan", "android": "https://dc.lft.to/lastmile_qr_scan"}, "lon": -77.03777716666667, "bike_id": "60ba86c4ea916b64cc12a0b2a5aac66c", "type": "electric_scooter", "name": "60ba86c4ea916b64cc12a0b2a5aac66c"}, {"is_disabled": 0, "is_reserved": 0, "fusion_lat": 0.0, "lat": 38.91692783333333, "fusion_lon": 0.0, "rental_uris": {"ios": "https://dc.lft.to/lastmile_qr_scan", "android": "https://dc.lft.to/lastmile_qr_scan"}, "lon": -77.02945783333334, "bike_id": "77004f9fab26c68795ea550fc42ebf14", "type": "electric_scooter", "name": "77004f9fab26c68795ea550fc42ebf14"}, {"is_disabled": 0, "is_reserved": 0, "fusion_lat": 0.0, "lat": 38.92482566666666, "fusion_lon": 0.0, "rental_uris": {"ios": "https://dc.lft.to/lastmile_qr_scan", "android": "https://dc.lft.to/lastmile_qr_scan"}, "lon": -77.02661566666667, "bike_id": "bc6d39ac0ff9088dc34562294d0d49b8", "type": "electric_scooter", "name": "bc6d39ac0ff9088dc34562294d0d49b8"}, {"is_disabled": 0, "is_reserved": 0, "fusion_lat": 0.0, "lat": 38.9353525, "fusion_lon": 0.0, "rental_uris": {"ios": "https://dc.lft.to/lastmile_qr_scan", "android": "https://dc.lft.to/lastmile_qr_scan"}, "lon": -77.0235265, "bike_id": "cb971e5cd0172b5ce69fe36489b31202", "type": "electric_scooter", "name": "cb971e5cd0172b5ce69fe36489b31202"}, {"is_disabled": 0, "is_reserved": 0, "fusion_lat": 0.0, "lat": 38.928133, "fusion_lon": 0.0, "rental_uris": {"ios": "https://dc.lft.to/lastmile_qr_scan", "android": "https://dc.lft.to/lastmile_qr_scan"}, "lon": -77.04361766666666, "bike_id": "16d9e8960247738b38d826a0e205023f", "type": "electric_scooter", "name": "16d9e8960247738b38d826a0e205023f"}, {"is_disabled": 0, "is_reserved": 0, "fusion_lat": 0.0, "lat": 38.92847066666667, "fusion_lon": 0.0, "rental_uris": {"ios": "https://dc.lft.to/lastmile_qr_scan", "android": "https://dc.lft.to/lastmile_qr_scan"}, "lon": -77.03609083333333, "bike_id": "c706dc26b74332714dd1e15af19fe7d0", "type": "electric_scooter", "name": "c706dc26b74332714dd1e15af19fe7d0"}, {"is_disabled": 0, "is_reserved": 0, "fusion_lat": 0.0, "lat": 38.941339, "fusion_lon": 0.0, "rental_uris": {"ios": "https://dc.lft.to/lastmile_qr_scan", "android": "https://dc.lft.to/lastmile_qr_scan"}, "lon": -77.023274, "bike_id": "a0371f9690a2b83df4c0fbe764b02709", "type": "electric_scooter", "name": "a0371f9690a2b83df4c0fbe764b02709"}, {"is_disabled": 0, "is_reserved": 0, "fusion_lat": 0.0, "lat": 38.884089333333336, "fusion_lon": 0.0, "rental_uris": {"ios": "https://dc.lft.to/lastmile_qr_scan", "android": "https://dc.lft.to/lastmile_qr_scan"}, "lon": -77.03008233333334, "bike_id": "3f56d35643ff2794d1a58de44e624cb0", "type": "electric_scooter", "name": "3f56d35643ff2794d1a58de44e624cb0"}, {"is_disabled": 0, "is_reserved": 0, "fusion_lat": 0.0, "lat": 38.929071666666665, "fusion_lon": 0.0, "rental_uris": {"ios": "https://dc.lft.to/lastmile_qr_scan", "android": "https://dc.lft.to/lastmile_qr_scan"}, "lon": -77.0598085, "bike_id": "3437a3c20d55cf415018716f0711bb86", "type": "electric_scooter", "name": "3437a3c20d55cf415018716f0711bb86"}, {"is_disabled": 0, "is_reserved": 0, "fusion_lat": 0.0, "lat": 38.90713366666667, "fusion_lon": 0.0, "rental_uris": {"ios": "https://dc.lft.to/lastmile_qr_scan", "android": "https://dc.lft.to/lastmile_qr_scan"}, "lon": -77.02557933333334, "bike_id": "c1aa370fde73876177698b7b7aaa6081", "type": "electric_scooter", "name": "c1aa370fde73876177698b7b7aaa6081"}, {"is_disabled": 0, "is_reserved": 0, "fusion_lat": 0.0, "lat": 38.9156105, "fusion_lon": 0.0, "rental_uris": {"ios": "https://dc.lft.to/lastmile_qr_scan", "android": "https://dc.lft.to/lastmile_qr_scan"}, "lon": -77.03631716666666, "bike_id": "55e10e7ad49ec1751d40af59b799ce2d", "type": "electric_scooter", "name": "55e10e7ad49ec1751d40af59b799ce2d"}, {"is_disabled": 0, "is_reserved": 0, "fusion_lat": 0.0, "lat": 38.918185333333334, "fusion_lon": 0.0, "rental_uris": {"ios": "https://dc.lft.to/lastmile_qr_scan", "android": "https://dc.lft.to/lastmile_qr_scan"}, "lon": -77.01207533333333, "bike_id": "6554acb5411697a24acc7d4691b0ee51", "type": "electric_scooter", "name": "6554acb5411697a24acc7d4691b0ee51"}, {"is_disabled": 0, "is_reserved": 0, "fusion_lat": 0.0, "lat": 38.92346116666667, "fusion_lon": 0.0, "rental_uris": {"ios": "https://dc.lft.to/lastmile_qr_scan", "android": "https://dc.lft.to/lastmile_qr_scan"}, "lon": -77.02443266666667, "bike_id": "f7fdf09ac2282818417227a87124889b", "type": "electric_scooter", "name": "f7fdf09ac2282818417227a87124889b"}, {"is_disabled": 0, "is_reserved": 0, "fusion_lat": 0.0, "lat": 38.91904816666667, "fusion_lon": 0.0, "rental_uris": {"ios": "https://dc.lft.to/lastmile_qr_scan", "android": "https://dc.lft.to/lastmile_qr_scan"}, "lon": -77.060025, "bike_id": "8f9cdda20d4fec141e456fcf91a225cd", "type": "electric_bike", "name": "8f9cdda20d4fec141e456fcf91a225cd"}, {"is_disabled": 0, "is_reserved": 0, "fusion_lat": 0.0, "lat": 38.874667, "fusion_lon": 0.0, "rental_uris": {"ios": "https://dc.lft.to/lastmile_qr_scan", "android": "https://dc.lft.to/lastmile_qr_scan"}, "lon": -77.005126, "bike_id": "a8ce4c643818002a8c9345333b376b61", "type": "electric_scooter", "name": "a8ce4c643818002a8c9345333b376b61"}, {"is_disabled": 0, "is_reserved": 0, "fusion_lat": 0.0, "lat": 38.89227, "fusion_lon": 0.0, "rental_uris": {"ios": "https://dc.lft.to/lastmile_qr_scan", "android": "https://dc.lft.to/lastmile_qr_scan"}, "lon": -77.02383033333334, "bike_id": "81659e21663ecdd3abfa0d907957c3af", "type": "electric_scooter", "name": "81659e21663ecdd3abfa0d907957c3af"}, {"is_disabled": 0, "is_reserved": 0, "fusion_lat": 0.0, "lat": 38.9217115, "fusion_lon": 0.0, "rental_uris": {"ios": "https://dc.lft.to/lastmile_qr_scan", "android": "https://dc.lft.to/lastmile_qr_scan"}, "lon": -77.017947, "bike_id": "875ce6254e191080bc6fc6bddc284305", "type": "electric_scooter", "name": "875ce6254e191080bc6fc6bddc284305"}, {"is_disabled": 0, "is_reserved": 0, "fusion_lat": 0.0, "lat": 38.941796333333336, "fusion_lon": 0.0, "rental_uris": {"ios": "https://dc.lft.to/lastmile_qr_scan", "android": "https://dc.lft.to/lastmile_qr_scan"}, "lon": -77.03392883333333, "bike_id": "6ffbd54bb6012961e76c83b84b8cb589", "type": "electric_scooter", "name": "6ffbd54bb6012961e76c83b84b8cb589"}, {"is_disabled": 0, "is_reserved": 0, "fusion_lat": 0.0, "lat": 38.915083333333335, "fusion_lon": 0.0, "rental_uris": {"ios": "https://dc.lft.to/lastmile_qr_scan", "android": "https://dc.lft.to/lastmile_qr_scan"}, "lon": -76.98353616666667, "bike_id": "4a8f7eeb6994d4c2827070cf16cff3cb", "type": "electric_scooter", "name": "4a8f7eeb6994d4c2827070cf16cff3cb"}, {"is_disabled": 0, "is_reserved": 0, "fusion_lat": 0.0, "lat": 38.9233985, "fusion_lon": 0.0, "rental_uris": {"ios": "https://dc.lft.to/lastmile_qr_scan", "android": "https://dc.lft.to/lastmile_qr_scan"}, "lon": -76.99871133333333, "bike_id": "0523d241fb6a6fa4d670122a2d73779b", "type": "electric_scooter", "name": "0523d241fb6a6fa4d670122a2d73779b"}, {"is_disabled": 0, "is_reserved": 0, "fusion_lat": 0.0, "lat": 38.9019105, "fusion_lon": 0.0, "rental_uris": {"ios": "https://dc.lft.to/lastmile_qr_scan", "android": "https://dc.lft.to/lastmile_qr_scan"}, "lon": -77.00214183333334, "bike_id": "c19b1d395376c4377f8360cf9f33eb14", "type": "electric_scooter", "name": "c19b1d395376c4377f8360cf9f33eb14"}, {"is_disabled": 0, "is_reserved": 0, "fusion_lat": 0.0, "lat": 38.90298333333333, "fusion_lon": 0.0, "rental_uris": {"ios": "https://dc.lft.to/lastmile_qr_scan", "android": "https://dc.lft.to/lastmile_qr_scan"}, "lon": -77.039865, "bike_id": "ccc659c8e212d32ca2551c6c3e4b37dd", "type": "electric_scooter", "name": "ccc659c8e212d32ca2551c6c3e4b37dd"}, {"is_disabled": 0, "is_reserved": 0, "fusion_lat": 0.0, "lat": 38.88873983333333, "fusion_lon": 0.0, "rental_uris": {"ios": "https://dc.lft.to/lastmile_qr_scan", "android": "https://dc.lft.to/lastmile_qr_scan"}, "lon": -76.95700383333333, "bike_id": "fb42a7b05c5b0271a7898245fd0a99aa", "type": "electric_bike", "name": "fb42a7b05c5b0271a7898245fd0a99aa"}, {"is_disabled": 0, "is_reserved": 0, "fusion_lat": 0.0, "lat": 38.873539666666666, "fusion_lon": 0.0, "rental_uris": {"ios": "https://dc.lft.to/lastmile_qr_scan", "android": "https://dc.lft.to/lastmile_qr_scan"}, "lon": -77.11869033333333, "bike_id": "6f860b4e3cfad23099e8943bbebc86db", "type": "electric_bike", "name": "6f860b4e3cfad23099e8943bbebc86db"}, {"is_disabled": 0, "is_reserved": 0, "fusion_lat": 0.0, "lat": 38.90261733333333, "fusion_lon": 0.0, "rental_uris": {"ios": "https://dc.lft.to/lastmile_qr_scan", "android": "https://dc.lft.to/lastmile_qr_scan"}, "lon": -77.00892733333333, "bike_id": "f1316b7298588798738f2310858ce9f0", "type": "electric_scooter", "name": "f1316b7298588798738f2310858ce9f0"}, {"is_disabled": 0, "is_reserved": 0, "fusion_lat": 0.0, "lat": 38.87958833333333, "fusion_lon": 0.0, "rental_uris": {"ios": "https://dc.lft.to/lastmile_qr_scan", "android": "https://dc.lft.to/lastmile_qr_scan"}, "lon": -76.93182133333333, "bike_id": "0344cfbfc8900ccd35ee93db379f7f09", "type": "electric_bike", "name": "0344cfbfc8900ccd35ee93db379f7f09"}, {"is_disabled": 0, "is_reserved": 0, "fusion_lat": 0.0, "lat": 38.90806766666667, "fusion_lon": 0.0, "rental_uris": {"ios": "https://dc.lft.to/lastmile_qr_scan", "android": "https://dc.lft.to/lastmile_qr_scan"}, "lon": -77.00611166666667, "bike_id": "aa1e2af54bd008704cada33ac6892944", "type": "electric_scooter", "name": "aa1e2af54bd008704cada33ac6892944"}, {"is_disabled": 0, "is_reserved": 0, "fusion_lat": 0.0, "lat": 38.92338783333334, "fusion_lon": 0.0, "rental_uris": {"ios": "https://dc.lft.to/lastmile_qr_scan", "android": "https://dc.lft.to/lastmile_qr_scan"}, "lon": -77.0352655, "bike_id": "0432ac5dcad9ed4efdb8ff65218a8cd1", "type": "electric_scooter", "name": "0432ac5dcad9ed4efdb8ff65218a8cd1"}, {"is_disabled": 0, "is_reserved": 0, "fusion_lat": 0.0, "lat": 38.90297866666667, "fusion_lon": 0.0, "rental_uris": {"ios": "https://dc.lft.to/lastmile_qr_scan", "android": "https://dc.lft.to/lastmile_qr_scan"}, "lon": -77.03199666666667, "bike_id": "08232e8ea817a5b7d6c43f671d1fb3b1", "type": "electric_scooter", "name": "08232e8ea817a5b7d6c43f671d1fb3b1"}, {"is_disabled": 0, "is_reserved": 0, "fusion_lat": 0.0, "lat": 38.90569983333334, "fusion_lon": 0.0, "rental_uris": {"ios": "https://dc.lft.to/lastmile_qr_scan", "android": "https://dc.lft.to/lastmile_qr_scan"}, "lon": -77.00716533333333, "bike_id": "b2f776ba58c341662ff98dc4d42aa87c", "type": "electric_scooter", "name": "b2f776ba58c341662ff98dc4d42aa87c"}, {"is_disabled": 0, "is_reserved": 0, "fusion_lat": 0.0, "lat": 38.93279316666667, "fusion_lon": 0.0, "rental_uris": {"ios": "https://dc.lft.to/lastmile_qr_scan", "android": "https://dc.lft.to/lastmile_qr_scan"}, "lon": -77.04136516666667, "bike_id": "77d3acd95142b8170a85b63525d884d5", "type": "electric_scooter", "name": "77d3acd95142b8170a85b63525d884d5"}, {"is_disabled": 0, "is_reserved": 0, "fusion_lat": 0.0, "lat": 38.923505, "fusion_lon": 0.0, "rental_uris": {"ios": "https://dc.lft.to/lastmile_qr_scan", "android": "https://dc.lft.to/lastmile_qr_scan"}, "lon": -76.97205783333334, "bike_id": "52071d285e360a5309f41d6c196a9efb", "type": "electric_scooter", "name": "52071d285e360a5309f41d6c196a9efb"}, {"is_disabled": 0, "is_reserved": 0, "fusion_lat": 0.0, "lat": 39.025174, "fusion_lon": 0.0, "rental_uris": {"ios": "https://dc.lft.to/lastmile_qr_scan", "android": "https://dc.lft.to/lastmile_qr_scan"}, "lon": -77.01968316666667, "bike_id": "cb41c6b252ec4084fd8c766e9c381789", "type": "electric_bike", "name": "cb41c6b252ec4084fd8c766e9c381789"}, {"is_disabled": 0, "is_reserved": 0, "fusion_lat": 0.0, "lat": 38.89968866666667, "fusion_lon": 0.0, "rental_uris": {"ios": "https://dc.lft.to/lastmile_qr_scan", "android": "https://dc.lft.to/lastmile_qr_scan"}, "lon": -76.92617816666667, "bike_id": "6b5027b5aba43b6604f630ec9a777093", "type": "electric_scooter", "name": "6b5027b5aba43b6604f630ec9a777093"}, {"is_disabled": 0, "is_reserved": 0, "fusion_lat": 0.0, "lat": 38.894636, "fusion_lon": 0.0, "rental_uris": {"ios": "https://dc.lft.to/lastmile_qr_scan", "android": "https://dc.lft.to/lastmile_qr_scan"}, "lon": -77.00230733333333, "bike_id": "ea6cc8893297e324eabbe10889db9aa9", "type": "electric_scooter", "name": "ea6cc8893297e324eabbe10889db9aa9"}, {"is_disabled": 0, "is_reserved": 0, "fusion_lat": 0.0, "lat": 38.953414, "fusion_lon": 0.0, "rental_uris": {"ios": "https://dc.lft.to/lastmile_qr_scan", "android": "https://dc.lft.to/lastmile_qr_scan"}, "lon": -77.08161583333333, "bike_id": "f5693bc215dc85bf036b3c6a5cde6de9", "type": "electric_scooter", "name": "f5693bc215dc85bf036b3c6a5cde6de9"}, {"is_disabled": 0, "is_reserved": 0, "fusion_lat": 0.0, "lat": 38.9218535, "fusion_lon": 0.0, "rental_uris": {"ios": "https://dc.lft.to/lastmile_qr_scan", "android": "https://dc.lft.to/lastmile_qr_scan"}, "lon": -77.04022316666666, "bike_id": "6dc4d6d5aa4758b84c66c880a65440c0", "type": "electric_scooter", "name": "6dc4d6d5aa4758b84c66c880a65440c0"}, {"is_disabled": 0, "is_reserved": 0, "fusion_lat": 0.0, "lat": 38.929971, "fusion_lon": 0.0, "rental_uris": {"ios": "https://dc.lft.to/lastmile_qr_scan", "android": "https://dc.lft.to/lastmile_qr_scan"}, "lon": -77.03798066666667, "bike_id": "6612702e795133b051221d477dd0aafc", "type": "electric_scooter", "name": "6612702e795133b051221d477dd0aafc"}, {"is_disabled": 0, "is_reserved": 0, "fusion_lat": 0.0, "lat": 38.90653066666667, "fusion_lon": 0.0, "rental_uris": {"ios": "https://dc.lft.to/lastmile_qr_scan", "android": "https://dc.lft.to/lastmile_qr_scan"}, "lon": -77.01622316666666, "bike_id": "68245c3903ccb2a9274e88d44903cf74", "type": "electric_scooter", "name": "68245c3903ccb2a9274e88d44903cf74"}, {"is_disabled": 0, "is_reserved": 0, "fusion_lat": 0.0, "lat": 39.084743333333336, "fusion_lon": 0.0, "rental_uris": {"ios": "https://dc.lft.to/lastmile_qr_scan", "android": "https://dc.lft.to/lastmile_qr_scan"}, "lon": -76.95068216666667, "bike_id": "767075ee9a90395037cbfb177ab29215", "type": "electric_bike", "name": "767075ee9a90395037cbfb177ab29215"}, {"is_disabled": 0, "is_reserved": 0, "fusion_lat": 0.0, "lat": 38.88882483333333, "fusion_lon": 0.0, "rental_uris": {"ios": "https://dc.lft.to/lastmile_qr_scan", "android": "https://dc.lft.to/lastmile_qr_scan"}, "lon": -76.99032916666667, "bike_id": "87c48e145b4a926cc2a5d7956295276f", "type": "electric_scooter", "name": "87c48e145b4a926cc2a5d7956295276f"}, {"is_disabled": 0, "is_reserved": 0, "fusion_lat": 0.0, "lat": 38.8950035, "fusion_lon": 0.0, "rental_uris": {"ios": "https://dc.lft.to/lastmile_qr_scan", "android": "https://dc.lft.to/lastmile_qr_scan"}, "lon": -76.97413116666667, "bike_id": "5f4572887f7a84f33f511b8c56c188a8", "type": "electric_scooter", "name": "5f4572887f7a84f33f511b8c56c188a8"}, {"is_disabled": 0, "is_reserved": 0, "fusion_lat": 0.0, "lat": 38.91740466666667, "fusion_lon": 0.0, "rental_uris": {"ios": "https://dc.lft.to/lastmile_qr_scan", "android": "https://dc.lft.to/lastmile_qr_scan"}, "lon": -77.01085, "bike_id": "a89745fc1ad940332c0d212828461799", "type": "electric_scooter", "name": "a89745fc1ad940332c0d212828461799"}, {"is_disabled": 0, "is_reserved": 0, "fusion_lat": 0.0, "lat": 38.936025, "fusion_lon": 0.0, "rental_uris": {"ios": "https://dc.lft.to/lastmile_qr_scan", "android": "https://dc.lft.to/lastmile_qr_scan"}, "lon": -77.05592016666667, "bike_id": "d2da554738507b449172786ff3c2e23f", "type": "electric_scooter", "name": "d2da554738507b449172786ff3c2e23f"}, {"is_disabled": 0, "is_reserved": 0, "fusion_lat": 0.0, "lat": 38.9194795, "fusion_lon": 0.0, "rental_uris": {"ios": "https://dc.lft.to/lastmile_qr_scan", "android": "https://dc.lft.to/lastmile_qr_scan"}, "lon": -77.04515583333334, "bike_id": "f2af7bce2e340fe977659ffa38289dae", "type": "electric_scooter", "name": "f2af7bce2e340fe977659ffa38289dae"}, {"is_disabled": 0, "is_reserved": 0, "fusion_lat": 0.0, "lat": 38.895118833333335, "fusion_lon": 0.0, "rental_uris": {"ios": "https://dc.lft.to/lastmile_qr_scan", "android": "https://dc.lft.to/lastmile_qr_scan"}, "lon": -77.02277083333334, "bike_id": "21e331c7b5998e8dbbcd612c1920fc4e", "type": "electric_scooter", "name": "21e331c7b5998e8dbbcd612c1920fc4e"}, {"is_disabled": 0, "is_reserved": 0, "fusion_lat": 0.0, "lat": 38.835894, "fusion_lon": 0.0, "rental_uris": {"ios": "https://dc.lft.to/lastmile_qr_scan", "android": "https://dc.lft.to/lastmile_qr_scan"}, "lon": -76.99018216666667, "bike_id": "4f6f4e0ee1652be6799084018e921710", "type": "electric_bike", "name": "4f6f4e0ee1652be6799084018e921710"}, {"is_disabled": 0, "is_reserved": 0, "fusion_lat": 0.0, "lat": 38.92215083333333, "fusion_lon": 0.0, "rental_uris": {"ios": "https://dc.lft.to/lastmile_qr_scan", "android": "https://dc.lft.to/lastmile_qr_scan"}, "lon": -77.020345, "bike_id": "5b45be74d7d8043bb116509096c30a64", "type": "electric_scooter", "name": "5b45be74d7d8043bb116509096c30a64"}, {"is_disabled": 0, "is_reserved": 0, "fusion_lat": 0.0, "lat": 38.85065266666667, "fusion_lon": 0.0, "rental_uris": {"ios": "https://dc.lft.to/lastmile_qr_scan", "android": "https://dc.lft.to/lastmile_qr_scan"}, "lon": -76.981647, "bike_id": "cae6f7da4c49524c9aa5cf84b8a6f13d", "type": "electric_bike", "name": "cae6f7da4c49524c9aa5cf84b8a6f13d"}, {"is_disabled": 0, "is_reserved": 0, "fusion_lat": 0.0, "lat": 38.9167245, "fusion_lon": 0.0, "rental_uris": {"ios": "https://dc.lft.to/lastmile_qr_scan", "android": "https://dc.lft.to/lastmile_qr_scan"}, "lon": -77.09573783333333, "bike_id": "75c2716d60108030ae0625ad1a40b292", "type": "electric_scooter", "name": "75c2716d60108030ae0625ad1a40b292"}, {"is_disabled": 0, "is_reserved": 0, "fusion_lat": 0.0, "lat": 38.9208025, "fusion_lon": 0.0, "rental_uris": {"ios": "https://dc.lft.to/lastmile_qr_scan", "android": "https://dc.lft.to/lastmile_qr_scan"}, "lon": -77.0236425, "bike_id": "43d487d68a5c3dcfec02decb32633c19", "type": "electric_scooter", "name": "43d487d68a5c3dcfec02decb32633c19"}, {"is_disabled": 0, "is_reserved": 0, "fusion_lat": 0.0, "lat": 38.939715166666666, "fusion_lon": 0.0, "rental_uris": {"ios": "https://dc.lft.to/lastmile_qr_scan", "android": "https://dc.lft.to/lastmile_qr_scan"}, "lon": -77.03428916666667, "bike_id": "0b0c5715350ed351309833dc1f434e1e", "type": "electric_scooter", "name": "0b0c5715350ed351309833dc1f434e1e"}, {"is_disabled": 0, "is_reserved": 0, "fusion_lat": 0.0, "lat": 38.920361, "fusion_lon": 0.0, "rental_uris": {"ios": "https://dc.lft.to/lastmile_qr_scan", "android": "https://dc.lft.to/lastmile_qr_scan"}, "lon": -76.9795575, "bike_id": "33080f7bb096820803cce83f0f61795d", "type": "electric_bike", "name": "33080f7bb096820803cce83f0f61795d"}, {"is_disabled": 0, "is_reserved": 0, "fusion_lat": 0.0, "lat": 38.913305, "fusion_lon": 0.0, "rental_uris": {"ios": "https://dc.lft.to/lastmile_qr_scan", "android": "https://dc.lft.to/lastmile_qr_scan"}, "lon": -77.0433295, "bike_id": "4b71460c69e224219ce784832ccc88c5", "type": "electric_scooter", "name": "4b71460c69e224219ce784832ccc88c5"}, {"is_disabled": 0, "is_reserved": 0, "fusion_lat": 0.0, "lat": 39.00373233333333, "fusion_lon": 0.0, "rental_uris": {"ios": "https://dc.lft.to/lastmile_qr_scan", "android": "https://dc.lft.to/lastmile_qr_scan"}, "lon": -77.01286833333333, "bike_id": "6128db17007c1f91c026cd03c7749cd8", "type": "electric_bike", "name": "6128db17007c1f91c026cd03c7749cd8"}, {"is_disabled": 0, "is_reserved": 0, "fusion_lat": 0.0, "lat": 38.930816666666665, "fusion_lon": 0.0, "rental_uris": {"ios": "https://dc.lft.to/lastmile_qr_scan", "android": "https://dc.lft.to/lastmile_qr_scan"}, "lon": -77.07760966666666, "bike_id": "06ebc581037204c63a39817c16ce3fec", "type": "electric_scooter", "name": "06ebc581037204c63a39817c16ce3fec"}, {"is_disabled": 0, "is_reserved": 0, "fusion_lat": 0.0, "lat": 38.925749333333336, "fusion_lon": 0.0, "rental_uris": {"ios": "https://dc.lft.to/lastmile_qr_scan", "android": "https://dc.lft.to/lastmile_qr_scan"}, "lon": -76.995018, "bike_id": "44f256eb3e8e86605b9be5491a6174ae", "type": "electric_scooter", "name": "44f256eb3e8e86605b9be5491a6174ae"}, {"is_disabled": 0, "is_reserved": 0, "fusion_lat": 0.0, "lat": 38.89227666666667, "fusion_lon": 0.0, "rental_uris": {"ios": "https://dc.lft.to/lastmile_qr_scan", "android": "https://dc.lft.to/lastmile_qr_scan"}, "lon": -77.05002116666667, "bike_id": "e6edd4bc639af3c4028edc1a7167e177", "type": "electric_scooter", "name": "e6edd4bc639af3c4028edc1a7167e177"}, {"is_disabled": 0, "is_reserved": 0, "fusion_lat": 0.0, "lat": 38.904421666666664, "fusion_lon": 0.0, "rental_uris": {"ios": "https://dc.lft.to/lastmile_qr_scan", "android": "https://dc.lft.to/lastmile_qr_scan"}, "lon": -76.97305566666667, "bike_id": "dd2a8606abd35eac62c30d16e084c5d9", "type": "electric_scooter", "name": "dd2a8606abd35eac62c30d16e084c5d9"}, {"is_disabled": 0, "is_reserved": 0, "fusion_lat": 0.0, "lat": 38.842744833333334, "fusion_lon": 0.0, "rental_uris": {"ios": "https://dc.lft.to/lastmile_qr_scan", "android": "https://dc.lft.to/lastmile_qr_scan"}, "lon": -76.98836033333333, "bike_id": "f42bfea20d4f27915b52d3989b38f391", "type": "electric_scooter", "name": "f42bfea20d4f27915b52d3989b38f391"}, {"is_disabled": 0, "is_reserved": 0, "fusion_lat": 0.0, "lat": 38.877591, "fusion_lon": 0.0, "rental_uris": {"ios": "https://dc.lft.to/lastmile_qr_scan", "android": "https://dc.lft.to/lastmile_qr_scan"}, "lon": -77.00436766666667, "bike_id": "1712292d489b2af025b3144afa0c8a47", "type": "electric_scooter", "name": "1712292d489b2af025b3144afa0c8a47"}, {"is_disabled": 0, "is_reserved": 0, "fusion_lat": 0.0, "lat": 38.919958333333334, "fusion_lon": 0.0, "rental_uris": {"ios": "https://dc.lft.to/lastmile_qr_scan", "android": "https://dc.lft.to/lastmile_qr_scan"}, "lon": -77.03221433333333, "bike_id": "d2348ed9814ee43731facfeb8c7dd6f1", "type": "electric_scooter", "name": "d2348ed9814ee43731facfeb8c7dd6f1"}, {"is_disabled": 0, "is_reserved": 0, "fusion_lat": 0.0, "lat": 38.8955405, "fusion_lon": 0.0, "rental_uris": {"ios": "https://dc.lft.to/lastmile_qr_scan", "android": "https://dc.lft.to/lastmile_qr_scan"}, "lon": -77.04660183333333, "bike_id": "8752c1d25db0702c4f0413b1e2f4545c", "type": "electric_scooter", "name": "8752c1d25db0702c4f0413b1e2f4545c"}, {"is_disabled": 0, "is_reserved": 0, "fusion_lat": 0.0, "lat": 38.9635435, "fusion_lon": 0.0, "rental_uris": {"ios": "https://dc.lft.to/lastmile_qr_scan", "android": "https://dc.lft.to/lastmile_qr_scan"}, "lon": -77.034444, "bike_id": "6206a75253e2c075a1fc339feabeb725", "type": "electric_scooter", "name": "6206a75253e2c075a1fc339feabeb725"}, {"is_disabled": 0, "is_reserved": 0, "fusion_lat": 0.0, "lat": 38.904260666666666, "fusion_lon": 0.0, "rental_uris": {"ios": "https://dc.lft.to/lastmile_qr_scan", "android": "https://dc.lft.to/lastmile_qr_scan"}, "lon": -77.06114133333334, "bike_id": "c59227aa336936dc62cde57ca8ef1677", "type": "electric_scooter", "name": "c59227aa336936dc62cde57ca8ef1677"}, {"is_disabled": 0, "is_reserved": 0, "fusion_lat": 0.0, "lat": 38.919513333333335, "fusion_lon": 0.0, "rental_uris": {"ios": "https://dc.lft.to/lastmile_qr_scan", "android": "https://dc.lft.to/lastmile_qr_scan"}, "lon": -77.02305716666666, "bike_id": "68158693d05093ca418ae8fc752d334f", "type": "electric_scooter", "name": "68158693d05093ca418ae8fc752d334f"}, {"is_disabled": 0, "is_reserved": 0, "fusion_lat": 0.0, "lat": 38.908111, "fusion_lon": 0.0, "rental_uris": {"ios": "https://dc.lft.to/lastmile_qr_scan", "android": "https://dc.lft.to/lastmile_qr_scan"}, "lon": -77.0253075, "bike_id": "6ca1d5e7ccc6a3f847804548f25dd140", "type": "electric_scooter", "name": "6ca1d5e7ccc6a3f847804548f25dd140"}, {"is_disabled": 0, "is_reserved": 0, "fusion_lat": 0.0, "lat": 38.944469166666664, "fusion_lon": 0.0, "rental_uris": {"ios": "https://dc.lft.to/lastmile_qr_scan", "android": "https://dc.lft.to/lastmile_qr_scan"}, "lon": -77.03278716666667, "bike_id": "a926000e1c1a93f8e146b7c0eec47502", "type": "electric_scooter", "name": "a926000e1c1a93f8e146b7c0eec47502"}, {"is_disabled": 0, "is_reserved": 0, "fusion_lat": 0.0, "lat": 38.906475666666665, "fusion_lon": 0.0, "rental_uris": {"ios": "https://dc.lft.to/lastmile_qr_scan", "android": "https://dc.lft.to/lastmile_qr_scan"}, "lon": -76.97941933333334, "bike_id": "2f41005398d038ec4cca506a49b6b220", "type": "electric_scooter", "name": "2f41005398d038ec4cca506a49b6b220"}, {"is_disabled": 0, "is_reserved": 0, "fusion_lat": 0.0, "lat": 38.89723766666667, "fusion_lon": 0.0, "rental_uris": {"ios": "https://dc.lft.to/lastmile_qr_scan", "android": "https://dc.lft.to/lastmile_qr_scan"}, "lon": -77.02404866666667, "bike_id": "0691a11aba3db2ecac3c935ad38e3a04", "type": "electric_scooter", "name": "0691a11aba3db2ecac3c935ad38e3a04"}, {"is_disabled": 0, "is_reserved": 0, "fusion_lat": 0.0, "lat": 38.90394366666666, "fusion_lon": 0.0, "rental_uris": {"ios": "https://dc.lft.to/lastmile_qr_scan", "android": "https://dc.lft.to/lastmile_qr_scan"}, "lon": -77.06296433333333, "bike_id": "042a030c032506d421ed86bade221287", "type": "electric_scooter", "name": "042a030c032506d421ed86bade221287"}, {"is_disabled": 0, "is_reserved": 0, "fusion_lat": 0.0, "lat": 38.909597833333336, "fusion_lon": 0.0, "rental_uris": {"ios": "https://dc.lft.to/lastmile_qr_scan", "android": "https://dc.lft.to/lastmile_qr_scan"}, "lon": -77.02279433333334, "bike_id": "efc08d674b93fcca026219ded009d662", "type": "electric_bike", "name": "efc08d674b93fcca026219ded009d662"}, {"is_disabled": 0, "is_reserved": 0, "fusion_lat": 0.0, "lat": 38.928767666666666, "fusion_lon": 0.0, "rental_uris": {"ios": "https://dc.lft.to/lastmile_qr_scan", "android": "https://dc.lft.to/lastmile_qr_scan"}, "lon": -77.0399145, "bike_id": "6cb83e6e77735e633b6507fe6eef9b24", "type": "electric_scooter", "name": "6cb83e6e77735e633b6507fe6eef9b24"}, {"is_disabled": 0, "is_reserved": 0, "fusion_lat": 0.0, "lat": 38.90504583333333, "fusion_lon": 0.0, "rental_uris": {"ios": "https://dc.lft.to/lastmile_qr_scan", "android": "https://dc.lft.to/lastmile_qr_scan"}, "lon": -77.0090285, "bike_id": "ebacfc4b804a1ad1291bdeb7b9cd796a", "type": "electric_scooter", "name": "ebacfc4b804a1ad1291bdeb7b9cd796a"}, {"is_disabled": 0, "is_reserved": 0, "fusion_lat": 0.0, "lat": 38.9223605, "fusion_lon": 0.0, "rental_uris": {"ios": "https://dc.lft.to/lastmile_qr_scan", "android": "https://dc.lft.to/lastmile_qr_scan"}, "lon": -77.03517983333333, "bike_id": "e46626730c7c717b29f6a2c9a6646079", "type": "electric_scooter", "name": "e46626730c7c717b29f6a2c9a6646079"}, {"is_disabled": 0, "is_reserved": 0, "fusion_lat": 0.0, "lat": 38.93366566666667, "fusion_lon": 0.0, "rental_uris": {"ios": "https://dc.lft.to/lastmile_qr_scan", "android": "https://dc.lft.to/lastmile_qr_scan"}, "lon": -77.028448, "bike_id": "2022e7e4ee9fa21f3020c9ec690e1f28", "type": "electric_scooter", "name": "2022e7e4ee9fa21f3020c9ec690e1f28"}, {"is_disabled": 0, "is_reserved": 0, "fusion_lat": 0.0, "lat": 38.920563333333334, "fusion_lon": 0.0, "rental_uris": {"ios": "https://dc.lft.to/lastmile_qr_scan", "android": "https://dc.lft.to/lastmile_qr_scan"}, "lon": -77.04542166666667, "bike_id": "e7d557d55079802ac17bd51e05391d3f", "type": "electric_scooter", "name": "e7d557d55079802ac17bd51e05391d3f"}, {"is_disabled": 0, "is_reserved": 0, "fusion_lat": 0.0, "lat": 38.84628566666667, "fusion_lon": 0.0, "rental_uris": {"ios": "https://dc.lft.to/lastmile_qr_scan", "android": "https://dc.lft.to/lastmile_qr_scan"}, "lon": -76.9690095, "bike_id": "3f6861c9e7be5e9cefd9d44f11718520", "type": "electric_bike", "name": "3f6861c9e7be5e9cefd9d44f11718520"}, {"is_disabled": 0, "is_reserved": 0, "fusion_lat": 0.0, "lat": 38.91039683333333, "fusion_lon": 0.0, "rental_uris": {"ios": "https://dc.lft.to/lastmile_qr_scan", "android": "https://dc.lft.to/lastmile_qr_scan"}, "lon": -77.00959883333333, "bike_id": "465d3e0eadc54c79d3ed590793fd19e4", "type": "electric_scooter", "name": "465d3e0eadc54c79d3ed590793fd19e4"}, {"is_disabled": 0, "is_reserved": 0, "fusion_lat": 0.0, "lat": 38.834908, "fusion_lon": 0.0, "rental_uris": {"ios": "https://dc.lft.to/lastmile_qr_scan", "android": "https://dc.lft.to/lastmile_qr_scan"}, "lon": -77.00436266666667, "bike_id": "81ef92ac7af9aac2aed8cb6b0ead8810", "type": "electric_bike", "name": "81ef92ac7af9aac2aed8cb6b0ead8810"}, {"is_disabled": 0, "is_reserved": 0, "fusion_lat": 0.0, "lat": 38.97475383333333, "fusion_lon": 0.0, "rental_uris": {"ios": "https://dc.lft.to/lastmile_qr_scan", "android": "https://dc.lft.to/lastmile_qr_scan"}, "lon": -76.98670083333333, "bike_id": "a783ccc11f91cc79d4e55abbe054a9dc", "type": "electric_bike", "name": "a783ccc11f91cc79d4e55abbe054a9dc"}, {"is_disabled": 0, "is_reserved": 0, "fusion_lat": 0.0, "lat": 38.9048455, "fusion_lon": 0.0, "rental_uris": {"ios": "https://dc.lft.to/lastmile_qr_scan", "android": "https://dc.lft.to/lastmile_qr_scan"}, "lon": -77.0259135, "bike_id": "09cccbc21d44a78e2edf1df9d05a4c4c", "type": "electric_scooter", "name": "09cccbc21d44a78e2edf1df9d05a4c4c"}, {"is_disabled": 0, "is_reserved": 0, "fusion_lat": 0.0, "lat": 39.02294366666667, "fusion_lon": 0.0, "rental_uris": {"ios": "https://dc.lft.to/lastmile_qr_scan", "android": "https://dc.lft.to/lastmile_qr_scan"}, "lon": -77.021054, "bike_id": "776ac63b350754bd315f425955152223", "type": "electric_bike", "name": "776ac63b350754bd315f425955152223"}, {"is_disabled": 0, "is_reserved": 0, "fusion_lat": 0.0, "lat": 38.89845583333334, "fusion_lon": 0.0, "rental_uris": {"ios": "https://dc.lft.to/lastmile_qr_scan", "android": "https://dc.lft.to/lastmile_qr_scan"}, "lon": -77.0019685, "bike_id": "423f8891bc9e1361d0cc6110ee7abd80", "type": "electric_scooter", "name": "423f8891bc9e1361d0cc6110ee7abd80"}, {"is_disabled": 0, "is_reserved": 0, "fusion_lat": 0.0, "lat": 38.927845833333336, "fusion_lon": 0.0, "rental_uris": {"ios": "https://dc.lft.to/lastmile_qr_scan", "android": "https://dc.lft.to/lastmile_qr_scan"}, "lon": -77.02963566666666, "bike_id": "6dd73f2c2e685c9e144fcfbca2953d17", "type": "electric_bike", "name": "6dd73f2c2e685c9e144fcfbca2953d17"}, {"is_disabled": 0, "is_reserved": 0, "fusion_lat": 0.0, "lat": 38.91766916666667, "fusion_lon": 0.0, "rental_uris": {"ios": "https://dc.lft.to/lastmile_qr_scan", "android": "https://dc.lft.to/lastmile_qr_scan"}, "lon": -77.0405855, "bike_id": "41787d12581938ae144da731cb616636", "type": "electric_scooter", "name": "41787d12581938ae144da731cb616636"}, {"is_disabled": 0, "is_reserved": 0, "fusion_lat": 0.0, "lat": 38.89193483333333, "fusion_lon": 0.0, "rental_uris": {"ios": "https://dc.lft.to/lastmile_qr_scan", "android": "https://dc.lft.to/lastmile_qr_scan"}, "lon": -76.9985525, "bike_id": "cae1f8402d44b27078efc3c464b144a8", "type": "electric_scooter", "name": "cae1f8402d44b27078efc3c464b144a8"}, {"is_disabled": 0, "is_reserved": 0, "fusion_lat": 0.0, "lat": 38.921821333333334, "fusion_lon": 0.0, "rental_uris": {"ios": "https://dc.lft.to/lastmile_qr_scan", "android": "https://dc.lft.to/lastmile_qr_scan"}, "lon": -76.9985525, "bike_id": "55db84097a10a9e0d67ef426003beb8b", "type": "electric_scooter", "name": "55db84097a10a9e0d67ef426003beb8b"}, {"is_disabled": 0, "is_reserved": 0, "fusion_lat": 0.0, "lat": 38.80728783333333, "fusion_lon": 0.0, "rental_uris": {"ios": "https://dc.lft.to/lastmile_qr_scan", "android": "https://dc.lft.to/lastmile_qr_scan"}, "lon": -76.9926415, "bike_id": "e3a7f8ade51a82a0b128783150144eff", "type": "electric_bike", "name": "e3a7f8ade51a82a0b128783150144eff"}, {"is_disabled": 0, "is_reserved": 0, "fusion_lat": 0.0, "lat": 38.9335355, "fusion_lon": 0.0, "rental_uris": {"ios": "https://dc.lft.to/lastmile_qr_scan", "android": "https://dc.lft.to/lastmile_qr_scan"}, "lon": -77.02563733333334, "bike_id": "66987c1d67e37e1ae076873fb6ad1f99", "type": "electric_scooter", "name": "66987c1d67e37e1ae076873fb6ad1f99"}, {"is_disabled": 0, "is_reserved": 0, "fusion_lat": 0.0, "lat": 38.89193733333333, "fusion_lon": 0.0, "rental_uris": {"ios": "https://dc.lft.to/lastmile_qr_scan", "android": "https://dc.lft.to/lastmile_qr_scan"}, "lon": -77.00296283333333, "bike_id": "49c0d2a57b4ba90e67d9b9547d64c455", "type": "electric_scooter", "name": "49c0d2a57b4ba90e67d9b9547d64c455"}, {"is_disabled": 0, "is_reserved": 0, "fusion_lat": 0.0, "lat": 38.962179666666664, "fusion_lon": 0.0, "rental_uris": {"ios": "https://dc.lft.to/lastmile_qr_scan", "android": "https://dc.lft.to/lastmile_qr_scan"}, "lon": -77.02627083333333, "bike_id": "1d2c1b40c726c85a5a5a5c558ff30157", "type": "electric_bike", "name": "1d2c1b40c726c85a5a5a5c558ff30157"}, {"is_disabled": 0, "is_reserved": 0, "fusion_lat": 0.0, "lat": 38.92443333333333, "fusion_lon": 0.0, "rental_uris": {"ios": "https://dc.lft.to/lastmile_qr_scan", "android": "https://dc.lft.to/lastmile_qr_scan"}, "lon": -77.0203645, "bike_id": "ded529b839f501a2831ffcb1f9ce2ec5", "type": "electric_scooter", "name": "ded529b839f501a2831ffcb1f9ce2ec5"}, {"is_disabled": 0, "is_reserved": 0, "fusion_lat": 0.0, "lat": 38.927469333333335, "fusion_lon": 0.0, "rental_uris": {"ios": "https://dc.lft.to/lastmile_qr_scan", "android": "https://dc.lft.to/lastmile_qr_scan"}, "lon": -77.02376366666667, "bike_id": "f190f91ecd71882d10823a9c60e20a9c", "type": "electric_scooter", "name": "f190f91ecd71882d10823a9c60e20a9c"}, {"is_disabled": 0, "is_reserved": 0, "fusion_lat": 0.0, "lat": 38.927778, "fusion_lon": 0.0, "rental_uris": {"ios": "https://dc.lft.to/lastmile_qr_scan", "android": "https://dc.lft.to/lastmile_qr_scan"}, "lon": -77.05261933333334, "bike_id": "6eb92f667b0326697fac3772ea6b1632", "type": "electric_scooter", "name": "6eb92f667b0326697fac3772ea6b1632"}, {"is_disabled": 0, "is_reserved": 0, "fusion_lat": 0.0, "lat": 38.90776233333333, "fusion_lon": 0.0, "rental_uris": {"ios": "https://dc.lft.to/lastmile_qr_scan", "android": "https://dc.lft.to/lastmile_qr_scan"}, "lon": -77.03547833333333, "bike_id": "a0b4be225d34f271af2bb18258dda569", "type": "electric_scooter", "name": "a0b4be225d34f271af2bb18258dda569"}, {"is_disabled": 0, "is_reserved": 0, "fusion_lat": 0.0, "lat": 38.8956075, "fusion_lon": 0.0, "rental_uris": {"ios": "https://dc.lft.to/lastmile_qr_scan", "android": "https://dc.lft.to/lastmile_qr_scan"}, "lon": -77.12732183333334, "bike_id": "178550486ab5dee9de8405e106a44ed6", "type": "electric_bike", "name": "178550486ab5dee9de8405e106a44ed6"}, {"is_disabled": 0, "is_reserved": 0, "fusion_lat": 0.0, "lat": 38.9217545, "fusion_lon": 0.0, "rental_uris": {"ios": "https://dc.lft.to/lastmile_qr_scan", "android": "https://dc.lft.to/lastmile_qr_scan"}, "lon": -77.01812583333333, "bike_id": "8a6e77d2ed184c7cb44d74071c47f52b", "type": "electric_scooter", "name": "8a6e77d2ed184c7cb44d74071c47f52b"}, {"is_disabled": 0, "is_reserved": 0, "fusion_lat": 0.0, "lat": 38.90498483333333, "fusion_lon": 0.0, "rental_uris": {"ios": "https://dc.lft.to/lastmile_qr_scan", "android": "https://dc.lft.to/lastmile_qr_scan"}, "lon": -77.024893, "bike_id": "552152eb86c5f708dcffb895d979ce19", "type": "electric_scooter", "name": "552152eb86c5f708dcffb895d979ce19"}, {"is_disabled": 0, "is_reserved": 0, "fusion_lat": 0.0, "lat": 38.9409745, "fusion_lon": 0.0, "rental_uris": {"ios": "https://dc.lft.to/lastmile_qr_scan", "android": "https://dc.lft.to/lastmile_qr_scan"}, "lon": -76.9562575, "bike_id": "7fe639b9d06e2255d8254ce6e047bdec", "type": "electric_bike", "name": "7fe639b9d06e2255d8254ce6e047bdec"}, {"is_disabled": 0, "is_reserved": 0, "fusion_lat": 0.0, "lat": 38.915856, "fusion_lon": 0.0, "rental_uris": {"ios": "https://dc.lft.to/lastmile_qr_scan", "android": "https://dc.lft.to/lastmile_qr_scan"}, "lon": -76.977221, "bike_id": "30f9af4722b3b6439238f1c0e590ae9a", "type": "electric_scooter", "name": "30f9af4722b3b6439238f1c0e590ae9a"}, {"is_disabled": 0, "is_reserved": 0, "fusion_lat": 0.0, "lat": 38.9065555, "fusion_lon": 0.0, "rental_uris": {"ios": "https://dc.lft.to/lastmile_qr_scan", "android": "https://dc.lft.to/lastmile_qr_scan"}, "lon": -77.05317133333334, "bike_id": "3485303854cb4bf559b63496c9b34caf", "type": "electric_scooter", "name": "3485303854cb4bf559b63496c9b34caf"}, {"is_disabled": 0, "is_reserved": 0, "fusion_lat": 0.0, "lat": 38.923458833333335, "fusion_lon": 0.0, "rental_uris": {"ios": "https://dc.lft.to/lastmile_qr_scan", "android": "https://dc.lft.to/lastmile_qr_scan"}, "lon": -77.03520316666666, "bike_id": "c2bed9a78ac8543fc56d2ed4c7064927", "type": "electric_scooter", "name": "c2bed9a78ac8543fc56d2ed4c7064927"}, {"is_disabled": 0, "is_reserved": 0, "fusion_lat": 0.0, "lat": 38.96772466666667, "fusion_lon": 0.0, "rental_uris": {"ios": "https://dc.lft.to/lastmile_qr_scan", "android": "https://dc.lft.to/lastmile_qr_scan"}, "lon": -77.0342655, "bike_id": "bc7d3134822e347b2a564c6eb5185f04", "type": "electric_scooter", "name": "bc7d3134822e347b2a564c6eb5185f04"}, {"is_disabled": 0, "is_reserved": 0, "fusion_lat": 0.0, "lat": 38.901656, "fusion_lon": 0.0, "rental_uris": {"ios": "https://dc.lft.to/lastmile_qr_scan", "android": "https://dc.lft.to/lastmile_qr_scan"}, "lon": -77.025097, "bike_id": "4318a7db2a119885f8dae0ed8e9c5843", "type": "electric_scooter", "name": "4318a7db2a119885f8dae0ed8e9c5843"}, {"is_disabled": 0, "is_reserved": 0, "fusion_lat": 0.0, "lat": 38.9271575, "fusion_lon": 0.0, "rental_uris": {"ios": "https://dc.lft.to/lastmile_qr_scan", "android": "https://dc.lft.to/lastmile_qr_scan"}, "lon": -77.03530233333333, "bike_id": "ef356947326c6883166f02babfe1981b", "type": "electric_scooter", "name": "ef356947326c6883166f02babfe1981b"}, {"is_disabled": 0, "is_reserved": 0, "fusion_lat": 0.0, "lat": 38.902573, "fusion_lon": 0.0, "rental_uris": {"ios": "https://dc.lft.to/lastmile_qr_scan", "android": "https://dc.lft.to/lastmile_qr_scan"}, "lon": -76.92845216666667, "bike_id": "bda67fc65dd1ab393b7927cca3497d72", "type": "electric_scooter", "name": "bda67fc65dd1ab393b7927cca3497d72"}, {"is_disabled": 0, "is_reserved": 0, "fusion_lat": 0.0, "lat": 38.92862983333333, "fusion_lon": 0.0, "rental_uris": {"ios": "https://dc.lft.to/lastmile_qr_scan", "android": "https://dc.lft.to/lastmile_qr_scan"}, "lon": -77.07895133333334, "bike_id": "070c0a94ffabd8a2938fe012e819ba85", "type": "electric_scooter", "name": "070c0a94ffabd8a2938fe012e819ba85"}, {"is_disabled": 0, "is_reserved": 0, "fusion_lat": 0.0, "lat": 38.863665833333336, "fusion_lon": 0.0, "rental_uris": {"ios": "https://dc.lft.to/lastmile_qr_scan", "android": "https://dc.lft.to/lastmile_qr_scan"}, "lon": -76.97007366666666, "bike_id": "25638a3ac8b4e7d5ffcf0cb3a78226b8", "type": "electric_bike", "name": "25638a3ac8b4e7d5ffcf0cb3a78226b8"}, {"is_disabled": 0, "is_reserved": 0, "fusion_lat": 0.0, "lat": 38.8924435, "fusion_lon": 0.0, "rental_uris": {"ios": "https://dc.lft.to/lastmile_qr_scan", "android": "https://dc.lft.to/lastmile_qr_scan"}, "lon": -77.03958416666667, "bike_id": "c7317be4262f0e13a8b4c65f766f2ecf", "type": "electric_scooter", "name": "c7317be4262f0e13a8b4c65f766f2ecf"}, {"is_disabled": 0, "is_reserved": 0, "fusion_lat": 0.0, "lat": 38.876596666666664, "fusion_lon": 0.0, "rental_uris": {"ios": "https://dc.lft.to/lastmile_qr_scan", "android": "https://dc.lft.to/lastmile_qr_scan"}, "lon": -77.00883133333333, "bike_id": "b985c6a8f1124f1c5921d3aebd525ec2", "type": "electric_scooter", "name": "b985c6a8f1124f1c5921d3aebd525ec2"}, {"is_disabled": 0, "is_reserved": 0, "fusion_lat": 0.0, "lat": 38.9062405, "fusion_lon": 0.0, "rental_uris": {"ios": "https://dc.lft.to/lastmile_qr_scan", "android": "https://dc.lft.to/lastmile_qr_scan"}, "lon": -77.0298125, "bike_id": "0d011c0fc6d79c5ab4b03eb41d9d0e59", "type": "electric_scooter", "name": "0d011c0fc6d79c5ab4b03eb41d9d0e59"}, {"is_disabled": 0, "is_reserved": 0, "fusion_lat": 0.0, "lat": 38.883591333333335, "fusion_lon": 0.0, "rental_uris": {"ios": "https://dc.lft.to/lastmile_qr_scan", "android": "https://dc.lft.to/lastmile_qr_scan"}, "lon": -76.92792483333334, "bike_id": "36acf89d0431e58b6c56679f69ef1626", "type": "electric_scooter", "name": "36acf89d0431e58b6c56679f69ef1626"}, {"is_disabled": 0, "is_reserved": 0, "fusion_lat": 0.0, "lat": 38.9337375, "fusion_lon": 0.0, "rental_uris": {"ios": "https://dc.lft.to/lastmile_qr_scan", "android": "https://dc.lft.to/lastmile_qr_scan"}, "lon": -77.02724666666667, "bike_id": "cea62be9729b0b50fd0836bcb13de125", "type": "electric_scooter", "name": "cea62be9729b0b50fd0836bcb13de125"}, {"is_disabled": 0, "is_reserved": 0, "fusion_lat": 0.0, "lat": 38.906106, "fusion_lon": 0.0, "rental_uris": {"ios": "https://dc.lft.to/lastmile_qr_scan", "android": "https://dc.lft.to/lastmile_qr_scan"}, "lon": -77.0564955, "bike_id": "2a9d12cfac3dee5be301f0e6ad55aa53", "type": "electric_scooter", "name": "2a9d12cfac3dee5be301f0e6ad55aa53"}, {"is_disabled": 0, "is_reserved": 0, "fusion_lat": 0.0, "lat": 38.93447166666667, "fusion_lon": 0.0, "rental_uris": {"ios": "https://dc.lft.to/lastmile_qr_scan", "android": "https://dc.lft.to/lastmile_qr_scan"}, "lon": -77.029792, "bike_id": "cab6110ae5604f62eaace8a83c56c83a", "type": "electric_scooter", "name": "cab6110ae5604f62eaace8a83c56c83a"}, {"is_disabled": 0, "is_reserved": 0, "fusion_lat": 0.0, "lat": 38.90034683333333, "fusion_lon": 0.0, "rental_uris": {"ios": "https://dc.lft.to/lastmile_qr_scan", "android": "https://dc.lft.to/lastmile_qr_scan"}, "lon": -77.00377916666666, "bike_id": "88d1945bfb23db64037e5511a41eddaf", "type": "electric_scooter", "name": "88d1945bfb23db64037e5511a41eddaf"}, {"is_disabled": 0, "is_reserved": 0, "fusion_lat": 0.0, "lat": 38.9027065, "fusion_lon": 0.0, "rental_uris": {"ios": "https://dc.lft.to/lastmile_qr_scan", "android": "https://dc.lft.to/lastmile_qr_scan"}, "lon": -77.0115885, "bike_id": "bddff1d40d7ff56f092430e89bcceb8b", "type": "electric_scooter", "name": "bddff1d40d7ff56f092430e89bcceb8b"}, {"is_disabled": 0, "is_reserved": 0, "fusion_lat": 0.0, "lat": 38.933561833333336, "fusion_lon": 0.0, "rental_uris": {"ios": "https://dc.lft.to/lastmile_qr_scan", "android": "https://dc.lft.to/lastmile_qr_scan"}, "lon": -77.0264355, "bike_id": "9583552540ab3992c1e725a567a4713e", "type": "electric_scooter", "name": "9583552540ab3992c1e725a567a4713e"}, {"is_disabled": 0, "is_reserved": 0, "fusion_lat": 0.0, "lat": 38.919713, "fusion_lon": 0.0, "rental_uris": {"ios": "https://dc.lft.to/lastmile_qr_scan", "android": "https://dc.lft.to/lastmile_qr_scan"}, "lon": -77.00209433333333, "bike_id": "a69134b5d082d7379621788dc6fb696a", "type": "electric_scooter", "name": "a69134b5d082d7379621788dc6fb696a"}, {"is_disabled": 0, "is_reserved": 0, "fusion_lat": 0.0, "lat": 38.90609333333333, "fusion_lon": 0.0, "rental_uris": {"ios": "https://dc.lft.to/lastmile_qr_scan", "android": "https://dc.lft.to/lastmile_qr_scan"}, "lon": -77.12902783333334, "bike_id": "9eb1821084519da5ede4f3f29d2d47a4", "type": "electric_bike", "name": "9eb1821084519da5ede4f3f29d2d47a4"}, {"is_disabled": 0, "is_reserved": 0, "fusion_lat": 0.0, "lat": 38.921019, "fusion_lon": 0.0, "rental_uris": {"ios": "https://dc.lft.to/lastmile_qr_scan", "android": "https://dc.lft.to/lastmile_qr_scan"}, "lon": -77.04688716666666, "bike_id": "2e66c9679f4a59536de8701b29c3a6e3", "type": "electric_scooter", "name": "2e66c9679f4a59536de8701b29c3a6e3"}, {"is_disabled": 0, "is_reserved": 0, "fusion_lat": 0.0, "lat": 38.911661, "fusion_lon": 0.0, "rental_uris": {"ios": "https://dc.lft.to/lastmile_qr_scan", "android": "https://dc.lft.to/lastmile_qr_scan"}, "lon": -77.02830233333333, "bike_id": "488c15bb5e5141d98992157e47585b9d", "type": "electric_scooter", "name": "488c15bb5e5141d98992157e47585b9d"}, {"is_disabled": 0, "is_reserved": 0, "fusion_lat": 0.0, "lat": 38.956305, "fusion_lon": 0.0, "rental_uris": {"ios": "https://dc.lft.to/lastmile_qr_scan", "android": "https://dc.lft.to/lastmile_qr_scan"}, "lon": -77.03627683333333, "bike_id": "7f9a270daf5d6c833fb1efd77761702d", "type": "electric_scooter", "name": "7f9a270daf5d6c833fb1efd77761702d"}, {"is_disabled": 0, "is_reserved": 0, "fusion_lat": 0.0, "lat": 38.9334175, "fusion_lon": 0.0, "rental_uris": {"ios": "https://dc.lft.to/lastmile_qr_scan", "android": "https://dc.lft.to/lastmile_qr_scan"}, "lon": -77.01936066666667, "bike_id": "d5cd65165fd05ddcfed416c56cdfc12c", "type": "electric_scooter", "name": "d5cd65165fd05ddcfed416c56cdfc12c"}, {"is_disabled": 0, "is_reserved": 0, "fusion_lat": 0.0, "lat": 38.917292833333335, "fusion_lon": 0.0, "rental_uris": {"ios": "https://dc.lft.to/lastmile_qr_scan", "android": "https://dc.lft.to/lastmile_qr_scan"}, "lon": -77.02606683333333, "bike_id": "03ec80e88284b28b43eac9fa3ca4fcf7", "type": "electric_scooter", "name": "03ec80e88284b28b43eac9fa3ca4fcf7"}, {"is_disabled": 0, "is_reserved": 0, "fusion_lat": 0.0, "lat": 38.927272, "fusion_lon": 0.0, "rental_uris": {"ios": "https://dc.lft.to/lastmile_qr_scan", "android": "https://dc.lft.to/lastmile_qr_scan"}, "lon": -77.02272866666667, "bike_id": "5bf8fa29e7e61ab9acc6802a2d51141b", "type": "electric_scooter", "name": "5bf8fa29e7e61ab9acc6802a2d51141b"}, {"is_disabled": 0, "is_reserved": 0, "fusion_lat": 0.0, "lat": 38.932357833333334, "fusion_lon": 0.0, "rental_uris": {"ios": "https://dc.lft.to/lastmile_qr_scan", "android": "https://dc.lft.to/lastmile_qr_scan"}, "lon": -77.0202645, "bike_id": "2caff7d47aea05462d5836c0055d29df", "type": "electric_scooter", "name": "2caff7d47aea05462d5836c0055d29df"}, {"is_disabled": 0, "is_reserved": 0, "fusion_lat": 0.0, "lat": 38.89085033333333, "fusion_lon": 0.0, "rental_uris": {"ios": "https://dc.lft.to/lastmile_qr_scan", "android": "https://dc.lft.to/lastmile_qr_scan"}, "lon": -76.95467866666667, "bike_id": "49f34a292ff354b8468d8c579b6517f8", "type": "electric_bike", "name": "49f34a292ff354b8468d8c579b6517f8"}, {"is_disabled": 0, "is_reserved": 0, "fusion_lat": 0.0, "lat": 38.9190575, "fusion_lon": 0.0, "rental_uris": {"ios": "https://dc.lft.to/lastmile_qr_scan", "android": "https://dc.lft.to/lastmile_qr_scan"}, "lon": -77.034445, "bike_id": "a66f19c209573f1a16f90e9cf97a9422", "type": "electric_scooter", "name": "a66f19c209573f1a16f90e9cf97a9422"}, {"is_disabled": 0, "is_reserved": 0, "fusion_lat": 0.0, "lat": 38.93054433333333, "fusion_lon": 0.0, "rental_uris": {"ios": "https://dc.lft.to/lastmile_qr_scan", "android": "https://dc.lft.to/lastmile_qr_scan"}, "lon": -76.97326466666667, "bike_id": "0327873aa558bd6e825fc866ee316c00", "type": "electric_scooter", "name": "0327873aa558bd6e825fc866ee316c00"}, {"is_disabled": 0, "is_reserved": 0, "fusion_lat": 0.0, "lat": 38.92594783333333, "fusion_lon": 0.0, "rental_uris": {"ios": "https://dc.lft.to/lastmile_qr_scan", "android": "https://dc.lft.to/lastmile_qr_scan"}, "lon": -77.02495133333333, "bike_id": "606ef7e98fdd522ab2437f4fbc9ac4c3", "type": "electric_scooter", "name": "606ef7e98fdd522ab2437f4fbc9ac4c3"}, {"is_disabled": 0, "is_reserved": 0, "fusion_lat": 0.0, "lat": 38.925662833333334, "fusion_lon": 0.0, "rental_uris": {"ios": "https://dc.lft.to/lastmile_qr_scan", "android": "https://dc.lft.to/lastmile_qr_scan"}, "lon": -77.0377695, "bike_id": "b917894255b7b0255e8ca4ef95c9d80f", "type": "electric_scooter", "name": "b917894255b7b0255e8ca4ef95c9d80f"}, {"is_disabled": 0, "is_reserved": 0, "fusion_lat": 0.0, "lat": 38.89279633333334, "fusion_lon": 0.0, "rental_uris": {"ios": "https://dc.lft.to/lastmile_qr_scan", "android": "https://dc.lft.to/lastmile_qr_scan"}, "lon": -77.0419165, "bike_id": "88817605e5fe4a4cad49cb69f378df7e", "type": "electric_scooter", "name": "88817605e5fe4a4cad49cb69f378df7e"}, {"is_disabled": 0, "is_reserved": 0, "fusion_lat": 0.0, "lat": 38.91548866666667, "fusion_lon": 0.0, "rental_uris": {"ios": "https://dc.lft.to/lastmile_qr_scan", "android": "https://dc.lft.to/lastmile_qr_scan"}, "lon": -77.050992, "bike_id": "32f6a39b1fc81c311f7f542683866546", "type": "electric_scooter", "name": "32f6a39b1fc81c311f7f542683866546"}, {"is_disabled": 0, "is_reserved": 0, "fusion_lat": 0.0, "lat": 38.915977833333336, "fusion_lon": 0.0, "rental_uris": {"ios": "https://dc.lft.to/lastmile_qr_scan", "android": "https://dc.lft.to/lastmile_qr_scan"}, "lon": -77.04350416666666, "bike_id": "a83ecc0c03368a6c553cb5aa8f1256e8", "type": "electric_scooter", "name": "a83ecc0c03368a6c553cb5aa8f1256e8"}, {"is_disabled": 0, "is_reserved": 0, "fusion_lat": 0.0, "lat": 38.846712, "fusion_lon": 0.0, "rental_uris": {"ios": "https://dc.lft.to/lastmile_qr_scan", "android": "https://dc.lft.to/lastmile_qr_scan"}, "lon": -77.139327, "bike_id": "cd1734034d26851a2e3696458e841005", "type": "electric_bike", "name": "cd1734034d26851a2e3696458e841005"}, {"is_disabled": 0, "is_reserved": 0, "fusion_lat": 0.0, "lat": 38.879192, "fusion_lon": 0.0, "rental_uris": {"ios": "https://dc.lft.to/lastmile_qr_scan", "android": "https://dc.lft.to/lastmile_qr_scan"}, "lon": -77.00527566666666, "bike_id": "7934355cd9613fd28e592e77e3ae7ad2", "type": "electric_scooter", "name": "7934355cd9613fd28e592e77e3ae7ad2"}, {"is_disabled": 0, "is_reserved": 0, "fusion_lat": 0.0, "lat": 38.9306325, "fusion_lon": 0.0, "rental_uris": {"ios": "https://dc.lft.to/lastmile_qr_scan", "android": "https://dc.lft.to/lastmile_qr_scan"}, "lon": -77.04214816666666, "bike_id": "25ce86de36cb097bbdd7ec5b90b384ab", "type": "electric_scooter", "name": "25ce86de36cb097bbdd7ec5b90b384ab"}, {"is_disabled": 0, "is_reserved": 0, "fusion_lat": 0.0, "lat": 38.92478533333333, "fusion_lon": 0.0, "rental_uris": {"ios": "https://dc.lft.to/lastmile_qr_scan", "android": "https://dc.lft.to/lastmile_qr_scan"}, "lon": -77.028398, "bike_id": "28570bc73684be87a3e2874fe4ed0fb0", "type": "electric_scooter", "name": "28570bc73684be87a3e2874fe4ed0fb0"}, {"is_disabled": 0, "is_reserved": 0, "fusion_lat": 0.0, "lat": 38.897485833333334, "fusion_lon": 0.0, "rental_uris": {"ios": "https://dc.lft.to/lastmile_qr_scan", "android": "https://dc.lft.to/lastmile_qr_scan"}, "lon": -77.048104, "bike_id": "f317833cfc159372b31ae89b141d81b7", "type": "electric_scooter", "name": "f317833cfc159372b31ae89b141d81b7"}, {"is_disabled": 0, "is_reserved": 0, "fusion_lat": 0.0, "lat": 38.93241616666667, "fusion_lon": 0.0, "rental_uris": {"ios": "https://dc.lft.to/lastmile_qr_scan", "android": "https://dc.lft.to/lastmile_qr_scan"}, "lon": -77.03410416666667, "bike_id": "1ef6b6d3bd8cb194db14315689e97c81", "type": "electric_scooter", "name": "1ef6b6d3bd8cb194db14315689e97c81"}, {"is_disabled": 0, "is_reserved": 0, "fusion_lat": 0.0, "lat": 38.950929, "fusion_lon": 0.0, "rental_uris": {"ios": "https://dc.lft.to/lastmile_qr_scan", "android": "https://dc.lft.to/lastmile_qr_scan"}, "lon": -77.01906883333334, "bike_id": "602e6ddedfcc8a82bfb751ea3f7a2dea", "type": "electric_scooter", "name": "602e6ddedfcc8a82bfb751ea3f7a2dea"}, {"is_disabled": 0, "is_reserved": 0, "fusion_lat": 0.0, "lat": 38.90660716666667, "fusion_lon": 0.0, "rental_uris": {"ios": "https://dc.lft.to/lastmile_qr_scan", "android": "https://dc.lft.to/lastmile_qr_scan"}, "lon": -76.98598716666666, "bike_id": "cc6853bb900a9c0bd6e4a7ed31ac0472", "type": "electric_scooter", "name": "cc6853bb900a9c0bd6e4a7ed31ac0472"}, {"is_disabled": 0, "is_reserved": 0, "fusion_lat": 0.0, "lat": 38.90540283333333, "fusion_lon": 0.0, "rental_uris": {"ios": "https://dc.lft.to/lastmile_qr_scan", "android": "https://dc.lft.to/lastmile_qr_scan"}, "lon": -77.05696583333334, "bike_id": "fc81a54c086ead9aea00909baaae1eef", "type": "electric_scooter", "name": "fc81a54c086ead9aea00909baaae1eef"}, {"is_disabled": 0, "is_reserved": 0, "fusion_lat": 0.0, "lat": 38.94034083333333, "fusion_lon": 0.0, "rental_uris": {"ios": "https://dc.lft.to/lastmile_qr_scan", "android": "https://dc.lft.to/lastmile_qr_scan"}, "lon": -77.02523266666667, "bike_id": "65f4faad4d34d7c936ee9aa48f58ca19", "type": "electric_scooter", "name": "65f4faad4d34d7c936ee9aa48f58ca19"}, {"is_disabled": 0, "is_reserved": 0, "fusion_lat": 0.0, "lat": 38.9134685, "fusion_lon": 0.0, "rental_uris": {"ios": "https://dc.lft.to/lastmile_qr_scan", "android": "https://dc.lft.to/lastmile_qr_scan"}, "lon": -77.04410283333333, "bike_id": "a6f230555122bbf14d886175f7c6d4e4", "type": "electric_scooter", "name": "a6f230555122bbf14d886175f7c6d4e4"}, {"is_disabled": 0, "is_reserved": 0, "fusion_lat": 0.0, "lat": 38.923741, "fusion_lon": 0.0, "rental_uris": {"ios": "https://dc.lft.to/lastmile_qr_scan", "android": "https://dc.lft.to/lastmile_qr_scan"}, "lon": -77.02031683333334, "bike_id": "479d09d6032e043df64ac55d61ec6b60", "type": "electric_scooter", "name": "479d09d6032e043df64ac55d61ec6b60"}, {"is_disabled": 0, "is_reserved": 0, "fusion_lat": 0.0, "lat": 38.90716183333333, "fusion_lon": 0.0, "rental_uris": {"ios": "https://dc.lft.to/lastmile_qr_scan", "android": "https://dc.lft.to/lastmile_qr_scan"}, "lon": -77.04805766666666, "bike_id": "09c66b57cbc233d01fb42bae2f5aa222", "type": "electric_scooter", "name": "09c66b57cbc233d01fb42bae2f5aa222"}, {"is_disabled": 0, "is_reserved": 0, "fusion_lat": 0.0, "lat": 38.91923, "fusion_lon": 0.0, "rental_uris": {"ios": "https://dc.lft.to/lastmile_qr_scan", "android": "https://dc.lft.to/lastmile_qr_scan"}, "lon": -77.0097455, "bike_id": "96b6100465c00f3c4a7b8480010d46c9", "type": "electric_scooter", "name": "96b6100465c00f3c4a7b8480010d46c9"}, {"is_disabled": 0, "is_reserved": 0, "fusion_lat": 0.0, "lat": 38.88762583333333, "fusion_lon": 0.0, "rental_uris": {"ios": "https://dc.lft.to/lastmile_qr_scan", "android": "https://dc.lft.to/lastmile_qr_scan"}, "lon": -77.03329933333333, "bike_id": "38e3a092e1ba28888ab6047e4727fc40", "type": "electric_scooter", "name": "38e3a092e1ba28888ab6047e4727fc40"}, {"is_disabled": 0, "is_reserved": 0, "fusion_lat": 0.0, "lat": 38.92130733333333, "fusion_lon": 0.0, "rental_uris": {"ios": "https://dc.lft.to/lastmile_qr_scan", "android": "https://dc.lft.to/lastmile_qr_scan"}, "lon": -77.00401016666666, "bike_id": "8e5f254b5756090965d4b37d5ffb3f6e", "type": "electric_scooter", "name": "8e5f254b5756090965d4b37d5ffb3f6e"}, {"is_disabled": 0, "is_reserved": 0, "fusion_lat": 0.0, "lat": 38.96121433333333, "fusion_lon": 0.0, "rental_uris": {"ios": "https://dc.lft.to/lastmile_qr_scan", "android": "https://dc.lft.to/lastmile_qr_scan"}, "lon": -77.0327545, "bike_id": "a5f53348bed912fc285c2376e09a9d18", "type": "electric_bike", "name": "a5f53348bed912fc285c2376e09a9d18"}, {"is_disabled": 0, "is_reserved": 0, "fusion_lat": 0.0, "lat": 38.92803683333333, "fusion_lon": 0.0, "rental_uris": {"ios": "https://dc.lft.to/lastmile_qr_scan", "android": "https://dc.lft.to/lastmile_qr_scan"}, "lon": -77.04348, "bike_id": "7054d5f4617f909d83f1c99dab5322b3", "type": "electric_scooter", "name": "7054d5f4617f909d83f1c99dab5322b3"}, {"is_disabled": 0, "is_reserved": 0, "fusion_lat": 0.0, "lat": 38.90064533333333, "fusion_lon": 0.0, "rental_uris": {"ios": "https://dc.lft.to/lastmile_qr_scan", "android": "https://dc.lft.to/lastmile_qr_scan"}, "lon": -76.94979583333334, "bike_id": "dba1860c5b2b35448c5a9060708990e0", "type": "electric_scooter", "name": "dba1860c5b2b35448c5a9060708990e0"}, {"is_disabled": 0, "is_reserved": 0, "fusion_lat": 0.0, "lat": 38.925081166666665, "fusion_lon": 0.0, "rental_uris": {"ios": "https://dc.lft.to/lastmile_qr_scan", "android": "https://dc.lft.to/lastmile_qr_scan"}, "lon": -77.0244215, "bike_id": "cdd3c579e6f9724d0ab6ea6fb6a0a405", "type": "electric_scooter", "name": "cdd3c579e6f9724d0ab6ea6fb6a0a405"}, {"is_disabled": 0, "is_reserved": 0, "fusion_lat": 0.0, "lat": 38.9524335, "fusion_lon": 0.0, "rental_uris": {"ios": "https://dc.lft.to/lastmile_qr_scan", "android": "https://dc.lft.to/lastmile_qr_scan"}, "lon": -76.98251883333333, "bike_id": "d0f649529834f9f33856e05655846a25", "type": "electric_bike", "name": "d0f649529834f9f33856e05655846a25"}, {"is_disabled": 0, "is_reserved": 0, "fusion_lat": 0.0, "lat": 38.92131666666667, "fusion_lon": 0.0, "rental_uris": {"ios": "https://dc.lft.to/lastmile_qr_scan", "android": "https://dc.lft.to/lastmile_qr_scan"}, "lon": -76.99383716666667, "bike_id": "c264d1b4473e8c08c3104f3c2f11b211", "type": "electric_scooter", "name": "c264d1b4473e8c08c3104f3c2f11b211"}, {"is_disabled": 0, "is_reserved": 0, "fusion_lat": 0.0, "lat": 38.92793366666667, "fusion_lon": 0.0, "rental_uris": {"ios": "https://dc.lft.to/lastmile_qr_scan", "android": "https://dc.lft.to/lastmile_qr_scan"}, "lon": -77.02127983333334, "bike_id": "621850938e3a55f3a56f7a07d46d7b1d", "type": "electric_scooter", "name": "621850938e3a55f3a56f7a07d46d7b1d"}, {"is_disabled": 0, "is_reserved": 0, "fusion_lat": 0.0, "lat": 38.80478983333333, "fusion_lon": 0.0, "rental_uris": {"ios": "https://dc.lft.to/lastmile_qr_scan", "android": "https://dc.lft.to/lastmile_qr_scan"}, "lon": -76.99103866666667, "bike_id": "160e5387a75de51fb9641e6401296808", "type": "electric_bike", "name": "160e5387a75de51fb9641e6401296808"}, {"is_disabled": 0, "is_reserved": 0, "fusion_lat": 0.0, "lat": 38.91554083333333, "fusion_lon": 0.0, "rental_uris": {"ios": "https://dc.lft.to/lastmile_qr_scan", "android": "https://dc.lft.to/lastmile_qr_scan"}, "lon": -77.023354, "bike_id": "08134254cfccdebf0a7928c11ddc78be", "type": "electric_scooter", "name": "08134254cfccdebf0a7928c11ddc78be"}, {"is_disabled": 0, "is_reserved": 0, "fusion_lat": 0.0, "lat": 39.00095366666667, "fusion_lon": 0.0, "rental_uris": {"ios": "https://dc.lft.to/lastmile_qr_scan", "android": "https://dc.lft.to/lastmile_qr_scan"}, "lon": -76.9098435, "bike_id": "fbb5e6cddb45fb864df98bba848c437d", "type": "electric_bike", "name": "fbb5e6cddb45fb864df98bba848c437d"}, {"is_disabled": 0, "is_reserved": 0, "fusion_lat": 0.0, "lat": 38.932089166666664, "fusion_lon": 0.0, "rental_uris": {"ios": "https://dc.lft.to/lastmile_qr_scan", "android": "https://dc.lft.to/lastmile_qr_scan"}, "lon": -77.0228755, "bike_id": "17c8ea69aa8583e48faad1a903152f58", "type": "electric_scooter", "name": "17c8ea69aa8583e48faad1a903152f58"}, {"is_disabled": 0, "is_reserved": 0, "fusion_lat": 0.0, "lat": 38.902290666666666, "fusion_lon": 0.0, "rental_uris": {"ios": "https://dc.lft.to/lastmile_qr_scan", "android": "https://dc.lft.to/lastmile_qr_scan"}, "lon": -77.06071383333334, "bike_id": "202db9b888cc84b247c043af953a3c5f", "type": "electric_scooter", "name": "202db9b888cc84b247c043af953a3c5f"}, {"is_disabled": 0, "is_reserved": 0, "fusion_lat": 0.0, "lat": 38.9307155, "fusion_lon": 0.0, "rental_uris": {"ios": "https://dc.lft.to/lastmile_qr_scan", "android": "https://dc.lft.to/lastmile_qr_scan"}, "lon": -77.0319995, "bike_id": "fb6e2666c45e1624fa507842f9f26265", "type": "electric_scooter", "name": "fb6e2666c45e1624fa507842f9f26265"}, {"is_disabled": 0, "is_reserved": 0, "fusion_lat": 0.0, "lat": 38.892379166666665, "fusion_lon": 0.0, "rental_uris": {"ios": "https://dc.lft.to/lastmile_qr_scan", "android": "https://dc.lft.to/lastmile_qr_scan"}, "lon": -77.03956283333333, "bike_id": "afed5c7abb178a6a6d365a74bf38cdc5", "type": "electric_scooter", "name": "afed5c7abb178a6a6d365a74bf38cdc5"}, {"is_disabled": 0, "is_reserved": 0, "fusion_lat": 0.0, "lat": 38.92529483333333, "fusion_lon": 0.0, "rental_uris": {"ios": "https://dc.lft.to/lastmile_qr_scan", "android": "https://dc.lft.to/lastmile_qr_scan"}, "lon": -77.026177, "bike_id": "73cb86f19d16d988056e8f1b103a7895", "type": "electric_bike", "name": "73cb86f19d16d988056e8f1b103a7895"}, {"is_disabled": 0, "is_reserved": 0, "fusion_lat": 0.0, "lat": 38.913348166666665, "fusion_lon": 0.0, "rental_uris": {"ios": "https://dc.lft.to/lastmile_qr_scan", "android": "https://dc.lft.to/lastmile_qr_scan"}, "lon": -77.01659883333333, "bike_id": "07ccb86baf24f1657340abdaf2f832ad", "type": "electric_scooter", "name": "07ccb86baf24f1657340abdaf2f832ad"}, {"is_disabled": 0, "is_reserved": 0, "fusion_lat": 0.0, "lat": 38.89764133333333, "fusion_lon": 0.0, "rental_uris": {"ios": "https://dc.lft.to/lastmile_qr_scan", "android": "https://dc.lft.to/lastmile_qr_scan"}, "lon": -77.02724666666667, "bike_id": "8cd1816c2ac6769956145ec3abf84319", "type": "electric_scooter", "name": "8cd1816c2ac6769956145ec3abf84319"}, {"is_disabled": 0, "is_reserved": 0, "fusion_lat": 0.0, "lat": 38.93062, "fusion_lon": 0.0, "rental_uris": {"ios": "https://dc.lft.to/lastmile_qr_scan", "android": "https://dc.lft.to/lastmile_qr_scan"}, "lon": -77.040296, "bike_id": "3280eaae3a6b7e3e51f48fa6c76e65ad", "type": "electric_scooter", "name": "3280eaae3a6b7e3e51f48fa6c76e65ad"}, {"is_disabled": 0, "is_reserved": 0, "fusion_lat": 0.0, "lat": 38.925511666666665, "fusion_lon": 0.0, "rental_uris": {"ios": "https://dc.lft.to/lastmile_qr_scan", "android": "https://dc.lft.to/lastmile_qr_scan"}, "lon": -77.003217, "bike_id": "8b88496925f44b5f03de13b7be8d0971", "type": "electric_scooter", "name": "8b88496925f44b5f03de13b7be8d0971"}, {"is_disabled": 0, "is_reserved": 0, "fusion_lat": 0.0, "lat": 38.936571666666666, "fusion_lon": 0.0, "rental_uris": {"ios": "https://dc.lft.to/lastmile_qr_scan", "android": "https://dc.lft.to/lastmile_qr_scan"}, "lon": -77.06606216666667, "bike_id": "0a0b8e1153d54da9efc555bb66616149", "type": "electric_scooter", "name": "0a0b8e1153d54da9efc555bb66616149"}, {"is_disabled": 0, "is_reserved": 0, "fusion_lat": 0.0, "lat": 38.877789166666666, "fusion_lon": 0.0, "rental_uris": {"ios": "https://dc.lft.to/lastmile_qr_scan", "android": "https://dc.lft.to/lastmile_qr_scan"}, "lon": -77.00126033333333, "bike_id": "8d12d4891b8f2806675143cdce39da97", "type": "electric_scooter", "name": "8d12d4891b8f2806675143cdce39da97"}, {"is_disabled": 0, "is_reserved": 0, "fusion_lat": 0.0, "lat": 38.93118033333333, "fusion_lon": 0.0, "rental_uris": {"ios": "https://dc.lft.to/lastmile_qr_scan", "android": "https://dc.lft.to/lastmile_qr_scan"}, "lon": -77.02070183333333, "bike_id": "0fc1c55313fa745eb898b9c981790384", "type": "electric_scooter", "name": "0fc1c55313fa745eb898b9c981790384"}, {"is_disabled": 0, "is_reserved": 0, "fusion_lat": 0.0, "lat": 38.919325666666666, "fusion_lon": 0.0, "rental_uris": {"ios": "https://dc.lft.to/lastmile_qr_scan", "android": "https://dc.lft.to/lastmile_qr_scan"}, "lon": -77.04494116666666, "bike_id": "f423930536e7a289a39919c729f3afa0", "type": "electric_scooter", "name": "f423930536e7a289a39919c729f3afa0"}, {"is_disabled": 0, "is_reserved": 0, "fusion_lat": 0.0, "lat": 38.916339, "fusion_lon": 0.0, "rental_uris": {"ios": "https://dc.lft.to/lastmile_qr_scan", "android": "https://dc.lft.to/lastmile_qr_scan"}, "lon": -77.0085005, "bike_id": "062e6592bd48fbc743231ee0519a7aa0", "type": "electric_scooter", "name": "062e6592bd48fbc743231ee0519a7aa0"}, {"is_disabled": 0, "is_reserved": 0, "fusion_lat": 0.0, "lat": 38.90536816666667, "fusion_lon": 0.0, "rental_uris": {"ios": "https://dc.lft.to/lastmile_qr_scan", "android": "https://dc.lft.to/lastmile_qr_scan"}, "lon": -77.0048145, "bike_id": "9e1637bdb01872558ccbe40b239137ad", "type": "electric_scooter", "name": "9e1637bdb01872558ccbe40b239137ad"}, {"is_disabled": 0, "is_reserved": 0, "fusion_lat": 0.0, "lat": 38.878611166666666, "fusion_lon": 0.0, "rental_uris": {"ios": "https://dc.lft.to/lastmile_qr_scan", "android": "https://dc.lft.to/lastmile_qr_scan"}, "lon": -77.005518, "bike_id": "ef043cb01e5728ef638275ebaf3c6bcd", "type": "electric_scooter", "name": "ef043cb01e5728ef638275ebaf3c6bcd"}, {"is_disabled": 0, "is_reserved": 0, "fusion_lat": 0.0, "lat": 38.9084345, "fusion_lon": 0.0, "rental_uris": {"ios": "https://dc.lft.to/lastmile_qr_scan", "android": "https://dc.lft.to/lastmile_qr_scan"}, "lon": -76.9344685, "bike_id": "62087cfad516c4eb26b5724c13a55114", "type": "electric_scooter", "name": "62087cfad516c4eb26b5724c13a55114"}, {"is_disabled": 0, "is_reserved": 0, "fusion_lat": 0.0, "lat": 38.90365166666667, "fusion_lon": 0.0, "rental_uris": {"ios": "https://dc.lft.to/lastmile_qr_scan", "android": "https://dc.lft.to/lastmile_qr_scan"}, "lon": -77.0193245, "bike_id": "ccc364e8f63e513884a0701c988e69b1", "type": "electric_scooter", "name": "ccc364e8f63e513884a0701c988e69b1"}, {"is_disabled": 0, "is_reserved": 0, "fusion_lat": 0.0, "lat": 38.96796483333333, "fusion_lon": 0.0, "rental_uris": {"ios": "https://dc.lft.to/lastmile_qr_scan", "android": "https://dc.lft.to/lastmile_qr_scan"}, "lon": -77.02432366666666, "bike_id": "8a879129c183fbfcfea079a0c29c8eab", "type": "electric_scooter", "name": "8a879129c183fbfcfea079a0c29c8eab"}, {"is_disabled": 0, "is_reserved": 0, "fusion_lat": 0.0, "lat": 38.9449535, "fusion_lon": 0.0, "rental_uris": {"ios": "https://dc.lft.to/lastmile_qr_scan", "android": "https://dc.lft.to/lastmile_qr_scan"}, "lon": -77.00736166666667, "bike_id": "af512118ddb399f1df01df24a781c88d", "type": "electric_bike", "name": "af512118ddb399f1df01df24a781c88d"}, {"is_disabled": 0, "is_reserved": 0, "fusion_lat": 0.0, "lat": 38.90854216666666, "fusion_lon": 0.0, "rental_uris": {"ios": "https://dc.lft.to/lastmile_qr_scan", "android": "https://dc.lft.to/lastmile_qr_scan"}, "lon": -77.00408883333333, "bike_id": "9690230333e54e7537ea92ce62b995d1", "type": "electric_scooter", "name": "9690230333e54e7537ea92ce62b995d1"}, {"is_disabled": 0, "is_reserved": 0, "fusion_lat": 0.0, "lat": 38.80523133333333, "fusion_lon": 0.0, "rental_uris": {"ios": "https://dc.lft.to/lastmile_qr_scan", "android": "https://dc.lft.to/lastmile_qr_scan"}, "lon": -77.04337083333333, "bike_id": "7edc6b06ac73b5bbb53d6c1d464d43bb", "type": "electric_bike", "name": "7edc6b06ac73b5bbb53d6c1d464d43bb"}, {"is_disabled": 0, "is_reserved": 0, "fusion_lat": 0.0, "lat": 38.965493, "fusion_lon": 0.0, "rental_uris": {"ios": "https://dc.lft.to/lastmile_qr_scan", "android": "https://dc.lft.to/lastmile_qr_scan"}, "lon": -77.01625316666667, "bike_id": "c51a8420737e21cc7e8bb26f91851cef", "type": "electric_bike", "name": "c51a8420737e21cc7e8bb26f91851cef"}, {"is_disabled": 0, "is_reserved": 0, "fusion_lat": 0.0, "lat": 38.8895695, "fusion_lon": 0.0, "rental_uris": {"ios": "https://dc.lft.to/lastmile_qr_scan", "android": "https://dc.lft.to/lastmile_qr_scan"}, "lon": -77.07593333333334, "bike_id": "50414e16ecf90eb73a95801e84408e23", "type": "electric_bike", "name": "50414e16ecf90eb73a95801e84408e23"}, {"is_disabled": 0, "is_reserved": 0, "fusion_lat": 0.0, "lat": 38.89742183333333, "fusion_lon": 0.0, "rental_uris": {"ios": "https://dc.lft.to/lastmile_qr_scan", "android": "https://dc.lft.to/lastmile_qr_scan"}, "lon": -77.0333985, "bike_id": "4a074efff38eb5f2b907ce638f5c9e4b", "type": "electric_scooter", "name": "4a074efff38eb5f2b907ce638f5c9e4b"}, {"is_disabled": 0, "is_reserved": 0, "fusion_lat": 0.0, "lat": 38.96477866666667, "fusion_lon": 0.0, "rental_uris": {"ios": "https://dc.lft.to/lastmile_qr_scan", "android": "https://dc.lft.to/lastmile_qr_scan"}, "lon": -77.0316585, "bike_id": "c11ca8fef1679b222a1c397f67b39b00", "type": "electric_bike", "name": "c11ca8fef1679b222a1c397f67b39b00"}, {"is_disabled": 0, "is_reserved": 0, "fusion_lat": 0.0, "lat": 38.95588433333333, "fusion_lon": 0.0, "rental_uris": {"ios": "https://dc.lft.to/lastmile_qr_scan", "android": "https://dc.lft.to/lastmile_qr_scan"}, "lon": -77.02804933333333, "bike_id": "cbeab0e127a44a6064533f2d804ec79e", "type": "electric_scooter", "name": "cbeab0e127a44a6064533f2d804ec79e"}, {"is_disabled": 0, "is_reserved": 0, "fusion_lat": 0.0, "lat": 38.885413166666666, "fusion_lon": 0.0, "rental_uris": {"ios": "https://dc.lft.to/lastmile_qr_scan", "android": "https://dc.lft.to/lastmile_qr_scan"}, "lon": -76.9236885, "bike_id": "80a63f38ab2250e18c6209cbf3747d80", "type": "electric_scooter", "name": "80a63f38ab2250e18c6209cbf3747d80"}, {"is_disabled": 0, "is_reserved": 0, "fusion_lat": 0.0, "lat": 38.913339, "fusion_lon": 0.0, "rental_uris": {"ios": "https://dc.lft.to/lastmile_qr_scan", "android": "https://dc.lft.to/lastmile_qr_scan"}, "lon": -77.0162395, "bike_id": "983a3c69742a3889e40c7eeff9e3b178", "type": "electric_scooter", "name": "983a3c69742a3889e40c7eeff9e3b178"}, {"is_disabled": 0, "is_reserved": 0, "fusion_lat": 0.0, "lat": 38.89423566666667, "fusion_lon": 0.0, "rental_uris": {"ios": "https://dc.lft.to/lastmile_qr_scan", "android": "https://dc.lft.to/lastmile_qr_scan"}, "lon": -77.01084216666666, "bike_id": "30814163ed0b23588c75fbe38d0df945", "type": "electric_scooter", "name": "30814163ed0b23588c75fbe38d0df945"}, {"is_disabled": 0, "is_reserved": 0, "fusion_lat": 0.0, "lat": 38.88530316666667, "fusion_lon": 0.0, "rental_uris": {"ios": "https://dc.lft.to/lastmile_qr_scan", "android": "https://dc.lft.to/lastmile_qr_scan"}, "lon": -76.980529, "bike_id": "937ccf083b51b4400a2aa54a2752cfe6", "type": "electric_scooter", "name": "937ccf083b51b4400a2aa54a2752cfe6"}, {"is_disabled": 0, "is_reserved": 0, "fusion_lat": 0.0, "lat": 38.9220295, "fusion_lon": 0.0, "rental_uris": {"ios": "https://dc.lft.to/lastmile_qr_scan", "android": "https://dc.lft.to/lastmile_qr_scan"}, "lon": -77.08196716666667, "bike_id": "4126075e180ac1603d664b0c2e0917ba", "type": "electric_bike", "name": "4126075e180ac1603d664b0c2e0917ba"}, {"is_disabled": 0, "is_reserved": 0, "fusion_lat": 0.0, "lat": 38.9568695, "fusion_lon": 0.0, "rental_uris": {"ios": "https://dc.lft.to/lastmile_qr_scan", "android": "https://dc.lft.to/lastmile_qr_scan"}, "lon": -77.02229183333333, "bike_id": "3e4fc87e3ddb6874ffb4109f5cf77214", "type": "electric_scooter", "name": "3e4fc87e3ddb6874ffb4109f5cf77214"}, {"is_disabled": 0, "is_reserved": 0, "fusion_lat": 0.0, "lat": 38.95753583333333, "fusion_lon": 0.0, "rental_uris": {"ios": "https://dc.lft.to/lastmile_qr_scan", "android": "https://dc.lft.to/lastmile_qr_scan"}, "lon": -77.02211116666666, "bike_id": "e3cd1f28522cc378d93319eb76cb5541", "type": "electric_scooter", "name": "e3cd1f28522cc378d93319eb76cb5541"}, {"is_disabled": 0, "is_reserved": 0, "fusion_lat": 0.0, "lat": 38.874992, "fusion_lon": 0.0, "rental_uris": {"ios": "https://dc.lft.to/lastmile_qr_scan", "android": "https://dc.lft.to/lastmile_qr_scan"}, "lon": -77.00077566666667, "bike_id": "e61d6b7ce4319ad51b043a788afd0b53", "type": "electric_scooter", "name": "e61d6b7ce4319ad51b043a788afd0b53"}, {"is_disabled": 0, "is_reserved": 0, "fusion_lat": 0.0, "lat": 38.896234, "fusion_lon": 0.0, "rental_uris": {"ios": "https://dc.lft.to/lastmile_qr_scan", "android": "https://dc.lft.to/lastmile_qr_scan"}, "lon": -76.907507, "bike_id": "518ed50e81401bdaafb9e9efa5e13d73", "type": "electric_bike", "name": "518ed50e81401bdaafb9e9efa5e13d73"}, {"is_disabled": 0, "is_reserved": 0, "fusion_lat": 0.0, "lat": 38.92288516666667, "fusion_lon": 0.0, "rental_uris": {"ios": "https://dc.lft.to/lastmile_qr_scan", "android": "https://dc.lft.to/lastmile_qr_scan"}, "lon": -77.02975933333333, "bike_id": "e7786662f3edff88e1777c705e311062", "type": "electric_scooter", "name": "e7786662f3edff88e1777c705e311062"}, {"is_disabled": 0, "is_reserved": 0, "fusion_lat": 0.0, "lat": 38.919488, "fusion_lon": 0.0, "rental_uris": {"ios": "https://dc.lft.to/lastmile_qr_scan", "android": "https://dc.lft.to/lastmile_qr_scan"}, "lon": -77.01379883333334, "bike_id": "bdf7853fd72d97ca6dedfe8274538190", "type": "electric_scooter", "name": "bdf7853fd72d97ca6dedfe8274538190"}, {"is_disabled": 0, "is_reserved": 0, "fusion_lat": 0.0, "lat": 38.9472065, "fusion_lon": 0.0, "rental_uris": {"ios": "https://dc.lft.to/lastmile_qr_scan", "android": "https://dc.lft.to/lastmile_qr_scan"}, "lon": -77.02353600000001, "bike_id": "dfd1af86640111920b83d7535645018a", "type": "electric_scooter", "name": "dfd1af86640111920b83d7535645018a"}, {"is_disabled": 0, "is_reserved": 0, "fusion_lat": 0.0, "lat": 38.91327533333333, "fusion_lon": 0.0, "rental_uris": {"ios": "https://dc.lft.to/lastmile_qr_scan", "android": "https://dc.lft.to/lastmile_qr_scan"}, "lon": -77.0312435, "bike_id": "58a2df3023e8ed8e00a183c093fa31b9", "type": "electric_scooter", "name": "58a2df3023e8ed8e00a183c093fa31b9"}, {"is_disabled": 0, "is_reserved": 0, "fusion_lat": 0.0, "lat": 38.92067483333334, "fusion_lon": 0.0, "rental_uris": {"ios": "https://dc.lft.to/lastmile_qr_scan", "android": "https://dc.lft.to/lastmile_qr_scan"}, "lon": -77.02362516666666, "bike_id": "9806f2ade9fc675c6a7b0436d5d59f56", "type": "electric_scooter", "name": "9806f2ade9fc675c6a7b0436d5d59f56"}, {"is_disabled": 0, "is_reserved": 0, "fusion_lat": 0.0, "lat": 38.91193483333333, "fusion_lon": 0.0, "rental_uris": {"ios": "https://dc.lft.to/lastmile_qr_scan", "android": "https://dc.lft.to/lastmile_qr_scan"}, "lon": -77.00221366666666, "bike_id": "160f9f8673c67120715a6ec104c5b11f", "type": "electric_scooter", "name": "160f9f8673c67120715a6ec104c5b11f"}, {"is_disabled": 0, "is_reserved": 0, "fusion_lat": 0.0, "lat": 38.91902266666666, "fusion_lon": 0.0, "rental_uris": {"ios": "https://dc.lft.to/lastmile_qr_scan", "android": "https://dc.lft.to/lastmile_qr_scan"}, "lon": -77.03447433333334, "bike_id": "55932a33345471c00b7ad7e71f57dda6", "type": "electric_scooter", "name": "55932a33345471c00b7ad7e71f57dda6"}, {"is_disabled": 0, "is_reserved": 0, "fusion_lat": 0.0, "lat": 38.90397083333333, "fusion_lon": 0.0, "rental_uris": {"ios": "https://dc.lft.to/lastmile_qr_scan", "android": "https://dc.lft.to/lastmile_qr_scan"}, "lon": -77.0247785, "bike_id": "e75f4820a629e3e748d4645c712ddcd3", "type": "electric_scooter", "name": "e75f4820a629e3e748d4645c712ddcd3"}, {"is_disabled": 0, "is_reserved": 0, "fusion_lat": 0.0, "lat": 38.92049933333333, "fusion_lon": 0.0, "rental_uris": {"ios": "https://dc.lft.to/lastmile_qr_scan", "android": "https://dc.lft.to/lastmile_qr_scan"}, "lon": -77.03380033333333, "bike_id": "238caf7644a24aa3af417e07cb2aae90", "type": "electric_scooter", "name": "238caf7644a24aa3af417e07cb2aae90"}, {"is_disabled": 0, "is_reserved": 0, "fusion_lat": 0.0, "lat": 38.92419316666667, "fusion_lon": 0.0, "rental_uris": {"ios": "https://dc.lft.to/lastmile_qr_scan", "android": "https://dc.lft.to/lastmile_qr_scan"}, "lon": -77.0229765, "bike_id": "57b8e21ef542edf7373fa4924dec60dd", "type": "electric_scooter", "name": "57b8e21ef542edf7373fa4924dec60dd"}, {"is_disabled": 0, "is_reserved": 0, "fusion_lat": 0.0, "lat": 38.90404216666667, "fusion_lon": 0.0, "rental_uris": {"ios": "https://dc.lft.to/lastmile_qr_scan", "android": "https://dc.lft.to/lastmile_qr_scan"}, "lon": -77.0166615, "bike_id": "7eb32e99fc19c8e800cfae5c14a8b495", "type": "electric_scooter", "name": "7eb32e99fc19c8e800cfae5c14a8b495"}, {"is_disabled": 0, "is_reserved": 0, "fusion_lat": 0.0, "lat": 38.9181505, "fusion_lon": 0.0, "rental_uris": {"ios": "https://dc.lft.to/lastmile_qr_scan", "android": "https://dc.lft.to/lastmile_qr_scan"}, "lon": -77.02528016666666, "bike_id": "c4d36b53dbe8ec5dd329042294de2b1f", "type": "electric_scooter", "name": "c4d36b53dbe8ec5dd329042294de2b1f"}, {"is_disabled": 0, "is_reserved": 0, "fusion_lat": 0.0, "lat": 38.925840666666666, "fusion_lon": 0.0, "rental_uris": {"ios": "https://dc.lft.to/lastmile_qr_scan", "android": "https://dc.lft.to/lastmile_qr_scan"}, "lon": -77.02494266666666, "bike_id": "639970d0c8d1ac59cd99fac1f7b290d5", "type": "electric_scooter", "name": "639970d0c8d1ac59cd99fac1f7b290d5"}, {"is_disabled": 0, "is_reserved": 0, "fusion_lat": 0.0, "lat": 38.926528, "fusion_lon": 0.0, "rental_uris": {"ios": "https://dc.lft.to/lastmile_qr_scan", "android": "https://dc.lft.to/lastmile_qr_scan"}, "lon": -77.02433633333334, "bike_id": "52324b597321ed8d960014ee4b68d918", "type": "electric_scooter", "name": "52324b597321ed8d960014ee4b68d918"}, {"is_disabled": 0, "is_reserved": 0, "fusion_lat": 0.0, "lat": 38.90500883333333, "fusion_lon": 0.0, "rental_uris": {"ios": "https://dc.lft.to/lastmile_qr_scan", "android": "https://dc.lft.to/lastmile_qr_scan"}, "lon": -77.061136, "bike_id": "a1b6667ae525413594dc70fe79adbdf4", "type": "electric_scooter", "name": "a1b6667ae525413594dc70fe79adbdf4"}, {"is_disabled": 0, "is_reserved": 0, "fusion_lat": 0.0, "lat": 38.91129133333333, "fusion_lon": 0.0, "rental_uris": {"ios": "https://dc.lft.to/lastmile_qr_scan", "android": "https://dc.lft.to/lastmile_qr_scan"}, "lon": -76.99749116666666, "bike_id": "71318dc0f163394068c1f92b97914ecc", "type": "electric_scooter", "name": "71318dc0f163394068c1f92b97914ecc"}, {"is_disabled": 0, "is_reserved": 0, "fusion_lat": 0.0, "lat": 38.967818333333334, "fusion_lon": 0.0, "rental_uris": {"ios": "https://dc.lft.to/lastmile_qr_scan", "android": "https://dc.lft.to/lastmile_qr_scan"}, "lon": -76.99652466666667, "bike_id": "e7e0cb5c1d25f4268a8e20abdad753eb", "type": "electric_bike", "name": "e7e0cb5c1d25f4268a8e20abdad753eb"}, {"is_disabled": 0, "is_reserved": 0, "fusion_lat": 0.0, "lat": 38.90917666666667, "fusion_lon": 0.0, "rental_uris": {"ios": "https://dc.lft.to/lastmile_qr_scan", "android": "https://dc.lft.to/lastmile_qr_scan"}, "lon": -77.045801, "bike_id": "5bb086dfc1063e3153815e7aae7bb4b7", "type": "electric_scooter", "name": "5bb086dfc1063e3153815e7aae7bb4b7"}, {"is_disabled": 0, "is_reserved": 0, "fusion_lat": 0.0, "lat": 38.91660666666667, "fusion_lon": 0.0, "rental_uris": {"ios": "https://dc.lft.to/lastmile_qr_scan", "android": "https://dc.lft.to/lastmile_qr_scan"}, "lon": -77.00050433333334, "bike_id": "739444052d16fc57ab181d3a1b099800", "type": "electric_scooter", "name": "739444052d16fc57ab181d3a1b099800"}, {"is_disabled": 0, "is_reserved": 0, "fusion_lat": 0.0, "lat": 38.89203783333333, "fusion_lon": 0.0, "rental_uris": {"ios": "https://dc.lft.to/lastmile_qr_scan", "android": "https://dc.lft.to/lastmile_qr_scan"}, "lon": -76.92921166666666, "bike_id": "68538985340d228afbaa81f4918bae34", "type": "electric_scooter", "name": "68538985340d228afbaa81f4918bae34"}, {"is_disabled": 0, "is_reserved": 0, "fusion_lat": 0.0, "lat": 38.893977166666666, "fusion_lon": 0.0, "rental_uris": {"ios": "https://dc.lft.to/lastmile_qr_scan", "android": "https://dc.lft.to/lastmile_qr_scan"}, "lon": -77.023712, "bike_id": "8f9b03fcccdd3e75a6cd95d83681d86b", "type": "electric_scooter", "name": "8f9b03fcccdd3e75a6cd95d83681d86b"}, {"is_disabled": 0, "is_reserved": 0, "fusion_lat": 0.0, "lat": 38.927113166666665, "fusion_lon": 0.0, "rental_uris": {"ios": "https://dc.lft.to/lastmile_qr_scan", "android": "https://dc.lft.to/lastmile_qr_scan"}, "lon": -77.0210045, "bike_id": "04af36b0c4321871c22fa160f28b1a2f", "type": "electric_scooter", "name": "04af36b0c4321871c22fa160f28b1a2f"}, {"is_disabled": 0, "is_reserved": 0, "fusion_lat": 0.0, "lat": 38.89927866666667, "fusion_lon": 0.0, "rental_uris": {"ios": "https://dc.lft.to/lastmile_qr_scan", "android": "https://dc.lft.to/lastmile_qr_scan"}, "lon": -77.00157766666666, "bike_id": "2310a7289959c8d14cc30db2525096a9", "type": "electric_bike", "name": "2310a7289959c8d14cc30db2525096a9"}, {"is_disabled": 0, "is_reserved": 0, "fusion_lat": 0.0, "lat": 38.9268, "fusion_lon": 0.0, "rental_uris": {"ios": "https://dc.lft.to/lastmile_qr_scan", "android": "https://dc.lft.to/lastmile_qr_scan"}, "lon": -77.008574, "bike_id": "c82cbf05733bf68df5cd8875f4c48f93", "type": "electric_scooter", "name": "c82cbf05733bf68df5cd8875f4c48f93"}, {"is_disabled": 0, "is_reserved": 0, "fusion_lat": 0.0, "lat": 38.92614716666667, "fusion_lon": 0.0, "rental_uris": {"ios": "https://dc.lft.to/lastmile_qr_scan", "android": "https://dc.lft.to/lastmile_qr_scan"}, "lon": -76.99055666666666, "bike_id": "73f145f311bfa15eb4d812753c00f38b", "type": "electric_scooter", "name": "73f145f311bfa15eb4d812753c00f38b"}, {"is_disabled": 0, "is_reserved": 0, "fusion_lat": 0.0, "lat": 38.858014, "fusion_lon": 0.0, "rental_uris": {"ios": "https://dc.lft.to/lastmile_qr_scan", "android": "https://dc.lft.to/lastmile_qr_scan"}, "lon": -76.98751133333333, "bike_id": "4969362c99af44bab4a5f0b0f4e19f43", "type": "electric_bike", "name": "4969362c99af44bab4a5f0b0f4e19f43"}, {"is_disabled": 0, "is_reserved": 0, "fusion_lat": 0.0, "lat": 39.026200333333335, "fusion_lon": 0.0, "rental_uris": {"ios": "https://dc.lft.to/lastmile_qr_scan", "android": "https://dc.lft.to/lastmile_qr_scan"}, "lon": -77.0388065, "bike_id": "fdce4b071237a4d92d8c29efc69cfeb3", "type": "electric_bike", "name": "fdce4b071237a4d92d8c29efc69cfeb3"}, {"is_disabled": 0, "is_reserved": 0, "fusion_lat": 0.0, "lat": 38.99846983333333, "fusion_lon": 0.0, "rental_uris": {"ios": "https://dc.lft.to/lastmile_qr_scan", "android": "https://dc.lft.to/lastmile_qr_scan"}, "lon": -77.00248, "bike_id": "60d79e6c19895b7c1cc7b199f4754b98", "type": "electric_bike", "name": "60d79e6c19895b7c1cc7b199f4754b98"}, {"is_disabled": 0, "is_reserved": 0, "fusion_lat": 0.0, "lat": 38.90885866666667, "fusion_lon": 0.0, "rental_uris": {"ios": "https://dc.lft.to/lastmile_qr_scan", "android": "https://dc.lft.to/lastmile_qr_scan"}, "lon": -77.04665983333334, "bike_id": "763ac391da7ec51590e123ee15bdf8e3", "type": "electric_scooter", "name": "763ac391da7ec51590e123ee15bdf8e3"}, {"is_disabled": 0, "is_reserved": 0, "fusion_lat": 0.0, "lat": 38.90752366666667, "fusion_lon": 0.0, "rental_uris": {"ios": "https://dc.lft.to/lastmile_qr_scan", "android": "https://dc.lft.to/lastmile_qr_scan"}, "lon": -77.00023866666666, "bike_id": "88b662c65995ab1088c6b081f96b1db3", "type": "electric_scooter", "name": "88b662c65995ab1088c6b081f96b1db3"}, {"is_disabled": 0, "is_reserved": 0, "fusion_lat": 0.0, "lat": 38.91268316666667, "fusion_lon": 0.0, "rental_uris": {"ios": "https://dc.lft.to/lastmile_qr_scan", "android": "https://dc.lft.to/lastmile_qr_scan"}, "lon": -77.0466325, "bike_id": "c13fc485c135fdded8afef654897b808", "type": "electric_scooter", "name": "c13fc485c135fdded8afef654897b808"}, {"is_disabled": 0, "is_reserved": 0, "fusion_lat": 0.0, "lat": 39.042329, "fusion_lon": 0.0, "rental_uris": {"ios": "https://dc.lft.to/lastmile_qr_scan", "android": "https://dc.lft.to/lastmile_qr_scan"}, "lon": -76.9973655, "bike_id": "13a6fb0189b7b324f2e89c9c68752f39", "type": "electric_bike", "name": "13a6fb0189b7b324f2e89c9c68752f39"}, {"is_disabled": 0, "is_reserved": 0, "fusion_lat": 0.0, "lat": 38.9507235, "fusion_lon": 0.0, "rental_uris": {"ios": "https://dc.lft.to/lastmile_qr_scan", "android": "https://dc.lft.to/lastmile_qr_scan"}, "lon": -76.996004, "bike_id": "3cb9e6d23f8c3e11181a722ad1ee3ac1", "type": "electric_bike", "name": "3cb9e6d23f8c3e11181a722ad1ee3ac1"}, {"is_disabled": 0, "is_reserved": 0, "fusion_lat": 0.0, "lat": 38.894814333333336, "fusion_lon": 0.0, "rental_uris": {"ios": "https://dc.lft.to/lastmile_qr_scan", "android": "https://dc.lft.to/lastmile_qr_scan"}, "lon": -77.00260566666667, "bike_id": "aa9759f9d7ece4180691ddd0b60364f6", "type": "electric_scooter", "name": "aa9759f9d7ece4180691ddd0b60364f6"}, {"is_disabled": 0, "is_reserved": 0, "fusion_lat": 0.0, "lat": 38.87563866666667, "fusion_lon": 0.0, "rental_uris": {"ios": "https://dc.lft.to/lastmile_qr_scan", "android": "https://dc.lft.to/lastmile_qr_scan"}, "lon": -77.04706033333333, "bike_id": "b249f0530a3a5c0456aa837a16c19e76", "type": "electric_bike", "name": "b249f0530a3a5c0456aa837a16c19e76"}, {"is_disabled": 0, "is_reserved": 0, "fusion_lat": 0.0, "lat": 38.89457766666666, "fusion_lon": 0.0, "rental_uris": {"ios": "https://dc.lft.to/lastmile_qr_scan", "android": "https://dc.lft.to/lastmile_qr_scan"}, "lon": -76.9367865, "bike_id": "95a63f93a9b731edec3ac6ddcc5d8d36", "type": "electric_bike", "name": "95a63f93a9b731edec3ac6ddcc5d8d36"}, {"is_disabled": 0, "is_reserved": 0, "fusion_lat": 0.0, "lat": 38.918176833333334, "fusion_lon": 0.0, "rental_uris": {"ios": "https://dc.lft.to/lastmile_qr_scan", "android": "https://dc.lft.to/lastmile_qr_scan"}, "lon": -77.02708333333334, "bike_id": "8c9686238366c5590adb302b51cef9fe", "type": "electric_scooter", "name": "8c9686238366c5590adb302b51cef9fe"}, {"is_disabled": 0, "is_reserved": 0, "fusion_lat": 0.0, "lat": 38.87652816666667, "fusion_lon": 0.0, "rental_uris": {"ios": "https://dc.lft.to/lastmile_qr_scan", "android": "https://dc.lft.to/lastmile_qr_scan"},