{"data": {"bikes": [{"fusion_lon": 0.0, "bike_id": "8805808858467da6b4a1a9bbcb5fcd1c", "lon": -77.05224966666667, "lat": 38.924690166666664, "is_disabled": 0, "name": "8805808858467da6b4a1a9bbcb5fcd1c", "is_reserved": 0, "fusion_lat": 0.0, "type": "electric_scooter", "rental_uris": {"android": "https://dc.lft.to/lastmile_qr_scan", "ios": "https://dc.lft.to/lastmile_qr_scan"}}, {"fusion_lon": 0.0, "bike_id": "11ae8bbe183c285aedfdda7902874fec", "lon": -77.05716166666667, "lat": 38.931336333333334, "is_disabled": 0, "name": "11ae8bbe183c285aedfdda7902874fec", "is_reserved": 0, "fusion_lat": 0.0, "type": "electric_scooter", "rental_uris": {"android": "https://dc.lft.to/lastmile_qr_scan", "ios": "https://dc.lft.to/lastmile_qr_scan"}}, {"fusion_lon": 0.0, "bike_id": "85d52871c828443504aa45082b078164", "lon": -77.0222095, "lat": 38.91639766666667, "is_disabled": 0, "name": "85d52871c828443504aa45082b078164", "is_reserved": 0, "fusion_lat": 0.0, "type": "electric_scooter", "rental_uris": {"android": "https://dc.lft.to/lastmile_qr_scan", "ios": "https://dc.lft.to/lastmile_qr_scan"}}, {"fusion_lon": 0.0, "bike_id": "474a2155dd6ae4b0867e4d2e844f935b", "lon": -76.92580983333333, "lat": 38.8973035, "is_disabled": 0, "name": "474a2155dd6ae4b0867e4d2e844f935b", "is_reserved": 0, "fusion_lat": 0.0, "type": "electric_scooter", "rental_uris": {"android": "https://dc.lft.to/lastmile_qr_scan", "ios": "https://dc.lft.to/lastmile_qr_scan"}}, {"fusion_lon": 0.0, "bike_id": "a22cc451288b430f97aafbab326671c4", "lon": -77.00048633333333, "lat": 38.87880416666667, "is_disabled": 0, "name": "a22cc451288b430f97aafbab326671c4", "is_reserved": 0, "fusion_lat": 0.0, "type": "electric_scooter", "rental_uris": {"android": "https://dc.lft.to/lastmile_qr_scan", "ios": "https://dc.lft.to/lastmile_qr_scan"}}, {"fusion_lon": 0.0, "bike_id": "8a86a6f7d28a6e0a670cb6be782dd202", "lon": -77.010562, "lat": 38.966302166666665, "is_disabled": 0, "name": "8a86a6f7d28a6e0a670cb6be782dd202", "is_reserved": 0, "fusion_lat": 0.0, "type": "electric_bike", "rental_uris": {"android": "https://dc.lft.to/lastmile_qr_scan", "ios": "https://dc.lft.to/lastmile_qr_scan"}}, {"fusion_lon": 0.0, "bike_id": "9a9755a29d3e9232c0f3dc6870dd6b9b", "lon": -77.02581666666667, "lat": 38.92031716666666, "is_disabled": 0, "name": "9a9755a29d3e9232c0f3dc6870dd6b9b", "is_reserved": 0, "fusion_lat": 0.0, "type": "electric_scooter", "rental_uris": {"android": "https://dc.lft.to/lastmile_qr_scan", "ios": "https://dc.lft.to/lastmile_qr_scan"}}, {"fusion_lon": 0.0, "bike_id": "2377c977b7fce246edcf587bfbd2f5aa", "lon": -77.02134933333333, "lat": 38.92485933333333, "is_disabled": 0, "name": "2377c977b7fce246edcf587bfbd2f5aa", "is_reserved": 0, "fusion_lat": 0.0, "type": "electric_scooter", "rental_uris": {"android": "https://dc.lft.to/lastmile_qr_scan", "ios": "https://dc.lft.to/lastmile_qr_scan"}}, {"fusion_lon": 0.0, "bike_id": "6af9a6de138ab047845cb4bbd589f41c", "lon": -77.04870633333333, "lat": 38.91623666666667, "is_disabled": 0, "name": "6af9a6de138ab047845cb4bbd589f41c", "is_reserved": 0, "fusion_lat": 0.0, "type": "electric_scooter", "rental_uris": {"android": "https://dc.lft.to/lastmile_qr_scan", "ios": "https://dc.lft.to/lastmile_qr_scan"}}, {"fusion_lon": 0.0, "bike_id": "be54e15ac83cb1f565a521f456d68e43", "lon": -77.0231975, "lat": 38.92764966666667, "is_disabled": 0, "name": "be54e15ac83cb1f565a521f456d68e43", "is_reserved": 0, "fusion_lat": 0.0, "type": "electric_scooter", "rental_uris": {"android": "https://dc.lft.to/lastmile_qr_scan", "ios": "https://dc.lft.to/lastmile_qr_scan"}}, {"fusion_lon": 0.0, "bike_id": "f852355399362dc11926e2c129f68c46", "lon": -77.04410366666667, "lat": 38.920406666666665, "is_disabled": 0, "name": "f852355399362dc11926e2c129f68c46", "is_reserved": 0, "fusion_lat": 0.0, "type": "electric_scooter", "rental_uris": {"android": "https://dc.lft.to/lastmile_qr_scan", "ios": "https://dc.lft.to/lastmile_qr_scan"}}, {"fusion_lon": 0.0, "bike_id": "b53537007e31cd53cd3688085f6497e3", "lon": -77.04219583333334, "lat": 38.921473, "is_disabled": 0, "name": "b53537007e31cd53cd3688085f6497e3", "is_reserved": 0, "fusion_lat": 0.0, "type": "electric_scooter", "rental_uris": {"android": "https://dc.lft.to/lastmile_qr_scan", "ios": "https://dc.lft.to/lastmile_qr_scan"}}, {"fusion_lon": 0.0, "bike_id": "f9c86e679977c443b563d7b3def7ef1f", "lon": -77.02003516666667, "lat": 38.9235875, "is_disabled": 0, "name": "f9c86e679977c443b563d7b3def7ef1f", "is_reserved": 0, "fusion_lat": 0.0, "type": "electric_scooter", "rental_uris": {"android": "https://dc.lft.to/lastmile_qr_scan", "ios": "https://dc.lft.to/lastmile_qr_scan"}}, {"fusion_lon": 0.0, "bike_id": "61e663120c83fa722cc0d756eb04ac1f", "lon": -77.02295416666666, "lat": 38.92061866666667, "is_disabled": 0, "name": "61e663120c83fa722cc0d756eb04ac1f", "is_reserved": 0, "fusion_lat": 0.0, "type": "electric_scooter", "rental_uris": {"android": "https://dc.lft.to/lastmile_qr_scan", "ios": "https://dc.lft.to/lastmile_qr_scan"}}, {"fusion_lon": 0.0, "bike_id": "e83f717db67c2e51be0aea26d309e2e8", "lon": -76.98081966666666, "lat": 38.89437683333333, "is_disabled": 0, "name": "e83f717db67c2e51be0aea26d309e2e8", "is_reserved": 0, "fusion_lat": 0.0, "type": "electric_scooter", "rental_uris": {"android": "https://dc.lft.to/lastmile_qr_scan", "ios": "https://dc.lft.to/lastmile_qr_scan"}}, {"fusion_lon": 0.0, "bike_id": "bd5451354333879efa2ff95a20a42557", "lon": -77.044989, "lat": 38.91931866666667, "is_disabled": 0, "name": "bd5451354333879efa2ff95a20a42557", "is_reserved": 0, "fusion_lat": 0.0, "type": "electric_scooter", "rental_uris": {"android": "https://dc.lft.to/lastmile_qr_scan", "ios": "https://dc.lft.to/lastmile_qr_scan"}}, {"fusion_lon": 0.0, "bike_id": "a06bacb8078f136293e7fc829b10d9e7", "lon": -76.98376166666667, "lat": 38.887281333333334, "is_disabled": 0, "name": "a06bacb8078f136293e7fc829b10d9e7", "is_reserved": 0, "fusion_lat": 0.0, "type": "electric_scooter", "rental_uris": {"android": "https://dc.lft.to/lastmile_qr_scan", "ios": "https://dc.lft.to/lastmile_qr_scan"}}, {"fusion_lon": 0.0, "bike_id": "2fe3a872cee265c6aa9b77b711fceb4e", "lon": -77.0221435, "lat": 38.8978105, "is_disabled": 0, "name": "2fe3a872cee265c6aa9b77b711fceb4e", "is_reserved": 0, "fusion_lat": 0.0, "type": "electric_scooter", "rental_uris": {"android": "https://dc.lft.to/lastmile_qr_scan", "ios": "https://dc.lft.to/lastmile_qr_scan"}}, {"fusion_lon": 0.0, "bike_id": "96b619da0ea8fbeb885948314a331b79", "lon": -76.99152333333333, "lat": 38.900358, "is_disabled": 0, "name": "96b619da0ea8fbeb885948314a331b79", "is_reserved": 0, "fusion_lat": 0.0, "type": "electric_scooter", "rental_uris": {"android": "https://dc.lft.to/lastmile_qr_scan", "ios": "https://dc.lft.to/lastmile_qr_scan"}}, {"fusion_lon": 0.0, "bike_id": "27bf124244accca81578fbae92046b4f", "lon": -77.05680133333334, "lat": 38.923283833333336, "is_disabled": 0, "name": "27bf124244accca81578fbae92046b4f", "is_reserved": 0, "fusion_lat": 0.0, "type": "electric_scooter", "rental_uris": {"android": "https://dc.lft.to/lastmile_qr_scan", "ios": "https://dc.lft.to/lastmile_qr_scan"}}, {"fusion_lon": 0.0, "bike_id": "560622da5b9cfb7241301e0f194cc418", "lon": -77.0211365, "lat": 38.92161216666667, "is_disabled": 0, "name": "560622da5b9cfb7241301e0f194cc418", "is_reserved": 0, "fusion_lat": 0.0, "type": "electric_scooter", "rental_uris": {"android": "https://dc.lft.to/lastmile_qr_scan", "ios": "https://dc.lft.to/lastmile_qr_scan"}}, {"fusion_lon": 0.0, "bike_id": "cbd95a5fa1404d33a489cd3845e40e07", "lon": -77.04607066666667, "lat": 38.915910333333336, "is_disabled": 0, "name": "cbd95a5fa1404d33a489cd3845e40e07", "is_reserved": 0, "fusion_lat": 0.0, "type": "electric_scooter", "rental_uris": {"android": "https://dc.lft.to/lastmile_qr_scan", "ios": "https://dc.lft.to/lastmile_qr_scan"}}, {"fusion_lon": 0.0, "bike_id": "2f3d096bf9afc7c7b88ab1894fd4be43", "lon": -77.028156, "lat": 38.91426033333333, "is_disabled": 0, "name": "2f3d096bf9afc7c7b88ab1894fd4be43", "is_reserved": 0, "fusion_lat": 0.0, "type": "electric_scooter", "rental_uris": {"android": "https://dc.lft.to/lastmile_qr_scan", "ios": "https://dc.lft.to/lastmile_qr_scan"}}, {"fusion_lon": 0.0, "bike_id": "dc9cfa328cd2f83f4a3e1f9a19ff7e42", "lon": -77.07274633333333, "lat": 38.90917, "is_disabled": 0, "name": "dc9cfa328cd2f83f4a3e1f9a19ff7e42", "is_reserved": 0, "fusion_lat": 0.0, "type": "electric_scooter", "rental_uris": {"android": "https://dc.lft.to/lastmile_qr_scan", "ios": "https://dc.lft.to/lastmile_qr_scan"}}, {"fusion_lon": 0.0, "bike_id": "bb7be9cd2e606d5e750c24aad3655b4d", "lon": -77.0072245, "lat": 38.89706016666667, "is_disabled": 0, "name": "bb7be9cd2e606d5e750c24aad3655b4d", "is_reserved": 0, "fusion_lat": 0.0, "type": "electric_scooter", "rental_uris": {"android": "https://dc.lft.to/lastmile_qr_scan", "ios": "https://dc.lft.to/lastmile_qr_scan"}}, {"fusion_lon": 0.0, "bike_id": "cc9864fadd0a3a0997bc1b43e210676e", "lon": -77.03634333333333, "lat": 38.929419, "is_disabled": 0, "name": "cc9864fadd0a3a0997bc1b43e210676e", "is_reserved": 0, "fusion_lat": 0.0, "type": "electric_scooter", "rental_uris": {"android": "https://dc.lft.to/lastmile_qr_scan", "ios": "https://dc.lft.to/lastmile_qr_scan"}}, {"fusion_lon": 0.0, "bike_id": "49be18816e6e75d23aab9c6e88fe33d3", "lon": -77.05315333333333, "lat": 38.90159216666667, "is_disabled": 0, "name": "49be18816e6e75d23aab9c6e88fe33d3", "is_reserved": 0, "fusion_lat": 0.0, "type": "electric_scooter", "rental_uris": {"android": "https://dc.lft.to/lastmile_qr_scan", "ios": "https://dc.lft.to/lastmile_qr_scan"}}, {"fusion_lon": 0.0, "bike_id": "bfc51700ab17b8ef82879e5e350e1193", "lon": -77.04186283333334, "lat": 38.90138916666667, "is_disabled": 0, "name": "bfc51700ab17b8ef82879e5e350e1193", "is_reserved": 0, "fusion_lat": 0.0, "type": "electric_scooter", "rental_uris": {"android": "https://dc.lft.to/lastmile_qr_scan", "ios": "https://dc.lft.to/lastmile_qr_scan"}}, {"fusion_lon": 0.0, "bike_id": "437c054757d93a26d1b95bf375a0c59f", "lon": -77.0221815, "lat": 38.9126695, "is_disabled": 0, "name": "437c054757d93a26d1b95bf375a0c59f", "is_reserved": 0, "fusion_lat": 0.0, "type": "electric_scooter", "rental_uris": {"android": "https://dc.lft.to/lastmile_qr_scan", "ios": "https://dc.lft.to/lastmile_qr_scan"}}, {"fusion_lon": 0.0, "bike_id": "ac54062dd2f7bf4477be1f170dbc4a55", "lon": -77.02695316666667, "lat": 38.89763166666667, "is_disabled": 0, "name": "ac54062dd2f7bf4477be1f170dbc4a55", "is_reserved": 0, "fusion_lat": 0.0, "type": "electric_scooter", "rental_uris": {"android": "https://dc.lft.to/lastmile_qr_scan", "ios": "https://dc.lft.to/lastmile_qr_scan"}}, {"fusion_lon": 0.0, "bike_id": "7bbe97a069271273d96173882b4aeb93", "lon": -77.036627, "lat": 38.90448966666666, "is_disabled": 0, "name": "7bbe97a069271273d96173882b4aeb93", "is_reserved": 0, "fusion_lat": 0.0, "type": "electric_scooter", "rental_uris": {"android": "https://dc.lft.to/lastmile_qr_scan", "ios": "https://dc.lft.to/lastmile_qr_scan"}}, {"fusion_lon": 0.0, "bike_id": "a159dd640e9c9d2050eaf00c2f40f55f", "lon": -77.01927133333334, "lat": 38.92255083333333, "is_disabled": 0, "name": "a159dd640e9c9d2050eaf00c2f40f55f", "is_reserved": 0, "fusion_lat": 0.0, "type": "electric_scooter", "rental_uris": {"android": "https://dc.lft.to/lastmile_qr_scan", "ios": "https://dc.lft.to/lastmile_qr_scan"}}, {"fusion_lon": 0.0, "bike_id": "6c58da3e8500f9c80a706e21482cf7bd", "lon": -76.9074895, "lat": 38.896180333333334, "is_disabled": 0, "name": "6c58da3e8500f9c80a706e21482cf7bd", "is_reserved": 0, "fusion_lat": 0.0, "type": "electric_bike", "rental_uris": {"android": "https://dc.lft.to/lastmile_qr_scan", "ios": "https://dc.lft.to/lastmile_qr_scan"}}, {"fusion_lon": 0.0, "bike_id": "146f11cd07c49e1a78d16d8f25cf7e8a", "lon": -77.04459716666666, "lat": 38.90954683333333, "is_disabled": 0, "name": "146f11cd07c49e1a78d16d8f25cf7e8a", "is_reserved": 0, "fusion_lat": 0.0, "type": "electric_scooter", "rental_uris": {"android": "https://dc.lft.to/lastmile_qr_scan", "ios": "https://dc.lft.to/lastmile_qr_scan"}}, {"fusion_lon": 0.0, "bike_id": "901de58aa5dc19de3a9a404d0f487ba2", "lon": -77.00533033333333, "lat": 38.875453, "is_disabled": 0, "name": "901de58aa5dc19de3a9a404d0f487ba2", "is_reserved": 0, "fusion_lat": 0.0, "type": "electric_scooter", "rental_uris": {"android": "https://dc.lft.to/lastmile_qr_scan", "ios": "https://dc.lft.to/lastmile_qr_scan"}}, {"fusion_lon": 0.0, "bike_id": "db00b730fe514a1d700d9f852a2a325a", "lon": -77.02315116666666, "lat": 38.927855666666666, "is_disabled": 0, "name": "db00b730fe514a1d700d9f852a2a325a", "is_reserved": 0, "fusion_lat": 0.0, "type": "electric_scooter", "rental_uris": {"android": "https://dc.lft.to/lastmile_qr_scan", "ios": "https://dc.lft.to/lastmile_qr_scan"}}, {"fusion_lon": 0.0, "bike_id": "c66dbf35536328b04bb2abc48e3bc9f4", "lon": -77.02750966666666, "lat": 38.954179333333336, "is_disabled": 0, "name": "c66dbf35536328b04bb2abc48e3bc9f4", "is_reserved": 0, "fusion_lat": 0.0, "type": "electric_scooter", "rental_uris": {"android": "https://dc.lft.to/lastmile_qr_scan", "ios": "https://dc.lft.to/lastmile_qr_scan"}}, {"fusion_lon": 0.0, "bike_id": "6e67933f650a769b870c0cc8c86b46bd", "lon": -76.97136933333333, "lat": 38.913525666666665, "is_disabled": 0, "name": "6e67933f650a769b870c0cc8c86b46bd", "is_reserved": 0, "fusion_lat": 0.0, "type": "electric_scooter", "rental_uris": {"android": "https://dc.lft.to/lastmile_qr_scan", "ios": "https://dc.lft.to/lastmile_qr_scan"}}, {"fusion_lon": 0.0, "bike_id": "bc1e17fe802916b6e182a91f2182726c", "lon": -77.03213083333333, "lat": 38.91681716666667, "is_disabled": 0, "name": "bc1e17fe802916b6e182a91f2182726c", "is_reserved": 0, "fusion_lat": 0.0, "type": "electric_scooter", "rental_uris": {"android": "https://dc.lft.to/lastmile_qr_scan", "ios": "https://dc.lft.to/lastmile_qr_scan"}}, {"fusion_lon": 0.0, "bike_id": "c6b92b6592fc8f81a82d49c87e53b15f", "lon": -77.0532855, "lat": 38.910528666666664, "is_disabled": 0, "name": "c6b92b6592fc8f81a82d49c87e53b15f", "is_reserved": 0, "fusion_lat": 0.0, "type": "electric_scooter", "rental_uris": {"android": "https://dc.lft.to/lastmile_qr_scan", "ios": "https://dc.lft.to/lastmile_qr_scan"}}, {"fusion_lon": 0.0, "bike_id": "e2dff4db2da4b41211e834aa72200bd1", "lon": -77.05298283333333, "lat": 38.9255385, "is_disabled": 0, "name": "e2dff4db2da4b41211e834aa72200bd1", "is_reserved": 0, "fusion_lat": 0.0, "type": "electric_scooter", "rental_uris": {"android": "https://dc.lft.to/lastmile_qr_scan", "ios": "https://dc.lft.to/lastmile_qr_scan"}}, {"fusion_lon": 0.0, "bike_id": "d3762be6f02d0f104d2d0186eefa4639", "lon": -77.019528, "lat": 38.898376666666664, "is_disabled": 0, "name": "d3762be6f02d0f104d2d0186eefa4639", "is_reserved": 0, "fusion_lat": 0.0, "type": "electric_scooter", "rental_uris": {"android": "https://dc.lft.to/lastmile_qr_scan", "ios": "https://dc.lft.to/lastmile_qr_scan"}}, {"fusion_lon": 0.0, "bike_id": "ae82665d4ac7ac2e3b96df268b431187", "lon": -77.027775, "lat": 38.96210416666667, "is_disabled": 0, "name": "ae82665d4ac7ac2e3b96df268b431187", "is_reserved": 0, "fusion_lat": 0.0, "type": "electric_scooter", "rental_uris": {"android": "https://dc.lft.to/lastmile_qr_scan", "ios": "https://dc.lft.to/lastmile_qr_scan"}}, {"fusion_lon": 0.0, "bike_id": "f07c336b8fcef103f3fcf64d192f83db", "lon": -77.08136066666667, "lat": 38.95198516666667, "is_disabled": 0, "name": "f07c336b8fcef103f3fcf64d192f83db", "is_reserved": 0, "fusion_lat": 0.0, "type": "electric_bike", "rental_uris": {"android": "https://dc.lft.to/lastmile_qr_scan", "ios": "https://dc.lft.to/lastmile_qr_scan"}}, {"fusion_lon": 0.0, "bike_id": "b0a1ba94136c67c3c753bcc15e67401e", "lon": -77.044491, "lat": 38.915445166666665, "is_disabled": 0, "name": "b0a1ba94136c67c3c753bcc15e67401e", "is_reserved": 0, "fusion_lat": 0.0, "type": "electric_scooter", "rental_uris": {"android": "https://dc.lft.to/lastmile_qr_scan", "ios": "https://dc.lft.to/lastmile_qr_scan"}}, {"fusion_lon": 0.0, "bike_id": "4c75bad960ec91f3bd3f1bc2c25983bc", "lon": -76.95696866666667, "lat": 38.8887155, "is_disabled": 0, "name": "4c75bad960ec91f3bd3f1bc2c25983bc", "is_reserved": 0, "fusion_lat": 0.0, "type": "electric_bike", "rental_uris": {"android": "https://dc.lft.to/lastmile_qr_scan", "ios": "https://dc.lft.to/lastmile_qr_scan"}}, {"fusion_lon": 0.0, "bike_id": "b179612421a72d8ffc2cdda9da7a7be0", "lon": -77.00185866666666, "lat": 38.900103333333334, "is_disabled": 0, "name": "b179612421a72d8ffc2cdda9da7a7be0", "is_reserved": 0, "fusion_lat": 0.0, "type": "electric_scooter", "rental_uris": {"android": "https://dc.lft.to/lastmile_qr_scan", "ios": "https://dc.lft.to/lastmile_qr_scan"}}, {"fusion_lon": 0.0, "bike_id": "b7c66930d1a78871c8060c976c98e8b2", "lon": -77.01904516666667, "lat": 38.92337633333333, "is_disabled": 0, "name": "b7c66930d1a78871c8060c976c98e8b2", "is_reserved": 0, "fusion_lat": 0.0, "type": "electric_scooter", "rental_uris": {"android": "https://dc.lft.to/lastmile_qr_scan", "ios": "https://dc.lft.to/lastmile_qr_scan"}}, {"fusion_lon": 0.0, "bike_id": "681a8d97b72a235b73fb9fc962349a33", "lon": -77.05026733333334, "lat": 38.901494, "is_disabled": 0, "name": "681a8d97b72a235b73fb9fc962349a33", "is_reserved": 0, "fusion_lat": 0.0, "type": "electric_scooter", "rental_uris": {"android": "https://dc.lft.to/lastmile_qr_scan", "ios": "https://dc.lft.to/lastmile_qr_scan"}}, {"fusion_lon": 0.0, "bike_id": "aa919b6f28efb9d440191762a13b5380", "lon": -77.03263616666666, "lat": 38.93439383333333, "is_disabled": 0, "name": "aa919b6f28efb9d440191762a13b5380", "is_reserved": 0, "fusion_lat": 0.0, "type": "electric_scooter", "rental_uris": {"android": "https://dc.lft.to/lastmile_qr_scan", "ios": "https://dc.lft.to/lastmile_qr_scan"}}, {"fusion_lon": 0.0, "bike_id": "008657afc0690d8b72e02d3dda244051", "lon": -77.04417916666667, "lat": 38.89726233333333, "is_disabled": 0, "name": "008657afc0690d8b72e02d3dda244051", "is_reserved": 0, "fusion_lat": 0.0, "type": "electric_scooter", "rental_uris": {"android": "https://dc.lft.to/lastmile_qr_scan", "ios": "https://dc.lft.to/lastmile_qr_scan"}}, {"fusion_lon": 0.0, "bike_id": "b361a93bf2281c34c653213dd390d63c", "lon": -77.02962733333334, "lat": 38.92607016666667, "is_disabled": 0, "name": "b361a93bf2281c34c653213dd390d63c", "is_reserved": 0, "fusion_lat": 0.0, "type": "electric_scooter", "rental_uris": {"android": "https://dc.lft.to/lastmile_qr_scan", "ios": "https://dc.lft.to/lastmile_qr_scan"}}, {"fusion_lon": 0.0, "bike_id": "950d0b9dc8e535d7ffee2e621aaea8e9", "lon": -76.9708285, "lat": 38.869421833333334, "is_disabled": 0, "name": "950d0b9dc8e535d7ffee2e621aaea8e9", "is_reserved": 0, "fusion_lat": 0.0, "type": "electric_scooter", "rental_uris": {"android": "https://dc.lft.to/lastmile_qr_scan", "ios": "https://dc.lft.to/lastmile_qr_scan"}}, {"fusion_lon": 0.0, "bike_id": "cf9e9cf834f8f1ad5c6a548ade4dc315", "lon": -76.98333316666667, "lat": 38.89544333333333, "is_disabled": 0, "name": "cf9e9cf834f8f1ad5c6a548ade4dc315", "is_reserved": 0, "fusion_lat": 0.0, "type": "electric_scooter", "rental_uris": {"android": "https://dc.lft.to/lastmile_qr_scan", "ios": "https://dc.lft.to/lastmile_qr_scan"}}, {"fusion_lon": 0.0, "bike_id": "6bdd34ac88a8a0e2e72d88ca5357a2a5", "lon": -77.03184166666666, "lat": 38.89240733333333, "is_disabled": 0, "name": "6bdd34ac88a8a0e2e72d88ca5357a2a5", "is_reserved": 0, "fusion_lat": 0.0, "type": "electric_scooter", "rental_uris": {"android": "https://dc.lft.to/lastmile_qr_scan", "ios": "https://dc.lft.to/lastmile_qr_scan"}}, {"fusion_lon": 0.0, "bike_id": "06f0130bc5002b6e6bece9cb237510f5", "lon": -77.00593033333334, "lat": 38.906083833333334, "is_disabled": 0, "name": "06f0130bc5002b6e6bece9cb237510f5", "is_reserved": 0, "fusion_lat": 0.0, "type": "electric_scooter", "rental_uris": {"android": "https://dc.lft.to/lastmile_qr_scan", "ios": "https://dc.lft.to/lastmile_qr_scan"}}, {"fusion_lon": 0.0, "bike_id": "df00d0470c6e79c9fb18b27ae730328c", "lon": -76.97879533333334, "lat": 38.897634833333335, "is_disabled": 0, "name": "df00d0470c6e79c9fb18b27ae730328c", "is_reserved": 0, "fusion_lat": 0.0, "type": "electric_scooter", "rental_uris": {"android": "https://dc.lft.to/lastmile_qr_scan", "ios": "https://dc.lft.to/lastmile_qr_scan"}}, {"fusion_lon": 0.0, "bike_id": "a2aebd2f15df358b9751e5256d0ba468", "lon": -77.00762233333333, "lat": 38.90958783333333, "is_disabled": 0, "name": "a2aebd2f15df358b9751e5256d0ba468", "is_reserved": 0, "fusion_lat": 0.0, "type": "electric_scooter", "rental_uris": {"android": "https://dc.lft.to/lastmile_qr_scan", "ios": "https://dc.lft.to/lastmile_qr_scan"}}, {"fusion_lon": 0.0, "bike_id": "9950d8d3705a9ef15cba937b5c5cf600", "lon": -77.022135, "lat": 38.92468233333334, "is_disabled": 0, "name": "9950d8d3705a9ef15cba937b5c5cf600", "is_reserved": 0, "fusion_lat": 0.0, "type": "electric_scooter", "rental_uris": {"android": "https://dc.lft.to/lastmile_qr_scan", "ios": "https://dc.lft.to/lastmile_qr_scan"}}, {"fusion_lon": 0.0, "bike_id": "46e0967e7ff2d54dec658148cf70569d", "lon": -77.003636, "lat": 38.89967033333333, "is_disabled": 0, "name": "46e0967e7ff2d54dec658148cf70569d", "is_reserved": 0, "fusion_lat": 0.0, "type": "electric_scooter", "rental_uris": {"android": "https://dc.lft.to/lastmile_qr_scan", "ios": "https://dc.lft.to/lastmile_qr_scan"}}, {"fusion_lon": 0.0, "bike_id": "a727dab90762247215c9a0241418e9eb", "lon": -77.04645533333333, "lat": 38.8154405, "is_disabled": 0, "name": "a727dab90762247215c9a0241418e9eb", "is_reserved": 0, "fusion_lat": 0.0, "type": "electric_bike", "rental_uris": {"android": "https://dc.lft.to/lastmile_qr_scan", "ios": "https://dc.lft.to/lastmile_qr_scan"}}, {"fusion_lon": 0.0, "bike_id": "1e4579558e8640eb151bbea5429a3012", "lon": -77.05806816666667, "lat": 38.9290085, "is_disabled": 0, "name": "1e4579558e8640eb151bbea5429a3012", "is_reserved": 0, "fusion_lat": 0.0, "type": "electric_scooter", "rental_uris": {"android": "https://dc.lft.to/lastmile_qr_scan", "ios": "https://dc.lft.to/lastmile_qr_scan"}}, {"fusion_lon": 0.0, "bike_id": "c0f8e72e276f3b7119a62e507ac74073", "lon": -77.04475383333333, "lat": 38.91544183333333, "is_disabled": 0, "name": "c0f8e72e276f3b7119a62e507ac74073", "is_reserved": 0, "fusion_lat": 0.0, "type": "electric_scooter", "rental_uris": {"android": "https://dc.lft.to/lastmile_qr_scan", "ios": "https://dc.lft.to/lastmile_qr_scan"}}, {"fusion_lon": 0.0, "bike_id": "7d0d6be5ea1574ab889705fa4bf0aefd", "lon": -77.07179633333334, "lat": 38.90685416666667, "is_disabled": 0, "name": "7d0d6be5ea1574ab889705fa4bf0aefd", "is_reserved": 0, "fusion_lat": 0.0, "type": "electric_scooter", "rental_uris": {"android": "https://dc.lft.to/lastmile_qr_scan", "ios": "https://dc.lft.to/lastmile_qr_scan"}}, {"fusion_lon": 0.0, "bike_id": "be18da03b16beca2c6c91ea63c65af2b", "lon": -76.98707283333333, "lat": 38.90491166666666, "is_disabled": 0, "name": "be18da03b16beca2c6c91ea63c65af2b", "is_reserved": 0, "fusion_lat": 0.0, "type": "electric_scooter", "rental_uris": {"android": "https://dc.lft.to/lastmile_qr_scan", "ios": "https://dc.lft.to/lastmile_qr_scan"}}, {"fusion_lon": 0.0, "bike_id": "b97e77b9badca32c8ccbdfa6f655d344", "lon": -76.994481, "lat": 38.90823666666667, "is_disabled": 0, "name": "b97e77b9badca32c8ccbdfa6f655d344", "is_reserved": 0, "fusion_lat": 0.0, "type": "electric_scooter", "rental_uris": {"android": "https://dc.lft.to/lastmile_qr_scan", "ios": "https://dc.lft.to/lastmile_qr_scan"}}, {"fusion_lon": 0.0, "bike_id": "559f734a58c0e708049734f1f1db650a", "lon": -77.02884066666667, "lat": 38.916382, "is_disabled": 0, "name": "559f734a58c0e708049734f1f1db650a", "is_reserved": 0, "fusion_lat": 0.0, "type": "electric_scooter", "rental_uris": {"android": "https://dc.lft.to/lastmile_qr_scan", "ios": "https://dc.lft.to/lastmile_qr_scan"}}, {"fusion_lon": 0.0, "bike_id": "96938775949475670bbd780d36045bc1", "lon": -77.041955, "lat": 38.92341233333333, "is_disabled": 0, "name": "96938775949475670bbd780d36045bc1", "is_reserved": 0, "fusion_lat": 0.0, "type": "electric_scooter", "rental_uris": {"android": "https://dc.lft.to/lastmile_qr_scan", "ios": "https://dc.lft.to/lastmile_qr_scan"}}, {"fusion_lon": 0.0, "bike_id": "4934565da3345de2c9d53b68429b358f", "lon": -77.0401775, "lat": 38.902233, "is_disabled": 0, "name": "4934565da3345de2c9d53b68429b358f", "is_reserved": 0, "fusion_lat": 0.0, "type": "electric_scooter", "rental_uris": {"android": "https://dc.lft.to/lastmile_qr_scan", "ios": "https://dc.lft.to/lastmile_qr_scan"}}, {"fusion_lon": 0.0, "bike_id": "a8a68965fb53027adaf7a879cfeda62a", "lon": -77.04415066666667, "lat": 38.909444, "is_disabled": 0, "name": "a8a68965fb53027adaf7a879cfeda62a", "is_reserved": 0, "fusion_lat": 0.0, "type": "electric_scooter", "rental_uris": {"android": "https://dc.lft.to/lastmile_qr_scan", "ios": "https://dc.lft.to/lastmile_qr_scan"}}, {"fusion_lon": 0.0, "bike_id": "c2ae62a0e60c0b32b13bce0f522148d9", "lon": -77.0060095, "lat": 38.906316, "is_disabled": 0, "name": "c2ae62a0e60c0b32b13bce0f522148d9", "is_reserved": 0, "fusion_lat": 0.0, "type": "electric_scooter", "rental_uris": {"android": "https://dc.lft.to/lastmile_qr_scan", "ios": "https://dc.lft.to/lastmile_qr_scan"}}, {"fusion_lon": 0.0, "bike_id": "9b19712e44f2a4c178d6f514243b7806", "lon": -77.019531, "lat": 38.93196666666667, "is_disabled": 0, "name": "9b19712e44f2a4c178d6f514243b7806", "is_reserved": 0, "fusion_lat": 0.0, "type": "electric_scooter", "rental_uris": {"android": "https://dc.lft.to/lastmile_qr_scan", "ios": "https://dc.lft.to/lastmile_qr_scan"}}, {"fusion_lon": 0.0, "bike_id": "6333174d2dd3956f181f53e83f7f6539", "lon": -77.02242416666667, "lat": 38.924288833333335, "is_disabled": 0, "name": "6333174d2dd3956f181f53e83f7f6539", "is_reserved": 0, "fusion_lat": 0.0, "type": "electric_scooter", "rental_uris": {"android": "https://dc.lft.to/lastmile_qr_scan", "ios": "https://dc.lft.to/lastmile_qr_scan"}}, {"fusion_lon": 0.0, "bike_id": "f9547f4c384474be5ce86e9e3908c31d", "lon": -76.996979, "lat": 38.83863816666667, "is_disabled": 0, "name": "f9547f4c384474be5ce86e9e3908c31d", "is_reserved": 0, "fusion_lat": 0.0, "type": "electric_bike", "rental_uris": {"android": "https://dc.lft.to/lastmile_qr_scan", "ios": "https://dc.lft.to/lastmile_qr_scan"}}, {"fusion_lon": 0.0, "bike_id": "522160295097739748bd24f60aa61dc4", "lon": -77.04153616666666, "lat": 38.91769216666667, "is_disabled": 0, "name": "522160295097739748bd24f60aa61dc4", "is_reserved": 0, "fusion_lat": 0.0, "type": "electric_scooter", "rental_uris": {"android": "https://dc.lft.to/lastmile_qr_scan", "ios": "https://dc.lft.to/lastmile_qr_scan"}}, {"fusion_lon": 0.0, "bike_id": "1734d378b8712f13609a17657582d3b9", "lon": -77.02958783333334, "lat": 38.905006666666665, "is_disabled": 0, "name": "1734d378b8712f13609a17657582d3b9", "is_reserved": 0, "fusion_lat": 0.0, "type": "electric_scooter", "rental_uris": {"android": "https://dc.lft.to/lastmile_qr_scan", "ios": "https://dc.lft.to/lastmile_qr_scan"}}, {"fusion_lon": 0.0, "bike_id": "23c39f3205404559440e3488b3cd6d60", "lon": -77.03120316666667, "lat": 38.920121, "is_disabled": 0, "name": "23c39f3205404559440e3488b3cd6d60", "is_reserved": 0, "fusion_lat": 0.0, "type": "electric_scooter", "rental_uris": {"android": "https://dc.lft.to/lastmile_qr_scan", "ios": "https://dc.lft.to/lastmile_qr_scan"}}, {"fusion_lon": 0.0, "bike_id": "4de6cec2f5dea80ce0fac63ae61ec953", "lon": -77.02204616666667, "lat": 38.924676, "is_disabled": 0, "name": "4de6cec2f5dea80ce0fac63ae61ec953", "is_reserved": 0, "fusion_lat": 0.0, "type": "electric_scooter", "rental_uris": {"android": "https://dc.lft.to/lastmile_qr_scan", "ios": "https://dc.lft.to/lastmile_qr_scan"}}, {"fusion_lon": 0.0, "bike_id": "b427a2980ad216e0a43980e87068f9b5", "lon": -76.9685625, "lat": 38.95540116666667, "is_disabled": 0, "name": "b427a2980ad216e0a43980e87068f9b5", "is_reserved": 0, "fusion_lat": 0.0, "type": "electric_bike", "rental_uris": {"android": "https://dc.lft.to/lastmile_qr_scan", "ios": "https://dc.lft.to/lastmile_qr_scan"}}, {"fusion_lon": 0.0, "bike_id": "aabcc2f2ba43099b7b3f62a3da2f0c69", "lon": -77.0395665, "lat": 38.89244633333333, "is_disabled": 0, "name": "aabcc2f2ba43099b7b3f62a3da2f0c69", "is_reserved": 0, "fusion_lat": 0.0, "type": "electric_scooter", "rental_uris": {"android": "https://dc.lft.to/lastmile_qr_scan", "ios": "https://dc.lft.to/lastmile_qr_scan"}}, {"fusion_lon": 0.0, "bike_id": "53f86aa90cd1fc76d6b5e2305ae8ab10", "lon": -77.01384216666666, "lat": 38.92875766666667, "is_disabled": 0, "name": "53f86aa90cd1fc76d6b5e2305ae8ab10", "is_reserved": 0, "fusion_lat": 0.0, "type": "electric_scooter", "rental_uris": {"android": "https://dc.lft.to/lastmile_qr_scan", "ios": "https://dc.lft.to/lastmile_qr_scan"}}, {"fusion_lon": 0.0, "bike_id": "98106b2817a984ec284d064927da53b4", "lon": -77.021806, "lat": 38.894098166666666, "is_disabled": 0, "name": "98106b2817a984ec284d064927da53b4", "is_reserved": 0, "fusion_lat": 0.0, "type": "electric_scooter", "rental_uris": {"android": "https://dc.lft.to/lastmile_qr_scan", "ios": "https://dc.lft.to/lastmile_qr_scan"}}, {"fusion_lon": 0.0, "bike_id": "f0c6d9b3cf7039553ad52ba59f23c521", "lon": -76.98859066666667, "lat": 38.900243333333336, "is_disabled": 0, "name": "f0c6d9b3cf7039553ad52ba59f23c521", "is_reserved": 0, "fusion_lat": 0.0, "type": "electric_scooter", "rental_uris": {"android": "https://dc.lft.to/lastmile_qr_scan", "ios": "https://dc.lft.to/lastmile_qr_scan"}}, {"fusion_lon": 0.0, "bike_id": "145755beb68dcf0b2725eb44f645bb99", "lon": -76.97346783333333, "lat": 38.865538666666666, "is_disabled": 0, "name": "145755beb68dcf0b2725eb44f645bb99", "is_reserved": 0, "fusion_lat": 0.0, "type": "electric_bike", "rental_uris": {"android": "https://dc.lft.to/lastmile_qr_scan", "ios": "https://dc.lft.to/lastmile_qr_scan"}}, {"fusion_lon": 0.0, "bike_id": "76ad7806a099b7292f1083f2982a84bd", "lon": -77.02742433333333, "lat": 38.923997, "is_disabled": 0, "name": "76ad7806a099b7292f1083f2982a84bd", "is_reserved": 0, "fusion_lat": 0.0, "type": "electric_scooter", "rental_uris": {"android": "https://dc.lft.to/lastmile_qr_scan", "ios": "https://dc.lft.to/lastmile_qr_scan"}}, {"fusion_lon": 0.0, "bike_id": "74e432c83f99888d189b330712cb99ff", "lon": -77.01177983333334, "lat": 38.885927833333334, "is_disabled": 0, "name": "74e432c83f99888d189b330712cb99ff", "is_reserved": 0, "fusion_lat": 0.0, "type": "electric_scooter", "rental_uris": {"android": "https://dc.lft.to/lastmile_qr_scan", "ios": "https://dc.lft.to/lastmile_qr_scan"}}, {"fusion_lon": 0.0, "bike_id": "62db38d84d970bb879b4150e997f97c3", "lon": -77.020296, "lat": 38.92446416666667, "is_disabled": 0, "name": "62db38d84d970bb879b4150e997f97c3", "is_reserved": 0, "fusion_lat": 0.0, "type": "electric_scooter", "rental_uris": {"android": "https://dc.lft.to/lastmile_qr_scan", "ios": "https://dc.lft.to/lastmile_qr_scan"}}, {"fusion_lon": 0.0, "bike_id": "0261c69f90dc2eac370181d364dd1447", "lon": -77.03222916666667, "lat": 38.892177333333336, "is_disabled": 0, "name": "0261c69f90dc2eac370181d364dd1447", "is_reserved": 0, "fusion_lat": 0.0, "type": "electric_scooter", "rental_uris": {"android": "https://dc.lft.to/lastmile_qr_scan", "ios": "https://dc.lft.to/lastmile_qr_scan"}}, {"fusion_lon": 0.0, "bike_id": "59aa576f1ca9a46a7d0e37220f5b839e", "lon": -77.032798, "lat": 38.897117333333334, "is_disabled": 0, "name": "59aa576f1ca9a46a7d0e37220f5b839e", "is_reserved": 0, "fusion_lat": 0.0, "type": "electric_scooter", "rental_uris": {"android": "https://dc.lft.to/lastmile_qr_scan", "ios": "https://dc.lft.to/lastmile_qr_scan"}}, {"fusion_lon": 0.0, "bike_id": "bde8e2ac4276b63df0d1c8e6bc6b1097", "lon": -77.03589533333333, "lat": 38.908165833333335, "is_disabled": 0, "name": "bde8e2ac4276b63df0d1c8e6bc6b1097", "is_reserved": 0, "fusion_lat": 0.0, "type": "electric_scooter", "rental_uris": {"android": "https://dc.lft.to/lastmile_qr_scan", "ios": "https://dc.lft.to/lastmile_qr_scan"}}, {"fusion_lon": 0.0, "bike_id": "5668d53be104d859b18d187e04a9ca24", "lon": -77.07229283333334, "lat": 38.923609, "is_disabled": 0, "name": "5668d53be104d859b18d187e04a9ca24", "is_reserved": 0, "fusion_lat": 0.0, "type": "electric_scooter", "rental_uris": {"android": "https://dc.lft.to/lastmile_qr_scan", "ios": "https://dc.lft.to/lastmile_qr_scan"}}, {"fusion_lon": 0.0, "bike_id": "a89b0b87f43e62c67c9448b7d69eb1cd", "lon": -76.98544816666667, "lat": 38.9059275, "is_disabled": 0, "name": "a89b0b87f43e62c67c9448b7d69eb1cd", "is_reserved": 0, "fusion_lat": 0.0, "type": "electric_scooter", "rental_uris": {"android": "https://dc.lft.to/lastmile_qr_scan", "ios": "https://dc.lft.to/lastmile_qr_scan"}}, {"fusion_lon": 0.0, "bike_id": "7659ce9ae01e7f4fcf1639c614b662ce", "lon": -77.0263205, "lat": 38.89603833333334, "is_disabled": 0, "name": "7659ce9ae01e7f4fcf1639c614b662ce", "is_reserved": 0, "fusion_lat": 0.0, "type": "electric_scooter", "rental_uris": {"android": "https://dc.lft.to/lastmile_qr_scan", "ios": "https://dc.lft.to/lastmile_qr_scan"}}, {"fusion_lon": 0.0, "bike_id": "253e2a7c75d99352be85dfa868187925", "lon": -77.03473233333334, "lat": 38.929139, "is_disabled": 0, "name": "253e2a7c75d99352be85dfa868187925", "is_reserved": 0, "fusion_lat": 0.0, "type": "electric_scooter", "rental_uris": {"android": "https://dc.lft.to/lastmile_qr_scan", "ios": "https://dc.lft.to/lastmile_qr_scan"}}, {"fusion_lon": 0.0, "bike_id": "61cbc01b4848e427f9af10a24bafd76b", "lon": -76.93520283333334, "lat": 38.878970833333334, "is_disabled": 0, "name": "61cbc01b4848e427f9af10a24bafd76b", "is_reserved": 0, "fusion_lat": 0.0, "type": "electric_scooter", "rental_uris": {"android": "https://dc.lft.to/lastmile_qr_scan", "ios": "https://dc.lft.to/lastmile_qr_scan"}}, {"fusion_lon": 0.0, "bike_id": "d9be10afbe7fa2744678ff7659bddde7", "lon": -77.04856466666666, "lat": 38.9047765, "is_disabled": 0, "name": "d9be10afbe7fa2744678ff7659bddde7", "is_reserved": 0, "fusion_lat": 0.0, "type": "electric_scooter", "rental_uris": {"android": "https://dc.lft.to/lastmile_qr_scan", "ios": "https://dc.lft.to/lastmile_qr_scan"}}, {"fusion_lon": 0.0, "bike_id": "aec6afaa196e6af535d3f752b122dd8a", "lon": -77.02528133333334, "lat": 38.967337666666666, "is_disabled": 0, "name": "aec6afaa196e6af535d3f752b122dd8a", "is_reserved": 0, "fusion_lat": 0.0, "type": "electric_scooter", "rental_uris": {"android": "https://dc.lft.to/lastmile_qr_scan", "ios": "https://dc.lft.to/lastmile_qr_scan"}}, {"fusion_lon": 0.0, "bike_id": "e03ce8180782151472b9158c15e38b13", "lon": -76.99505283333333, "lat": 38.88093516666667, "is_disabled": 0, "name": "e03ce8180782151472b9158c15e38b13", "is_reserved": 0, "fusion_lat": 0.0, "type": "electric_scooter", "rental_uris": {"android": "https://dc.lft.to/lastmile_qr_scan", "ios": "https://dc.lft.to/lastmile_qr_scan"}}, {"fusion_lon": 0.0, "bike_id": "274564511c02942dc839f64f2abad4fa", "lon": -77.00277683333333, "lat": 38.907191, "is_disabled": 0, "name": "274564511c02942dc839f64f2abad4fa", "is_reserved": 0, "fusion_lat": 0.0, "type": "electric_scooter", "rental_uris": {"android": "https://dc.lft.to/lastmile_qr_scan", "ios": "https://dc.lft.to/lastmile_qr_scan"}}, {"fusion_lon": 0.0, "bike_id": "e1b5a9794fe00f5477669a827049f02d", "lon": -76.99144, "lat": 38.8997705, "is_disabled": 0, "name": "e1b5a9794fe00f5477669a827049f02d", "is_reserved": 0, "fusion_lat": 0.0, "type": "electric_scooter", "rental_uris": {"android": "https://dc.lft.to/lastmile_qr_scan", "ios": "https://dc.lft.to/lastmile_qr_scan"}}, {"fusion_lon": 0.0, "bike_id": "7db12ad895cc515b805513dfc9d82cf8", "lon": -77.00568516666667, "lat": 38.87662383333333, "is_disabled": 0, "name": "7db12ad895cc515b805513dfc9d82cf8", "is_reserved": 0, "fusion_lat": 0.0, "type": "electric_scooter", "rental_uris": {"android": "https://dc.lft.to/lastmile_qr_scan", "ios": "https://dc.lft.to/lastmile_qr_scan"}}, {"fusion_lon": 0.0, "bike_id": "b99fbb0d457169adbb16d17e86b3074c", "lon": -77.00867516666666, "lat": 38.897439166666665, "is_disabled": 0, "name": "b99fbb0d457169adbb16d17e86b3074c", "is_reserved": 0, "fusion_lat": 0.0, "type": "electric_scooter", "rental_uris": {"android": "https://dc.lft.to/lastmile_qr_scan", "ios": "https://dc.lft.to/lastmile_qr_scan"}}, {"fusion_lon": 0.0, "bike_id": "750732cf9c9513254bb5afeb2477fed1", "lon": -76.948839, "lat": 38.895079, "is_disabled": 0, "name": "750732cf9c9513254bb5afeb2477fed1", "is_reserved": 0, "fusion_lat": 0.0, "type": "electric_scooter", "rental_uris": {"android": "https://dc.lft.to/lastmile_qr_scan", "ios": "https://dc.lft.to/lastmile_qr_scan"}}, {"fusion_lon": 0.0, "bike_id": "853d81265f554c07edf8bc5deab49888", "lon": -77.02587866666667, "lat": 38.96389216666667, "is_disabled": 0, "name": "853d81265f554c07edf8bc5deab49888", "is_reserved": 0, "fusion_lat": 0.0, "type": "electric_scooter", "rental_uris": {"android": "https://dc.lft.to/lastmile_qr_scan", "ios": "https://dc.lft.to/lastmile_qr_scan"}}, {"fusion_lon": 0.0, "bike_id": "791aa52b7e3231574c650edc57d83215", "lon": -77.0320435, "lat": 38.914308, "is_disabled": 0, "name": "791aa52b7e3231574c650edc57d83215", "is_reserved": 0, "fusion_lat": 0.0, "type": "electric_scooter", "rental_uris": {"android": "https://dc.lft.to/lastmile_qr_scan", "ios": "https://dc.lft.to/lastmile_qr_scan"}}, {"fusion_lon": 0.0, "bike_id": "3cbfd450fc31fdb3fefdc5abfff62f33", "lon": -76.99278716666667, "lat": 38.90314633333333, "is_disabled": 0, "name": "3cbfd450fc31fdb3fefdc5abfff62f33", "is_reserved": 0, "fusion_lat": 0.0, "type": "electric_scooter", "rental_uris": {"android": "https://dc.lft.to/lastmile_qr_scan", "ios": "https://dc.lft.to/lastmile_qr_scan"}}, {"fusion_lon": 0.0, "bike_id": "3bff18158f57e2150321f72ea34d65d2", "lon": -77.23392983333333, "lat": 38.871749, "is_disabled": 0, "name": "3bff18158f57e2150321f72ea34d65d2", "is_reserved": 0, "fusion_lat": 0.0, "type": "electric_bike", "rental_uris": {"android": "https://dc.lft.to/lastmile_qr_scan", "ios": "https://dc.lft.to/lastmile_qr_scan"}}, {"fusion_lon": 0.0, "bike_id": "69db8520a1fe4fb1e11e7b86a89f6a16", "lon": -77.02135666666666, "lat": 38.924896833333335, "is_disabled": 0, "name": "69db8520a1fe4fb1e11e7b86a89f6a16", "is_reserved": 0, "fusion_lat": 0.0, "type": "electric_scooter", "rental_uris": {"android": "https://dc.lft.to/lastmile_qr_scan", "ios": "https://dc.lft.to/lastmile_qr_scan"}}, {"fusion_lon": 0.0, "bike_id": "13717e68274a3506fea5b220ddd54e75", "lon": -77.03231333333333, "lat": 38.912599666666665, "is_disabled": 0, "name": "13717e68274a3506fea5b220ddd54e75", "is_reserved": 0, "fusion_lat": 0.0, "type": "electric_scooter", "rental_uris": {"android": "https://dc.lft.to/lastmile_qr_scan", "ios": "https://dc.lft.to/lastmile_qr_scan"}}, {"fusion_lon": 0.0, "bike_id": "9617f826be18ec7d2ce79517c54e6b87", "lon": -77.03142883333334, "lat": 38.9126705, "is_disabled": 0, "name": "9617f826be18ec7d2ce79517c54e6b87", "is_reserved": 0, "fusion_lat": 0.0, "type": "electric_scooter", "rental_uris": {"android": "https://dc.lft.to/lastmile_qr_scan", "ios": "https://dc.lft.to/lastmile_qr_scan"}}, {"fusion_lon": 0.0, "bike_id": "8fe7480d822e9b958991c81608f62cf9", "lon": -77.09686466666666, "lat": 38.80740516666667, "is_disabled": 0, "name": "8fe7480d822e9b958991c81608f62cf9", "is_reserved": 0, "fusion_lat": 0.0, "type": "electric_bike", "rental_uris": {"android": "https://dc.lft.to/lastmile_qr_scan", "ios": "https://dc.lft.to/lastmile_qr_scan"}}, {"fusion_lon": 0.0, "bike_id": "48c68f66b6022ad2aab72b25403629fa", "lon": -77.01509916666667, "lat": 38.872777166666665, "is_disabled": 0, "name": "48c68f66b6022ad2aab72b25403629fa", "is_reserved": 0, "fusion_lat": 0.0, "type": "electric_scooter", "rental_uris": {"android": "https://dc.lft.to/lastmile_qr_scan", "ios": "https://dc.lft.to/lastmile_qr_scan"}}, {"fusion_lon": 0.0, "bike_id": "54db765265b55d2b5e6037538c212730", "lon": -77.02131983333334, "lat": 38.921255, "is_disabled": 0, "name": "54db765265b55d2b5e6037538c212730", "is_reserved": 0, "fusion_lat": 0.0, "type": "electric_scooter", "rental_uris": {"android": "https://dc.lft.to/lastmile_qr_scan", "ios": "https://dc.lft.to/lastmile_qr_scan"}}, {"fusion_lon": 0.0, "bike_id": "ba4c94fb3b8470cf8d77a5607c53dd2f", "lon": -76.99238233333334, "lat": 38.902093666666666, "is_disabled": 0, "name": "ba4c94fb3b8470cf8d77a5607c53dd2f", "is_reserved": 0, "fusion_lat": 0.0, "type": "electric_scooter", "rental_uris": {"android": "https://dc.lft.to/lastmile_qr_scan", "ios": "https://dc.lft.to/lastmile_qr_scan"}}, {"fusion_lon": 0.0, "bike_id": "05ee76773c337e01d4553a901292e756", "lon": -77.046113, "lat": 38.897989833333334, "is_disabled": 0, "name": "05ee76773c337e01d4553a901292e756", "is_reserved": 0, "fusion_lat": 0.0, "type": "electric_scooter", "rental_uris": {"android": "https://dc.lft.to/lastmile_qr_scan", "ios": "https://dc.lft.to/lastmile_qr_scan"}}, {"fusion_lon": 0.0, "bike_id": "89d96feeed6be345a99b9e252ceec918", "lon": -77.02306666666667, "lat": 38.9170195, "is_disabled": 0, "name": "89d96feeed6be345a99b9e252ceec918", "is_reserved": 0, "fusion_lat": 0.0, "type": "electric_scooter", "rental_uris": {"android": "https://dc.lft.to/lastmile_qr_scan", "ios": "https://dc.lft.to/lastmile_qr_scan"}}, {"fusion_lon": 0.0, "bike_id": "bbe66a9904ac37c340e6ee9d32595267", "lon": -77.06348533333333, "lat": 38.94449266666667, "is_disabled": 0, "name": "bbe66a9904ac37c340e6ee9d32595267", "is_reserved": 0, "fusion_lat": 0.0, "type": "electric_scooter", "rental_uris": {"android": "https://dc.lft.to/lastmile_qr_scan", "ios": "https://dc.lft.to/lastmile_qr_scan"}}, {"fusion_lon": 0.0, "bike_id": "d7b03cf7add8de1d503a262196d341be", "lon": -77.10341266666667, "lat": 38.836910833333334, "is_disabled": 0, "name": "d7b03cf7add8de1d503a262196d341be", "is_reserved": 0, "fusion_lat": 0.0, "type": "electric_bike", "rental_uris": {"android": "https://dc.lft.to/lastmile_qr_scan", "ios": "https://dc.lft.to/lastmile_qr_scan"}}, {"fusion_lon": 0.0, "bike_id": "367ac187ba3479cc50188064f97ce66d", "lon": -76.9916745, "lat": 38.87337083333333, "is_disabled": 0, "name": "367ac187ba3479cc50188064f97ce66d", "is_reserved": 0, "fusion_lat": 0.0, "type": "electric_scooter", "rental_uris": {"android": "https://dc.lft.to/lastmile_qr_scan", "ios": "https://dc.lft.to/lastmile_qr_scan"}}, {"fusion_lon": 0.0, "bike_id": "1a5d4d5d4a69fcab8813eb895ea82d2d", "lon": -77.034338, "lat": 38.917848166666666, "is_disabled": 0, "name": "1a5d4d5d4a69fcab8813eb895ea82d2d", "is_reserved": 0, "fusion_lat": 0.0, "type": "electric_scooter", "rental_uris": {"android": "https://dc.lft.to/lastmile_qr_scan", "ios": "https://dc.lft.to/lastmile_qr_scan"}}, {"fusion_lon": 0.0, "bike_id": "5887504ae01b648eec9a1ba2d36b8664", "lon": -77.072367, "lat": 38.92151416666667, "is_disabled": 0, "name": "5887504ae01b648eec9a1ba2d36b8664", "is_reserved": 0, "fusion_lat": 0.0, "type": "electric_scooter", "rental_uris": {"android": "https://dc.lft.to/lastmile_qr_scan", "ios": "https://dc.lft.to/lastmile_qr_scan"}}, {"fusion_lon": 0.0, "bike_id": "db802984af59f8e665ff25dab56cfd06", "lon": -77.042353, "lat": 38.92159866666667, "is_disabled": 0, "name": "db802984af59f8e665ff25dab56cfd06", "is_reserved": 0, "fusion_lat": 0.0, "type": "electric_scooter", "rental_uris": {"android": "https://dc.lft.to/lastmile_qr_scan", "ios": "https://dc.lft.to/lastmile_qr_scan"}}, {"fusion_lon": 0.0, "bike_id": "49452ce723b5fd3d8726010bfd74f32a", "lon": -77.03694, "lat": 38.9363235, "is_disabled": 0, "name": "49452ce723b5fd3d8726010bfd74f32a", "is_reserved": 0, "fusion_lat": 0.0, "type": "electric_scooter", "rental_uris": {"android": "https://dc.lft.to/lastmile_qr_scan", "ios": "https://dc.lft.to/lastmile_qr_scan"}}, {"fusion_lon": 0.0, "bike_id": "c58737686b2d88a11bfe0b3579a84c8e", "lon": -77.01706183333333, "lat": 38.88746583333333, "is_disabled": 0, "name": "c58737686b2d88a11bfe0b3579a84c8e", "is_reserved": 0, "fusion_lat": 0.0, "type": "electric_scooter", "rental_uris": {"android": "https://dc.lft.to/lastmile_qr_scan", "ios": "https://dc.lft.to/lastmile_qr_scan"}}, {"fusion_lon": 0.0, "bike_id": "69560dfaa2b5ab1d60613678e6b97158", "lon": -76.98488116666667, "lat": 38.90366733333333, "is_disabled": 0, "name": "69560dfaa2b5ab1d60613678e6b97158", "is_reserved": 0, "fusion_lat": 0.0, "type": "electric_scooter", "rental_uris": {"android": "https://dc.lft.to/lastmile_qr_scan", "ios": "https://dc.lft.to/lastmile_qr_scan"}}, {"fusion_lon": 0.0, "bike_id": "a922c7d85e4a490d1c4ae9f02cb7dc71", "lon": -77.02214333333333, "lat": 38.924677833333334, "is_disabled": 0, "name": "a922c7d85e4a490d1c4ae9f02cb7dc71", "is_reserved": 0, "fusion_lat": 0.0, "type": "electric_scooter", "rental_uris": {"android": "https://dc.lft.to/lastmile_qr_scan", "ios": "https://dc.lft.to/lastmile_qr_scan"}}, {"fusion_lon": 0.0, "bike_id": "c15ec59aa03665fcf3aa5affe7787ede", "lon": -77.00575583333334, "lat": 38.875235333333336, "is_disabled": 0, "name": "c15ec59aa03665fcf3aa5affe7787ede", "is_reserved": 0, "fusion_lat": 0.0, "type": "electric_scooter", "rental_uris": {"android": "https://dc.lft.to/lastmile_qr_scan", "ios": "https://dc.lft.to/lastmile_qr_scan"}}, {"fusion_lon": 0.0, "bike_id": "ecd2a84345396a3cdad84655452ce5b9", "lon": -77.00923166666666, "lat": 38.89604033333333, "is_disabled": 0, "name": "ecd2a84345396a3cdad84655452ce5b9", "is_reserved": 0, "fusion_lat": 0.0, "type": "electric_scooter", "rental_uris": {"android": "https://dc.lft.to/lastmile_qr_scan", "ios": "https://dc.lft.to/lastmile_qr_scan"}}, {"fusion_lon": 0.0, "bike_id": "1cb82e43fbb77545f51fbfd6326e44a9", "lon": -77.01066483333334, "lat": 38.874756, "is_disabled": 0, "name": "1cb82e43fbb77545f51fbfd6326e44a9", "is_reserved": 0, "fusion_lat": 0.0, "type": "electric_scooter", "rental_uris": {"android": "https://dc.lft.to/lastmile_qr_scan", "ios": "https://dc.lft.to/lastmile_qr_scan"}}, {"fusion_lon": 0.0, "bike_id": "a74733e94e43259e3af43ff55b04bb4e", "lon": -77.01005883333333, "lat": 38.8796505, "is_disabled": 0, "name": "a74733e94e43259e3af43ff55b04bb4e", "is_reserved": 0, "fusion_lat": 0.0, "type": "electric_bike", "rental_uris": {"android": "https://dc.lft.to/lastmile_qr_scan", "ios": "https://dc.lft.to/lastmile_qr_scan"}}, {"fusion_lon": 0.0, "bike_id": "3ffdea4b76c3b30fe0bc9e30a27d40e5", "lon": -77.00219266666667, "lat": 38.936051666666664, "is_disabled": 0, "name": "3ffdea4b76c3b30fe0bc9e30a27d40e5", "is_reserved": 0, "fusion_lat": 0.0, "type": "electric_bike", "rental_uris": {"android": "https://dc.lft.to/lastmile_qr_scan", "ios": "https://dc.lft.to/lastmile_qr_scan"}}, {"fusion_lon": 0.0, "bike_id": "8c04ed654673fd223f4439ecef14cf51", "lon": -77.01111733333333, "lat": 38.895391000000004, "is_disabled": 0, "name": "8c04ed654673fd223f4439ecef14cf51", "is_reserved": 0, "fusion_lat": 0.0, "type": "electric_scooter", "rental_uris": {"android": "https://dc.lft.to/lastmile_qr_scan", "ios": "https://dc.lft.to/lastmile_qr_scan"}}, {"fusion_lon": 0.0, "bike_id": "0fe8d062656ed42d1b3a9f50e7aa0971", "lon": -77.01883416666666, "lat": 38.9097125, "is_disabled": 0, "name": "0fe8d062656ed42d1b3a9f50e7aa0971", "is_reserved": 0, "fusion_lat": 0.0, "type": "electric_scooter", "rental_uris": {"android": "https://dc.lft.to/lastmile_qr_scan", "ios": "https://dc.lft.to/lastmile_qr_scan"}}, {"fusion_lon": 0.0, "bike_id": "33f3ea40192b5e22c8eb110b1ee26085", "lon": -77.0247475, "lat": 38.930979666666666, "is_disabled": 0, "name": "33f3ea40192b5e22c8eb110b1ee26085", "is_reserved": 0, "fusion_lat": 0.0, "type": "electric_scooter", "rental_uris": {"android": "https://dc.lft.to/lastmile_qr_scan", "ios": "https://dc.lft.to/lastmile_qr_scan"}}, {"fusion_lon": 0.0, "bike_id": "c62e2a39be2b28b3929b576fd4189b73", "lon": -77.00334916666667, "lat": 38.89352816666667, "is_disabled": 0, "name": "c62e2a39be2b28b3929b576fd4189b73", "is_reserved": 0, "fusion_lat": 0.0, "type": "electric_scooter", "rental_uris": {"android": "https://dc.lft.to/lastmile_qr_scan", "ios": "https://dc.lft.to/lastmile_qr_scan"}}, {"fusion_lon": 0.0, "bike_id": "9aca962c64d023beb51261a6e0559f43", "lon": -77.03556433333334, "lat": 38.964706166666666, "is_disabled": 0, "name": "9aca962c64d023beb51261a6e0559f43", "is_reserved": 0, "fusion_lat": 0.0, "type": "electric_bike", "rental_uris": {"android": "https://dc.lft.to/lastmile_qr_scan", "ios": "https://dc.lft.to/lastmile_qr_scan"}}, {"fusion_lon": 0.0, "bike_id": "ef298ab051af95c9c03d0fa7644ee0ea", "lon": -77.00760183333334, "lat": 38.997794166666665, "is_disabled": 0, "name": "ef298ab051af95c9c03d0fa7644ee0ea", "is_reserved": 0, "fusion_lat": 0.0, "type": "electric_bike", "rental_uris": {"android": "https://dc.lft.to/lastmile_qr_scan", "ios": "https://dc.lft.to/lastmile_qr_scan"}}, {"fusion_lon": 0.0, "bike_id": "728588b10079a16cb158dbc77dbb5ae4", "lon": -77.09624983333333, "lat": 38.9524625, "is_disabled": 0, "name": "728588b10079a16cb158dbc77dbb5ae4", "is_reserved": 0, "fusion_lat": 0.0, "type": "electric_bike", "rental_uris": {"android": "https://dc.lft.to/lastmile_qr_scan", "ios": "https://dc.lft.to/lastmile_qr_scan"}}, {"fusion_lon": 0.0, "bike_id": "b344ace3871d01e6a0595ac5127761fd", "lon": -77.0176615, "lat": 38.8873685, "is_disabled": 0, "name": "b344ace3871d01e6a0595ac5127761fd", "is_reserved": 0, "fusion_lat": 0.0, "type": "electric_scooter", "rental_uris": {"android": "https://dc.lft.to/lastmile_qr_scan", "ios": "https://dc.lft.to/lastmile_qr_scan"}}, {"fusion_lon": 0.0, "bike_id": "f35204200de4296264d0e03f44ae6f6c", "lon": -77.044502, "lat": 38.9246735, "is_disabled": 0, "name": "f35204200de4296264d0e03f44ae6f6c", "is_reserved": 0, "fusion_lat": 0.0, "type": "electric_scooter", "rental_uris": {"android": "https://dc.lft.to/lastmile_qr_scan", "ios": "https://dc.lft.to/lastmile_qr_scan"}}, {"fusion_lon": 0.0, "bike_id": "241899f70ec1544b38b16815323a9541", "lon": -76.9836455, "lat": 38.915031, "is_disabled": 0, "name": "241899f70ec1544b38b16815323a9541", "is_reserved": 0, "fusion_lat": 0.0, "type": "electric_scooter", "rental_uris": {"android": "https://dc.lft.to/lastmile_qr_scan", "ios": "https://dc.lft.to/lastmile_qr_scan"}}, {"fusion_lon": 0.0, "bike_id": "6c96b582e6559730e614db49147700fa", "lon": -77.04346066666666, "lat": 38.9044135, "is_disabled": 0, "name": "6c96b582e6559730e614db49147700fa", "is_reserved": 0, "fusion_lat": 0.0, "type": "electric_scooter", "rental_uris": {"android": "https://dc.lft.to/lastmile_qr_scan", "ios": "https://dc.lft.to/lastmile_qr_scan"}}, {"fusion_lon": 0.0, "bike_id": "2d6f10091a0f80738519a25a7f1d9f90", "lon": -76.95255466666667, "lat": 38.90687483333333, "is_disabled": 0, "name": "2d6f10091a0f80738519a25a7f1d9f90", "is_reserved": 0, "fusion_lat": 0.0, "type": "electric_bike", "rental_uris": {"android": "https://dc.lft.to/lastmile_qr_scan", "ios": "https://dc.lft.to/lastmile_qr_scan"}}, {"fusion_lon": 0.0, "bike_id": "b6ce1b7192bc81a0572045e1824226f4", "lon": -77.07316, "lat": 38.921660333333335, "is_disabled": 0, "name": "b6ce1b7192bc81a0572045e1824226f4", "is_reserved": 0, "fusion_lat": 0.0, "type": "electric_scooter", "rental_uris": {"android": "https://dc.lft.to/lastmile_qr_scan", "ios": "https://dc.lft.to/lastmile_qr_scan"}}, {"fusion_lon": 0.0, "bike_id": "694ab66b9ada5c4a949fbb7161895046", "lon": -77.02987483333334, "lat": 38.942604833333334, "is_disabled": 0, "name": "694ab66b9ada5c4a949fbb7161895046", "is_reserved": 0, "fusion_lat": 0.0, "type": "electric_scooter", "rental_uris": {"android": "https://dc.lft.to/lastmile_qr_scan", "ios": "https://dc.lft.to/lastmile_qr_scan"}}, {"fusion_lon": 0.0, "bike_id": "14a120d17b447b970a591c2562c092cd", "lon": -77.0150285, "lat": 38.893205, "is_disabled": 0, "name": "14a120d17b447b970a591c2562c092cd", "is_reserved": 0, "fusion_lat": 0.0, "type": "electric_scooter", "rental_uris": {"android": "https://dc.lft.to/lastmile_qr_scan", "ios": "https://dc.lft.to/lastmile_qr_scan"}}, {"fusion_lon": 0.0, "bike_id": "e75a820897a678303dc330c29b95e22a", "lon": -77.00209583333333, "lat": 38.90128683333333, "is_disabled": 0, "name": "e75a820897a678303dc330c29b95e22a", "is_reserved": 0, "fusion_lat": 0.0, "type": "electric_scooter", "rental_uris": {"android": "https://dc.lft.to/lastmile_qr_scan", "ios": "https://dc.lft.to/lastmile_qr_scan"}}, {"fusion_lon": 0.0, "bike_id": "39973beb07e6ba42d3f4efa6f14feefa", "lon": -77.0159475, "lat": 38.87466833333333, "is_disabled": 0, "name": "39973beb07e6ba42d3f4efa6f14feefa", "is_reserved": 0, "fusion_lat": 0.0, "type": "electric_scooter", "rental_uris": {"android": "https://dc.lft.to/lastmile_qr_scan", "ios": "https://dc.lft.to/lastmile_qr_scan"}}, {"fusion_lon": 0.0, "bike_id": "212013aceaaa2ee6ffedbff7b8b39fc0", "lon": -77.0209375, "lat": 38.927108833333335, "is_disabled": 0, "name": "212013aceaaa2ee6ffedbff7b8b39fc0", "is_reserved": 0, "fusion_lat": 0.0, "type": "electric_scooter", "rental_uris": {"android": "https://dc.lft.to/lastmile_qr_scan", "ios": "https://dc.lft.to/lastmile_qr_scan"}}, {"fusion_lon": 0.0, "bike_id": "fb64f9e333d07ceecb33b9f4b2aaa8fb", "lon": -77.0231355, "lat": 38.91768733333333, "is_disabled": 0, "name": "fb64f9e333d07ceecb33b9f4b2aaa8fb", "is_reserved": 0, "fusion_lat": 0.0, "type": "electric_scooter", "rental_uris": {"android": "https://dc.lft.to/lastmile_qr_scan", "ios": "https://dc.lft.to/lastmile_qr_scan"}}, {"fusion_lon": 0.0, "bike_id": "0ef9e2900d81665c254b3668e9c05aa0", "lon": -77.03626783333333, "lat": 38.93912616666667, "is_disabled": 0, "name": "0ef9e2900d81665c254b3668e9c05aa0", "is_reserved": 0, "fusion_lat": 0.0, "type": "electric_scooter", "rental_uris": {"android": "https://dc.lft.to/lastmile_qr_scan", "ios": "https://dc.lft.to/lastmile_qr_scan"}}, {"fusion_lon": 0.0, "bike_id": "418cd5dc77218aa8a2745d670a2e10a0", "lon": -77.03427, "lat": 38.90377633333333, "is_disabled": 0, "name": "418cd5dc77218aa8a2745d670a2e10a0", "is_reserved": 0, "fusion_lat": 0.0, "type": "electric_scooter", "rental_uris": {"android": "https://dc.lft.to/lastmile_qr_scan", "ios": "https://dc.lft.to/lastmile_qr_scan"}}, {"fusion_lon": 0.0, "bike_id": "3b7259426a71cee8704b940ae688869d", "lon": -76.9556155, "lat": 38.985045666666664, "is_disabled": 0, "name": "3b7259426a71cee8704b940ae688869d", "is_reserved": 0, "fusion_lat": 0.0, "type": "electric_bike", "rental_uris": {"android": "https://dc.lft.to/lastmile_qr_scan", "ios": "https://dc.lft.to/lastmile_qr_scan"}}, {"fusion_lon": 0.0, "bike_id": "81cc384efb74d92a14f9a6473b9e62b4", "lon": -77.05124833333333, "lat": 38.904112166666664, "is_disabled": 0, "name": "81cc384efb74d92a14f9a6473b9e62b4", "is_reserved": 0, "fusion_lat": 0.0, "type": "electric_bike", "rental_uris": {"android": "https://dc.lft.to/lastmile_qr_scan", "ios": "https://dc.lft.to/lastmile_qr_scan"}}, {"fusion_lon": 0.0, "bike_id": "aa26d973f750ac981d5bb07663b275f4", "lon": -77.02464916666666, "lat": 38.92589783333333, "is_disabled": 0, "name": "aa26d973f750ac981d5bb07663b275f4", "is_reserved": 0, "fusion_lat": 0.0, "type": "electric_scooter", "rental_uris": {"android": "https://dc.lft.to/lastmile_qr_scan", "ios": "https://dc.lft.to/lastmile_qr_scan"}}, {"fusion_lon": 0.0, "bike_id": "d3fb868c61ed578dac5f9ac51621142c", "lon": -77.02704783333333, "lat": 38.973094333333336, "is_disabled": 0, "name": "d3fb868c61ed578dac5f9ac51621142c", "is_reserved": 0, "fusion_lat": 0.0, "type": "electric_scooter", "rental_uris": {"android": "https://dc.lft.to/lastmile_qr_scan", "ios": "https://dc.lft.to/lastmile_qr_scan"}}, {"fusion_lon": 0.0, "bike_id": "eab50bd81aa704659914097ecb9306b6", "lon": -76.99676916666667, "lat": 38.88436016666667, "is_disabled": 0, "name": "eab50bd81aa704659914097ecb9306b6", "is_reserved": 0, "fusion_lat": 0.0, "type": "electric_scooter", "rental_uris": {"android": "https://dc.lft.to/lastmile_qr_scan", "ios": "https://dc.lft.to/lastmile_qr_scan"}}, {"fusion_lon": 0.0, "bike_id": "34fe0748cecb1d5547292b2f3c14d06c", "lon": -77.02394266666667, "lat": 38.89916133333333, "is_disabled": 0, "name": "34fe0748cecb1d5547292b2f3c14d06c", "is_reserved": 0, "fusion_lat": 0.0, "type": "electric_scooter", "rental_uris": {"android": "https://dc.lft.to/lastmile_qr_scan", "ios": "https://dc.lft.to/lastmile_qr_scan"}}, {"fusion_lon": 0.0, "bike_id": "6358f8319e3f8e35ac1b8c0566fdaa7e", "lon": -77.06521083333334, "lat": 38.992308, "is_disabled": 0, "name": "6358f8319e3f8e35ac1b8c0566fdaa7e", "is_reserved": 0, "fusion_lat": 0.0, "type": "electric_bike", "rental_uris": {"android": "https://dc.lft.to/lastmile_qr_scan", "ios": "https://dc.lft.to/lastmile_qr_scan"}}, {"fusion_lon": 0.0, "bike_id": "716ada0bcb971e03f616b0a50f68f148", "lon": -77.02842016666666, "lat": 38.91401916666667, "is_disabled": 0, "name": "716ada0bcb971e03f616b0a50f68f148", "is_reserved": 0, "fusion_lat": 0.0, "type": "electric_scooter", "rental_uris": {"android": "https://dc.lft.to/lastmile_qr_scan", "ios": "https://dc.lft.to/lastmile_qr_scan"}}, {"fusion_lon": 0.0, "bike_id": "a0eb629d8f2586ecdfbde0ab014bf119", "lon": -77.0714875, "lat": 38.906716833333334, "is_disabled": 0, "name": "a0eb629d8f2586ecdfbde0ab014bf119", "is_reserved": 0, "fusion_lat": 0.0, "type": "electric_scooter", "rental_uris": {"android": "https://dc.lft.to/lastmile_qr_scan", "ios": "https://dc.lft.to/lastmile_qr_scan"}}, {"fusion_lon": 0.0, "bike_id": "1df4bb0065291ced5e6168927f607bb0", "lon": -77.002134, "lat": 38.90186116666667, "is_disabled": 0, "name": "1df4bb0065291ced5e6168927f607bb0", "is_reserved": 0, "fusion_lat": 0.0, "type": "electric_scooter", "rental_uris": {"android": "https://dc.lft.to/lastmile_qr_scan", "ios": "https://dc.lft.to/lastmile_qr_scan"}}, {"fusion_lon": 0.0, "bike_id": "ee9ed69cb90ac069a67bbba3cd59344b", "lon": -76.94662833333334, "lat": 38.89868283333333, "is_disabled": 0, "name": "ee9ed69cb90ac069a67bbba3cd59344b", "is_reserved": 0, "fusion_lat": 0.0, "type": "electric_scooter", "rental_uris": {"android": "https://dc.lft.to/lastmile_qr_scan", "ios": "https://dc.lft.to/lastmile_qr_scan"}}, {"fusion_lon": 0.0, "bike_id": "87fe61acc7ab3d792948b6c93fde21fe", "lon": -77.09108783333333, "lat": 38.931050166666665, "is_disabled": 0, "name": "87fe61acc7ab3d792948b6c93fde21fe", "is_reserved": 0, "fusion_lat": 0.0, "type": "electric_scooter", "rental_uris": {"android": "https://dc.lft.to/lastmile_qr_scan", "ios": "https://dc.lft.to/lastmile_qr_scan"}}, {"fusion_lon": 0.0, "bike_id": "53815dc13e5baac943398361d2af3031", "lon": -77.0257865, "lat": 38.88733766666667, "is_disabled": 0, "name": "53815dc13e5baac943398361d2af3031", "is_reserved": 0, "fusion_lat": 0.0, "type": "electric_scooter", "rental_uris": {"android": "https://dc.lft.to/lastmile_qr_scan", "ios": "https://dc.lft.to/lastmile_qr_scan"}}, {"fusion_lon": 0.0, "bike_id": "73f8c814e4b658eb3a7969b73d691d41", "lon": -77.03174066666666, "lat": 38.91913266666667, "is_disabled": 0, "name": "73f8c814e4b658eb3a7969b73d691d41", "is_reserved": 0, "fusion_lat": 0.0, "type": "electric_scooter", "rental_uris": {"android": "https://dc.lft.to/lastmile_qr_scan", "ios": "https://dc.lft.to/lastmile_qr_scan"}}, {"fusion_lon": 0.0, "bike_id": "bea715921cee972baad17206909de921", "lon": -77.02765583333333, "lat": 38.89223583333333, "is_disabled": 0, "name": "bea715921cee972baad17206909de921", "is_reserved": 0, "fusion_lat": 0.0, "type": "electric_scooter", "rental_uris": {"android": "https://dc.lft.to/lastmile_qr_scan", "ios": "https://dc.lft.to/lastmile_qr_scan"}}, {"fusion_lon": 0.0, "bike_id": "75e5e70344e737c545f14f787d153b05", "lon": -77.00197383333334, "lat": 38.89340516666667, "is_disabled": 0, "name": "75e5e70344e737c545f14f787d153b05", "is_reserved": 0, "fusion_lat": 0.0, "type": "electric_scooter", "rental_uris": {"android": "https://dc.lft.to/lastmile_qr_scan", "ios": "https://dc.lft.to/lastmile_qr_scan"}}, {"fusion_lon": 0.0, "bike_id": "98099c0058e70653879fb3a1cc07ff6b", "lon": -76.97735183333333, "lat": 38.871507, "is_disabled": 0, "name": "98099c0058e70653879fb3a1cc07ff6b", "is_reserved": 0, "fusion_lat": 0.0, "type": "electric_scooter", "rental_uris": {"android": "https://dc.lft.to/lastmile_qr_scan", "ios": "https://dc.lft.to/lastmile_qr_scan"}}, {"fusion_lon": 0.0, "bike_id": "deb9d8248df350240364d78da829d647", "lon": -76.93392883333334, "lat": 38.89907266666667, "is_disabled": 0, "name": "deb9d8248df350240364d78da829d647", "is_reserved": 0, "fusion_lat": 0.0, "type": "electric_scooter", "rental_uris": {"android": "https://dc.lft.to/lastmile_qr_scan", "ios": "https://dc.lft.to/lastmile_qr_scan"}}, {"fusion_lon": 0.0, "bike_id": "3b022558ba27b542e7f579c67d03d3a1", "lon": -77.04929666666666, "lat": 38.89731733333333, "is_disabled": 0, "name": "3b022558ba27b542e7f579c67d03d3a1", "is_reserved": 0, "fusion_lat": 0.0, "type": "electric_scooter", "rental_uris": {"android": "https://dc.lft.to/lastmile_qr_scan", "ios": "https://dc.lft.to/lastmile_qr_scan"}}, {"fusion_lon": 0.0, "bike_id": "866886d04fba066ea7f2227934398e8d", "lon": -77.00922366666667, "lat": 38.9134125, "is_disabled": 0, "name": "866886d04fba066ea7f2227934398e8d", "is_reserved": 0, "fusion_lat": 0.0, "type": "electric_scooter", "rental_uris": {"android": "https://dc.lft.to/lastmile_qr_scan", "ios": "https://dc.lft.to/lastmile_qr_scan"}}, {"fusion_lon": 0.0, "bike_id": "2e2a92190dcd7bca2415902d0a22d9a7", "lon": -77.04165683333333, "lat": 38.89741816666667, "is_disabled": 0, "name": "2e2a92190dcd7bca2415902d0a22d9a7", "is_reserved": 0, "fusion_lat": 0.0, "type": "electric_scooter", "rental_uris": {"android": "https://dc.lft.to/lastmile_qr_scan", "ios": "https://dc.lft.to/lastmile_qr_scan"}}, {"fusion_lon": 0.0, "bike_id": "ba25e5165e7ee45f9ff5d2ac07a3edee", "lon": -77.00292466666667, "lat": 38.89190833333333, "is_disabled": 0, "name": "ba25e5165e7ee45f9ff5d2ac07a3edee", "is_reserved": 0, "fusion_lat": 0.0, "type": "electric_scooter", "rental_uris": {"android": "https://dc.lft.to/lastmile_qr_scan", "ios": "https://dc.lft.to/lastmile_qr_scan"}}, {"fusion_lon": 0.0, "bike_id": "c8001eb50558004399050267bedfa1df", "lon": -77.0001985, "lat": 38.87399666666666, "is_disabled": 0, "name": "c8001eb50558004399050267bedfa1df", "is_reserved": 0, "fusion_lat": 0.0, "type": "electric_scooter", "rental_uris": {"android": "https://dc.lft.to/lastmile_qr_scan", "ios": "https://dc.lft.to/lastmile_qr_scan"}}, {"fusion_lon": 0.0, "bike_id": "fdde50bbba98a076f9beaccacd2cb321", "lon": -76.90185, "lat": 39.0018865, "is_disabled": 0, "name": "fdde50bbba98a076f9beaccacd2cb321", "is_reserved": 0, "fusion_lat": 0.0, "type": "electric_bike", "rental_uris": {"android": "https://dc.lft.to/lastmile_qr_scan", "ios": "https://dc.lft.to/lastmile_qr_scan"}}, {"fusion_lon": 0.0, "bike_id": "a266ed489f10f6a607d9d160aec4b153", "lon": -77.00333766666667, "lat": 38.89352933333333, "is_disabled": 0, "name": "a266ed489f10f6a607d9d160aec4b153", "is_reserved": 0, "fusion_lat": 0.0, "type": "electric_scooter", "rental_uris": {"android": "https://dc.lft.to/lastmile_qr_scan", "ios": "https://dc.lft.to/lastmile_qr_scan"}}, {"fusion_lon": 0.0, "bike_id": "5f769be20b8b9090d84fec579c66f9d8", "lon": -77.034403, "lat": 38.92144566666666, "is_disabled": 0, "name": "5f769be20b8b9090d84fec579c66f9d8", "is_reserved": 0, "fusion_lat": 0.0, "type": "electric_scooter", "rental_uris": {"android": "https://dc.lft.to/lastmile_qr_scan", "ios": "https://dc.lft.to/lastmile_qr_scan"}}, {"fusion_lon": 0.0, "bike_id": "22122994727726ce81ed51c184681da5", "lon": -77.022062, "lat": 38.89385033333333, "is_disabled": 0, "name": "22122994727726ce81ed51c184681da5", "is_reserved": 0, "fusion_lat": 0.0, "type": "electric_scooter", "rental_uris": {"android": "https://dc.lft.to/lastmile_qr_scan", "ios": "https://dc.lft.to/lastmile_qr_scan"}}, {"fusion_lon": 0.0, "bike_id": "dadd19833923824260ec6070df98d78e", "lon": -77.041557, "lat": 38.91748483333333, "is_disabled": 0, "name": "dadd19833923824260ec6070df98d78e", "is_reserved": 0, "fusion_lat": 0.0, "type": "electric_scooter", "rental_uris": {"android": "https://dc.lft.to/lastmile_qr_scan", "ios": "https://dc.lft.to/lastmile_qr_scan"}}, {"fusion_lon": 0.0, "bike_id": "465a781f9cf2f678bc5a96e51d072f01", "lon": -77.02293883333333, "lat": 38.92057616666666, "is_disabled": 0, "name": "465a781f9cf2f678bc5a96e51d072f01", "is_reserved": 0, "fusion_lat": 0.0, "type": "electric_scooter", "rental_uris": {"android": "https://dc.lft.to/lastmile_qr_scan", "ios": "https://dc.lft.to/lastmile_qr_scan"}}, {"fusion_lon": 0.0, "bike_id": "c484041fd0098824d819558daf170228", "lon": -77.11411566666666, "lat": 38.873214, "is_disabled": 0, "name": "c484041fd0098824d819558daf170228", "is_reserved": 0, "fusion_lat": 0.0, "type": "electric_bike", "rental_uris": {"android": "https://dc.lft.to/lastmile_qr_scan", "ios": "https://dc.lft.to/lastmile_qr_scan"}}, {"fusion_lon": 0.0, "bike_id": "3d1560eb9b76d7d2666407bc0049bd75", "lon": -77.05808433333333, "lat": 38.9346075, "is_disabled": 0, "name": "3d1560eb9b76d7d2666407bc0049bd75", "is_reserved": 0, "fusion_lat": 0.0, "type": "electric_scooter", "rental_uris": {"android": "https://dc.lft.to/lastmile_qr_scan", "ios": "https://dc.lft.to/lastmile_qr_scan"}}, {"fusion_lon": 0.0, "bike_id": "566dc6369daa8b0e8ce1b2517c62018e", "lon": -77.04335833333333, "lat": 38.92317083333333, "is_disabled": 0, "name": "566dc6369daa8b0e8ce1b2517c62018e", "is_reserved": 0, "fusion_lat": 0.0, "type": "electric_scooter", "rental_uris": {"android": "https://dc.lft.to/lastmile_qr_scan", "ios": "https://dc.lft.to/lastmile_qr_scan"}}, {"fusion_lon": 0.0, "bike_id": "8edd207c82f43ef05939cbc64b5cccea", "lon": -77.02228766666667, "lat": 38.914154333333336, "is_disabled": 0, "name": "8edd207c82f43ef05939cbc64b5cccea", "is_reserved": 0, "fusion_lat": 0.0, "type": "electric_scooter", "rental_uris": {"android": "https://dc.lft.to/lastmile_qr_scan", "ios": "https://dc.lft.to/lastmile_qr_scan"}}, {"fusion_lon": 0.0, "bike_id": "901a9322c7b98cc8f3afa9ddc8ae6ce2", "lon": -77.04404166666667, "lat": 38.92952833333333, "is_disabled": 0, "name": "901a9322c7b98cc8f3afa9ddc8ae6ce2", "is_reserved": 0, "fusion_lat": 0.0, "type": "electric_scooter", "rental_uris": {"android": "https://dc.lft.to/lastmile_qr_scan", "ios": "https://dc.lft.to/lastmile_qr_scan"}}, {"fusion_lon": 0.0, "bike_id": "0da9e242fc38412e2d686ede266c8012", "lon": -76.98624383333333, "lat": 38.90587816666667, "is_disabled": 0, "name": "0da9e242fc38412e2d686ede266c8012", "is_reserved": 0, "fusion_lat": 0.0, "type": "electric_scooter", "rental_uris": {"android": "https://dc.lft.to/lastmile_qr_scan", "ios": "https://dc.lft.to/lastmile_qr_scan"}}, {"fusion_lon": 0.0, "bike_id": "825a0101d3e267a72dd993b668b0d729", "lon": -76.96546183333334, "lat": 38.87884016666667, "is_disabled": 0, "name": "825a0101d3e267a72dd993b668b0d729", "is_reserved": 0, "fusion_lat": 0.0, "type": "electric_scooter", "rental_uris": {"android": "https://dc.lft.to/lastmile_qr_scan", "ios": "https://dc.lft.to/lastmile_qr_scan"}}, {"fusion_lon": 0.0, "bike_id": "ea05dc31603384cb8888260d0521f8cc", "lon": -77.00207566666667, "lat": 38.901278833333336, "is_disabled": 0, "name": "ea05dc31603384cb8888260d0521f8cc", "is_reserved": 0, "fusion_lat": 0.0, "type": "electric_scooter", "rental_uris": {"android": "https://dc.lft.to/lastmile_qr_scan", "ios": "https://dc.lft.to/lastmile_qr_scan"}}, {"fusion_lon": 0.0, "bike_id": "d66998a2aa3fc1678015483d23d426c4", "lon": -77.0463885, "lat": 38.906375833333335, "is_disabled": 0, "name": "d66998a2aa3fc1678015483d23d426c4", "is_reserved": 0, "fusion_lat": 0.0, "type": "electric_scooter", "rental_uris": {"android": "https://dc.lft.to/lastmile_qr_scan", "ios": "https://dc.lft.to/lastmile_qr_scan"}}, {"fusion_lon": 0.0, "bike_id": "8e6cae7455a782fd0d230d00df2198e2", "lon": -77.00984516666666, "lat": 38.8728735, "is_disabled": 0, "name": "8e6cae7455a782fd0d230d00df2198e2", "is_reserved": 0, "fusion_lat": 0.0, "type": "electric_scooter", "rental_uris": {"android": "https://dc.lft.to/lastmile_qr_scan", "ios": "https://dc.lft.to/lastmile_qr_scan"}}, {"fusion_lon": 0.0, "bike_id": "59e9f00d1fee40ba2e33a8215b2c0781", "lon": -77.01908283333333, "lat": 38.921751, "is_disabled": 0, "name": "59e9f00d1fee40ba2e33a8215b2c0781", "is_reserved": 0, "fusion_lat": 0.0, "type": "electric_scooter", "rental_uris": {"android": "https://dc.lft.to/lastmile_qr_scan", "ios": "https://dc.lft.to/lastmile_qr_scan"}}, {"fusion_lon": 0.0, "bike_id": "dcea79d4e916f5079181b89010b32a5c", "lon": -77.08127133333333, "lat": 38.909688833333334, "is_disabled": 0, "name": "dcea79d4e916f5079181b89010b32a5c", "is_reserved": 0, "fusion_lat": 0.0, "type": "electric_scooter", "rental_uris": {"android": "https://dc.lft.to/lastmile_qr_scan", "ios": "https://dc.lft.to/lastmile_qr_scan"}}, {"fusion_lon": 0.0, "bike_id": "9f85fadaed68c0e37f307ebc7863feb0", "lon": -77.01219533333334, "lat": 38.9251275, "is_disabled": 0, "name": "9f85fadaed68c0e37f307ebc7863feb0", "is_reserved": 0, "fusion_lat": 0.0, "type": "electric_scooter", "rental_uris": {"android": "https://dc.lft.to/lastmile_qr_scan", "ios": "https://dc.lft.to/lastmile_qr_scan"}}, {"fusion_lon": 0.0, "bike_id": "68197afd390de44061f797bdb510baf2", "lon": -77.00534333333333, "lat": 38.875430333333334, "is_disabled": 0, "name": "68197afd390de44061f797bdb510baf2", "is_reserved": 0, "fusion_lat": 0.0, "type": "electric_scooter", "rental_uris": {"android": "https://dc.lft.to/lastmile_qr_scan", "ios": "https://dc.lft.to/lastmile_qr_scan"}}, {"fusion_lon": 0.0, "bike_id": "d13d23b97a0e75c44b2a3573048055d0", "lon": -77.01539616666666, "lat": 38.920563, "is_disabled": 0, "name": "d13d23b97a0e75c44b2a3573048055d0", "is_reserved": 0, "fusion_lat": 0.0, "type": "electric_scooter", "rental_uris": {"android": "https://dc.lft.to/lastmile_qr_scan", "ios": "https://dc.lft.to/lastmile_qr_scan"}}, {"fusion_lon": 0.0, "bike_id": "b1a7113d06edb1411d78c940d4abf9a2", "lon": -77.001872, "lat": 38.87408583333333, "is_disabled": 0, "name": "b1a7113d06edb1411d78c940d4abf9a2", "is_reserved": 0, "fusion_lat": 0.0, "type": "electric_scooter", "rental_uris": {"android": "https://dc.lft.to/lastmile_qr_scan", "ios": "https://dc.lft.to/lastmile_qr_scan"}}, {"fusion_lon": 0.0, "bike_id": "22b8d4296b156fd813ca2772ffa8ddff", "lon": -77.03204266666667, "lat": 38.9071, "is_disabled": 0, "name": "22b8d4296b156fd813ca2772ffa8ddff", "is_reserved": 0, "fusion_lat": 0.0, "type": "electric_scooter", "rental_uris": {"android": "https://dc.lft.to/lastmile_qr_scan", "ios": "https://dc.lft.to/lastmile_qr_scan"}}, {"fusion_lon": 0.0, "bike_id": "596fb67beb271687d1335403b6323015", "lon": -77.07279383333334, "lat": 38.932279333333334, "is_disabled": 0, "name": "596fb67beb271687d1335403b6323015", "is_reserved": 0, "fusion_lat": 0.0, "type": "electric_scooter", "rental_uris": {"android": "https://dc.lft.to/lastmile_qr_scan", "ios": "https://dc.lft.to/lastmile_qr_scan"}}, {"fusion_lon": 0.0, "bike_id": "87accc304e40a4bfa5caf32492986da0", "lon": -77.04905266666667, "lat": 38.91600483333333, "is_disabled": 0, "name": "87accc304e40a4bfa5caf32492986da0", "is_reserved": 0, "fusion_lat": 0.0, "type": "electric_scooter", "rental_uris": {"android": "https://dc.lft.to/lastmile_qr_scan", "ios": "https://dc.lft.to/lastmile_qr_scan"}}, {"fusion_lon": 0.0, "bike_id": "8943a8c2aaa6bfcb0cfd7fe74d376a6e", "lon": -77.03043466666666, "lat": 38.92381866666667, "is_disabled": 0, "name": "8943a8c2aaa6bfcb0cfd7fe74d376a6e", "is_reserved": 0, "fusion_lat": 0.0, "type": "electric_scooter", "rental_uris": {"android": "https://dc.lft.to/lastmile_qr_scan", "ios": "https://dc.lft.to/lastmile_qr_scan"}}, {"fusion_lon": 0.0, "bike_id": "da41e3029b8904806a314af7c72d65f7", "lon": -77.02293433333334, "lat": 38.920659, "is_disabled": 0, "name": "da41e3029b8904806a314af7c72d65f7", "is_reserved": 0, "fusion_lat": 0.0, "type": "electric_scooter", "rental_uris": {"android": "https://dc.lft.to/lastmile_qr_scan", "ios": "https://dc.lft.to/lastmile_qr_scan"}}, {"fusion_lon": 0.0, "bike_id": "85f979a3432770bf105ed44d7bc4bfcb", "lon": -77.003298, "lat": 38.89363983333333, "is_disabled": 0, "name": "85f979a3432770bf105ed44d7bc4bfcb", "is_reserved": 0, "fusion_lat": 0.0, "type": "electric_scooter", "rental_uris": {"android": "https://dc.lft.to/lastmile_qr_scan", "ios": "https://dc.lft.to/lastmile_qr_scan"}}, {"fusion_lon": 0.0, "bike_id": "4c66694d2c3f0ed9f1e41b0577258a3c", "lon": -77.01224316666666, "lat": 38.8980585, "is_disabled": 0, "name": "4c66694d2c3f0ed9f1e41b0577258a3c", "is_reserved": 0, "fusion_lat": 0.0, "type": "electric_scooter", "rental_uris": {"android": "https://dc.lft.to/lastmile_qr_scan", "ios": "https://dc.lft.to/lastmile_qr_scan"}}, {"fusion_lon": 0.0, "bike_id": "66c5dd13644c05bc39b32c78c5f16905", "lon": -77.01888716666667, "lat": 38.89743416666666, "is_disabled": 0, "name": "66c5dd13644c05bc39b32c78c5f16905", "is_reserved": 0, "fusion_lat": 0.0, "type": "electric_scooter", "rental_uris": {"android": "https://dc.lft.to/lastmile_qr_scan", "ios": "https://dc.lft.to/lastmile_qr_scan"}}, {"fusion_lon": 0.0, "bike_id": "a1fe71f5bd8e562718d335a2ed192b4a", "lon": -77.02990516666667, "lat": 38.89954916666667, "is_disabled": 0, "name": "a1fe71f5bd8e562718d335a2ed192b4a", "is_reserved": 0, "fusion_lat": 0.0, "type": "electric_scooter", "rental_uris": {"android": "https://dc.lft.to/lastmile_qr_scan", "ios": "https://dc.lft.to/lastmile_qr_scan"}}, {"fusion_lon": 0.0, "bike_id": "900274a58a73493cce9a82e0e600161c", "lon": -76.92633816666667, "lat": 38.88619083333333, "is_disabled": 0, "name": "900274a58a73493cce9a82e0e600161c", "is_reserved": 0, "fusion_lat": 0.0, "type": "electric_scooter", "rental_uris": {"android": "https://dc.lft.to/lastmile_qr_scan", "ios": "https://dc.lft.to/lastmile_qr_scan"}}, {"fusion_lon": 0.0, "bike_id": "058fd11bd4427e9df6ba8a1ac6d12c10", "lon": -77.04120716666667, "lat": 38.932221166666665, "is_disabled": 0, "name": "058fd11bd4427e9df6ba8a1ac6d12c10", "is_reserved": 0, "fusion_lat": 0.0, "type": "electric_scooter", "rental_uris": {"android": "https://dc.lft.to/lastmile_qr_scan", "ios": "https://dc.lft.to/lastmile_qr_scan"}}, {"fusion_lon": 0.0, "bike_id": "35ff4c0638f1d59c5b5e633896c08284", "lon": -77.041267, "lat": 38.921131833333334, "is_disabled": 0, "name": "35ff4c0638f1d59c5b5e633896c08284", "is_reserved": 0, "fusion_lat": 0.0, "type": "electric_scooter", "rental_uris": {"android": "https://dc.lft.to/lastmile_qr_scan", "ios": "https://dc.lft.to/lastmile_qr_scan"}}, {"fusion_lon": 0.0, "bike_id": "8bfa1a26ab57027c9a96bedb5abe27cc", "lon": -77.03525266666666, "lat": 38.9235665, "is_disabled": 0, "name": "8bfa1a26ab57027c9a96bedb5abe27cc", "is_reserved": 0, "fusion_lat": 0.0, "type": "electric_scooter", "rental_uris": {"android": "https://dc.lft.to/lastmile_qr_scan", "ios": "https://dc.lft.to/lastmile_qr_scan"}}, {"fusion_lon": 0.0, "bike_id": "6891c122368ee8061cefe2511f75da64", "lon": -77.07430283333333, "lat": 38.935827333333336, "is_disabled": 0, "name": "6891c122368ee8061cefe2511f75da64", "is_reserved": 0, "fusion_lat": 0.0, "type": "electric_scooter", "rental_uris": {"android": "https://dc.lft.to/lastmile_qr_scan", "ios": "https://dc.lft.to/lastmile_qr_scan"}}, {"fusion_lon": 0.0, "bike_id": "cb32081dacc32d2650c5ef3cfb9b5bc3", "lon": -77.01378783333334, "lat": 38.8984905, "is_disabled": 0, "name": "cb32081dacc32d2650c5ef3cfb9b5bc3", "is_reserved": 0, "fusion_lat": 0.0, "type": "electric_scooter", "rental_uris": {"android": "https://dc.lft.to/lastmile_qr_scan", "ios": "https://dc.lft.to/lastmile_qr_scan"}}, {"fusion_lon": 0.0, "bike_id": "1e91e67367e2b2ab37e92d1ce485f200", "lon": -77.025736, "lat": 38.890429833333336, "is_disabled": 0, "name": "1e91e67367e2b2ab37e92d1ce485f200", "is_reserved": 0, "fusion_lat": 0.0, "type": "electric_scooter", "rental_uris": {"android": "https://dc.lft.to/lastmile_qr_scan", "ios": "https://dc.lft.to/lastmile_qr_scan"}}, {"fusion_lon": 0.0, "bike_id": "8099bd9c16f7f3075defea21bfc0b125", "lon": -76.93195016666667, "lat": 38.898511666666664, "is_disabled": 0, "name": "8099bd9c16f7f3075defea21bfc0b125", "is_reserved": 0, "fusion_lat": 0.0, "type": "electric_scooter", "rental_uris": {"android": "https://dc.lft.to/lastmile_qr_scan", "ios": "https://dc.lft.to/lastmile_qr_scan"}}, {"fusion_lon": 0.0, "bike_id": "60fd6b46cd11336dcecb6ee855ef8e01", "lon": -76.98621416666667, "lat": 38.90584166666667, "is_disabled": 0, "name": "60fd6b46cd11336dcecb6ee855ef8e01", "is_reserved": 0, "fusion_lat": 0.0, "type": "electric_scooter", "rental_uris": {"android": "https://dc.lft.to/lastmile_qr_scan", "ios": "https://dc.lft.to/lastmile_qr_scan"}}, {"fusion_lon": 0.0, "bike_id": "2a0a8a9f42dc58f2a8740bdf4b543446", "lon": -77.054198, "lat": 38.98520533333333, "is_disabled": 0, "name": "2a0a8a9f42dc58f2a8740bdf4b543446", "is_reserved": 0, "fusion_lat": 0.0, "type": "electric_scooter", "rental_uris": {"android": "https://dc.lft.to/lastmile_qr_scan", "ios": "https://dc.lft.to/lastmile_qr_scan"}}, {"fusion_lon": 0.0, "bike_id": "2e4a5daf9e2bf2d4650a7c7fc1567c9b", "lon": -77.05933666666667, "lat": 38.942951, "is_disabled": 0, "name": "2e4a5daf9e2bf2d4650a7c7fc1567c9b", "is_reserved": 0, "fusion_lat": 0.0, "type": "electric_scooter", "rental_uris": {"android": "https://dc.lft.to/lastmile_qr_scan", "ios": "https://dc.lft.to/lastmile_qr_scan"}}, {"fusion_lon": 0.0, "bike_id": "d98cd4116aac2732d593dad2970c371e", "lon": -76.99018583333333, "lat": 38.86512233333333, "is_disabled": 0, "name": "d98cd4116aac2732d593dad2970c371e", "is_reserved": 0, "fusion_lat": 0.0, "type": "electric_scooter", "rental_uris": {"android": "https://dc.lft.to/lastmile_qr_scan", "ios": "https://dc.lft.to/lastmile_qr_scan"}}, {"fusion_lon": 0.0, "bike_id": "fa93562df0c4e58663fe6812dcba0f75", "lon": -77.0682635, "lat": 38.91802116666667, "is_disabled": 0, "name": "fa93562df0c4e58663fe6812dcba0f75", "is_reserved": 0, "fusion_lat": 0.0, "type": "electric_scooter", "rental_uris": {"android": "https://dc.lft.to/lastmile_qr_scan", "ios": "https://dc.lft.to/lastmile_qr_scan"}}, {"fusion_lon": 0.0, "bike_id": "ff8434af5493a83059938d7eb3fd6699", "lon": -76.92438783333333, "lat": 38.88511416666667, "is_disabled": 0, "name": "ff8434af5493a83059938d7eb3fd6699", "is_reserved": 0, "fusion_lat": 0.0, "type": "electric_scooter", "rental_uris": {"android": "https://dc.lft.to/lastmile_qr_scan", "ios": "https://dc.lft.to/lastmile_qr_scan"}}, {"fusion_lon": 0.0, "bike_id": "d0458afadccc8ca42ec8f683717f0a60", "lon": -77.02243, "lat": 38.924295666666666, "is_disabled": 0, "name": "d0458afadccc8ca42ec8f683717f0a60", "is_reserved": 0, "fusion_lat": 0.0, "type": "electric_scooter", "rental_uris": {"android": "https://dc.lft.to/lastmile_qr_scan", "ios": "https://dc.lft.to/lastmile_qr_scan"}}, {"fusion_lon": 0.0, "bike_id": "4488a4f095b67fa15abca07b42358778", "lon": -77.008814, "lat": 38.8790975, "is_disabled": 0, "name": "4488a4f095b67fa15abca07b42358778", "is_reserved": 0, "fusion_lat": 0.0, "type": "electric_scooter", "rental_uris": {"android": "https://dc.lft.to/lastmile_qr_scan", "ios": "https://dc.lft.to/lastmile_qr_scan"}}, {"fusion_lon": 0.0, "bike_id": "2f5ab766dff44be86e6ef2597393c412", "lon": -76.97216866666666, "lat": 38.900321, "is_disabled": 0, "name": "2f5ab766dff44be86e6ef2597393c412", "is_reserved": 0, "fusion_lat": 0.0, "type": "electric_bike", "rental_uris": {"android": "https://dc.lft.to/lastmile_qr_scan", "ios": "https://dc.lft.to/lastmile_qr_scan"}}, {"fusion_lon": 0.0, "bike_id": "1a096e341f9bf4474ee36bd6f4d76721", "lon": -77.078359, "lat": 38.926750166666665, "is_disabled": 0, "name": "1a096e341f9bf4474ee36bd6f4d76721", "is_reserved": 0, "fusion_lat": 0.0, "type": "electric_scooter", "rental_uris": {"android": "https://dc.lft.to/lastmile_qr_scan", "ios": "https://dc.lft.to/lastmile_qr_scan"}}, {"fusion_lon": 0.0, "bike_id": "891ab932e51b7e2ce5b8f538207430b6", "lon": -77.05606383333334, "lat": 38.93116333333333, "is_disabled": 0, "name": "891ab932e51b7e2ce5b8f538207430b6", "is_reserved": 0, "fusion_lat": 0.0, "type": "electric_scooter", "rental_uris": {"android": "https://dc.lft.to/lastmile_qr_scan", "ios": "https://dc.lft.to/lastmile_qr_scan"}}, {"fusion_lon": 0.0, "bike_id": "71ff45ee652cd85f96690cbbdfc11024", "lon": -76.90747216666666, "lat": 38.89617366666667, "is_disabled": 0, "name": "71ff45ee652cd85f96690cbbdfc11024", "is_reserved": 0, "fusion_lat": 0.0, "type": "electric_bike", "rental_uris": {"android": "https://dc.lft.to/lastmile_qr_scan", "ios": "https://dc.lft.to/lastmile_qr_scan"}}, {"fusion_lon": 0.0, "bike_id": "e5b0f578d4901705fb6451e6626abb83", "lon": -77.031545, "lat": 38.89796466666667, "is_disabled": 0, "name": "e5b0f578d4901705fb6451e6626abb83", "is_reserved": 0, "fusion_lat": 0.0, "type": "electric_scooter", "rental_uris": {"android": "https://dc.lft.to/lastmile_qr_scan", "ios": "https://dc.lft.to/lastmile_qr_scan"}}, {"fusion_lon": 0.0, "bike_id": "31de5094fcfe7dfa5cf66a157ff94ee4", "lon": -77.01274966666666, "lat": 38.89711616666666, "is_disabled": 0, "name": "31de5094fcfe7dfa5cf66a157ff94ee4", "is_reserved": 0, "fusion_lat": 0.0, "type": "electric_scooter", "rental_uris": {"android": "https://dc.lft.to/lastmile_qr_scan", "ios": "https://dc.lft.to/lastmile_qr_scan"}}, {"fusion_lon": 0.0, "bike_id": "63a0776629ee3864731087ea7d06b0b6", "lon": -77.04649333333333, "lat": 38.900155166666664, "is_disabled": 0, "name": "63a0776629ee3864731087ea7d06b0b6", "is_reserved": 0, "fusion_lat": 0.0, "type": "electric_scooter", "rental_uris": {"android": "https://dc.lft.to/lastmile_qr_scan", "ios": "https://dc.lft.to/lastmile_qr_scan"}}, {"fusion_lon": 0.0, "bike_id": "9876e943d30148a246a38c8034e16324", "lon": -77.0071185, "lat": 38.90722566666667, "is_disabled": 0, "name": "9876e943d30148a246a38c8034e16324", "is_reserved": 0, "fusion_lat": 0.0, "type": "electric_scooter", "rental_uris": {"android": "https://dc.lft.to/lastmile_qr_scan", "ios": "https://dc.lft.to/lastmile_qr_scan"}}, {"fusion_lon": 0.0, "bike_id": "df15ba01cbd8bc043bfee3b36862f85c", "lon": -77.03171066666667, "lat": 38.892205, "is_disabled": 0, "name": "df15ba01cbd8bc043bfee3b36862f85c", "is_reserved": 0, "fusion_lat": 0.0, "type": "electric_scooter", "rental_uris": {"android": "https://dc.lft.to/lastmile_qr_scan", "ios": "https://dc.lft.to/lastmile_qr_scan"}}, {"fusion_lon": 0.0, "bike_id": "30efdf2c7c4d06d6e0bc2f7b0b82d777", "lon": -77.00654483333334, "lat": 38.912447, "is_disabled": 0, "name": "30efdf2c7c4d06d6e0bc2f7b0b82d777", "is_reserved": 0, "fusion_lat": 0.0, "type": "electric_scooter", "rental_uris": {"android": "https://dc.lft.to/lastmile_qr_scan", "ios": "https://dc.lft.to/lastmile_qr_scan"}}, {"fusion_lon": 0.0, "bike_id": "c4f279691337d4cdc48fba574c3daea3", "lon": -77.02221716666666, "lat": 38.924769, "is_disabled": 0, "name": "c4f279691337d4cdc48fba574c3daea3", "is_reserved": 0, "fusion_lat": 0.0, "type": "electric_scooter", "rental_uris": {"android": "https://dc.lft.to/lastmile_qr_scan", "ios": "https://dc.lft.to/lastmile_qr_scan"}}, {"fusion_lon": 0.0, "bike_id": "2c98f27cd0d53043569704d56338b951", "lon": -76.9576615, "lat": 38.883547666666665, "is_disabled": 0, "name": "2c98f27cd0d53043569704d56338b951", "is_reserved": 0, "fusion_lat": 0.0, "type": "electric_scooter", "rental_uris": {"android": "https://dc.lft.to/lastmile_qr_scan", "ios": "https://dc.lft.to/lastmile_qr_scan"}}, {"fusion_lon": 0.0, "bike_id": "7df1a72a825d6440618b0e2ac78b6ba2", "lon": -77.032832, "lat": 38.929417, "is_disabled": 0, "name": "7df1a72a825d6440618b0e2ac78b6ba2", "is_reserved": 0, "fusion_lat": 0.0, "type": "electric_scooter", "rental_uris": {"android": "https://dc.lft.to/lastmile_qr_scan", "ios": "https://dc.lft.to/lastmile_qr_scan"}}, {"fusion_lon": 0.0, "bike_id": "b8fe3231727f7a76aee9be4ce412a8bb", "lon": -77.026723, "lat": 38.92168016666667, "is_disabled": 0, "name": "b8fe3231727f7a76aee9be4ce412a8bb", "is_reserved": 0, "fusion_lat": 0.0, "type": "electric_scooter", "rental_uris": {"android": "https://dc.lft.to/lastmile_qr_scan", "ios": "https://dc.lft.to/lastmile_qr_scan"}}, {"fusion_lon": 0.0, "bike_id": "ca47b165a6b8412a4d7c1b49aaea7045", "lon": -77.039255, "lat": 38.899164666666664, "is_disabled": 0, "name": "ca47b165a6b8412a4d7c1b49aaea7045", "is_reserved": 0, "fusion_lat": 0.0, "type": "electric_scooter", "rental_uris": {"android": "https://dc.lft.to/lastmile_qr_scan", "ios": "https://dc.lft.to/lastmile_qr_scan"}}, {"fusion_lon": 0.0, "bike_id": "5c72c271a6483a3e910bc66a2c4c308d", "lon": -77.02536416666666, "lat": 38.89227566666667, "is_disabled": 0, "name": "5c72c271a6483a3e910bc66a2c4c308d", "is_reserved": 0, "fusion_lat": 0.0, "type": "electric_scooter", "rental_uris": {"android": "https://dc.lft.to/lastmile_qr_scan", "ios": "https://dc.lft.to/lastmile_qr_scan"}}, {"fusion_lon": 0.0, "bike_id": "cfeac26b79db4f83d02c621659923146", "lon": -77.0261255, "lat": 38.896387833333335, "is_disabled": 0, "name": "cfeac26b79db4f83d02c621659923146", "is_reserved": 0, "fusion_lat": 0.0, "type": "electric_scooter", "rental_uris": {"android": "https://dc.lft.to/lastmile_qr_scan", "ios": "https://dc.lft.to/lastmile_qr_scan"}}, {"fusion_lon": 0.0, "bike_id": "e59ef190004d7e9907cb2006412c8a8e", "lon": -77.02210166666667, "lat": 38.9053485, "is_disabled": 0, "name": "e59ef190004d7e9907cb2006412c8a8e", "is_reserved": 0, "fusion_lat": 0.0, "type": "electric_scooter", "rental_uris": {"android": "https://dc.lft.to/lastmile_qr_scan", "ios": "https://dc.lft.to/lastmile_qr_scan"}}, {"fusion_lon": 0.0, "bike_id": "053b6841dd538cf77a8cc6405b8c011e", "lon": -76.98840766666666, "lat": 38.9347355, "is_disabled": 0, "name": "053b6841dd538cf77a8cc6405b8c011e", "is_reserved": 0, "fusion_lat": 0.0, "type": "electric_scooter", "rental_uris": {"android": "https://dc.lft.to/lastmile_qr_scan", "ios": "https://dc.lft.to/lastmile_qr_scan"}}, {"fusion_lon": 0.0, "bike_id": "b5e6dfc57dffd3398e1769ac3339cb5a", "lon": -77.02844166666667, "lat": 38.944961166666666, "is_disabled": 0, "name": "b5e6dfc57dffd3398e1769ac3339cb5a", "is_reserved": 0, "fusion_lat": 0.0, "type": "electric_scooter", "rental_uris": {"android": "https://dc.lft.to/lastmile_qr_scan", "ios": "https://dc.lft.to/lastmile_qr_scan"}}, {"fusion_lon": 0.0, "bike_id": "4a04da7d0aadcdef185b1c138d098de7", "lon": -77.02054133333333, "lat": 38.923585833333334, "is_disabled": 0, "name": "4a04da7d0aadcdef185b1c138d098de7", "is_reserved": 0, "fusion_lat": 0.0, "type": "electric_scooter", "rental_uris": {"android": "https://dc.lft.to/lastmile_qr_scan", "ios": "https://dc.lft.to/lastmile_qr_scan"}}, {"fusion_lon": 0.0, "bike_id": "c3c94475fee5f460e2115b728eced97a", "lon": -77.03657766666667, "lat": 38.9224165, "is_disabled": 0, "name": "c3c94475fee5f460e2115b728eced97a", "is_reserved": 0, "fusion_lat": 0.0, "type": "electric_scooter", "rental_uris": {"android": "https://dc.lft.to/lastmile_qr_scan", "ios": "https://dc.lft.to/lastmile_qr_scan"}}, {"fusion_lon": 0.0, "bike_id": "ac3bbfe169d5f6a416a66de9c14036fa", "lon": -76.98111933333334, "lat": 38.9456825, "is_disabled": 0, "name": "ac3bbfe169d5f6a416a66de9c14036fa", "is_reserved": 0, "fusion_lat": 0.0, "type": "electric_bike", "rental_uris": {"android": "https://dc.lft.to/lastmile_qr_scan", "ios": "https://dc.lft.to/lastmile_qr_scan"}}, {"fusion_lon": 0.0, "bike_id": "c1f368a73824bafd2b74635925b70d04", "lon": -77.0637715, "lat": 38.90606283333334, "is_disabled": 0, "name": "c1f368a73824bafd2b74635925b70d04", "is_reserved": 0, "fusion_lat": 0.0, "type": "electric_scooter", "rental_uris": {"android": "https://dc.lft.to/lastmile_qr_scan", "ios": "https://dc.lft.to/lastmile_qr_scan"}}, {"fusion_lon": 0.0, "bike_id": "8af8601178fb65684d158db22edcc407", "lon": -77.0215895, "lat": 38.9261145, "is_disabled": 0, "name": "8af8601178fb65684d158db22edcc407", "is_reserved": 0, "fusion_lat": 0.0, "type": "electric_scooter", "rental_uris": {"android": "https://dc.lft.to/lastmile_qr_scan", "ios": "https://dc.lft.to/lastmile_qr_scan"}}, {"fusion_lon": 0.0, "bike_id": "4edf3474d2ee8cc236f00e1c79f6ea3b", "lon": -76.97222583333334, "lat": 38.900252333333334, "is_disabled": 0, "name": "4edf3474d2ee8cc236f00e1c79f6ea3b", "is_reserved": 0, "fusion_lat": 0.0, "type": "electric_bike", "rental_uris": {"android": "https://dc.lft.to/lastmile_qr_scan", "ios": "https://dc.lft.to/lastmile_qr_scan"}}, {"fusion_lon": 0.0, "bike_id": "b88021ec69a0c52b842f47254939ca1e", "lon": -76.93261983333333, "lat": 38.8877465, "is_disabled": 0, "name": "b88021ec69a0c52b842f47254939ca1e", "is_reserved": 0, "fusion_lat": 0.0, "type": "electric_scooter", "rental_uris": {"android": "https://dc.lft.to/lastmile_qr_scan", "ios": "https://dc.lft.to/lastmile_qr_scan"}}, {"fusion_lon": 0.0, "bike_id": "5c07860bb4fa40cb57797fd9743a87d0", "lon": -77.00917116666666, "lat": 38.89555033333333, "is_disabled": 0, "name": "5c07860bb4fa40cb57797fd9743a87d0", "is_reserved": 0, "fusion_lat": 0.0, "type": "electric_scooter", "rental_uris": {"android": "https://dc.lft.to/lastmile_qr_scan", "ios": "https://dc.lft.to/lastmile_qr_scan"}}, {"fusion_lon": 0.0, "bike_id": "79b443682d1a33f81c70b3edfab62872", "lon": -77.0302525, "lat": 38.96276116666667, "is_disabled": 0, "name": "79b443682d1a33f81c70b3edfab62872", "is_reserved": 0, "fusion_lat": 0.0, "type": "electric_scooter", "rental_uris": {"android": "https://dc.lft.to/lastmile_qr_scan", "ios": "https://dc.lft.to/lastmile_qr_scan"}}, {"fusion_lon": 0.0, "bike_id": "0ce7617741835d0651ef475a6649699e", "lon": -77.02712433333333, "lat": 38.89815516666667, "is_disabled": 0, "name": "0ce7617741835d0651ef475a6649699e", "is_reserved": 0, "fusion_lat": 0.0, "type": "electric_scooter", "rental_uris": {"android": "https://dc.lft.to/lastmile_qr_scan", "ios": "https://dc.lft.to/lastmile_qr_scan"}}, {"fusion_lon": 0.0, "bike_id": "ff13e65a538d8666959a59bf250db239", "lon": -77.02844016666667, "lat": 38.94492433333333, "is_disabled": 0, "name": "ff13e65a538d8666959a59bf250db239", "is_reserved": 0, "fusion_lat": 0.0, "type": "electric_scooter", "rental_uris": {"android": "https://dc.lft.to/lastmile_qr_scan", "ios": "https://dc.lft.to/lastmile_qr_scan"}}, {"fusion_lon": 0.0, "bike_id": "b264ad4c5303970dd97d926ea76a98bc", "lon": -77.04018583333334, "lat": 38.89829483333333, "is_disabled": 0, "name": "b264ad4c5303970dd97d926ea76a98bc", "is_reserved": 0, "fusion_lat": 0.0, "type": "electric_scooter", "rental_uris": {"android": "https://dc.lft.to/lastmile_qr_scan", "ios": "https://dc.lft.to/lastmile_qr_scan"}}, {"fusion_lon": 0.0, "bike_id": "49ee5211ea5e49735477b52566738dc7", "lon": -77.0405025, "lat": 38.90723966666667, "is_disabled": 0, "name": "49ee5211ea5e49735477b52566738dc7", "is_reserved": 0, "fusion_lat": 0.0, "type": "electric_scooter", "rental_uris": {"android": "https://dc.lft.to/lastmile_qr_scan", "ios": "https://dc.lft.to/lastmile_qr_scan"}}, {"fusion_lon": 0.0, "bike_id": "4b31d653354fac88eea090ee2406ab86", "lon": -77.02403283333334, "lat": 38.920696166666666, "is_disabled": 0, "name": "4b31d653354fac88eea090ee2406ab86", "is_reserved": 0, "fusion_lat": 0.0, "type": "electric_scooter", "rental_uris": {"android": "https://dc.lft.to/lastmile_qr_scan", "ios": "https://dc.lft.to/lastmile_qr_scan"}}, {"fusion_lon": 0.0, "bike_id": "526ff1e8b2564a7368916d664c1e760f", "lon": -77.01227066666667, "lat": 38.95088233333333, "is_disabled": 0, "name": "526ff1e8b2564a7368916d664c1e760f", "is_reserved": 0, "fusion_lat": 0.0, "type": "electric_bike", "rental_uris": {"android": "https://dc.lft.to/lastmile_qr_scan", "ios": "https://dc.lft.to/lastmile_qr_scan"}}, {"fusion_lon": 0.0, "bike_id": "4e0129f84df01aa8d5c3809462e19300", "lon": -77.07240266666666, "lat": 38.939583, "is_disabled": 0, "name": "4e0129f84df01aa8d5c3809462e19300", "is_reserved": 0, "fusion_lat": 0.0, "type": "electric_scooter", "rental_uris": {"android": "https://dc.lft.to/lastmile_qr_scan", "ios": "https://dc.lft.to/lastmile_qr_scan"}}, {"fusion_lon": 0.0, "bike_id": "df8aa009a3373b71d1f5102ab00468c7", "lon": -77.0389005, "lat": 38.9204305, "is_disabled": 0, "name": "df8aa009a3373b71d1f5102ab00468c7", "is_reserved": 0, "fusion_lat": 0.0, "type": "electric_scooter", "rental_uris": {"android": "https://dc.lft.to/lastmile_qr_scan", "ios": "https://dc.lft.to/lastmile_qr_scan"}}, {"fusion_lon": 0.0, "bike_id": "1c60a5e8d8d4baddbb4a421bd46ed057", "lon": -77.043057, "lat": 38.92265583333333, "is_disabled": 0, "name": "1c60a5e8d8d4baddbb4a421bd46ed057", "is_reserved": 0, "fusion_lat": 0.0, "type": "electric_scooter", "rental_uris": {"android": "https://dc.lft.to/lastmile_qr_scan", "ios": "https://dc.lft.to/lastmile_qr_scan"}}, {"fusion_lon": 0.0, "bike_id": "89ae611a393a7abd46e10dbb3be87aee", "lon": -77.0435165, "lat": 38.903095, "is_disabled": 0, "name": "89ae611a393a7abd46e10dbb3be87aee", "is_reserved": 0, "fusion_lat": 0.0, "type": "electric_scooter", "rental_uris": {"android": "https://dc.lft.to/lastmile_qr_scan", "ios": "https://dc.lft.to/lastmile_qr_scan"}}, {"fusion_lon": 0.0, "bike_id": "e7dfcb0486858c5b3fff468136cc535e", "lon": -77.03141183333334, "lat": 38.914016, "is_disabled": 0, "name": "e7dfcb0486858c5b3fff468136cc535e", "is_reserved": 0, "fusion_lat": 0.0, "type": "electric_scooter", "rental_uris": {"android": "https://dc.lft.to/lastmile_qr_scan", "ios": "https://dc.lft.to/lastmile_qr_scan"}}, {"fusion_lon": 0.0, "bike_id": "405c841b64c0872a2c26bd0dc1556382", "lon": -77.02976733333334, "lat": 38.92249066666667, "is_disabled": 0, "name": "405c841b64c0872a2c26bd0dc1556382", "is_reserved": 0, "fusion_lat": 0.0, "type": "electric_scooter", "rental_uris": {"android": "https://dc.lft.to/lastmile_qr_scan", "ios": "https://dc.lft.to/lastmile_qr_scan"}}, {"fusion_lon": 0.0, "bike_id": "e1c74c9ff03035088df77db95a12d415", "lon": -77.055255, "lat": 38.92965183333333, "is_disabled": 0, "name": "e1c74c9ff03035088df77db95a12d415", "is_reserved": 0, "fusion_lat": 0.0, "type": "electric_scooter", "rental_uris": {"android": "https://dc.lft.to/lastmile_qr_scan", "ios": "https://dc.lft.to/lastmile_qr_scan"}}, {"fusion_lon": 0.0, "bike_id": "2b53b73208e857a38b9a7ec75c06bfbf", "lon": -77.00565683333333, "lat": 38.885019, "is_disabled": 0, "name": "2b53b73208e857a38b9a7ec75c06bfbf", "is_reserved": 0, "fusion_lat": 0.0, "type": "electric_scooter", "rental_uris": {"android": "https://dc.lft.to/lastmile_qr_scan", "ios": "https://dc.lft.to/lastmile_qr_scan"}}, {"fusion_lon": 0.0, "bike_id": "51d31d44f0abc5de7e824dd588cfac97", "lon": -77.02178766666667, "lat": 38.91971816666667, "is_disabled": 0, "name": "51d31d44f0abc5de7e824dd588cfac97", "is_reserved": 0, "fusion_lat": 0.0, "type": "electric_scooter", "rental_uris": {"android": "https://dc.lft.to/lastmile_qr_scan", "ios": "https://dc.lft.to/lastmile_qr_scan"}}, {"fusion_lon": 0.0, "bike_id": "7b60e930f16a3e01919a1e1fb3847044", "lon": -77.0379635, "lat": 38.93018216666667, "is_disabled": 0, "name": "7b60e930f16a3e01919a1e1fb3847044", "is_reserved": 0, "fusion_lat": 0.0, "type": "electric_scooter", "rental_uris": {"android": "https://dc.lft.to/lastmile_qr_scan", "ios": "https://dc.lft.to/lastmile_qr_scan"}}, {"fusion_lon": 0.0, "bike_id": "939c7fcee89afaf2d9a0192d713e5d94", "lon": -76.93592783333334, "lat": 38.909493166666664, "is_disabled": 0, "name": "939c7fcee89afaf2d9a0192d713e5d94", "is_reserved": 0, "fusion_lat": 0.0, "type": "electric_scooter", "rental_uris": {"android": "https://dc.lft.to/lastmile_qr_scan", "ios": "https://dc.lft.to/lastmile_qr_scan"}}, {"fusion_lon": 0.0, "bike_id": "b68ad78d169f802054d2449ddb8571bc", "lon": -76.951564, "lat": 39.084311666666665, "is_disabled": 0, "name": "b68ad78d169f802054d2449ddb8571bc", "is_reserved": 0, "fusion_lat": 0.0, "type": "electric_bike", "rental_uris": {"android": "https://dc.lft.to/lastmile_qr_scan", "ios": "https://dc.lft.to/lastmile_qr_scan"}}, {"fusion_lon": 0.0, "bike_id": "44140644879a48b82274e901b4d9106b", "lon": -77.04413133333334, "lat": 38.92577816666667, "is_disabled": 0, "name": "44140644879a48b82274e901b4d9106b", "is_reserved": 0, "fusion_lat": 0.0, "type": "electric_scooter", "rental_uris": {"android": "https://dc.lft.to/lastmile_qr_scan", "ios": "https://dc.lft.to/lastmile_qr_scan"}}, {"fusion_lon": 0.0, "bike_id": "3be4cfc8bb452d4c526e1e4b119d7758", "lon": -77.041159, "lat": 38.90006316666667, "is_disabled": 0, "name": "3be4cfc8bb452d4c526e1e4b119d7758", "is_reserved": 0, "fusion_lat": 0.0, "type": "electric_scooter", "rental_uris": {"android": "https://dc.lft.to/lastmile_qr_scan", "ios": "https://dc.lft.to/lastmile_qr_scan"}}, {"fusion_lon": 0.0, "bike_id": "6c58e2a8db1405ec49bab81ceedbb335", "lon": -77.01900316666666, "lat": 38.92333383333333, "is_disabled": 0, "name": "6c58e2a8db1405ec49bab81ceedbb335", "is_reserved": 0, "fusion_lat": 0.0, "type": "electric_scooter", "rental_uris": {"android": "https://dc.lft.to/lastmile_qr_scan", "ios": "https://dc.lft.to/lastmile_qr_scan"}}, {"fusion_lon": 0.0, "bike_id": "b8feda695f0c2d216850df6df1c1f802", "lon": -77.01351766666667, "lat": 38.903824666666665, "is_disabled": 0, "name": "b8feda695f0c2d216850df6df1c1f802", "is_reserved": 0, "fusion_lat": 0.0, "type": "electric_bike", "rental_uris": {"android": "https://dc.lft.to/lastmile_qr_scan", "ios": "https://dc.lft.to/lastmile_qr_scan"}}, {"fusion_lon": 0.0, "bike_id": "5e0922ec5a76e873ceb9dc39ce3c3ac6", "lon": -77.02688716666667, "lat": 38.89766216666666, "is_disabled": 0, "name": "5e0922ec5a76e873ceb9dc39ce3c3ac6", "is_reserved": 0, "fusion_lat": 0.0, "type": "electric_scooter", "rental_uris": {"android": "https://dc.lft.to/lastmile_qr_scan", "ios": "https://dc.lft.to/lastmile_qr_scan"}}, {"fusion_lon": 0.0, "bike_id": "e2fe3cce79e3b2852ae6b6353bcfc3f0", "lon": -76.99009183333334, "lat": 38.89988966666667, "is_disabled": 0, "name": "e2fe3cce79e3b2852ae6b6353bcfc3f0", "is_reserved": 0, "fusion_lat": 0.0, "type": "electric_scooter", "rental_uris": {"android": "https://dc.lft.to/lastmile_qr_scan", "ios": "https://dc.lft.to/lastmile_qr_scan"}}, {"fusion_lon": 0.0, "bike_id": "39cc3c3b87b731aa444ae437df06e608", "lon": -77.03316233333334, "lat": 38.9031765, "is_disabled": 0, "name": "39cc3c3b87b731aa444ae437df06e608", "is_reserved": 0, "fusion_lat": 0.0, "type": "electric_scooter", "rental_uris": {"android": "https://dc.lft.to/lastmile_qr_scan", "ios": "https://dc.lft.to/lastmile_qr_scan"}}, {"fusion_lon": 0.0, "bike_id": "d85cc979789c6ce6e3a76875680677bf", "lon": -77.0355535, "lat": 38.904715333333336, "is_disabled": 0, "name": "d85cc979789c6ce6e3a76875680677bf", "is_reserved": 0, "fusion_lat": 0.0, "type": "electric_scooter", "rental_uris": {"android": "https://dc.lft.to/lastmile_qr_scan", "ios": "https://dc.lft.to/lastmile_qr_scan"}}, {"fusion_lon": 0.0, "bike_id": "1dcd46323745098aa4a5658bb12e7b60", "lon": -77.03727533333333, "lat": 38.92468483333333, "is_disabled": 0, "name": "1dcd46323745098aa4a5658bb12e7b60", "is_reserved": 0, "fusion_lat": 0.0, "type": "electric_scooter", "rental_uris": {"android": "https://dc.lft.to/lastmile_qr_scan", "ios": "https://dc.lft.to/lastmile_qr_scan"}}, {"fusion_lon": 0.0, "bike_id": "75890e7fde1ac01ae1cd9760aa64511c", "lon": -77.04175266666667, "lat": 38.91610433333334, "is_disabled": 0, "name": "75890e7fde1ac01ae1cd9760aa64511c", "is_reserved": 0, "fusion_lat": 0.0, "type": "electric_scooter", "rental_uris": {"android": "https://dc.lft.to/lastmile_qr_scan", "ios": "https://dc.lft.to/lastmile_qr_scan"}}, {"fusion_lon": 0.0, "bike_id": "3f066ab2918a0c088f00b1418706ad2f", "lon": -77.02449066666667, "lat": 38.91331516666666, "is_disabled": 0, "name": "3f066ab2918a0c088f00b1418706ad2f", "is_reserved": 0, "fusion_lat": 0.0, "type": "electric_scooter", "rental_uris": {"android": "https://dc.lft.to/lastmile_qr_scan", "ios": "https://dc.lft.to/lastmile_qr_scan"}}, {"fusion_lon": 0.0, "bike_id": "14cb89b406469b99a06ccffa9241515a", "lon": -77.04074116666666, "lat": 38.90508616666666, "is_disabled": 0, "name": "14cb89b406469b99a06ccffa9241515a", "is_reserved": 0, "fusion_lat": 0.0, "type": "electric_scooter", "rental_uris": {"android": "https://dc.lft.to/lastmile_qr_scan", "ios": "https://dc.lft.to/lastmile_qr_scan"}}, {"fusion_lon": 0.0, "bike_id": "00d82387a5bd181b4a9d75178a5c5367", "lon": -77.0019575, "lat": 38.900342333333334, "is_disabled": 0, "name": "00d82387a5bd181b4a9d75178a5c5367", "is_reserved": 0, "fusion_lat": 0.0, "type": "electric_scooter", "rental_uris": {"android": "https://dc.lft.to/lastmile_qr_scan", "ios": "https://dc.lft.to/lastmile_qr_scan"}},