{"data": {"bikes": [{"is_disabled": 0, "fusion_lat": 0.0, "lat": 38.92441916666667, "type": "electric_scooter", "lon": -77.0411365, "is_reserved": 0, "fusion_lon": 0.0, "bike_id": "7bd952c5ff27df567ca260c3629a9c35", "name": "7bd952c5ff27df567ca260c3629a9c35", "rental_uris": {"ios": "https://dc.lft.to/lastmile_qr_scan", "android": "https://dc.lft.to/lastmile_qr_scan"}}, {"is_disabled": 0, "fusion_lat": 0.0, "lat": 38.91709516666667, "type": "electric_scooter", "lon": -77.03122633333334, "is_reserved": 0, "fusion_lon": 0.0, "bike_id": "867b3255d392b1b04d4c27fef3f91ae0", "name": "867b3255d392b1b04d4c27fef3f91ae0", "rental_uris": {"ios": "https://dc.lft.to/lastmile_qr_scan", "android": "https://dc.lft.to/lastmile_qr_scan"}}, {"is_disabled": 0, "fusion_lat": 0.0, "lat": 38.895321833333334, "type": "electric_scooter", "lon": -76.9488975, "is_reserved": 0, "fusion_lon": 0.0, "bike_id": "c627a5a74d533ffc7e19ab1ac66f7a8a", "name": "c627a5a74d533ffc7e19ab1ac66f7a8a", "rental_uris": {"ios": "https://dc.lft.to/lastmile_qr_scan", "android": "https://dc.lft.to/lastmile_qr_scan"}}, {"is_disabled": 0, "fusion_lat": 0.0, "lat": 38.892459833333334, "type": "electric_scooter", "lon": -77.03957483333333, "is_reserved": 0, "fusion_lon": 0.0, "bike_id": "acc8743249148f678d811703a6b1e20e", "name": "acc8743249148f678d811703a6b1e20e", "rental_uris": {"ios": "https://dc.lft.to/lastmile_qr_scan", "android": "https://dc.lft.to/lastmile_qr_scan"}}, {"is_disabled": 0, "fusion_lat": 0.0, "lat": 38.8616555, "type": "electric_bike", "lon": -76.95065916666667, "is_reserved": 0, "fusion_lon": 0.0, "bike_id": "425349be58a03d88848669837c245dde", "name": "425349be58a03d88848669837c245dde", "rental_uris": {"ios": "https://dc.lft.to/lastmile_qr_scan", "android": "https://dc.lft.to/lastmile_qr_scan"}}, {"is_disabled": 0, "fusion_lat": 0.0, "lat": 38.956416833333336, "type": "electric_bike", "lon": -77.0225615, "is_reserved": 0, "fusion_lon": 0.0, "bike_id": "edfa9385a3bf2b8d43d056fe5f2db37d", "name": "edfa9385a3bf2b8d43d056fe5f2db37d", "rental_uris": {"ios": "https://dc.lft.to/lastmile_qr_scan", "android": "https://dc.lft.to/lastmile_qr_scan"}}, {"is_disabled": 0, "fusion_lat": 0.0, "lat": 38.911924166666665, "type": "electric_scooter", "lon": -77.06100433333333, "is_reserved": 0, "fusion_lon": 0.0, "bike_id": "8497bda0c180da0226833005655042bc", "name": "8497bda0c180da0226833005655042bc", "rental_uris": {"ios": "https://dc.lft.to/lastmile_qr_scan", "android": "https://dc.lft.to/lastmile_qr_scan"}}, {"is_disabled": 0, "fusion_lat": 0.0, "lat": 38.923732, "type": "electric_scooter", "lon": -77.03525483333334, "is_reserved": 0, "fusion_lon": 0.0, "bike_id": "0165825f190d63c7fcbee9bf880e6eb5", "name": "0165825f190d63c7fcbee9bf880e6eb5", "rental_uris": {"ios": "https://dc.lft.to/lastmile_qr_scan", "android": "https://dc.lft.to/lastmile_qr_scan"}}, {"is_disabled": 0, "fusion_lat": 0.0, "lat": 38.928446666666666, "type": "electric_scooter", "lon": -77.05426033333333, "is_reserved": 0, "fusion_lon": 0.0, "bike_id": "c68b6d3d52334767f9613f12b086155a", "name": "c68b6d3d52334767f9613f12b086155a", "rental_uris": {"ios": "https://dc.lft.to/lastmile_qr_scan", "android": "https://dc.lft.to/lastmile_qr_scan"}}, {"is_disabled": 0, "fusion_lat": 0.0, "lat": 38.92333583333333, "type": "electric_scooter", "lon": -77.05679933333333, "is_reserved": 0, "fusion_lon": 0.0, "bike_id": "a9ef812a3f34651eb679ee4b03d5be1d", "name": "a9ef812a3f34651eb679ee4b03d5be1d", "rental_uris": {"ios": "https://dc.lft.to/lastmile_qr_scan", "android": "https://dc.lft.to/lastmile_qr_scan"}}, {"is_disabled": 0, "fusion_lat": 0.0, "lat": 38.89610616666667, "type": "electric_scooter", "lon": -77.047913, "is_reserved": 0, "fusion_lon": 0.0, "bike_id": "d944ffaf012eb7297d997a2d1b343091", "name": "d944ffaf012eb7297d997a2d1b343091", "rental_uris": {"ios": "https://dc.lft.to/lastmile_qr_scan", "android": "https://dc.lft.to/lastmile_qr_scan"}}, {"is_disabled": 0, "fusion_lat": 0.0, "lat": 38.92307916666667, "type": "electric_scooter", "lon": -77.047575, "is_reserved": 0, "fusion_lon": 0.0, "bike_id": "0dd96371274abeb75d28ca1fe83bc4d5", "name": "0dd96371274abeb75d28ca1fe83bc4d5", "rental_uris": {"ios": "https://dc.lft.to/lastmile_qr_scan", "android": "https://dc.lft.to/lastmile_qr_scan"}}, {"is_disabled": 0, "fusion_lat": 0.0, "lat": 38.93605683333333, "type": "electric_scooter", "lon": -77.0375575, "is_reserved": 0, "fusion_lon": 0.0, "bike_id": "cc2c70a4096837edeef08d3114513c08", "name": "cc2c70a4096837edeef08d3114513c08", "rental_uris": {"ios": "https://dc.lft.to/lastmile_qr_scan", "android": "https://dc.lft.to/lastmile_qr_scan"}}, {"is_disabled": 0, "fusion_lat": 0.0, "lat": 39.02931616666667, "type": "electric_bike", "lon": -77.04927033333334, "is_reserved": 0, "fusion_lon": 0.0, "bike_id": "03ece78c64edb095fa6e9889e7029c5a", "name": "03ece78c64edb095fa6e9889e7029c5a", "rental_uris": {"ios": "https://dc.lft.to/lastmile_qr_scan", "android": "https://dc.lft.to/lastmile_qr_scan"}}, {"is_disabled": 0, "fusion_lat": 0.0, "lat": 38.93529133333333, "type": "electric_scooter", "lon": -77.02380266666667, "is_reserved": 0, "fusion_lon": 0.0, "bike_id": "a137a6f0c449ff174c1d556e53eb82f4", "name": "a137a6f0c449ff174c1d556e53eb82f4", "rental_uris": {"ios": "https://dc.lft.to/lastmile_qr_scan", "android": "https://dc.lft.to/lastmile_qr_scan"}}, {"is_disabled": 0, "fusion_lat": 0.0, "lat": 38.90863433333333, "type": "electric_bike", "lon": -77.08094233333334, "is_reserved": 0, "fusion_lon": 0.0, "bike_id": "4364adc2c789a32e838cbfefa70f8fcf", "name": "4364adc2c789a32e838cbfefa70f8fcf", "rental_uris": {"ios": "https://dc.lft.to/lastmile_qr_scan", "android": "https://dc.lft.to/lastmile_qr_scan"}}, {"is_disabled": 0, "fusion_lat": 0.0, "lat": 38.91099033333333, "type": "electric_scooter", "lon": -77.04199416666667, "is_reserved": 0, "fusion_lon": 0.0, "bike_id": "fcb949343c1053f1bbf0cf530431e969", "name": "fcb949343c1053f1bbf0cf530431e969", "rental_uris": {"ios": "https://dc.lft.to/lastmile_qr_scan", "android": "https://dc.lft.to/lastmile_qr_scan"}}, {"is_disabled": 0, "fusion_lat": 0.0, "lat": 38.956399, "type": "electric_scooter", "lon": -76.99797183333334, "is_reserved": 0, "fusion_lon": 0.0, "bike_id": "9d0a4dcbbd82fa55fdf8ded4688ccedb", "name": "9d0a4dcbbd82fa55fdf8ded4688ccedb", "rental_uris": {"ios": "https://dc.lft.to/lastmile_qr_scan", "android": "https://dc.lft.to/lastmile_qr_scan"}}, {"is_disabled": 0, "fusion_lat": 0.0, "lat": 38.882290166666664, "type": "electric_scooter", "lon": -76.99088766666667, "is_reserved": 0, "fusion_lon": 0.0, "bike_id": "453621bd2c65ee6b82e377c4dad11056", "name": "453621bd2c65ee6b82e377c4dad11056", "rental_uris": {"ios": "https://dc.lft.to/lastmile_qr_scan", "android": "https://dc.lft.to/lastmile_qr_scan"}}, {"is_disabled": 0, "fusion_lat": 0.0, "lat": 38.87968433333333, "type": "electric_scooter", "lon": -76.98548183333334, "is_reserved": 0, "fusion_lon": 0.0, "bike_id": "677b0b1bd247735c52947a0d95e94d35", "name": "677b0b1bd247735c52947a0d95e94d35", "rental_uris": {"ios": "https://dc.lft.to/lastmile_qr_scan", "android": "https://dc.lft.to/lastmile_qr_scan"}}, {"is_disabled": 0, "fusion_lat": 0.0, "lat": 38.886121833333334, "type": "electric_scooter", "lon": -77.01962633333333, "is_reserved": 0, "fusion_lon": 0.0, "bike_id": "d4c4fffc93edb1e4c1229f63d2d75a66", "name": "d4c4fffc93edb1e4c1229f63d2d75a66", "rental_uris": {"ios": "https://dc.lft.to/lastmile_qr_scan", "android": "https://dc.lft.to/lastmile_qr_scan"}}, {"is_disabled": 0, "fusion_lat": 0.0, "lat": 38.99145216666667, "type": "electric_scooter", "lon": -77.04735133333334, "is_reserved": 0, "fusion_lon": 0.0, "bike_id": "2d5116d714a89dc15bb2639aa713ec0c", "name": "2d5116d714a89dc15bb2639aa713ec0c", "rental_uris": {"ios": "https://dc.lft.to/lastmile_qr_scan", "android": "https://dc.lft.to/lastmile_qr_scan"}}, {"is_disabled": 0, "fusion_lat": 0.0, "lat": 38.88742333333333, "type": "electric_scooter", "lon": -77.020269, "is_reserved": 0, "fusion_lon": 0.0, "bike_id": "269c2cb001621a7dd8f469aa5f2b1552", "name": "269c2cb001621a7dd8f469aa5f2b1552", "rental_uris": {"ios": "https://dc.lft.to/lastmile_qr_scan", "android": "https://dc.lft.to/lastmile_qr_scan"}}, {"is_disabled": 0, "fusion_lat": 0.0, "lat": 38.9041115, "type": "electric_scooter", "lon": -77.053279, "is_reserved": 0, "fusion_lon": 0.0, "bike_id": "1577f91fb6c4cd2950ed5037494b2112", "name": "1577f91fb6c4cd2950ed5037494b2112", "rental_uris": {"ios": "https://dc.lft.to/lastmile_qr_scan", "android": "https://dc.lft.to/lastmile_qr_scan"}}, {"is_disabled": 0, "fusion_lat": 0.0, "lat": 38.9197655, "type": "electric_scooter", "lon": -76.97310133333333, "is_reserved": 0, "fusion_lon": 0.0, "bike_id": "e263f769507148222fa4ab01fa6158a5", "name": "e263f769507148222fa4ab01fa6158a5", "rental_uris": {"ios": "https://dc.lft.to/lastmile_qr_scan", "android": "https://dc.lft.to/lastmile_qr_scan"}}, {"is_disabled": 0, "fusion_lat": 0.0, "lat": 38.960233, "type": "electric_bike", "lon": -77.01732133333333, "is_reserved": 0, "fusion_lon": 0.0, "bike_id": "87c6472c30b246831407c9debe211994", "name": "87c6472c30b246831407c9debe211994", "rental_uris": {"ios": "https://dc.lft.to/lastmile_qr_scan", "android": "https://dc.lft.to/lastmile_qr_scan"}}, {"is_disabled": 0, "fusion_lat": 0.0, "lat": 38.90024483333333, "type": "electric_scooter", "lon": -76.99866566666667, "is_reserved": 0, "fusion_lon": 0.0, "bike_id": "c78daf185daf8960b8e6ac0be15c458b", "name": "c78daf185daf8960b8e6ac0be15c458b", "rental_uris": {"ios": "https://dc.lft.to/lastmile_qr_scan", "android": "https://dc.lft.to/lastmile_qr_scan"}}, {"is_disabled": 0, "fusion_lat": 0.0, "lat": 38.87730783333333, "type": "electric_bike", "lon": -77.11854233333334, "is_reserved": 0, "fusion_lon": 0.0, "bike_id": "aad40899a54a9a06acbb92064828b2ff", "name": "aad40899a54a9a06acbb92064828b2ff", "rental_uris": {"ios": "https://dc.lft.to/lastmile_qr_scan", "android": "https://dc.lft.to/lastmile_qr_scan"}}, {"is_disabled": 0, "fusion_lat": 0.0, "lat": 38.92484733333333, "type": "electric_scooter", "lon": -77.02722016666667, "is_reserved": 0, "fusion_lon": 0.0, "bike_id": "b3dbda8a2e60e61b79ecaf37dfc04e69", "name": "b3dbda8a2e60e61b79ecaf37dfc04e69", "rental_uris": {"ios": "https://dc.lft.to/lastmile_qr_scan", "android": "https://dc.lft.to/lastmile_qr_scan"}}, {"is_disabled": 0, "fusion_lat": 0.0, "lat": 38.951829000000004, "type": "electric_bike", "lon": -76.935447, "is_reserved": 0, "fusion_lon": 0.0, "bike_id": "901d66ac9ed3f37b6fa783b479fe28b0", "name": "901d66ac9ed3f37b6fa783b479fe28b0", "rental_uris": {"ios": "https://dc.lft.to/lastmile_qr_scan", "android": "https://dc.lft.to/lastmile_qr_scan"}}, {"is_disabled": 0, "fusion_lat": 0.0, "lat": 38.92859716666667, "type": "electric_scooter", "lon": -77.0288265, "is_reserved": 0, "fusion_lon": 0.0, "bike_id": "b0cffdb5f27a3e6318b3081e388f56cc", "name": "b0cffdb5f27a3e6318b3081e388f56cc", "rental_uris": {"ios": "https://dc.lft.to/lastmile_qr_scan", "android": "https://dc.lft.to/lastmile_qr_scan"}}, {"is_disabled": 0, "fusion_lat": 0.0, "lat": 38.917917, "type": "electric_scooter", "lon": -77.02313766666667, "is_reserved": 0, "fusion_lon": 0.0, "bike_id": "25cc45dd3c452629eba5e9c36f613a95", "name": "25cc45dd3c452629eba5e9c36f613a95", "rental_uris": {"ios": "https://dc.lft.to/lastmile_qr_scan", "android": "https://dc.lft.to/lastmile_qr_scan"}}, {"is_disabled": 0, "fusion_lat": 0.0, "lat": 38.90249166666667, "type": "electric_scooter", "lon": -77.01858133333333, "is_reserved": 0, "fusion_lon": 0.0, "bike_id": "28449998d1e5f1232334761ff151a2b1", "name": "28449998d1e5f1232334761ff151a2b1", "rental_uris": {"ios": "https://dc.lft.to/lastmile_qr_scan", "android": "https://dc.lft.to/lastmile_qr_scan"}}, {"is_disabled": 0, "fusion_lat": 0.0, "lat": 38.912647, "type": "electric_scooter", "lon": -77.036287, "is_reserved": 0, "fusion_lon": 0.0, "bike_id": "020d7d39e6257a1e7c5f18a26589c768", "name": "020d7d39e6257a1e7c5f18a26589c768", "rental_uris": {"ios": "https://dc.lft.to/lastmile_qr_scan", "android": "https://dc.lft.to/lastmile_qr_scan"}}, {"is_disabled": 0, "fusion_lat": 0.0, "lat": 38.86362866666666, "type": "electric_scooter", "lon": -76.9904025, "is_reserved": 0, "fusion_lon": 0.0, "bike_id": "f3c0377527140fdaf517f00b5e5b55aa", "name": "f3c0377527140fdaf517f00b5e5b55aa", "rental_uris": {"ios": "https://dc.lft.to/lastmile_qr_scan", "android": "https://dc.lft.to/lastmile_qr_scan"}}, {"is_disabled": 0, "fusion_lat": 0.0, "lat": 38.87114016666666, "type": "electric_scooter", "lon": -77.01072083333334, "is_reserved": 0, "fusion_lon": 0.0, "bike_id": "d6edcc4c0e3e38577ce97d1c50604819", "name": "d6edcc4c0e3e38577ce97d1c50604819", "rental_uris": {"ios": "https://dc.lft.to/lastmile_qr_scan", "android": "https://dc.lft.to/lastmile_qr_scan"}}, {"is_disabled": 0, "fusion_lat": 0.0, "lat": 38.91542183333333, "type": "electric_scooter", "lon": -77.038478, "is_reserved": 0, "fusion_lon": 0.0, "bike_id": "d93f28a7f8a649935c367b927d7ffe35", "name": "d93f28a7f8a649935c367b927d7ffe35", "rental_uris": {"ios": "https://dc.lft.to/lastmile_qr_scan", "android": "https://dc.lft.to/lastmile_qr_scan"}}, {"is_disabled": 0, "fusion_lat": 0.0, "lat": 38.9450785, "type": "electric_bike", "lon": -77.00673816666666, "is_reserved": 0, "fusion_lon": 0.0, "bike_id": "ca718e5d57facc91c1cce74844fd5ca3", "name": "ca718e5d57facc91c1cce74844fd5ca3", "rental_uris": {"ios": "https://dc.lft.to/lastmile_qr_scan", "android": "https://dc.lft.to/lastmile_qr_scan"}}, {"is_disabled": 0, "fusion_lat": 0.0, "lat": 38.91702883333333, "type": "electric_scooter", "lon": -77.0011585, "is_reserved": 0, "fusion_lon": 0.0, "bike_id": "2ad5791ee3ebce13034fb373495b841c", "name": "2ad5791ee3ebce13034fb373495b841c", "rental_uris": {"ios": "https://dc.lft.to/lastmile_qr_scan", "android": "https://dc.lft.to/lastmile_qr_scan"}}, {"is_disabled": 0, "fusion_lat": 0.0, "lat": 38.892201, "type": "electric_scooter", "lon": -77.02224966666667, "is_reserved": 0, "fusion_lon": 0.0, "bike_id": "26a2997879f28390da6645177a4f8fec", "name": "26a2997879f28390da6645177a4f8fec", "rental_uris": {"ios": "https://dc.lft.to/lastmile_qr_scan", "android": "https://dc.lft.to/lastmile_qr_scan"}}, {"is_disabled": 0, "fusion_lat": 0.0, "lat": 38.892128, "type": "electric_scooter", "lon": -77.00053216666667, "is_reserved": 0, "fusion_lon": 0.0, "bike_id": "2153eae0141e1a2097831555db05b2a2", "name": "2153eae0141e1a2097831555db05b2a2", "rental_uris": {"ios": "https://dc.lft.to/lastmile_qr_scan", "android": "https://dc.lft.to/lastmile_qr_scan"}}, {"is_disabled": 0, "fusion_lat": 0.0, "lat": 38.911897333333336, "type": "electric_scooter", "lon": -77.06091816666667, "is_reserved": 0, "fusion_lon": 0.0, "bike_id": "e992bc7e20090eba464d6b0b1edc4fd0", "name": "e992bc7e20090eba464d6b0b1edc4fd0", "rental_uris": {"ios": "https://dc.lft.to/lastmile_qr_scan", "android": "https://dc.lft.to/lastmile_qr_scan"}}, {"is_disabled": 0, "fusion_lat": 0.0, "lat": 38.884336, "type": "electric_scooter", "lon": -77.03039633333333, "is_reserved": 0, "fusion_lon": 0.0, "bike_id": "a988a9ba2fcaad5932ab04ef5e4caaeb", "name": "a988a9ba2fcaad5932ab04ef5e4caaeb", "rental_uris": {"ios": "https://dc.lft.to/lastmile_qr_scan", "android": "https://dc.lft.to/lastmile_qr_scan"}}, {"is_disabled": 0, "fusion_lat": 0.0, "lat": 38.87927033333333, "type": "electric_scooter", "lon": -77.00518183333334, "is_reserved": 0, "fusion_lon": 0.0, "bike_id": "17967c14187849b84e777f455ecde652", "name": "17967c14187849b84e777f455ecde652", "rental_uris": {"ios": "https://dc.lft.to/lastmile_qr_scan", "android": "https://dc.lft.to/lastmile_qr_scan"}}, {"is_disabled": 0, "fusion_lat": 0.0, "lat": 38.860593333333334, "type": "electric_bike", "lon": -77.05640366666667, "is_reserved": 0, "fusion_lon": 0.0, "bike_id": "c923e121ec015c0a627a88a3abd5ada7", "name": "c923e121ec015c0a627a88a3abd5ada7", "rental_uris": {"ios": "https://dc.lft.to/lastmile_qr_scan", "android": "https://dc.lft.to/lastmile_qr_scan"}}, {"is_disabled": 0, "fusion_lat": 0.0, "lat": 38.84456, "type": "electric_scooter", "lon": -76.99861216666666, "is_reserved": 0, "fusion_lon": 0.0, "bike_id": "a9c1dd9c2ecbc763816340784234dc7a", "name": "a9c1dd9c2ecbc763816340784234dc7a", "rental_uris": {"ios": "https://dc.lft.to/lastmile_qr_scan", "android": "https://dc.lft.to/lastmile_qr_scan"}}, {"is_disabled": 0, "fusion_lat": 0.0, "lat": 38.95956133333333, "type": "electric_bike", "lon": -77.10086816666667, "is_reserved": 0, "fusion_lon": 0.0, "bike_id": "07b0b64dd038351df3c95d57334091da", "name": "07b0b64dd038351df3c95d57334091da", "rental_uris": {"ios": "https://dc.lft.to/lastmile_qr_scan", "android": "https://dc.lft.to/lastmile_qr_scan"}}, {"is_disabled": 0, "fusion_lat": 0.0, "lat": 38.909806, "type": "electric_scooter", "lon": -77.03184066666667, "is_reserved": 0, "fusion_lon": 0.0, "bike_id": "69e58c4fa759d4f94cfee9c3bdb9fcd0", "name": "69e58c4fa759d4f94cfee9c3bdb9fcd0", "rental_uris": {"ios": "https://dc.lft.to/lastmile_qr_scan", "android": "https://dc.lft.to/lastmile_qr_scan"}}, {"is_disabled": 0, "fusion_lat": 0.0, "lat": 38.90856933333333, "type": "electric_scooter", "lon": -77.02335766666667, "is_reserved": 0, "fusion_lon": 0.0, "bike_id": "936d32c36f3cc16d79bf1d5c4784f518", "name": "936d32c36f3cc16d79bf1d5c4784f518", "rental_uris": {"ios": "https://dc.lft.to/lastmile_qr_scan", "android": "https://dc.lft.to/lastmile_qr_scan"}}, {"is_disabled": 0, "fusion_lat": 0.0, "lat": 38.9046615, "type": "electric_scooter", "lon": -77.0486885, "is_reserved": 0, "fusion_lon": 0.0, "bike_id": "730bfb5abd4fd55b88506734b2888ce1", "name": "730bfb5abd4fd55b88506734b2888ce1", "rental_uris": {"ios": "https://dc.lft.to/lastmile_qr_scan", "android": "https://dc.lft.to/lastmile_qr_scan"}}, {"is_disabled": 0, "fusion_lat": 0.0, "lat": 38.90039316666667, "type": "electric_scooter", "lon": -76.98838983333333, "is_reserved": 0, "fusion_lon": 0.0, "bike_id": "fec5841f20f1c7c7db9c0f2f005b849c", "name": "fec5841f20f1c7c7db9c0f2f005b849c", "rental_uris": {"ios": "https://dc.lft.to/lastmile_qr_scan", "android": "https://dc.lft.to/lastmile_qr_scan"}}, {"is_disabled": 0, "fusion_lat": 0.0, "lat": 38.926489, "type": "electric_scooter", "lon": -77.03712166666666, "is_reserved": 0, "fusion_lon": 0.0, "bike_id": "a35818b84bad598d51db920581169f6e", "name": "a35818b84bad598d51db920581169f6e", "rental_uris": {"ios": "https://dc.lft.to/lastmile_qr_scan", "android": "https://dc.lft.to/lastmile_qr_scan"}}, {"is_disabled": 0, "fusion_lat": 0.0, "lat": 38.915525, "type": "electric_scooter", "lon": -77.03374766666667, "is_reserved": 0, "fusion_lon": 0.0, "bike_id": "cd217e7909eb407b6ec1f3e6a11ddf18", "name": "cd217e7909eb407b6ec1f3e6a11ddf18", "rental_uris": {"ios": "https://dc.lft.to/lastmile_qr_scan", "android": "https://dc.lft.to/lastmile_qr_scan"}}, {"is_disabled": 0, "fusion_lat": 0.0, "lat": 38.89735983333333, "type": "electric_scooter", "lon": -77.00038666666667, "is_reserved": 0, "fusion_lon": 0.0, "bike_id": "9555c4a65af852e1bbef765ec012ea99", "name": "9555c4a65af852e1bbef765ec012ea99", "rental_uris": {"ios": "https://dc.lft.to/lastmile_qr_scan", "android": "https://dc.lft.to/lastmile_qr_scan"}}, {"is_disabled": 0, "fusion_lat": 0.0, "lat": 38.8961945, "type": "electric_scooter", "lon": -76.98495283333334, "is_reserved": 0, "fusion_lon": 0.0, "bike_id": "24cbe329a55f6cf3a89ba76467e35306", "name": "24cbe329a55f6cf3a89ba76467e35306", "rental_uris": {"ios": "https://dc.lft.to/lastmile_qr_scan", "android": "https://dc.lft.to/lastmile_qr_scan"}}, {"is_disabled": 0, "fusion_lat": 0.0, "lat": 38.883806, "type": "electric_scooter", "lon": -77.01524116666667, "is_reserved": 0, "fusion_lon": 0.0, "bike_id": "3860ff18f4a58970f3a8c31e3e11a0f4", "name": "3860ff18f4a58970f3a8c31e3e11a0f4", "rental_uris": {"ios": "https://dc.lft.to/lastmile_qr_scan", "android": "https://dc.lft.to/lastmile_qr_scan"}}, {"is_disabled": 0, "fusion_lat": 0.0, "lat": 38.93631283333333, "type": "electric_scooter", "lon": -77.03658933333334, "is_reserved": 0, "fusion_lon": 0.0, "bike_id": "ed87d29bb4b8239ae6304f4f13648653", "name": "ed87d29bb4b8239ae6304f4f13648653", "rental_uris": {"ios": "https://dc.lft.to/lastmile_qr_scan", "android": "https://dc.lft.to/lastmile_qr_scan"}}, {"is_disabled": 0, "fusion_lat": 0.0, "lat": 38.9009495, "type": "electric_scooter", "lon": -76.9834315, "is_reserved": 0, "fusion_lon": 0.0, "bike_id": "117c44eccfa1ed32e72cf51dfe5e9df8", "name": "117c44eccfa1ed32e72cf51dfe5e9df8", "rental_uris": {"ios": "https://dc.lft.to/lastmile_qr_scan", "android": "https://dc.lft.to/lastmile_qr_scan"}}, {"is_disabled": 0, "fusion_lat": 0.0, "lat": 38.9025365, "type": "electric_scooter", "lon": -77.026598, "is_reserved": 0, "fusion_lon": 0.0, "bike_id": "1be095b6908720695bd55420c2a357ab", "name": "1be095b6908720695bd55420c2a357ab", "rental_uris": {"ios": "https://dc.lft.to/lastmile_qr_scan", "android": "https://dc.lft.to/lastmile_qr_scan"}}, {"is_disabled": 0, "fusion_lat": 0.0, "lat": 38.91410966666667, "type": "electric_scooter", "lon": -77.0453905, "is_reserved": 0, "fusion_lon": 0.0, "bike_id": "da10446426c93dc384a0a97727aba7a9", "name": "da10446426c93dc384a0a97727aba7a9", "rental_uris": {"ios": "https://dc.lft.to/lastmile_qr_scan", "android": "https://dc.lft.to/lastmile_qr_scan"}}, {"is_disabled": 0, "fusion_lat": 0.0, "lat": 38.87668766666667, "type": "electric_scooter", "lon": -77.00433533333333, "is_reserved": 0, "fusion_lon": 0.0, "bike_id": "77c41059f8fe3c11fdd6ac6752976526", "name": "77c41059f8fe3c11fdd6ac6752976526", "rental_uris": {"ios": "https://dc.lft.to/lastmile_qr_scan", "android": "https://dc.lft.to/lastmile_qr_scan"}}, {"is_disabled": 0, "fusion_lat": 0.0, "lat": 38.828725, "type": "electric_bike", "lon": -77.11218433333333, "is_reserved": 0, "fusion_lon": 0.0, "bike_id": "f1d3544d72bd61c0f6f1332ee47f3606", "name": "f1d3544d72bd61c0f6f1332ee47f3606", "rental_uris": {"ios": "https://dc.lft.to/lastmile_qr_scan", "android": "https://dc.lft.to/lastmile_qr_scan"}}, {"is_disabled": 0, "fusion_lat": 0.0, "lat": 38.905435, "type": "electric_scooter", "lon": -77.03981833333333, "is_reserved": 0, "fusion_lon": 0.0, "bike_id": "de78b1a0aeda1b97ae72952bae50eb23", "name": "de78b1a0aeda1b97ae72952bae50eb23", "rental_uris": {"ios": "https://dc.lft.to/lastmile_qr_scan", "android": "https://dc.lft.to/lastmile_qr_scan"}}, {"is_disabled": 0, "fusion_lat": 0.0, "lat": 38.91754383333333, "type": "electric_scooter", "lon": -77.03999583333334, "is_reserved": 0, "fusion_lon": 0.0, "bike_id": "763eafc28fdf020c545ad22bf65afaa2", "name": "763eafc28fdf020c545ad22bf65afaa2", "rental_uris": {"ios": "https://dc.lft.to/lastmile_qr_scan", "android": "https://dc.lft.to/lastmile_qr_scan"}}, {"is_disabled": 0, "fusion_lat": 0.0, "lat": 38.892370166666666, "type": "electric_scooter", "lon": -77.03960816666667, "is_reserved": 0, "fusion_lon": 0.0, "bike_id": "f1191ab11a4d691ddbff2f8b7c18a96b", "name": "f1191ab11a4d691ddbff2f8b7c18a96b", "rental_uris": {"ios": "https://dc.lft.to/lastmile_qr_scan", "android": "https://dc.lft.to/lastmile_qr_scan"}}, {"is_disabled": 0, "fusion_lat": 0.0, "lat": 38.90321433333333, "type": "electric_scooter", "lon": -77.0432885, "is_reserved": 0, "fusion_lon": 0.0, "bike_id": "7230859b2927de67ea80bb80d5f93abe", "name": "7230859b2927de67ea80bb80d5f93abe", "rental_uris": {"ios": "https://dc.lft.to/lastmile_qr_scan", "android": "https://dc.lft.to/lastmile_qr_scan"}}, {"is_disabled": 0, "fusion_lat": 0.0, "lat": 38.99072066666667, "type": "electric_bike", "lon": -76.87470516666667, "is_reserved": 0, "fusion_lon": 0.0, "bike_id": "68a1c1cb0ca6caa1442b9001c9b24901", "name": "68a1c1cb0ca6caa1442b9001c9b24901", "rental_uris": {"ios": "https://dc.lft.to/lastmile_qr_scan", "android": "https://dc.lft.to/lastmile_qr_scan"}}, {"is_disabled": 0, "fusion_lat": 0.0, "lat": 38.903386833333336, "type": "electric_scooter", "lon": -76.975608, "is_reserved": 0, "fusion_lon": 0.0, "bike_id": "64c9d9f3ab9b1628c51870b991c65fd7", "name": "64c9d9f3ab9b1628c51870b991c65fd7", "rental_uris": {"ios": "https://dc.lft.to/lastmile_qr_scan", "android": "https://dc.lft.to/lastmile_qr_scan"}}, {"is_disabled": 0, "fusion_lat": 0.0, "lat": 38.913318333333336, "type": "electric_scooter", "lon": -77.03009883333333, "is_reserved": 0, "fusion_lon": 0.0, "bike_id": "35df0c3b1405288d20350e44fb02977c", "name": "35df0c3b1405288d20350e44fb02977c", "rental_uris": {"ios": "https://dc.lft.to/lastmile_qr_scan", "android": "https://dc.lft.to/lastmile_qr_scan"}}, {"is_disabled": 0, "fusion_lat": 0.0, "lat": 38.99816283333333, "type": "electric_bike", "lon": -76.88374816666666, "is_reserved": 0, "fusion_lon": 0.0, "bike_id": "1cff697e80af6426f62d06bb9d3fb840", "name": "1cff697e80af6426f62d06bb9d3fb840", "rental_uris": {"ios": "https://dc.lft.to/lastmile_qr_scan", "android": "https://dc.lft.to/lastmile_qr_scan"}}, {"is_disabled": 0, "fusion_lat": 0.0, "lat": 38.94165016666667, "type": "electric_scooter", "lon": -77.04133566666667, "is_reserved": 0, "fusion_lon": 0.0, "bike_id": "1e0452c52d945e69b431b9210b4644ae", "name": "1e0452c52d945e69b431b9210b4644ae", "rental_uris": {"ios": "https://dc.lft.to/lastmile_qr_scan", "android": "https://dc.lft.to/lastmile_qr_scan"}}, {"is_disabled": 0, "fusion_lat": 0.0, "lat": 38.906786, "type": "electric_scooter", "lon": -77.06352833333334, "is_reserved": 0, "fusion_lon": 0.0, "bike_id": "1121dd26dc26ea739355760f8e5f3fab", "name": "1121dd26dc26ea739355760f8e5f3fab", "rental_uris": {"ios": "https://dc.lft.to/lastmile_qr_scan", "android": "https://dc.lft.to/lastmile_qr_scan"}}, {"is_disabled": 0, "fusion_lat": 0.0, "lat": 38.911263, "type": "electric_scooter", "lon": -77.04458033333333, "is_reserved": 0, "fusion_lon": 0.0, "bike_id": "aa5a427f16b54b263cbf60ea8f12457f", "name": "aa5a427f16b54b263cbf60ea8f12457f", "rental_uris": {"ios": "https://dc.lft.to/lastmile_qr_scan", "android": "https://dc.lft.to/lastmile_qr_scan"}}, {"is_disabled": 0, "fusion_lat": 0.0, "lat": 38.86385033333333, "type": "electric_bike", "lon": -76.989862, "is_reserved": 0, "fusion_lon": 0.0, "bike_id": "e72181a67df68d4d7c7d55b883afcfee", "name": "e72181a67df68d4d7c7d55b883afcfee", "rental_uris": {"ios": "https://dc.lft.to/lastmile_qr_scan", "android": "https://dc.lft.to/lastmile_qr_scan"}}, {"is_disabled": 0, "fusion_lat": 0.0, "lat": 38.933107, "type": "electric_scooter", "lon": -77.03284583333334, "is_reserved": 0, "fusion_lon": 0.0, "bike_id": "965b0f4a4cf6dc9bf87c1a06da138de5", "name": "965b0f4a4cf6dc9bf87c1a06da138de5", "rental_uris": {"ios": "https://dc.lft.to/lastmile_qr_scan", "android": "https://dc.lft.to/lastmile_qr_scan"}}, {"is_disabled": 0, "fusion_lat": 0.0, "lat": 38.92550116666666, "type": "electric_scooter", "lon": -77.05298233333333, "is_reserved": 0, "fusion_lon": 0.0, "bike_id": "06925fc7f477c34ab18a0efc71ea7127", "name": "06925fc7f477c34ab18a0efc71ea7127", "rental_uris": {"ios": "https://dc.lft.to/lastmile_qr_scan", "android": "https://dc.lft.to/lastmile_qr_scan"}}, {"is_disabled": 0, "fusion_lat": 0.0, "lat": 38.96503083333333, "type": "electric_bike", "lon": -77.02824, "is_reserved": 0, "fusion_lon": 0.0, "bike_id": "a3ecbf7c780682b4498594a44a52ebd9", "name": "a3ecbf7c780682b4498594a44a52ebd9", "rental_uris": {"ios": "https://dc.lft.to/lastmile_qr_scan", "android": "https://dc.lft.to/lastmile_qr_scan"}}, {"is_disabled": 0, "fusion_lat": 0.0, "lat": 38.90369183333333, "type": "electric_scooter", "lon": -77.01073616666666, "is_reserved": 0, "fusion_lon": 0.0, "bike_id": "1f2dc76500a8226128d2c7bd40725d39", "name": "1f2dc76500a8226128d2c7bd40725d39", "rental_uris": {"ios": "https://dc.lft.to/lastmile_qr_scan", "android": "https://dc.lft.to/lastmile_qr_scan"}}, {"is_disabled": 0, "fusion_lat": 0.0, "lat": 38.95194466666667, "type": "electric_bike", "lon": -76.96725583333334, "is_reserved": 0, "fusion_lon": 0.0, "bike_id": "6b32f444a92b2664c0bba3c38301e07e", "name": "6b32f444a92b2664c0bba3c38301e07e", "rental_uris": {"ios": "https://dc.lft.to/lastmile_qr_scan", "android": "https://dc.lft.to/lastmile_qr_scan"}}, {"is_disabled": 0, "fusion_lat": 0.0, "lat": 38.898114166666666, "type": "electric_bike", "lon": -76.99081983333333, "is_reserved": 0, "fusion_lon": 0.0, "bike_id": "93e59af3b988ab41db1e809c7a269813", "name": "93e59af3b988ab41db1e809c7a269813", "rental_uris": {"ios": "https://dc.lft.to/lastmile_qr_scan", "android": "https://dc.lft.to/lastmile_qr_scan"}}, {"is_disabled": 0, "fusion_lat": 0.0, "lat": 38.98362233333334, "type": "electric_scooter", "lon": -77.02647816666666, "is_reserved": 0, "fusion_lon": 0.0, "bike_id": "244dd048ba5b4e7d2b9e73cd9ef64df3", "name": "244dd048ba5b4e7d2b9e73cd9ef64df3", "rental_uris": {"ios": "https://dc.lft.to/lastmile_qr_scan", "android": "https://dc.lft.to/lastmile_qr_scan"}}, {"is_disabled": 0, "fusion_lat": 0.0, "lat": 38.8841385, "type": "electric_scooter", "lon": -77.03050933333333, "is_reserved": 0, "fusion_lon": 0.0, "bike_id": "a4cc763f76a7d5c0e4d099c35299d779", "name": "a4cc763f76a7d5c0e4d099c35299d779", "rental_uris": {"ios": "https://dc.lft.to/lastmile_qr_scan", "android": "https://dc.lft.to/lastmile_qr_scan"}}, {"is_disabled": 0, "fusion_lat": 0.0, "lat": 38.928428333333336, "type": "electric_bike", "lon": -77.0205905, "is_reserved": 0, "fusion_lon": 0.0, "bike_id": "e4f9da1754e35654849b0b958dfc4b7b", "name": "e4f9da1754e35654849b0b958dfc4b7b", "rental_uris": {"ios": "https://dc.lft.to/lastmile_qr_scan", "android": "https://dc.lft.to/lastmile_qr_scan"}}, {"is_disabled": 0, "fusion_lat": 0.0, "lat": 38.92851016666667, "type": "electric_bike", "lon": -77.22200533333333, "is_reserved": 0, "fusion_lon": 0.0, "bike_id": "d1f0cc9554ee86699ac40ec9bd706da6", "name": "d1f0cc9554ee86699ac40ec9bd706da6", "rental_uris": {"ios": "https://dc.lft.to/lastmile_qr_scan", "android": "https://dc.lft.to/lastmile_qr_scan"}}, {"is_disabled": 0, "fusion_lat": 0.0, "lat": 38.89954016666667, "type": "electric_bike", "lon": -77.05500383333333, "is_reserved": 0, "fusion_lon": 0.0, "bike_id": "5b1841ab1eaef8e09c0af994fbd75968", "name": "5b1841ab1eaef8e09c0af994fbd75968", "rental_uris": {"ios": "https://dc.lft.to/lastmile_qr_scan", "android": "https://dc.lft.to/lastmile_qr_scan"}}, {"is_disabled": 0, "fusion_lat": 0.0, "lat": 38.923098833333334, "type": "electric_scooter", "lon": -77.04523016666667, "is_reserved": 0, "fusion_lon": 0.0, "bike_id": "8d4dcd3a25ec015f4f0d5edca59670f9", "name": "8d4dcd3a25ec015f4f0d5edca59670f9", "rental_uris": {"ios": "https://dc.lft.to/lastmile_qr_scan", "android": "https://dc.lft.to/lastmile_qr_scan"}}, {"is_disabled": 0, "fusion_lat": 0.0, "lat": 38.905023666666665, "type": "electric_scooter", "lon": -77.04348983333334, "is_reserved": 0, "fusion_lon": 0.0, "bike_id": "6732f6dddfa80676b4748b747de96d7c", "name": "6732f6dddfa80676b4748b747de96d7c", "rental_uris": {"ios": "https://dc.lft.to/lastmile_qr_scan", "android": "https://dc.lft.to/lastmile_qr_scan"}}, {"is_disabled": 0, "fusion_lat": 0.0, "lat": 38.91547383333333, "type": "electric_scooter", "lon": -77.03843016666667, "is_reserved": 0, "fusion_lon": 0.0, "bike_id": "ac8858eb73c85c8838b92511ee3c72a3", "name": "ac8858eb73c85c8838b92511ee3c72a3", "rental_uris": {"ios": "https://dc.lft.to/lastmile_qr_scan", "android": "https://dc.lft.to/lastmile_qr_scan"}}, {"is_disabled": 0, "fusion_lat": 0.0, "lat": 38.911055833333336, "type": "electric_scooter", "lon": -77.04823483333334, "is_reserved": 0, "fusion_lon": 0.0, "bike_id": "09e493e3cdb4fbb4e6139343a373f65a", "name": "09e493e3cdb4fbb4e6139343a373f65a", "rental_uris": {"ios": "https://dc.lft.to/lastmile_qr_scan", "android": "https://dc.lft.to/lastmile_qr_scan"}}, {"is_disabled": 0, "fusion_lat": 0.0, "lat": 38.9324025, "type": "electric_scooter", "lon": -77.03865783333333, "is_reserved": 0, "fusion_lon": 0.0, "bike_id": "9dfd6be0cefefc8cc16a43ea330d5a93", "name": "9dfd6be0cefefc8cc16a43ea330d5a93", "rental_uris": {"ios": "https://dc.lft.to/lastmile_qr_scan", "android": "https://dc.lft.to/lastmile_qr_scan"}}, {"is_disabled": 0, "fusion_lat": 0.0, "lat": 38.929433833333334, "type": "electric_bike", "lon": -77.04398, "is_reserved": 0, "fusion_lon": 0.0, "bike_id": "63c0f65c71984323f4e80ee83918971f", "name": "63c0f65c71984323f4e80ee83918971f", "rental_uris": {"ios": "https://dc.lft.to/lastmile_qr_scan", "android": "https://dc.lft.to/lastmile_qr_scan"}}, {"is_disabled": 0, "fusion_lat": 0.0, "lat": 38.922120166666666, "type": "electric_scooter", "lon": -77.0329675, "is_reserved": 0, "fusion_lon": 0.0, "bike_id": "47245212a7660cf592ee18281d6382f0", "name": "47245212a7660cf592ee18281d6382f0", "rental_uris": {"ios": "https://dc.lft.to/lastmile_qr_scan", "android": "https://dc.lft.to/lastmile_qr_scan"}}, {"is_disabled": 0, "fusion_lat": 0.0, "lat": 39.088548333333335, "type": "electric_bike", "lon": -77.17843416666666, "is_reserved": 0, "fusion_lon": 0.0, "bike_id": "d203353f6c5e11e1fd66dbb1d02be592", "name": "d203353f6c5e11e1fd66dbb1d02be592", "rental_uris": {"ios": "https://dc.lft.to/lastmile_qr_scan", "android": "https://dc.lft.to/lastmile_qr_scan"}}, {"is_disabled": 0, "fusion_lat": 0.0, "lat": 38.901558666666666, "type": "electric_scooter", "lon": -76.976324, "is_reserved": 0, "fusion_lon": 0.0, "bike_id": "f901da782274012967bf5e59e4484320", "name": "f901da782274012967bf5e59e4484320", "rental_uris": {"ios": "https://dc.lft.to/lastmile_qr_scan", "android": "https://dc.lft.to/lastmile_qr_scan"}}, {"is_disabled": 0, "fusion_lat": 0.0, "lat": 38.9192175, "type": "electric_scooter", "lon": -77.031832, "is_reserved": 0, "fusion_lon": 0.0, "bike_id": "2968c74cccc44f8156af86e43b6749ea", "name": "2968c74cccc44f8156af86e43b6749ea", "rental_uris": {"ios": "https://dc.lft.to/lastmile_qr_scan", "android": "https://dc.lft.to/lastmile_qr_scan"}}, {"is_disabled": 0, "fusion_lat": 0.0, "lat": 38.92945483333333, "type": "electric_bike", "lon": -77.03773883333334, "is_reserved": 0, "fusion_lon": 0.0, "bike_id": "abb7b61827de86a7f35d9a618922fdc4", "name": "abb7b61827de86a7f35d9a618922fdc4", "rental_uris": {"ios": "https://dc.lft.to/lastmile_qr_scan", "android": "https://dc.lft.to/lastmile_qr_scan"}}, {"is_disabled": 0, "fusion_lat": 0.0, "lat": 38.887207333333336, "type": "electric_scooter", "lon": -77.03218833333334, "is_reserved": 0, "fusion_lon": 0.0, "bike_id": "3812dcf7b79961788502a0134f4cac55", "name": "3812dcf7b79961788502a0134f4cac55", "rental_uris": {"ios": "https://dc.lft.to/lastmile_qr_scan", "android": "https://dc.lft.to/lastmile_qr_scan"}}, {"is_disabled": 0, "fusion_lat": 0.0, "lat": 38.940536333333334, "type": "electric_bike", "lon": -76.95383816666667, "is_reserved": 0, "fusion_lon": 0.0, "bike_id": "11ffefaf1bb803da03e68ecf6d1efb99", "name": "11ffefaf1bb803da03e68ecf6d1efb99", "rental_uris": {"ios": "https://dc.lft.to/lastmile_qr_scan", "android": "https://dc.lft.to/lastmile_qr_scan"}}, {"is_disabled": 0, "fusion_lat": 0.0, "lat": 38.91682, "type": "electric_scooter", "lon": -77.0295, "is_reserved": 0, "fusion_lon": 0.0, "bike_id": "fc675da72295616f5a75682360024ff0", "name": "fc675da72295616f5a75682360024ff0", "rental_uris": {"ios": "https://dc.lft.to/lastmile_qr_scan", "android": "https://dc.lft.to/lastmile_qr_scan"}}, {"is_disabled": 0, "fusion_lat": 0.0, "lat": 38.900624, "type": "electric_scooter", "lon": -77.0075535, "is_reserved": 0, "fusion_lon": 0.0, "bike_id": "1cb34f96a4b54f997a8aefa7f1ed1ae6", "name": "1cb34f96a4b54f997a8aefa7f1ed1ae6", "rental_uris": {"ios": "https://dc.lft.to/lastmile_qr_scan", "android": "https://dc.lft.to/lastmile_qr_scan"}}, {"is_disabled": 0, "fusion_lat": 0.0, "lat": 38.894076, "type": "electric_scooter", "lon": -76.95663533333334, "is_reserved": 0, "fusion_lon": 0.0, "bike_id": "1f3d5e91fccbb4db682b3be7b2a9f069", "name": "1f3d5e91fccbb4db682b3be7b2a9f069", "rental_uris": {"ios": "https://dc.lft.to/lastmile_qr_scan", "android": "https://dc.lft.to/lastmile_qr_scan"}}, {"is_disabled": 0, "fusion_lat": 0.0, "lat": 38.852182, "type": "electric_bike", "lon": -77.12960116666666, "is_reserved": 0, "fusion_lon": 0.0, "bike_id": "40ff5c544f2e2afd211606afd75b54ce", "name": "40ff5c544f2e2afd211606afd75b54ce", "rental_uris": {"ios": "https://dc.lft.to/lastmile_qr_scan", "android": "https://dc.lft.to/lastmile_qr_scan"}}, {"is_disabled": 0, "fusion_lat": 0.0, "lat": 38.92135366666667, "type": "electric_scooter", "lon": -77.017997, "is_reserved": 0, "fusion_lon": 0.0, "bike_id": "84570641689ba55f5cd3c7453d4a26ce", "name": "84570641689ba55f5cd3c7453d4a26ce", "rental_uris": {"ios": "https://dc.lft.to/lastmile_qr_scan", "android": "https://dc.lft.to/lastmile_qr_scan"}}, {"is_disabled": 0, "fusion_lat": 0.0, "lat": 38.9859195, "type": "electric_bike", "lon": -77.0375575, "is_reserved": 0, "fusion_lon": 0.0, "bike_id": "33329a0120c4ebbd898dee099f247c7c", "name": "33329a0120c4ebbd898dee099f247c7c", "rental_uris": {"ios": "https://dc.lft.to/lastmile_qr_scan", "android": "https://dc.lft.to/lastmile_qr_scan"}}, {"is_disabled": 0, "fusion_lat": 0.0, "lat": 38.86591333333333, "type": "electric_bike", "lon": -76.9322535, "is_reserved": 0, "fusion_lon": 0.0, "bike_id": "ac0ce15464f56e70416b1d63c0511db3", "name": "ac0ce15464f56e70416b1d63c0511db3", "rental_uris": {"ios": "https://dc.lft.to/lastmile_qr_scan", "android": "https://dc.lft.to/lastmile_qr_scan"}}, {"is_disabled": 0, "fusion_lat": 0.0, "lat": 38.91545383333333, "type": "electric_scooter", "lon": -77.03846016666667, "is_reserved": 0, "fusion_lon": 0.0, "bike_id": "6dbcdf79a0bf420465eb92da92a87dc9", "name": "6dbcdf79a0bf420465eb92da92a87dc9", "rental_uris": {"ios": "https://dc.lft.to/lastmile_qr_scan", "android": "https://dc.lft.to/lastmile_qr_scan"}}, {"is_disabled": 0, "fusion_lat": 0.0, "lat": 38.91622, "type": "electric_scooter", "lon": -77.03182816666667, "is_reserved": 0, "fusion_lon": 0.0, "bike_id": "b14d952bdac9b82f3fc20f6ce127c93f", "name": "b14d952bdac9b82f3fc20f6ce127c93f", "rental_uris": {"ios": "https://dc.lft.to/lastmile_qr_scan", "android": "https://dc.lft.to/lastmile_qr_scan"}}, {"is_disabled": 0, "fusion_lat": 0.0, "lat": 38.92791666666667, "type": "electric_scooter", "lon": -77.03151283333334, "is_reserved": 0, "fusion_lon": 0.0, "bike_id": "aeba268681617e87ed7b5d90ff0523de", "name": "aeba268681617e87ed7b5d90ff0523de", "rental_uris": {"ios": "https://dc.lft.to/lastmile_qr_scan", "android": "https://dc.lft.to/lastmile_qr_scan"}}, {"is_disabled": 0, "fusion_lat": 0.0, "lat": 38.936288166666664, "type": "electric_bike", "lon": -77.03657066666666, "is_reserved": 0, "fusion_lon": 0.0, "bike_id": "dfe7992b12a37403824af7dafe823eec", "name": "dfe7992b12a37403824af7dafe823eec", "rental_uris": {"ios": "https://dc.lft.to/lastmile_qr_scan", "android": "https://dc.lft.to/lastmile_qr_scan"}}, {"is_disabled": 0, "fusion_lat": 0.0, "lat": 38.92284516666667, "type": "electric_scooter", "lon": -77.04219433333333, "is_reserved": 0, "fusion_lon": 0.0, "bike_id": "72ff0a318748d2c236ee3f5f11ec89e0", "name": "72ff0a318748d2c236ee3f5f11ec89e0", "rental_uris": {"ios": "https://dc.lft.to/lastmile_qr_scan", "android": "https://dc.lft.to/lastmile_qr_scan"}}, {"is_disabled": 0, "fusion_lat": 0.0, "lat": 38.91269116666667, "type": "electric_scooter", "lon": -77.03867616666666, "is_reserved": 0, "fusion_lon": 0.0, "bike_id": "686e7a16e73c4fa3f5c1a986d8d2d590", "name": "686e7a16e73c4fa3f5c1a986d8d2d590", "rental_uris": {"ios": "https://dc.lft.to/lastmile_qr_scan", "android": "https://dc.lft.to/lastmile_qr_scan"}}, {"is_disabled": 0, "fusion_lat": 0.0, "lat": 38.94269883333333, "type": "electric_scooter", "lon": -77.03257716666667, "is_reserved": 0, "fusion_lon": 0.0, "bike_id": "95609d7a38f0e13ff754aa4428e53680", "name": "95609d7a38f0e13ff754aa4428e53680", "rental_uris": {"ios": "https://dc.lft.to/lastmile_qr_scan", "android": "https://dc.lft.to/lastmile_qr_scan"}}, {"is_disabled": 0, "fusion_lat": 0.0, "lat": 38.9025245, "type": "electric_scooter", "lon": -77.04064733333334, "is_reserved": 0, "fusion_lon": 0.0, "bike_id": "4ff50c0d805c8775d4d6782fc5691c3f", "name": "4ff50c0d805c8775d4d6782fc5691c3f", "rental_uris": {"ios": "https://dc.lft.to/lastmile_qr_scan", "android": "https://dc.lft.to/lastmile_qr_scan"}}, {"is_disabled": 0, "fusion_lat": 0.0, "lat": 38.9003995, "type": "electric_scooter", "lon": -76.98833816666667, "is_reserved": 0, "fusion_lon": 0.0, "bike_id": "9e44cac546505173bd5c7fa765556d62", "name": "9e44cac546505173bd5c7fa765556d62", "rental_uris": {"ios": "https://dc.lft.to/lastmile_qr_scan", "android": "https://dc.lft.to/lastmile_qr_scan"}}, {"is_disabled": 0, "fusion_lat": 0.0, "lat": 38.89221516666667, "type": "electric_scooter", "lon": -77.0465725, "is_reserved": 0, "fusion_lon": 0.0, "bike_id": "6bfa2aba05be940400448a5ced027b8b", "name": "6bfa2aba05be940400448a5ced027b8b", "rental_uris": {"ios": "https://dc.lft.to/lastmile_qr_scan", "android": "https://dc.lft.to/lastmile_qr_scan"}}, {"is_disabled": 0, "fusion_lat": 0.0, "lat": 38.91109866666667, "type": "electric_scooter", "lon": -77.045084, "is_reserved": 0, "fusion_lon": 0.0, "bike_id": "f7f6d3c64abdb5fdf343999c5e6737d5", "name": "f7f6d3c64abdb5fdf343999c5e6737d5", "rental_uris": {"ios": "https://dc.lft.to/lastmile_qr_scan", "android": "https://dc.lft.to/lastmile_qr_scan"}}, {"is_disabled": 0, "fusion_lat": 0.0, "lat": 38.92169, "type": "electric_scooter", "lon": -77.05137433333333, "is_reserved": 0, "fusion_lon": 0.0, "bike_id": "b5c34a6915b4998839d1dec55556c868", "name": "b5c34a6915b4998839d1dec55556c868", "rental_uris": {"ios": "https://dc.lft.to/lastmile_qr_scan", "android": "https://dc.lft.to/lastmile_qr_scan"}}, {"is_disabled": 0, "fusion_lat": 0.0, "lat": 38.984595, "type": "electric_bike", "lon": -76.95526533333333, "is_reserved": 0, "fusion_lon": 0.0, "bike_id": "f8577770bb12602bdcaf56008c2efcd7", "name": "f8577770bb12602bdcaf56008c2efcd7", "rental_uris": {"ios": "https://dc.lft.to/lastmile_qr_scan", "android": "https://dc.lft.to/lastmile_qr_scan"}}, {"is_disabled": 0, "fusion_lat": 0.0, "lat": 38.9592455, "type": "electric_scooter", "lon": -77.033246, "is_reserved": 0, "fusion_lon": 0.0, "bike_id": "95e2221c1699a8d13a845fc5695edd32", "name": "95e2221c1699a8d13a845fc5695edd32", "rental_uris": {"ios": "https://dc.lft.to/lastmile_qr_scan", "android": "https://dc.lft.to/lastmile_qr_scan"}}, {"is_disabled": 0, "fusion_lat": 0.0, "lat": 38.917628666666666, "type": "electric_scooter", "lon": -77.03191866666667, "is_reserved": 0, "fusion_lon": 0.0, "bike_id": "23bb3a63ddd2e2a844f6c75be05c5c66", "name": "23bb3a63ddd2e2a844f6c75be05c5c66", "rental_uris": {"ios": "https://dc.lft.to/lastmile_qr_scan", "android": "https://dc.lft.to/lastmile_qr_scan"}}, {"is_disabled": 0, "fusion_lat": 0.0, "lat": 38.90793433333333, "type": "electric_scooter", "lon": -77.01867683333333, "is_reserved": 0, "fusion_lon": 0.0, "bike_id": "d94b316b50ab61336c5f0f27c7806d21", "name": "d94b316b50ab61336c5f0f27c7806d21", "rental_uris": {"ios": "https://dc.lft.to/lastmile_qr_scan", "android": "https://dc.lft.to/lastmile_qr_scan"}}, {"is_disabled": 0, "fusion_lat": 0.0, "lat": 38.9005105, "type": "electric_scooter", "lon": -77.002076, "is_reserved": 0, "fusion_lon": 0.0, "bike_id": "9b4c736fb3bb01970fc01da7ea33288a", "name": "9b4c736fb3bb01970fc01da7ea33288a", "rental_uris": {"ios": "https://dc.lft.to/lastmile_qr_scan", "android": "https://dc.lft.to/lastmile_qr_scan"}}, {"is_disabled": 0, "fusion_lat": 0.0, "lat": 38.865623166666666, "type": "electric_scooter", "lon": -76.98951533333333, "is_reserved": 0, "fusion_lon": 0.0, "bike_id": "08919d8cab90ee6d956590bcfcd1e769", "name": "08919d8cab90ee6d956590bcfcd1e769", "rental_uris": {"ios": "https://dc.lft.to/lastmile_qr_scan", "android": "https://dc.lft.to/lastmile_qr_scan"}}, {"is_disabled": 0, "fusion_lat": 0.0, "lat": 38.901945833333336, "type": "electric_scooter", "lon": -77.04330716666666, "is_reserved": 0, "fusion_lon": 0.0, "bike_id": "6bda3721dcb03b4759c4ac0a522a72fc", "name": "6bda3721dcb03b4759c4ac0a522a72fc", "rental_uris": {"ios": "https://dc.lft.to/lastmile_qr_scan", "android": "https://dc.lft.to/lastmile_qr_scan"}}, {"is_disabled": 0, "fusion_lat": 0.0, "lat": 38.94830733333333, "type": "electric_scooter", "lon": -77.02556516666667, "is_reserved": 0, "fusion_lon": 0.0, "bike_id": "057cf09506b8ac5dcb839175382be1c1", "name": "057cf09506b8ac5dcb839175382be1c1", "rental_uris": {"ios": "https://dc.lft.to/lastmile_qr_scan", "android": "https://dc.lft.to/lastmile_qr_scan"}}, {"is_disabled": 0, "fusion_lat": 0.0, "lat": 38.90274466666666, "type": "electric_scooter", "lon": -77.0383045, "is_reserved": 0, "fusion_lon": 0.0, "bike_id": "3ac6cc4dc51e8b875ccb98c6e041476a", "name": "3ac6cc4dc51e8b875ccb98c6e041476a", "rental_uris": {"ios": "https://dc.lft.to/lastmile_qr_scan", "android": "https://dc.lft.to/lastmile_qr_scan"}}, {"is_disabled": 0, "fusion_lat": 0.0, "lat": 38.901194333333336, "type": "electric_scooter", "lon": -77.0217175, "is_reserved": 0, "fusion_lon": 0.0, "bike_id": "177b1c710522e1471d26f11cbc903c8e", "name": "177b1c710522e1471d26f11cbc903c8e", "rental_uris": {"ios": "https://dc.lft.to/lastmile_qr_scan", "android": "https://dc.lft.to/lastmile_qr_scan"}}, {"is_disabled": 0, "fusion_lat": 0.0, "lat": 38.92183416666666, "type": "electric_scooter", "lon": -77.0472185, "is_reserved": 0, "fusion_lon": 0.0, "bike_id": "a3a4462a84f0b23549a3da44d5810279", "name": "a3a4462a84f0b23549a3da44d5810279", "rental_uris": {"ios": "https://dc.lft.to/lastmile_qr_scan", "android": "https://dc.lft.to/lastmile_qr_scan"}}, {"is_disabled": 0, "fusion_lat": 0.0, "lat": 38.903532166666665, "type": "electric_scooter", "lon": -77.03643466666666, "is_reserved": 0, "fusion_lon": 0.0, "bike_id": "8807efaf3da851292b9e2c66695e4781", "name": "8807efaf3da851292b9e2c66695e4781", "rental_uris": {"ios": "https://dc.lft.to/lastmile_qr_scan", "android": "https://dc.lft.to/lastmile_qr_scan"}}, {"is_disabled": 0, "fusion_lat": 0.0, "lat": 38.918222166666666, "type": "electric_scooter", "lon": -77.03526383333333, "is_reserved": 0, "fusion_lon": 0.0, "bike_id": "85f83cbfb8d87f6bd85906a2b7be4180", "name": "85f83cbfb8d87f6bd85906a2b7be4180", "rental_uris": {"ios": "https://dc.lft.to/lastmile_qr_scan", "android": "https://dc.lft.to/lastmile_qr_scan"}}, {"is_disabled": 0, "fusion_lat": 0.0, "lat": 38.93377666666667, "type": "electric_scooter", "lon": -77.0325775, "is_reserved": 0, "fusion_lon": 0.0, "bike_id": "6a965476a3271fde2a3fd6b09907ed07", "name": "6a965476a3271fde2a3fd6b09907ed07", "rental_uris": {"ios": "https://dc.lft.to/lastmile_qr_scan", "android": "https://dc.lft.to/lastmile_qr_scan"}}, {"is_disabled": 0, "fusion_lat": 0.0, "lat": 38.900589333333336, "type": "electric_scooter", "lon": -77.01282, "is_reserved": 0, "fusion_lon": 0.0, "bike_id": "cfed4df9e82393a47c7ac54079f8a9aa", "name": "cfed4df9e82393a47c7ac54079f8a9aa", "rental_uris": {"ios": "https://dc.lft.to/lastmile_qr_scan", "android": "https://dc.lft.to/lastmile_qr_scan"}}, {"is_disabled": 0, "fusion_lat": 0.0, "lat": 38.885978333333334, "type": "electric_scooter", "lon": -77.04512616666666, "is_reserved": 0, "fusion_lon": 0.0, "bike_id": "b68ac892ca014a451e4fc4d3a4c91fca", "name": "b68ac892ca014a451e4fc4d3a4c91fca", "rental_uris": {"ios": "https://dc.lft.to/lastmile_qr_scan", "android": "https://dc.lft.to/lastmile_qr_scan"}}, {"is_disabled": 0, "fusion_lat": 0.0, "lat": 38.956314166666665, "type": "electric_scooter", "lon": -77.03304616666667, "is_reserved": 0, "fusion_lon": 0.0, "bike_id": "b234fe80d08716592c8ebaf415aa3c28", "name": "b234fe80d08716592c8ebaf415aa3c28", "rental_uris": {"ios": "https://dc.lft.to/lastmile_qr_scan", "android": "https://dc.lft.to/lastmile_qr_scan"}}, {"is_disabled": 0, "fusion_lat": 0.0, "lat": 38.93607033333333, "type": "electric_scooter", "lon": -77.03787433333333, "is_reserved": 0, "fusion_lon": 0.0, "bike_id": "1be212eb841bb4bb13d20ecc54eb6747", "name": "1be212eb841bb4bb13d20ecc54eb6747", "rental_uris": {"ios": "https://dc.lft.to/lastmile_qr_scan", "android": "https://dc.lft.to/lastmile_qr_scan"}}, {"is_disabled": 0, "fusion_lat": 0.0, "lat": 38.92679483333333, "type": "electric_scooter", "lon": -77.0305455, "is_reserved": 0, "fusion_lon": 0.0, "bike_id": "58413abbaf70d379dd9959cbed23eb1d", "name": "58413abbaf70d379dd9959cbed23eb1d", "rental_uris": {"ios": "https://dc.lft.to/lastmile_qr_scan", "android": "https://dc.lft.to/lastmile_qr_scan"}}, {"is_disabled": 0, "fusion_lat": 0.0, "lat": 38.927195833333336, "type": "electric_scooter", "lon": -77.04116933333333, "is_reserved": 0, "fusion_lon": 0.0, "bike_id": "337e8f54526723388a6124f3574b5de1", "name": "337e8f54526723388a6124f3574b5de1", "rental_uris": {"ios": "https://dc.lft.to/lastmile_qr_scan", "android": "https://dc.lft.to/lastmile_qr_scan"}}, {"is_disabled": 0, "fusion_lat": 0.0, "lat": 38.924169166666665, "type": "electric_scooter", "lon": -77.056225, "is_reserved": 0, "fusion_lon": 0.0, "bike_id": "3466de0eadb1b5cd39a0772c6ab4f316", "name": "3466de0eadb1b5cd39a0772c6ab4f316", "rental_uris": {"ios": "https://dc.lft.to/lastmile_qr_scan", "android": "https://dc.lft.to/lastmile_qr_scan"}}, {"is_disabled": 0, "fusion_lat": 0.0, "lat": 38.84584433333333, "type": "electric_scooter", "lon": -76.9816195, "is_reserved": 0, "fusion_lon": 0.0, "bike_id": "4d630c8d840a7d3178b13e174eb2df0a", "name": "4d630c8d840a7d3178b13e174eb2df0a", "rental_uris": {"ios": "https://dc.lft.to/lastmile_qr_scan", "android": "https://dc.lft.to/lastmile_qr_scan"}}, {"is_disabled": 0, "fusion_lat": 0.0, "lat": 38.914532666666666, "type": "electric_scooter", "lon": -77.0460675, "is_reserved": 0, "fusion_lon": 0.0, "bike_id": "c367776206b888b1278eb32397ec29ec", "name": "c367776206b888b1278eb32397ec29ec", "rental_uris": {"ios": "https://dc.lft.to/lastmile_qr_scan", "android": "https://dc.lft.to/lastmile_qr_scan"}}, {"is_disabled": 0, "fusion_lat": 0.0, "lat": 38.850601166666664, "type": "electric_bike", "lon": -76.97331733333333, "is_reserved": 0, "fusion_lon": 0.0, "bike_id": "514e86423cb0651e0d96424905395dbf", "name": "514e86423cb0651e0d96424905395dbf", "rental_uris": {"ios": "https://dc.lft.to/lastmile_qr_scan", "android": "https://dc.lft.to/lastmile_qr_scan"}}, {"is_disabled": 0, "fusion_lat": 0.0, "lat": 38.90252616666667, "type": "electric_scooter", "lon": -77.04615266666667, "is_reserved": 0, "fusion_lon": 0.0, "bike_id": "8c5cee6cf8c9a38505ac183c212376d0", "name": "8c5cee6cf8c9a38505ac183c212376d0", "rental_uris": {"ios": "https://dc.lft.to/lastmile_qr_scan", "android": "https://dc.lft.to/lastmile_qr_scan"}}, {"is_disabled": 0, "fusion_lat": 0.0, "lat": 38.90262116666667, "type": "electric_scooter", "lon": -77.053164, "is_reserved": 0, "fusion_lon": 0.0, "bike_id": "b62c573a809e55ffbef66c2bfce243b7", "name": "b62c573a809e55ffbef66c2bfce243b7", "rental_uris": {"ios": "https://dc.lft.to/lastmile_qr_scan", "android": "https://dc.lft.to/lastmile_qr_scan"}}, {"is_disabled": 0, "fusion_lat": 0.0, "lat": 38.92564683333333, "type": "electric_scooter", "lon": -77.0526425, "is_reserved": 0, "fusion_lon": 0.0, "bike_id": "8c04abf1b74f4aa28dbacfdc77e15b44", "name": "8c04abf1b74f4aa28dbacfdc77e15b44", "rental_uris": {"ios": "https://dc.lft.to/lastmile_qr_scan", "android": "https://dc.lft.to/lastmile_qr_scan"}}, {"is_disabled": 0, "fusion_lat": 0.0, "lat": 38.94018333333333, "type": "electric_scooter", "lon": -77.07171116666666, "is_reserved": 0, "fusion_lon": 0.0, "bike_id": "e8b7c65fe5cf800afd3dfe3144556f9b", "name": "e8b7c65fe5cf800afd3dfe3144556f9b", "rental_uris": {"ios": "https://dc.lft.to/lastmile_qr_scan", "android": "https://dc.lft.to/lastmile_qr_scan"}}, {"is_disabled": 0, "fusion_lat": 0.0, "lat": 38.925441166666666, "type": "electric_bike", "lon": -77.0012945, "is_reserved": 0, "fusion_lon": 0.0, "bike_id": "0fbeb80c33a85c23a07542813dffa53b", "name": "0fbeb80c33a85c23a07542813dffa53b", "rental_uris": {"ios": "https://dc.lft.to/lastmile_qr_scan", "android": "https://dc.lft.to/lastmile_qr_scan"}}, {"is_disabled": 0, "fusion_lat": 0.0, "lat": 38.916921, "type": "electric_scooter", "lon": -77.03869783333333, "is_reserved": 0, "fusion_lon": 0.0, "bike_id": "a8291362eb15fa70a20c7a80588835d0", "name": "a8291362eb15fa70a20c7a80588835d0", "rental_uris": {"ios": "https://dc.lft.to/lastmile_qr_scan", "android": "https://dc.lft.to/lastmile_qr_scan"}}, {"is_disabled": 0, "fusion_lat": 0.0, "lat": 38.900301, "type": "electric_scooter", "lon": -77.01210266666666, "is_reserved": 0, "fusion_lon": 0.0, "bike_id": "899bf29cc631299f7109791316bfb0f3", "name": "899bf29cc631299f7109791316bfb0f3", "rental_uris": {"ios": "https://dc.lft.to/lastmile_qr_scan", "android": "https://dc.lft.to/lastmile_qr_scan"}}, {"is_disabled": 0, "fusion_lat": 0.0, "lat": 38.8988475, "type": "electric_scooter", "lon": -76.93177083333333, "is_reserved": 0, "fusion_lon": 0.0, "bike_id": "cefcbddb1f229db61b13507092c75826", "name": "cefcbddb1f229db61b13507092c75826", "rental_uris": {"ios": "https://dc.lft.to/lastmile_qr_scan", "android": "https://dc.lft.to/lastmile_qr_scan"}}, {"is_disabled": 0, "fusion_lat": 0.0, "lat": 38.9206925, "type": "electric_scooter", "lon": -77.04387433333333, "is_reserved": 0, "fusion_lon": 0.0, "bike_id": "13d0e27850967e176c4d7560d07466db", "name": "13d0e27850967e176c4d7560d07466db", "rental_uris": {"ios": "https://dc.lft.to/lastmile_qr_scan", "android": "https://dc.lft.to/lastmile_qr_scan"}}, {"is_disabled": 0, "fusion_lat": 0.0, "lat": 38.91548366666667, "type": "electric_scooter", "lon": -77.04158383333333, "is_reserved": 0, "fusion_lon": 0.0, "bike_id": "155113cf931d4ad27e0b04e1e3a99277", "name": "155113cf931d4ad27e0b04e1e3a99277", "rental_uris": {"ios": "https://dc.lft.to/lastmile_qr_scan", "android": "https://dc.lft.to/lastmile_qr_scan"}}, {"is_disabled": 0, "fusion_lat": 0.0, "lat": 38.8636595, "type": "electric_bike", "lon": -76.97006366666666, "is_reserved": 0, "fusion_lon": 0.0, "bike_id": "0c14610cee93a20f9c3e30868980fe7b", "name": "0c14610cee93a20f9c3e30868980fe7b", "rental_uris": {"ios": "https://dc.lft.to/lastmile_qr_scan", "android": "https://dc.lft.to/lastmile_qr_scan"}}, {"is_disabled": 0, "fusion_lat": 0.0, "lat": 38.90213933333333, "type": "electric_scooter", "lon": -76.94585533333333, "is_reserved": 0, "fusion_lon": 0.0, "bike_id": "03424ce86df858992d34a301de4267f4", "name": "03424ce86df858992d34a301de4267f4", "rental_uris": {"ios": "https://dc.lft.to/lastmile_qr_scan", "android": "https://dc.lft.to/lastmile_qr_scan"}}, {"is_disabled": 0, "fusion_lat": 0.0, "lat": 38.909670166666665, "type": "electric_scooter", "lon": -77.03598533333333, "is_reserved": 0, "fusion_lon": 0.0, "bike_id": "25c499038afefb86e7dbc6e678d9fe4f", "name": "25c499038afefb86e7dbc6e678d9fe4f", "rental_uris": {"ios": "https://dc.lft.to/lastmile_qr_scan", "android": "https://dc.lft.to/lastmile_qr_scan"}}, {"is_disabled": 0, "fusion_lat": 0.0, "lat": 38.94945333333333, "type": "electric_scooter", "lon": -77.01615733333334, "is_reserved": 0, "fusion_lon": 0.0, "bike_id": "a8ebaef1445531f0e70771f8effc7e32", "name": "a8ebaef1445531f0e70771f8effc7e32", "rental_uris": {"ios": "https://dc.lft.to/lastmile_qr_scan", "android": "https://dc.lft.to/lastmile_qr_scan"}}, {"is_disabled": 0, "fusion_lat": 0.0, "lat": 38.95878066666667, "type": "electric_bike", "lon": -77.01039416666667, "is_reserved": 0, "fusion_lon": 0.0, "bike_id": "ee0b3992356c7d6da38c5422602852c6", "name": "ee0b3992356c7d6da38c5422602852c6", "rental_uris": {"ios": "https://dc.lft.to/lastmile_qr_scan", "android": "https://dc.lft.to/lastmile_qr_scan"}}, {"is_disabled": 0, "fusion_lat": 0.0, "lat": 38.915665, "type": "electric_scooter", "lon": -77.04683516666667, "is_reserved": 0, "fusion_lon": 0.0, "bike_id": "cce5981b3054574985a9d2cb050ec79a", "name": "cce5981b3054574985a9d2cb050ec79a", "rental_uris": {"ios": "https://dc.lft.to/lastmile_qr_scan", "android": "https://dc.lft.to/lastmile_qr_scan"}}, {"is_disabled": 0, "fusion_lat": 0.0, "lat": 38.9283845, "type": "electric_scooter", "lon": -77.031256, "is_reserved": 0, "fusion_lon": 0.0, "bike_id": "3d0b422526b8954a35d70a93f11f2d7d", "name": "3d0b422526b8954a35d70a93f11f2d7d", "rental_uris": {"ios": "https://dc.lft.to/lastmile_qr_scan", "android": "https://dc.lft.to/lastmile_qr_scan"}}, {"is_disabled": 0, "fusion_lat": 0.0, "lat": 38.961749833333336, "type": "electric_bike", "lon": -76.99590883333333, "is_reserved": 0, "fusion_lon": 0.0, "bike_id": "720324bef90f7cae5e755cd5a2439757", "name": "720324bef90f7cae5e755cd5a2439757", "rental_uris": {"ios": "https://dc.lft.to/lastmile_qr_scan", "android": "https://dc.lft.to/lastmile_qr_scan"}}, {"is_disabled": 0, "fusion_lat": 0.0, "lat": 38.92414, "type": "electric_bike", "lon": -77.045606, "is_reserved": 0, "fusion_lon": 0.0, "bike_id": "2472cf9c939e835b9514dcbff9020d8f", "name": "2472cf9c939e835b9514dcbff9020d8f", "rental_uris": {"ios": "https://dc.lft.to/lastmile_qr_scan", "android": "https://dc.lft.to/lastmile_qr_scan"}}, {"is_disabled": 0, "fusion_lat": 0.0, "lat": 38.919582166666665, "type": "electric_bike", "lon": -76.97264216666667, "is_reserved": 0, "fusion_lon": 0.0, "bike_id": "41d0c9636bed4993c472f327df95696b", "name": "41d0c9636bed4993c472f327df95696b", "rental_uris": {"ios": "https://dc.lft.to/lastmile_qr_scan", "android": "https://dc.lft.to/lastmile_qr_scan"}}, {"is_disabled": 0, "fusion_lat": 0.0, "lat": 38.8609255, "type": "electric_scooter", "lon": -76.98376966666666, "is_reserved": 0, "fusion_lon": 0.0, "bike_id": "82ed302cbe7cd9581eff9987882bd754", "name": "82ed302cbe7cd9581eff9987882bd754", "rental_uris": {"ios": "https://dc.lft.to/lastmile_qr_scan", "android": "https://dc.lft.to/lastmile_qr_scan"}}, {"is_disabled": 0, "fusion_lat": 0.0, "lat": 38.924773, "type": "electric_scooter", "lon": -77.03909483333334, "is_reserved": 0, "fusion_lon": 0.0, "bike_id": "449f0c4128075d32fd81a53d1eaef446", "name": "449f0c4128075d32fd81a53d1eaef446", "rental_uris": {"ios": "https://dc.lft.to/lastmile_qr_scan", "android": "https://dc.lft.to/lastmile_qr_scan"}}, {"is_disabled": 0, "fusion_lat": 0.0, "lat": 38.918182333333334, "type": "electric_scooter", "lon": -77.0365665, "is_reserved": 0, "fusion_lon": 0.0, "bike_id": "dd838ca8397d826595634da4f22cd3cd", "name": "dd838ca8397d826595634da4f22cd3cd", "rental_uris": {"ios": "https://dc.lft.to/lastmile_qr_scan", "android": "https://dc.lft.to/lastmile_qr_scan"}}, {"is_disabled": 0, "fusion_lat": 0.0, "lat": 38.896188333333335, "type": "electric_scooter", "lon": -77.00919833333333, "is_reserved": 0, "fusion_lon": 0.0, "bike_id": "76d176042c6dfdfd1a8afcfdfc48813c", "name": "76d176042c6dfdfd1a8afcfdfc48813c", "rental_uris": {"ios": "https://dc.lft.to/lastmile_qr_scan", "android": "https://dc.lft.to/lastmile_qr_scan"}}, {"is_disabled": 0, "fusion_lat": 0.0, "lat": 38.9012555, "type": "electric_scooter", "lon": -77.040371, "is_reserved": 0, "fusion_lon": 0.0, "bike_id": "6eb300669176d57b1d070c9cf1631a87", "name": "6eb300669176d57b1d070c9cf1631a87", "rental_uris": {"ios": "https://dc.lft.to/lastmile_qr_scan", "android": "https://dc.lft.to/lastmile_qr_scan"}}, {"is_disabled": 0, "fusion_lat": 0.0, "lat": 38.93037266666666, "type": "electric_scooter", "lon": -77.03228366666667, "is_reserved": 0, "fusion_lon": 0.0, "bike_id": "9dcc1ec16d1a4d55a54b82990e199604", "name": "9dcc1ec16d1a4d55a54b82990e199604", "rental_uris": {"ios": "https://dc.lft.to/lastmile_qr_scan", "android": "https://dc.lft.to/lastmile_qr_scan"}}, {"is_disabled": 0, "fusion_lat": 0.0, "lat": 38.90107066666667, "type": "electric_scooter", "lon": -77.05142133333334, "is_reserved": 0, "fusion_lon": 0.0, "bike_id": "678041cbc75f7b3b4ec161e7c877362e", "name": "678041cbc75f7b3b4ec161e7c877362e", "rental_uris": {"ios": "https://dc.lft.to/lastmile_qr_scan", "android": "https://dc.lft.to/lastmile_qr_scan"}}, {"is_disabled": 0, "fusion_lat": 0.0, "lat": 38.89046916666667, "type": "electric_scooter", "lon": -76.93753283333334, "is_reserved": 0, "fusion_lon": 0.0, "bike_id": "5bf5e7282ab926d31700e30dff9bf28f", "name": "5bf5e7282ab926d31700e30dff9bf28f", "rental_uris": {"ios": "https://dc.lft.to/lastmile_qr_scan", "android": "https://dc.lft.to/lastmile_qr_scan"}}, {"is_disabled": 0, "fusion_lat": 0.0, "lat": 38.920389666666665, "type": "electric_scooter", "lon": -77.04179233333333, "is_reserved": 0, "fusion_lon": 0.0, "bike_id": "f508c770fad6bcbeaf28e61296747b22", "name": "f508c770fad6bcbeaf28e61296747b22", "rental_uris": {"ios": "https://dc.lft.to/lastmile_qr_scan", "android": "https://dc.lft.to/lastmile_qr_scan"}}, {"is_disabled": 0, "fusion_lat": 0.0, "lat": 38.907929, "type": "electric_scooter", "lon": -76.996994, "is_reserved": 0, "fusion_lon": 0.0, "bike_id": "d9d359326d3cbf44b097fd76ef147343", "name": "d9d359326d3cbf44b097fd76ef147343", "rental_uris": {"ios": "https://dc.lft.to/lastmile_qr_scan", "android": "https://dc.lft.to/lastmile_qr_scan"}}, {"is_disabled": 0, "fusion_lat": 0.0, "lat": 38.9205205, "type": "electric_scooter", "lon": -77.03377383333333, "is_reserved": 0, "fusion_lon": 0.0, "bike_id": "bb2e8b6fc087b03de4695f3cbba3fa3a", "name": "bb2e8b6fc087b03de4695f3cbba3fa3a", "rental_uris": {"ios": "https://dc.lft.to/lastmile_qr_scan", "android": "https://dc.lft.to/lastmile_qr_scan"}}, {"is_disabled": 0, "fusion_lat": 0.0, "lat": 38.941764666666664, "type": "electric_scooter", "lon": -77.03092583333333, "is_reserved": 0, "fusion_lon": 0.0, "bike_id": "8e41e603ff4b8dceab665f929c92ff7a", "name": "8e41e603ff4b8dceab665f929c92ff7a", "rental_uris": {"ios": "https://dc.lft.to/lastmile_qr_scan", "android": "https://dc.lft.to/lastmile_qr_scan"}}, {"is_disabled": 0, "fusion_lat": 0.0, "lat": 38.87473166666667, "type": "electric_scooter", "lon": -77.00930016666666, "is_reserved": 0, "fusion_lon": 0.0, "bike_id": "5588feec8f26b71494274b6d2f7823fc", "name": "5588feec8f26b71494274b6d2f7823fc", "rental_uris": {"ios": "https://dc.lft.to/lastmile_qr_scan", "android": "https://dc.lft.to/lastmile_qr_scan"}}, {"is_disabled": 0, "fusion_lat": 0.0, "lat": 38.9305665, "type": "electric_scooter", "lon": -77.04182033333333, "is_reserved": 0, "fusion_lon": 0.0, "bike_id": "f69e1d696553c4960fb33ac64e013949", "name": "f69e1d696553c4960fb33ac64e013949", "rental_uris": {"ios": "https://dc.lft.to/lastmile_qr_scan", "android": "https://dc.lft.to/lastmile_qr_scan"}}, {"is_disabled": 0, "fusion_lat": 0.0, "lat": 38.917137333333336, "type": "electric_scooter", "lon": -77.03838716666667, "is_reserved": 0, "fusion_lon": 0.0, "bike_id": "7aede1d63b2ac4c9e6618b91c2a7c3cd", "name": "7aede1d63b2ac4c9e6618b91c2a7c3cd", "rental_uris": {"ios": "https://dc.lft.to/lastmile_qr_scan", "android": "https://dc.lft.to/lastmile_qr_scan"}}, {"is_disabled": 0, "fusion_lat": 0.0, "lat": 38.9025585, "type": "electric_scooter", "lon": -77.01732516666667, "is_reserved": 0, "fusion_lon": 0.0, "bike_id": "4b03aab771e6f1384505bdd810bf51ff", "name": "4b03aab771e6f1384505bdd810bf51ff", "rental_uris": {"ios": "https://dc.lft.to/lastmile_qr_scan", "android": "https://dc.lft.to/lastmile_qr_scan"}}, {"is_disabled": 0, "fusion_lat": 0.0, "lat": 38.89907866666667, "type": "electric_scooter", "lon": -76.93358533333334, "is_reserved": 0, "fusion_lon": 0.0, "bike_id": "64fa5a08ac0123d7cc7d2c149970ae6b", "name": "64fa5a08ac0123d7cc7d2c149970ae6b", "rental_uris": {"ios": "https://dc.lft.to/lastmile_qr_scan", "android": "https://dc.lft.to/lastmile_qr_scan"}}, {"is_disabled": 0, "fusion_lat": 0.0, "lat": 38.916163, "type": "electric_scooter", "lon": -77.0320355, "is_reserved": 0, "fusion_lon": 0.0, "bike_id": "3b6a4c0bd80de5ff87e945dfcf99e38b", "name": "3b6a4c0bd80de5ff87e945dfcf99e38b", "rental_uris": {"ios": "https://dc.lft.to/lastmile_qr_scan", "android": "https://dc.lft.to/lastmile_qr_scan"}}, {"is_disabled": 0, "fusion_lat": 0.0, "lat": 38.858086166666666, "type": "electric_scooter", "lon": -76.98657016666667, "is_reserved": 0, "fusion_lon": 0.0, "bike_id": "b06a198717a2b84ab9125c11f6748278", "name": "b06a198717a2b84ab9125c11f6748278", "rental_uris": {"ios": "https://dc.lft.to/lastmile_qr_scan", "android": "https://dc.lft.to/lastmile_qr_scan"}}, {"is_disabled": 0, "fusion_lat": 0.0, "lat": 38.890146333333334, "type": "electric_scooter", "lon": -76.9374595, "is_reserved": 0, "fusion_lon": 0.0, "bike_id": "271a458d142e2e47c6e6fed729bb421a", "name": "271a458d142e2e47c6e6fed729bb421a", "rental_uris": {"ios": "https://dc.lft.to/lastmile_qr_scan", "android": "https://dc.lft.to/lastmile_qr_scan"}}, {"is_disabled": 0, "fusion_lat": 0.0, "lat": 38.908662666666665, "type": "electric_scooter", "lon": -77.08594033333334, "is_reserved": 0, "fusion_lon": 0.0, "bike_id": "9019bcc72819ce600b7106a9fae437e9", "name": "9019bcc72819ce600b7106a9fae437e9", "rental_uris": {"ios": "https://dc.lft.to/lastmile_qr_scan", "android": "https://dc.lft.to/lastmile_qr_scan"}}, {"is_disabled": 0, "fusion_lat": 0.0, "lat": 38.922865, "type": "electric_scooter", "lon": -77.0319435, "is_reserved": 0, "fusion_lon": 0.0, "bike_id": "cf09718a760a548a356f83cc29503578", "name": "cf09718a760a548a356f83cc29503578", "rental_uris": {"ios": "https://dc.lft.to/lastmile_qr_scan", "android": "https://dc.lft.to/lastmile_qr_scan"}}, {"is_disabled": 0, "fusion_lat": 0.0, "lat": 38.87539866666667, "type": "electric_scooter", "lon": -77.00062533333333, "is_reserved": 0, "fusion_lon": 0.0, "bike_id": "1dac2306e81ccda7e7454983e2ac30a9", "name": "1dac2306e81ccda7e7454983e2ac30a9", "rental_uris": {"ios": "https://dc.lft.to/lastmile_qr_scan", "android": "https://dc.lft.to/lastmile_qr_scan"}}, {"is_disabled": 0, "fusion_lat": 0.0, "lat": 38.899068, "type": "electric_scooter", "lon": -77.033049, "is_reserved": 0, "fusion_lon": 0.0, "bike_id": "b8e23525f1e4288ccbe78345ec4e8144", "name": "b8e23525f1e4288ccbe78345ec4e8144", "rental_uris": {"ios": "https://dc.lft.to/lastmile_qr_scan", "android": "https://dc.lft.to/lastmile_qr_scan"}}, {"is_disabled": 0, "fusion_lat": 0.0, "lat": 38.9489465, "type": "electric_bike", "lon": -76.963833, "is_reserved": 0, "fusion_lon": 0.0, "bike_id": "f6a12e0db267cd3b46f20cfe01ef6f5c", "name": "f6a12e0db267cd3b46f20cfe01ef6f5c", "rental_uris": {"ios": "https://dc.lft.to/lastmile_qr_scan", "android": "https://dc.lft.to/lastmile_qr_scan"}}, {"is_disabled": 0, "fusion_lat": 0.0, "lat": 38.8844945, "type": "electric_scooter", "lon": -77.005691, "is_reserved": 0, "fusion_lon": 0.0, "bike_id": "ae91313f2dcdcee1d4df30a557160342", "name": "ae91313f2dcdcee1d4df30a557160342", "rental_uris": {"ios": "https://dc.lft.to/lastmile_qr_scan", "android": "https://dc.lft.to/lastmile_qr_scan"}}, {"is_disabled": 0, "fusion_lat": 0.0, "lat": 38.9037325, "type": "electric_scooter", "lon": -77.039132, "is_reserved": 0, "fusion_lon": 0.0, "bike_id": "ded87236b8bab2cd51bc8f7bc0111613", "name": "ded87236b8bab2cd51bc8f7bc0111613", "rental_uris": {"ios": "https://dc.lft.to/lastmile_qr_scan", "android": "https://dc.lft.to/lastmile_qr_scan"}}, {"is_disabled": 0, "fusion_lat": 0.0, "lat": 38.92146983333333, "type": "electric_scooter", "lon": -77.03867, "is_reserved": 0, "fusion_lon": 0.0, "bike_id": "e54bfa5455ea7c7ac5f77b384d2c6d5d", "name": "e54bfa5455ea7c7ac5f77b384d2c6d5d", "rental_uris": {"ios": "https://dc.lft.to/lastmile_qr_scan", "android": "https://dc.lft.to/lastmile_qr_scan"}}, {"is_disabled": 0, "fusion_lat": 0.0, "lat": 38.8924655, "type": "electric_scooter", "lon": -76.94326916666667, "is_reserved": 0, "fusion_lon": 0.0, "bike_id": "0fa7f7498f08ebaa36818f3159d50e29", "name": "0fa7f7498f08ebaa36818f3159d50e29", "rental_uris": {"ios": "https://dc.lft.to/lastmile_qr_scan", "android": "https://dc.lft.to/lastmile_qr_scan"}}, {"is_disabled": 0, "fusion_lat": 0.0, "lat": 38.90137383333333, "type": "electric_scooter", "lon": -76.9980345, "is_reserved": 0, "fusion_lon": 0.0, "bike_id": "39a038be89ecbbe1c8717f7c72712496", "name": "39a038be89ecbbe1c8717f7c72712496", "rental_uris": {"ios": "https://dc.lft.to/lastmile_qr_scan", "android": "https://dc.lft.to/lastmile_qr_scan"}}, {"is_disabled": 0, "fusion_lat": 0.0, "lat": 38.91610583333333, "type": "electric_scooter", "lon": -77.0271185, "is_reserved": 0, "fusion_lon": 0.0, "bike_id": "cb4c1792a363fad4c33befeb8f39a606", "name": "cb4c1792a363fad4c33befeb8f39a606", "rental_uris": {"ios": "https://dc.lft.to/lastmile_qr_scan", "android": "https://dc.lft.to/lastmile_qr_scan"}}, {"is_disabled": 0, "fusion_lat": 0.0, "lat": 38.9126805, "type": "electric_scooter", "lon": -77.04170466666666, "is_reserved": 0, "fusion_lon": 0.0, "bike_id": "e26ff6a37b9c7f5673d673ac4d01b41e", "name": "e26ff6a37b9c7f5673d673ac4d01b41e", "rental_uris": {"ios": "https://dc.lft.to/lastmile_qr_scan", "android": "https://dc.lft.to/lastmile_qr_scan"}}, {"is_disabled": 0, "fusion_lat": 0.0, "lat": 38.93823416666667, "type": "electric_bike", "lon": -77.03293933333333, "is_reserved": 0, "fusion_lon": 0.0, "bike_id": "c687a08f52a2445b49c44845087c6ac8", "name": "c687a08f52a2445b49c44845087c6ac8", "rental_uris": {"ios": "https://dc.lft.to/lastmile_qr_scan", "android": "https://dc.lft.to/lastmile_qr_scan"}}, {"is_disabled": 0, "fusion_lat": 0.0, "lat": 38.90850616666667, "type": "electric_scooter", "lon": -77.02465083333334, "is_reserved": 0, "fusion_lon": 0.0, "bike_id": "936f57566d9c3727b1bbc91c10fc7ab1", "name": "936f57566d9c3727b1bbc91c10fc7ab1", "rental_uris": {"ios": "https://dc.lft.to/lastmile_qr_scan", "android": "https://dc.lft.to/lastmile_qr_scan"}}, {"is_disabled": 0, "fusion_lat": 0.0, "lat": 38.87143916666667, "type": "electric_bike", "lon": -76.936677, "is_reserved": 0, "fusion_lon": 0.0, "bike_id": "1728d9a461544328521fab35f05d92ef", "name": "1728d9a461544328521fab35f05d92ef", "rental_uris": {"ios": "https://dc.lft.to/lastmile_qr_scan", "android": "https://dc.lft.to/lastmile_qr_scan"}}, {"is_disabled": 0, "fusion_lat": 0.0, "lat": 38.9479945, "type": "electric_bike", "lon": -77.00815766666666, "is_reserved": 0, "fusion_lon": 0.0, "bike_id": "503763f1747b3cc1959876bd2c4e85d7", "name": "503763f1747b3cc1959876bd2c4e85d7", "rental_uris": {"ios": "https://dc.lft.to/lastmile_qr_scan", "android": "https://dc.lft.to/lastmile_qr_scan"}}, {"is_disabled": 0, "fusion_lat": 0.0, "lat": 38.89611383333333, "type": "electric_scooter", "lon": -76.994204, "is_reserved": 0, "fusion_lon": 0.0, "bike_id": "ea74277e6a0db9e99501cf2cd1827fcf", "name": "ea74277e6a0db9e99501cf2cd1827fcf", "rental_uris": {"ios": "https://dc.lft.to/lastmile_qr_scan", "android": "https://dc.lft.to/lastmile_qr_scan"}}, {"is_disabled": 0, "fusion_lat": 0.0, "lat": 38.900576666666666, "type": "electric_scooter", "lon": -76.9814075, "is_reserved": 0, "fusion_lon": 0.0, "bike_id": "997863d5974f33dd3b28bac4807dabec", "name": "997863d5974f33dd3b28bac4807dabec", "rental_uris": {"ios": "https://dc.lft.to/lastmile_qr_scan", "android": "https://dc.lft.to/lastmile_qr_scan"}}, {"is_disabled": 0, "fusion_lat": 0.0, "lat": 38.953487, "type": "electric_bike", "lon": -76.98088766666666, "is_reserved": 0, "fusion_lon": 0.0, "bike_id": "f615bb132bb1728b7df73fc3a8c83c91", "name": "f615bb132bb1728b7df73fc3a8c83c91", "rental_uris": {"ios": "https://dc.lft.to/lastmile_qr_scan", "android": "https://dc.lft.to/lastmile_qr_scan"}}, {"is_disabled": 0, "fusion_lat": 0.0, "lat": 38.924957666666664, "type": "electric_scooter", "lon": -77.02150783333333, "is_reserved": 0, "fusion_lon": 0.0, "bike_id": "03a365874b146254f1299222179322ef", "name": "03a365874b146254f1299222179322ef", "rental_uris": {"ios": "https://dc.lft.to/lastmile_qr_scan", "android": "https://dc.lft.to/lastmile_qr_scan"}}, {"is_disabled": 0, "fusion_lat": 0.0, "lat": 38.900163, "type": "electric_scooter", "lon": -77.006185, "is_reserved": 0, "fusion_lon": 0.0, "bike_id": "d25f671513c3e3408611173cc700cb98", "name": "d25f671513c3e3408611173cc700cb98", "rental_uris": {"ios": "https://dc.lft.to/lastmile_qr_scan", "android": "https://dc.lft.to/lastmile_qr_scan"}}, {"is_disabled": 0, "fusion_lat": 0.0, "lat": 38.901579166666664, "type": "electric_scooter", "lon": -77.025434, "is_reserved": 0, "fusion_lon": 0.0, "bike_id": "38295c02afb7511de94fd39ef96dec55", "name": "38295c02afb7511de94fd39ef96dec55", "rental_uris": {"ios": "https://dc.lft.to/lastmile_qr_scan", "android": "https://dc.lft.to/lastmile_qr_scan"}}, {"is_disabled": 0, "fusion_lat": 0.0, "lat": 38.88310833333333, "type": "electric_scooter", "lon": -77.00933683333334, "is_reserved": 0, "fusion_lon": 0.0, "bike_id": "78e9eb7d390356d6815e5a804d5b2baa", "name": "78e9eb7d390356d6815e5a804d5b2baa", "rental_uris": {"ios": "https://dc.lft.to/lastmile_qr_scan", "android": "https://dc.lft.to/lastmile_qr_scan"}}, {"is_disabled": 0, "fusion_lat": 0.0, "lat": 38.89797083333333, "type": "electric_scooter", "lon": -77.0190875, "is_reserved": 0, "fusion_lon": 0.0, "bike_id": "aa271c6306ce9855761e38b8ab04c2ba", "name": "aa271c6306ce9855761e38b8ab04c2ba", "rental_uris": {"ios": "https://dc.lft.to/lastmile_qr_scan", "android": "https://dc.lft.to/lastmile_qr_scan"}}, {"is_disabled": 0, "fusion_lat": 0.0, "lat": 38.913037, "type": "electric_bike", "lon": -77.082893, "is_reserved": 0, "fusion_lon": 0.0, "bike_id": "352ed959a5626c4b5c11d656f6dee64e", "name": "352ed959a5626c4b5c11d656f6dee64e", "rental_uris": {"ios": "https://dc.lft.to/lastmile_qr_scan", "android": "https://dc.lft.to/lastmile_qr_scan"}}, {"is_disabled": 0, "fusion_lat": 0.0, "lat": 38.87921466666667, "type": "electric_scooter", "lon": -76.99251216666667, "is_reserved": 0, "fusion_lon": 0.0, "bike_id": "3a7862ebefe4e3298cd355b1cc133005", "name": "3a7862ebefe4e3298cd355b1cc133005", "rental_uris": {"ios": "https://dc.lft.to/lastmile_qr_scan", "android": "https://dc.lft.to/lastmile_qr_scan"}}, {"is_disabled": 0, "fusion_lat": 0.0, "lat": 38.93793316666667, "type": "electric_scooter", "lon": -77.06002266666667, "is_reserved": 0, "fusion_lon": 0.0, "bike_id": "126cf46ad89575668974c07897474ae3", "name": "126cf46ad89575668974c07897474ae3", "rental_uris": {"ios": "https://dc.lft.to/lastmile_qr_scan", "android": "https://dc.lft.to/lastmile_qr_scan"}}, {"is_disabled": 0, "fusion_lat": 0.0, "lat": 38.9228685, "type": "electric_scooter", "lon": -77.04139983333333, "is_reserved": 0, "fusion_lon": 0.0, "bike_id": "74639a4dbea828e0503b79850824f572", "name": "74639a4dbea828e0503b79850824f572", "rental_uris": {"ios": "https://dc.lft.to/lastmile_qr_scan", "android": "https://dc.lft.to/lastmile_qr_scan"}}, {"is_disabled": 0, "fusion_lat": 0.0, "lat": 38.912541166666664, "type": "electric_scooter", "lon": -77.02228966666667, "is_reserved": 0, "fusion_lon": 0.0, "bike_id": "733cee20afa5f0ef15d4fa66d23a965b", "name": "733cee20afa5f0ef15d4fa66d23a965b", "rental_uris": {"ios": "https://dc.lft.to/lastmile_qr_scan", "android": "https://dc.lft.to/lastmile_qr_scan"}}, {"is_disabled": 0, "fusion_lat": 0.0, "lat": 38.93363733333333, "type": "electric_scooter", "lon": -77.03444866666666, "is_reserved": 0, "fusion_lon": 0.0, "bike_id": "0e6ecb2951c51ed068d26fa97737d3fd", "name": "0e6ecb2951c51ed068d26fa97737d3fd", "rental_uris": {"ios": "https://dc.lft.to/lastmile_qr_scan", "android": "https://dc.lft.to/lastmile_qr_scan"}}, {"is_disabled": 0, "fusion_lat": 0.0, "lat": 38.916933, "type": "electric_scooter", "lon": -77.012298, "is_reserved": 0, "fusion_lon": 0.0, "bike_id": "7c68a1feadaac400c0464fee56c1e744", "name": "7c68a1feadaac400c0464fee56c1e744", "rental_uris": {"ios": "https://dc.lft.to/lastmile_qr_scan", "android": "https://dc.lft.to/lastmile_qr_scan"}}, {"is_disabled": 0, "fusion_lat": 0.0, "lat": 38.91331316666667, "type": "electric_scooter", "lon": -77.04819416666666, "is_reserved": 0, "fusion_lon": 0.0, "bike_id": "e14fd6915e1c20061aaefdb098b7ebec", "name": "e14fd6915e1c20061aaefdb098b7ebec", "rental_uris": {"ios": "https://dc.lft.to/lastmile_qr_scan", "android": "https://dc.lft.to/lastmile_qr_scan"}}, {"is_disabled": 0, "fusion_lat": 0.0, "lat": 38.91256583333333, "type": "electric_scooter", "lon": -77.03498216666667, "is_reserved": 0, "fusion_lon": 0.0, "bike_id": "53a339dd71659aeeb49ebb7583b70955", "name": "53a339dd71659aeeb49ebb7583b70955", "rental_uris": {"ios": "https://dc.lft.to/lastmile_qr_scan", "android": "https://dc.lft.to/lastmile_qr_scan"}}, {"is_disabled": 0, "fusion_lat": 0.0, "lat": 38.885856833333335, "type": "electric_scooter", "lon": -77.00065816666667, "is_reserved": 0, "fusion_lon": 0.0, "bike_id": "60c9e5097c30f7cde85741f48105d29a", "name": "60c9e5097c30f7cde85741f48105d29a", "rental_uris": {"ios": "https://dc.lft.to/lastmile_qr_scan", "android": "https://dc.lft.to/lastmile_qr_scan"}}, {"is_disabled": 0, "fusion_lat": 0.0, "lat": 38.91668033333333, "type": "electric_scooter", "lon": -77.01574883333333, "is_reserved": 0, "fusion_lon": 0.0, "bike_id": "7511a950c7d7920d3e6e1c74675e1c24", "name": "7511a950c7d7920d3e6e1c74675e1c24", "rental_uris": {"ios": "https://dc.lft.to/lastmile_qr_scan", "android": "https://dc.lft.to/lastmile_qr_scan"}}, {"is_disabled": 0, "fusion_lat": 0.0, "lat": 38.902703, "type": "electric_scooter", "lon": -77.0531645, "is_reserved": 0, "fusion_lon": 0.0, "bike_id": "09b6efc637b17bde11c26894f61338dc", "name": "09b6efc637b17bde11c26894f61338dc", "rental_uris": {"ios": "https://dc.lft.to/lastmile_qr_scan", "android": "https://dc.lft.to/lastmile_qr_scan"}}, {"is_disabled": 0, "fusion_lat": 0.0, "lat": 38.92017666666667, "type": "electric_scooter", "lon": -77.00210766666666, "is_reserved": 0, "fusion_lon": 0.0, "bike_id": "221024af7c862e0fbb9be6dbb07f1247", "name": "221024af7c862e0fbb9be6dbb07f1247", "rental_uris": {"ios": "https://dc.lft.to/lastmile_qr_scan", "android": "https://dc.lft.to/lastmile_qr_scan"}}, {"is_disabled": 0, "fusion_lat": 0.0, "lat": 38.90967116666667, "type": "electric_scooter", "lon": -77.03908583333333, "is_reserved": 0, "fusion_lon": 0.0, "bike_id": "ede219a6579505a14a638034262bf8f0", "name": "ede219a6579505a14a638034262bf8f0", "rental_uris": {"ios": "https://dc.lft.to/lastmile_qr_scan", "android": "https://dc.lft.to/lastmile_qr_scan"}}, {"is_disabled": 0, "fusion_lat": 0.0, "lat": 38.896791666666665, "type": "electric_scooter", "lon": -76.93530833333334, "is_reserved": 0, "fusion_lon": 0.0, "bike_id": "b29b63f118ec3d110f328be0308c1284", "name": "b29b63f118ec3d110f328be0308c1284", "rental_uris": {"ios": "https://dc.lft.to/lastmile_qr_scan", "android": "https://dc.lft.to/lastmile_qr_scan"}}, {"is_disabled": 0, "fusion_lat": 0.0, "lat": 38.901853333333335, "type": "electric_scooter", "lon": -76.9346755, "is_reserved": 0, "fusion_lon": 0.0, "bike_id": "aefd4261ce10287f96b6ae2e28264013", "name": "aefd4261ce10287f96b6ae2e28264013", "rental_uris": {"ios": "https://dc.lft.to/lastmile_qr_scan", "android": "https://dc.lft.to/lastmile_qr_scan"}}, {"is_disabled": 0, "fusion_lat": 0.0, "lat": 38.90342066666667, "type": "electric_scooter", "lon": -76.97244016666667, "is_reserved": 0, "fusion_lon": 0.0, "bike_id": "1065c0368b7b12f75fe2cd39432000e7", "name": "1065c0368b7b12f75fe2cd39432000e7", "rental_uris": {"ios": "https://dc.lft.to/lastmile_qr_scan", "android": "https://dc.lft.to/lastmile_qr_scan"}}, {"is_disabled": 0, "fusion_lat": 0.0, "lat": 38.901557, "type": "electric_scooter", "lon": -77.02120033333334, "is_reserved": 0, "fusion_lon": 0.0, "bike_id": "50f6c222d2ed2bd7be7964119e00c784", "name": "50f6c222d2ed2bd7be7964119e00c784", "rental_uris": {"ios": "https://dc.lft.to/lastmile_qr_scan", "android": "https://dc.lft.to/lastmile_qr_scan"}}, {"is_disabled": 0, "fusion_lat": 0.0, "lat": 38.919972, "type": "electric_scooter", "lon": -77.02364183333333, "is_reserved": 0, "fusion_lon": 0.0, "bike_id": "7d0849d3fd2eb5c75dbfe0ffb9e878b8", "name": "7d0849d3fd2eb5c75dbfe0ffb9e878b8", "rental_uris": {"ios": "https://dc.lft.to/lastmile_qr_scan", "android": "https://dc.lft.to/lastmile_qr_scan"}}, {"is_disabled": 0, "fusion_lat": 0.0, "lat": 38.86616566666667, "type": "electric_scooter", "lon": -76.9866745, "is_reserved": 0, "fusion_lon": 0.0, "bike_id": "911141cf230dd07b10e23bd149e1d3e9", "name": "911141cf230dd07b10e23bd149e1d3e9", "rental_uris": {"ios": "https://dc.lft.to/lastmile_qr_scan", "android": "https://dc.lft.to/lastmile_qr_scan"}}, {"is_disabled": 0, "fusion_lat": 0.0, "lat": 38.904464833333336, "type": "electric_scooter", "lon": -77.0592235, "is_reserved": 0, "fusion_lon": 0.0, "bike_id": "a43056ac37d341a3d2915aa30afb27f9", "name": "a43056ac37d341a3d2915aa30afb27f9", "rental_uris": {"ios": "https://dc.lft.to/lastmile_qr_scan", "android": "https://dc.lft.to/lastmile_qr_scan"}}, {"is_disabled": 0, "fusion_lat": 0.0, "lat": 38.9041745, "type": "electric_scooter", "lon": -77.04876, "is_reserved": 0, "fusion_lon": 0.0, "bike_id": "9068591c70e0d281e0328092144d1fae", "name": "9068591c70e0d281e0328092144d1fae", "rental_uris": {"ios": "https://dc.lft.to/lastmile_qr_scan", "android": "https://dc.lft.to/lastmile_qr_scan"}}, {"is_disabled": 0, "fusion_lat": 0.0, "lat": 38.923584166666664, "type": "electric_scooter", "lon": -77.0508955, "is_reserved": 0, "fusion_lon": 0.0, "bike_id": "a41632dae18def63c8ecfd0c7f8be2f7", "name": "a41632dae18def63c8ecfd0c7f8be2f7", "rental_uris": {"ios": "https://dc.lft.to/lastmile_qr_scan", "android": "https://dc.lft.to/lastmile_qr_scan"}}, {"is_disabled": 0, "fusion_lat": 0.0, "lat": 38.881318666666665, "type": "electric_bike", "lon": -77.0168845, "is_reserved": 0, "fusion_lon": 0.0, "bike_id": "30ef85343f431c77e47d258a6fe6228b", "name": "30ef85343f431c77e47d258a6fe6228b", "rental_uris": {"ios": "https://dc.lft.to/lastmile_qr_scan", "android": "https://dc.lft.to/lastmile_qr_scan"}}, {"is_disabled": 0, "fusion_lat": 0.0, "lat": 38.953936166666665, "type": "electric_bike", "lon": -77.02759316666666, "is_reserved": 0, "fusion_lon": 0.0, "bike_id": "133c5f7bee42dd8b46f3b8ed1ef6a2d9", "name": "133c5f7bee42dd8b46f3b8ed1ef6a2d9", "rental_uris": {"ios": "https://dc.lft.to/lastmile_qr_scan", "android": "https://dc.lft.to/lastmile_qr_scan"}}, {"is_disabled": 0, "fusion_lat": 0.0, "lat": 38.91330516666667, "type": "electric_scooter", "lon": -77.04845616666667, "is_reserved": 0, "fusion_lon": 0.0, "bike_id": "8de61b99945028f2951281a8e4062124", "name": "8de61b99945028f2951281a8e4062124", "rental_uris": {"ios": "https://dc.lft.to/lastmile_qr_scan", "android": "https://dc.lft.to/lastmile_qr_scan"}}, {"is_disabled": 0, "fusion_lat": 0.0, "lat": 38.926509833333334, "type": "electric_scooter", "lon": -77.03715883333334, "is_reserved": 0, "fusion_lon": 0.0, "bike_id": "9df7bc0f102862d9bf3ac8c920072586", "name": "9df7bc0f102862d9bf3ac8c920072586", "rental_uris": {"ios": "https://dc.lft.to/lastmile_qr_scan", "android": "https://dc.lft.to/lastmile_qr_scan"}}, {"is_disabled": 0, "fusion_lat": 0.0, "lat": 38.90600283333333, "type": "electric_scooter", "lon": -77.05896383333334, "is_reserved": 0, "fusion_lon": 0.0, "bike_id": "fac6c3f0b226d73343a416fb66d1596a", "name": "fac6c3f0b226d73343a416fb66d1596a", "rental_uris": {"ios": "https://dc.lft.to/lastmile_qr_scan", "android": "https://dc.lft.to/lastmile_qr_scan"}}, {"is_disabled": 0, "fusion_lat": 0.0, "lat": 38.924390833333334, "type": "electric_bike", "lon": -76.9966165, "is_reserved": 0, "fusion_lon": 0.0, "bike_id": "3fbdf512f1200d6dfe71efd1b0c7e566", "name": "3fbdf512f1200d6dfe71efd1b0c7e566", "rental_uris": {"ios": "https://dc.lft.to/lastmile_qr_scan", "android": "https://dc.lft.to/lastmile_qr_scan"}}, {"is_disabled": 0, "fusion_lat": 0.0, "lat": 38.90094883333333, "type": "electric_scooter", "lon": -77.04360416666667, "is_reserved": 0, "fusion_lon": 0.0, "bike_id": "9ff3fdeec890f683912ed76e91e5d69f", "name": "9ff3fdeec890f683912ed76e91e5d69f", "rental_uris": {"ios": "https://dc.lft.to/lastmile_qr_scan", "android": "https://dc.lft.to/lastmile_qr_scan"}}, {"is_disabled": 0, "fusion_lat": 0.0, "lat": 38.905138, "type": "electric_scooter", "lon": -77.06860466666667, "is_reserved": 0, "fusion_lon": 0.0, "bike_id": "33b5e1dd86b3d7a30f395c033446f626", "name": "33b5e1dd86b3d7a30f395c033446f626", "rental_uris": {"ios": "https://dc.lft.to/lastmile_qr_scan", "android": "https://dc.lft.to/lastmile_qr_scan"}}, {"is_disabled": 0, "fusion_lat": 0.0, "lat": 38.89843416666667, "type": "electric_scooter", "lon": -77.03333566666667, "is_reserved": 0, "fusion_lon": 0.0, "bike_id": "95da2c26f1016e8b5a05c3915d63fa8e", "name": "95da2c26f1016e8b5a05c3915d63fa8e", "rental_uris": {"ios": "https://dc.lft.to/lastmile_qr_scan", "android": "https://dc.lft.to/lastmile_qr_scan"}}, {"is_disabled": 0, "fusion_lat": 0.0, "lat": 38.91241266666667, "type": "electric_scooter", "lon": -77.0162335, "is_reserved": 0, "fusion_lon": 0.0, "bike_id": "8d2a37410a6a276c6b1c29af22c70120", "name": "8d2a37410a6a276c6b1c29af22c70120", "rental_uris": {"ios": "https://dc.lft.to/lastmile_qr_scan", "android": "https://dc.lft.to/lastmile_qr_scan"}}, {"is_disabled": 0, "fusion_lat": 0.0, "lat": 38.93320333333333, "type": "electric_scooter", "lon": -77.0292985, "is_reserved": 0, "fusion_lon": 0.0, "bike_id": "d010646bb745d336edd7891ffbcf6695", "name": "d010646bb745d336edd7891ffbcf6695", "rental_uris": {"ios": "https://dc.lft.to/lastmile_qr_scan", "android": "https://dc.lft.to/lastmile_qr_scan"}}, {"is_disabled": 0, "fusion_lat": 0.0, "lat": 38.927556333333335, "type": "electric_scooter", "lon": -77.005912, "is_reserved": 0, "fusion_lon": 0.0, "bike_id": "7aa2aa1c5d7b0fd5ac94ca84e9161e8f", "name": "7aa2aa1c5d7b0fd5ac94ca84e9161e8f", "rental_uris": {"ios": "https://dc.lft.to/lastmile_qr_scan", "android": "https://dc.lft.to/lastmile_qr_scan"}}, {"is_disabled": 0, "fusion_lat": 0.0, "lat": 38.90714916666667, "type": "electric_scooter", "lon": -77.02326983333333, "is_reserved": 0, "fusion_lon": 0.0, "bike_id": "52eca79d4c0b7b44f1f72c574dc9f348", "name": "52eca79d4c0b7b44f1f72c574dc9f348", "rental_uris": {"ios": "https://dc.lft.to/lastmile_qr_scan", "android": "https://dc.lft.to/lastmile_qr_scan"}}, {"is_disabled": 0, "fusion_lat": 0.0, "lat": 38.924823833333335, "type": "electric_scooter", "lon": -77.02721183333334, "is_reserved": 0, "fusion_lon": 0.0, "bike_id": "19918583b5be82071e7a24c3c56db8d3", "name": "19918583b5be82071e7a24c3c56db8d3", "rental_uris": {"ios": "https://dc.lft.to/lastmile_qr_scan", "android": "https://dc.lft.to/lastmile_qr_scan"}}, {"is_disabled": 0, "fusion_lat": 0.0, "lat": 38.905990833333334, "type": "electric_scooter", "lon": -77.03976483333334, "is_reserved": 0, "fusion_lon": 0.0, "bike_id": "db77ea38404e73dcfd8a7c7e7e3437d8", "name": "db77ea38404e73dcfd8a7c7e7e3437d8", "rental_uris": {"ios": "https://dc.lft.to/lastmile_qr_scan", "android": "https://dc.lft.to/lastmile_qr_scan"}}, {"is_disabled": 0, "fusion_lat": 0.0, "lat": 38.919783833333334, "type": "electric_scooter", "lon": -77.0417, "is_reserved": 0, "fusion_lon": 0.0, "bike_id": "a625cc7548faced836af3adca0b45b0c", "name": "a625cc7548faced836af3adca0b45b0c", "rental_uris": {"ios": "https://dc.lft.to/lastmile_qr_scan", "android": "https://dc.lft.to/lastmile_qr_scan"}}, {"is_disabled": 0, "fusion_lat": 0.0, "lat": 38.897539, "type": "electric_scooter", "lon": -77.03125333333334, "is_reserved": 0, "fusion_lon": 0.0, "bike_id": "3345309ef64b71bcf7f868b95a94ccc6", "name": "3345309ef64b71bcf7f868b95a94ccc6", "rental_uris": {"ios": "https://dc.lft.to/lastmile_qr_scan", "android": "https://dc.lft.to/lastmile_qr_scan"}}, {"is_disabled": 0, "fusion_lat": 0.0, "lat": 38.92477233333334, "type": "electric_scooter", "lon": -77.02550083333334, "is_reserved": 0, "fusion_lon": 0.0, "bike_id": "47651831fc8526044688a8fc5b5b19dd", "name": "47651831fc8526044688a8fc5b5b19dd", "rental_uris": {"ios": "https://dc.lft.to/lastmile_qr_scan", "android": "https://dc.lft.to/lastmile_qr_scan"}}, {"is_disabled": 0, "fusion_lat": 0.0, "lat": 38.87836033333333, "type": "electric_scooter", "lon": -77.02270416666667, "is_reserved": 0, "fusion_lon": 0.0, "bike_id": "7ebfccd688dfeacc8a3e61cfbcba13da", "name": "7ebfccd688dfeacc8a3e61cfbcba13da", "rental_uris": {"ios": "https://dc.lft.to/lastmile_qr_scan", "android": "https://dc.lft.to/lastmile_qr_scan"}}, {"is_disabled": 0, "fusion_lat": 0.0, "lat": 38.915482, "type": "electric_scooter", "lon": -77.041746, "is_reserved": 0, "fusion_lon": 0.0, "bike_id": "64a11b8c10b85218dc5cb12776a81afa", "name": "64a11b8c10b85218dc5cb12776a81afa", "rental_uris": {"ios": "https://dc.lft.to/lastmile_qr_scan", "android": "https://dc.lft.to/lastmile_qr_scan"}}, {"is_disabled": 0, "fusion_lat": 0.0, "lat": 38.9274435, "type": "electric_scooter", "lon": -77.025462, "is_reserved": 0, "fusion_lon": 0.0, "bike_id": "1a4b2cdfe13fb8cb829848464c1a362c", "name": "1a4b2cdfe13fb8cb829848464c1a362c", "rental_uris": {"ios": "https://dc.lft.to/lastmile_qr_scan", "android": "https://dc.lft.to/lastmile_qr_scan"}}, {"is_disabled": 0, "fusion_lat": 0.0, "lat": 38.8988335, "type": "electric_scooter", "lon": -76.93174983333333, "is_reserved": 0, "fusion_lon": 0.0, "bike_id": "b852832778492650be7aa7151664e2ab", "name": "b852832778492650be7aa7151664e2ab", "rental_uris": {"ios": "https://dc.lft.to/lastmile_qr_scan", "android": "https://dc.lft.to/lastmile_qr_scan"}}, {"is_disabled": 0, "fusion_lat": 0.0, "lat": 38.927149666666665, "type": "electric_scooter", "lon": -77.04202566666666, "is_reserved": 0, "fusion_lon": 0.0, "bike_id": "dece89dd4268c528fb56da72769510f4", "name": "dece89dd4268c528fb56da72769510f4", "rental_uris": {"ios": "https://dc.lft.to/lastmile_qr_scan", "android": "https://dc.lft.to/lastmile_qr_scan"}}, {"is_disabled": 0, "fusion_lat": 0.0, "lat": 38.954889666666666, "type": "electric_scooter", "lon": -77.065622, "is_reserved": 0, "fusion_lon": 0.0, "bike_id": "c47c48970d0df42fbe0ec3944965fd53", "name": "c47c48970d0df42fbe0ec3944965fd53", "rental_uris": {"ios": "https://dc.lft.to/lastmile_qr_scan", "android": "https://dc.lft.to/lastmile_qr_scan"}}, {"is_disabled": 0, "fusion_lat": 0.0, "lat": 38.922289166666665, "type": "electric_scooter", "lon": -77.04396066666666, "is_reserved": 0, "fusion_lon": 0.0, "bike_id": "ad36d6a27fa6884ffb4bf80660e6625c", "name": "ad36d6a27fa6884ffb4bf80660e6625c", "rental_uris": {"ios": "https://dc.lft.to/lastmile_qr_scan", "android": "https://dc.lft.to/lastmile_qr_scan"}}, {"is_disabled": 0, "fusion_lat": 0.0, "lat": 38.90254916666667, "type": "electric_scooter", "lon": -77.0173465, "is_reserved": 0, "fusion_lon": 0.0, "bike_id": "2476783af1e1d6cc493a11600ff02efb", "name": "2476783af1e1d6cc493a11600ff02efb", "rental_uris": {"ios": "https://dc.lft.to/lastmile_qr_scan", "android": "https://dc.lft.to/lastmile_qr_scan"}}, {"is_disabled": 0, "fusion_lat": 0.0, "lat": 38.8729225, "type": "electric_scooter", "lon": -77.01629516666667, "is_reserved": 0, "fusion_lon": 0.0, "bike_id": "0213fac1d3e7a3e4ac2f23c8a681ade3", "name": "0213fac1d3e7a3e4ac2f23c8a681ade3", "rental_uris": {"ios": "https://dc.lft.to/lastmile_qr_scan", "android": "https://dc.lft.to/lastmile_qr_scan"}}, {"is_disabled": 0, "fusion_lat": 0.0, "lat": 38.89607133333333, "type": "electric_bike", "lon": -76.97799433333333, "is_reserved": 0, "fusion_lon": 0.0, "bike_id": "36f5d5d36e4b17aa7ea7e22242cfd8d5", "name": "36f5d5d36e4b17aa7ea7e22242cfd8d5", "rental_uris": {"ios": "https://dc.lft.to/lastmile_qr_scan", "android": "https://dc.lft.to/lastmile_qr_scan"}}, {"is_disabled": 0, "fusion_lat": 0.0, "lat": 38.8665725, "type": "electric_scooter", "lon": -76.98882983333333, "is_reserved": 0, "fusion_lon": 0.0, "bike_id": "fe8f2f95e9ad09c07384d927c87fb961", "name": "fe8f2f95e9ad09c07384d927c87fb961", "rental_uris": {"ios": "https://dc.lft.to/lastmile_qr_scan", "android": "https://dc.lft.to/lastmile_qr_scan"}}, {"is_disabled": 0, "fusion_lat": 0.0, "lat": 38.933933, "type": "electric_scooter", "lon": -77.04125566666667, "is_reserved": 0, "fusion_lon": 0.0, "bike_id": "1c662690e45a2aadc4a5bbc0b1dbc403", "name": "1c662690e45a2aadc4a5bbc0b1dbc403", "rental_uris": {"ios": "https://dc.lft.to/lastmile_qr_scan", "android": "https://dc.lft.to/lastmile_qr_scan"}}, {"is_disabled": 0, "fusion_lat": 0.0, "lat": 38.865310666666666, "type": "electric_scooter", "lon": -76.98707716666667, "is_reserved": 0, "fusion_lon": 0.0, "bike_id": "fd89b204adff9115595f1afe2036e390", "name": "fd89b204adff9115595f1afe2036e390", "rental_uris": {"ios": "https://dc.lft.to/lastmile_qr_scan", "android": "https://dc.lft.to/lastmile_qr_scan"}}, {"is_disabled": 0, "fusion_lat": 0.0, "lat": 38.904925666666664, "type": "electric_scooter", "lon": -77.0628235, "is_reserved": 0, "fusion_lon": 0.0, "bike_id": "9005f7613c1d7aab2bc91e9c63cf7adb", "name": "9005f7613c1d7aab2bc91e9c63cf7adb", "rental_uris": {"ios": "https://dc.lft.to/lastmile_qr_scan", "android": "https://dc.lft.to/lastmile_qr_scan"}}, {"is_disabled": 0, "fusion_lat": 0.0, "lat": 38.924508333333335, "type": "electric_scooter", "lon": -77.03274466666667, "is_reserved": 0, "fusion_lon": 0.0, "bike_id": "15a3570c79c882153964554f7ae3c1a8", "name": "15a3570c79c882153964554f7ae3c1a8", "rental_uris": {"ios": "https://dc.lft.to/lastmile_qr_scan", "android": "https://dc.lft.to/lastmile_qr_scan"}}, {"is_disabled": 0, "fusion_lat": 0.0, "lat": 38.8962005, "type": "electric_scooter", "lon": -77.0280025, "is_reserved": 0, "fusion_lon": 0.0, "bike_id": "234a4fc5cf2d60b50662e77aac7a8f6c", "name": "234a4fc5cf2d60b50662e77aac7a8f6c", "rental_uris": {"ios": "https://dc.lft.to/lastmile_qr_scan", "android": "https://dc.lft.to/lastmile_qr_scan"}}, {"is_disabled": 0, "fusion_lat": 0.0, "lat": 38.86275883333333, "type": "electric_scooter", "lon": -76.99238533333333, "is_reserved": 0, "fusion_lon": 0.0, "bike_id": "1b2295eb914dce0ccc712afb63d0b0c4", "name": "1b2295eb914dce0ccc712afb63d0b0c4", "rental_uris": {"ios": "https://dc.lft.to/lastmile_qr_scan", "android": "https://dc.lft.to/lastmile_qr_scan"}}, {"is_disabled": 0, "fusion_lat": 0.0, "lat": 38.941682166666666, "type": "electric_scooter", "lon": -77.02339666666667, "is_reserved": 0, "fusion_lon": 0.0, "bike_id": "ad6d9487f22de3f04642d6779eb7588c", "name": "ad6d9487f22de3f04642d6779eb7588c", "rental_uris": {"ios": "https://dc.lft.to/lastmile_qr_scan", "android": "https://dc.lft.to/lastmile_qr_scan"}}, {"is_disabled": 0, "fusion_lat": 0.0, "lat": 38.92371633333333, "type": "electric_scooter", "lon": -77.02559383333333, "is_reserved": 0, "fusion_lon": 0.0, "bike_id": "cf543f48ad7a3783bba6c154eb269036", "name": "cf543f48ad7a3783bba6c154eb269036", "rental_uris": {"ios": "https://dc.lft.to/lastmile_qr_scan", "android": "https://dc.lft.to/lastmile_qr_scan"}}, {"is_disabled": 0, "fusion_lat": 0.0, "lat": 38.941624166666664, "type": "electric_scooter", "lon": -77.02535583333334, "is_reserved": 0, "fusion_lon": 0.0, "bike_id": "81c0a057652eca1f9d844f09460edc3e", "name": "81c0a057652eca1f9d844f09460edc3e", "rental_uris": {"ios": "https://dc.lft.to/lastmile_qr_scan", "android": "https://dc.lft.to/lastmile_qr_scan"}}, {"is_disabled": 0, "fusion_lat": 0.0, "lat": 38.929817, "type": "electric_scooter", "lon": -77.03657783333334, "is_reserved": 0, "fusion_lon": 0.0, "bike_id": "7389e9874b915bff4489ce199de3f379", "name": "7389e9874b915bff4489ce199de3f379", "rental_uris": {"ios": "https://dc.lft.to/lastmile_qr_scan", "android": "https://dc.lft.to/lastmile_qr_scan"}}, {"is_disabled": 0, "fusion_lat": 0.0, "lat": 38.909528, "type": "electric_scooter", "lon": -77.01438583333334, "is_reserved": 0, "fusion_lon": 0.0, "bike_id": "874a82e5e5ea72215b8ea0712284a147", "name": "874a82e5e5ea72215b8ea0712284a147", "rental_uris": {"ios": "https://dc.lft.to/lastmile_qr_scan", "android": "https://dc.lft.to/lastmile_qr_scan"}}, {"is_disabled": 0, "fusion_lat": 0.0, "lat": 38.92070833333333, "type": "electric_scooter", "lon": -77.02391233333333, "is_reserved": 0, "fusion_lon": 0.0, "bike_id": "f65b29896ae6fe33e436f08e1deb70c4", "name": "f65b29896ae6fe33e436f08e1deb70c4", "rental_uris": {"ios": "https://dc.lft.to/lastmile_qr_scan", "android": "https://dc.lft.to/lastmile_qr_scan"}}, {"is_disabled": 0, "fusion_lat": 0.0, "lat": 38.90196383333333, "type": "electric_scooter", "lon": -77.023681, "is_reserved": 0, "fusion_lon": 0.0, "bike_id": "cffa8413f53d042b89d0cb4951a029f8", "name": "cffa8413f53d042b89d0cb4951a029f8", "rental_uris": {"ios": "https://dc.lft.to/lastmile_qr_scan", "android": "https://dc.lft.to/lastmile_qr_scan"}}, {"is_disabled": 0, "fusion_lat": 0.0, "lat": 38.914169666666666, "type": "electric_scooter", "lon": -77.01963266666667, "is_reserved": 0, "fusion_lon": 0.0, "bike_id": "1030b049960ee8bd2861680e5e9f67c2", "name": "1030b049960ee8bd2861680e5e9f67c2", "rental_uris": {"ios": "https://dc.lft.to/lastmile_qr_scan", "android": "https://dc.lft.to/lastmile_qr_scan"}}, {"is_disabled": 0, "fusion_lat": 0.0, "lat": 38.85787216666667, "type": "electric_bike", "lon": -77.099624, "is_reserved": 0, "fusion_lon": 0.0, "bike_id": "de5fce5b874946de5cb4809895ad5ed7", "name": "de5fce5b874946de5cb4809895ad5ed7", "rental_uris": {"ios": "https://dc.lft.to/lastmile_qr_scan", "android": "https://dc.lft.to/lastmile_qr_scan"}}, {"is_disabled": 0, "fusion_lat": 0.0, "lat": 38.91904, "type": "electric_scooter", "lon": -77.04628516666666, "is_reserved": 0, "fusion_lon": 0.0, "bike_id": "f6250a57795b6f4986ed26fdc44e6481", "name": "f6250a57795b6f4986ed26fdc44e6481", "rental_uris": {"ios": "https://dc.lft.to/lastmile_qr_scan", "android": "https://dc.lft.to/lastmile_qr_scan"}}, {"is_disabled": 0, "fusion_lat": 0.0, "lat": 38.8765655, "type": "electric_scooter", "lon": -77.00421966666667, "is_reserved": 0, "fusion_lon": 0.0, "bike_id": "3ce52e3ae029d95d60708bb446330fec", "name": "3ce52e3ae029d95d60708bb446330fec", "rental_uris": {"ios": "https://dc.lft.to/lastmile_qr_scan", "android": "https://dc.lft.to/lastmile_qr_scan"}}, {"is_disabled": 0, "fusion_lat": 0.0, "lat": 38.91707616666667, "type": "electric_scooter", "lon": -77.00886566666667, "is_reserved": 0, "fusion_lon": 0.0, "bike_id": "64afc54154771d326bb4829656d96c57", "name": "64afc54154771d326bb4829656d96c57", "rental_uris": {"ios": "https://dc.lft.to/lastmile_qr_scan", "android": "https://dc.lft.to/lastmile_qr_scan"}}, {"is_disabled": 0, "fusion_lat": 0.0, "lat": 38.935855, "type": "electric_scooter", "lon": -77.03506166666666, "is_reserved": 0, "fusion_lon": 0.0, "bike_id": "246fced8ffa75d29c280813dc287cfe7", "name": "246fced8ffa75d29c280813dc287cfe7", "rental_uris": {"ios": "https://dc.lft.to/lastmile_qr_scan", "android": "https://dc.lft.to/lastmile_qr_scan"}}, {"is_disabled": 0, "fusion_lat": 0.0, "lat": 38.9390735, "type": "electric_scooter", "lon": -77.06041966666666, "is_reserved": 0, "fusion_lon": 0.0, "bike_id": "8ac1044aa82536868313afa6e3eb4eee", "name": "8ac1044aa82536868313afa6e3eb4eee", "rental_uris": {"ios": "https://dc.lft.to/lastmile_qr_scan", "android": "https://dc.lft.to/lastmile_qr_scan"}}, {"is_disabled": 0, "fusion_lat": 0.0, "lat": 38.863726166666666, "type": "electric_scooter", "lon": -76.9906395, "is_reserved": 0, "fusion_lon": 0.0, "bike_id": "856970ac7dbed240094192f97a01ced9", "name": "856970ac7dbed240094192f97a01ced9", "rental_uris": {"ios": "https://dc.lft.to/lastmile_qr_scan", "android": "https://dc.lft.to/lastmile_qr_scan"}}, {"is_disabled": 0, "fusion_lat": 0.0, "lat": 38.9527395, "type": "electric_bike", "lon": -77.06982366666666, "is_reserved": 0, "fusion_lon": 0.0, "bike_id": "9a6dc014cf3e8913ffb1206db3b36517", "name": "9a6dc014cf3e8913ffb1206db3b36517", "rental_uris": {"ios": "https://dc.lft.to/lastmile_qr_scan", "android": "https://dc.lft.to/lastmile_qr_scan"}}, {"is_disabled": 0, "fusion_lat": 0.0, "lat": 38.912153833333335, "type": "electric_scooter", "lon": -77.03847583333334, "is_reserved": 0, "fusion_lon": 0.0, "bike_id": "64fbf18f6931e74edaf87ff3af6f4f3d", "name": "64fbf18f6931e74edaf87ff3af6f4f3d", "rental_uris": {"ios": "https://dc.lft.to/lastmile_qr_scan", "android": "https://dc.lft.to/lastmile_qr_scan"}}, {"is_disabled": 0, "fusion_lat": 0.0, "lat": 38.905893166666665, "type": "electric_scooter", "lon": -77.00603166666667, "is_reserved": 0, "fusion_lon": 0.0, "bike_id": "45207bbc02b7c8c244857987606d9262", "name": "45207bbc02b7c8c244857987606d9262", "rental_uris": {"ios": "https://dc.lft.to/lastmile_qr_scan", "android": "https://dc.lft.to/lastmile_qr_scan"}}, {"is_disabled": 0, "fusion_lat": 0.0, "lat": 38.865163333333335, "type": "electric_scooter", "lon": -76.99032683333333, "is_reserved": 0, "fusion_lon": 0.0, "bike_id": "0cbdba766d5b3d1bcaaf15d2af9b55f7", "name": "0cbdba766d5b3d1bcaaf15d2af9b55f7", "rental_uris": {"ios": "https://dc.lft.to/lastmile_qr_scan", "android": "https://dc.lft.to/lastmile_qr_scan"}},