{"data": {"bikes": [{"name": "0b0167a426361bafba5799becbbbf8e6", "lon": -77.04458966666667, "lat": 38.9118235, "type": "electric_scooter", "fusion_lon": 0.0, "is_reserved": 0, "bike_id": "0b0167a426361bafba5799becbbbf8e6", "fusion_lat": 0.0, "is_disabled": 0, "rental_uris": {"ios": "https://dc.lft.to/lastmile_qr_scan", "android": "https://dc.lft.to/lastmile_qr_scan"}}, {"name": "fe72bc61389c698b5c114aeb5fd1f91d", "lon": -76.93614766666667, "lat": 38.886705, "type": "electric_scooter", "fusion_lon": 0.0, "is_reserved": 0, "bike_id": "fe72bc61389c698b5c114aeb5fd1f91d", "fusion_lat": 0.0, "is_disabled": 0, "rental_uris": {"ios": "https://dc.lft.to/lastmile_qr_scan", "android": "https://dc.lft.to/lastmile_qr_scan"}}, {"name": "2c651341d9624757636e028a6961c607", "lon": -77.02091966666667, "lat": 38.927211, "type": "electric_scooter", "fusion_lon": 0.0, "is_reserved": 0, "bike_id": "2c651341d9624757636e028a6961c607", "fusion_lat": 0.0, "is_disabled": 0, "rental_uris": {"ios": "https://dc.lft.to/lastmile_qr_scan", "android": "https://dc.lft.to/lastmile_qr_scan"}}, {"name": "b93a7a8c2713687030b1e40a708c4f9f", "lon": -77.03667683333333, "lat": 38.92726116666667, "type": "electric_scooter", "fusion_lon": 0.0, "is_reserved": 0, "bike_id": "b93a7a8c2713687030b1e40a708c4f9f", "fusion_lat": 0.0, "is_disabled": 0, "rental_uris": {"ios": "https://dc.lft.to/lastmile_qr_scan", "android": "https://dc.lft.to/lastmile_qr_scan"}}, {"name": "dd9c12fbd03535324b47f34ed39156af", "lon": -77.02421616666666, "lat": 38.938101, "type": "electric_scooter", "fusion_lon": 0.0, "is_reserved": 0, "bike_id": "dd9c12fbd03535324b47f34ed39156af", "fusion_lat": 0.0, "is_disabled": 0, "rental_uris": {"ios": "https://dc.lft.to/lastmile_qr_scan", "android": "https://dc.lft.to/lastmile_qr_scan"}}, {"name": "0f86946ff958998838d842569e399bce", "lon": -77.03813866666667, "lat": 38.925067, "type": "electric_scooter", "fusion_lon": 0.0, "is_reserved": 0, "bike_id": "0f86946ff958998838d842569e399bce", "fusion_lat": 0.0, "is_disabled": 0, "rental_uris": {"ios": "https://dc.lft.to/lastmile_qr_scan", "android": "https://dc.lft.to/lastmile_qr_scan"}}, {"name": "6cce819904fea06dd984ed21f1c8d192", "lon": -77.0312965, "lat": 38.91036883333334, "type": "electric_scooter", "fusion_lon": 0.0, "is_reserved": 0, "bike_id": "6cce819904fea06dd984ed21f1c8d192", "fusion_lat": 0.0, "is_disabled": 0, "rental_uris": {"ios": "https://dc.lft.to/lastmile_qr_scan", "android": "https://dc.lft.to/lastmile_qr_scan"}}, {"name": "b3a79aef187ae744e9e5c5ea62f4a976", "lon": -77.03102366666667, "lat": 38.91919933333333, "type": "electric_scooter", "fusion_lon": 0.0, "is_reserved": 0, "bike_id": "b3a79aef187ae744e9e5c5ea62f4a976", "fusion_lat": 0.0, "is_disabled": 0, "rental_uris": {"ios": "https://dc.lft.to/lastmile_qr_scan", "android": "https://dc.lft.to/lastmile_qr_scan"}}, {"name": "a8885478e9d8021f809b44c84d9217e2", "lon": -77.026567, "lat": 38.897119, "type": "electric_scooter", "fusion_lon": 0.0, "is_reserved": 0, "bike_id": "a8885478e9d8021f809b44c84d9217e2", "fusion_lat": 0.0, "is_disabled": 0, "rental_uris": {"ios": "https://dc.lft.to/lastmile_qr_scan", "android": "https://dc.lft.to/lastmile_qr_scan"}}, {"name": "e61490911b556c0f3e13a8259a40424a", "lon": -76.99774566666666, "lat": 38.909025666666665, "type": "electric_scooter", "fusion_lon": 0.0, "is_reserved": 0, "bike_id": "e61490911b556c0f3e13a8259a40424a", "fusion_lat": 0.0, "is_disabled": 0, "rental_uris": {"ios": "https://dc.lft.to/lastmile_qr_scan", "android": "https://dc.lft.to/lastmile_qr_scan"}}, {"name": "18b80f1b310248f7174392930656e36f", "lon": -77.02290716666667, "lat": 38.91076966666667, "type": "electric_scooter", "fusion_lon": 0.0, "is_reserved": 0, "bike_id": "18b80f1b310248f7174392930656e36f", "fusion_lat": 0.0, "is_disabled": 0, "rental_uris": {"ios": "https://dc.lft.to/lastmile_qr_scan", "android": "https://dc.lft.to/lastmile_qr_scan"}}, {"name": "15f56379c071c9eaef10eda2870aefd3", "lon": -77.04359983333333, "lat": 38.911223, "type": "electric_scooter", "fusion_lon": 0.0, "is_reserved": 0, "bike_id": "15f56379c071c9eaef10eda2870aefd3", "fusion_lat": 0.0, "is_disabled": 0, "rental_uris": {"ios": "https://dc.lft.to/lastmile_qr_scan", "android": "https://dc.lft.to/lastmile_qr_scan"}}, {"name": "58a228874522d6e1b78e75252ec60d80", "lon": -77.01851133333334, "lat": 38.91528483333333, "type": "electric_scooter", "fusion_lon": 0.0, "is_reserved": 0, "bike_id": "58a228874522d6e1b78e75252ec60d80", "fusion_lat": 0.0, "is_disabled": 0, "rental_uris": {"ios": "https://dc.lft.to/lastmile_qr_scan", "android": "https://dc.lft.to/lastmile_qr_scan"}}, {"name": "be51037505c7773b3c90b5e87f43cedc", "lon": -77.0328585, "lat": 38.93882116666666, "type": "electric_scooter", "fusion_lon": 0.0, "is_reserved": 0, "bike_id": "be51037505c7773b3c90b5e87f43cedc", "fusion_lat": 0.0, "is_disabled": 0, "rental_uris": {"ios": "https://dc.lft.to/lastmile_qr_scan", "android": "https://dc.lft.to/lastmile_qr_scan"}}, {"name": "d0f9e3aa02ee61644a44537511d6c1c5", "lon": -77.00888366666666, "lat": 38.90265016666667, "type": "electric_scooter", "fusion_lon": 0.0, "is_reserved": 0, "bike_id": "d0f9e3aa02ee61644a44537511d6c1c5", "fusion_lat": 0.0, "is_disabled": 0, "rental_uris": {"ios": "https://dc.lft.to/lastmile_qr_scan", "android": "https://dc.lft.to/lastmile_qr_scan"}}, {"name": "fadc540386691d078a4984eb46eb1e1b", "lon": -77.02721716666667, "lat": 38.949607, "type": "electric_scooter", "fusion_lon": 0.0, "is_reserved": 0, "bike_id": "fadc540386691d078a4984eb46eb1e1b", "fusion_lat": 0.0, "is_disabled": 0, "rental_uris": {"ios": "https://dc.lft.to/lastmile_qr_scan", "android": "https://dc.lft.to/lastmile_qr_scan"}}, {"name": "bcea62e29ee4fa53c2048e0f497d8717", "lon": -77.01948633333333, "lat": 38.92423183333333, "type": "electric_scooter", "fusion_lon": 0.0, "is_reserved": 0, "bike_id": "bcea62e29ee4fa53c2048e0f497d8717", "fusion_lat": 0.0, "is_disabled": 0, "rental_uris": {"ios": "https://dc.lft.to/lastmile_qr_scan", "android": "https://dc.lft.to/lastmile_qr_scan"}}, {"name": "21abc2a95adc3cba381ea2f033074ed1", "lon": -77.02600466666667, "lat": 38.8960635, "type": "electric_scooter", "fusion_lon": 0.0, "is_reserved": 0, "bike_id": "21abc2a95adc3cba381ea2f033074ed1", "fusion_lat": 0.0, "is_disabled": 0, "rental_uris": {"ios": "https://dc.lft.to/lastmile_qr_scan", "android": "https://dc.lft.to/lastmile_qr_scan"}}, {"name": "89fdb6976ee386293900220f7ec32c41", "lon": -77.00891666666666, "lat": 38.903496, "type": "electric_scooter", "fusion_lon": 0.0, "is_reserved": 0, "bike_id": "89fdb6976ee386293900220f7ec32c41", "fusion_lat": 0.0, "is_disabled": 0, "rental_uris": {"ios": "https://dc.lft.to/lastmile_qr_scan", "android": "https://dc.lft.to/lastmile_qr_scan"}}, {"name": "a3953880f33b354fa7b1266039962c20", "lon": -77.00828716666666, "lat": 38.82911333333333, "type": "electric_bike", "fusion_lon": 0.0, "is_reserved": 0, "bike_id": "a3953880f33b354fa7b1266039962c20", "fusion_lat": 0.0, "is_disabled": 0, "rental_uris": {"ios": "https://dc.lft.to/lastmile_qr_scan", "android": "https://dc.lft.to/lastmile_qr_scan"}}, {"name": "4ec9e0cddc1c12c9bfd4535c3cec86c7", "lon": -77.04480416666667, "lat": 38.911130666666665, "type": "electric_scooter", "fusion_lon": 0.0, "is_reserved": 0, "bike_id": "4ec9e0cddc1c12c9bfd4535c3cec86c7", "fusion_lat": 0.0, "is_disabled": 0, "rental_uris": {"ios": "https://dc.lft.to/lastmile_qr_scan", "android": "https://dc.lft.to/lastmile_qr_scan"}}, {"name": "aa1630191d616891623e68f068333fd8", "lon": -76.99604666666667, "lat": 38.8569655, "type": "electric_scooter", "fusion_lon": 0.0, "is_reserved": 0, "bike_id": "aa1630191d616891623e68f068333fd8", "fusion_lat": 0.0, "is_disabled": 0, "rental_uris": {"ios": "https://dc.lft.to/lastmile_qr_scan", "android": "https://dc.lft.to/lastmile_qr_scan"}}, {"name": "ccd3730118c320f67040ac9eb24e5733", "lon": -77.03441083333334, "lat": 38.90973, "type": "electric_scooter", "fusion_lon": 0.0, "is_reserved": 0, "bike_id": "ccd3730118c320f67040ac9eb24e5733", "fusion_lat": 0.0, "is_disabled": 0, "rental_uris": {"ios": "https://dc.lft.to/lastmile_qr_scan", "android": "https://dc.lft.to/lastmile_qr_scan"}}, {"name": "d1bfff19dd3e7bd8fdc982692277cfff", "lon": -77.07192666666667, "lat": 38.959549333333335, "type": "electric_scooter", "fusion_lon": 0.0, "is_reserved": 0, "bike_id": "d1bfff19dd3e7bd8fdc982692277cfff", "fusion_lat": 0.0, "is_disabled": 0, "rental_uris": {"ios": "https://dc.lft.to/lastmile_qr_scan", "android": "https://dc.lft.to/lastmile_qr_scan"}}, {"name": "e75e9a62cc52da8412a3610ff2b20afd", "lon": -77.0037095, "lat": 38.8991015, "type": "electric_scooter", "fusion_lon": 0.0, "is_reserved": 0, "bike_id": "e75e9a62cc52da8412a3610ff2b20afd", "fusion_lat": 0.0, "is_disabled": 0, "rental_uris": {"ios": "https://dc.lft.to/lastmile_qr_scan", "android": "https://dc.lft.to/lastmile_qr_scan"}}, {"name": "13ba2e562887594cf5c227fc37d533e6", "lon": -77.012746, "lat": 38.88877983333333, "type": "electric_scooter", "fusion_lon": 0.0, "is_reserved": 0, "bike_id": "13ba2e562887594cf5c227fc37d533e6", "fusion_lat": 0.0, "is_disabled": 0, "rental_uris": {"ios": "https://dc.lft.to/lastmile_qr_scan", "android": "https://dc.lft.to/lastmile_qr_scan"}}, {"name": "5963701a84ce22187c384867669e3245", "lon": -77.02165483333333, "lat": 38.919149166666664, "type": "electric_scooter", "fusion_lon": 0.0, "is_reserved": 0, "bike_id": "5963701a84ce22187c384867669e3245", "fusion_lat": 0.0, "is_disabled": 0, "rental_uris": {"ios": "https://dc.lft.to/lastmile_qr_scan", "android": "https://dc.lft.to/lastmile_qr_scan"}}, {"name": "80ce42a969004e0c66f22b36aac8ba7b", "lon": -77.04142383333334, "lat": 38.922720166666664, "type": "electric_scooter", "fusion_lon": 0.0, "is_reserved": 0, "bike_id": "80ce42a969004e0c66f22b36aac8ba7b", "fusion_lat": 0.0, "is_disabled": 0, "rental_uris": {"ios": "https://dc.lft.to/lastmile_qr_scan", "android": "https://dc.lft.to/lastmile_qr_scan"}}, {"name": "7b21b4ca6303897b4f6db0bc948858bb", "lon": -77.00630866666667, "lat": 38.83269416666667, "type": "electric_scooter", "fusion_lon": 0.0, "is_reserved": 0, "bike_id": "7b21b4ca6303897b4f6db0bc948858bb", "fusion_lat": 0.0, "is_disabled": 0, "rental_uris": {"ios": "https://dc.lft.to/lastmile_qr_scan", "android": "https://dc.lft.to/lastmile_qr_scan"}}, {"name": "b753ce904a66a2f54211118675f87bb1", "lon": -77.04345633333334, "lat": 38.90218133333333, "type": "electric_scooter", "fusion_lon": 0.0, "is_reserved": 0, "bike_id": "b753ce904a66a2f54211118675f87bb1", "fusion_lat": 0.0, "is_disabled": 0, "rental_uris": {"ios": "https://dc.lft.to/lastmile_qr_scan", "android": "https://dc.lft.to/lastmile_qr_scan"}}, {"name": "7c47a5c72e1e5b97bcaf7243458965e9", "lon": -76.98398083333333, "lat": 38.86697783333334, "type": "electric_scooter", "fusion_lon": 0.0, "is_reserved": 0, "bike_id": "7c47a5c72e1e5b97bcaf7243458965e9", "fusion_lat": 0.0, "is_disabled": 0, "rental_uris": {"ios": "https://dc.lft.to/lastmile_qr_scan", "android": "https://dc.lft.to/lastmile_qr_scan"}}, {"name": "b12b58fef18bc3951e8eaf5e4a3d17e0", "lon": -77.07418733333333, "lat": 38.91303966666667, "type": "electric_scooter", "fusion_lon": 0.0, "is_reserved": 0, "bike_id": "b12b58fef18bc3951e8eaf5e4a3d17e0", "fusion_lat": 0.0, "is_disabled": 0, "rental_uris": {"ios": "https://dc.lft.to/lastmile_qr_scan", "android": "https://dc.lft.to/lastmile_qr_scan"}}, {"name": "09bfc5f916013cc0e514fe9906e94621", "lon": -77.04673833333334, "lat": 38.90032816666667, "type": "electric_scooter", "fusion_lon": 0.0, "is_reserved": 0, "bike_id": "09bfc5f916013cc0e514fe9906e94621", "fusion_lat": 0.0, "is_disabled": 0, "rental_uris": {"ios": "https://dc.lft.to/lastmile_qr_scan", "android": "https://dc.lft.to/lastmile_qr_scan"}}, {"name": "82285e81175f059622a564db646aefe2", "lon": -77.02501666666667, "lat": 38.93048566666667, "type": "electric_scooter", "fusion_lon": 0.0, "is_reserved": 0, "bike_id": "82285e81175f059622a564db646aefe2", "fusion_lat": 0.0, "is_disabled": 0, "rental_uris": {"ios": "https://dc.lft.to/lastmile_qr_scan", "android": "https://dc.lft.to/lastmile_qr_scan"}}, {"name": "5ffeb7635b71d7a3425aabe3109919ac", "lon": -77.04679633333333, "lat": 38.895136666666666, "type": "electric_scooter", "fusion_lon": 0.0, "is_reserved": 0, "bike_id": "5ffeb7635b71d7a3425aabe3109919ac", "fusion_lat": 0.0, "is_disabled": 0, "rental_uris": {"ios": "https://dc.lft.to/lastmile_qr_scan", "android": "https://dc.lft.to/lastmile_qr_scan"}}, {"name": "9468b74e9a921194ac134c6083344844", "lon": -77.0403045, "lat": 38.90460066666667, "type": "electric_scooter", "fusion_lon": 0.0, "is_reserved": 0, "bike_id": "9468b74e9a921194ac134c6083344844", "fusion_lat": 0.0, "is_disabled": 0, "rental_uris": {"ios": "https://dc.lft.to/lastmile_qr_scan", "android": "https://dc.lft.to/lastmile_qr_scan"}}, {"name": "651654403f76a16dc29207e34473839b", "lon": -77.02612833333333, "lat": 38.8967085, "type": "electric_scooter", "fusion_lon": 0.0, "is_reserved": 0, "bike_id": "651654403f76a16dc29207e34473839b", "fusion_lat": 0.0, "is_disabled": 0, "rental_uris": {"ios": "https://dc.lft.to/lastmile_qr_scan", "android": "https://dc.lft.to/lastmile_qr_scan"}}, {"name": "31931cdebdedc37afbc995baaf47819a", "lon": -77.07445016666667, "lat": 38.91269166666667, "type": "electric_bike", "fusion_lon": 0.0, "is_reserved": 0, "bike_id": "31931cdebdedc37afbc995baaf47819a", "fusion_lat": 0.0, "is_disabled": 0, "rental_uris": {"ios": "https://dc.lft.to/lastmile_qr_scan", "android": "https://dc.lft.to/lastmile_qr_scan"}}, {"name": "dbf412ae32674690e8e5e0f24f699f77", "lon": -76.93615933333334, "lat": 38.88673383333333, "type": "electric_scooter", "fusion_lon": 0.0, "is_reserved": 0, "bike_id": "dbf412ae32674690e8e5e0f24f699f77", "fusion_lat": 0.0, "is_disabled": 0, "rental_uris": {"ios": "https://dc.lft.to/lastmile_qr_scan", "android": "https://dc.lft.to/lastmile_qr_scan"}}, {"name": "6bb75dcedf67812ff1630ba0a88b683d", "lon": -76.94633633333333, "lat": 38.89846466666667, "type": "electric_scooter", "fusion_lon": 0.0, "is_reserved": 0, "bike_id": "6bb75dcedf67812ff1630ba0a88b683d", "fusion_lat": 0.0, "is_disabled": 0, "rental_uris": {"ios": "https://dc.lft.to/lastmile_qr_scan", "android": "https://dc.lft.to/lastmile_qr_scan"}}, {"name": "11911a9a79ea885257ee9d9d4ebd78a9", "lon": -77.04198833333334, "lat": 38.907441166666665, "type": "electric_scooter", "fusion_lon": 0.0, "is_reserved": 0, "bike_id": "11911a9a79ea885257ee9d9d4ebd78a9", "fusion_lat": 0.0, "is_disabled": 0, "rental_uris": {"ios": "https://dc.lft.to/lastmile_qr_scan", "android": "https://dc.lft.to/lastmile_qr_scan"}}, {"name": "dbc406fb09ab9af51ab23250275c0053", "lon": -77.04554216666666, "lat": 38.924209833333336, "type": "electric_scooter", "fusion_lon": 0.0, "is_reserved": 0, "bike_id": "dbc406fb09ab9af51ab23250275c0053", "fusion_lat": 0.0, "is_disabled": 0, "rental_uris": {"ios": "https://dc.lft.to/lastmile_qr_scan", "android": "https://dc.lft.to/lastmile_qr_scan"}}, {"name": "4382cb5d1d3c7f8fbb2975c83e991d96", "lon": -77.02297066666667, "lat": 38.918472666666666, "type": "electric_scooter", "fusion_lon": 0.0, "is_reserved": 0, "bike_id": "4382cb5d1d3c7f8fbb2975c83e991d96", "fusion_lat": 0.0, "is_disabled": 0, "rental_uris": {"ios": "https://dc.lft.to/lastmile_qr_scan", "android": "https://dc.lft.to/lastmile_qr_scan"}}, {"name": "66f901a6828b3a85ec14c94a2a48c5e3", "lon": -76.98630283333334, "lat": 38.880490333333334, "type": "electric_bike", "fusion_lon": 0.0, "is_reserved": 0, "bike_id": "66f901a6828b3a85ec14c94a2a48c5e3", "fusion_lat": 0.0, "is_disabled": 0, "rental_uris": {"ios": "https://dc.lft.to/lastmile_qr_scan", "android": "https://dc.lft.to/lastmile_qr_scan"}}, {"name": "801dbbe614fbae4498ba8f4ea5c039e7", "lon": -77.03441383333333, "lat": 38.909758, "type": "electric_scooter", "fusion_lon": 0.0, "is_reserved": 0, "bike_id": "801dbbe614fbae4498ba8f4ea5c039e7", "fusion_lat": 0.0, "is_disabled": 0, "rental_uris": {"ios": "https://dc.lft.to/lastmile_qr_scan", "android": "https://dc.lft.to/lastmile_qr_scan"}}, {"name": "bcf565c72f8f8223ab5ace44385a3ab6", "lon": -77.0512965, "lat": 38.923644833333334, "type": "electric_scooter", "fusion_lon": 0.0, "is_reserved": 0, "bike_id": "bcf565c72f8f8223ab5ace44385a3ab6", "fusion_lat": 0.0, "is_disabled": 0, "rental_uris": {"ios": "https://dc.lft.to/lastmile_qr_scan", "android": "https://dc.lft.to/lastmile_qr_scan"}}, {"name": "3b62d3c469e7ecc1bbd2ac9240d4cf7b", "lon": -77.06330233333334, "lat": 38.944249166666665, "type": "electric_scooter", "fusion_lon": 0.0, "is_reserved": 0, "bike_id": "3b62d3c469e7ecc1bbd2ac9240d4cf7b", "fusion_lat": 0.0, "is_disabled": 0, "rental_uris": {"ios": "https://dc.lft.to/lastmile_qr_scan", "android": "https://dc.lft.to/lastmile_qr_scan"}}, {"name": "cab947938c612c78207243514dde113e", "lon": -77.06168416666667, "lat": 38.902676, "type": "electric_scooter", "fusion_lon": 0.0, "is_reserved": 0, "bike_id": "cab947938c612c78207243514dde113e", "fusion_lat": 0.0, "is_disabled": 0, "rental_uris": {"ios": "https://dc.lft.to/lastmile_qr_scan", "android": "https://dc.lft.to/lastmile_qr_scan"}}, {"name": "4545da447f444a546c621c4d4e6ef87e", "lon": -77.03073883333333, "lat": 38.89758716666667, "type": "electric_scooter", "fusion_lon": 0.0, "is_reserved": 0, "bike_id": "4545da447f444a546c621c4d4e6ef87e", "fusion_lat": 0.0, "is_disabled": 0, "rental_uris": {"ios": "https://dc.lft.to/lastmile_qr_scan", "android": "https://dc.lft.to/lastmile_qr_scan"}}, {"name": "a8a08a1bc57ac15d8a7f5bece2e8d1db", "lon": -77.0504855, "lat": 38.900772, "type": "electric_bike", "fusion_lon": 0.0, "is_reserved": 0, "bike_id": "a8a08a1bc57ac15d8a7f5bece2e8d1db", "fusion_lat": 0.0, "is_disabled": 0, "rental_uris": {"ios": "https://dc.lft.to/lastmile_qr_scan", "android": "https://dc.lft.to/lastmile_qr_scan"}}, {"name": "07a76b3ae4128b18d02a01b78b563a8a", "lon": -77.04180916666667, "lat": 38.915562333333334, "type": "electric_scooter", "fusion_lon": 0.0, "is_reserved": 0, "bike_id": "07a76b3ae4128b18d02a01b78b563a8a", "fusion_lat": 0.0, "is_disabled": 0, "rental_uris": {"ios": "https://dc.lft.to/lastmile_qr_scan", "android": "https://dc.lft.to/lastmile_qr_scan"}}, {"name": "aa3a7ce8d00fc1407942e3c8bd5322a8", "lon": -77.00371066666666, "lat": 38.88267316666666, "type": "electric_scooter", "fusion_lon": 0.0, "is_reserved": 0, "bike_id": "aa3a7ce8d00fc1407942e3c8bd5322a8", "fusion_lat": 0.0, "is_disabled": 0, "rental_uris": {"ios": "https://dc.lft.to/lastmile_qr_scan", "android": "https://dc.lft.to/lastmile_qr_scan"}}, {"name": "33d6f14d4f6ca79256481e7ec87f0811", "lon": -77.00207166666667, "lat": 38.81944383333333, "type": "electric_bike", "fusion_lon": 0.0, "is_reserved": 0, "bike_id": "33d6f14d4f6ca79256481e7ec87f0811", "fusion_lat": 0.0, "is_disabled": 0, "rental_uris": {"ios": "https://dc.lft.to/lastmile_qr_scan", "android": "https://dc.lft.to/lastmile_qr_scan"}}, {"name": "c5a7715694068c03467a8f0a66c58fe3", "lon": -77.00780983333334, "lat": 38.90261316666667, "type": "electric_scooter", "fusion_lon": 0.0, "is_reserved": 0, "bike_id": "c5a7715694068c03467a8f0a66c58fe3", "fusion_lat": 0.0, "is_disabled": 0, "rental_uris": {"ios": "https://dc.lft.to/lastmile_qr_scan", "android": "https://dc.lft.to/lastmile_qr_scan"}}, {"name": "9ec144dd71f3c502dfef333087ee27b5", "lon": -77.11706833333334, "lat": 38.86745633333334, "type": "electric_bike", "fusion_lon": 0.0, "is_reserved": 0, "bike_id": "9ec144dd71f3c502dfef333087ee27b5", "fusion_lat": 0.0, "is_disabled": 0, "rental_uris": {"ios": "https://dc.lft.to/lastmile_qr_scan", "android": "https://dc.lft.to/lastmile_qr_scan"}}, {"name": "62e3a29669c420b280e722fc38d468e9", "lon": -77.04682733333334, "lat": 38.90135766666667, "type": "electric_scooter", "fusion_lon": 0.0, "is_reserved": 0, "bike_id": "62e3a29669c420b280e722fc38d468e9", "fusion_lat": 0.0, "is_disabled": 0, "rental_uris": {"ios": "https://dc.lft.to/lastmile_qr_scan", "android": "https://dc.lft.to/lastmile_qr_scan"}}, {"name": "084e61238ceefc0aaa034b75ea03bf0a", "lon": -77.11225733333333, "lat": 38.8127, "type": "electric_bike", "fusion_lon": 0.0, "is_reserved": 0, "bike_id": "084e61238ceefc0aaa034b75ea03bf0a", "fusion_lat": 0.0, "is_disabled": 0, "rental_uris": {"ios": "https://dc.lft.to/lastmile_qr_scan", "android": "https://dc.lft.to/lastmile_qr_scan"}}, {"name": "c00a9d6c7329e5c82548beb0d8cde249", "lon": -77.04024183333334, "lat": 38.90452716666667, "type": "electric_scooter", "fusion_lon": 0.0, "is_reserved": 0, "bike_id": "c00a9d6c7329e5c82548beb0d8cde249", "fusion_lat": 0.0, "is_disabled": 0, "rental_uris": {"ios": "https://dc.lft.to/lastmile_qr_scan", "android": "https://dc.lft.to/lastmile_qr_scan"}}, {"name": "b9a6cb6732cd1175bf7161d1e686f968", "lon": -77.04097166666666, "lat": 38.91784, "type": "electric_scooter", "fusion_lon": 0.0, "is_reserved": 0, "bike_id": "b9a6cb6732cd1175bf7161d1e686f968", "fusion_lat": 0.0, "is_disabled": 0, "rental_uris": {"ios": "https://dc.lft.to/lastmile_qr_scan", "android": "https://dc.lft.to/lastmile_qr_scan"}}, {"name": "2a347ce6614c9e7d8d12862e1bb3867e", "lon": -76.93754383333334, "lat": 38.89045766666667, "type": "electric_scooter", "fusion_lon": 0.0, "is_reserved": 0, "bike_id": "2a347ce6614c9e7d8d12862e1bb3867e", "fusion_lat": 0.0, "is_disabled": 0, "rental_uris": {"ios": "https://dc.lft.to/lastmile_qr_scan", "android": "https://dc.lft.to/lastmile_qr_scan"}}, {"name": "45bd20b4ee525c18ca287246c50bcca9", "lon": -77.02898016666667, "lat": 38.91705783333333, "type": "electric_scooter", "fusion_lon": 0.0, "is_reserved": 0, "bike_id": "45bd20b4ee525c18ca287246c50bcca9", "fusion_lat": 0.0, "is_disabled": 0, "rental_uris": {"ios": "https://dc.lft.to/lastmile_qr_scan", "android": "https://dc.lft.to/lastmile_qr_scan"}}, {"name": "d4e27288ef32eaf6544e9892d42f2769", "lon": -77.03249, "lat": 38.915648166666664, "type": "electric_scooter", "fusion_lon": 0.0, "is_reserved": 0, "bike_id": "d4e27288ef32eaf6544e9892d42f2769", "fusion_lat": 0.0, "is_disabled": 0, "rental_uris": {"ios": "https://dc.lft.to/lastmile_qr_scan", "android": "https://dc.lft.to/lastmile_qr_scan"}}, {"name": "a179ff2d8edd14cbfdd56f688929310b", "lon": -77.02389033333333, "lat": 38.9199385, "type": "electric_scooter", "fusion_lon": 0.0, "is_reserved": 0, "bike_id": "a179ff2d8edd14cbfdd56f688929310b", "fusion_lat": 0.0, "is_disabled": 0, "rental_uris": {"ios": "https://dc.lft.to/lastmile_qr_scan", "android": "https://dc.lft.to/lastmile_qr_scan"}}, {"name": "1ced2de81928df03d7e176dbed6c4ee9", "lon": -76.9975705, "lat": 38.8876345, "type": "electric_scooter", "fusion_lon": 0.0, "is_reserved": 0, "bike_id": "1ced2de81928df03d7e176dbed6c4ee9", "fusion_lat": 0.0, "is_disabled": 0, "rental_uris": {"ios": "https://dc.lft.to/lastmile_qr_scan", "android": "https://dc.lft.to/lastmile_qr_scan"}}, {"name": "99a14934e7ea95cae3d9c767c16a4fec", "lon": -77.035006, "lat": 38.963828666666664, "type": "electric_scooter", "fusion_lon": 0.0, "is_reserved": 0, "bike_id": "99a14934e7ea95cae3d9c767c16a4fec", "fusion_lat": 0.0, "is_disabled": 0, "rental_uris": {"ios": "https://dc.lft.to/lastmile_qr_scan", "android": "https://dc.lft.to/lastmile_qr_scan"}}, {"name": "90bce4393efae1da737c7ec3eb445337", "lon": -77.01772333333334, "lat": 38.982761333333336, "type": "electric_bike", "fusion_lon": 0.0, "is_reserved": 0, "bike_id": "90bce4393efae1da737c7ec3eb445337", "fusion_lat": 0.0, "is_disabled": 0, "rental_uris": {"ios": "https://dc.lft.to/lastmile_qr_scan", "android": "https://dc.lft.to/lastmile_qr_scan"}}, {"name": "9aeb21aaa170e0a08ed3573dddcdbbcc", "lon": -76.98204933333334, "lat": 38.985107666666664, "type": "electric_bike", "fusion_lon": 0.0, "is_reserved": 0, "bike_id": "9aeb21aaa170e0a08ed3573dddcdbbcc", "fusion_lat": 0.0, "is_disabled": 0, "rental_uris": {"ios": "https://dc.lft.to/lastmile_qr_scan", "android": "https://dc.lft.to/lastmile_qr_scan"}}, {"name": "331ece9afeb8328bb7a0305061321a99", "lon": -77.01899566666667, "lat": 38.923493666666666, "type": "electric_scooter", "fusion_lon": 0.0, "is_reserved": 0, "bike_id": "331ece9afeb8328bb7a0305061321a99", "fusion_lat": 0.0, "is_disabled": 0, "rental_uris": {"ios": "https://dc.lft.to/lastmile_qr_scan", "android": "https://dc.lft.to/lastmile_qr_scan"}}, {"name": "1530da7b8a8f541595202ef5969c3666", "lon": -77.04183383333333, "lat": 38.8922515, "type": "electric_scooter", "fusion_lon": 0.0, "is_reserved": 0, "bike_id": "1530da7b8a8f541595202ef5969c3666", "fusion_lat": 0.0, "is_disabled": 0, "rental_uris": {"ios": "https://dc.lft.to/lastmile_qr_scan", "android": "https://dc.lft.to/lastmile_qr_scan"}}, {"name": "4222ca33fb279d70ced3435b89590dec", "lon": -76.94683616666667, "lat": 38.88629483333333, "type": "electric_scooter", "fusion_lon": 0.0, "is_reserved": 0, "bike_id": "4222ca33fb279d70ced3435b89590dec", "fusion_lat": 0.0, "is_disabled": 0, "rental_uris": {"ios": "https://dc.lft.to/lastmile_qr_scan", "android": "https://dc.lft.to/lastmile_qr_scan"}}, {"name": "f4a56e21a19ede4ee03c5e363f0a7fce", "lon": -77.03508933333333, "lat": 38.931148666666665, "type": "electric_bike", "fusion_lon": 0.0, "is_reserved": 0, "bike_id": "f4a56e21a19ede4ee03c5e363f0a7fce", "fusion_lat": 0.0, "is_disabled": 0, "rental_uris": {"ios": "https://dc.lft.to/lastmile_qr_scan", "android": "https://dc.lft.to/lastmile_qr_scan"}}, {"name": "e30b9686bffc5c97e795c01ad52d8ff7", "lon": -77.023244, "lat": 38.897329, "type": "electric_scooter", "fusion_lon": 0.0, "is_reserved": 0, "bike_id": "e30b9686bffc5c97e795c01ad52d8ff7", "fusion_lat": 0.0, "is_disabled": 0, "rental_uris": {"ios": "https://dc.lft.to/lastmile_qr_scan", "android": "https://dc.lft.to/lastmile_qr_scan"}}, {"name": "62c643d8cb204a2e27ad0f85e15ba173", "lon": -77.045955, "lat": 38.92333, "type": "electric_scooter", "fusion_lon": 0.0, "is_reserved": 0, "bike_id": "62c643d8cb204a2e27ad0f85e15ba173", "fusion_lat": 0.0, "is_disabled": 0, "rental_uris": {"ios": "https://dc.lft.to/lastmile_qr_scan", "android": "https://dc.lft.to/lastmile_qr_scan"}}, {"name": "1c175aed7b170101a7b1f66f71cd0c39", "lon": -77.00214, "lat": 38.90353833333333, "type": "electric_scooter", "fusion_lon": 0.0, "is_reserved": 0, "bike_id": "1c175aed7b170101a7b1f66f71cd0c39", "fusion_lat": 0.0, "is_disabled": 0, "rental_uris": {"ios": "https://dc.lft.to/lastmile_qr_scan", "android": "https://dc.lft.to/lastmile_qr_scan"}}, {"name": "e6223bcdb29d3ed432b3b80c659e7ef1", "lon": -76.99652733333333, "lat": 38.98826116666667, "type": "electric_bike", "fusion_lon": 0.0, "is_reserved": 0, "bike_id": "e6223bcdb29d3ed432b3b80c659e7ef1", "fusion_lat": 0.0, "is_disabled": 0, "rental_uris": {"ios": "https://dc.lft.to/lastmile_qr_scan", "android": "https://dc.lft.to/lastmile_qr_scan"}}, {"name": "73f1b80b5508eac772b2b625f69219c9", "lon": -77.05225216666666, "lat": 38.903244666666666, "type": "electric_scooter", "fusion_lon": 0.0, "is_reserved": 0, "bike_id": "73f1b80b5508eac772b2b625f69219c9", "fusion_lat": 0.0, "is_disabled": 0, "rental_uris": {"ios": "https://dc.lft.to/lastmile_qr_scan", "android": "https://dc.lft.to/lastmile_qr_scan"}}, {"name": "2a6a33498c9856f59db81df00f838b3d", "lon": -77.04514433333334, "lat": 38.892244, "type": "electric_scooter", "fusion_lon": 0.0, "is_reserved": 0, "bike_id": "2a6a33498c9856f59db81df00f838b3d", "fusion_lat": 0.0, "is_disabled": 0, "rental_uris": {"ios": "https://dc.lft.to/lastmile_qr_scan", "android": "https://dc.lft.to/lastmile_qr_scan"}}, {"name": "44308f9d22f0e5664d0305250744f34c", "lon": -77.02682416666667, "lat": 38.91268, "type": "electric_scooter", "fusion_lon": 0.0, "is_reserved": 0, "bike_id": "44308f9d22f0e5664d0305250744f34c", "fusion_lat": 0.0, "is_disabled": 0, "rental_uris": {"ios": "https://dc.lft.to/lastmile_qr_scan", "android": "https://dc.lft.to/lastmile_qr_scan"}}, {"name": "fcb284de9c2806bce32e0c0bd2d7bd35", "lon": -77.0320825, "lat": 38.91787516666667, "type": "electric_scooter", "fusion_lon": 0.0, "is_reserved": 0, "bike_id": "fcb284de9c2806bce32e0c0bd2d7bd35", "fusion_lat": 0.0, "is_disabled": 0, "rental_uris": {"ios": "https://dc.lft.to/lastmile_qr_scan", "android": "https://dc.lft.to/lastmile_qr_scan"}}, {"name": "315e5f77309783802eb348e367bd12ea", "lon": -77.02963416666667, "lat": 38.91278716666667, "type": "electric_scooter", "fusion_lon": 0.0, "is_reserved": 0, "bike_id": "315e5f77309783802eb348e367bd12ea", "fusion_lat": 0.0, "is_disabled": 0, "rental_uris": {"ios": "https://dc.lft.to/lastmile_qr_scan", "android": "https://dc.lft.to/lastmile_qr_scan"}}, {"name": "b6c253ad420e86da3a54ea499c64fe88", "lon": -77.01996233333334, "lat": 38.913666666666664, "type": "electric_scooter", "fusion_lon": 0.0, "is_reserved": 0, "bike_id": "b6c253ad420e86da3a54ea499c64fe88", "fusion_lat": 0.0, "is_disabled": 0, "rental_uris": {"ios": "https://dc.lft.to/lastmile_qr_scan", "android": "https://dc.lft.to/lastmile_qr_scan"}}, {"name": "0aae0ad1630fcb390c80d2c52feb8241", "lon": -77.03858233333334, "lat": 38.9038625, "type": "electric_scooter", "fusion_lon": 0.0, "is_reserved": 0, "bike_id": "0aae0ad1630fcb390c80d2c52feb8241", "fusion_lat": 0.0, "is_disabled": 0, "rental_uris": {"ios": "https://dc.lft.to/lastmile_qr_scan", "android": "https://dc.lft.to/lastmile_qr_scan"}}, {"name": "e7f1fb92cd46aa0b9784ae1a8980c12c", "lon": -77.01834533333333, "lat": 38.9420655, "type": "electric_scooter", "fusion_lon": 0.0, "is_reserved": 0, "bike_id": "e7f1fb92cd46aa0b9784ae1a8980c12c", "fusion_lat": 0.0, "is_disabled": 0, "rental_uris": {"ios": "https://dc.lft.to/lastmile_qr_scan", "android": "https://dc.lft.to/lastmile_qr_scan"}}, {"name": "0bcaa95e41fb046d9b59181ac419df27", "lon": -76.983665, "lat": 38.91551, "type": "electric_scooter", "fusion_lon": 0.0, "is_reserved": 0, "bike_id": "0bcaa95e41fb046d9b59181ac419df27", "fusion_lat": 0.0, "is_disabled": 0, "rental_uris": {"ios": "https://dc.lft.to/lastmile_qr_scan", "android": "https://dc.lft.to/lastmile_qr_scan"}}, {"name": "4e01b1e31229beef39302e48dc88ee6e", "lon": -77.0197905, "lat": 38.885961333333334, "type": "electric_scooter", "fusion_lon": 0.0, "is_reserved": 0, "bike_id": "4e01b1e31229beef39302e48dc88ee6e", "fusion_lat": 0.0, "is_disabled": 0, "rental_uris": {"ios": "https://dc.lft.to/lastmile_qr_scan", "android": "https://dc.lft.to/lastmile_qr_scan"}}, {"name": "6ead8fe7c09abb157cb401e3d702c1dd", "lon": -77.0391095, "lat": 38.918328833333334, "type": "electric_scooter", "fusion_lon": 0.0, "is_reserved": 0, "bike_id": "6ead8fe7c09abb157cb401e3d702c1dd", "fusion_lat": 0.0, "is_disabled": 0, "rental_uris": {"ios": "https://dc.lft.to/lastmile_qr_scan", "android": "https://dc.lft.to/lastmile_qr_scan"}}, {"name": "7f788fcf0f59a917038fbdabd4122206", "lon": -77.03737333333333, "lat": 38.9269365, "type": "electric_scooter", "fusion_lon": 0.0, "is_reserved": 0, "bike_id": "7f788fcf0f59a917038fbdabd4122206", "fusion_lat": 0.0, "is_disabled": 0, "rental_uris": {"ios": "https://dc.lft.to/lastmile_qr_scan", "android": "https://dc.lft.to/lastmile_qr_scan"}}, {"name": "e1b82824caf46919dffc82a47d1533f3", "lon": -77.03960266666667, "lat": 38.93061083333333, "type": "electric_scooter", "fusion_lon": 0.0, "is_reserved": 0, "bike_id": "e1b82824caf46919dffc82a47d1533f3", "fusion_lat": 0.0, "is_disabled": 0, "rental_uris": {"ios": "https://dc.lft.to/lastmile_qr_scan", "android": "https://dc.lft.to/lastmile_qr_scan"}}, {"name": "2ebb148aa94373af0f2a369b516186b5", "lon": -77.12482533333333, "lat": 38.853973833333335, "type": "electric_bike", "fusion_lon": 0.0, "is_reserved": 0, "bike_id": "2ebb148aa94373af0f2a369b516186b5", "fusion_lat": 0.0, "is_disabled": 0, "rental_uris": {"ios": "https://dc.lft.to/lastmile_qr_scan", "android": "https://dc.lft.to/lastmile_qr_scan"}}, {"name": "dc996ac02df7656a96f58175d4e93061", "lon": -77.01750766666666, "lat": 38.907194833333335, "type": "electric_scooter", "fusion_lon": 0.0, "is_reserved": 0, "bike_id": "dc996ac02df7656a96f58175d4e93061", "fusion_lat": 0.0, "is_disabled": 0, "rental_uris": {"ios": "https://dc.lft.to/lastmile_qr_scan", "android": "https://dc.lft.to/lastmile_qr_scan"}}, {"name": "98cc193127d0a2adbb900fbc80f3403b", "lon": -77.03856433333333, "lat": 38.90391, "type": "electric_scooter", "fusion_lon": 0.0, "is_reserved": 0, "bike_id": "98cc193127d0a2adbb900fbc80f3403b", "fusion_lat": 0.0, "is_disabled": 0, "rental_uris": {"ios": "https://dc.lft.to/lastmile_qr_scan", "android": "https://dc.lft.to/lastmile_qr_scan"}}, {"name": "d27f3235fa1861d839909134af84a9ea", "lon": -77.0520805, "lat": 38.92470566666667, "type": "electric_scooter", "fusion_lon": 0.0, "is_reserved": 0, "bike_id": "d27f3235fa1861d839909134af84a9ea", "fusion_lat": 0.0, "is_disabled": 0, "rental_uris": {"ios": "https://dc.lft.to/lastmile_qr_scan", "android": "https://dc.lft.to/lastmile_qr_scan"}}, {"name": "32f136a50e422d6c38399c1754d5d939", "lon": -77.00764316666667, "lat": 38.82601583333334, "type": "electric_scooter", "fusion_lon": 0.0, "is_reserved": 0, "bike_id": "32f136a50e422d6c38399c1754d5d939", "fusion_lat": 0.0, "is_disabled": 0, "rental_uris": {"ios": "https://dc.lft.to/lastmile_qr_scan", "android": "https://dc.lft.to/lastmile_qr_scan"}}, {"name": "c9f4412a93faa100d768cd700c1d085c", "lon": -77.0268405, "lat": 38.912667666666664, "type": "electric_scooter", "fusion_lon": 0.0, "is_reserved": 0, "bike_id": "c9f4412a93faa100d768cd700c1d085c", "fusion_lat": 0.0, "is_disabled": 0, "rental_uris": {"ios": "https://dc.lft.to/lastmile_qr_scan", "android": "https://dc.lft.to/lastmile_qr_scan"}}, {"name": "4a5be3731e54945a69d197d2353f0ae9", "lon": -77.07430216666667, "lat": 38.999488, "type": "electric_bike", "fusion_lon": 0.0, "is_reserved": 0, "bike_id": "4a5be3731e54945a69d197d2353f0ae9", "fusion_lat": 0.0, "is_disabled": 0, "rental_uris": {"ios": "https://dc.lft.to/lastmile_qr_scan", "android": "https://dc.lft.to/lastmile_qr_scan"}}, {"name": "38512dc8ca3d18fdb874257623ed220a", "lon": -76.975322, "lat": 38.840154166666665, "type": "electric_bike", "fusion_lon": 0.0, "is_reserved": 0, "bike_id": "38512dc8ca3d18fdb874257623ed220a", "fusion_lat": 0.0, "is_disabled": 0, "rental_uris": {"ios": "https://dc.lft.to/lastmile_qr_scan", "android": "https://dc.lft.to/lastmile_qr_scan"}}, {"name": "ece7779d67cfd99d8daeebe495f56911", "lon": -76.98716, "lat": 38.866287166666666, "type": "electric_scooter", "fusion_lon": 0.0, "is_reserved": 0, "bike_id": "ece7779d67cfd99d8daeebe495f56911", "fusion_lat": 0.0, "is_disabled": 0, "rental_uris": {"ios": "https://dc.lft.to/lastmile_qr_scan", "android": "https://dc.lft.to/lastmile_qr_scan"}}, {"name": "7d47565d33727ea8adb28d6d8968a84c", "lon": -77.02436416666667, "lat": 38.92728866666667, "type": "electric_scooter", "fusion_lon": 0.0, "is_reserved": 0, "bike_id": "7d47565d33727ea8adb28d6d8968a84c", "fusion_lat": 0.0, "is_disabled": 0, "rental_uris": {"ios": "https://dc.lft.to/lastmile_qr_scan", "android": "https://dc.lft.to/lastmile_qr_scan"}}, {"name": "9b65c73a1dd8ef985636606fa86d71b2", "lon": -77.00578833333333, "lat": 38.88578566666666, "type": "electric_scooter", "fusion_lon": 0.0, "is_reserved": 0, "bike_id": "9b65c73a1dd8ef985636606fa86d71b2", "fusion_lat": 0.0, "is_disabled": 0, "rental_uris": {"ios": "https://dc.lft.to/lastmile_qr_scan", "android": "https://dc.lft.to/lastmile_qr_scan"}}, {"name": "9d780c485ecaac85d13254aed9f5da05", "lon": -77.02334466666667, "lat": 38.878926166666666, "type": "electric_scooter", "fusion_lon": 0.0, "is_reserved": 0, "bike_id": "9d780c485ecaac85d13254aed9f5da05", "fusion_lat": 0.0, "is_disabled": 0, "rental_uris": {"ios": "https://dc.lft.to/lastmile_qr_scan", "android": "https://dc.lft.to/lastmile_qr_scan"}}, {"name": "bda64d46e79e031c70db3dde82dc69de", "lon": -76.99106716666667, "lat": 38.910150333333334, "type": "electric_scooter", "fusion_lon": 0.0, "is_reserved": 0, "bike_id": "bda64d46e79e031c70db3dde82dc69de", "fusion_lat": 0.0, "is_disabled": 0, "rental_uris": {"ios": "https://dc.lft.to/lastmile_qr_scan", "android": "https://dc.lft.to/lastmile_qr_scan"}}, {"name": "89817cf3f11cca634f2d8d3663d83d1c", "lon": -77.0334745, "lat": 38.89832583333333, "type": "electric_scooter", "fusion_lon": 0.0, "is_reserved": 0, "bike_id": "89817cf3f11cca634f2d8d3663d83d1c", "fusion_lat": 0.0, "is_disabled": 0, "rental_uris": {"ios": "https://dc.lft.to/lastmile_qr_scan", "android": "https://dc.lft.to/lastmile_qr_scan"}}, {"name": "5485170aa02353d56952398b63f952a7", "lon": -77.04339716666667, "lat": 38.906255333333334, "type": "electric_scooter", "fusion_lon": 0.0, "is_reserved": 0, "bike_id": "5485170aa02353d56952398b63f952a7", "fusion_lat": 0.0, "is_disabled": 0, "rental_uris": {"ios": "https://dc.lft.to/lastmile_qr_scan", "android": "https://dc.lft.to/lastmile_qr_scan"}}, {"name": "1121b1ce897920ddbc609001c7c17a35", "lon": -77.03443816666666, "lat": 38.908082, "type": "electric_scooter", "fusion_lon": 0.0, "is_reserved": 0, "bike_id": "1121b1ce897920ddbc609001c7c17a35", "fusion_lat": 0.0, "is_disabled": 0, "rental_uris": {"ios": "https://dc.lft.to/lastmile_qr_scan", "android": "https://dc.lft.to/lastmile_qr_scan"}}, {"name": "31e274bd5b48702b2b86a3ef97a67bc0", "lon": -76.98232366666667, "lat": 38.864708, "type": "electric_scooter", "fusion_lon": 0.0, "is_reserved": 0, "bike_id": "31e274bd5b48702b2b86a3ef97a67bc0", "fusion_lat": 0.0, "is_disabled": 0, "rental_uris": {"ios": "https://dc.lft.to/lastmile_qr_scan", "android": "https://dc.lft.to/lastmile_qr_scan"}}, {"name": "754a9c3815eb7ead4bf3f47cdc1d2cf3", "lon": -77.02965733333333, "lat": 38.91686283333333, "type": "electric_scooter", "fusion_lon": 0.0, "is_reserved": 0, "bike_id": "754a9c3815eb7ead4bf3f47cdc1d2cf3", "fusion_lat": 0.0, "is_disabled": 0, "rental_uris": {"ios": "https://dc.lft.to/lastmile_qr_scan", "android": "https://dc.lft.to/lastmile_qr_scan"}}, {"name": "d902403cc1ec14731254f39bec1e937b", "lon": -77.03461983333334, "lat": 38.9024785, "type": "electric_scooter", "fusion_lon": 0.0, "is_reserved": 0, "bike_id": "d902403cc1ec14731254f39bec1e937b", "fusion_lat": 0.0, "is_disabled": 0, "rental_uris": {"ios": "https://dc.lft.to/lastmile_qr_scan", "android": "https://dc.lft.to/lastmile_qr_scan"}}, {"name": "12e5f078af1eaeeb9b71bf0715dcb5df", "lon": -77.0152065, "lat": 38.88659333333333, "type": "electric_scooter", "fusion_lon": 0.0, "is_reserved": 0, "bike_id": "12e5f078af1eaeeb9b71bf0715dcb5df", "fusion_lat": 0.0, "is_disabled": 0, "rental_uris": {"ios": "https://dc.lft.to/lastmile_qr_scan", "android": "https://dc.lft.to/lastmile_qr_scan"}}, {"name": "97057a534b821c195f915a8cf196e5ce", "lon": -77.061155, "lat": 38.93995833333334, "type": "electric_scooter", "fusion_lon": 0.0, "is_reserved": 0, "bike_id": "97057a534b821c195f915a8cf196e5ce", "fusion_lat": 0.0, "is_disabled": 0, "rental_uris": {"ios": "https://dc.lft.to/lastmile_qr_scan", "android": "https://dc.lft.to/lastmile_qr_scan"}}, {"name": "0372fe525b7168b5fe597c19a9ed03a9", "lon": -77.0331955, "lat": 38.900103666666666, "type": "electric_scooter", "fusion_lon": 0.0, "is_reserved": 0, "bike_id": "0372fe525b7168b5fe597c19a9ed03a9", "fusion_lat": 0.0, "is_disabled": 0, "rental_uris": {"ios": "https://dc.lft.to/lastmile_qr_scan", "android": "https://dc.lft.to/lastmile_qr_scan"}}, {"name": "4a2bd132f4842c2a4b3f2cc6abca6a83", "lon": -77.02532216666667, "lat": 38.9425825, "type": "electric_scooter", "fusion_lon": 0.0, "is_reserved": 0, "bike_id": "4a2bd132f4842c2a4b3f2cc6abca6a83", "fusion_lat": 0.0, "is_disabled": 0, "rental_uris": {"ios": "https://dc.lft.to/lastmile_qr_scan", "android": "https://dc.lft.to/lastmile_qr_scan"}}, {"name": "89a4c7429c6839ae5f9687b31c7b139e", "lon": -77.03192966666667, "lat": 38.915833166666665, "type": "electric_scooter", "fusion_lon": 0.0, "is_reserved": 0, "bike_id": "89a4c7429c6839ae5f9687b31c7b139e", "fusion_lat": 0.0, "is_disabled": 0, "rental_uris": {"ios": "https://dc.lft.to/lastmile_qr_scan", "android": "https://dc.lft.to/lastmile_qr_scan"}}, {"name": "541dc5c759daa383ba41c06a602c8b3a", "lon": -77.0541495, "lat": 38.927950333333335, "type": "electric_scooter", "fusion_lon": 0.0, "is_reserved": 0, "bike_id": "541dc5c759daa383ba41c06a602c8b3a", "fusion_lat": 0.0, "is_disabled": 0, "rental_uris": {"ios": "https://dc.lft.to/lastmile_qr_scan", "android": "https://dc.lft.to/lastmile_qr_scan"}}, {"name": "58af3729658deea33cf846e7b08cccf4", "lon": -77.0327195, "lat": 38.92748783333333, "type": "electric_scooter", "fusion_lon": 0.0, "is_reserved": 0, "bike_id": "58af3729658deea33cf846e7b08cccf4", "fusion_lat": 0.0, "is_disabled": 0, "rental_uris": {"ios": "https://dc.lft.to/lastmile_qr_scan", "android": "https://dc.lft.to/lastmile_qr_scan"}}, {"name": "c1a88081b1a88b6cfd7940f42f6ee8e8", "lon": -77.01481, "lat": 38.90867316666667, "type": "electric_scooter", "fusion_lon": 0.0, "is_reserved": 0, "bike_id": "c1a88081b1a88b6cfd7940f42f6ee8e8", "fusion_lat": 0.0, "is_disabled": 0, "rental_uris": {"ios": "https://dc.lft.to/lastmile_qr_scan", "android": "https://dc.lft.to/lastmile_qr_scan"}}, {"name": "9dfbba608b406396211976ab2b963488", "lon": -77.05325866666666, "lat": 38.927992833333334, "type": "electric_scooter", "fusion_lon": 0.0, "is_reserved": 0, "bike_id": "9dfbba608b406396211976ab2b963488", "fusion_lat": 0.0, "is_disabled": 0, "rental_uris": {"ios": "https://dc.lft.to/lastmile_qr_scan", "android": "https://dc.lft.to/lastmile_qr_scan"}}, {"name": "cc53e33ebe173edc9cdb6897bb1d8aa9", "lon": -77.00779133333333, "lat": 38.92674566666667, "type": "electric_scooter", "fusion_lon": 0.0, "is_reserved": 0, "bike_id": "cc53e33ebe173edc9cdb6897bb1d8aa9", "fusion_lat": 0.0, "is_disabled": 0, "rental_uris": {"ios": "https://dc.lft.to/lastmile_qr_scan", "android": "https://dc.lft.to/lastmile_qr_scan"}}, {"name": "8d12add21f2e34b5bebfd121366b0092", "lon": -77.0416885, "lat": 38.9149395, "type": "electric_scooter", "fusion_lon": 0.0, "is_reserved": 0, "bike_id": "8d12add21f2e34b5bebfd121366b0092", "fusion_lat": 0.0, "is_disabled": 0, "rental_uris": {"ios": "https://dc.lft.to/lastmile_qr_scan", "android": "https://dc.lft.to/lastmile_qr_scan"}}, {"name": "af24c781899c737a7823a2c2adb89652", "lon": -77.02549766666667, "lat": 38.942238, "type": "electric_scooter", "fusion_lon": 0.0, "is_reserved": 0, "bike_id": "af24c781899c737a7823a2c2adb89652", "fusion_lat": 0.0, "is_disabled": 0, "rental_uris": {"ios": "https://dc.lft.to/lastmile_qr_scan", "android": "https://dc.lft.to/lastmile_qr_scan"}}, {"name": "371013321c61c40ca705e032100e16a3", "lon": -76.9724575, "lat": 38.8546175, "type": "electric_bike", "fusion_lon": 0.0, "is_reserved": 0, "bike_id": "371013321c61c40ca705e032100e16a3", "fusion_lat": 0.0, "is_disabled": 0, "rental_uris": {"ios": "https://dc.lft.to/lastmile_qr_scan", "android": "https://dc.lft.to/lastmile_qr_scan"}}, {"name": "1894e4a26cc5abcea4e3ec2f10489497", "lon": -77.03832583333333, "lat": 38.90887933333333, "type": "electric_scooter", "fusion_lon": 0.0, "is_reserved": 0, "bike_id": "1894e4a26cc5abcea4e3ec2f10489497", "fusion_lat": 0.0, "is_disabled": 0, "rental_uris": {"ios": "https://dc.lft.to/lastmile_qr_scan", "android": "https://dc.lft.to/lastmile_qr_scan"}}, {"name": "3e3bdf4a2a66130524dc17a9c43c2e8d", "lon": -77.01076333333333, "lat": 38.898014, "type": "electric_bike", "fusion_lon": 0.0, "is_reserved": 0, "bike_id": "3e3bdf4a2a66130524dc17a9c43c2e8d", "fusion_lat": 0.0, "is_disabled": 0, "rental_uris": {"ios": "https://dc.lft.to/lastmile_qr_scan", "android": "https://dc.lft.to/lastmile_qr_scan"}}, {"name": "9c95d7bade5845748b6e941e750300af", "lon": -77.01996, "lat": 38.930577166666666, "type": "electric_scooter", "fusion_lon": 0.0, "is_reserved": 0, "bike_id": "9c95d7bade5845748b6e941e750300af", "fusion_lat": 0.0, "is_disabled": 0, "rental_uris": {"ios": "https://dc.lft.to/lastmile_qr_scan", "android": "https://dc.lft.to/lastmile_qr_scan"}}, {"name": "ca8c270481d4c9da1264118f9fb81d44", "lon": -77.0478905, "lat": 38.89370133333333, "type": "electric_scooter", "fusion_lon": 0.0, "is_reserved": 0, "bike_id": "ca8c270481d4c9da1264118f9fb81d44", "fusion_lat": 0.0, "is_disabled": 0, "rental_uris": {"ios": "https://dc.lft.to/lastmile_qr_scan", "android": "https://dc.lft.to/lastmile_qr_scan"}}, {"name": "57002a44a74692ba423d2999d86f7be9", "lon": -77.02172383333334, "lat": 38.942981, "type": "electric_scooter", "fusion_lon": 0.0, "is_reserved": 0, "bike_id": "57002a44a74692ba423d2999d86f7be9", "fusion_lat": 0.0, "is_disabled": 0, "rental_uris": {"ios": "https://dc.lft.to/lastmile_qr_scan", "android": "https://dc.lft.to/lastmile_qr_scan"}}, {"name": "8b17dc44faf23a71e2a27141e24e37d4", "lon": -76.96527116666667, "lat": 38.8763, "type": "electric_scooter", "fusion_lon": 0.0, "is_reserved": 0, "bike_id": "8b17dc44faf23a71e2a27141e24e37d4", "fusion_lat": 0.0, "is_disabled": 0, "rental_uris": {"ios": "https://dc.lft.to/lastmile_qr_scan", "android": "https://dc.lft.to/lastmile_qr_scan"}}, {"name": "9491ae80e1374ba854c4d797d3a23a63", "lon": -77.0486445, "lat": 38.90516, "type": "electric_scooter", "fusion_lon": 0.0, "is_reserved": 0, "bike_id": "9491ae80e1374ba854c4d797d3a23a63", "fusion_lat": 0.0, "is_disabled": 0, "rental_uris": {"ios": "https://dc.lft.to/lastmile_qr_scan", "android": "https://dc.lft.to/lastmile_qr_scan"}}, {"name": "39c37631237d62f255ef2a5b1f47aebc", "lon": -77.04388266666666, "lat": 38.914139666666664, "type": "electric_scooter", "fusion_lon": 0.0, "is_reserved": 0, "bike_id": "39c37631237d62f255ef2a5b1f47aebc", "fusion_lat": 0.0, "is_disabled": 0, "rental_uris": {"ios": "https://dc.lft.to/lastmile_qr_scan", "android": "https://dc.lft.to/lastmile_qr_scan"}}, {"name": "ff873f2befa9cd7bbb395aff4c5a8aa0", "lon": -77.022076, "lat": 38.898630833333335, "type": "electric_scooter", "fusion_lon": 0.0, "is_reserved": 0, "bike_id": "ff873f2befa9cd7bbb395aff4c5a8aa0", "fusion_lat": 0.0, "is_disabled": 0, "rental_uris": {"ios": "https://dc.lft.to/lastmile_qr_scan", "android": "https://dc.lft.to/lastmile_qr_scan"}}, {"name": "16c89aecc39b29d2cfb2f04d5fef1ec1", "lon": -77.07151683333333, "lat": 38.945652, "type": "electric_scooter", "fusion_lon": 0.0, "is_reserved": 0, "bike_id": "16c89aecc39b29d2cfb2f04d5fef1ec1", "fusion_lat": 0.0, "is_disabled": 0, "rental_uris": {"ios": "https://dc.lft.to/lastmile_qr_scan", "android": "https://dc.lft.to/lastmile_qr_scan"}}, {"name": "5489a7bc282efe0f6a53bb3f3cc67e4b", "lon": -77.028155, "lat": 38.899399, "type": "electric_scooter", "fusion_lon": 0.0, "is_reserved": 0, "bike_id": "5489a7bc282efe0f6a53bb3f3cc67e4b", "fusion_lat": 0.0, "is_disabled": 0, "rental_uris": {"ios": "https://dc.lft.to/lastmile_qr_scan", "android": "https://dc.lft.to/lastmile_qr_scan"}}, {"name": "5a9af0aed4b01648eb0107e637387d65", "lon": -77.02692916666666, "lat": 38.904062833333334, "type": "electric_scooter", "fusion_lon": 0.0, "is_reserved": 0, "bike_id": "5a9af0aed4b01648eb0107e637387d65", "fusion_lat": 0.0, "is_disabled": 0, "rental_uris": {"ios": "https://dc.lft.to/lastmile_qr_scan", "android": "https://dc.lft.to/lastmile_qr_scan"}}, {"name": "fe5ba23d004235f6e1a2f79934493cfc", "lon": -77.03261783333333, "lat": 38.935284, "type": "electric_scooter", "fusion_lon": 0.0, "is_reserved": 0, "bike_id": "fe5ba23d004235f6e1a2f79934493cfc", "fusion_lat": 0.0, "is_disabled": 0, "rental_uris": {"ios": "https://dc.lft.to/lastmile_qr_scan", "android": "https://dc.lft.to/lastmile_qr_scan"}}, {"name": "0cfd4a726edf976637bca30792b8e47a", "lon": -77.02293466666667, "lat": 38.916864, "type": "electric_scooter", "fusion_lon": 0.0, "is_reserved": 0, "bike_id": "0cfd4a726edf976637bca30792b8e47a", "fusion_lat": 0.0, "is_disabled": 0, "rental_uris": {"ios": "https://dc.lft.to/lastmile_qr_scan", "android": "https://dc.lft.to/lastmile_qr_scan"}}, {"name": "ae14525fa1a33dbfa2992c506abecdbb", "lon": -77.02766066666666, "lat": 38.95427016666667, "type": "electric_scooter", "fusion_lon": 0.0, "is_reserved": 0, "bike_id": "ae14525fa1a33dbfa2992c506abecdbb", "fusion_lat": 0.0, "is_disabled": 0, "rental_uris": {"ios": "https://dc.lft.to/lastmile_qr_scan", "android": "https://dc.lft.to/lastmile_qr_scan"}}, {"name": "b778b77ca97809f4b99dd6c836d738ba", "lon": -77.033177, "lat": 38.901573, "type": "electric_scooter", "fusion_lon": 0.0, "is_reserved": 0, "bike_id": "b778b77ca97809f4b99dd6c836d738ba", "fusion_lat": 0.0, "is_disabled": 0, "rental_uris": {"ios": "https://dc.lft.to/lastmile_qr_scan", "android": "https://dc.lft.to/lastmile_qr_scan"}}, {"name": "421b1a43044dfe5b2096757268678523", "lon": -77.0343715, "lat": 38.91808433333333, "type": "electric_scooter", "fusion_lon": 0.0, "is_reserved": 0, "bike_id": "421b1a43044dfe5b2096757268678523", "fusion_lat": 0.0, "is_disabled": 0, "rental_uris": {"ios": "https://dc.lft.to/lastmile_qr_scan", "android": "https://dc.lft.to/lastmile_qr_scan"}}, {"name": "64aa84cb73255f8dd5ecdc81bcef7e33", "lon": -77.02628566666667, "lat": 38.962311666666665, "type": "electric_bike", "fusion_lon": 0.0, "is_reserved": 0, "bike_id": "64aa84cb73255f8dd5ecdc81bcef7e33", "fusion_lat": 0.0, "is_disabled": 0, "rental_uris": {"ios": "https://dc.lft.to/lastmile_qr_scan", "android": "https://dc.lft.to/lastmile_qr_scan"}}, {"name": "dae55f0df93c09a0adc4db46ed41b502", "lon": -77.02949916666667, "lat": 38.89876233333333, "type": "electric_scooter", "fusion_lon": 0.0, "is_reserved": 0, "bike_id": "dae55f0df93c09a0adc4db46ed41b502", "fusion_lat": 0.0, "is_disabled": 0, "rental_uris": {"ios": "https://dc.lft.to/lastmile_qr_scan", "android": "https://dc.lft.to/lastmile_qr_scan"}}, {"name": "b61793b7aaa0e4ce21d1f0581d3510eb", "lon": -77.01080083333333, "lat": 38.89784566666667, "type": "electric_scooter", "fusion_lon": 0.0, "is_reserved": 0, "bike_id": "b61793b7aaa0e4ce21d1f0581d3510eb", "fusion_lat": 0.0, "is_disabled": 0, "rental_uris": {"ios": "https://dc.lft.to/lastmile_qr_scan", "android": "https://dc.lft.to/lastmile_qr_scan"}}, {"name": "56131eb423685f8e06f5eaf4c584e57b", "lon": -77.02730383333333, "lat": 38.940879, "type": "electric_scooter", "fusion_lon": 0.0, "is_reserved": 0, "bike_id": "56131eb423685f8e06f5eaf4c584e57b", "fusion_lat": 0.0, "is_disabled": 0, "rental_uris": {"ios": "https://dc.lft.to/lastmile_qr_scan", "android": "https://dc.lft.to/lastmile_qr_scan"}}, {"name": "612dbc2722b029a5d7ec7452da3a580c", "lon": -77.04139383333333, "lat": 38.89354866666667, "type": "electric_scooter", "fusion_lon": 0.0, "is_reserved": 0, "bike_id": "612dbc2722b029a5d7ec7452da3a580c", "fusion_lat": 0.0, "is_disabled": 0, "rental_uris": {"ios": "https://dc.lft.to/lastmile_qr_scan", "android": "https://dc.lft.to/lastmile_qr_scan"}}, {"name": "54232a66fdb38f79b7396f129e0a3566", "lon": -77.06863816666667, "lat": 38.80580666666667, "type": "electric_bike", "fusion_lon": 0.0, "is_reserved": 0, "bike_id": "54232a66fdb38f79b7396f129e0a3566", "fusion_lat": 0.0, "is_disabled": 0, "rental_uris": {"ios": "https://dc.lft.to/lastmile_qr_scan", "android": "https://dc.lft.to/lastmile_qr_scan"}}, {"name": "1cd90f82f6d2c2a0e31c3cae307b6a30", "lon": -76.99542216666667, "lat": 38.879356333333334, "type": "electric_scooter", "fusion_lon": 0.0, "is_reserved": 0, "bike_id": "1cd90f82f6d2c2a0e31c3cae307b6a30", "fusion_lat": 0.0, "is_disabled": 0, "rental_uris": {"ios": "https://dc.lft.to/lastmile_qr_scan", "android": "https://dc.lft.to/lastmile_qr_scan"}}, {"name": "2da63987523b6fab4862bf2e01bec5a7", "lon": -77.06353133333333, "lat": 38.944477166666665, "type": "electric_scooter", "fusion_lon": 0.0, "is_reserved": 0, "bike_id": "2da63987523b6fab4862bf2e01bec5a7", "fusion_lat": 0.0, "is_disabled": 0, "rental_uris": {"ios": "https://dc.lft.to/lastmile_qr_scan", "android": "https://dc.lft.to/lastmile_qr_scan"}}, {"name": "63143734485dd9d3c498a54d925c4fc1", "lon": -77.04520466666666, "lat": 38.902807, "type": "electric_scooter", "fusion_lon": 0.0, "is_reserved": 0, "bike_id": "63143734485dd9d3c498a54d925c4fc1", "fusion_lat": 0.0, "is_disabled": 0, "rental_uris": {"ios": "https://dc.lft.to/lastmile_qr_scan", "android": "https://dc.lft.to/lastmile_qr_scan"}}, {"name": "0edeac240b060e57d9b3af846425ce77", "lon": -76.9926335, "lat": 38.862471, "type": "electric_scooter", "fusion_lon": 0.0, "is_reserved": 0, "bike_id": "0edeac240b060e57d9b3af846425ce77", "fusion_lat": 0.0, "is_disabled": 0, "rental_uris": {"ios": "https://dc.lft.to/lastmile_qr_scan", "android": "https://dc.lft.to/lastmile_qr_scan"}}, {"name": "296f0318edb9e288498804c4492b3991", "lon": -77.02807433333334, "lat": 38.92370433333333, "type": "electric_scooter", "fusion_lon": 0.0, "is_reserved": 0, "bike_id": "296f0318edb9e288498804c4492b3991", "fusion_lat": 0.0, "is_disabled": 0, "rental_uris": {"ios": "https://dc.lft.to/lastmile_qr_scan", "android": "https://dc.lft.to/lastmile_qr_scan"}}, {"name": "754cd08d33dac79d9f215ad1ad1cd04b", "lon": -76.8953415, "lat": 38.94549083333333, "type": "electric_bike", "fusion_lon": 0.0, "is_reserved": 0, "bike_id": "754cd08d33dac79d9f215ad1ad1cd04b", "fusion_lat": 0.0, "is_disabled": 0, "rental_uris": {"ios": "https://dc.lft.to/lastmile_qr_scan", "android": "https://dc.lft.to/lastmile_qr_scan"}}, {"name": "cd403e9393f05bd02b299ab1ea39712d", "lon": -77.03255916666667, "lat": 38.93975616666667, "type": "electric_scooter", "fusion_lon": 0.0, "is_reserved": 0, "bike_id": "cd403e9393f05bd02b299ab1ea39712d", "fusion_lat": 0.0, "is_disabled": 0, "rental_uris": {"ios": "https://dc.lft.to/lastmile_qr_scan", "android": "https://dc.lft.to/lastmile_qr_scan"}}, {"name": "4c09712ca9dfea5f9c5747cf54f66949", "lon": -77.02398433333333, "lat": 38.9162775, "type": "electric_scooter", "fusion_lon": 0.0, "is_reserved": 0, "bike_id": "4c09712ca9dfea5f9c5747cf54f66949", "fusion_lat": 0.0, "is_disabled": 0, "rental_uris": {"ios": "https://dc.lft.to/lastmile_qr_scan", "android": "https://dc.lft.to/lastmile_qr_scan"}}, {"name": "ea0c4808713c46aee7addfa6d9ec66d4", "lon": -77.04490883333334, "lat": 38.901415166666666, "type": "electric_scooter", "fusion_lon": 0.0, "is_reserved": 0, "bike_id": "ea0c4808713c46aee7addfa6d9ec66d4", "fusion_lat": 0.0, "is_disabled": 0, "rental_uris": {"ios": "https://dc.lft.to/lastmile_qr_scan", "android": "https://dc.lft.to/lastmile_qr_scan"}}, {"name": "fc6729bf44cd6890109d58ef1001f1d5", "lon": -77.022993, "lat": 38.91848016666667, "type": "electric_scooter", "fusion_lon": 0.0, "is_reserved": 0, "bike_id": "fc6729bf44cd6890109d58ef1001f1d5", "fusion_lat": 0.0, "is_disabled": 0, "rental_uris": {"ios": "https://dc.lft.to/lastmile_qr_scan", "android": "https://dc.lft.to/lastmile_qr_scan"}}, {"name": "538b7681f9d971448dfc2e07621809f8", "lon": -77.033392, "lat": 38.89832216666667, "type": "electric_scooter", "fusion_lon": 0.0, "is_reserved": 0, "bike_id": "538b7681f9d971448dfc2e07621809f8", "fusion_lat": 0.0, "is_disabled": 0, "rental_uris": {"ios": "https://dc.lft.to/lastmile_qr_scan", "android": "https://dc.lft.to/lastmile_qr_scan"}}, {"name": "1cd7fbef2e656f0c88f07abc2badd90e", "lon": -77.01660016666666, "lat": 38.88111, "type": "electric_scooter", "fusion_lon": 0.0, "is_reserved": 0, "bike_id": "1cd7fbef2e656f0c88f07abc2badd90e", "fusion_lat": 0.0, "is_disabled": 0, "rental_uris": {"ios": "https://dc.lft.to/lastmile_qr_scan", "android": "https://dc.lft.to/lastmile_qr_scan"}}, {"name": "baeb4065d6ebe6ed7693ab09b8362bf5", "lon": -77.04313733333333, "lat": 38.9288605, "type": "electric_bike", "fusion_lon": 0.0, "is_reserved": 0, "bike_id": "baeb4065d6ebe6ed7693ab09b8362bf5", "fusion_lat": 0.0, "is_disabled": 0, "rental_uris": {"ios": "https://dc.lft.to/lastmile_qr_scan", "android": "https://dc.lft.to/lastmile_qr_scan"}}, {"name": "6016fd830a319c9d9bce807027187d27", "lon": -77.0058665, "lat": 38.876526, "type": "electric_scooter", "fusion_lon": 0.0, "is_reserved": 0, "bike_id": "6016fd830a319c9d9bce807027187d27", "fusion_lat": 0.0, "is_disabled": 0, "rental_uris": {"ios": "https://dc.lft.to/lastmile_qr_scan", "android": "https://dc.lft.to/lastmile_qr_scan"}}, {"name": "ce6c919aa7d15528eaac7b3b615c389a", "lon": -76.9843625, "lat": 38.85522133333333, "type": "electric_bike", "fusion_lon": 0.0, "is_reserved": 0, "bike_id": "ce6c919aa7d15528eaac7b3b615c389a", "fusion_lat": 0.0, "is_disabled": 0, "rental_uris": {"ios": "https://dc.lft.to/lastmile_qr_scan", "android": "https://dc.lft.to/lastmile_qr_scan"}}, {"name": "9fc419600b6915bb896291fb09d2f23b", "lon": -77.034733, "lat": 38.902756, "type": "electric_scooter", "fusion_lon": 0.0, "is_reserved": 0, "bike_id": "9fc419600b6915bb896291fb09d2f23b", "fusion_lat": 0.0, "is_disabled": 0, "rental_uris": {"ios": "https://dc.lft.to/lastmile_qr_scan", "android": "https://dc.lft.to/lastmile_qr_scan"}}, {"name": "b9ca1a8b7e9c94866692e0fed3d6eb64", "lon": -76.93734983333333, "lat": 38.89018683333333, "type": "electric_scooter", "fusion_lon": 0.0, "is_reserved": 0, "bike_id": "b9ca1a8b7e9c94866692e0fed3d6eb64", "fusion_lat": 0.0, "is_disabled": 0, "rental_uris": {"ios": "https://dc.lft.to/lastmile_qr_scan", "android": "https://dc.lft.to/lastmile_qr_scan"}}, {"name": "75bbb124af0bb564e751d58609477b3c", "lon": -77.04641233333334, "lat": 38.919445833333334, "type": "electric_scooter", "fusion_lon": 0.0, "is_reserved": 0, "bike_id": "75bbb124af0bb564e751d58609477b3c", "fusion_lat": 0.0, "is_disabled": 0, "rental_uris": {"ios": "https://dc.lft.to/lastmile_qr_scan", "android": "https://dc.lft.to/lastmile_qr_scan"}}, {"name": "92a3f0f66cd687926a68ec3d43f0ff5e", "lon": -77.06329966666667, "lat": 38.944232166666666, "type": "electric_scooter", "fusion_lon": 0.0, "is_reserved": 0, "bike_id": "92a3f0f66cd687926a68ec3d43f0ff5e", "fusion_lat": 0.0, "is_disabled": 0, "rental_uris": {"ios": "https://dc.lft.to/lastmile_qr_scan", "android": "https://dc.lft.to/lastmile_qr_scan"}}, {"name": "f62eee42b1eef4f7208bc9589ddb93ee", "lon": -77.05739166666666, "lat": 38.9339245, "type": "electric_scooter", "fusion_lon": 0.0, "is_reserved": 0, "bike_id": "f62eee42b1eef4f7208bc9589ddb93ee", "fusion_lat": 0.0, "is_disabled": 0, "rental_uris": {"ios": "https://dc.lft.to/lastmile_qr_scan", "android": "https://dc.lft.to/lastmile_qr_scan"}}, {"name": "3eb320cb86b144b5a953a5c96024ed93", "lon": -76.97238983333334, "lat": 38.9490785, "type": "electric_bike", "fusion_lon": 0.0, "is_reserved": 0, "bike_id": "3eb320cb86b144b5a953a5c96024ed93", "fusion_lat": 0.0, "is_disabled": 0, "rental_uris": {"ios": "https://dc.lft.to/lastmile_qr_scan", "android": "https://dc.lft.to/lastmile_qr_scan"}}, {"name": "97a024d1defc69411ff1ee48ccd8f8ca", "lon": -77.006732, "lat": 38.900250666666665, "type": "electric_scooter", "fusion_lon": 0.0, "is_reserved": 0, "bike_id": "97a024d1defc69411ff1ee48ccd8f8ca", "fusion_lat": 0.0, "is_disabled": 0, "rental_uris": {"ios": "https://dc.lft.to/lastmile_qr_scan", "android": "https://dc.lft.to/lastmile_qr_scan"}}, {"name": "5b37cce3d50d759b9cb28062d06dc696", "lon": -77.02211616666666, "lat": 38.886462333333334, "type": "electric_scooter", "fusion_lon": 0.0, "is_reserved": 0, "bike_id": "5b37cce3d50d759b9cb28062d06dc696", "fusion_lat": 0.0, "is_disabled": 0, "rental_uris": {"ios": "https://dc.lft.to/lastmile_qr_scan", "android": "https://dc.lft.to/lastmile_qr_scan"}}, {"name": "bc3ead36f8689eaa08d7aa2ea2491e4b", "lon": -77.08587766666666, "lat": 38.844415166666664, "type": "electric_bike", "fusion_lon": 0.0, "is_reserved": 0, "bike_id": "bc3ead36f8689eaa08d7aa2ea2491e4b", "fusion_lat": 0.0, "is_disabled": 0, "rental_uris": {"ios": "https://dc.lft.to/lastmile_qr_scan", "android": "https://dc.lft.to/lastmile_qr_scan"}}, {"name": "26c21cbb7549ac1153a234b59f91d8ba", "lon": -77.03844233333334, "lat": 38.9028085, "type": "electric_scooter", "fusion_lon": 0.0, "is_reserved": 0, "bike_id": "26c21cbb7549ac1153a234b59f91d8ba", "fusion_lat": 0.0, "is_disabled": 0, "rental_uris": {"ios": "https://dc.lft.to/lastmile_qr_scan", "android": "https://dc.lft.to/lastmile_qr_scan"}}, {"name": "c8eddd7550dd31079309c4ee9eb5208b", "lon": -76.98493416666666, "lat": 38.9151405, "type": "electric_scooter", "fusion_lon": 0.0, "is_reserved": 0, "bike_id": "c8eddd7550dd31079309c4ee9eb5208b", "fusion_lat": 0.0, "is_disabled": 0, "rental_uris": {"ios": "https://dc.lft.to/lastmile_qr_scan", "android": "https://dc.lft.to/lastmile_qr_scan"}}, {"name": "3edc4dbc26c7d5291ac684aa79cdbb45", "lon": -76.993299, "lat": 38.924420166666664, "type": "electric_scooter", "fusion_lon": 0.0, "is_reserved": 0, "bike_id": "3edc4dbc26c7d5291ac684aa79cdbb45", "fusion_lat": 0.0, "is_disabled": 0, "rental_uris": {"ios": "https://dc.lft.to/lastmile_qr_scan", "android": "https://dc.lft.to/lastmile_qr_scan"}}, {"name": "27a6b1692df1a86ff7e49ab1248aea76", "lon": -77.0430605, "lat": 38.923348833333336, "type": "electric_scooter", "fusion_lon": 0.0, "is_reserved": 0, "bike_id": "27a6b1692df1a86ff7e49ab1248aea76", "fusion_lat": 0.0, "is_disabled": 0, "rental_uris": {"ios": "https://dc.lft.to/lastmile_qr_scan", "android": "https://dc.lft.to/lastmile_qr_scan"}}, {"name": "675f0f7a02b5056d2f594223823c57a4", "lon": -77.04331633333334, "lat": 38.90309416666667, "type": "electric_scooter", "fusion_lon": 0.0, "is_reserved": 0, "bike_id": "675f0f7a02b5056d2f594223823c57a4", "fusion_lat": 0.0, "is_disabled": 0, "rental_uris": {"ios": "https://dc.lft.to/lastmile_qr_scan", "android": "https://dc.lft.to/lastmile_qr_scan"}}, {"name": "ae869005d1c1a2b9dda775c98a57f4c6", "lon": -77.03895066666666, "lat": 38.922532833333335, "type": "electric_scooter", "fusion_lon": 0.0, "is_reserved": 0, "bike_id": "ae869005d1c1a2b9dda775c98a57f4c6", "fusion_lat": 0.0, "is_disabled": 0, "rental_uris": {"ios": "https://dc.lft.to/lastmile_qr_scan", "android": "https://dc.lft.to/lastmile_qr_scan"}}, {"name": "e9142dcc61f6798c4733e2ae25fbb75e", "lon": -77.02732166666667, "lat": 38.927726666666665, "type": "electric_scooter", "fusion_lon": 0.0, "is_reserved": 0, "bike_id": "e9142dcc61f6798c4733e2ae25fbb75e", "fusion_lat": 0.0, "is_disabled": 0, "rental_uris": {"ios": "https://dc.lft.to/lastmile_qr_scan", "android": "https://dc.lft.to/lastmile_qr_scan"}}, {"name": "9faa4c95ee99e2c002dc66d7146a29d9", "lon": -77.02440816666666, "lat": 38.937531, "type": "electric_scooter", "fusion_lon": 0.0, "is_reserved": 0, "bike_id": "9faa4c95ee99e2c002dc66d7146a29d9", "fusion_lat": 0.0, "is_disabled": 0, "rental_uris": {"ios": "https://dc.lft.to/lastmile_qr_scan", "android": "https://dc.lft.to/lastmile_qr_scan"}}, {"name": "293f10bd6f0c6da2e17fdf6c407e1b1e", "lon": -76.96466966666667, "lat": 38.934488333333334, "type": "electric_scooter", "fusion_lon": 0.0, "is_reserved": 0, "bike_id": "293f10bd6f0c6da2e17fdf6c407e1b1e", "fusion_lat": 0.0, "is_disabled": 0, "rental_uris": {"ios": "https://dc.lft.to/lastmile_qr_scan", "android": "https://dc.lft.to/lastmile_qr_scan"}}, {"name": "547ab6c5b90a77a644c733d8ac5af2f7", "lon": -77.02593633333333, "lat": 38.916962, "type": "electric_scooter", "fusion_lon": 0.0, "is_reserved": 0, "bike_id": "547ab6c5b90a77a644c733d8ac5af2f7", "fusion_lat": 0.0, "is_disabled": 0, "rental_uris": {"ios": "https://dc.lft.to/lastmile_qr_scan", "android": "https://dc.lft.to/lastmile_qr_scan"}}, {"name": "ab643714f51b43490b3384fc490c56d0", "lon": -77.072703, "lat": 38.93484566666667, "type": "electric_scooter", "fusion_lon": 0.0, "is_reserved": 0, "bike_id": "ab643714f51b43490b3384fc490c56d0", "fusion_lat": 0.0, "is_disabled": 0, "rental_uris": {"ios": "https://dc.lft.to/lastmile_qr_scan", "android": "https://dc.lft.to/lastmile_qr_scan"}}, {"name": "e99f69f7cdf8d07cee5f032aeac696d7", "lon": -77.003739, "lat": 38.907696333333334, "type": "electric_scooter", "fusion_lon": 0.0, "is_reserved": 0, "bike_id": "e99f69f7cdf8d07cee5f032aeac696d7", "fusion_lat": 0.0, "is_disabled": 0, "rental_uris": {"ios": "https://dc.lft.to/lastmile_qr_scan", "android": "https://dc.lft.to/lastmile_qr_scan"}}, {"name": "bbca924a10e45316f7b37533cb251b4f", "lon": -77.0443735, "lat": 38.90895066666667, "type": "electric_scooter", "fusion_lon": 0.0, "is_reserved": 0, "bike_id": "bbca924a10e45316f7b37533cb251b4f", "fusion_lat": 0.0, "is_disabled": 0, "rental_uris": {"ios": "https://dc.lft.to/lastmile_qr_scan", "android": "https://dc.lft.to/lastmile_qr_scan"}}, {"name": "6728088e646f8ea5990b320dd6a5267f", "lon": -77.0254045, "lat": 38.9526955, "type": "electric_scooter", "fusion_lon": 0.0, "is_reserved": 0, "bike_id": "6728088e646f8ea5990b320dd6a5267f", "fusion_lat": 0.0, "is_disabled": 0, "rental_uris": {"ios": "https://dc.lft.to/lastmile_qr_scan", "android": "https://dc.lft.to/lastmile_qr_scan"}}, {"name": "67bc620b9f72e97006ce8dc787cfb6a8", "lon": -77.03641566666667, "lat": 38.903896333333336, "type": "electric_scooter", "fusion_lon": 0.0, "is_reserved": 0, "bike_id": "67bc620b9f72e97006ce8dc787cfb6a8", "fusion_lat": 0.0, "is_disabled": 0, "rental_uris": {"ios": "https://dc.lft.to/lastmile_qr_scan", "android": "https://dc.lft.to/lastmile_qr_scan"}}, {"name": "910e7dba112312ee5a2b6ad49bf5d183", "lon": -77.028846, "lat": 38.913322, "type": "electric_scooter", "fusion_lon": 0.0, "is_reserved": 0, "bike_id": "910e7dba112312ee5a2b6ad49bf5d183", "fusion_lat": 0.0, "is_disabled": 0, "rental_uris": {"ios": "https://dc.lft.to/lastmile_qr_scan", "android": "https://dc.lft.to/lastmile_qr_scan"}}, {"name": "9fba3ba173f2f4e23efb84219dfdb897", "lon": -77.03379233333334, "lat": 38.910459333333336, "type": "electric_scooter", "fusion_lon": 0.0, "is_reserved": 0, "bike_id": "9fba3ba173f2f4e23efb84219dfdb897", "fusion_lat": 0.0, "is_disabled": 0, "rental_uris": {"ios": "https://dc.lft.to/lastmile_qr_scan", "android": "https://dc.lft.to/lastmile_qr_scan"}}, {"name": "2309c905f962ebaf5c96ea26005be28a", "lon": -77.0511905, "lat": 38.923487333333334, "type": "electric_scooter", "fusion_lon": 0.0, "is_reserved": 0, "bike_id": "2309c905f962ebaf5c96ea26005be28a", "fusion_lat": 0.0, "is_disabled": 0, "rental_uris": {"ios": "https://dc.lft.to/lastmile_qr_scan", "android": "https://dc.lft.to/lastmile_qr_scan"}}, {"name": "e3ea1508682dc6afc357b5c2fae72388", "lon": -77.085912, "lat": 38.90874816666667, "type": "electric_scooter", "fusion_lon": 0.0, "is_reserved": 0, "bike_id": "e3ea1508682dc6afc357b5c2fae72388", "fusion_lat": 0.0, "is_disabled": 0, "rental_uris": {"ios": "https://dc.lft.to/lastmile_qr_scan", "android": "https://dc.lft.to/lastmile_qr_scan"}}, {"name": "405013778ba8d71fdc284ac6323c2a67", "lon": -77.03102683333333, "lat": 38.993861, "type": "electric_scooter", "fusion_lon": 0.0, "is_reserved": 0, "bike_id": "405013778ba8d71fdc284ac6323c2a67", "fusion_lat": 0.0, "is_disabled": 0, "rental_uris": {"ios": "https://dc.lft.to/lastmile_qr_scan", "android": "https://dc.lft.to/lastmile_qr_scan"}}, {"name": "9a88cd6af69d913b3f0348b667dffb71", "lon": -77.01810383333333, "lat": 38.893155666666665, "type": "electric_scooter", "fusion_lon": 0.0, "is_reserved": 0, "bike_id": "9a88cd6af69d913b3f0348b667dffb71", "fusion_lat": 0.0, "is_disabled": 0, "rental_uris": {"ios": "https://dc.lft.to/lastmile_qr_scan", "android": "https://dc.lft.to/lastmile_qr_scan"}}, {"name": "e95992ce67d555721826e072ba9dbe6f", "lon": -76.99946966666667, "lat": 38.842917666666665, "type": "electric_scooter", "fusion_lon": 0.0, "is_reserved": 0, "bike_id": "e95992ce67d555721826e072ba9dbe6f", "fusion_lat": 0.0, "is_disabled": 0, "rental_uris": {"ios": "https://dc.lft.to/lastmile_qr_scan", "android": "https://dc.lft.to/lastmile_qr_scan"}}, {"name": "942756d8827ad9c707d3453c2b1cdbad", "lon": -77.04335616666667, "lat": 38.895274, "type": "electric_scooter", "fusion_lon": 0.0, "is_reserved": 0, "bike_id": "942756d8827ad9c707d3453c2b1cdbad", "fusion_lat": 0.0, "is_disabled": 0, "rental_uris": {"ios": "https://dc.lft.to/lastmile_qr_scan", "android": "https://dc.lft.to/lastmile_qr_scan"}}, {"name": "48495341e2dcb8b6bb3906dbc4a6cbe0", "lon": -76.95017333333334, "lat": 38.893898666666665, "type": "electric_scooter", "fusion_lon": 0.0, "is_reserved": 0, "bike_id": "48495341e2dcb8b6bb3906dbc4a6cbe0", "fusion_lat": 0.0, "is_disabled": 0, "rental_uris": {"ios": "https://dc.lft.to/lastmile_qr_scan", "android": "https://dc.lft.to/lastmile_qr_scan"}}, {"name": "5b3313a1008b314f0c45d5d186392f46", "lon": -77.03352933333333, "lat": 38.88622466666666, "type": "electric_scooter", "fusion_lon": 0.0, "is_reserved": 0, "bike_id": "5b3313a1008b314f0c45d5d186392f46", "fusion_lat": 0.0, "is_disabled": 0, "rental_uris": {"ios": "https://dc.lft.to/lastmile_qr_scan", "android": "https://dc.lft.to/lastmile_qr_scan"}}, {"name": "6be00f164e0efc925d730de42033868b", "lon": -76.99032216666667, "lat": 38.89857266666667, "type": "electric_scooter", "fusion_lon": 0.0, "is_reserved": 0, "bike_id": "6be00f164e0efc925d730de42033868b", "fusion_lat": 0.0, "is_disabled": 0, "rental_uris": {"ios": "https://dc.lft.to/lastmile_qr_scan", "android": "https://dc.lft.to/lastmile_qr_scan"}}, {"name": "065a4640fddbbaa51db035f1b6753616", "lon": -77.03814766666666, "lat": 38.906850166666665, "type": "electric_scooter", "fusion_lon": 0.0, "is_reserved": 0, "bike_id": "065a4640fddbbaa51db035f1b6753616", "fusion_lat": 0.0, "is_disabled": 0, "rental_uris": {"ios": "https://dc.lft.to/lastmile_qr_scan", "android": "https://dc.lft.to/lastmile_qr_scan"}}, {"name": "0f059a473be2ca3a0e05dd5b5df8b060", "lon": -76.90705, "lat": 38.8959955, "type": "electric_bike", "fusion_lon": 0.0, "is_reserved": 0, "bike_id": "0f059a473be2ca3a0e05dd5b5df8b060", "fusion_lat": 0.0, "is_disabled": 0, "rental_uris": {"ios": "https://dc.lft.to/lastmile_qr_scan", "android": "https://dc.lft.to/lastmile_qr_scan"}}, {"name": "04ae70fb32548e2beb948c5148465f82", "lon": -76.99816533333333, "lat": 38.8443255, "type": "electric_scooter", "fusion_lon": 0.0, "is_reserved": 0, "bike_id": "04ae70fb32548e2beb948c5148465f82", "fusion_lat": 0.0, "is_disabled": 0, "rental_uris": {"ios": "https://dc.lft.to/lastmile_qr_scan", "android": "https://dc.lft.to/lastmile_qr_scan"}}, {"name": "c591b8d9c2e8b7b73e809dd6a33125fc", "lon": -77.043336, "lat": 38.90769566666667, "type": "electric_scooter", "fusion_lon": 0.0, "is_reserved": 0, "bike_id": "c591b8d9c2e8b7b73e809dd6a33125fc", "fusion_lat": 0.0, "is_disabled": 0, "rental_uris": {"ios": "https://dc.lft.to/lastmile_qr_scan", "android": "https://dc.lft.to/lastmile_qr_scan"}}, {"name": "2d1149cae9562e7cadd6c9db9b265cbc", "lon": -77.0198575, "lat": 38.922714, "type": "electric_bike", "fusion_lon": 0.0, "is_reserved": 0, "bike_id": "2d1149cae9562e7cadd6c9db9b265cbc", "fusion_lat": 0.0, "is_disabled": 0, "rental_uris": {"ios": "https://dc.lft.to/lastmile_qr_scan", "android": "https://dc.lft.to/lastmile_qr_scan"}}, {"name": "e040cd135ebeb0a1616559688773a84c", "lon": -76.9974005, "lat": 38.900099, "type": "electric_scooter", "fusion_lon": 0.0, "is_reserved": 0, "bike_id": "e040cd135ebeb0a1616559688773a84c", "fusion_lat": 0.0, "is_disabled": 0, "rental_uris": {"ios": "https://dc.lft.to/lastmile_qr_scan", "android": "https://dc.lft.to/lastmile_qr_scan"}}, {"name": "e0bca9a6770965f075cb3f23b0985c4d", "lon": -77.05412983333333, "lat": 38.92790383333333, "type": "electric_scooter", "fusion_lon": 0.0, "is_reserved": 0, "bike_id": "e0bca9a6770965f075cb3f23b0985c4d", "fusion_lat": 0.0, "is_disabled": 0, "rental_uris": {"ios": "https://dc.lft.to/lastmile_qr_scan", "android": "https://dc.lft.to/lastmile_qr_scan"}}, {"name": "8970a69812c32accf2fd798a39b4073d", "lon": -77.03438483333333, "lat": 38.918048, "type": "electric_scooter", "fusion_lon": 0.0, "is_reserved": 0, "bike_id": "8970a69812c32accf2fd798a39b4073d", "fusion_lat": 0.0, "is_disabled": 0, "rental_uris": {"ios": "https://dc.lft.to/lastmile_qr_scan", "android": "https://dc.lft.to/lastmile_qr_scan"}}, {"name": "0eab8ae95955b19cb7919fa75f9901ff", "lon": -77.00202316666666, "lat": 38.90235783333333, "type": "electric_scooter", "fusion_lon": 0.0, "is_reserved": 0, "bike_id": "0eab8ae95955b19cb7919fa75f9901ff", "fusion_lat": 0.0, "is_disabled": 0, "rental_uris": {"ios": "https://dc.lft.to/lastmile_qr_scan", "android": "https://dc.lft.to/lastmile_qr_scan"}}, {"name": "e135048a0f4849931ecd8155e2cfdd61", "lon": -77.0458645, "lat": 38.90271033333333, "type": "electric_scooter", "fusion_lon": 0.0, "is_reserved": 0, "bike_id": "e135048a0f4849931ecd8155e2cfdd61", "fusion_lat": 0.0, "is_disabled": 0, "rental_uris": {"ios": "https://dc.lft.to/lastmile_qr_scan", "android": "https://dc.lft.to/lastmile_qr_scan"}}, {"name": "f6cee945604ebcd14700afea8f12c647", "lon": -76.98923916666666, "lat": 38.858123, "type": "electric_scooter", "fusion_lon": 0.0, "is_reserved": 0, "bike_id": "f6cee945604ebcd14700afea8f12c647", "fusion_lat": 0.0, "is_disabled": 0, "rental_uris": {"ios": "https://dc.lft.to/lastmile_qr_scan", "android": "https://dc.lft.to/lastmile_qr_scan"}}, {"name": "f3c801fca5ac97889da81c68240825a0", "lon": -77.00502116666667, "lat": 38.9169195, "type": "electric_scooter", "fusion_lon": 0.0, "is_reserved": 0, "bike_id": "f3c801fca5ac97889da81c68240825a0", "fusion_lat": 0.0, "is_disabled": 0, "rental_uris": {"ios": "https://dc.lft.to/lastmile_qr_scan", "android": "https://dc.lft.to/lastmile_qr_scan"}}, {"name": "de8e3e667b6c6f456f9fb02d835bb118", "lon": -77.0235165, "lat": 38.93533033333333, "type": "electric_scooter", "fusion_lon": 0.0, "is_reserved": 0, "bike_id": "de8e3e667b6c6f456f9fb02d835bb118", "fusion_lat": 0.0, "is_disabled": 0, "rental_uris": {"ios": "https://dc.lft.to/lastmile_qr_scan", "android": "https://dc.lft.to/lastmile_qr_scan"}}, {"name": "195e0a9879334c08238d336b1a976cd2", "lon": -77.04117983333333, "lat": 38.901399833333336, "type": "electric_scooter", "fusion_lon": 0.0, "is_reserved": 0, "bike_id": "195e0a9879334c08238d336b1a976cd2", "fusion_lat": 0.0, "is_disabled": 0, "rental_uris": {"ios": "https://dc.lft.to/lastmile_qr_scan", "android": "https://dc.lft.to/lastmile_qr_scan"}}, {"name": "a9dbaee97f00a65b1a625336c052badb", "lon": -77.02690766666667, "lat": 38.9024245, "type": "electric_scooter", "fusion_lon": 0.0, "is_reserved": 0, "bike_id": "a9dbaee97f00a65b1a625336c052badb", "fusion_lat": 0.0, "is_disabled": 0, "rental_uris": {"ios": "https://dc.lft.to/lastmile_qr_scan", "android": "https://dc.lft.to/lastmile_qr_scan"}}, {"name": "e856cc45a8a7af295a0d4fd7148a190e", "lon": -77.0371775, "lat": 38.91696733333333, "type": "electric_scooter", "fusion_lon": 0.0, "is_reserved": 0, "bike_id": "e856cc45a8a7af295a0d4fd7148a190e", "fusion_lat": 0.0, "is_disabled": 0, "rental_uris": {"ios": "https://dc.lft.to/lastmile_qr_scan", "android": "https://dc.lft.to/lastmile_qr_scan"}}, {"name": "22b45fa0af63c65b49b961b1fc42b277", "lon": -77.04172083333333, "lat": 38.905288, "type": "electric_scooter", "fusion_lon": 0.0, "is_reserved": 0, "bike_id": "22b45fa0af63c65b49b961b1fc42b277", "fusion_lat": 0.0, "is_disabled": 0, "rental_uris": {"ios": "https://dc.lft.to/lastmile_qr_scan", "android": "https://dc.lft.to/lastmile_qr_scan"}}, {"name": "e1e8958b185d650ccdeb3928015cc830", "lon": -77.04654016666667, "lat": 38.90022166666667, "type": "electric_scooter", "fusion_lon": 0.0, "is_reserved": 0, "bike_id": "e1e8958b185d650ccdeb3928015cc830", "fusion_lat": 0.0, "is_disabled": 0, "rental_uris": {"ios": "https://dc.lft.to/lastmile_qr_scan", "android": "https://dc.lft.to/lastmile_qr_scan"}}, {"name": "9b25ad34509a3fffd0558a9fc3f48464", "lon": -76.97585816666667, "lat": 38.840353, "type": "electric_bike", "fusion_lon": 0.0, "is_reserved": 0, "bike_id": "9b25ad34509a3fffd0558a9fc3f48464", "fusion_lat": 0.0, "is_disabled": 0, "rental_uris": {"ios": "https://dc.lft.to/lastmile_qr_scan", "android": "https://dc.lft.to/lastmile_qr_scan"}}, {"name": "8b05a18d98b861f6dfe2d114b79aad3d", "lon": -77.02946216666666, "lat": 38.90140733333333, "type": "electric_scooter", "fusion_lon": 0.0, "is_reserved": 0, "bike_id": "8b05a18d98b861f6dfe2d114b79aad3d", "fusion_lat": 0.0, "is_disabled": 0, "rental_uris": {"ios": "https://dc.lft.to/lastmile_qr_scan", "android": "https://dc.lft.to/lastmile_qr_scan"}}, {"name": "ec255a91d3f7113a63fc48a6a6805558", "lon": -77.03314166666667, "lat": 38.93037666666667, "type": "electric_scooter", "fusion_lon": 0.0, "is_reserved": 0, "bike_id": "ec255a91d3f7113a63fc48a6a6805558", "fusion_lat": 0.0, "is_disabled": 0, "rental_uris": {"ios": "https://dc.lft.to/lastmile_qr_scan", "android": "https://dc.lft.to/lastmile_qr_scan"}}, {"name": "ea6ff83eb4b185265bada4500a6e97c0", "lon": -77.04604733333333, "lat": 38.91694016666667, "type": "electric_scooter", "fusion_lon": 0.0, "is_reserved": 0, "bike_id": "ea6ff83eb4b185265bada4500a6e97c0", "fusion_lat": 0.0, "is_disabled": 0, "rental_uris": {"ios": "https://dc.lft.to/lastmile_qr_scan", "android": "https://dc.lft.to/lastmile_qr_scan"}}, {"name": "1daa2ed5c267ba16b088a88f6ad1f348", "lon": -77.01105416666667, "lat": 38.90363116666666, "type": "electric_scooter", "fusion_lon": 0.0, "is_reserved": 0, "bike_id": "1daa2ed5c267ba16b088a88f6ad1f348", "fusion_lat": 0.0, "is_disabled": 0, "rental_uris": {"ios": "https://dc.lft.to/lastmile_qr_scan", "android": "https://dc.lft.to/lastmile_qr_scan"}}, {"name": "df1b271b02482a4e21edd17e17156ec5", "lon": -77.092538, "lat": 38.9415425, "type": "electric_scooter", "fusion_lon": 0.0, "is_reserved": 0, "bike_id": "df1b271b02482a4e21edd17e17156ec5", "fusion_lat": 0.0, "is_disabled": 0, "rental_uris": {"ios": "https://dc.lft.to/lastmile_qr_scan", "android": "https://dc.lft.to/lastmile_qr_scan"}}, {"name": "c4b69966f9863e82f26dc49a3bd51639", "lon": -77.032643, "lat": 38.91618183333333, "type": "electric_scooter", "fusion_lon": 0.0, "is_reserved": 0, "bike_id": "c4b69966f9863e82f26dc49a3bd51639", "fusion_lat": 0.0, "is_disabled": 0, "rental_uris": {"ios": "https://dc.lft.to/lastmile_qr_scan", "android": "https://dc.lft.to/lastmile_qr_scan"}}, {"name": "944e3a535c9052e8ceabec40e5c90ef4", "lon": -77.04003516666667, "lat": 38.88870466666667, "type": "electric_scooter", "fusion_lon": 0.0, "is_reserved": 0, "bike_id": "944e3a535c9052e8ceabec40e5c90ef4", "fusion_lat": 0.0, "is_disabled": 0, "rental_uris": {"ios": "https://dc.lft.to/lastmile_qr_scan", "android": "https://dc.lft.to/lastmile_qr_scan"}}, {"name": "be702428ab80f65b808e2616f06254d9", "lon": -77.03465016666667, "lat": 38.90568183333333, "type": "electric_scooter", "fusion_lon": 0.0, "is_reserved": 0, "bike_id": "be702428ab80f65b808e2616f06254d9", "fusion_lat": 0.0, "is_disabled": 0, "rental_uris": {"ios": "https://dc.lft.to/lastmile_qr_scan", "android": "https://dc.lft.to/lastmile_qr_scan"}}, {"name": "e3b1d97e7bee4980a1649236f1322306", "lon": -76.99835683333333, "lat": 38.883262333333334, "type": "electric_scooter", "fusion_lon": 0.0, "is_reserved": 0, "bike_id": "e3b1d97e7bee4980a1649236f1322306", "fusion_lat": 0.0, "is_disabled": 0, "rental_uris": {"ios": "https://dc.lft.to/lastmile_qr_scan", "android": "https://dc.lft.to/lastmile_qr_scan"}}, {"name": "0268791f85332aa2e035a1de861ab831", "lon": -77.04879283333334, "lat": 38.902949, "type": "electric_scooter", "fusion_lon": 0.0, "is_reserved": 0, "bike_id": "0268791f85332aa2e035a1de861ab831", "fusion_lat": 0.0, "is_disabled": 0, "rental_uris": {"ios": "https://dc.lft.to/lastmile_qr_scan", "android": "https://dc.lft.to/lastmile_qr_scan"}}, {"name": "2a528102b8bb4bda8392692e9acf00f0", "lon": -77.0269215, "lat": 38.899520833333334, "type": "electric_scooter", "fusion_lon": 0.0, "is_reserved": 0, "bike_id": "2a528102b8bb4bda8392692e9acf00f0", "fusion_lat": 0.0, "is_disabled": 0, "rental_uris": {"ios": "https://dc.lft.to/lastmile_qr_scan", "android": "https://dc.lft.to/lastmile_qr_scan"}}, {"name": "206b1e8e445abba6fe45a4267c31ddba", "lon": -77.0306575, "lat": 38.92727566666667, "type": "electric_scooter", "fusion_lon": 0.0, "is_reserved": 0, "bike_id": "206b1e8e445abba6fe45a4267c31ddba", "fusion_lat": 0.0, "is_disabled": 0, "rental_uris": {"ios": "https://dc.lft.to/lastmile_qr_scan", "android": "https://dc.lft.to/lastmile_qr_scan"}}, {"name": "ce8db392df637a09a3dce8884f63c286", "lon": -77.03182633333333, "lat": 38.9178025, "type": "electric_scooter", "fusion_lon": 0.0, "is_reserved": 0, "bike_id": "ce8db392df637a09a3dce8884f63c286", "fusion_lat": 0.0, "is_disabled": 0, "rental_uris": {"ios": "https://dc.lft.to/lastmile_qr_scan", "android": "https://dc.lft.to/lastmile_qr_scan"}}, {"name": "cdaf5a53c59826d7a222cfa045e7266b", "lon": -76.99352966666666, "lat": 38.845080833333334, "type": "electric_bike", "fusion_lon": 0.0, "is_reserved": 0, "bike_id": "cdaf5a53c59826d7a222cfa045e7266b", "fusion_lat": 0.0, "is_disabled": 0, "rental_uris": {"ios": "https://dc.lft.to/lastmile_qr_scan", "android": "https://dc.lft.to/lastmile_qr_scan"}}, {"name": "1e7832be7afe768f3fa1e54e0a20c400", "lon": -77.049969, "lat": 38.901213166666665, "type": "electric_scooter", "fusion_lon": 0.0, "is_reserved": 0, "bike_id": "1e7832be7afe768f3fa1e54e0a20c400", "fusion_lat": 0.0, "is_disabled": 0, "rental_uris": {"ios": "https://dc.lft.to/lastmile_qr_scan", "android": "https://dc.lft.to/lastmile_qr_scan"}}, {"name": "596956a4db5ec0b6c83178e8489a64d0", "lon": -77.03368766666667, "lat": 38.920468, "type": "electric_scooter", "fusion_lon": 0.0, "is_reserved": 0, "bike_id": "596956a4db5ec0b6c83178e8489a64d0", "fusion_lat": 0.0, "is_disabled": 0, "rental_uris": {"ios": "https://dc.lft.to/lastmile_qr_scan", "android": "https://dc.lft.to/lastmile_qr_scan"}}, {"name": "17686440735b4ba66d44b4e916a1a4a5", "lon": -77.0012645, "lat": 38.87797666666667, "type": "electric_scooter", "fusion_lon": 0.0, "is_reserved": 0, "bike_id": "17686440735b4ba66d44b4e916a1a4a5", "fusion_lat": 0.0, "is_disabled": 0, "rental_uris": {"ios": "https://dc.lft.to/lastmile_qr_scan", "android": "https://dc.lft.to/lastmile_qr_scan"}}, {"name": "a3d34aafb35bb1fb44f35607cae9ab3a", "lon": -77.03007766666667, "lat": 38.99152333333333, "type": "electric_bike", "fusion_lon": 0.0, "is_reserved": 0, "bike_id": "a3d34aafb35bb1fb44f35607cae9ab3a", "fusion_lat": 0.0, "is_disabled": 0, "rental_uris": {"ios": "https://dc.lft.to/lastmile_qr_scan", "android": "https://dc.lft.to/lastmile_qr_scan"}}, {"name": "71f733174ec5307bd371df583ea3eb11", "lon": -76.93735666666667, "lat": 38.89019533333333, "type": "electric_scooter", "fusion_lon": 0.0, "is_reserved": 0, "bike_id": "71f733174ec5307bd371df583ea3eb11", "fusion_lat": 0.0, "is_disabled": 0, "rental_uris": {"ios": "https://dc.lft.to/lastmile_qr_scan", "android": "https://dc.lft.to/lastmile_qr_scan"}}, {"name": "2eba659fcd83bbca542d740d69cee4b5", "lon": -77.02839366666667, "lat": 38.926438166666664, "type": "electric_bike", "fusion_lon": 0.0, "is_reserved": 0, "bike_id": "2eba659fcd83bbca542d740d69cee4b5", "fusion_lat": 0.0, "is_disabled": 0, "rental_uris": {"ios": "https://dc.lft.to/lastmile_qr_scan", "android": "https://dc.lft.to/lastmile_qr_scan"}}, {"name": "fdb875389f909de680ccbd67dbeadae4", "lon": -76.94381783333333, "lat": 38.89330283333334, "type": "electric_scooter", "fusion_lon": 0.0, "is_reserved": 0, "bike_id": "fdb875389f909de680ccbd67dbeadae4", "fusion_lat": 0.0, "is_disabled": 0, "rental_uris": {"ios": "https://dc.lft.to/lastmile_qr_scan", "android": "https://dc.lft.to/lastmile_qr_scan"}}, {"name": "010ac62196894d941ec0f8e84904bb31", "lon": -76.94959033333333, "lat": 38.8944185, "type": "electric_scooter", "fusion_lon": 0.0, "is_reserved": 0, "bike_id": "010ac62196894d941ec0f8e84904bb31", "fusion_lat": 0.0, "is_disabled": 0, "rental_uris": {"ios": "https://dc.lft.to/lastmile_qr_scan", "android": "https://dc.lft.to/lastmile_qr_scan"}}, {"name": "9373c646adf3a5ff8311fe3aa68ff1d4", "lon": -76.978251, "lat": 38.843727333333334, "type": "electric_bike", "fusion_lon": 0.0, "is_reserved": 0, "bike_id": "9373c646adf3a5ff8311fe3aa68ff1d4", "fusion_lat": 0.0, "is_disabled": 0, "rental_uris": {"ios": "https://dc.lft.to/lastmile_qr_scan", "android": "https://dc.lft.to/lastmile_qr_scan"}}, {"name": "7c872988138f7d0a84cdb08e809771b5", "lon": -76.937532, "lat": 38.890447, "type": "electric_scooter", "fusion_lon": 0.0, "is_reserved": 0, "bike_id": "7c872988138f7d0a84cdb08e809771b5", "fusion_lat": 0.0, "is_disabled": 0, "rental_uris": {"ios": "https://dc.lft.to/lastmile_qr_scan", "android": "https://dc.lft.to/lastmile_qr_scan"}}, {"name": "690298bb7a6006e4449f07baed9bdac2", "lon": -77.0388495, "lat": 38.93256933333333, "type": "electric_scooter", "fusion_lon": 0.0, "is_reserved": 0, "bike_id": "690298bb7a6006e4449f07baed9bdac2", "fusion_lat": 0.0, "is_disabled": 0, "rental_uris": {"ios": "https://dc.lft.to/lastmile_qr_scan", "android": "https://dc.lft.to/lastmile_qr_scan"}}, {"name": "05e89dc6dafd9e41a4f6cf773936d680", "lon": -77.037515, "lat": 38.929163, "type": "electric_scooter", "fusion_lon": 0.0, "is_reserved": 0, "bike_id": "05e89dc6dafd9e41a4f6cf773936d680", "fusion_lat": 0.0, "is_disabled": 0, "rental_uris": {"ios": "https://dc.lft.to/lastmile_qr_scan", "android": "https://dc.lft.to/lastmile_qr_scan"}}, {"name": "234d41c27788d690cde43801e72324c7", "lon": -77.0321135, "lat": 38.896737, "type": "electric_scooter", "fusion_lon": 0.0, "is_reserved": 0, "bike_id": "234d41c27788d690cde43801e72324c7", "fusion_lat": 0.0, "is_disabled": 0, "rental_uris": {"ios": "https://dc.lft.to/lastmile_qr_scan", "android": "https://dc.lft.to/lastmile_qr_scan"}}, {"name": "8cb6ea81cc198d998225cc205ae3585a", "lon": -77.00779083333333, "lat": 38.90740016666667, "type": "electric_scooter", "fusion_lon": 0.0, "is_reserved": 0, "bike_id": "8cb6ea81cc198d998225cc205ae3585a", "fusion_lat": 0.0, "is_disabled": 0, "rental_uris": {"ios": "https://dc.lft.to/lastmile_qr_scan", "android": "https://dc.lft.to/lastmile_qr_scan"}}, {"name": "eaa3d3ab28de84cd00ef8774ac0584ff", "lon": -77.02195633333334, "lat": 38.8986435, "type": "electric_scooter", "fusion_lon": 0.0, "is_reserved": 0, "bike_id": "eaa3d3ab28de84cd00ef8774ac0584ff", "fusion_lat": 0.0, "is_disabled": 0, "rental_uris": {"ios": "https://dc.lft.to/lastmile_qr_scan", "android": "https://dc.lft.to/lastmile_qr_scan"}}, {"name": "ec6b77ec76a154891ba5243983fba2af", "lon": -77.04338533333333, "lat": 38.91783783333333, "type": "electric_scooter", "fusion_lon": 0.0, "is_reserved": 0, "bike_id": "ec6b77ec76a154891ba5243983fba2af", "fusion_lat": 0.0, "is_disabled": 0, "rental_uris": {"ios": "https://dc.lft.to/lastmile_qr_scan", "android": "https://dc.lft.to/lastmile_qr_scan"}}, {"name": "4121a2f795db97a1be2c58b66c6aaf7a", "lon": -77.0149975, "lat": 38.9175605, "type": "electric_scooter", "fusion_lon": 0.0, "is_reserved": 0, "bike_id": "4121a2f795db97a1be2c58b66c6aaf7a", "fusion_lat": 0.0, "is_disabled": 0, "rental_uris": {"ios": "https://dc.lft.to/lastmile_qr_scan", "android": "https://dc.lft.to/lastmile_qr_scan"}}, {"name": "88d6251a1c301a4adf458dd5525e20a6", "lon": -77.07307333333334, "lat": 38.864887, "type": "electric_bike", "fusion_lon": 0.0, "is_reserved": 0, "bike_id": "88d6251a1c301a4adf458dd5525e20a6", "fusion_lat": 0.0, "is_disabled": 0, "rental_uris": {"ios": "https://dc.lft.to/lastmile_qr_scan", "android": "https://dc.lft.to/lastmile_qr_scan"}}, {"name": "1df5c5f66e84a6f810c1058c35447348", "lon": -76.99776766666666, "lat": 38.8443165, "type": "electric_scooter", "fusion_lon": 0.0, "is_reserved": 0, "bike_id": "1df5c5f66e84a6f810c1058c35447348", "fusion_lat": 0.0, "is_disabled": 0, "rental_uris": {"ios": "https://dc.lft.to/lastmile_qr_scan", "android": "https://dc.lft.to/lastmile_qr_scan"}}, {"name": "b0dbf8cddbc133d82cf6bf63f8d92b2e", "lon": -77.012318, "lat": 38.931076166666664, "type": "electric_scooter", "fusion_lon": 0.0, "is_reserved": 0, "bike_id": "b0dbf8cddbc133d82cf6bf63f8d92b2e", "fusion_lat": 0.0, "is_disabled": 0, "rental_uris": {"ios": "https://dc.lft.to/lastmile_qr_scan", "android": "https://dc.lft.to/lastmile_qr_scan"}}, {"name": "2447016662875b7a395f8e23bb8816dd", "lon": -77.0209945, "lat": 38.9213795, "type": "electric_scooter", "fusion_lon": 0.0, "is_reserved": 0, "bike_id": "2447016662875b7a395f8e23bb8816dd", "fusion_lat": 0.0, "is_disabled": 0, "rental_uris": {"ios": "https://dc.lft.to/lastmile_qr_scan", "android": "https://dc.lft.to/lastmile_qr_scan"}}, {"name": "a739a658226534ffce3c6053594fd31a", "lon": -76.97445233333333, "lat": 38.90446466666667, "type": "electric_scooter", "fusion_lon": 0.0, "is_reserved": 0, "bike_id": "a739a658226534ffce3c6053594fd31a", "fusion_lat": 0.0, "is_disabled": 0, "rental_uris": {"ios": "https://dc.lft.to/lastmile_qr_scan", "android": "https://dc.lft.to/lastmile_qr_scan"}}, {"name": "94ced48197daa8c783d3ea164605455d", "lon": -76.88369833333333, "lat": 38.99835916666667, "type": "electric_bike", "fusion_lon": 0.0, "is_reserved": 0, "bike_id": "94ced48197daa8c783d3ea164605455d", "fusion_lat": 0.0, "is_disabled": 0, "rental_uris": {"ios": "https://dc.lft.to/lastmile_qr_scan", "android": "https://dc.lft.to/lastmile_qr_scan"}}, {"name": "d13a77ae2520e7bd4f9cf8917a0ae683", "lon": -76.95140733333334, "lat": 38.890429, "type": "electric_scooter", "fusion_lon": 0.0, "is_reserved": 0, "bike_id": "d13a77ae2520e7bd4f9cf8917a0ae683", "fusion_lat": 0.0, "is_disabled": 0, "rental_uris": {"ios": "https://dc.lft.to/lastmile_qr_scan", "android": "https://dc.lft.to/lastmile_qr_scan"}}, {"name": "316aa43e72557ba9103cd3fe309db4f6", "lon": -77.0262475, "lat": 38.9622985, "type": "electric_bike", "fusion_lon": 0.0, "is_reserved": 0, "bike_id": "316aa43e72557ba9103cd3fe309db4f6", "fusion_lat": 0.0, "is_disabled": 0, "rental_uris": {"ios": "https://dc.lft.to/lastmile_qr_scan", "android": "https://dc.lft.to/lastmile_qr_scan"}}, {"name": "601de82839296c2f0a01e517b359f49b", "lon": -77.02977816666667, "lat": 38.895534, "type": "electric_scooter", "fusion_lon": 0.0, "is_reserved": 0, "bike_id": "601de82839296c2f0a01e517b359f49b", "fusion_lat": 0.0, "is_disabled": 0, "rental_uris": {"ios": "https://dc.lft.to/lastmile_qr_scan", "android": "https://dc.lft.to/lastmile_qr_scan"}}, {"name": "588e1b4b6fa5889bf77ddfe34ccd36df", "lon": -77.0364325, "lat": 38.922544333333335, "type": "electric_scooter", "fusion_lon": 0.0, "is_reserved": 0, "bike_id": "588e1b4b6fa5889bf77ddfe34ccd36df", "fusion_lat": 0.0, "is_disabled": 0, "rental_uris": {"ios": "https://dc.lft.to/lastmile_qr_scan", "android": "https://dc.lft.to/lastmile_qr_scan"}}, {"name": "f4e682a6fe6988a32c18ec4ae33cb0cd", "lon": -77.0327465, "lat": 38.90017233333333, "type": "electric_scooter", "fusion_lon": 0.0, "is_reserved": 0, "bike_id": "f4e682a6fe6988a32c18ec4ae33cb0cd", "fusion_lat": 0.0, "is_disabled": 0, "rental_uris": {"ios": "https://dc.lft.to/lastmile_qr_scan", "android": "https://dc.lft.to/lastmile_qr_scan"}}, {"name": "609fb6e0f1a1c9293e14c9ef124b0dd3", "lon": -77.038559, "lat": 38.932015, "type": "electric_scooter", "fusion_lon": 0.0, "is_reserved": 0, "bike_id": "609fb6e0f1a1c9293e14c9ef124b0dd3", "fusion_lat": 0.0, "is_disabled": 0, "rental_uris": {"ios": "https://dc.lft.to/lastmile_qr_scan", "android": "https://dc.lft.to/lastmile_qr_scan"}}, {"name": "7dabc2f39889b2eeaf6aa57a2915b2ea", "lon": -77.00744216666666, "lat": 38.9267855, "type": "electric_scooter", "fusion_lon": 0.0, "is_reserved": 0, "bike_id": "7dabc2f39889b2eeaf6aa57a2915b2ea", "fusion_lat": 0.0, "is_disabled": 0, "rental_uris": {"ios": "https://dc.lft.to/lastmile_qr_scan", "android": "https://dc.lft.to/lastmile_qr_scan"}}, {"name": "1621de13eee34b4ead48f6bff7c52697", "lon": -77.36092133333334, "lat": 38.93965433333334, "type": "electric_bike", "fusion_lon": 0.0, "is_reserved": 0, "bike_id": "1621de13eee34b4ead48f6bff7c52697", "fusion_lat": 0.0, "is_disabled": 0, "rental_uris": {"ios": "https://dc.lft.to/lastmile_qr_scan", "android": "https://dc.lft.to/lastmile_qr_scan"}}, {"name": "abe2361ef9792ffdc9da379acc3b588a", "lon": -76.97701383333333, "lat": 38.949175333333336, "type": "electric_bike", "fusion_lon": 0.0, "is_reserved": 0, "bike_id": "abe2361ef9792ffdc9da379acc3b588a", "fusion_lat": 0.0, "is_disabled": 0, "rental_uris": {"ios": "https://dc.lft.to/lastmile_qr_scan", "android": "https://dc.lft.to/lastmile_qr_scan"}}, {"name": "a4e568c8da65dd293008a211abc51ee9", "lon": -77.03975766666667, "lat": 38.911947166666664, "type": "electric_scooter", "fusion_lon": 0.0, "is_reserved": 0, "bike_id": "a4e568c8da65dd293008a211abc51ee9", "fusion_lat": 0.0, "is_disabled": 0, "rental_uris": {"ios": "https://dc.lft.to/lastmile_qr_scan", "android": "https://dc.lft.to/lastmile_qr_scan"}}, {"name": "37b9d1ea390dafef71e0e6e3e75e0edc", "lon": -77.05041016666667, "lat": 38.923594666666666, "type": "electric_scooter", "fusion_lon": 0.0, "is_reserved": 0, "bike_id": "37b9d1ea390dafef71e0e6e3e75e0edc", "fusion_lat": 0.0, "is_disabled": 0, "rental_uris": {"ios": "https://dc.lft.to/lastmile_qr_scan", "android": "https://dc.lft.to/lastmile_qr_scan"}}, {"name": "14103a8099758e019f0984918052e8ea", "lon": -77.046456, "lat": 38.9055405, "type": "electric_scooter", "fusion_lon": 0.0, "is_reserved": 0, "bike_id": "14103a8099758e019f0984918052e8ea", "fusion_lat": 0.0, "is_disabled": 0, "rental_uris": {"ios": "https://dc.lft.to/lastmile_qr_scan", "android": "https://dc.lft.to/lastmile_qr_scan"}}, {"name": "999afcf85879e8fd766525ed64110642", "lon": -77.0139935, "lat": 38.9746865, "type": "electric_scooter", "fusion_lon": 0.0, "is_reserved": 0, "bike_id": "999afcf85879e8fd766525ed64110642", "fusion_lat": 0.0, "is_disabled": 0, "rental_uris": {"ios": "https://dc.lft.to/lastmile_qr_scan", "android": "https://dc.lft.to/lastmile_qr_scan"}}, {"name": "777bea571e960bad5e4fef8c4b774325", "lon": -77.01754083333333, "lat": 38.883184666666665, "type": "electric_scooter", "fusion_lon": 0.0, "is_reserved": 0, "bike_id": "777bea571e960bad5e4fef8c4b774325", "fusion_lat": 0.0, "is_disabled": 0, "rental_uris": {"ios": "https://dc.lft.to/lastmile_qr_scan", "android": "https://dc.lft.to/lastmile_qr_scan"}}, {"name": "c786b9211e5dc5b15e5af96973793d2b", "lon": -77.03146116666667, "lat": 38.91118316666667, "type": "electric_scooter", "fusion_lon": 0.0, "is_reserved": 0, "bike_id": "c786b9211e5dc5b15e5af96973793d2b", "fusion_lat": 0.0, "is_disabled": 0, "rental_uris": {"ios": "https://dc.lft.to/lastmile_qr_scan", "android": "https://dc.lft.to/lastmile_qr_scan"}}, {"name": "c242e07f8a3410811eae4acbe2863a9b", "lon": -77.028129, "lat": 38.960829833333335, "type": "electric_scooter", "fusion_lon": 0.0, "is_reserved": 0, "bike_id": "c242e07f8a3410811eae4acbe2863a9b", "fusion_lat": 0.0, "is_disabled": 0, "rental_uris": {"ios": "https://dc.lft.to/lastmile_qr_scan", "android": "https://dc.lft.to/lastmile_qr_scan"}}, {"name": "ecbfcc0a5ce1e055ede29afcf4cfe000", "lon": -77.00260383333334, "lat": 38.907509833333336, "type": "electric_scooter", "fusion_lon": 0.0, "is_reserved": 0, "bike_id": "ecbfcc0a5ce1e055ede29afcf4cfe000", "fusion_lat": 0.0, "is_disabled": 0, "rental_uris": {"ios": "https://dc.lft.to/lastmile_qr_scan", "android": "https://dc.lft.to/lastmile_qr_scan"}}, {"name": "2fd59261b42294765fa9d57d2eeedd26", "lon": -77.04335166666667, "lat": 38.900498, "type": "electric_scooter", "fusion_lon": 0.0, "is_reserved": 0, "bike_id": "2fd59261b42294765fa9d57d2eeedd26", "fusion_lat": 0.0, "is_disabled": 0, "rental_uris": {"ios": "https://dc.lft.to/lastmile_qr_scan", "android": "https://dc.lft.to/lastmile_qr_scan"}}, {"name": "233ed085ddbdade43abf6b5300a1e299", "lon": -77.0469575, "lat": 38.921624333333334, "type": "electric_scooter", "fusion_lon": 0.0, "is_reserved": 0, "bike_id": "233ed085ddbdade43abf6b5300a1e299", "fusion_lat": 0.0, "is_disabled": 0, "rental_uris": {"ios": "https://dc.lft.to/lastmile_qr_scan", "android": "https://dc.lft.to/lastmile_qr_scan"}}, {"name": "02fa5db1fb3117fd4a2d2a6cb2c70e28", "lon": -77.05337066666667, "lat": 38.900149, "type": "electric_scooter", "fusion_lon": 0.0, "is_reserved": 0, "bike_id": "02fa5db1fb3117fd4a2d2a6cb2c70e28", "fusion_lat": 0.0, "is_disabled": 0, "rental_uris": {"ios": "https://dc.lft.to/lastmile_qr_scan", "android": "https://dc.lft.to/lastmile_qr_scan"}}, {"name": "7d7d5029aa93ce96db6175d556dfb27c", "lon": -77.0365105, "lat": 38.90378233333333, "type": "electric_scooter", "fusion_lon": 0.0, "is_reserved": 0, "bike_id": "7d7d5029aa93ce96db6175d556dfb27c", "fusion_lat": 0.0, "is_disabled": 0, "rental_uris": {"ios": "https://dc.lft.to/lastmile_qr_scan", "android": "https://dc.lft.to/lastmile_qr_scan"}}, {"name": "5cdf8e7ceb80935edbd03455c21524fe", "lon": -77.04303833333333, "lat": 38.9232995, "type": "electric_scooter", "fusion_lon": 0.0, "is_reserved": 0, "bike_id": "5cdf8e7ceb80935edbd03455c21524fe", "fusion_lat": 0.0, "is_disabled": 0, "rental_uris": {"ios": "https://dc.lft.to/lastmile_qr_scan", "android": "https://dc.lft.to/lastmile_qr_scan"}}, {"name": "a0839c9f0e1f34fcf0d658c3265e397e", "lon": -77.01744766666667, "lat": 38.883207666666664, "type": "electric_scooter", "fusion_lon": 0.0, "is_reserved": 0, "bike_id": "a0839c9f0e1f34fcf0d658c3265e397e", "fusion_lat": 0.0, "is_disabled": 0, "rental_uris": {"ios": "https://dc.lft.to/lastmile_qr_scan", "android": "https://dc.lft.to/lastmile_qr_scan"}}, {"name": "98c65d976f67c396d3780ea1c42ec8b9", "lon": -77.01169383333334, "lat": 38.91700983333333, "type": "electric_scooter", "fusion_lon": 0.0, "is_reserved": 0, "bike_id": "98c65d976f67c396d3780ea1c42ec8b9", "fusion_lat": 0.0, "is_disabled": 0, "rental_uris": {"ios": "https://dc.lft.to/lastmile_qr_scan", "android": "https://dc.lft.to/lastmile_qr_scan"}}, {"name": "1f3a38f0e22ae52e1a61143c51d8b24f", "lon": -76.997809, "lat": 38.8443625, "type": "electric_scooter", "fusion_lon": 0.0, "is_reserved": 0, "bike_id": "1f3a38f0e22ae52e1a61143c51d8b24f", "fusion_lat": 0.0, "is_disabled": 0, "rental_uris": {"ios": "https://dc.lft.to/lastmile_qr_scan", "android": "https://dc.lft.to/lastmile_qr_scan"}}, {"name": "411d39ae490277475d13fc6b84a4811b", "lon": -77.0116895, "lat": 38.9156645, "type": "electric_scooter", "fusion_lon": 0.0, "is_reserved": 0, "bike_id": "411d39ae490277475d13fc6b84a4811b", "fusion_lat": 0.0, "is_disabled": 0, "rental_uris": {"ios": "https://dc.lft.to/lastmile_qr_scan", "android": "https://dc.lft.to/lastmile_qr_scan"}}, {"name": "1eb2c7def2295ec4124c2a35c477705f", "lon": -77.03909833333333, "lat": 38.9183315, "type": "electric_scooter", "fusion_lon": 0.0, "is_reserved": 0, "bike_id": "1eb2c7def2295ec4124c2a35c477705f", "fusion_lat": 0.0, "is_disabled": 0, "rental_uris": {"ios": "https://dc.lft.to/lastmile_qr_scan", "android": "https://dc.lft.to/lastmile_qr_scan"}}, {"name": "03230dea426aa0efdb89c9455e66a139", "lon": -76.9954655, "lat": 38.8626395, "type": "electric_scooter", "fusion_lon": 0.0, "is_reserved": 0, "bike_id": "03230dea426aa0efdb89c9455e66a139", "fusion_lat": 0.0, "is_disabled": 0, "rental_uris": {"ios": "https://dc.lft.to/lastmile_qr_scan", "android": "https://dc.lft.to/lastmile_qr_scan"}}, {"name": "bdcea028230b286a1ea74edb8f6cd2a5", "lon": -77.030483, "lat": 38.884107166666666, "type": "electric_scooter", "fusion_lon": 0.0, "is_reserved": 0, "bike_id": "bdcea028230b286a1ea74edb8f6cd2a5", "fusion_lat": 0.0, "is_disabled": 0, "rental_uris": {"ios": "https://dc.lft.to/lastmile_qr_scan", "android": "https://dc.lft.to/lastmile_qr_scan"}}, {"name": "623b77213404828f57c0c5c1450e80da", "lon": -77.00796216666667, "lat": 38.94925283333333, "type": "electric_bike", "fusion_lon": 0.0, "is_reserved": 0, "bike_id": "623b77213404828f57c0c5c1450e80da", "fusion_lat": 0.0, "is_disabled": 0, "rental_uris": {"ios": "https://dc.lft.to/lastmile_qr_scan", "android": "https://dc.lft.to/lastmile_qr_scan"}}, {"name": "f7c13d38d7333305a983631a0c616df4", "lon": -77.03498666666667, "lat": 38.917057, "type": "electric_scooter", "fusion_lon": 0.0, "is_reserved": 0, "bike_id": "f7c13d38d7333305a983631a0c616df4", "fusion_lat": 0.0, "is_disabled": 0, "rental_uris": {"ios": "https://dc.lft.to/lastmile_qr_scan", "android": "https://dc.lft.to/lastmile_qr_scan"}}, {"name": "ce60bce0dd10f74f6d1d46a823368954", "lon": -77.02952516666667, "lat": 38.905302166666665, "type": "electric_scooter", "fusion_lon": 0.0, "is_reserved": 0, "bike_id": "ce60bce0dd10f74f6d1d46a823368954", "fusion_lat": 0.0, "is_disabled": 0, "rental_uris": {"ios": "https://dc.lft.to/lastmile_qr_scan", "android": "https://dc.lft.to/lastmile_qr_scan"}}, {"name": "67b8b08c0012ce7b2ad1195c446e8294", "lon": -77.04365533333333, "lat": 38.892239833333335, "type": "electric_scooter", "fusion_lon": 0.0, "is_reserved": 0, "bike_id": "67b8b08c0012ce7b2ad1195c446e8294", "fusion_lat": 0.0, "is_disabled": 0, "rental_uris": {"ios": "https://dc.lft.to/lastmile_qr_scan", "android": "https://dc.lft.to/lastmile_qr_scan"}},