{"data": {"bikes": [{"fusion_lon": 0.0, "bike_id": "a4bbcf5192bcf9bd29b78713d7c8fc41", "name": "a4bbcf5192bcf9bd29b78713d7c8fc41", "type": "electric_scooter", "lon": -77.03460983333333, "rental_uris": {"android": "https://dc.lft.to/lastmile_qr_scan", "ios": "https://dc.lft.to/lastmile_qr_scan"}, "lat": 38.905682166666665, "is_reserved": 0, "is_disabled": 0, "fusion_lat": 0.0}, {"fusion_lon": 0.0, "bike_id": "b7fb3f439b337a39c84b6353b2506f15", "name": "b7fb3f439b337a39c84b6353b2506f15", "type": "electric_scooter", "lon": -77.02415166666667, "rental_uris": {"android": "https://dc.lft.to/lastmile_qr_scan", "ios": "https://dc.lft.to/lastmile_qr_scan"}, "lat": 38.9057395, "is_reserved": 0, "is_disabled": 0, "fusion_lat": 0.0}, {"fusion_lon": 0.0, "bike_id": "2861fb60a75a2d77507ad5ab5fc4df5f", "name": "2861fb60a75a2d77507ad5ab5fc4df5f", "type": "electric_scooter", "lon": -77.01945766666667, "rental_uris": {"android": "https://dc.lft.to/lastmile_qr_scan", "ios": "https://dc.lft.to/lastmile_qr_scan"}, "lat": 38.9225395, "is_reserved": 0, "is_disabled": 0, "fusion_lat": 0.0}, {"fusion_lon": 0.0, "bike_id": "86a11d0cbb3b70003ce1c4a46b99b621", "name": "86a11d0cbb3b70003ce1c4a46b99b621", "type": "electric_scooter", "lon": -76.99869, "rental_uris": {"android": "https://dc.lft.to/lastmile_qr_scan", "ios": "https://dc.lft.to/lastmile_qr_scan"}, "lat": 38.900248833333336, "is_reserved": 0, "is_disabled": 0, "fusion_lat": 0.0}, {"fusion_lon": 0.0, "bike_id": "1e37926688d7afc137688ec1c4d64354", "name": "1e37926688d7afc137688ec1c4d64354", "type": "electric_scooter", "lon": -77.02281616666667, "rental_uris": {"android": "https://dc.lft.to/lastmile_qr_scan", "ios": "https://dc.lft.to/lastmile_qr_scan"}, "lat": 38.91651366666667, "is_reserved": 0, "is_disabled": 0, "fusion_lat": 0.0}, {"fusion_lon": 0.0, "bike_id": "d9a33fd9f30be7bac9378b85677c18d5", "name": "d9a33fd9f30be7bac9378b85677c18d5", "type": "electric_scooter", "lon": -77.05438116666667, "rental_uris": {"android": "https://dc.lft.to/lastmile_qr_scan", "ios": "https://dc.lft.to/lastmile_qr_scan"}, "lat": 38.896011, "is_reserved": 0, "is_disabled": 0, "fusion_lat": 0.0}, {"fusion_lon": 0.0, "bike_id": "898213f54c5823106624189cc13a7de7", "name": "898213f54c5823106624189cc13a7de7", "type": "electric_scooter", "lon": -77.02958533333333, "rental_uris": {"android": "https://dc.lft.to/lastmile_qr_scan", "ios": "https://dc.lft.to/lastmile_qr_scan"}, "lat": 38.905089, "is_reserved": 0, "is_disabled": 0, "fusion_lat": 0.0}, {"fusion_lon": 0.0, "bike_id": "5e4db226437316a3fbf7c4ce9c21019a", "name": "5e4db226437316a3fbf7c4ce9c21019a", "type": "electric_scooter", "lon": -77.02753783333333, "rental_uris": {"android": "https://dc.lft.to/lastmile_qr_scan", "ios": "https://dc.lft.to/lastmile_qr_scan"}, "lat": 38.917035, "is_reserved": 0, "is_disabled": 0, "fusion_lat": 0.0}, {"fusion_lon": 0.0, "bike_id": "4f3b1f85b7d4251f4a13d3ab780573f7", "name": "4f3b1f85b7d4251f4a13d3ab780573f7", "type": "electric_scooter", "lon": -77.04099083333334, "rental_uris": {"android": "https://dc.lft.to/lastmile_qr_scan", "ios": "https://dc.lft.to/lastmile_qr_scan"}, "lat": 38.89840316666667, "is_reserved": 0, "is_disabled": 0, "fusion_lat": 0.0}, {"fusion_lon": 0.0, "bike_id": "d821fec5d623e29aba1ec082f666677a", "name": "d821fec5d623e29aba1ec082f666677a", "type": "electric_scooter", "lon": -77.04039666666667, "rental_uris": {"android": "https://dc.lft.to/lastmile_qr_scan", "ios": "https://dc.lft.to/lastmile_qr_scan"}, "lat": 38.925694666666665, "is_reserved": 0, "is_disabled": 0, "fusion_lat": 0.0}, {"fusion_lon": 0.0, "bike_id": "281a4697e51a07361f32889c07771a7c", "name": "281a4697e51a07361f32889c07771a7c", "type": "electric_scooter", "lon": -76.94824766666666, "rental_uris": {"android": "https://dc.lft.to/lastmile_qr_scan", "ios": "https://dc.lft.to/lastmile_qr_scan"}, "lat": 38.885136, "is_reserved": 0, "is_disabled": 0, "fusion_lat": 0.0}, {"fusion_lon": 0.0, "bike_id": "e9d790f1ef7bdfbc3e9d185c9df523b2", "name": "e9d790f1ef7bdfbc3e9d185c9df523b2", "type": "electric_bike", "lon": -77.06976016666667, "rental_uris": {"android": "https://dc.lft.to/lastmile_qr_scan", "ios": "https://dc.lft.to/lastmile_qr_scan"}, "lat": 38.952621666666666, "is_reserved": 0, "is_disabled": 0, "fusion_lat": 0.0}, {"fusion_lon": 0.0, "bike_id": "10b2616504aba8e757d03b070864927d", "name": "10b2616504aba8e757d03b070864927d", "type": "electric_scooter", "lon": -77.0373465, "rental_uris": {"android": "https://dc.lft.to/lastmile_qr_scan", "ios": "https://dc.lft.to/lastmile_qr_scan"}, "lat": 38.909616166666666, "is_reserved": 0, "is_disabled": 0, "fusion_lat": 0.0}, {"fusion_lon": 0.0, "bike_id": "83b41cd913e7ab69f30b447a3a97b5bd", "name": "83b41cd913e7ab69f30b447a3a97b5bd", "type": "electric_scooter", "lon": -77.0161005, "rental_uris": {"android": "https://dc.lft.to/lastmile_qr_scan", "ios": "https://dc.lft.to/lastmile_qr_scan"}, "lat": 38.90175283333333, "is_reserved": 0, "is_disabled": 0, "fusion_lat": 0.0}, {"fusion_lon": 0.0, "bike_id": "95ac4a335687875db11b32a01ff83f76", "name": "95ac4a335687875db11b32a01ff83f76", "type": "electric_scooter", "lon": -77.0267995, "rental_uris": {"android": "https://dc.lft.to/lastmile_qr_scan", "ios": "https://dc.lft.to/lastmile_qr_scan"}, "lat": 38.93319733333333, "is_reserved": 0, "is_disabled": 0, "fusion_lat": 0.0}, {"fusion_lon": 0.0, "bike_id": "7dc63333ff92b0c16dd6af1d22fb39cf", "name": "7dc63333ff92b0c16dd6af1d22fb39cf", "type": "electric_bike", "lon": -77.01226533333333, "rental_uris": {"android": "https://dc.lft.to/lastmile_qr_scan", "ios": "https://dc.lft.to/lastmile_qr_scan"}, "lat": 38.8931565, "is_reserved": 0, "is_disabled": 0, "fusion_lat": 0.0}, {"fusion_lon": 0.0, "bike_id": "5c255cf8d28c49ee95c5b558d3933355", "name": "5c255cf8d28c49ee95c5b558d3933355", "type": "electric_scooter", "lon": -77.0228515, "rental_uris": {"android": "https://dc.lft.to/lastmile_qr_scan", "ios": "https://dc.lft.to/lastmile_qr_scan"}, "lat": 38.937579666666664, "is_reserved": 0, "is_disabled": 0, "fusion_lat": 0.0}, {"fusion_lon": 0.0, "bike_id": "9752123b75414f6d79d195f794279da7", "name": "9752123b75414f6d79d195f794279da7", "type": "electric_scooter", "lon": -77.0238915, "rental_uris": {"android": "https://dc.lft.to/lastmile_qr_scan", "ios": "https://dc.lft.to/lastmile_qr_scan"}, "lat": 38.9074335, "is_reserved": 0, "is_disabled": 0, "fusion_lat": 0.0}, {"fusion_lon": 0.0, "bike_id": "1ff8c4fe6fbfb2bb6421208fdd62ee3c", "name": "1ff8c4fe6fbfb2bb6421208fdd62ee3c", "type": "electric_scooter", "lon": -77.004455, "rental_uris": {"android": "https://dc.lft.to/lastmile_qr_scan", "ios": "https://dc.lft.to/lastmile_qr_scan"}, "lat": 38.90755, "is_reserved": 0, "is_disabled": 0, "fusion_lat": 0.0}, {"fusion_lon": 0.0, "bike_id": "37d0d0f3457b07270b20802d82896831", "name": "37d0d0f3457b07270b20802d82896831", "type": "electric_scooter", "lon": -76.94772916666666, "rental_uris": {"android": "https://dc.lft.to/lastmile_qr_scan", "ios": "https://dc.lft.to/lastmile_qr_scan"}, "lat": 38.896313, "is_reserved": 0, "is_disabled": 0, "fusion_lat": 0.0}, {"fusion_lon": 0.0, "bike_id": "7f6276b13a60d97af589bb4581e356cb", "name": "7f6276b13a60d97af589bb4581e356cb", "type": "electric_scooter", "lon": -76.94939216666667, "rental_uris": {"android": "https://dc.lft.to/lastmile_qr_scan", "ios": "https://dc.lft.to/lastmile_qr_scan"}, "lat": 38.883163833333334, "is_reserved": 0, "is_disabled": 0, "fusion_lat": 0.0}, {"fusion_lon": 0.0, "bike_id": "841743b0fb0e52db8ecf72343fc12bc8", "name": "841743b0fb0e52db8ecf72343fc12bc8", "type": "electric_scooter", "lon": -77.02297066666667, "rental_uris": {"android": "https://dc.lft.to/lastmile_qr_scan", "ios": "https://dc.lft.to/lastmile_qr_scan"}, "lat": 38.91568266666667, "is_reserved": 0, "is_disabled": 0, "fusion_lat": 0.0}, {"fusion_lon": 0.0, "bike_id": "14ea155c2544ec7d816b4429a1453551", "name": "14ea155c2544ec7d816b4429a1453551", "type": "electric_scooter", "lon": -77.0557445, "rental_uris": {"android": "https://dc.lft.to/lastmile_qr_scan", "ios": "https://dc.lft.to/lastmile_qr_scan"}, "lat": 38.9362175, "is_reserved": 0, "is_disabled": 0, "fusion_lat": 0.0}, {"fusion_lon": 0.0, "bike_id": "45572a9232f3026cde04256494dd9d06", "name": "45572a9232f3026cde04256494dd9d06", "type": "electric_bike", "lon": -76.98839, "rental_uris": {"android": "https://dc.lft.to/lastmile_qr_scan", "ios": "https://dc.lft.to/lastmile_qr_scan"}, "lat": 38.84269233333333, "is_reserved": 0, "is_disabled": 0, "fusion_lat": 0.0}, {"fusion_lon": 0.0, "bike_id": "491f43f97cdc204950f71c1872d99efc", "name": "491f43f97cdc204950f71c1872d99efc", "type": "electric_scooter", "lon": -77.04100283333334, "rental_uris": {"android": "https://dc.lft.to/lastmile_qr_scan", "ios": "https://dc.lft.to/lastmile_qr_scan"}, "lat": 38.9080385, "is_reserved": 0, "is_disabled": 0, "fusion_lat": 0.0}, {"fusion_lon": 0.0, "bike_id": "479306d37fa50c3e935fa045b0ffd978", "name": "479306d37fa50c3e935fa045b0ffd978", "type": "electric_scooter", "lon": -77.03366083333333, "rental_uris": {"android": "https://dc.lft.to/lastmile_qr_scan", "ios": "https://dc.lft.to/lastmile_qr_scan"}, "lat": 38.900200166666664, "is_reserved": 0, "is_disabled": 0, "fusion_lat": 0.0}, {"fusion_lon": 0.0, "bike_id": "810247b01814387266f329ecdeb8127a", "name": "810247b01814387266f329ecdeb8127a", "type": "electric_bike", "lon": -76.96557066666666, "rental_uris": {"android": "https://dc.lft.to/lastmile_qr_scan", "ios": "https://dc.lft.to/lastmile_qr_scan"}, "lat": 38.950867, "is_reserved": 0, "is_disabled": 0, "fusion_lat": 0.0}, {"fusion_lon": 0.0, "bike_id": "c0d27b4336c0ea84511427bf664c1ad3", "name": "c0d27b4336c0ea84511427bf664c1ad3", "type": "electric_scooter", "lon": -77.07230883333334, "rental_uris": {"android": "https://dc.lft.to/lastmile_qr_scan", "ios": "https://dc.lft.to/lastmile_qr_scan"}, "lat": 38.93459566666667, "is_reserved": 0, "is_disabled": 0, "fusion_lat": 0.0}, {"fusion_lon": 0.0, "bike_id": "5fb889d61702ca4e24d70528677b7bb7", "name": "5fb889d61702ca4e24d70528677b7bb7", "type": "electric_scooter", "lon": -77.04597433333333, "rental_uris": {"android": "https://dc.lft.to/lastmile_qr_scan", "ios": "https://dc.lft.to/lastmile_qr_scan"}, "lat": 38.916893333333334, "is_reserved": 0, "is_disabled": 0, "fusion_lat": 0.0}, {"fusion_lon": 0.0, "bike_id": "da77e78d8bc341acd85cddc50edb50f2", "name": "da77e78d8bc341acd85cddc50edb50f2", "type": "electric_scooter", "lon": -77.02290133333334, "rental_uris": {"android": "https://dc.lft.to/lastmile_qr_scan", "ios": "https://dc.lft.to/lastmile_qr_scan"}, "lat": 38.91709183333333, "is_reserved": 0, "is_disabled": 0, "fusion_lat": 0.0}, {"fusion_lon": 0.0, "bike_id": "ab0eb6b7072fcacfcab5dae19c5b0331", "name": "ab0eb6b7072fcacfcab5dae19c5b0331", "type": "electric_scooter", "lon": -77.04391416666667, "rental_uris": {"android": "https://dc.lft.to/lastmile_qr_scan", "ios": "https://dc.lft.to/lastmile_qr_scan"}, "lat": 38.910914166666664, "is_reserved": 0, "is_disabled": 0, "fusion_lat": 0.0}, {"fusion_lon": 0.0, "bike_id": "c566941528a777c0ded09c2e3a06161e", "name": "c566941528a777c0ded09c2e3a06161e", "type": "electric_scooter", "lon": -77.04895916666666, "rental_uris": {"android": "https://dc.lft.to/lastmile_qr_scan", "ios": "https://dc.lft.to/lastmile_qr_scan"}, "lat": 38.892290333333335, "is_reserved": 0, "is_disabled": 0, "fusion_lat": 0.0}, {"fusion_lon": 0.0, "bike_id": "53ff91f3c6d406e342a338625c92da5a", "name": "53ff91f3c6d406e342a338625c92da5a", "type": "electric_scooter", "lon": -77.04164566666667, "rental_uris": {"android": "https://dc.lft.to/lastmile_qr_scan", "ios": "https://dc.lft.to/lastmile_qr_scan"}, "lat": 38.9109255, "is_reserved": 0, "is_disabled": 0, "fusion_lat": 0.0}, {"fusion_lon": 0.0, "bike_id": "04c2fbc459217b4db119e9ef0bc54529", "name": "04c2fbc459217b4db119e9ef0bc54529", "type": "electric_scooter", "lon": -77.004494, "rental_uris": {"android": "https://dc.lft.to/lastmile_qr_scan", "ios": "https://dc.lft.to/lastmile_qr_scan"}, "lat": 38.911757, "is_reserved": 0, "is_disabled": 0, "fusion_lat": 0.0}, {"fusion_lon": 0.0, "bike_id": "3484a34ee67730e7ad956ea467265070", "name": "3484a34ee67730e7ad956ea467265070", "type": "electric_scooter", "lon": -76.99373483333333, "rental_uris": {"android": "https://dc.lft.to/lastmile_qr_scan", "ios": "https://dc.lft.to/lastmile_qr_scan"}, "lat": 38.9241195, "is_reserved": 0, "is_disabled": 0, "fusion_lat": 0.0}, {"fusion_lon": 0.0, "bike_id": "6e2bbfe651e32363496dbf2435537bff", "name": "6e2bbfe651e32363496dbf2435537bff", "type": "electric_scooter", "lon": -77.04155583333333, "rental_uris": {"android": "https://dc.lft.to/lastmile_qr_scan", "ios": "https://dc.lft.to/lastmile_qr_scan"}, "lat": 38.91752833333334, "is_reserved": 0, "is_disabled": 0, "fusion_lat": 0.0}, {"fusion_lon": 0.0, "bike_id": "dc9fbfc5d3ffc7363de0986661653583", "name": "dc9fbfc5d3ffc7363de0986661653583", "type": "electric_scooter", "lon": -77.01621333333334, "rental_uris": {"android": "https://dc.lft.to/lastmile_qr_scan", "ios": "https://dc.lft.to/lastmile_qr_scan"}, "lat": 38.87695133333333, "is_reserved": 0, "is_disabled": 0, "fusion_lat": 0.0}, {"fusion_lon": 0.0, "bike_id": "dd2b1095835a4fe7c247bef356021d90", "name": "dd2b1095835a4fe7c247bef356021d90", "type": "electric_scooter", "lon": -77.029625, "rental_uris": {"android": "https://dc.lft.to/lastmile_qr_scan", "ios": "https://dc.lft.to/lastmile_qr_scan"}, "lat": 38.9207, "is_reserved": 0, "is_disabled": 0, "fusion_lat": 0.0}, {"fusion_lon": 0.0, "bike_id": "9ce96a63927903280040b8eab69c5be9", "name": "9ce96a63927903280040b8eab69c5be9", "type": "electric_scooter", "lon": -77.03214416666667, "rental_uris": {"android": "https://dc.lft.to/lastmile_qr_scan", "ios": "https://dc.lft.to/lastmile_qr_scan"}, "lat": 38.892210166666665, "is_reserved": 0, "is_disabled": 0, "fusion_lat": 0.0}, {"fusion_lon": 0.0, "bike_id": "607b9bd54accb16fedc67475944142fb", "name": "607b9bd54accb16fedc67475944142fb", "type": "electric_bike", "lon": -77.01378616666666, "rental_uris": {"android": "https://dc.lft.to/lastmile_qr_scan", "ios": "https://dc.lft.to/lastmile_qr_scan"}, "lat": 38.94236333333333, "is_reserved": 0, "is_disabled": 0, "fusion_lat": 0.0}, {"fusion_lon": 0.0, "bike_id": "5bd6c87eb167e6bdf7b3c8f96d832afc", "name": "5bd6c87eb167e6bdf7b3c8f96d832afc", "type": "electric_bike", "lon": -77.02786916666666, "rental_uris": {"android": "https://dc.lft.to/lastmile_qr_scan", "ios": "https://dc.lft.to/lastmile_qr_scan"}, "lat": 38.939438333333335, "is_reserved": 0, "is_disabled": 0, "fusion_lat": 0.0}, {"fusion_lon": 0.0, "bike_id": "aa5478050f2cbc5f5295236c179698b3", "name": "aa5478050f2cbc5f5295236c179698b3", "type": "electric_scooter", "lon": -77.0377345, "rental_uris": {"android": "https://dc.lft.to/lastmile_qr_scan", "ios": "https://dc.lft.to/lastmile_qr_scan"}, "lat": 38.91698516666666, "is_reserved": 0, "is_disabled": 0, "fusion_lat": 0.0}, {"fusion_lon": 0.0, "bike_id": "f28cca477a0223a9c8aca283e5a703d9", "name": "f28cca477a0223a9c8aca283e5a703d9", "type": "electric_scooter", "lon": -77.02364666666666, "rental_uris": {"android": "https://dc.lft.to/lastmile_qr_scan", "ios": "https://dc.lft.to/lastmile_qr_scan"}, "lat": 38.90734916666667, "is_reserved": 0, "is_disabled": 0, "fusion_lat": 0.0}, {"fusion_lon": 0.0, "bike_id": "fbeae3ac63d537e0d89b0979049b9ae5", "name": "fbeae3ac63d537e0d89b0979049b9ae5", "type": "electric_bike", "lon": -76.95163266666667, "rental_uris": {"android": "https://dc.lft.to/lastmile_qr_scan", "ios": "https://dc.lft.to/lastmile_qr_scan"}, "lat": 38.885110166666664, "is_reserved": 0, "is_disabled": 0, "fusion_lat": 0.0}, {"fusion_lon": 0.0, "bike_id": "41ebe0882a309aedaefb951432e29005", "name": "41ebe0882a309aedaefb951432e29005", "type": "electric_scooter", "lon": -77.03290133333333, "rental_uris": {"android": "https://dc.lft.to/lastmile_qr_scan", "ios": "https://dc.lft.to/lastmile_qr_scan"}, "lat": 38.938750666666664, "is_reserved": 0, "is_disabled": 0, "fusion_lat": 0.0}, {"fusion_lon": 0.0, "bike_id": "4bd80fa88e21809c57ee38acd376831d", "name": "4bd80fa88e21809c57ee38acd376831d", "type": "electric_scooter", "lon": -77.03466366666666, "rental_uris": {"android": "https://dc.lft.to/lastmile_qr_scan", "ios": "https://dc.lft.to/lastmile_qr_scan"}, "lat": 38.921438333333334, "is_reserved": 0, "is_disabled": 0, "fusion_lat": 0.0}, {"fusion_lon": 0.0, "bike_id": "6fc4aefba8169b69cf2a93bbe1c3eb19", "name": "6fc4aefba8169b69cf2a93bbe1c3eb19", "type": "electric_scooter", "lon": -77.03728283333334, "rental_uris": {"android": "https://dc.lft.to/lastmile_qr_scan", "ios": "https://dc.lft.to/lastmile_qr_scan"}, "lat": 38.9285055, "is_reserved": 0, "is_disabled": 0, "fusion_lat": 0.0}, {"fusion_lon": 0.0, "bike_id": "872778addc7423da908d28ef761ce421", "name": "872778addc7423da908d28ef761ce421", "type": "electric_scooter", "lon": -77.02204483333334, "rental_uris": {"android": "https://dc.lft.to/lastmile_qr_scan", "ios": "https://dc.lft.to/lastmile_qr_scan"}, "lat": 38.907962166666664, "is_reserved": 0, "is_disabled": 0, "fusion_lat": 0.0}, {"fusion_lon": 0.0, "bike_id": "c90d7383ac4948695930f15ab3a76b75", "name": "c90d7383ac4948695930f15ab3a76b75", "type": "electric_scooter", "lon": -77.04413933333333, "rental_uris": {"android": "https://dc.lft.to/lastmile_qr_scan", "ios": "https://dc.lft.to/lastmile_qr_scan"}, "lat": 38.89402316666666, "is_reserved": 0, "is_disabled": 0, "fusion_lat": 0.0}, {"fusion_lon": 0.0, "bike_id": "2849bf9d7eadd62fc0336aa17050c466", "name": "2849bf9d7eadd62fc0336aa17050c466", "type": "electric_scooter", "lon": -76.94626916666667, "rental_uris": {"android": "https://dc.lft.to/lastmile_qr_scan", "ios": "https://dc.lft.to/lastmile_qr_scan"}, "lat": 38.898416, "is_reserved": 0, "is_disabled": 0, "fusion_lat": 0.0}, {"fusion_lon": 0.0, "bike_id": "74b4c30615464744e1248deea8337356", "name": "74b4c30615464744e1248deea8337356", "type": "electric_scooter", "lon": -76.98993666666667, "rental_uris": {"android": "https://dc.lft.to/lastmile_qr_scan", "ios": "https://dc.lft.to/lastmile_qr_scan"}, "lat": 38.864462833333334, "is_reserved": 0, "is_disabled": 0, "fusion_lat": 0.0}, {"fusion_lon": 0.0, "bike_id": "d17183868f73050329c3d872d3f40b79", "name": "d17183868f73050329c3d872d3f40b79", "type": "electric_scooter", "lon": -77.049992, "rental_uris": {"android": "https://dc.lft.to/lastmile_qr_scan", "ios": "https://dc.lft.to/lastmile_qr_scan"}, "lat": 38.896804333333336, "is_reserved": 0, "is_disabled": 0, "fusion_lat": 0.0}, {"fusion_lon": 0.0, "bike_id": "c4b73bada2440f2c66a1737ea9c19e91", "name": "c4b73bada2440f2c66a1737ea9c19e91", "type": "electric_scooter", "lon": -77.022025, "rental_uris": {"android": "https://dc.lft.to/lastmile_qr_scan", "ios": "https://dc.lft.to/lastmile_qr_scan"}, "lat": 38.91529583333333, "is_reserved": 0, "is_disabled": 0, "fusion_lat": 0.0}, {"fusion_lon": 0.0, "bike_id": "6b56754d532a1504f26a499640b7179c", "name": "6b56754d532a1504f26a499640b7179c", "type": "electric_scooter", "lon": -76.97183033333333, "rental_uris": {"android": "https://dc.lft.to/lastmile_qr_scan", "ios": "https://dc.lft.to/lastmile_qr_scan"}, "lat": 38.91261983333333, "is_reserved": 0, "is_disabled": 0, "fusion_lat": 0.0}, {"fusion_lon": 0.0, "bike_id": "556c0aed89108d5fbe9c8c8bd846a9bc", "name": "556c0aed89108d5fbe9c8c8bd846a9bc", "type": "electric_scooter", "lon": -77.0408585, "rental_uris": {"android": "https://dc.lft.to/lastmile_qr_scan", "ios": "https://dc.lft.to/lastmile_qr_scan"}, "lat": 38.91698983333333, "is_reserved": 0, "is_disabled": 0, "fusion_lat": 0.0}, {"fusion_lon": 0.0, "bike_id": "8a37883b75af464ae563c8e0938cf8bb", "name": "8a37883b75af464ae563c8e0938cf8bb", "type": "electric_scooter", "lon": -77.02330966666666, "rental_uris": {"android": "https://dc.lft.to/lastmile_qr_scan", "ios": "https://dc.lft.to/lastmile_qr_scan"}, "lat": 38.92714433333333, "is_reserved": 0, "is_disabled": 0, "fusion_lat": 0.0}, {"fusion_lon": 0.0, "bike_id": "672bf359623886e4fc0de6dd5f003d04", "name": "672bf359623886e4fc0de6dd5f003d04", "type": "electric_scooter", "lon": -76.98716966666667, "rental_uris": {"android": "https://dc.lft.to/lastmile_qr_scan", "ios": "https://dc.lft.to/lastmile_qr_scan"}, "lat": 38.832294166666664, "is_reserved": 0, "is_disabled": 0, "fusion_lat": 0.0}, {"fusion_lon": 0.0, "bike_id": "634fcb9a28e8407bd265a1bf9887cb7b", "name": "634fcb9a28e8407bd265a1bf9887cb7b", "type": "electric_scooter", "lon": -77.0376195, "rental_uris": {"android": "https://dc.lft.to/lastmile_qr_scan", "ios": "https://dc.lft.to/lastmile_qr_scan"}, "lat": 38.936142333333336, "is_reserved": 0, "is_disabled": 0, "fusion_lat": 0.0}, {"fusion_lon": 0.0, "bike_id": "a907597f0779f95681039f283ca09f25", "name": "a907597f0779f95681039f283ca09f25", "type": "electric_scooter", "lon": -76.98810816666666, "rental_uris": {"android": "https://dc.lft.to/lastmile_qr_scan", "ios": "https://dc.lft.to/lastmile_qr_scan"}, "lat": 38.908263833333336, "is_reserved": 0, "is_disabled": 0, "fusion_lat": 0.0}, {"fusion_lon": 0.0, "bike_id": "393b2ecb5d7dd1f9bef1cbb1f741c037", "name": "393b2ecb5d7dd1f9bef1cbb1f741c037", "type": "electric_scooter", "lon": -77.023203, "rental_uris": {"android": "https://dc.lft.to/lastmile_qr_scan", "ios": "https://dc.lft.to/lastmile_qr_scan"}, "lat": 38.91821816666667, "is_reserved": 0, "is_disabled": 0, "fusion_lat": 0.0}, {"fusion_lon": 0.0, "bike_id": "36054989aec10bac79f01a84a95586d3", "name": "36054989aec10bac79f01a84a95586d3", "type": "electric_scooter", "lon": -77.007248, "rental_uris": {"android": "https://dc.lft.to/lastmile_qr_scan", "ios": "https://dc.lft.to/lastmile_qr_scan"}, "lat": 38.8767735, "is_reserved": 0, "is_disabled": 0, "fusion_lat": 0.0}, {"fusion_lon": 0.0, "bike_id": "292adc696b89e6fd472bad8fcd32b14f", "name": "292adc696b89e6fd472bad8fcd32b14f", "type": "electric_scooter", "lon": -76.9520695, "rental_uris": {"android": "https://dc.lft.to/lastmile_qr_scan", "ios": "https://dc.lft.to/lastmile_qr_scan"}, "lat": 38.89244816666667, "is_reserved": 0, "is_disabled": 0, "fusion_lat": 0.0}, {"fusion_lon": 0.0, "bike_id": "be3c9381347cf3c6ef7bf34df09acfa7", "name": "be3c9381347cf3c6ef7bf34df09acfa7", "type": "electric_scooter", "lon": -77.072738, "rental_uris": {"android": "https://dc.lft.to/lastmile_qr_scan", "ios": "https://dc.lft.to/lastmile_qr_scan"}, "lat": 38.913302, "is_reserved": 0, "is_disabled": 0, "fusion_lat": 0.0}, {"fusion_lon": 0.0, "bike_id": "95d9215bb2a56d4b466817c235bc62b6", "name": "95d9215bb2a56d4b466817c235bc62b6", "type": "electric_scooter", "lon": -77.03180616666667, "rental_uris": {"android": "https://dc.lft.to/lastmile_qr_scan", "ios": "https://dc.lft.to/lastmile_qr_scan"}, "lat": 38.91605283333333, "is_reserved": 0, "is_disabled": 0, "fusion_lat": 0.0}, {"fusion_lon": 0.0, "bike_id": "614e975401b9c8c9324c98b2c04e0e89", "name": "614e975401b9c8c9324c98b2c04e0e89", "type": "electric_scooter", "lon": -77.02489766666666, "rental_uris": {"android": "https://dc.lft.to/lastmile_qr_scan", "ios": "https://dc.lft.to/lastmile_qr_scan"}, "lat": 38.919148, "is_reserved": 0, "is_disabled": 0, "fusion_lat": 0.0}, {"fusion_lon": 0.0, "bike_id": "7ebc932d8f31e5bb9429eebd236cdf12", "name": "7ebc932d8f31e5bb9429eebd236cdf12", "type": "electric_bike", "lon": -77.09570433333333, "rental_uris": {"android": "https://dc.lft.to/lastmile_qr_scan", "ios": "https://dc.lft.to/lastmile_qr_scan"}, "lat": 38.837847833333335, "is_reserved": 0, "is_disabled": 0, "fusion_lat": 0.0}, {"fusion_lon": 0.0, "bike_id": "5f014065d8e3376d709297b9d0e07c3c", "name": "5f014065d8e3376d709297b9d0e07c3c", "type": "electric_scooter", "lon": -77.02597366666667, "rental_uris": {"android": "https://dc.lft.to/lastmile_qr_scan", "ios": "https://dc.lft.to/lastmile_qr_scan"}, "lat": 38.927907833333336, "is_reserved": 0, "is_disabled": 0, "fusion_lat": 0.0}, {"fusion_lon": 0.0, "bike_id": "83661a3f94b434ddf51559859f754efe", "name": "83661a3f94b434ddf51559859f754efe", "type": "electric_scooter", "lon": -77.0157535, "rental_uris": {"android": "https://dc.lft.to/lastmile_qr_scan", "ios": "https://dc.lft.to/lastmile_qr_scan"}, "lat": 38.87676783333333, "is_reserved": 0, "is_disabled": 0, "fusion_lat": 0.0}, {"fusion_lon": 0.0, "bike_id": "6b88ab6ee40b46f69ef67821257a83fd", "name": "6b88ab6ee40b46f69ef67821257a83fd", "type": "electric_scooter", "lon": -77.04349383333333, "rental_uris": {"android": "https://dc.lft.to/lastmile_qr_scan", "ios": "https://dc.lft.to/lastmile_qr_scan"}, "lat": 38.89817766666667, "is_reserved": 0, "is_disabled": 0, "fusion_lat": 0.0}, {"fusion_lon": 0.0, "bike_id": "8a7d775c426665f7322a95285d86b4f1", "name": "8a7d775c426665f7322a95285d86b4f1", "type": "electric_scooter", "lon": -77.02972466666667, "rental_uris": {"android": "https://dc.lft.to/lastmile_qr_scan", "ios": "https://dc.lft.to/lastmile_qr_scan"}, "lat": 38.916245333333336, "is_reserved": 0, "is_disabled": 0, "fusion_lat": 0.0}, {"fusion_lon": 0.0, "bike_id": "a5e7a64f95394324a8fc4d7e8e1f1bb7", "name": "a5e7a64f95394324a8fc4d7e8e1f1bb7", "type": "electric_scooter", "lon": -77.0424415, "rental_uris": {"android": "https://dc.lft.to/lastmile_qr_scan", "ios": "https://dc.lft.to/lastmile_qr_scan"}, "lat": 38.917869333333336, "is_reserved": 0, "is_disabled": 0, "fusion_lat": 0.0}, {"fusion_lon": 0.0, "bike_id": "413532fbfc574d01872bc5490df29138", "name": "413532fbfc574d01872bc5490df29138", "type": "electric_scooter", "lon": -77.028515, "rental_uris": {"android": "https://dc.lft.to/lastmile_qr_scan", "ios": "https://dc.lft.to/lastmile_qr_scan"}, "lat": 38.93268416666667, "is_reserved": 0, "is_disabled": 0, "fusion_lat": 0.0}, {"fusion_lon": 0.0, "bike_id": "8d9dc75d51ba855a95a4f8a8557dbe75", "name": "8d9dc75d51ba855a95a4f8a8557dbe75", "type": "electric_scooter", "lon": -77.06582583333334, "rental_uris": {"android": "https://dc.lft.to/lastmile_qr_scan", "ios": "https://dc.lft.to/lastmile_qr_scan"}, "lat": 38.9035275, "is_reserved": 0, "is_disabled": 0, "fusion_lat": 0.0}, {"fusion_lon": 0.0, "bike_id": "97db7f4f27e43a754c84127ab130c2f6", "name": "97db7f4f27e43a754c84127ab130c2f6", "type": "electric_bike", "lon": -77.1050405, "rental_uris": {"android": "https://dc.lft.to/lastmile_qr_scan", "ios": "https://dc.lft.to/lastmile_qr_scan"}, "lat": 38.9284525, "is_reserved": 0, "is_disabled": 0, "fusion_lat": 0.0}, {"fusion_lon": 0.0, "bike_id": "1406ed7c08902ef05c93bce5b85864cb", "name": "1406ed7c08902ef05c93bce5b85864cb", "type": "electric_scooter", "lon": -77.029427, "rental_uris": {"android": "https://dc.lft.to/lastmile_qr_scan", "ios": "https://dc.lft.to/lastmile_qr_scan"}, "lat": 38.9070925, "is_reserved": 0, "is_disabled": 0, "fusion_lat": 0.0}, {"fusion_lon": 0.0, "bike_id": "9ad6c2a67cc6d340ab1f7f98d276d6fc", "name": "9ad6c2a67cc6d340ab1f7f98d276d6fc", "type": "electric_scooter", "lon": -77.02328883333334, "rental_uris": {"android": "https://dc.lft.to/lastmile_qr_scan", "ios": "https://dc.lft.to/lastmile_qr_scan"}, "lat": 38.917970833333335, "is_reserved": 0, "is_disabled": 0, "fusion_lat": 0.0}, {"fusion_lon": 0.0, "bike_id": "5ccc98330b9affc425bc71790211bc3f", "name": "5ccc98330b9affc425bc71790211bc3f", "type": "electric_scooter", "lon": -77.0033675, "rental_uris": {"android": "https://dc.lft.to/lastmile_qr_scan", "ios": "https://dc.lft.to/lastmile_qr_scan"}, "lat": 38.904416, "is_reserved": 0, "is_disabled": 0, "fusion_lat": 0.0}, {"fusion_lon": 0.0, "bike_id": "199be128e3bfdacd6d75a93a31092830", "name": "199be128e3bfdacd6d75a93a31092830", "type": "electric_scooter", "lon": -77.03521916666666, "rental_uris": {"android": "https://dc.lft.to/lastmile_qr_scan", "ios": "https://dc.lft.to/lastmile_qr_scan"}, "lat": 38.932764666666664, "is_reserved": 0, "is_disabled": 0, "fusion_lat": 0.0}, {"fusion_lon": 0.0, "bike_id": "9aa211414377362f58c4962de9c067c7", "name": "9aa211414377362f58c4962de9c067c7", "type": "electric_scooter", "lon": -77.0450675, "rental_uris": {"android": "https://dc.lft.to/lastmile_qr_scan", "ios": "https://dc.lft.to/lastmile_qr_scan"}, "lat": 38.8860295, "is_reserved": 0, "is_disabled": 0, "fusion_lat": 0.0}, {"fusion_lon": 0.0, "bike_id": "c9e1c10f279db106fa50b1b2b3743199", "name": "c9e1c10f279db106fa50b1b2b3743199", "type": "electric_bike", "lon": -77.101259, "rental_uris": {"android": "https://dc.lft.to/lastmile_qr_scan", "ios": "https://dc.lft.to/lastmile_qr_scan"}, "lat": 38.852073833333336, "is_reserved": 0, "is_disabled": 0, "fusion_lat": 0.0}, {"fusion_lon": 0.0, "bike_id": "f4671d9166712b46bec0fa07af4a79d4", "name": "f4671d9166712b46bec0fa07af4a79d4", "type": "electric_scooter", "lon": -77.03846983333334, "rental_uris": {"android": "https://dc.lft.to/lastmile_qr_scan", "ios": "https://dc.lft.to/lastmile_qr_scan"}, "lat": 38.915532166666665, "is_reserved": 0, "is_disabled": 0, "fusion_lat": 0.0}, {"fusion_lon": 0.0, "bike_id": "d11af06748c5f19aae3fc103e3000c20", "name": "d11af06748c5f19aae3fc103e3000c20", "type": "electric_scooter", "lon": -77.04237183333333, "rental_uris": {"android": "https://dc.lft.to/lastmile_qr_scan", "ios": "https://dc.lft.to/lastmile_qr_scan"}, "lat": 38.91063966666667, "is_reserved": 0, "is_disabled": 0, "fusion_lat": 0.0}, {"fusion_lon": 0.0, "bike_id": "3b4b4fead1958f8a927f1e8bbba4cda4", "name": "3b4b4fead1958f8a927f1e8bbba4cda4", "type": "electric_scooter", "lon": -77.03795816666667, "rental_uris": {"android": "https://dc.lft.to/lastmile_qr_scan", "ios": "https://dc.lft.to/lastmile_qr_scan"}, "lat": 38.91033483333333, "is_reserved": 0, "is_disabled": 0, "fusion_lat": 0.0}, {"fusion_lon": 0.0, "bike_id": "7bab17df20e6721817d116d93ed31a64", "name": "7bab17df20e6721817d116d93ed31a64", "type": "electric_scooter", "lon": -76.96481883333334, "rental_uris": {"android": "https://dc.lft.to/lastmile_qr_scan", "ios": "https://dc.lft.to/lastmile_qr_scan"}, "lat": 38.8754875, "is_reserved": 0, "is_disabled": 0, "fusion_lat": 0.0}, {"fusion_lon": 0.0, "bike_id": "ac0e71db6facf1aa6ecb2b91794a69cc", "name": "ac0e71db6facf1aa6ecb2b91794a69cc", "type": "electric_bike", "lon": -77.152667, "rental_uris": {"android": "https://dc.lft.to/lastmile_qr_scan", "ios": "https://dc.lft.to/lastmile_qr_scan"}, "lat": 39.1056545, "is_reserved": 0, "is_disabled": 0, "fusion_lat": 0.0}, {"fusion_lon": 0.0, "bike_id": "33456c64efdfafa541ac4a49dcee72e3", "name": "33456c64efdfafa541ac4a49dcee72e3", "type": "electric_bike", "lon": -77.021362, "rental_uris": {"android": "https://dc.lft.to/lastmile_qr_scan", "ios": "https://dc.lft.to/lastmile_qr_scan"}, "lat": 38.957441, "is_reserved": 0, "is_disabled": 0, "fusion_lat": 0.0}, {"fusion_lon": 0.0, "bike_id": "ead23d6b7cea0a0f3e67cea4773bde5c", "name": "ead23d6b7cea0a0f3e67cea4773bde5c", "type": "electric_bike", "lon": -76.916024, "rental_uris": {"android": "https://dc.lft.to/lastmile_qr_scan", "ios": "https://dc.lft.to/lastmile_qr_scan"}, "lat": 38.879709166666665, "is_reserved": 0, "is_disabled": 0, "fusion_lat": 0.0}, {"fusion_lon": 0.0, "bike_id": "de0f2982f89f354b6d62d240cf026f42", "name": "de0f2982f89f354b6d62d240cf026f42", "type": "electric_scooter", "lon": -77.03448583333333, "rental_uris": {"android": "https://dc.lft.to/lastmile_qr_scan", "ios": "https://dc.lft.to/lastmile_qr_scan"}, "lat": 38.964266, "is_reserved": 0, "is_disabled": 0, "fusion_lat": 0.0}, {"fusion_lon": 0.0, "bike_id": "07fae523b0bca8d91a2d5e24b5131a33", "name": "07fae523b0bca8d91a2d5e24b5131a33", "type": "electric_scooter", "lon": -77.04721183333334, "rental_uris": {"android": "https://dc.lft.to/lastmile_qr_scan", "ios": "https://dc.lft.to/lastmile_qr_scan"}, "lat": 38.899522166666664, "is_reserved": 0, "is_disabled": 0, "fusion_lat": 0.0}, {"fusion_lon": 0.0, "bike_id": "39a21951f8257c8c01dfbc765c224b22", "name": "39a21951f8257c8c01dfbc765c224b22", "type": "electric_scooter", "lon": -76.96505716666667, "rental_uris": {"android": "https://dc.lft.to/lastmile_qr_scan", "ios": "https://dc.lft.to/lastmile_qr_scan"}, "lat": 38.87646216666667, "is_reserved": 0, "is_disabled": 0, "fusion_lat": 0.0}, {"fusion_lon": 0.0, "bike_id": "0315aa6c6d926c993d17ac090f9c97b1", "name": "0315aa6c6d926c993d17ac090f9c97b1", "type": "electric_scooter", "lon": -76.98326516666667, "rental_uris": {"android": "https://dc.lft.to/lastmile_qr_scan", "ios": "https://dc.lft.to/lastmile_qr_scan"}, "lat": 38.861717166666665, "is_reserved": 0, "is_disabled": 0, "fusion_lat": 0.0}, {"fusion_lon": 0.0, "bike_id": "3254864e85ea938758ec9e24f1951060", "name": "3254864e85ea938758ec9e24f1951060", "type": "electric_bike", "lon": -76.968353, "rental_uris": {"android": "https://dc.lft.to/lastmile_qr_scan", "ios": "https://dc.lft.to/lastmile_qr_scan"}, "lat": 38.924440833333335, "is_reserved": 0, "is_disabled": 0, "fusion_lat": 0.0}, {"fusion_lon": 0.0, "bike_id": "531c502d59da9e1020aeeab03182dc35", "name": "531c502d59da9e1020aeeab03182dc35", "type": "electric_scooter", "lon": -77.04661133333333, "rental_uris": {"android": "https://dc.lft.to/lastmile_qr_scan", "ios": "https://dc.lft.to/lastmile_qr_scan"}, "lat": 38.92057916666667, "is_reserved": 0, "is_disabled": 0, "fusion_lat": 0.0}, {"fusion_lon": 0.0, "bike_id": "d987d29ac1f76db59a3630698367c470", "name": "d987d29ac1f76db59a3630698367c470", "type": "electric_scooter", "lon": -77.01965933333334, "rental_uris": {"android": "https://dc.lft.to/lastmile_qr_scan", "ios": "https://dc.lft.to/lastmile_qr_scan"}, "lat": 38.8784885, "is_reserved": 0, "is_disabled": 0, "fusion_lat": 0.0}, {"fusion_lon": 0.0, "bike_id": "7584bf72272675470e698cefc848d575", "name": "7584bf72272675470e698cefc848d575", "type": "electric_scooter", "lon": -77.00788333333334, "rental_uris": {"android": "https://dc.lft.to/lastmile_qr_scan", "ios": "https://dc.lft.to/lastmile_qr_scan"}, "lat": 38.87605666666666, "is_reserved": 0, "is_disabled": 0, "fusion_lat": 0.0}, {"fusion_lon": 0.0, "bike_id": "49e8d9e0deffec56334842e36922d9aa", "name": "49e8d9e0deffec56334842e36922d9aa", "type": "electric_scooter", "lon": -77.04179383333333, "rental_uris": {"android": "https://dc.lft.to/lastmile_qr_scan", "ios": "https://dc.lft.to/lastmile_qr_scan"}, "lat": 38.9126615, "is_reserved": 0, "is_disabled": 0, "fusion_lat": 0.0}, {"fusion_lon": 0.0, "bike_id": "27da7fb2331c0bcfcd370dbbd0785193", "name": "27da7fb2331c0bcfcd370dbbd0785193", "type": "electric_scooter", "lon": -76.9868305, "rental_uris": {"android": "https://dc.lft.to/lastmile_qr_scan", "ios": "https://dc.lft.to/lastmile_qr_scan"}, "lat": 38.88531183333333, "is_reserved": 0, "is_disabled": 0, "fusion_lat": 0.0}, {"fusion_lon": 0.0, "bike_id": "d9cde846c7bca008720e0031b9f82cd2", "name": "d9cde846c7bca008720e0031b9f82cd2", "type": "electric_scooter", "lon": -77.020298, "rental_uris": {"android": "https://dc.lft.to/lastmile_qr_scan", "ios": "https://dc.lft.to/lastmile_qr_scan"}, "lat": 38.88122216666667, "is_reserved": 0, "is_disabled": 0, "fusion_lat": 0.0}, {"fusion_lon": 0.0, "bike_id": "93975f80d2365448a94de22afc15bca9", "name": "93975f80d2365448a94de22afc15bca9", "type": "electric_bike", "lon": -76.97190766666667, "rental_uris": {"android": "https://dc.lft.to/lastmile_qr_scan", "ios": "https://dc.lft.to/lastmile_qr_scan"}, "lat": 38.89244933333333, "is_reserved": 0, "is_disabled": 0, "fusion_lat": 0.0}, {"fusion_lon": 0.0, "bike_id": "890a22bae624d76b5eea4520dd6527ac", "name": "890a22bae624d76b5eea4520dd6527ac", "type": "electric_scooter", "lon": -77.03435916666666, "rental_uris": {"android": "https://dc.lft.to/lastmile_qr_scan", "ios": "https://dc.lft.to/lastmile_qr_scan"}, "lat": 38.907131, "is_reserved": 0, "is_disabled": 0, "fusion_lat": 0.0}, {"fusion_lon": 0.0, "bike_id": "83187ffb2bdeda3d4fd135be9a1692db", "name": "83187ffb2bdeda3d4fd135be9a1692db", "type": "electric_scooter", "lon": -77.02944033333333, "rental_uris": {"android": "https://dc.lft.to/lastmile_qr_scan", "ios": "https://dc.lft.to/lastmile_qr_scan"}, "lat": 38.90503416666667, "is_reserved": 0, "is_disabled": 0, "fusion_lat": 0.0}, {"fusion_lon": 0.0, "bike_id": "a9fd33fc8a0764d77176f71c81934a21", "name": "a9fd33fc8a0764d77176f71c81934a21", "type": "electric_scooter", "lon": -77.0136955, "rental_uris": {"android": "https://dc.lft.to/lastmile_qr_scan", "ios": "https://dc.lft.to/lastmile_qr_scan"}, "lat": 38.89221216666667, "is_reserved": 0, "is_disabled": 0, "fusion_lat": 0.0}, {"fusion_lon": 0.0, "bike_id": "41390329136d361fca845b3a83e960b9", "name": "41390329136d361fca845b3a83e960b9", "type": "electric_scooter", "lon": -77.04407216666667, "rental_uris": {"android": "https://dc.lft.to/lastmile_qr_scan", "ios": "https://dc.lft.to/lastmile_qr_scan"}, "lat": 38.8939195, "is_reserved": 0, "is_disabled": 0, "fusion_lat": 0.0}, {"fusion_lon": 0.0, "bike_id": "5ffc6cbf752bea8209f68b607380c3cf", "name": "5ffc6cbf752bea8209f68b607380c3cf", "type": "electric_scooter", "lon": -77.03703833333333, "rental_uris": {"android": "https://dc.lft.to/lastmile_qr_scan", "ios": "https://dc.lft.to/lastmile_qr_scan"}, "lat": 38.92634666666667, "is_reserved": 0, "is_disabled": 0, "fusion_lat": 0.0}, {"fusion_lon": 0.0, "bike_id": "d6632c68bbd36f20e1b4466d2c74a8a3", "name": "d6632c68bbd36f20e1b4466d2c74a8a3", "type": "electric_scooter", "lon": -77.04605183333334, "rental_uris": {"android": "https://dc.lft.to/lastmile_qr_scan", "ios": "https://dc.lft.to/lastmile_qr_scan"}, "lat": 38.9006015, "is_reserved": 0, "is_disabled": 0, "fusion_lat": 0.0}, {"fusion_lon": 0.0, "bike_id": "7c25a23fd92620e4639a8f1226b886b9", "name": "7c25a23fd92620e4639a8f1226b886b9", "type": "electric_scooter", "lon": -77.00495616666667, "rental_uris": {"android": "https://dc.lft.to/lastmile_qr_scan", "ios": "https://dc.lft.to/lastmile_qr_scan"}, "lat": 38.87938, "is_reserved": 0, "is_disabled": 0, "fusion_lat": 0.0}, {"fusion_lon": 0.0, "bike_id": "7c5e44cc557dcb4f3dd557c81090b251", "name": "7c5e44cc557dcb4f3dd557c81090b251", "type": "electric_scooter", "lon": -77.03202683333333, "rental_uris": {"android": "https://dc.lft.to/lastmile_qr_scan", "ios": "https://dc.lft.to/lastmile_qr_scan"}, "lat": 38.917418833333336, "is_reserved": 0, "is_disabled": 0, "fusion_lat": 0.0}, {"fusion_lon": 0.0, "bike_id": "27db8f601269999437696c856aaa4dbc", "name": "27db8f601269999437696c856aaa4dbc", "type": "electric_bike", "lon": -76.98962066666667, "rental_uris": {"android": "https://dc.lft.to/lastmile_qr_scan", "ios": "https://dc.lft.to/lastmile_qr_scan"}, "lat": 38.8891645, "is_reserved": 0, "is_disabled": 0, "fusion_lat": 0.0}, {"fusion_lon": 0.0, "bike_id": "8d95a1ab51b0351072cffea63849ee68", "name": "8d95a1ab51b0351072cffea63849ee68", "type": "electric_scooter", "lon": -77.02582083333333, "rental_uris": {"android": "https://dc.lft.to/lastmile_qr_scan", "ios": "https://dc.lft.to/lastmile_qr_scan"}, "lat": 38.92032866666667, "is_reserved": 0, "is_disabled": 0, "fusion_lat": 0.0}, {"fusion_lon": 0.0, "bike_id": "c4471aa1fbce16bf64c60438e7617da3", "name": "c4471aa1fbce16bf64c60438e7617da3", "type": "electric_scooter", "lon": -77.025926, "rental_uris": {"android": "https://dc.lft.to/lastmile_qr_scan", "ios": "https://dc.lft.to/lastmile_qr_scan"}, "lat": 38.9049675, "is_reserved": 0, "is_disabled": 0, "fusion_lat": 0.0}, {"fusion_lon": 0.0, "bike_id": "792cb6fd07e96a4e98ba10bc6f9757fe", "name": "792cb6fd07e96a4e98ba10bc6f9757fe", "type": "electric_scooter", "lon": -76.980877, "rental_uris": {"android": "https://dc.lft.to/lastmile_qr_scan", "ios": "https://dc.lft.to/lastmile_qr_scan"}, "lat": 38.857176, "is_reserved": 0, "is_disabled": 0, "fusion_lat": 0.0}, {"fusion_lon": 0.0, "bike_id": "747af8a8cec71b823faa837892215384", "name": "747af8a8cec71b823faa837892215384", "type": "electric_scooter", "lon": -77.01702166666666, "rental_uris": {"android": "https://dc.lft.to/lastmile_qr_scan", "ios": "https://dc.lft.to/lastmile_qr_scan"}, "lat": 38.90729666666667, "is_reserved": 0, "is_disabled": 0, "fusion_lat": 0.0}, {"fusion_lon": 0.0, "bike_id": "e8474a57f57fee2e418fb27617fd8ff6", "name": "e8474a57f57fee2e418fb27617fd8ff6", "type": "electric_scooter", "lon": -77.038354, "rental_uris": {"android": "https://dc.lft.to/lastmile_qr_scan", "ios": "https://dc.lft.to/lastmile_qr_scan"}, "lat": 38.90667416666667, "is_reserved": 0, "is_disabled": 0, "fusion_lat": 0.0}, {"fusion_lon": 0.0, "bike_id": "67608741a9f0ffc4ce9c640109acf233", "name": "67608741a9f0ffc4ce9c640109acf233", "type": "electric_scooter", "lon": -77.05926283333334, "rental_uris": {"android": "https://dc.lft.to/lastmile_qr_scan", "ios": "https://dc.lft.to/lastmile_qr_scan"}, "lat": 38.93663033333333, "is_reserved": 0, "is_disabled": 0, "fusion_lat": 0.0}, {"fusion_lon": 0.0, "bike_id": "4af15d0ac63441f052fd9e635d7b527e", "name": "4af15d0ac63441f052fd9e635d7b527e", "type": "electric_scooter", "lon": -77.03282983333334, "rental_uris": {"android": "https://dc.lft.to/lastmile_qr_scan", "ios": "https://dc.lft.to/lastmile_qr_scan"}, "lat": 38.932530666666665, "is_reserved": 0, "is_disabled": 0, "fusion_lat": 0.0}, {"fusion_lon": 0.0, "bike_id": "fa4ef6cd54df2bdb3527dacebb562e23", "name": "fa4ef6cd54df2bdb3527dacebb562e23", "type": "electric_scooter", "lon": -76.9902225, "rental_uris": {"android": "https://dc.lft.to/lastmile_qr_scan", "ios": "https://dc.lft.to/lastmile_qr_scan"}, "lat": 38.858688666666666, "is_reserved": 0, "is_disabled": 0, "fusion_lat": 0.0}, {"fusion_lon": 0.0, "bike_id": "abb89e8b7566eb573fda6911bde5aa40", "name": "abb89e8b7566eb573fda6911bde5aa40", "type": "electric_bike", "lon": -77.18288033333333, "rental_uris": {"android": "https://dc.lft.to/lastmile_qr_scan", "ios": "https://dc.lft.to/lastmile_qr_scan"}, "lat": 38.8833895, "is_reserved": 0, "is_disabled": 0, "fusion_lat": 0.0}, {"fusion_lon": 0.0, "bike_id": "1bbc81c6d48497f8b67eac9215ad1517", "name": "1bbc81c6d48497f8b67eac9215ad1517", "type": "electric_scooter", "lon": -77.024642, "rental_uris": {"android": "https://dc.lft.to/lastmile_qr_scan", "ios": "https://dc.lft.to/lastmile_qr_scan"}, "lat": 38.93906466666667, "is_reserved": 0, "is_disabled": 0, "fusion_lat": 0.0}, {"fusion_lon": 0.0, "bike_id": "607ae90ee4a021c78e924f5885562c5d", "name": "607ae90ee4a021c78e924f5885562c5d", "type": "electric_scooter", "lon": -77.02775516666667, "rental_uris": {"android": "https://dc.lft.to/lastmile_qr_scan", "ios": "https://dc.lft.to/lastmile_qr_scan"}, "lat": 38.89217383333333, "is_reserved": 0, "is_disabled": 0, "fusion_lat": 0.0}, {"fusion_lon": 0.0, "bike_id": "a50f5a4e04aefc53e312b9f9e124949d", "name": "a50f5a4e04aefc53e312b9f9e124949d", "type": "electric_scooter", "lon": -77.048051, "rental_uris": {"android": "https://dc.lft.to/lastmile_qr_scan", "ios": "https://dc.lft.to/lastmile_qr_scan"}, "lat": 38.92027016666667, "is_reserved": 0, "is_disabled": 0, "fusion_lat": 0.0}, {"fusion_lon": 0.0, "bike_id": "ffba3c58ef8d05ab023330366f13f372", "name": "ffba3c58ef8d05ab023330366f13f372", "type": "electric_scooter", "lon": -77.0330115, "rental_uris": {"android": "https://dc.lft.to/lastmile_qr_scan", "ios": "https://dc.lft.to/lastmile_qr_scan"}, "lat": 38.9288275, "is_reserved": 0, "is_disabled": 0, "fusion_lat": 0.0}, {"fusion_lon": 0.0, "bike_id": "d087d3fd887fc68bb6ae3d45d21f2e3b", "name": "d087d3fd887fc68bb6ae3d45d21f2e3b", "type": "electric_scooter", "lon": -77.04865633333333, "rental_uris": {"android": "https://dc.lft.to/lastmile_qr_scan", "ios": "https://dc.lft.to/lastmile_qr_scan"}, "lat": 38.892236833333335, "is_reserved": 0, "is_disabled": 0, "fusion_lat": 0.0}, {"fusion_lon": 0.0, "bike_id": "f052ae87d7881980f8124807a321f952", "name": "f052ae87d7881980f8124807a321f952", "type": "electric_scooter", "lon": -77.02222183333333, "rental_uris": {"android": "https://dc.lft.to/lastmile_qr_scan", "ios": "https://dc.lft.to/lastmile_qr_scan"}, "lat": 38.892212666666666, "is_reserved": 0, "is_disabled": 0, "fusion_lat": 0.0}, {"fusion_lon": 0.0, "bike_id": "9221988f333a13377edbe12dd5847446", "name": "9221988f333a13377edbe12dd5847446", "type": "electric_scooter", "lon": -77.00515833333333, "rental_uris": {"android": "https://dc.lft.to/lastmile_qr_scan", "ios": "https://dc.lft.to/lastmile_qr_scan"}, "lat": 38.874716666666664, "is_reserved": 0, "is_disabled": 0, "fusion_lat": 0.0}, {"fusion_lon": 0.0, "bike_id": "fae2b67bf0de99aec3738d43504ed7fd", "name": "fae2b67bf0de99aec3738d43504ed7fd", "type": "electric_scooter", "lon": -77.01438, "rental_uris": {"android": "https://dc.lft.to/lastmile_qr_scan", "ios": "https://dc.lft.to/lastmile_qr_scan"}, "lat": 38.8777635, "is_reserved": 0, "is_disabled": 0, "fusion_lat": 0.0}, {"fusion_lon": 0.0, "bike_id": "5a100c610f2d34277b2a159bfc6bbeac", "name": "5a100c610f2d34277b2a159bfc6bbeac", "type": "electric_bike", "lon": -76.936165, "rental_uris": {"android": "https://dc.lft.to/lastmile_qr_scan", "ios": "https://dc.lft.to/lastmile_qr_scan"}, "lat": 38.97077266666667, "is_reserved": 0, "is_disabled": 0, "fusion_lat": 0.0}, {"fusion_lon": 0.0, "bike_id": "26c056de4384262117dd5a404754ec0f", "name": "26c056de4384262117dd5a404754ec0f", "type": "electric_scooter", "lon": -77.03143583333333, "rental_uris": {"android": "https://dc.lft.to/lastmile_qr_scan", "ios": "https://dc.lft.to/lastmile_qr_scan"}, "lat": 38.93183616666666, "is_reserved": 0, "is_disabled": 0, "fusion_lat": 0.0}, {"fusion_lon": 0.0, "bike_id": "4da103eda94efca86302a4888b3936e9", "name": "4da103eda94efca86302a4888b3936e9", "type": "electric_scooter", "lon": -76.93747183333333, "rental_uris": {"android": "https://dc.lft.to/lastmile_qr_scan", "ios": "https://dc.lft.to/lastmile_qr_scan"}, "lat": 38.890305, "is_reserved": 0, "is_disabled": 0, "fusion_lat": 0.0}, {"fusion_lon": 0.0, "bike_id": "463350fc6ba49e97904c9c675c82b716", "name": "463350fc6ba49e97904c9c675c82b716", "type": "electric_scooter", "lon": -76.99630666666667, "rental_uris": {"android": "https://dc.lft.to/lastmile_qr_scan", "ios": "https://dc.lft.to/lastmile_qr_scan"}, "lat": 38.846186, "is_reserved": 0, "is_disabled": 0, "fusion_lat": 0.0}, {"fusion_lon": 0.0, "bike_id": "055925dd73891cd2a753157386df0ab6", "name": "055925dd73891cd2a753157386df0ab6", "type": "electric_scooter", "lon": -76.97796733333334, "rental_uris": {"android": "https://dc.lft.to/lastmile_qr_scan", "ios": "https://dc.lft.to/lastmile_qr_scan"}, "lat": 38.90311916666667, "is_reserved": 0, "is_disabled": 0, "fusion_lat": 0.0}, {"fusion_lon": 0.0, "bike_id": "33d4da59228bc9676d12feb5b9f124ac", "name": "33d4da59228bc9676d12feb5b9f124ac", "type": "electric_scooter", "lon": -77.03202883333333, "rental_uris": {"android": "https://dc.lft.to/lastmile_qr_scan", "ios": "https://dc.lft.to/lastmile_qr_scan"}, "lat": 38.917893, "is_reserved": 0, "is_disabled": 0, "fusion_lat": 0.0}, {"fusion_lon": 0.0, "bike_id": "174e607548f80dc7ed33bbd3b6595a03", "name": "174e607548f80dc7ed33bbd3b6595a03", "type": "electric_scooter", "lon": -77.0119405, "rental_uris": {"android": "https://dc.lft.to/lastmile_qr_scan", "ios": "https://dc.lft.to/lastmile_qr_scan"}, "lat": 38.895299666666666, "is_reserved": 0, "is_disabled": 0, "fusion_lat": 0.0}, {"fusion_lon": 0.0, "bike_id": "68f4c5eebb8594478a3925e5d0c9dbea", "name": "68f4c5eebb8594478a3925e5d0c9dbea", "type": "electric_scooter", "lon": -77.04650166666667, "rental_uris": {"android": "https://dc.lft.to/lastmile_qr_scan", "ios": "https://dc.lft.to/lastmile_qr_scan"}, "lat": 38.89235333333333, "is_reserved": 0, "is_disabled": 0, "fusion_lat": 0.0}, {"fusion_lon": 0.0, "bike_id": "8d9cd764b1861719c72303059e77843f", "name": "8d9cd764b1861719c72303059e77843f", "type": "electric_scooter", "lon": -77.050552, "rental_uris": {"android": "https://dc.lft.to/lastmile_qr_scan", "ios": "https://dc.lft.to/lastmile_qr_scan"}, "lat": 38.900851333333335, "is_reserved": 0, "is_disabled": 0, "fusion_lat": 0.0}, {"fusion_lon": 0.0, "bike_id": "645fa445f270e5bac10fbea11c81a969", "name": "645fa445f270e5bac10fbea11c81a969", "type": "electric_bike", "lon": -76.98750283333334, "rental_uris": {"android": "https://dc.lft.to/lastmile_qr_scan", "ios": "https://dc.lft.to/lastmile_qr_scan"}, "lat": 38.988205, "is_reserved": 0, "is_disabled": 0, "fusion_lat": 0.0}, {"fusion_lon": 0.0, "bike_id": "f8f3f8671eb1693d46e27a02ce0390be", "name": "f8f3f8671eb1693d46e27a02ce0390be", "type": "electric_scooter", "lon": -77.01781466666667, "rental_uris": {"android": "https://dc.lft.to/lastmile_qr_scan", "ios": "https://dc.lft.to/lastmile_qr_scan"}, "lat": 38.921079, "is_reserved": 0, "is_disabled": 0, "fusion_lat": 0.0}, {"fusion_lon": 0.0, "bike_id": "1e4e022e5844bf82c0a464c88d3f842f", "name": "1e4e022e5844bf82c0a464c88d3f842f", "type": "electric_scooter", "lon": -77.0316035, "rental_uris": {"android": "https://dc.lft.to/lastmile_qr_scan", "ios": "https://dc.lft.to/lastmile_qr_scan"}, "lat": 38.928181, "is_reserved": 0, "is_disabled": 0, "fusion_lat": 0.0}, {"fusion_lon": 0.0, "bike_id": "4a83aa4fcafb2537ea9637b5cbffddad", "name": "4a83aa4fcafb2537ea9637b5cbffddad", "type": "electric_scooter", "lon": -77.01766833333333, "rental_uris": {"android": "https://dc.lft.to/lastmile_qr_scan", "ios": "https://dc.lft.to/lastmile_qr_scan"}, "lat": 38.87704033333333, "is_reserved": 0, "is_disabled": 0, "fusion_lat": 0.0}, {"fusion_lon": 0.0, "bike_id": "734fa6352a77784fe9df191061508b22", "name": "734fa6352a77784fe9df191061508b22", "type": "electric_scooter", "lon": -77.077042, "rental_uris": {"android": "https://dc.lft.to/lastmile_qr_scan", "ios": "https://dc.lft.to/lastmile_qr_scan"}, "lat": 38.942904166666665, "is_reserved": 0, "is_disabled": 0, "fusion_lat": 0.0}, {"fusion_lon": 0.0, "bike_id": "6a3ce81425406437ce6c0447ad07adac", "name": "6a3ce81425406437ce6c0447ad07adac", "type": "electric_scooter", "lon": -77.04355166666667, "rental_uris": {"android": "https://dc.lft.to/lastmile_qr_scan", "ios": "https://dc.lft.to/lastmile_qr_scan"}, "lat": 38.9187505, "is_reserved": 0, "is_disabled": 0, "fusion_lat": 0.0}, {"fusion_lon": 0.0, "bike_id": "ad195d3cb4eb1784ecaf9c2d6233347e", "name": "ad195d3cb4eb1784ecaf9c2d6233347e", "type": "electric_scooter", "lon": -77.03296266666666, "rental_uris": {"android": "https://dc.lft.to/lastmile_qr_scan", "ios": "https://dc.lft.to/lastmile_qr_scan"}, "lat": 38.91116733333333, "is_reserved": 0, "is_disabled": 0, "fusion_lat": 0.0}, {"fusion_lon": 0.0, "bike_id": "eb4e4ff3dcbbf8c16083d8fa937442db", "name": "eb4e4ff3dcbbf8c16083d8fa937442db", "type": "electric_scooter", "lon": -77.04850133333333, "rental_uris": {"android": "https://dc.lft.to/lastmile_qr_scan", "ios": "https://dc.lft.to/lastmile_qr_scan"}, "lat": 38.90183416666667, "is_reserved": 0, "is_disabled": 0, "fusion_lat": 0.0}, {"fusion_lon": 0.0, "bike_id": "a251e149533023c3c63786e0bae5b2d9", "name": "a251e149533023c3c63786e0bae5b2d9", "type": "electric_scooter", "lon": -77.01082266666667, "rental_uris": {"android": "https://dc.lft.to/lastmile_qr_scan", "ios": "https://dc.lft.to/lastmile_qr_scan"}, "lat": 38.896133166666665, "is_reserved": 0, "is_disabled": 0, "fusion_lat": 0.0}, {"fusion_lon": 0.0, "bike_id": "9c6578b587a0e1f52f7800177bc7e035", "name": "9c6578b587a0e1f52f7800177bc7e035", "type": "electric_scooter", "lon": -77.0415175, "rental_uris": {"android": "https://dc.lft.to/lastmile_qr_scan", "ios": "https://dc.lft.to/lastmile_qr_scan"}, "lat": 38.914735666666665, "is_reserved": 0, "is_disabled": 0, "fusion_lat": 0.0}, {"fusion_lon": 0.0, "bike_id": "a18a3e5c7e6969db3ef5da337c8458ba", "name": "a18a3e5c7e6969db3ef5da337c8458ba", "type": "electric_scooter", "lon": -77.0423905, "rental_uris": {"android": "https://dc.lft.to/lastmile_qr_scan", "ios": "https://dc.lft.to/lastmile_qr_scan"}, "lat": 38.919255, "is_reserved": 0, "is_disabled": 0, "fusion_lat": 0.0}, {"fusion_lon": 0.0, "bike_id": "8611e21b5f0a8f97e6eb26d0a15a9b22", "name": "8611e21b5f0a8f97e6eb26d0a15a9b22", "type": "electric_scooter", "lon": -77.024188, "rental_uris": {"android": "https://dc.lft.to/lastmile_qr_scan", "ios": "https://dc.lft.to/lastmile_qr_scan"}, "lat": 38.921883333333334, "is_reserved": 0, "is_disabled": 0, "fusion_lat": 0.0}, {"fusion_lon": 0.0, "bike_id": "b3fa7e3c763213e84c08310fdeeb15b4", "name": "b3fa7e3c763213e84c08310fdeeb15b4", "type": "electric_scooter", "lon": -76.996423, "rental_uris": {"android": "https://dc.lft.to/lastmile_qr_scan", "ios": "https://dc.lft.to/lastmile_qr_scan"}, "lat": 38.887194666666666, "is_reserved": 0, "is_disabled": 0, "fusion_lat": 0.0}, {"fusion_lon": 0.0, "bike_id": "997297b371788ef79a0fccaab6ae8601", "name": "997297b371788ef79a0fccaab6ae8601", "type": "electric_scooter", "lon": -77.02112516666666, "rental_uris": {"android": "https://dc.lft.to/lastmile_qr_scan", "ios": "https://dc.lft.to/lastmile_qr_scan"}, "lat": 38.897393666666666, "is_reserved": 0, "is_disabled": 0, "fusion_lat": 0.0}, {"fusion_lon": 0.0, "bike_id": "c83eed27f6f0b0a5f7dfaa55d8e8be62", "name": "c83eed27f6f0b0a5f7dfaa55d8e8be62", "type": "electric_scooter", "lon": -77.04053, "rental_uris": {"android": "https://dc.lft.to/lastmile_qr_scan", "ios": "https://dc.lft.to/lastmile_qr_scan"}, "lat": 38.9059645, "is_reserved": 0, "is_disabled": 0, "fusion_lat": 0.0}, {"fusion_lon": 0.0, "bike_id": "30ffca7846056fe26be5119fa71c3635", "name": "30ffca7846056fe26be5119fa71c3635", "type": "electric_scooter", "lon": -77.00820266666666, "rental_uris": {"android": "https://dc.lft.to/lastmile_qr_scan", "ios": "https://dc.lft.to/lastmile_qr_scan"}, "lat": 38.876398333333334, "is_reserved": 0, "is_disabled": 0, "fusion_lat": 0.0}, {"fusion_lon": 0.0, "bike_id": "b14262442d4228ac4ec553cd76526c6d", "name": "b14262442d4228ac4ec553cd76526c6d", "type": "electric_scooter", "lon": -77.009355, "rental_uris": {"android": "https://dc.lft.to/lastmile_qr_scan", "ios": "https://dc.lft.to/lastmile_qr_scan"}, "lat": 38.876577, "is_reserved": 0, "is_disabled": 0, "fusion_lat": 0.0}, {"fusion_lon": 0.0, "bike_id": "483b13f3f1696432e5b32101989680a6", "name": "483b13f3f1696432e5b32101989680a6", "type": "electric_scooter", "lon": -77.017612, "rental_uris": {"android": "https://dc.lft.to/lastmile_qr_scan", "ios": "https://dc.lft.to/lastmile_qr_scan"}, "lat": 38.877178666666666, "is_reserved": 0, "is_disabled": 0, "fusion_lat": 0.0}, {"fusion_lon": 0.0, "bike_id": "3ac4537241ab11e5f4ce02fc05afae7d", "name": "3ac4537241ab11e5f4ce02fc05afae7d", "type": "electric_scooter", "lon": -77.0351375, "rental_uris": {"android": "https://dc.lft.to/lastmile_qr_scan", "ios": "https://dc.lft.to/lastmile_qr_scan"}, "lat": 38.9233945, "is_reserved": 0, "is_disabled": 0, "fusion_lat": 0.0}, {"fusion_lon": 0.0, "bike_id": "c4fc3833362b4c7a8661b43e0a051e98", "name": "c4fc3833362b4c7a8661b43e0a051e98", "type": "electric_bike", "lon": -77.0145765, "rental_uris": {"android": "https://dc.lft.to/lastmile_qr_scan", "ios": "https://dc.lft.to/lastmile_qr_scan"}, "lat": 38.8680065, "is_reserved": 0, "is_disabled": 0, "fusion_lat": 0.0}, {"fusion_lon": 0.0, "bike_id": "aca59d30e8441e2ad57c10ccaa4c4691", "name": "aca59d30e8441e2ad57c10ccaa4c4691", "type": "electric_scooter", "lon": -76.97546683333333, "rental_uris": {"android": "https://dc.lft.to/lastmile_qr_scan", "ios": "https://dc.lft.to/lastmile_qr_scan"}, "lat": 38.90256766666667, "is_reserved": 0, "is_disabled": 0, "fusion_lat": 0.0}, {"fusion_lon": 0.0, "bike_id": "e0e643e1aa513626a1e557318a597795", "name": "e0e643e1aa513626a1e557318a597795", "type": "electric_scooter", "lon": -76.9833065, "rental_uris": {"android": "https://dc.lft.to/lastmile_qr_scan", "ios": "https://dc.lft.to/lastmile_qr_scan"}, "lat": 38.889894166666664, "is_reserved": 0, "is_disabled": 0, "fusion_lat": 0.0}, {"fusion_lon": 0.0, "bike_id": "b04780dca4440c03a62f209d45802fd9", "name": "b04780dca4440c03a62f209d45802fd9", "type": "electric_scooter", "lon": -77.0271615, "rental_uris": {"android": "https://dc.lft.to/lastmile_qr_scan", "ios": "https://dc.lft.to/lastmile_qr_scan"}, "lat": 38.909815333333334, "is_reserved": 0, "is_disabled": 0, "fusion_lat": 0.0}, {"fusion_lon": 0.0, "bike_id": "78a93a813583e6f5efad845873e70664", "name": "78a93a813583e6f5efad845873e70664", "type": "electric_scooter", "lon": -77.02753383333334, "rental_uris": {"android": "https://dc.lft.to/lastmile_qr_scan", "ios": "https://dc.lft.to/lastmile_qr_scan"}, "lat": 38.92577583333333, "is_reserved": 0, "is_disabled": 0, "fusion_lat": 0.0}, {"fusion_lon": 0.0, "bike_id": "bcfe15f3e52a681df46e5daa05302040", "name": "bcfe15f3e52a681df46e5daa05302040", "type": "electric_bike", "lon": -77.00667066666666, "rental_uris": {"android": "https://dc.lft.to/lastmile_qr_scan", "ios": "https://dc.lft.to/lastmile_qr_scan"}, "lat": 38.9450865, "is_reserved": 0, "is_disabled": 0, "fusion_lat": 0.0}, {"fusion_lon": 0.0, "bike_id": "6f2ab3444dd0427115960418a8a99a7f", "name": "6f2ab3444dd0427115960418a8a99a7f", "type": "electric_scooter", "lon": -77.07243066666666, "rental_uris": {"android": "https://dc.lft.to/lastmile_qr_scan", "ios": "https://dc.lft.to/lastmile_qr_scan"}, "lat": 38.907809666666665, "is_reserved": 0, "is_disabled": 0, "fusion_lat": 0.0}, {"fusion_lon": 0.0, "bike_id": "32753d2399c317ef9e1910049f15995e", "name": "32753d2399c317ef9e1910049f15995e", "type": "electric_scooter", "lon": -77.01762516666666, "rental_uris": {"android": "https://dc.lft.to/lastmile_qr_scan", "ios": "https://dc.lft.to/lastmile_qr_scan"}, "lat": 38.902652833333335, "is_reserved": 0, "is_disabled": 0, "fusion_lat": 0.0}, {"fusion_lon": 0.0, "bike_id": "c87de4ec0da1abc3cbc2e840b2caa0b8", "name": "c87de4ec0da1abc3cbc2e840b2caa0b8", "type": "electric_scooter", "lon": -77.03833966666667, "rental_uris": {"android": "https://dc.lft.to/lastmile_qr_scan", "ios": "https://dc.lft.to/lastmile_qr_scan"}, "lat": 38.915572, "is_reserved": 0, "is_disabled": 0, "fusion_lat": 0.0}, {"fusion_lon": 0.0, "bike_id": "e83e419cd2e6fd39660430f881ee9d23", "name": "e83e419cd2e6fd39660430f881ee9d23", "type": "electric_scooter", "lon": -77.0222275, "rental_uris": {"android": "https://dc.lft.to/lastmile_qr_scan", "ios": "https://dc.lft.to/lastmile_qr_scan"}, "lat": 38.91268866666667, "is_reserved": 0, "is_disabled": 0, "fusion_lat": 0.0}, {"fusion_lon": 0.0, "bike_id": "4468ef2f4a304b22250c4de3a046b35a", "name": "4468ef2f4a304b22250c4de3a046b35a", "type": "electric_scooter", "lon": -77.04834883333334, "rental_uris": {"android": "https://dc.lft.to/lastmile_qr_scan", "ios": "https://dc.lft.to/lastmile_qr_scan"}, "lat": 38.91035433333333, "is_reserved": 0, "is_disabled": 0, "fusion_lat": 0.0}, {"fusion_lon": 0.0, "bike_id": "1d2edbe406c28041b277a3e211833788", "name": "1d2edbe406c28041b277a3e211833788", "type": "electric_scooter", "lon": -77.025801, "rental_uris": {"android": "https://dc.lft.to/lastmile_qr_scan", "ios": "https://dc.lft.to/lastmile_qr_scan"}, "lat": 38.92031016666667, "is_reserved": 0, "is_disabled": 0, "fusion_lat": 0.0}, {"fusion_lon": 0.0, "bike_id": "882f5e863d3796912e84049d5b226c28", "name": "882f5e863d3796912e84049d5b226c28", "type": "electric_scooter", "lon": -77.00766583333333, "rental_uris": {"android": "https://dc.lft.to/lastmile_qr_scan", "ios": "https://dc.lft.to/lastmile_qr_scan"}, "lat": 38.90754533333333, "is_reserved": 0, "is_disabled": 0, "fusion_lat": 0.0}, {"fusion_lon": 0.0, "bike_id": "2edb181e973e1e1abc7e24902ab87958", "name": "2edb181e973e1e1abc7e24902ab87958", "type": "electric_scooter", "lon": -77.003076, "rental_uris": {"android": "https://dc.lft.to/lastmile_qr_scan", "ios": "https://dc.lft.to/lastmile_qr_scan"}, "lat": 38.901545, "is_reserved": 0, "is_disabled": 0, "fusion_lat": 0.0}, {"fusion_lon": 0.0, "bike_id": "0d16fd7db6067fd665ab68843065f8f1", "name": "0d16fd7db6067fd665ab68843065f8f1", "type": "electric_scooter", "lon": -77.04111016666667, "rental_uris": {"android": "https://dc.lft.to/lastmile_qr_scan", "ios": "https://dc.lft.to/lastmile_qr_scan"}, "lat": 38.9238105, "is_reserved": 0, "is_disabled": 0, "fusion_lat": 0.0}, {"fusion_lon": 0.0, "bike_id": "fb79cd09354e13a44a5a0b0b73555ee1", "name": "fb79cd09354e13a44a5a0b0b73555ee1", "type": "electric_bike", "lon": -77.09580466666667, "rental_uris": {"android": "https://dc.lft.to/lastmile_qr_scan", "ios": "https://dc.lft.to/lastmile_qr_scan"}, "lat": 38.83785116666667, "is_reserved": 0, "is_disabled": 0, "fusion_lat": 0.0}, {"fusion_lon": 0.0, "bike_id": "be6051496a1f776abe9483c6b437af24", "name": "be6051496a1f776abe9483c6b437af24", "type": "electric_bike", "lon": -77.14777033333333, "rental_uris": {"android": "https://dc.lft.to/lastmile_qr_scan", "ios": "https://dc.lft.to/lastmile_qr_scan"}, "lat": 39.0958915, "is_reserved": 0, "is_disabled": 0, "fusion_lat": 0.0}, {"fusion_lon": 0.0, "bike_id": "a57363d5c21bed55aca0206dc2a1810b", "name": "a57363d5c21bed55aca0206dc2a1810b", "type": "electric_scooter", "lon": -77.038612, "rental_uris": {"android": "https://dc.lft.to/lastmile_qr_scan", "ios": "https://dc.lft.to/lastmile_qr_scan"}, "lat": 38.91553966666667, "is_reserved": 0, "is_disabled": 0, "fusion_lat": 0.0}, {"fusion_lon": 0.0, "bike_id": "85799871ef4adfb73d6cd9c12360a897", "name": "85799871ef4adfb73d6cd9c12360a897", "type": "electric_scooter", "lon": -77.0463755, "rental_uris": {"android": "https://dc.lft.to/lastmile_qr_scan", "ios": "https://dc.lft.to/lastmile_qr_scan"}, "lat": 38.90423416666667, "is_reserved": 0, "is_disabled": 0, "fusion_lat": 0.0}, {"fusion_lon": 0.0, "bike_id": "4d9006189819a5c9e054875f794846fd", "name": "4d9006189819a5c9e054875f794846fd", "type": "electric_scooter", "lon": -77.02208816666666, "rental_uris": {"android": "https://dc.lft.to/lastmile_qr_scan", "ios": "https://dc.lft.to/lastmile_qr_scan"}, "lat": 38.90570483333333, "is_reserved": 0, "is_disabled": 0, "fusion_lat": 0.0}, {"fusion_lon": 0.0, "bike_id": "1dd8d24fca1e25fec152878e16af5570", "name": "1dd8d24fca1e25fec152878e16af5570", "type": "electric_scooter", "lon": -77.03851716666667, "rental_uris": {"android": "https://dc.lft.to/lastmile_qr_scan", "ios": "https://dc.lft.to/lastmile_qr_scan"}, "lat": 38.915567333333335, "is_reserved": 0, "is_disabled": 0, "fusion_lat": 0.0}, {"fusion_lon": 0.0, "bike_id": "b5f0c9edc203dd3c47e5c28161d5999d", "name": "b5f0c9edc203dd3c47e5c28161d5999d", "type": "electric_scooter", "lon": -76.99224666666667, "rental_uris": {"android": "https://dc.lft.to/lastmile_qr_scan", "ios": "https://dc.lft.to/lastmile_qr_scan"}, "lat": 38.898833833333335, "is_reserved": 0, "is_disabled": 0, "fusion_lat": 0.0}, {"fusion_lon": 0.0, "bike_id": "80cfa1bcd724c9ad6d0bba7f82d14927", "name": "80cfa1bcd724c9ad6d0bba7f82d14927", "type": "electric_scooter", "lon": -76.99688766666667, "rental_uris": {"android": "https://dc.lft.to/lastmile_qr_scan", "ios": "https://dc.lft.to/lastmile_qr_scan"}, "lat": 38.860269333333335, "is_reserved": 0, "is_disabled": 0, "fusion_lat": 0.0}, {"fusion_lon": 0.0, "bike_id": "dbd2c274df23c30f58749fa645b9c74e", "name": "dbd2c274df23c30f58749fa645b9c74e", "type": "electric_scooter", "lon": -77.05002166666667, "rental_uris": {"android": "https://dc.lft.to/lastmile_qr_scan", "ios": "https://dc.lft.to/lastmile_qr_scan"}, "lat": 38.89229316666667, "is_reserved": 0, "is_disabled": 0, "fusion_lat": 0.0}, {"fusion_lon": 0.0, "bike_id": "f4b50a3085b19a8ac2f4b07ce5106ce2", "name": "f4b50a3085b19a8ac2f4b07ce5106ce2", "type": "electric_scooter", "lon": -77.0415915, "rental_uris": {"android": "https://dc.lft.to/lastmile_qr_scan", "ios": "https://dc.lft.to/lastmile_qr_scan"}, "lat": 38.91095083333333, "is_reserved": 0, "is_disabled": 0, "fusion_lat": 0.0}, {"fusion_lon": 0.0, "bike_id": "567b744e69cefe589960f13b858144e2", "name": "567b744e69cefe589960f13b858144e2", "type": "electric_scooter", "lon": -76.94887016666667, "rental_uris": {"android": "https://dc.lft.to/lastmile_qr_scan", "ios": "https://dc.lft.to/lastmile_qr_scan"}, "lat": 38.8951025, "is_reserved": 0, "is_disabled": 0, "fusion_lat": 0.0}, {"fusion_lon": 0.0, "bike_id": "368a042b2b61c897b255b60d73231724", "name": "368a042b2b61c897b255b60d73231724", "type": "electric_scooter", "lon": -77.02562316666666, "rental_uris": {"android": "https://dc.lft.to/lastmile_qr_scan", "ios": "https://dc.lft.to/lastmile_qr_scan"}, "lat": 38.899463, "is_reserved": 0, "is_disabled": 0, "fusion_lat": 0.0}, {"fusion_lon": 0.0, "bike_id": "a147e3dcc21b94f6b052a2125ad0c6a2", "name": "a147e3dcc21b94f6b052a2125ad0c6a2", "type": "electric_scooter", "lon": -77.02243866666667, "rental_uris": {"android": "https://dc.lft.to/lastmile_qr_scan", "ios": "https://dc.lft.to/lastmile_qr_scan"}, "lat": 38.919388, "is_reserved": 0, "is_disabled": 0, "fusion_lat": 0.0}, {"fusion_lon": 0.0, "bike_id": "f36bdfecf101dbb3a08f8fb8e276d03f", "name": "f36bdfecf101dbb3a08f8fb8e276d03f", "type": "electric_scooter", "lon": -76.98265766666667, "rental_uris": {"android": "https://dc.lft.to/lastmile_qr_scan", "ios": "https://dc.lft.to/lastmile_qr_scan"}, "lat": 38.88530183333334, "is_reserved": 0, "is_disabled": 0, "fusion_lat": 0.0}, {"fusion_lon": 0.0, "bike_id": "af7f3cf1812af2f638778813135b9376", "name": "af7f3cf1812af2f638778813135b9376", "type": "electric_scooter", "lon": -77.047881, "rental_uris": {"android": "https://dc.lft.to/lastmile_qr_scan", "ios": "https://dc.lft.to/lastmile_qr_scan"}, "lat": 38.9023215, "is_reserved": 0, "is_disabled": 0, "fusion_lat": 0.0}, {"fusion_lon": 0.0, "bike_id": "79131e76ba099d1483b5ef4c7209fc78", "name": "79131e76ba099d1483b5ef4c7209fc78", "type": "electric_scooter", "lon": -77.032045, "rental_uris": {"android": "https://dc.lft.to/lastmile_qr_scan", "ios": "https://dc.lft.to/lastmile_qr_scan"}, "lat": 38.92585666666667, "is_reserved": 0, "is_disabled": 0, "fusion_lat": 0.0}, {"fusion_lon": 0.0, "bike_id": "fea4f119fc905bcc1d5e274d9350bc12", "name": "fea4f119fc905bcc1d5e274d9350bc12", "type": "electric_scooter", "lon": -77.00154116666667, "rental_uris": {"android": "https://dc.lft.to/lastmile_qr_scan", "ios": "https://dc.lft.to/lastmile_qr_scan"}, "lat": 38.90731366666667, "is_reserved": 0, "is_disabled": 0, "fusion_lat": 0.0}, {"fusion_lon": 0.0, "bike_id": "fe44dd671fbe84e0513185cb2d318fd4", "name": "fe44dd671fbe84e0513185cb2d318fd4", "type": "electric_scooter", "lon": -77.0665005, "rental_uris": {"android": "https://dc.lft.to/lastmile_qr_scan", "ios": "https://dc.lft.to/lastmile_qr_scan"}, "lat": 38.9497545, "is_reserved": 0, "is_disabled": 0, "fusion_lat": 0.0}, {"fusion_lon": 0.0, "bike_id": "9ff4279cc0b97331df79e988ab508aa4", "name": "9ff4279cc0b97331df79e988ab508aa4", "type": "electric_scooter", "lon": -77.01888116666667, "rental_uris": {"android": "https://dc.lft.to/lastmile_qr_scan", "ios": "https://dc.lft.to/lastmile_qr_scan"}, "lat": 38.94642233333333, "is_reserved": 0, "is_disabled": 0, "fusion_lat": 0.0}, {"fusion_lon": 0.0, "bike_id": "8920d20c53e72371bf405e5ba10c6d96", "name": "8920d20c53e72371bf405e5ba10c6d96", "type": "electric_scooter", "lon": -77.0134, "rental_uris": {"android": "https://dc.lft.to/lastmile_qr_scan", "ios": "https://dc.lft.to/lastmile_qr_scan"}, "lat": 38.907167333333334, "is_reserved": 0, "is_disabled": 0, "fusion_lat": 0.0}, {"fusion_lon": 0.0, "bike_id": "ceaa953844971d214bd25eaeb0600e28", "name": "ceaa953844971d214bd25eaeb0600e28", "type": "electric_scooter", "lon": -77.02712516666666, "rental_uris": {"android": "https://dc.lft.to/lastmile_qr_scan", "ios": "https://dc.lft.to/lastmile_qr_scan"}, "lat": 38.909813, "is_reserved": 0, "is_disabled": 0, "fusion_lat": 0.0}, {"fusion_lon": 0.0, "bike_id": "16ebbe2e2548ada2f7c737f27b3f454b", "name": "16ebbe2e2548ada2f7c737f27b3f454b", "type": "electric_scooter", "lon": -77.0451765, "rental_uris": {"android": "https://dc.lft.to/lastmile_qr_scan", "ios": "https://dc.lft.to/lastmile_qr_scan"}, "lat": 38.921469333333334, "is_reserved": 0, "is_disabled": 0, "fusion_lat": 0.0}, {"fusion_lon": 0.0, "bike_id": "65bfb7f42d9dff41d91bdf7f7f940bb0", "name": "65bfb7f42d9dff41d91bdf7f7f940bb0", "type": "electric_scooter", "lon": -76.98943533333333, "rental_uris": {"android": "https://dc.lft.to/lastmile_qr_scan", "ios": "https://dc.lft.to/lastmile_qr_scan"}, "lat": 38.8440195, "is_reserved": 0, "is_disabled": 0, "fusion_lat": 0.0}, {"fusion_lon": 0.0, "bike_id": "838d01a4879c34c6f5fc60af277e56fc", "name": "838d01a4879c34c6f5fc60af277e56fc", "type": "electric_scooter", "lon": -77.0238555, "rental_uris": {"android": "https://dc.lft.to/lastmile_qr_scan", "ios": "https://dc.lft.to/lastmile_qr_scan"}, "lat": 38.9207325, "is_reserved": 0, "is_disabled": 0, "fusion_lat": 0.0}, {"fusion_lon": 0.0, "bike_id": "360572131e6514e401cfd0afd0259535", "name": "360572131e6514e401cfd0afd0259535", "type": "electric_bike", "lon": -77.1142185, "rental_uris": {"android": "https://dc.lft.to/lastmile_qr_scan", "ios": "https://dc.lft.to/lastmile_qr_scan"}, "lat": 38.852456, "is_reserved": 0, "is_disabled": 0, "fusion_lat": 0.0}, {"fusion_lon": 0.0, "bike_id": "a1391530ff9bdfff77033171d55062a3", "name": "a1391530ff9bdfff77033171d55062a3", "type": "electric_bike", "lon": -76.99762033333333, "rental_uris": {"android": "https://dc.lft.to/lastmile_qr_scan", "ios": "https://dc.lft.to/lastmile_qr_scan"}, "lat": 39.005941, "is_reserved": 0, "is_disabled": 0, "fusion_lat": 0.0}, {"fusion_lon": 0.0, "bike_id": "7d085346ca202d99c053102fd39647e7", "name": "7d085346ca202d99c053102fd39647e7", "type": "electric_scooter", "lon": -77.05516783333333, "rental_uris": {"android": "https://dc.lft.to/lastmile_qr_scan", "ios": "https://dc.lft.to/lastmile_qr_scan"}, "lat": 38.91055266666667, "is_reserved": 0, "is_disabled": 0, "fusion_lat": 0.0}, {"fusion_lon": 0.0, "bike_id": "3371a0922d975c38834fed7aca2e349d", "name": "3371a0922d975c38834fed7aca2e349d", "type": "electric_scooter", "lon": -77.0385035, "rental_uris": {"android": "https://dc.lft.to/lastmile_qr_scan", "ios": "https://dc.lft.to/lastmile_qr_scan"}, "lat": 38.91842666666667, "is_reserved": 0, "is_disabled": 0, "fusion_lat": 0.0}, {"fusion_lon": 0.0, "bike_id": "2876a1c275d67686653a778e4057e2aa", "name": "2876a1c275d67686653a778e4057e2aa", "type": "electric_scooter", "lon": -76.98256833333333, "rental_uris": {"android": "https://dc.lft.to/lastmile_qr_scan", "ios": "https://dc.lft.to/lastmile_qr_scan"}, "lat": 38.863549666666664, "is_reserved": 0, "is_disabled": 0, "fusion_lat": 0.0}, {"fusion_lon": 0.0, "bike_id": "a0b1e2ce1f1dff5b7529d822fcddcffb", "name": "a0b1e2ce1f1dff5b7529d822fcddcffb", "type": "electric_bike", "lon": -77.12506533333334, "rental_uris": {"android": "https://dc.lft.to/lastmile_qr_scan", "ios": "https://dc.lft.to/lastmile_qr_scan"}, "lat": 39.024256333333334, "is_reserved": 0, "is_disabled": 0, "fusion_lat": 0.0}, {"fusion_lon": 0.0, "bike_id": "dde9b1df8ed30c47c63d571b2b06a3a8", "name": "dde9b1df8ed30c47c63d571b2b06a3a8", "type": "electric_scooter", "lon": -77.027552, "rental_uris": {"android": "https://dc.lft.to/lastmile_qr_scan", "ios": "https://dc.lft.to/lastmile_qr_scan"}, "lat": 38.9541455, "is_reserved": 0, "is_disabled": 0, "fusion_lat": 0.0}, {"fusion_lon": 0.0, "bike_id": "b67826b6c847a6a60be70f5293dc6333", "name": "b67826b6c847a6a60be70f5293dc6333", "type": "electric_scooter", "lon": -77.031851, "rental_uris": {"android": "https://dc.lft.to/lastmile_qr_scan", "ios": "https://dc.lft.to/lastmile_qr_scan"}, "lat": 38.892332333333336, "is_reserved": 0, "is_disabled": 0, "fusion_lat": 0.0}, {"fusion_lon": 0.0, "bike_id": "3fe826102818b4f1468c49e9bf80afe5", "name": "3fe826102818b4f1468c49e9bf80afe5", "type": "electric_scooter", "lon": -77.04652683333333, "rental_uris": {"android": "https://dc.lft.to/lastmile_qr_scan", "ios": "https://dc.lft.to/lastmile_qr_scan"}, "lat": 38.90348616666667, "is_reserved": 0, "is_disabled": 0, "fusion_lat": 0.0}, {"fusion_lon": 0.0, "bike_id": "8217b7bcbf8f427aa8129867f1a5b517", "name": "8217b7bcbf8f427aa8129867f1a5b517", "type": "electric_scooter", "lon": -77.0251845, "rental_uris": {"android": "https://dc.lft.to/lastmile_qr_scan", "ios": "https://dc.lft.to/lastmile_qr_scan"}, "lat": 38.92093766666667, "is_reserved": 0, "is_disabled": 0, "fusion_lat": 0.0}, {"fusion_lon": 0.0, "bike_id": "80b02dcdab6ca1e72df4ecc0178477cc", "name": "80b02dcdab6ca1e72df4ecc0178477cc", "type": "electric_scooter", "lon": -77.03853916666667, "rental_uris": {"android": "https://dc.lft.to/lastmile_qr_scan", "ios": "https://dc.lft.to/lastmile_qr_scan"}, "lat": 38.918356833333334, "is_reserved": 0, "is_disabled": 0, "fusion_lat": 0.0}, {"fusion_lon": 0.0, "bike_id": "bea8757880412156765085a04e12b61b", "name": "bea8757880412156765085a04e12b61b", "type": "electric_scooter", "lon": -77.05920116666667, "rental_uris": {"android": "https://dc.lft.to/lastmile_qr_scan", "ios": "https://dc.lft.to/lastmile_qr_scan"}, "lat": 38.93653183333333, "is_reserved": 0, "is_disabled": 0, "fusion_lat": 0.0}, {"fusion_lon": 0.0, "bike_id": "420211f0f1fa533320db4c199f7b7518", "name": "420211f0f1fa533320db4c199f7b7518", "type": "electric_scooter", "lon": -77.04165733333333, "rental_uris": {"android": "https://dc.lft.to/lastmile_qr_scan", "ios": "https://dc.lft.to/lastmile_qr_scan"}, "lat": 38.91621766666667, "is_reserved": 0, "is_disabled": 0, "fusion_lat": 0.0}, {"fusion_lon": 0.0, "bike_id": "65e8b9628109eb70eccea89cd1417eb5", "name": "65e8b9628109eb70eccea89cd1417eb5", "type": "electric_scooter", "lon": -77.0573345, "rental_uris": {"android": "https://dc.lft.to/lastmile_qr_scan", "ios": "https://dc.lft.to/lastmile_qr_scan"}, "lat": 38.924283833333334, "is_reserved": 0, "is_disabled": 0, "fusion_lat": 0.0}, {"fusion_lon": 0.0, "bike_id": "4d4d3f8ca62f84f717248506eb001cd0", "name": "4d4d3f8ca62f84f717248506eb001cd0", "type": "electric_scooter", "lon": -77.02821466666667, "rental_uris": {"android": "https://dc.lft.to/lastmile_qr_scan", "ios": "https://dc.lft.to/lastmile_qr_scan"}, "lat": 38.9482595, "is_reserved": 0, "is_disabled": 0, "fusion_lat": 0.0}, {"fusion_lon": 0.0, "bike_id": "58446b6613dac1cb89e102d856699c6c", "name": "58446b6613dac1cb89e102d856699c6c", "type": "electric_scooter", "lon": -76.9947745, "rental_uris": {"android": "https://dc.lft.to/lastmile_qr_scan", "ios": "https://dc.lft.to/lastmile_qr_scan"}, "lat": 38.8621425, "is_reserved": 0, "is_disabled": 0, "fusion_lat": 0.0}, {"fusion_lon": 0.0, "bike_id": "c6ab667baa5f75d6c7503328ffe73834", "name": "c6ab667baa5f75d6c7503328ffe73834", "type": "electric_scooter", "lon": -76.9383465, "rental_uris": {"android": "https://dc.lft.to/lastmile_qr_scan", "ios": "https://dc.lft.to/lastmile_qr_scan"}, "lat": 38.890090666666666, "is_reserved": 0, "is_disabled": 0, "fusion_lat": 0.0}, {"fusion_lon": 0.0, "bike_id": "c31b2b0e3d5ee850c00b25a6ba032ec9", "name": "c31b2b0e3d5ee850c00b25a6ba032ec9", "type": "electric_scooter", "lon": -77.03935266666667, "rental_uris": {"android": "https://dc.lft.to/lastmile_qr_scan", "ios": "https://dc.lft.to/lastmile_qr_scan"}, "lat": 38.91811033333333, "is_reserved": 0, "is_disabled": 0, "fusion_lat": 0.0}, {"fusion_lon": 0.0, "bike_id": "d963deeb2ee8298bb70c12adc72da333", "name": "d963deeb2ee8298bb70c12adc72da333", "type": "electric_scooter", "lon": -77.03530683333334, "rental_uris": {"android": "https://dc.lft.to/lastmile_qr_scan", "ios": "https://dc.lft.to/lastmile_qr_scan"}, "lat": 38.9240435, "is_reserved": 0, "is_disabled": 0, "fusion_lat": 0.0}, {"fusion_lon": 0.0, "bike_id": "403a30abc89376215df13bc82166d0fa", "name": "403a30abc89376215df13bc82166d0fa", "type": "electric_scooter", "lon": -77.046477, "rental_uris": {"android": "https://dc.lft.to/lastmile_qr_scan", "ios": "https://dc.lft.to/lastmile_qr_scan"}, "lat": 38.903352, "is_reserved": 0, "is_disabled": 0, "fusion_lat": 0.0}, {"fusion_lon": 0.0, "bike_id": "1196630772c916fa05ff51846d593684", "name": "1196630772c916fa05ff51846d593684", "type": "electric_scooter", "lon": -77.04178183333333, "rental_uris": {"android": "https://dc.lft.to/lastmile_qr_scan", "ios": "https://dc.lft.to/lastmile_qr_scan"}, "lat": 38.9126415, "is_reserved": 0, "is_disabled": 0, "fusion_lat": 0.0}, {"fusion_lon": 0.0, "bike_id": "83ae737c4d24762bda0912168e9e5ac3", "name": "83ae737c4d24762bda0912168e9e5ac3", "type": "electric_scooter", "lon": -77.0241845, "rental_uris": {"android": "https://dc.lft.to/lastmile_qr_scan", "ios": "https://dc.lft.to/lastmile_qr_scan"}, "lat": 38.90572433333333, "is_reserved": 0, "is_disabled": 0, "fusion_lat": 0.0}, {"fusion_lon": 0.0, "bike_id": "df45205deae6268b2733fc9854c9336b", "name": "df45205deae6268b2733fc9854c9336b", "type": "electric_scooter", "lon": -77.03450933333333, "rental_uris": {"android": "https://dc.lft.to/lastmile_qr_scan", "ios": "https://dc.lft.to/lastmile_qr_scan"}, "lat": 38.9056315, "is_reserved": 0, "is_disabled": 0, "fusion_lat": 0.0}, {"fusion_lon": 0.0, "bike_id": "fcba529dce11668400d8c21c09f82d0f", "name": "fcba529dce11668400d8c21c09f82d0f", "type": "electric_bike", "lon": -77.076795, "rental_uris": {"android": "https://dc.lft.to/lastmile_qr_scan", "ios": "https://dc.lft.to/lastmile_qr_scan"}, "lat": 38.83190316666666, "is_reserved": 0, "is_disabled": 0, "fusion_lat": 0.0}, {"fusion_lon": 0.0, "bike_id": "1eeca54d7874ec4937b2869cc6b6d492", "name": "1eeca54d7874ec4937b2869cc6b6d492", "type": "electric_scooter", "lon": -77.01095616666667, "rental_uris": {"android": "https://dc.lft.to/lastmile_qr_scan", "ios": "https://dc.lft.to/lastmile_qr_scan"}, "lat": 38.90555616666666, "is_reserved": 0, "is_disabled": 0, "fusion_lat": 0.0}, {"fusion_lon": 0.0, "bike_id": "f37ffef63d9c620db2d267317015bfde", "name": "f37ffef63d9c620db2d267317015bfde", "type": "electric_bike", "lon": -77.11221766666667, "rental_uris": {"android": "https://dc.lft.to/lastmile_qr_scan", "ios": "https://dc.lft.to/lastmile_qr_scan"}, "lat": 38.828704, "is_reserved": 0, "is_disabled": 0, "fusion_lat": 0.0}, {"fusion_lon": 0.0, "bike_id": "62c1d8b83d24f89e968d996d69100ac5", "name": "62c1d8b83d24f89e968d996d69100ac5", "type": "electric_scooter", "lon": -77.047801, "rental_uris": {"android": "https://dc.lft.to/lastmile_qr_scan", "ios": "https://dc.lft.to/lastmile_qr_scan"}, "lat": 38.90240933333333, "is_reserved": 0, "is_disabled": 0, "fusion_lat": 0.0}, {"fusion_lon": 0.0, "bike_id": "efad0b97eab5d557973d2a84fa1fd7c7", "name": "efad0b97eab5d557973d2a84fa1fd7c7", "type": "electric_scooter", "lon": -77.03028166666667, "rental_uris": {"android": "https://dc.lft.to/lastmile_qr_scan", "ios": "https://dc.lft.to/lastmile_qr_scan"}, "lat": 38.926629, "is_reserved": 0, "is_disabled": 0, "fusion_lat": 0.0}, {"fusion_lon": 0.0, "bike_id": "588e16b3b973ba83ae155039b7e7e866", "name": "588e16b3b973ba83ae155039b7e7e866", "type": "electric_scooter", "lon": -77.03317383333334, "rental_uris": {"android": "https://dc.lft.to/lastmile_qr_scan", "ios": "https://dc.lft.to/lastmile_qr_scan"}, "lat": 38.915624666666666, "is_reserved": 0, "is_disabled": 0, "fusion_lat": 0.0}, {"fusion_lon": 0.0, "bike_id": "7c664a1771bb1fd3fec65ae53de94a11", "name": "7c664a1771bb1fd3fec65ae53de94a11", "type": "electric_bike", "lon": -76.93530683333333, "rental_uris": {"android": "https://dc.lft.to/lastmile_qr_scan", "ios": "https://dc.lft.to/lastmile_qr_scan"}, "lat": 38.95551716666667, "is_reserved": 0, "is_disabled": 0, "fusion_lat": 0.0}, {"fusion_lon": 0.0, "bike_id": "f3ad0b082907c9d477d0f788df86d78e", "name": "f3ad0b082907c9d477d0f788df86d78e", "type": "electric_scooter", "lon": -77.04121866666667, "rental_uris": {"android": "https://dc.lft.to/lastmile_qr_scan", "ios": "https://dc.lft.to/lastmile_qr_scan"}, "lat": 38.934014833333336, "is_reserved": 0, "is_disabled": 0, "fusion_lat": 0.0}, {"fusion_lon": 0.0, "bike_id": "97a486ec5141f231a6beb94523243e47", "name": "97a486ec5141f231a6beb94523243e47", "type": "electric_scooter", "lon": -76.9916295, "rental_uris": {"android": "https://dc.lft.to/lastmile_qr_scan", "ios": "https://dc.lft.to/lastmile_qr_scan"}, "lat": 38.879175333333336, "is_reserved": 0, "is_disabled": 0, "fusion_lat": 0.0}, {"fusion_lon": 0.0, "bike_id": "43b0e23ebe4637e6d052ca906a5ddf1c", "name": "43b0e23ebe4637e6d052ca906a5ddf1c", "type": "electric_scooter", "lon": -77.04750883333334, "rental_uris": {"android": "https://dc.lft.to/lastmile_qr_scan", "ios": "https://dc.lft.to/lastmile_qr_scan"}, "lat": 38.90224633333333, "is_reserved": 0, "is_disabled": 0, "fusion_lat": 0.0}, {"fusion_lon": 0.0, "bike_id": "6411a483f56ed80f0b04088b30ef6bc1", "name": "6411a483f56ed80f0b04088b30ef6bc1", "type": "electric_scooter", "lon": -77.0450375, "rental_uris": {"android": "https://dc.lft.to/lastmile_qr_scan", "ios": "https://dc.lft.to/lastmile_qr_scan"}, "lat": 38.91276283333333, "is_reserved": 0, "is_disabled": 0, "fusion_lat": 0.0}, {"fusion_lon": 0.0, "bike_id": "22ff756a40ba7a00eabe6dd0d5e03493", "name": "22ff756a40ba7a00eabe6dd0d5e03493", "type": "electric_scooter", "lon": -76.9982215, "rental_uris": {"android": "https://dc.lft.to/lastmile_qr_scan", "ios": "https://dc.lft.to/lastmile_qr_scan"}, "lat": 38.907173666666665, "is_reserved": 0, "is_disabled": 0, "fusion_lat": 0.0}, {"fusion_lon": 0.0, "bike_id": "dd6d2371ce44175361f9af0ccc0b6640", "name": "dd6d2371ce44175361f9af0ccc0b6640", "type": "electric_scooter", "lon": -77.00576283333334, "rental_uris": {"android": "https://dc.lft.to/lastmile_qr_scan", "ios": "https://dc.lft.to/lastmile_qr_scan"}, "lat": 38.876423333333335, "is_reserved": 0, "is_disabled": 0, "fusion_lat": 0.0}, {"fusion_lon": 0.0, "bike_id": "92d526bd9e8295f2d25ce89342264680", "name": "92d526bd9e8295f2d25ce89342264680", "type": "electric_scooter", "lon": -77.07863166666667, "rental_uris": {"android": "https://dc.lft.to/lastmile_qr_scan", "ios": "https://dc.lft.to/lastmile_qr_scan"}, "lat": 38.924589833333336, "is_reserved": 0, "is_disabled": 0, "fusion_lat": 0.0}, {"fusion_lon": 0.0, "bike_id": "fb2e29dd9d937dc5bbb422a51ca23413", "name": "fb2e29dd9d937dc5bbb422a51ca23413", "type": "electric_scooter", "lon": -77.0414505, "rental_uris": {"android": "https://dc.lft.to/lastmile_qr_scan", "ios": "https://dc.lft.to/lastmile_qr_scan"}, "lat": 38.91702333333333, "is_reserved": 0, "is_disabled": 0, "fusion_lat": 0.0}, {"fusion_lon": 0.0, "bike_id": "ab5167bc3b9578108814afd9893080f2", "name": "ab5167bc3b9578108814afd9893080f2", "type": "electric_scooter", "lon": -77.00438666666666, "rental_uris": {"android": "https://dc.lft.to/lastmile_qr_scan", "ios": "https://dc.lft.to/lastmile_qr_scan"}, "lat": 38.8766485, "is_reserved": 0, "is_disabled": 0, "fusion_lat": 0.0}, {"fusion_lon": 0.0, "bike_id": "7a2a49a09452fbab2dc6e9f1db8442cc", "name": "7a2a49a09452fbab2dc6e9f1db8442cc", "type": "electric_bike", "lon": -77.12259216666666, "rental_uris": {"android": "https://dc.lft.to/lastmile_qr_scan", "ios": "https://dc.lft.to/lastmile_qr_scan"}, "lat": 38.88771116666667, "is_reserved": 0, "is_disabled": 0, "fusion_lat": 0.0}, {"fusion_lon": 0.0, "bike_id": "63e27a361779545fa81ae5ed1fd4e77e", "name": "63e27a361779545fa81ae5ed1fd4e77e", "type": "electric_scooter", "lon": -77.02867933333333, "rental_uris": {"android": "https://dc.lft.to/lastmile_qr_scan", "ios": "https://dc.lft.to/lastmile_qr_scan"}, "lat": 38.900345333333334, "is_reserved": 0, "is_disabled": 0, "fusion_lat": 0.0}, {"fusion_lon": 0.0, "bike_id": "156913c27650f84e0846404846a512c8", "name": "156913c27650f84e0846404846a512c8", "type": "electric_bike", "lon": -77.02488666666666, "rental_uris": {"android": "https://dc.lft.to/lastmile_qr_scan", "ios": "https://dc.lft.to/lastmile_qr_scan"}, "lat": 38.9736695, "is_reserved": 0, "is_disabled": 0, "fusion_lat": 0.0}, {"fusion_lon": 0.0, "bike_id": "447e3046bd47791e7826d6c57582cc09", "name": "447e3046bd47791e7826d6c57582cc09", "type": "electric_scooter", "lon": -76.99010066666666, "rental_uris": {"android": "https://dc.lft.to/lastmile_qr_scan", "ios": "https://dc.lft.to/lastmile_qr_scan"}, "lat": 38.861054, "is_reserved": 0, "is_disabled": 0, "fusion_lat": 0.0}, {"fusion_lon": 0.0, "bike_id": "e1adda16ee80d62ced1b76052c711607", "name": "e1adda16ee80d62ced1b76052c711607", "type": "electric_scooter", "lon": -76.99387816666666, "rental_uris": {"android": "https://dc.lft.to/lastmile_qr_scan", "ios": "https://dc.lft.to/lastmile_qr_scan"}, "lat": 38.884507166666666, "is_reserved": 0, "is_disabled": 0, "fusion_lat": 0.0}, {"fusion_lon": 0.0, "bike_id": "85e07af1a0150f531d9949818e978fd2", "name": "85e07af1a0150f531d9949818e978fd2", "type": "electric_scooter", "lon": -77.04510966666666, "rental_uris": {"android": "https://dc.lft.to/lastmile_qr_scan", "ios": "https://dc.lft.to/lastmile_qr_scan"}, "lat": 38.907825, "is_reserved": 0, "is_disabled": 0, "fusion_lat": 0.0}, {"fusion_lon": 0.0, "bike_id": "e78b4b046cdd0ca6bfa4c586cad24489", "name": "e78b4b046cdd0ca6bfa4c586cad24489", "type": "electric_scooter", "lon": -77.018638, "rental_uris": {"android": "https://dc.lft.to/lastmile_qr_scan", "ios": "https://dc.lft.to/lastmile_qr_scan"}, "lat": 38.94921516666667, "is_reserved": 0, "is_disabled": 0, "fusion_lat": 0.0}, {"fusion_lon": 0.0, "bike_id": "c724f84c09f30a01afdf0ae52db17acd", "name": "c724f84c09f30a01afdf0ae52db17acd", "type": "electric_scooter", "lon": -77.07085283333333, "rental_uris": {"android": "https://dc.lft.to/lastmile_qr_scan", "ios": "https://dc.lft.to/lastmile_qr_scan"}, "lat": 38.919749, "is_reserved": 0, "is_disabled": 0, "fusion_lat": 0.0}, {"fusion_lon": 0.0, "bike_id": "d16f5aa7a15f31cdcfd2fc0b635b0e3b", "name": "d16f5aa7a15f31cdcfd2fc0b635b0e3b", "type": "electric_scooter", "lon": -77.01139616666667, "rental_uris": {"android": "https://dc.lft.to/lastmile_qr_scan", "ios": "https://dc.lft.to/lastmile_qr_scan"}, "lat": 38.8961065, "is_reserved": 0, "is_disabled": 0, "fusion_lat": 0.0}, {"fusion_lon": 0.0, "bike_id": "4f2e95db72cacac8d3e3c3bfd4bd8c06", "name": "4f2e95db72cacac8d3e3c3bfd4bd8c06", "type": "electric_scooter", "lon": -76.95749783333333, "rental_uris": {"android": "https://dc.lft.to/lastmile_qr_scan", "ios": "https://dc.lft.to/lastmile_qr_scan"}, "lat": 38.88428866666667, "is_reserved": 0, "is_disabled": 0, "fusion_lat": 0.0}, {"fusion_lon": 0.0, "bike_id": "116097a9d8b64512c9e529d2a1ac5017", "name": "116097a9d8b64512c9e529d2a1ac5017", "type": "electric_scooter", "lon": -76.99629716666666, "rental_uris": {"android": "https://dc.lft.to/lastmile_qr_scan", "ios": "https://dc.lft.to/lastmile_qr_scan"}, "lat": 38.84620266666667, "is_reserved": 0, "is_disabled": 0, "fusion_lat": 0.0}, {"fusion_lon": 0.0, "bike_id": "e2f9f85027d581ec1078be594609cd6e", "name": "e2f9f85027d581ec1078be594609cd6e", "type": "electric_scooter", "lon": -77.023994, "rental_uris": {"android": "https://dc.lft.to/lastmile_qr_scan", "ios": "https://dc.lft.to/lastmile_qr_scan"}, "lat": 38.919569833333334, "is_reserved": 0, "is_disabled": 0, "fusion_lat": 0.0}, {"fusion_lon": 0.0, "bike_id": "a67a08b623eed87fc97ff64f92719798", "name": "a67a08b623eed87fc97ff64f92719798", "type": "electric_scooter", "lon": -77.04227216666666, "rental_uris": {"android": "https://dc.lft.to/lastmile_qr_scan", "ios": "https://dc.lft.to/lastmile_qr_scan"}, "lat": 38.92067816666667, "is_reserved": 0, "is_disabled": 0, "fusion_lat": 0.0}, {"fusion_lon": 0.0, "bike_id": "a4caf91048f35d7ed452669a7b7547ee", "name": "a4caf91048f35d7ed452669a7b7547ee", "type": "electric_scooter", "lon": -77.02493716666666, "rental_uris": {"android": "https://dc.lft.to/lastmile_qr_scan", "ios": "https://dc.lft.to/lastmile_qr_scan"}, "lat": 38.94181666666667, "is_reserved": 0, "is_disabled": 0, "fusion_lat": 0.0}, {"fusion_lon": 0.0, "bike_id": "9513c81bb80da5b7ba784b402a0d3e8b", "name": "9513c81bb80da5b7ba784b402a0d3e8b", "type": "electric_scooter", "lon": -77.05261183333333, "rental_uris": {"android": "https://dc.lft.to/lastmile_qr_scan", "ios": "https://dc.lft.to/lastmile_qr_scan"}, "lat": 38.9257305, "is_reserved": 0, "is_disabled": 0, "fusion_lat": 0.0}, {"fusion_lon": 0.0, "bike_id": "e55f84a5ca20960a7f8007e1b2334952", "name": "e55f84a5ca20960a7f8007e1b2334952", "type": "electric_scooter", "lon": -77.0238575, "rental_uris": {"android": "https://dc.lft.to/lastmile_qr_scan", "ios": "https://dc.lft.to/lastmile_qr_scan"}, "lat": 38.90746716666666, "is_reserved": 0, "is_disabled": 0, "fusion_lat": 0.0}, {"fusion_lon": 0.0, "bike_id": "92cd156815d16efb3bfd3298f9686f2b", "name": "92cd156815d16efb3bfd3298f9686f2b", "type": "electric_scooter", "lon": -77.0240395, "rental_uris": {"android": "https://dc.lft.to/lastmile_qr_scan", "ios": "https://dc.lft.to/lastmile_qr_scan"}, "lat": 38.93108333333333, "is_reserved": 0, "is_disabled": 0, "fusion_lat": 0.0}, {"fusion_lon": 0.0, "bike_id": "03b873609b9e2a8b613c2e5c18b41c03", "name": "03b873609b9e2a8b613c2e5c18b41c03", "type": "electric_bike", "lon": -77.03986966666666, "rental_uris": {"android": "https://dc.lft.to/lastmile_qr_scan", "ios": "https://dc.lft.to/lastmile_qr_scan"}, "lat": 38.802968, "is_reserved": 0, "is_disabled": 0, "fusion_lat": 0.0}, {"fusion_lon": 0.0, "bike_id": "f16c3c25d6ddaf642d208b6eee19f6ce", "name": "f16c3c25d6ddaf642d208b6eee19f6ce", "type": "electric_scooter", "lon": -77.00147483333333, "rental_uris": {"android": "https://dc.lft.to/lastmile_qr_scan", "ios": "https://dc.lft.to/lastmile_qr_scan"}, "lat": 38.90738016666667, "is_reserved": 0, "is_disabled": 0, "fusion_lat": 0.0}, {"fusion_lon": 0.0, "bike_id": "ba8bbfac0a9c2b80ea0244a0f91485c5", "name": "ba8bbfac0a9c2b80ea0244a0f91485c5", "type": "electric_scooter", "lon": -77.04169116666667, "rental_uris": {"android": "https://dc.lft.to/lastmile_qr_scan", "ios": "https://dc.lft.to/lastmile_qr_scan"}, "lat": 38.90725666666667, "is_reserved": 0, "is_disabled": 0, "fusion_lat": 0.0}, {"fusion_lon": 0.0, "bike_id": "4b72e7570a16778e4f460b8d86bf30d5", "name": "4b72e7570a16778e4f460b8d86bf30d5", "type": "electric_scooter", "lon": -76.9861105, "rental_uris": {"android": "https://dc.lft.to/lastmile_qr_scan", "ios": "https://dc.lft.to/lastmile_qr_scan"}, "lat": 38.854606833333335, "is_reserved": 0, "is_disabled": 0, "fusion_lat": 0.0}, {"fusion_lon": 0.0, "bike_id": "298549d30175de964b0ef207c8c982ce", "name": "298549d30175de964b0ef207c8c982ce", "type": "electric_scooter", "lon": -77.04562633333333, "rental_uris": {"android": "https://dc.lft.to/lastmile_qr_scan", "ios": "https://dc.lft.to/lastmile_qr_scan"}, "lat": 38.92073033333333, "is_reserved": 0, "is_disabled": 0, "fusion_lat": 0.0}, {"fusion_lon": 0.0, "bike_id": "0e042e702ab7f5a7550ae585f6d0199c", "name": "0e042e702ab7f5a7550ae585f6d0199c", "type": "electric_scooter", "lon": -77.0071055, "rental_uris": {"android": "https://dc.lft.to/lastmile_qr_scan", "ios": "https://dc.lft.to/lastmile_qr_scan"}, "lat": 38.88490083333333, "is_reserved": 0, "is_disabled": 0, "fusion_lat": 0.0}, {"fusion_lon": 0.0, "bike_id": "c4c3b90cd066eee834559fabe336fb68", "name": "c4c3b90cd066eee834559fabe336fb68", "type": "electric_scooter", "lon": -77.04868916666666, "rental_uris": {"android": "https://dc.lft.to/lastmile_qr_scan", "ios": "https://dc.lft.to/lastmile_qr_scan"}, "lat": 38.903625, "is_reserved": 0, "is_disabled": 0, "fusion_lat": 0.0}, {"fusion_lon": 0.0, "bike_id": "f8d2387fdab4fce08da595dde3f90669", "name": "f8d2387fdab4fce08da595dde3f90669", "type": "electric_scooter", "lon": -76.975477, "rental_uris": {"android": "https://dc.lft.to/lastmile_qr_scan", "ios": "https://dc.lft.to/lastmile_qr_scan"}, "lat": 38.90253666666667, "is_reserved": 0, "is_disabled": 0, "fusion_lat": 0.0}, {"fusion_lon": 0.0, "bike_id": "26eb6df8862ffe2c929ba564d1722811", "name": "26eb6df8862ffe2c929ba564d1722811", "type": "electric_scooter", "lon": -77.01556566666666, "rental_uris": {"android": "https://dc.lft.to/lastmile_qr_scan", "ios": "https://dc.lft.to/lastmile_qr_scan"}, "lat": 38.87267, "is_reserved": 0, "is_disabled": 0, "fusion_lat": 0.0}, {"fusion_lon": 0.0, "bike_id": "4bd09ae378c4c2b82b9fa338edfb4fd2", "name": "4bd09ae378c4c2b82b9fa338edfb4fd2", "type": "electric_bike", "lon": -77.02690416666667, "rental_uris": {"android": "https://dc.lft.to/lastmile_qr_scan", "ios": "https://dc.lft.to/lastmile_qr_scan"}, "lat": 38.93729416666667, "is_reserved": 0, "is_disabled": 0, "fusion_lat": 0.0}, {"fusion_lon": 0.0, "bike_id": "76243c5a6b8f546cdf42ed877c8dd8ee", "name": "76243c5a6b8f546cdf42ed877c8dd8ee", "type": "electric_scooter", "lon": -77.03859933333334, "rental_uris": {"android": "https://dc.lft.to/lastmile_qr_scan", "ios": "https://dc.lft.to/lastmile_qr_scan"}, "lat": 38.91193366666667, "is_reserved": 0, "is_disabled": 0, "fusion_lat": 0.0}, {"fusion_lon": 0.0, "bike_id": "6d97d9d9e90aa2320a323d9ae0e537d4", "name": "6d97d9d9e90aa2320a323d9ae0e537d4", "type": "electric_scooter", "lon": -77.05133, "rental_uris": {"android": "https://dc.lft.to/lastmile_qr_scan", "ios": "https://dc.lft.to/lastmile_qr_scan"}, "lat": 38.90712933333333, "is_reserved": 0, "is_disabled": 0, "fusion_lat": 0.0}, {"fusion_lon": 0.0, "bike_id": "52548f8a64535d89db49304e88b7162b", "name": "52548f8a64535d89db49304e88b7162b", "type": "electric_scooter", "lon": -77.00342033333334, "rental_uris": {"android": "https://dc.lft.to/lastmile_qr_scan", "ios": "https://dc.lft.to/lastmile_qr_scan"}, "lat": 38.92268383333333, "is_reserved": 0, "is_disabled": 0, "fusion_lat": 0.0}, {"fusion_lon": 0.0, "bike_id": "1ea2003746473b1375722ab7faebcb72", "name": "1ea2003746473b1375722ab7faebcb72", "type": "electric_scooter", "lon": -77.0258135, "rental_uris": {"android": "https://dc.lft.to/lastmile_qr_scan", "ios": "https://dc.lft.to/lastmile_qr_scan"}, "lat": 38.92786533333334, "is_reserved": 0, "is_disabled": 0, "fusion_lat": 0.0}, {"fusion_lon": 0.0, "bike_id": "9e00c3f850b11b2ec4df70d48d3d52dc", "name": "9e00c3f850b11b2ec4df70d48d3d52dc", "type": "electric_scooter", "lon": -77.0091905, "rental_uris": {"android": "https://dc.lft.to/lastmile_qr_scan", "ios": "https://dc.lft.to/lastmile_qr_scan"}, "lat": 38.89649383333333, "is_reserved": 0, "is_disabled": 0, "fusion_lat": 0.0}, {"fusion_lon": 0.0, "bike_id": "0285c07911d1ef9f8ac6361615c63330", "name": "0285c07911d1ef9f8ac6361615c63330", "type": "electric_scooter", "lon": -76.94242566666667, "rental_uris": {"android": "https://dc.lft.to/lastmile_qr_scan", "ios": "https://dc.lft.to/lastmile_qr_scan"}, "lat": 38.8899775, "is_reserved": 0, "is_disabled": 0, "fusion_lat": 0.0}, {"fusion_lon": 0.0, "bike_id": "2411779687c85f566b72b380585adb41", "name": "2411779687c85f566b72b380585adb41", "type": "electric_scooter", "lon": -77.03654633333333, "rental_uris": {"android": "https://dc.lft.to/lastmile_qr_scan", "ios": "https://dc.lft.to/lastmile_qr_scan"}, "lat": 38.936285833333336, "is_reserved": 0, "is_disabled": 0, "fusion_lat": 0.0}, {"fusion_lon": 0.0, "bike_id": "e78da1dc326fce4aa5b8e3620b0cb4b6", "name": "e78da1dc326fce4aa5b8e3620b0cb4b6", "type": "electric_scooter", "lon": -77.062595, "rental_uris": {"android": "https://dc.lft.to/lastmile_qr_scan", "ios": "https://dc.lft.to/lastmile_qr_scan"}, "lat": 38.90532733333333, "is_reserved": 0, "is_disabled": 0, "fusion_lat": 0.0}, {"fusion_lon": 0.0, "bike_id": "ff6e9504994771552c97cb9736f984ca", "name": "ff6e9504994771552c97cb9736f984ca", "type": "electric_bike", "lon": -76.90967566666667, "rental_uris": {"android": "https://dc.lft.to/lastmile_qr_scan", "ios": "https://dc.lft.to/lastmile_qr_scan"}, "lat": 38.8542775, "is_reserved": 0, "is_disabled": 0, "fusion_lat": 0.0}, {"fusion_lon": 0.0, "bike_id": "f4b8af44f8d10f563c290602e303bcd8", "name": "f4b8af44f8d10f563c290602e303bcd8", "type": "electric_scooter", "lon": -77.03858516666666, "rental_uris": {"android": "https://dc.lft.to/lastmile_qr_scan", "ios": "https://dc.lft.to/lastmile_qr_scan"}, "lat": 38.91290266666667, "is_reserved": 0, "is_disabled": 0, "fusion_lat": 0.0}, {"fusion_lon": 0.0, "bike_id": "fd7bb2478a3261ba33ae4dff009196c0", "name": "fd7bb2478a3261ba33ae4dff009196c0", "type": "electric_scooter", "lon": -77.041602, "rental_uris": {"android": "https://dc.lft.to/lastmile_qr_scan", "ios": "https://dc.lft.to/lastmile_qr_scan"}, "lat": 38.91343783333333, "is_reserved": 0, "is_disabled": 0, "fusion_lat": 0.0}, {"fusion_lon": 0.0, "bike_id": "0f494c5e0dc6cd0601e95b32cdc42b48", "name": "0f494c5e0dc6cd0601e95b32cdc42b48", "type": "electric_scooter", "lon": -77.03203716666667, "rental_uris": {"android": "https://dc.lft.to/lastmile_qr_scan", "ios": "https://dc.lft.to/lastmile_qr_scan"}, "lat": 38.887359000000004, "is_reserved": 0, "is_disabled": 0, "fusion_lat": 0.0}, {"fusion_lon": 0.0, "bike_id": "2f74ee534bf660a49e98683321d69018", "name": "2f74ee534bf660a49e98683321d69018", "type": "electric_scooter", "lon": -77.06111516666667, "rental_uris": {"android": "https://dc.lft.to/lastmile_qr_scan", "ios": "https://dc.lft.to/lastmile_qr_scan"}, "lat": 38.943529, "is_reserved": 0, "is_disabled": 0, "fusion_lat": 0.0}, {"fusion_lon": 0.0, "bike_id": "65abdce06d7b8c51702c4ab32eb12a4c", "name": "65abdce06d7b8c51702c4ab32eb12a4c", "type": "electric_scooter", "lon": -77.03059716666667, "rental_uris": {"android": "https://dc.lft.to/lastmile_qr_scan", "ios": "https://dc.lft.to/lastmile_qr_scan"}, "lat": 38.9013915, "is_reserved": 0, "is_disabled": 0, "fusion_lat": 0.0}, {"fusion_lon": 0.0, "bike_id": "9ff4f8cb528088a8537fbe3da159186e", "name": "9ff4f8cb528088a8537fbe3da159186e", "type": "electric_scooter", "lon": -77.00954616666667, "rental_uris": {"android": "https://dc.lft.to/lastmile_qr_scan", "ios": "https://dc.lft.to/lastmile_qr_scan"}, "lat": 38.8766215, "is_reserved": 0, "is_disabled": 0, "fusion_lat": 0.0}, {"fusion_lon": 0.0, "bike_id": "aa83327f287c6ba0c4f96c24450d5663", "name": "aa83327f287c6ba0c4f96c24450d5663", "type": "electric_scooter", "lon": -77.01399166666667, "rental_uris": {"android": "https://dc.lft.to/lastmile_qr_scan", "ios": "https://dc.lft.to/lastmile_qr_scan"}, "lat": 38.928495833333336, "is_reserved": 0, "is_disabled": 0, "fusion_lat": 0.0}, {"fusion_lon": 0.0, "bike_id": "2d068db9c7f51d0594aebf05a8297256", "name": "2d068db9c7f51d0594aebf05a8297256", "type": "electric_scooter", "lon": -77.0378315, "rental_uris": {"android": "https://dc.lft.to/lastmile_qr_scan", "ios": "https://dc.lft.to/lastmile_qr_scan"}, "lat": 38.9359565, "is_reserved": 0, "is_disabled": 0, "fusion_lat": 0.0}, {"fusion_lon": 0.0, "bike_id": "47449a5d2629bd38544c76ea1489d0bb", "name": "47449a5d2629bd38544c76ea1489d0bb", "type": "electric_scooter", "lon": -77.0860695, "rental_uris": {"android": "https://dc.lft.to/lastmile_qr_scan", "ios": "https://dc.lft.to/lastmile_qr_scan"}, "lat": 38.958709166666665, "is_reserved": 0, "is_disabled": 0, "fusion_lat": 0.0}, {"fusion_lon": 0.0, "bike_id": "9510f7d61a2e2073d7378e9ef59fe6af", "name": "9510f7d61a2e2073d7378e9ef59fe6af", "type": "electric_scooter", "lon": -77.00858816666667, "rental_uris": {"android": "https://dc.lft.to/lastmile_qr_scan", "ios": "https://dc.lft.to/lastmile_qr_scan"}, "lat": 38.8764315, "is_reserved": 0, "is_disabled": 0, "fusion_lat": 0.0}, {"fusion_lon": 0.0, "bike_id": "8f65ee6197f5d0a9bf23e7b4fda751a2", "name": "8f65ee6197f5d0a9bf23e7b4fda751a2", "type": "electric_scooter", "lon": -76.99898316666666, "rental_uris": {"android": "https://dc.lft.to/lastmile_qr_scan", "ios": "https://dc.lft.to/lastmile_qr_scan"}, "lat": 38.956507333333334, "is_reserved": 0, "is_disabled": 0, "fusion_lat": 0.0}, {"fusion_lon": 0.0, "bike_id": "03895265d5857d061ff4fa025e3c8b28", "name": "03895265d5857d061ff4fa025e3c8b28", "type": "electric_scooter", "lon": -76.98653683333333, "rental_uris": {"android": "https://dc.lft.to/lastmile_qr_scan", "ios": "https://dc.lft.to/lastmile_qr_scan"}, "lat": 38.91308183333334, "is_reserved": 0, "is_disabled": 0, "fusion_lat": 0.0}, {"fusion_lon": 0.0, "bike_id": "e38e4cd1d428e047ce73800896e0975e", "name": "e38e4cd1d428e047ce73800896e0975e", "type": "electric_scooter", "lon": -77.02396383333334, "rental_uris": {"android": "https://dc.lft.to/lastmile_qr_scan", "ios": "https://dc.lft.to/lastmile_qr_scan"}, "lat": 38.9097535, "is_reserved": 0, "is_disabled": 0, "fusion_lat": 0.0}, {"fusion_lon": 0.0, "bike_id": "89c8d497cdb975c5b7495a5d44dbc422", "name": "89c8d497cdb975c5b7495a5d44dbc422", "type": "electric_scooter", "lon": -77.02401083333334, "rental_uris": {"android": "https://dc.lft.to/lastmile_qr_scan", "ios": "https://dc.lft.to/lastmile_qr_scan"}, "lat": 38.909802166666665, "is_reserved": 0, "is_disabled": 0, "fusion_lat": 0.0}, {"fusion_lon": 0.0, "bike_id": "5d9caaae466bee145028afcde46b38ec", "name": "5d9caaae466bee145028afcde46b38ec", "type": "electric_scooter", "lon": -76.99808933333334, "rental_uris": {"android": "https://dc.lft.to/lastmile_qr_scan", "ios": "https://dc.lft.to/lastmile_qr_scan"}, "lat": 38.876827666666664, "is_reserved": 0, "is_disabled": 0, "fusion_lat": 0.0},