{"data": {"bikes": [{"rental_uris": {"android": "https://dc.lft.to/lastmile_qr_scan", "ios": "https://dc.lft.to/lastmile_qr_scan"}, "type": "electric_scooter", "lon": -77.03155883333334, "name": "2337011fc9a6d85fe8351139b0cd76f7", "bike_id": "2337011fc9a6d85fe8351139b0cd76f7", "fusion_lat": 0.0, "is_reserved": 0, "lat": 38.9279275, "fusion_lon": 0.0, "is_disabled": 0}, {"rental_uris": {"android": "https://dc.lft.to/lastmile_qr_scan", "ios": "https://dc.lft.to/lastmile_qr_scan"}, "type": "electric_bike", "lon": -76.97949566666666, "name": "327928f1375887adcb1cd3b248cde25e", "bike_id": "327928f1375887adcb1cd3b248cde25e", "fusion_lat": 0.0, "is_reserved": 0, "lat": 38.898057666666666, "fusion_lon": 0.0, "is_disabled": 0}, {"rental_uris": {"android": "https://dc.lft.to/lastmile_qr_scan", "ios": "https://dc.lft.to/lastmile_qr_scan"}, "type": "electric_scooter", "lon": -77.02954966666667, "name": "8c15a71513159361a3ae0c83b212ef63", "bike_id": "8c15a71513159361a3ae0c83b212ef63", "fusion_lat": 0.0, "is_reserved": 0, "lat": 38.917141, "fusion_lon": 0.0, "is_disabled": 0}, {"rental_uris": {"android": "https://dc.lft.to/lastmile_qr_scan", "ios": "https://dc.lft.to/lastmile_qr_scan"}, "type": "electric_scooter", "lon": -76.94851833333334, "name": "15912b0f042e35580128b13e02631fb1", "bike_id": "15912b0f042e35580128b13e02631fb1", "fusion_lat": 0.0, "is_reserved": 0, "lat": 38.88300533333334, "fusion_lon": 0.0, "is_disabled": 0}, {"rental_uris": {"android": "https://dc.lft.to/lastmile_qr_scan", "ios": "https://dc.lft.to/lastmile_qr_scan"}, "type": "electric_bike", "lon": -77.34416633333333, "name": "dbe7c27fc5dd6f50a452cb576ec759dd", "bike_id": "dbe7c27fc5dd6f50a452cb576ec759dd", "fusion_lat": 0.0, "is_reserved": 0, "lat": 38.945908833333334, "fusion_lon": 0.0, "is_disabled": 0}, {"rental_uris": {"android": "https://dc.lft.to/lastmile_qr_scan", "ios": "https://dc.lft.to/lastmile_qr_scan"}, "type": "electric_scooter", "lon": -77.04876983333334, "name": "abb1853c9e67958bed175473e5b16e32", "bike_id": "abb1853c9e67958bed175473e5b16e32", "fusion_lat": 0.0, "is_reserved": 0, "lat": 38.9064715, "fusion_lon": 0.0, "is_disabled": 0}, {"rental_uris": {"android": "https://dc.lft.to/lastmile_qr_scan", "ios": "https://dc.lft.to/lastmile_qr_scan"}, "type": "electric_scooter", "lon": -77.01147933333333, "name": "edf5c3c0c79a81d6a004dc521bea212d", "bike_id": "edf5c3c0c79a81d6a004dc521bea212d", "fusion_lat": 0.0, "is_reserved": 0, "lat": 38.9030105, "fusion_lon": 0.0, "is_disabled": 0}, {"rental_uris": {"android": "https://dc.lft.to/lastmile_qr_scan", "ios": "https://dc.lft.to/lastmile_qr_scan"}, "type": "electric_bike", "lon": -77.14324683333334, "name": "3213b5c3cc91c21b383f2ab683a59157", "bike_id": "3213b5c3cc91c21b383f2ab683a59157", "fusion_lat": 0.0, "is_reserved": 0, "lat": 39.054578666666664, "fusion_lon": 0.0, "is_disabled": 0}, {"rental_uris": {"android": "https://dc.lft.to/lastmile_qr_scan", "ios": "https://dc.lft.to/lastmile_qr_scan"}, "type": "electric_scooter", "lon": -77.03461516666667, "name": "884bef4d8468428d710a8113a5d84aa8", "bike_id": "884bef4d8468428d710a8113a5d84aa8", "fusion_lat": 0.0, "is_reserved": 0, "lat": 38.92870466666667, "fusion_lon": 0.0, "is_disabled": 0}, {"rental_uris": {"android": "https://dc.lft.to/lastmile_qr_scan", "ios": "https://dc.lft.to/lastmile_qr_scan"}, "type": "electric_scooter", "lon": -77.06185566666667, "name": "137fc67833a5c91af6d3d8e150c10439", "bike_id": "137fc67833a5c91af6d3d8e150c10439", "fusion_lat": 0.0, "is_reserved": 0, "lat": 38.93012733333333, "fusion_lon": 0.0, "is_disabled": 0}, {"rental_uris": {"android": "https://dc.lft.to/lastmile_qr_scan", "ios": "https://dc.lft.to/lastmile_qr_scan"}, "type": "electric_scooter", "lon": -77.034444, "name": "df99b039392c46a50c3a1289ea0e4234", "bike_id": "df99b039392c46a50c3a1289ea0e4234", "fusion_lat": 0.0, "is_reserved": 0, "lat": 38.918292666666666, "fusion_lon": 0.0, "is_disabled": 0}, {"rental_uris": {"android": "https://dc.lft.to/lastmile_qr_scan", "ios": "https://dc.lft.to/lastmile_qr_scan"}, "type": "electric_scooter", "lon": -76.980028, "name": "83a92eccbbd5199dd1012808a49ebe56", "bike_id": "83a92eccbbd5199dd1012808a49ebe56", "fusion_lat": 0.0, "is_reserved": 0, "lat": 38.85323016666667, "fusion_lon": 0.0, "is_disabled": 0}, {"rental_uris": {"android": "https://dc.lft.to/lastmile_qr_scan", "ios": "https://dc.lft.to/lastmile_qr_scan"}, "type": "electric_scooter", "lon": -76.99026683333334, "name": "9431b289e16ed46deeaf536a5fef4b13", "bike_id": "9431b289e16ed46deeaf536a5fef4b13", "fusion_lat": 0.0, "is_reserved": 0, "lat": 38.8607505, "fusion_lon": 0.0, "is_disabled": 0}, {"rental_uris": {"android": "https://dc.lft.to/lastmile_qr_scan", "ios": "https://dc.lft.to/lastmile_qr_scan"}, "type": "electric_scooter", "lon": -77.01444383333333, "name": "c64fab1ca0d53e2c63205e27a4306000", "bike_id": "c64fab1ca0d53e2c63205e27a4306000", "fusion_lat": 0.0, "is_reserved": 0, "lat": 38.87781566666666, "fusion_lon": 0.0, "is_disabled": 0}, {"rental_uris": {"android": "https://dc.lft.to/lastmile_qr_scan", "ios": "https://dc.lft.to/lastmile_qr_scan"}, "type": "electric_scooter", "lon": -77.02669466666667, "name": "dede7a96c76cf97e4bd2b7d5c63ed23b", "bike_id": "dede7a96c76cf97e4bd2b7d5c63ed23b", "fusion_lat": 0.0, "is_reserved": 0, "lat": 38.9287175, "fusion_lon": 0.0, "is_disabled": 0}, {"rental_uris": {"android": "https://dc.lft.to/lastmile_qr_scan", "ios": "https://dc.lft.to/lastmile_qr_scan"}, "type": "electric_scooter", "lon": -77.03273316666667, "name": "1b6cb83d5da7910b4daf9f5bed1751fb", "bike_id": "1b6cb83d5da7910b4daf9f5bed1751fb", "fusion_lat": 0.0, "is_reserved": 0, "lat": 38.92455316666667, "fusion_lon": 0.0, "is_disabled": 0}, {"rental_uris": {"android": "https://dc.lft.to/lastmile_qr_scan", "ios": "https://dc.lft.to/lastmile_qr_scan"}, "type": "electric_bike", "lon": -77.0996265, "name": "54cca40d319939cddaf0c5bafdf92c2c", "bike_id": "54cca40d319939cddaf0c5bafdf92c2c", "fusion_lat": 0.0, "is_reserved": 0, "lat": 38.85787783333333, "fusion_lon": 0.0, "is_disabled": 0}, {"rental_uris": {"android": "https://dc.lft.to/lastmile_qr_scan", "ios": "https://dc.lft.to/lastmile_qr_scan"}, "type": "electric_scooter", "lon": -77.04812283333334, "name": "075c8a6f425e2f5ec586bf8b51f89a89", "bike_id": "075c8a6f425e2f5ec586bf8b51f89a89", "fusion_lat": 0.0, "is_reserved": 0, "lat": 38.900584, "fusion_lon": 0.0, "is_disabled": 0}, {"rental_uris": {"android": "https://dc.lft.to/lastmile_qr_scan", "ios": "https://dc.lft.to/lastmile_qr_scan"}, "type": "electric_scooter", "lon": -77.02176116666666, "name": "46fac5d8dc892458fabe88dcb4c261ce", "bike_id": "46fac5d8dc892458fabe88dcb4c261ce", "fusion_lat": 0.0, "is_reserved": 0, "lat": 38.892254, "fusion_lon": 0.0, "is_disabled": 0}, {"rental_uris": {"android": "https://dc.lft.to/lastmile_qr_scan", "ios": "https://dc.lft.to/lastmile_qr_scan"}, "type": "electric_bike", "lon": -76.98830583333333, "name": "2ccb2811fbb46e3a83a1e28dd296f10c", "bike_id": "2ccb2811fbb46e3a83a1e28dd296f10c", "fusion_lat": 0.0, "is_reserved": 0, "lat": 38.985617166666664, "fusion_lon": 0.0, "is_disabled": 0}, {"rental_uris": {"android": "https://dc.lft.to/lastmile_qr_scan", "ios": "https://dc.lft.to/lastmile_qr_scan"}, "type": "electric_scooter", "lon": -77.04569666666667, "name": "628189f1ceb80f6becae684a0b4a9282", "bike_id": "628189f1ceb80f6becae684a0b4a9282", "fusion_lat": 0.0, "is_reserved": 0, "lat": 38.9213505, "fusion_lon": 0.0, "is_disabled": 0}, {"rental_uris": {"android": "https://dc.lft.to/lastmile_qr_scan", "ios": "https://dc.lft.to/lastmile_qr_scan"}, "type": "electric_scooter", "lon": -77.02353316666667, "name": "24baac2e90d22e7867662f1bff5b45ad", "bike_id": "24baac2e90d22e7867662f1bff5b45ad", "fusion_lat": 0.0, "is_reserved": 0, "lat": 38.9177905, "fusion_lon": 0.0, "is_disabled": 0}, {"rental_uris": {"android": "https://dc.lft.to/lastmile_qr_scan", "ios": "https://dc.lft.to/lastmile_qr_scan"}, "type": "electric_scooter", "lon": -77.04637516666666, "name": "315bb0c0a0dc35ab091329363ee0a6de", "bike_id": "315bb0c0a0dc35ab091329363ee0a6de", "fusion_lat": 0.0, "is_reserved": 0, "lat": 38.90065, "fusion_lon": 0.0, "is_disabled": 0}, {"rental_uris": {"android": "https://dc.lft.to/lastmile_qr_scan", "ios": "https://dc.lft.to/lastmile_qr_scan"}, "type": "electric_scooter", "lon": -77.02541333333333, "name": "539ba9c080f937d02ef2d3f907f332a6", "bike_id": "539ba9c080f937d02ef2d3f907f332a6", "fusion_lat": 0.0, "is_reserved": 0, "lat": 38.9274375, "fusion_lon": 0.0, "is_disabled": 0}, {"rental_uris": {"android": "https://dc.lft.to/lastmile_qr_scan", "ios": "https://dc.lft.to/lastmile_qr_scan"}, "type": "electric_scooter", "lon": -77.02347783333333, "name": "a95ee01941de325bae8d10304ba321d5", "bike_id": "a95ee01941de325bae8d10304ba321d5", "fusion_lat": 0.0, "is_reserved": 0, "lat": 38.93326533333333, "fusion_lon": 0.0, "is_disabled": 0}, {"rental_uris": {"android": "https://dc.lft.to/lastmile_qr_scan", "ios": "https://dc.lft.to/lastmile_qr_scan"}, "type": "electric_scooter", "lon": -77.02344766666667, "name": "dff5664269f15f57d30d5781f0fe325d", "bike_id": "dff5664269f15f57d30d5781f0fe325d", "fusion_lat": 0.0, "is_reserved": 0, "lat": 38.92992066666667, "fusion_lon": 0.0, "is_disabled": 0}, {"rental_uris": {"android": "https://dc.lft.to/lastmile_qr_scan", "ios": "https://dc.lft.to/lastmile_qr_scan"}, "type": "electric_scooter", "lon": -77.05006133333333, "name": "95327d52e27f77d9533e1cff67e593e7", "bike_id": "95327d52e27f77d9533e1cff67e593e7", "fusion_lat": 0.0, "is_reserved": 0, "lat": 38.89227566666667, "fusion_lon": 0.0, "is_disabled": 0}, {"rental_uris": {"android": "https://dc.lft.to/lastmile_qr_scan", "ios": "https://dc.lft.to/lastmile_qr_scan"}, "type": "electric_scooter", "lon": -77.025491, "name": "2ad8d18fdf8a036274aa5b26203bbc8e", "bike_id": "2ad8d18fdf8a036274aa5b26203bbc8e", "fusion_lat": 0.0, "is_reserved": 0, "lat": 38.9351575, "fusion_lon": 0.0, "is_disabled": 0}, {"rental_uris": {"android": "https://dc.lft.to/lastmile_qr_scan", "ios": "https://dc.lft.to/lastmile_qr_scan"}, "type": "electric_scooter", "lon": -77.03177083333334, "name": "4ec84f71320dd07a85410bbc495827c9", "bike_id": "4ec84f71320dd07a85410bbc495827c9", "fusion_lat": 0.0, "is_reserved": 0, "lat": 38.89778533333333, "fusion_lon": 0.0, "is_disabled": 0}, {"rental_uris": {"android": "https://dc.lft.to/lastmile_qr_scan", "ios": "https://dc.lft.to/lastmile_qr_scan"}, "type": "electric_bike", "lon": -76.96834983333333, "name": "cdd7859893c53f4b06a792c04fffdb5a", "bike_id": "cdd7859893c53f4b06a792c04fffdb5a", "fusion_lat": 0.0, "is_reserved": 0, "lat": 38.924437833333336, "fusion_lon": 0.0, "is_disabled": 0}, {"rental_uris": {"android": "https://dc.lft.to/lastmile_qr_scan", "ios": "https://dc.lft.to/lastmile_qr_scan"}, "type": "electric_bike", "lon": -76.92998166666666, "name": "51407fb735f93d11232f7e3c17bbeb1e", "bike_id": "51407fb735f93d11232f7e3c17bbeb1e", "fusion_lat": 0.0, "is_reserved": 0, "lat": 38.887972, "fusion_lon": 0.0, "is_disabled": 0}, {"rental_uris": {"android": "https://dc.lft.to/lastmile_qr_scan", "ios": "https://dc.lft.to/lastmile_qr_scan"}, "type": "electric_scooter", "lon": -77.04712166666667, "name": "7bb635a73ba174188c1c7bce28db6b18", "bike_id": "7bb635a73ba174188c1c7bce28db6b18", "fusion_lat": 0.0, "is_reserved": 0, "lat": 38.89967333333333, "fusion_lon": 0.0, "is_disabled": 0}, {"rental_uris": {"android": "https://dc.lft.to/lastmile_qr_scan", "ios": "https://dc.lft.to/lastmile_qr_scan"}, "type": "electric_scooter", "lon": -77.07265466666666, "name": "ae7d5c40980ae1567e285657a4756083", "bike_id": "ae7d5c40980ae1567e285657a4756083", "fusion_lat": 0.0, "is_reserved": 0, "lat": 38.9347905, "fusion_lon": 0.0, "is_disabled": 0}, {"rental_uris": {"android": "https://dc.lft.to/lastmile_qr_scan", "ios": "https://dc.lft.to/lastmile_qr_scan"}, "type": "electric_scooter", "lon": -77.07076916666666, "name": "7995e8b096270c4ec985751edc425604", "bike_id": "7995e8b096270c4ec985751edc425604", "fusion_lat": 0.0, "is_reserved": 0, "lat": 38.91931366666667, "fusion_lon": 0.0, "is_disabled": 0}, {"rental_uris": {"android": "https://dc.lft.to/lastmile_qr_scan", "ios": "https://dc.lft.to/lastmile_qr_scan"}, "type": "electric_bike", "lon": -77.1526945, "name": "3fd443743f95ce4a5947b47cc62b1815", "bike_id": "3fd443743f95ce4a5947b47cc62b1815", "fusion_lat": 0.0, "is_reserved": 0, "lat": 39.10564466666667, "fusion_lon": 0.0, "is_disabled": 0}, {"rental_uris": {"android": "https://dc.lft.to/lastmile_qr_scan", "ios": "https://dc.lft.to/lastmile_qr_scan"}, "type": "electric_scooter", "lon": -77.03805316666667, "name": "be1fe3ed6e3c226a8e29651f3561b6f3", "bike_id": "be1fe3ed6e3c226a8e29651f3561b6f3", "fusion_lat": 0.0, "is_reserved": 0, "lat": 38.930142833333335, "fusion_lon": 0.0, "is_disabled": 0}, {"rental_uris": {"android": "https://dc.lft.to/lastmile_qr_scan", "ios": "https://dc.lft.to/lastmile_qr_scan"}, "type": "electric_scooter", "lon": -76.96504916666666, "name": "695980da5f1b1e9ab8a704a7b8b5a9db", "bike_id": "695980da5f1b1e9ab8a704a7b8b5a9db", "fusion_lat": 0.0, "is_reserved": 0, "lat": 38.87646683333333, "fusion_lon": 0.0, "is_disabled": 0}, {"rental_uris": {"android": "https://dc.lft.to/lastmile_qr_scan", "ios": "https://dc.lft.to/lastmile_qr_scan"}, "type": "electric_scooter", "lon": -76.98326483333334, "name": "653ab5f52ddf43a9dcae6d3960479534", "bike_id": "653ab5f52ddf43a9dcae6d3960479534", "fusion_lat": 0.0, "is_reserved": 0, "lat": 38.86173466666666, "fusion_lon": 0.0, "is_disabled": 0}, {"rental_uris": {"android": "https://dc.lft.to/lastmile_qr_scan", "ios": "https://dc.lft.to/lastmile_qr_scan"}, "type": "electric_scooter", "lon": -76.98730733333333, "name": "c21656bbfcf47fd6429f7a7196d0c52a", "bike_id": "c21656bbfcf47fd6429f7a7196d0c52a", "fusion_lat": 0.0, "is_reserved": 0, "lat": 38.86709616666667, "fusion_lon": 0.0, "is_disabled": 0}, {"rental_uris": {"android": "https://dc.lft.to/lastmile_qr_scan", "ios": "https://dc.lft.to/lastmile_qr_scan"}, "type": "electric_scooter", "lon": -77.048616, "name": "d705a7d2ed07d11e726b4ef84781f5e5", "bike_id": "d705a7d2ed07d11e726b4ef84781f5e5", "fusion_lat": 0.0, "is_reserved": 0, "lat": 38.903738, "fusion_lon": 0.0, "is_disabled": 0}, {"rental_uris": {"android": "https://dc.lft.to/lastmile_qr_scan", "ios": "https://dc.lft.to/lastmile_qr_scan"}, "type": "electric_scooter", "lon": -77.064612, "name": "ac6625729a27253bfec7d42e54815af8", "bike_id": "ac6625729a27253bfec7d42e54815af8", "fusion_lat": 0.0, "is_reserved": 0, "lat": 38.909796, "fusion_lon": 0.0, "is_disabled": 0}, {"rental_uris": {"android": "https://dc.lft.to/lastmile_qr_scan", "ios": "https://dc.lft.to/lastmile_qr_scan"}, "type": "electric_scooter", "lon": -76.99095533333333, "name": "6bf2f49a2a20ac3408048a89fd9bd96d", "bike_id": "6bf2f49a2a20ac3408048a89fd9bd96d", "fusion_lat": 0.0, "is_reserved": 0, "lat": 38.8635405, "fusion_lon": 0.0, "is_disabled": 0}, {"rental_uris": {"android": "https://dc.lft.to/lastmile_qr_scan", "ios": "https://dc.lft.to/lastmile_qr_scan"}, "type": "electric_bike", "lon": -76.952057, "name": "9ed06a6f13aa657121a4b6a358832fd5", "bike_id": "9ed06a6f13aa657121a4b6a358832fd5", "fusion_lat": 0.0, "is_reserved": 0, "lat": 38.936656, "fusion_lon": 0.0, "is_disabled": 0}, {"rental_uris": {"android": "https://dc.lft.to/lastmile_qr_scan", "ios": "https://dc.lft.to/lastmile_qr_scan"}, "type": "electric_scooter", "lon": -77.02703783333334, "name": "d4a20d2fc0dc0433a730f7e8c9d2bcfd", "bike_id": "d4a20d2fc0dc0433a730f7e8c9d2bcfd", "fusion_lat": 0.0, "is_reserved": 0, "lat": 38.939834, "fusion_lon": 0.0, "is_disabled": 0}, {"rental_uris": {"android": "https://dc.lft.to/lastmile_qr_scan", "ios": "https://dc.lft.to/lastmile_qr_scan"}, "type": "electric_scooter", "lon": -77.027608, "name": "d1d84705712458959198c48af0b6db4d", "bike_id": "d1d84705712458959198c48af0b6db4d", "fusion_lat": 0.0, "is_reserved": 0, "lat": 38.953967166666665, "fusion_lon": 0.0, "is_disabled": 0}, {"rental_uris": {"android": "https://dc.lft.to/lastmile_qr_scan", "ios": "https://dc.lft.to/lastmile_qr_scan"}, "type": "electric_scooter", "lon": -77.023535, "name": "919c5de17db2fc161af4d7b761d90861", "bike_id": "919c5de17db2fc161af4d7b761d90861", "fusion_lat": 0.0, "is_reserved": 0, "lat": 38.922723500000004, "fusion_lon": 0.0, "is_disabled": 0}, {"rental_uris": {"android": "https://dc.lft.to/lastmile_qr_scan", "ios": "https://dc.lft.to/lastmile_qr_scan"}, "type": "electric_scooter", "lon": -77.02307283333333, "name": "fc3b1b0b403f6f2962a1f1b6c717e85b", "bike_id": "fc3b1b0b403f6f2962a1f1b6c717e85b", "fusion_lat": 0.0, "is_reserved": 0, "lat": 38.91612033333333, "fusion_lon": 0.0, "is_disabled": 0}, {"rental_uris": {"android": "https://dc.lft.to/lastmile_qr_scan", "ios": "https://dc.lft.to/lastmile_qr_scan"}, "type": "electric_scooter", "lon": -77.016955, "name": "3857cae2e605b2ae0b55e56fa6214c5c", "bike_id": "3857cae2e605b2ae0b55e56fa6214c5c", "fusion_lat": 0.0, "is_reserved": 0, "lat": 38.911049166666665, "fusion_lon": 0.0, "is_disabled": 0}, {"rental_uris": {"android": "https://dc.lft.to/lastmile_qr_scan", "ios": "https://dc.lft.to/lastmile_qr_scan"}, "type": "electric_scooter", "lon": -77.0370935, "name": "9964b749170ad11d2d1705c4aadb5bc9", "bike_id": "9964b749170ad11d2d1705c4aadb5bc9", "fusion_lat": 0.0, "is_reserved": 0, "lat": 38.92622716666666, "fusion_lon": 0.0, "is_disabled": 0}, {"rental_uris": {"android": "https://dc.lft.to/lastmile_qr_scan", "ios": "https://dc.lft.to/lastmile_qr_scan"}, "type": "electric_scooter", "lon": -77.02117366666667, "name": "1e90423b52ad1c9baa4448be4dda7a42", "bike_id": "1e90423b52ad1c9baa4448be4dda7a42", "fusion_lat": 0.0, "is_reserved": 0, "lat": 38.930155166666665, "fusion_lon": 0.0, "is_disabled": 0}, {"rental_uris": {"android": "https://dc.lft.to/lastmile_qr_scan", "ios": "https://dc.lft.to/lastmile_qr_scan"}, "type": "electric_bike", "lon": -77.05113933333334, "name": "9cd4435b4fbd37df14f0b57034cbe424", "bike_id": "9cd4435b4fbd37df14f0b57034cbe424", "fusion_lat": 0.0, "is_reserved": 0, "lat": 38.9455655, "fusion_lon": 0.0, "is_disabled": 0}, {"rental_uris": {"android": "https://dc.lft.to/lastmile_qr_scan", "ios": "https://dc.lft.to/lastmile_qr_scan"}, "type": "electric_scooter", "lon": -77.03879316666666, "name": "d01b8bb2be41582b57ecd7a70ce7aca6", "bike_id": "d01b8bb2be41582b57ecd7a70ce7aca6", "fusion_lat": 0.0, "is_reserved": 0, "lat": 38.93430216666667, "fusion_lon": 0.0, "is_disabled": 0}, {"rental_uris": {"android": "https://dc.lft.to/lastmile_qr_scan", "ios": "https://dc.lft.to/lastmile_qr_scan"}, "type": "electric_scooter", "lon": -77.050124, "name": "8982ded07d17a61ac113315ebad64ca0", "bike_id": "8982ded07d17a61ac113315ebad64ca0", "fusion_lat": 0.0, "is_reserved": 0, "lat": 38.907620666666666, "fusion_lon": 0.0, "is_disabled": 0}, {"rental_uris": {"android": "https://dc.lft.to/lastmile_qr_scan", "ios": "https://dc.lft.to/lastmile_qr_scan"}, "type": "electric_bike", "lon": -77.10717016666666, "name": "663be22a6d36d325f450a97d8a64e8fd", "bike_id": "663be22a6d36d325f450a97d8a64e8fd", "fusion_lat": 0.0, "is_reserved": 0, "lat": 38.855384, "fusion_lon": 0.0, "is_disabled": 0}, {"rental_uris": {"android": "https://dc.lft.to/lastmile_qr_scan", "ios": "https://dc.lft.to/lastmile_qr_scan"}, "type": "electric_scooter", "lon": -77.01336183333333, "name": "9027bea508a80713426d320862f22b4e", "bike_id": "9027bea508a80713426d320862f22b4e", "fusion_lat": 0.0, "is_reserved": 0, "lat": 38.881217666666664, "fusion_lon": 0.0, "is_disabled": 0}, {"rental_uris": {"android": "https://dc.lft.to/lastmile_qr_scan", "ios": "https://dc.lft.to/lastmile_qr_scan"}, "type": "electric_scooter", "lon": -77.0388145, "name": "c7dce1ae9a0a8408de4895a6031b4090", "bike_id": "c7dce1ae9a0a8408de4895a6031b4090", "fusion_lat": 0.0, "is_reserved": 0, "lat": 38.932597, "fusion_lon": 0.0, "is_disabled": 0}, {"rental_uris": {"android": "https://dc.lft.to/lastmile_qr_scan", "ios": "https://dc.lft.to/lastmile_qr_scan"}, "type": "electric_scooter", "lon": -77.04158283333334, "name": "afa0dd6fcb74e384ba9fedbaab891256", "bike_id": "afa0dd6fcb74e384ba9fedbaab891256", "fusion_lat": 0.0, "is_reserved": 0, "lat": 38.91421833333333, "fusion_lon": 0.0, "is_disabled": 0}, {"rental_uris": {"android": "https://dc.lft.to/lastmile_qr_scan", "ios": "https://dc.lft.to/lastmile_qr_scan"}, "type": "electric_scooter", "lon": -77.01965933333334, "name": "0590c7ee83488e51c37c74e23d7f98a6", "bike_id": "0590c7ee83488e51c37c74e23d7f98a6", "fusion_lat": 0.0, "is_reserved": 0, "lat": 38.878449333333336, "fusion_lon": 0.0, "is_disabled": 0}, {"rental_uris": {"android": "https://dc.lft.to/lastmile_qr_scan", "ios": "https://dc.lft.to/lastmile_qr_scan"}, "type": "electric_scooter", "lon": -77.02388666666667, "name": "80c1b8f6c53153bd344002fbbffd230f", "bike_id": "80c1b8f6c53153bd344002fbbffd230f", "fusion_lat": 0.0, "is_reserved": 0, "lat": 38.92069583333333, "fusion_lon": 0.0, "is_disabled": 0}, {"rental_uris": {"android": "https://dc.lft.to/lastmile_qr_scan", "ios": "https://dc.lft.to/lastmile_qr_scan"}, "type": "electric_scooter", "lon": -77.03855833333333, "name": "6eed830cfba1f28064cff363de28b08c", "bike_id": "6eed830cfba1f28064cff363de28b08c", "fusion_lat": 0.0, "is_reserved": 0, "lat": 38.91546483333333, "fusion_lon": 0.0, "is_disabled": 0}, {"rental_uris": {"android": "https://dc.lft.to/lastmile_qr_scan", "ios": "https://dc.lft.to/lastmile_qr_scan"}, "type": "electric_scooter", "lon": -77.038561, "name": "ef0f7138eeeb95a1d2153362123d51e0", "bike_id": "ef0f7138eeeb95a1d2153362123d51e0", "fusion_lat": 0.0, "is_reserved": 0, "lat": 38.917154833333335, "fusion_lon": 0.0, "is_disabled": 0}, {"rental_uris": {"android": "https://dc.lft.to/lastmile_qr_scan", "ios": "https://dc.lft.to/lastmile_qr_scan"}, "type": "electric_scooter", "lon": -77.02481066666667, "name": "d375408493015ddb0842e348e270599b", "bike_id": "d375408493015ddb0842e348e270599b", "fusion_lat": 0.0, "is_reserved": 0, "lat": 38.938794, "fusion_lon": 0.0, "is_disabled": 0}, {"rental_uris": {"android": "https://dc.lft.to/lastmile_qr_scan", "ios": "https://dc.lft.to/lastmile_qr_scan"}, "type": "electric_bike", "lon": -77.0489905, "name": "966b95def9b73e6c15d2092851d4d05a", "bike_id": "966b95def9b73e6c15d2092851d4d05a", "fusion_lat": 0.0, "is_reserved": 0, "lat": 38.87490916666667, "fusion_lon": 0.0, "is_disabled": 0}, {"rental_uris": {"android": "https://dc.lft.to/lastmile_qr_scan", "ios": "https://dc.lft.to/lastmile_qr_scan"}, "type": "electric_scooter", "lon": -77.02287416666667, "name": "c1ee2c0e9fd0fa9fcf90828bbf9fbd16", "bike_id": "c1ee2c0e9fd0fa9fcf90828bbf9fbd16", "fusion_lat": 0.0, "is_reserved": 0, "lat": 38.91568083333333, "fusion_lon": 0.0, "is_disabled": 0}, {"rental_uris": {"android": "https://dc.lft.to/lastmile_qr_scan", "ios": "https://dc.lft.to/lastmile_qr_scan"}, "type": "electric_scooter", "lon": -77.01904816666666, "name": "b7160b8f48b6498099ec592529975f36", "bike_id": "b7160b8f48b6498099ec592529975f36", "fusion_lat": 0.0, "is_reserved": 0, "lat": 38.92343366666667, "fusion_lon": 0.0, "is_disabled": 0}, {"rental_uris": {"android": "https://dc.lft.to/lastmile_qr_scan", "ios": "https://dc.lft.to/lastmile_qr_scan"}, "type": "electric_scooter", "lon": -77.03202166666667, "name": "2a3a4e6691ae95b264aab32170f58000", "bike_id": "2a3a4e6691ae95b264aab32170f58000", "fusion_lat": 0.0, "is_reserved": 0, "lat": 38.918884166666665, "fusion_lon": 0.0, "is_disabled": 0}, {"rental_uris": {"android": "https://dc.lft.to/lastmile_qr_scan", "ios": "https://dc.lft.to/lastmile_qr_scan"}, "type": "electric_scooter", "lon": -77.0327555, "name": "61696ae94bc069c94ee5c1a3a0885898", "bike_id": "61696ae94bc069c94ee5c1a3a0885898", "fusion_lat": 0.0, "is_reserved": 0, "lat": 38.932472, "fusion_lon": 0.0, "is_disabled": 0}, {"rental_uris": {"android": "https://dc.lft.to/lastmile_qr_scan", "ios": "https://dc.lft.to/lastmile_qr_scan"}, "type": "electric_scooter", "lon": -77.03930383333334, "name": "caf8d03741699d6df76828795932c228", "bike_id": "caf8d03741699d6df76828795932c228", "fusion_lat": 0.0, "is_reserved": 0, "lat": 38.91389016666667, "fusion_lon": 0.0, "is_disabled": 0}, {"rental_uris": {"android": "https://dc.lft.to/lastmile_qr_scan", "ios": "https://dc.lft.to/lastmile_qr_scan"}, "type": "electric_scooter", "lon": -77.01612016666667, "name": "5fd41aedc25ff49535a502a5a82199fd", "bike_id": "5fd41aedc25ff49535a502a5a82199fd", "fusion_lat": 0.0, "is_reserved": 0, "lat": 38.90588, "fusion_lon": 0.0, "is_disabled": 0}, {"rental_uris": {"android": "https://dc.lft.to/lastmile_qr_scan", "ios": "https://dc.lft.to/lastmile_qr_scan"}, "type": "electric_scooter", "lon": -77.06795683333333, "name": "bf6012c2fa40061a5fd4a385e057c9df", "bike_id": "bf6012c2fa40061a5fd4a385e057c9df", "fusion_lat": 0.0, "is_reserved": 0, "lat": 38.910721333333335, "fusion_lon": 0.0, "is_disabled": 0}, {"rental_uris": {"android": "https://dc.lft.to/lastmile_qr_scan", "ios": "https://dc.lft.to/lastmile_qr_scan"}, "type": "electric_scooter", "lon": -77.03051466666666, "name": "6569d821c800450f5adc5a38ae2d35c3", "bike_id": "6569d821c800450f5adc5a38ae2d35c3", "fusion_lat": 0.0, "is_reserved": 0, "lat": 38.884130166666665, "fusion_lon": 0.0, "is_disabled": 0}, {"rental_uris": {"android": "https://dc.lft.to/lastmile_qr_scan", "ios": "https://dc.lft.to/lastmile_qr_scan"}, "type": "electric_scooter", "lon": -77.0247515, "name": "6d25b60091dbe38626ac09baf5f73632", "bike_id": "6d25b60091dbe38626ac09baf5f73632", "fusion_lat": 0.0, "is_reserved": 0, "lat": 38.906431833333336, "fusion_lon": 0.0, "is_disabled": 0}, {"rental_uris": {"android": "https://dc.lft.to/lastmile_qr_scan", "ios": "https://dc.lft.to/lastmile_qr_scan"}, "type": "electric_scooter", "lon": -77.00266033333334, "name": "94054a5a3be40723e8b338eeb0112e1e", "bike_id": "94054a5a3be40723e8b338eeb0112e1e", "fusion_lat": 0.0, "is_reserved": 0, "lat": 38.901328666666664, "fusion_lon": 0.0, "is_disabled": 0}, {"rental_uris": {"android": "https://dc.lft.to/lastmile_qr_scan", "ios": "https://dc.lft.to/lastmile_qr_scan"}, "type": "electric_scooter", "lon": -77.03226, "name": "f844e5cfa18f71ef2bee01538e1f4eaf", "bike_id": "f844e5cfa18f71ef2bee01538e1f4eaf", "fusion_lat": 0.0, "is_reserved": 0, "lat": 38.918982, "fusion_lon": 0.0, "is_disabled": 0}, {"rental_uris": {"android": "https://dc.lft.to/lastmile_qr_scan", "ios": "https://dc.lft.to/lastmile_qr_scan"}, "type": "electric_bike", "lon": -77.10030083333334, "name": "ae927cfdf70370a228f65032c8a1a7d3", "bike_id": "ae927cfdf70370a228f65032c8a1a7d3", "fusion_lat": 0.0, "is_reserved": 0, "lat": 38.99061866666667, "fusion_lon": 0.0, "is_disabled": 0}, {"rental_uris": {"android": "https://dc.lft.to/lastmile_qr_scan", "ios": "https://dc.lft.to/lastmile_qr_scan"}, "type": "electric_scooter", "lon": -76.97476716666667, "name": "37e1e7f9b30d2ff5ff598acf970e8bd3", "bike_id": "37e1e7f9b30d2ff5ff598acf970e8bd3", "fusion_lat": 0.0, "is_reserved": 0, "lat": 38.903529666666664, "fusion_lon": 0.0, "is_disabled": 0}, {"rental_uris": {"android": "https://dc.lft.to/lastmile_qr_scan", "ios": "https://dc.lft.to/lastmile_qr_scan"}, "type": "electric_scooter", "lon": -77.02705266666666, "name": "d1056a89193cba62736494700807449e", "bike_id": "d1056a89193cba62736494700807449e", "fusion_lat": 0.0, "is_reserved": 0, "lat": 38.949973666666665, "fusion_lon": 0.0, "is_disabled": 0}, {"rental_uris": {"android": "https://dc.lft.to/lastmile_qr_scan", "ios": "https://dc.lft.to/lastmile_qr_scan"}, "type": "electric_scooter", "lon": -77.02322933333333, "name": "f16bcb0c5c8203e3f33a456a678e1ae7", "bike_id": "f16bcb0c5c8203e3f33a456a678e1ae7", "fusion_lat": 0.0, "is_reserved": 0, "lat": 38.91681233333333, "fusion_lon": 0.0, "is_disabled": 0}, {"rental_uris": {"android": "https://dc.lft.to/lastmile_qr_scan", "ios": "https://dc.lft.to/lastmile_qr_scan"}, "type": "electric_scooter", "lon": -77.0729855, "name": "5dc14471a4a05efb6fb361fac4bfc215", "bike_id": "5dc14471a4a05efb6fb361fac4bfc215", "fusion_lat": 0.0, "is_reserved": 0, "lat": 38.9305885, "fusion_lon": 0.0, "is_disabled": 0}, {"rental_uris": {"android": "https://dc.lft.to/lastmile_qr_scan", "ios": "https://dc.lft.to/lastmile_qr_scan"}, "type": "electric_scooter", "lon": -77.0339755, "name": "0664bb9bbc462c50f303f168e4a1442a", "bike_id": "0664bb9bbc462c50f303f168e4a1442a", "fusion_lat": 0.0, "is_reserved": 0, "lat": 38.91911, "fusion_lon": 0.0, "is_disabled": 0}, {"rental_uris": {"android": "https://dc.lft.to/lastmile_qr_scan", "ios": "https://dc.lft.to/lastmile_qr_scan"}, "type": "electric_scooter", "lon": -77.01251983333333, "name": "c587d883ff0afd8d32d9cb54460c9566", "bike_id": "c587d883ff0afd8d32d9cb54460c9566", "fusion_lat": 0.0, "is_reserved": 0, "lat": 38.90867766666667, "fusion_lon": 0.0, "is_disabled": 0}, {"rental_uris": {"android": "https://dc.lft.to/lastmile_qr_scan", "ios": "https://dc.lft.to/lastmile_qr_scan"}, "type": "electric_scooter", "lon": -77.01277866666666, "name": "3c5d1b6171c2f7a26b4205ccb0b5b9e2", "bike_id": "3c5d1b6171c2f7a26b4205ccb0b5b9e2", "fusion_lat": 0.0, "is_reserved": 0, "lat": 38.915640833333335, "fusion_lon": 0.0, "is_disabled": 0}, {"rental_uris": {"android": "https://dc.lft.to/lastmile_qr_scan", "ios": "https://dc.lft.to/lastmile_qr_scan"}, "type": "electric_scooter", "lon": -76.96519616666667, "name": "ee10df78110165d2e20f0a6ea52731f4", "bike_id": "ee10df78110165d2e20f0a6ea52731f4", "fusion_lat": 0.0, "is_reserved": 0, "lat": 38.874793333333336, "fusion_lon": 0.0, "is_disabled": 0}, {"rental_uris": {"android": "https://dc.lft.to/lastmile_qr_scan", "ios": "https://dc.lft.to/lastmile_qr_scan"}, "type": "electric_scooter", "lon": -77.01344333333333, "name": "c6a9339a65becf92ea0306af4dad01c2", "bike_id": "c6a9339a65becf92ea0306af4dad01c2", "fusion_lat": 0.0, "is_reserved": 0, "lat": 38.91912633333333, "fusion_lon": 0.0, "is_disabled": 0}, {"rental_uris": {"android": "https://dc.lft.to/lastmile_qr_scan", "ios": "https://dc.lft.to/lastmile_qr_scan"}, "type": "electric_scooter", "lon": -76.9900545, "name": "cfb018acdc671841f605b542a266e98f", "bike_id": "cfb018acdc671841f605b542a266e98f", "fusion_lat": 0.0, "is_reserved": 0, "lat": 38.90393433333333, "fusion_lon": 0.0, "is_disabled": 0}, {"rental_uris": {"android": "https://dc.lft.to/lastmile_qr_scan", "ios": "https://dc.lft.to/lastmile_qr_scan"}, "type": "electric_scooter", "lon": -76.9949305, "name": "ca40e84c2f9ce355faecc02efc76bf23", "bike_id": "ca40e84c2f9ce355faecc02efc76bf23", "fusion_lat": 0.0, "is_reserved": 0, "lat": 38.862418166666664, "fusion_lon": 0.0, "is_disabled": 0}, {"rental_uris": {"android": "https://dc.lft.to/lastmile_qr_scan", "ios": "https://dc.lft.to/lastmile_qr_scan"}, "type": "electric_scooter", "lon": -77.02957716666667, "name": "2b5b5fe4adbaeb22aa3f2e3c477be972", "bike_id": "2b5b5fe4adbaeb22aa3f2e3c477be972", "fusion_lat": 0.0, "is_reserved": 0, "lat": 38.921437, "fusion_lon": 0.0, "is_disabled": 0}, {"rental_uris": {"android": "https://dc.lft.to/lastmile_qr_scan", "ios": "https://dc.lft.to/lastmile_qr_scan"}, "type": "electric_scooter", "lon": -77.03283416666666, "name": "70e7330c33bd8fc8b9370f18875f652f", "bike_id": "70e7330c33bd8fc8b9370f18875f652f", "fusion_lat": 0.0, "is_reserved": 0, "lat": 38.91038616666667, "fusion_lon": 0.0, "is_disabled": 0}, {"rental_uris": {"android": "https://dc.lft.to/lastmile_qr_scan", "ios": "https://dc.lft.to/lastmile_qr_scan"}, "type": "electric_scooter", "lon": -77.02744383333334, "name": "cebb64ed44cd88f5737dfeec759605cd", "bike_id": "cebb64ed44cd88f5737dfeec759605cd", "fusion_lat": 0.0, "is_reserved": 0, "lat": 38.95606083333333, "fusion_lon": 0.0, "is_disabled": 0}, {"rental_uris": {"android": "https://dc.lft.to/lastmile_qr_scan", "ios": "https://dc.lft.to/lastmile_qr_scan"}, "type": "electric_scooter", "lon": -77.00672933333334, "name": "b069e2f45c8043aa1396772bab9ca845", "bike_id": "b069e2f45c8043aa1396772bab9ca845", "fusion_lat": 0.0, "is_reserved": 0, "lat": 38.94998116666667, "fusion_lon": 0.0, "is_disabled": 0}, {"rental_uris": {"android": "https://dc.lft.to/lastmile_qr_scan", "ios": "https://dc.lft.to/lastmile_qr_scan"}, "type": "electric_scooter", "lon": -76.98682733333334, "name": "c28b99770f16b50abc36d37f7da454c2", "bike_id": "c28b99770f16b50abc36d37f7da454c2", "fusion_lat": 0.0, "is_reserved": 0, "lat": 38.88205416666667, "fusion_lon": 0.0, "is_disabled": 0}, {"rental_uris": {"android": "https://dc.lft.to/lastmile_qr_scan", "ios": "https://dc.lft.to/lastmile_qr_scan"}, "type": "electric_scooter", "lon": -77.04822333333334, "name": "47037d31a4ceb263e40af79694ad6764", "bike_id": "47037d31a4ceb263e40af79694ad6764", "fusion_lat": 0.0, "is_reserved": 0, "lat": 38.91491, "fusion_lon": 0.0, "is_disabled": 0}, {"rental_uris": {"android": "https://dc.lft.to/lastmile_qr_scan", "ios": "https://dc.lft.to/lastmile_qr_scan"}, "type": "electric_scooter", "lon": -77.03280983333333, "name": "8b271a9d59a6c5488031781ac7741d46", "bike_id": "8b271a9d59a6c5488031781ac7741d46", "fusion_lat": 0.0, "is_reserved": 0, "lat": 38.93992083333333, "fusion_lon": 0.0, "is_disabled": 0}, {"rental_uris": {"android": "https://dc.lft.to/lastmile_qr_scan", "ios": "https://dc.lft.to/lastmile_qr_scan"}, "type": "electric_scooter", "lon": -77.0435765, "name": "88e2aa280c1bdc89e0bcdf0b2500a75b", "bike_id": "88e2aa280c1bdc89e0bcdf0b2500a75b", "fusion_lat": 0.0, "is_reserved": 0, "lat": 38.9051205, "fusion_lon": 0.0, "is_disabled": 0}, {"rental_uris": {"android": "https://dc.lft.to/lastmile_qr_scan", "ios": "https://dc.lft.to/lastmile_qr_scan"}, "type": "electric_scooter", "lon": -77.0088655, "name": "49fe8e611c4a6a42ccef21a7fcf29567", "bike_id": "49fe8e611c4a6a42ccef21a7fcf29567", "fusion_lat": 0.0, "is_reserved": 0, "lat": 38.8733395, "fusion_lon": 0.0, "is_disabled": 0}, {"rental_uris": {"android": "https://dc.lft.to/lastmile_qr_scan", "ios": "https://dc.lft.to/lastmile_qr_scan"}, "type": "electric_scooter", "lon": -76.99255133333334, "name": "34831048c5c89e6fecf52fca2ced1f7c", "bike_id": "34831048c5c89e6fecf52fca2ced1f7c", "fusion_lat": 0.0, "is_reserved": 0, "lat": 38.89289316666667, "fusion_lon": 0.0, "is_disabled": 0}, {"rental_uris": {"android": "https://dc.lft.to/lastmile_qr_scan", "ios": "https://dc.lft.to/lastmile_qr_scan"}, "type": "electric_scooter", "lon": -77.045047, "name": "f0c2a3fbde240165badf7aa94b654149", "bike_id": "f0c2a3fbde240165badf7aa94b654149", "fusion_lat": 0.0, "is_reserved": 0, "lat": 38.89219583333333, "fusion_lon": 0.0, "is_disabled": 0}, {"rental_uris": {"android": "https://dc.lft.to/lastmile_qr_scan", "ios": "https://dc.lft.to/lastmile_qr_scan"}, "type": "electric_scooter", "lon": -77.03265416666666, "name": "5990465e45df8de590b778b0f6153c55", "bike_id": "5990465e45df8de590b778b0f6153c55", "fusion_lat": 0.0, "is_reserved": 0, "lat": 38.935249, "fusion_lon": 0.0, "is_disabled": 0}, {"rental_uris": {"android": "https://dc.lft.to/lastmile_qr_scan", "ios": "https://dc.lft.to/lastmile_qr_scan"}, "type": "electric_bike", "lon": -77.12501966666666, "name": "4677c89fb239dd7eb882c338647b09e1", "bike_id": "4677c89fb239dd7eb882c338647b09e1", "fusion_lat": 0.0, "is_reserved": 0, "lat": 39.02422283333333, "fusion_lon": 0.0, "is_disabled": 0}, {"rental_uris": {"android": "https://dc.lft.to/lastmile_qr_scan", "ios": "https://dc.lft.to/lastmile_qr_scan"}, "type": "electric_scooter", "lon": -77.00165566666666, "name": "f0315b650c4bbf56c676a722a539abac", "bike_id": "f0315b650c4bbf56c676a722a539abac", "fusion_lat": 0.0, "is_reserved": 0, "lat": 38.90516, "fusion_lon": 0.0, "is_disabled": 0}, {"rental_uris": {"android": "https://dc.lft.to/lastmile_qr_scan", "ios": "https://dc.lft.to/lastmile_qr_scan"}, "type": "electric_scooter", "lon": -77.071607, "name": "e8caee51923557bff84ba7428bb5f847", "bike_id": "e8caee51923557bff84ba7428bb5f847", "fusion_lat": 0.0, "is_reserved": 0, "lat": 38.95837933333333, "fusion_lon": 0.0, "is_disabled": 0}, {"rental_uris": {"android": "https://dc.lft.to/lastmile_qr_scan", "ios": "https://dc.lft.to/lastmile_qr_scan"}, "type": "electric_bike", "lon": -76.9956775, "name": "364f372ae5e12dba5f5e5a20c1a443a0", "bike_id": "364f372ae5e12dba5f5e5a20c1a443a0", "fusion_lat": 0.0, "is_reserved": 0, "lat": 39.00783466666667, "fusion_lon": 0.0, "is_disabled": 0}, {"rental_uris": {"android": "https://dc.lft.to/lastmile_qr_scan", "ios": "https://dc.lft.to/lastmile_qr_scan"}, "type": "electric_bike", "lon": -77.09560066666667, "name": "14c4d3e73b072be3ebf3e99e9bfb0bde", "bike_id": "14c4d3e73b072be3ebf3e99e9bfb0bde", "fusion_lat": 0.0, "is_reserved": 0, "lat": 38.917069, "fusion_lon": 0.0, "is_disabled": 0}, {"rental_uris": {"android": "https://dc.lft.to/lastmile_qr_scan", "ios": "https://dc.lft.to/lastmile_qr_scan"}, "type": "electric_scooter", "lon": -77.01810383333333, "name": "0acd4dd4493a2921f07c55048bd01066", "bike_id": "0acd4dd4493a2921f07c55048bd01066", "fusion_lat": 0.0, "is_reserved": 0, "lat": 38.92169533333333, "fusion_lon": 0.0, "is_disabled": 0}, {"rental_uris": {"android": "https://dc.lft.to/lastmile_qr_scan", "ios": "https://dc.lft.to/lastmile_qr_scan"}, "type": "electric_scooter", "lon": -77.039776, "name": "d8a3dea62fb8b7a7b9b026d19df75b0e", "bike_id": "d8a3dea62fb8b7a7b9b026d19df75b0e", "fusion_lat": 0.0, "is_reserved": 0, "lat": 38.901081, "fusion_lon": 0.0, "is_disabled": 0}, {"rental_uris": {"android": "https://dc.lft.to/lastmile_qr_scan", "ios": "https://dc.lft.to/lastmile_qr_scan"}, "type": "electric_scooter", "lon": -76.98711166666666, "name": "3f29be6c087f3579b04474b18c60443d", "bike_id": "3f29be6c087f3579b04474b18c60443d", "fusion_lat": 0.0, "is_reserved": 0, "lat": 38.866978833333334, "fusion_lon": 0.0, "is_disabled": 0}, {"rental_uris": {"android": "https://dc.lft.to/lastmile_qr_scan", "ios": "https://dc.lft.to/lastmile_qr_scan"}, "type": "electric_scooter", "lon": -76.9985945, "name": "dd3fb99e164c7c949c9cfe09328ced52", "bike_id": "dd3fb99e164c7c949c9cfe09328ced52", "fusion_lat": 0.0, "is_reserved": 0, "lat": 38.900279, "fusion_lon": 0.0, "is_disabled": 0}, {"rental_uris": {"android": "https://dc.lft.to/lastmile_qr_scan", "ios": "https://dc.lft.to/lastmile_qr_scan"}, "type": "electric_scooter", "lon": -77.04677033333333, "name": "23d91b2f8f38937126d51c93c57bcfa6", "bike_id": "23d91b2f8f38937126d51c93c57bcfa6", "fusion_lat": 0.0, "is_reserved": 0, "lat": 38.89554733333333, "fusion_lon": 0.0, "is_disabled": 0}, {"rental_uris": {"android": "https://dc.lft.to/lastmile_qr_scan", "ios": "https://dc.lft.to/lastmile_qr_scan"}, "type": "electric_scooter", "lon": -76.99389, "name": "236571c20ec5f44dd1f4aae00393a727", "bike_id": "236571c20ec5f44dd1f4aae00393a727", "fusion_lat": 0.0, "is_reserved": 0, "lat": 38.8845145, "fusion_lon": 0.0, "is_disabled": 0}, {"rental_uris": {"android": "https://dc.lft.to/lastmile_qr_scan", "ios": "https://dc.lft.to/lastmile_qr_scan"}, "type": "electric_scooter", "lon": -77.05767433333334, "name": "f705eefeed53f36d73ce6b6e50b6d312", "bike_id": "f705eefeed53f36d73ce6b6e50b6d312", "fusion_lat": 0.0, "is_reserved": 0, "lat": 38.905266166666664, "fusion_lon": 0.0, "is_disabled": 0}, {"rental_uris": {"android": "https://dc.lft.to/lastmile_qr_scan", "ios": "https://dc.lft.to/lastmile_qr_scan"}, "type": "electric_bike", "lon": -77.02108083333333, "name": "2b9ee0fe08ab420afb2d2499c484fced", "bike_id": "2b9ee0fe08ab420afb2d2499c484fced", "fusion_lat": 0.0, "is_reserved": 0, "lat": 39.02295, "fusion_lon": 0.0, "is_disabled": 0}, {"rental_uris": {"android": "https://dc.lft.to/lastmile_qr_scan", "ios": "https://dc.lft.to/lastmile_qr_scan"}, "type": "electric_scooter", "lon": -77.03260366666666, "name": "9d85485fe19daa29f4c307ed0e1815f1", "bike_id": "9d85485fe19daa29f4c307ed0e1815f1", "fusion_lat": 0.0, "is_reserved": 0, "lat": 38.93664916666667, "fusion_lon": 0.0, "is_disabled": 0}, {"rental_uris": {"android": "https://dc.lft.to/lastmile_qr_scan", "ios": "https://dc.lft.to/lastmile_qr_scan"}, "type": "electric_scooter", "lon": -77.048156, "name": "e7e0c4e67be8bd5c056610afb9ac764d", "bike_id": "e7e0c4e67be8bd5c056610afb9ac764d", "fusion_lat": 0.0, "is_reserved": 0, "lat": 38.92035, "fusion_lon": 0.0, "is_disabled": 0}, {"rental_uris": {"android": "https://dc.lft.to/lastmile_qr_scan", "ios": "https://dc.lft.to/lastmile_qr_scan"}, "type": "electric_scooter", "lon": -77.006053, "name": "60f0bae04ec1a498e473f05e5734a535", "bike_id": "60f0bae04ec1a498e473f05e5734a535", "fusion_lat": 0.0, "is_reserved": 0, "lat": 38.90571383333333, "fusion_lon": 0.0, "is_disabled": 0}, {"rental_uris": {"android": "https://dc.lft.to/lastmile_qr_scan", "ios": "https://dc.lft.to/lastmile_qr_scan"}, "type": "electric_scooter", "lon": -77.06029683333334, "name": "7478ec999315bd3dfe88b84198b9a04c", "bike_id": "7478ec999315bd3dfe88b84198b9a04c", "fusion_lat": 0.0, "is_reserved": 0, "lat": 38.93942333333333, "fusion_lon": 0.0, "is_disabled": 0}, {"rental_uris": {"android": "https://dc.lft.to/lastmile_qr_scan", "ios": "https://dc.lft.to/lastmile_qr_scan"}, "type": "electric_scooter", "lon": -77.023572, "name": "2e67f65abc3141301382dbe724bf3da0", "bike_id": "2e67f65abc3141301382dbe724bf3da0", "fusion_lat": 0.0, "is_reserved": 0, "lat": 38.9178175, "fusion_lon": 0.0, "is_disabled": 0}, {"rental_uris": {"android": "https://dc.lft.to/lastmile_qr_scan", "ios": "https://dc.lft.to/lastmile_qr_scan"}, "type": "electric_scooter", "lon": -77.05109316666666, "name": "b98417b967fa979159ba4e3e2033d260", "bike_id": "b98417b967fa979159ba4e3e2033d260", "fusion_lat": 0.0, "is_reserved": 0, "lat": 38.90530783333333, "fusion_lon": 0.0, "is_disabled": 0}, {"rental_uris": {"android": "https://dc.lft.to/lastmile_qr_scan", "ios": "https://dc.lft.to/lastmile_qr_scan"}, "type": "electric_scooter", "lon": -77.07419183333333, "name": "171138856d25062fae05e088b397fa8b", "bike_id": "171138856d25062fae05e088b397fa8b", "fusion_lat": 0.0, "is_reserved": 0, "lat": 38.91090883333333, "fusion_lon": 0.0, "is_disabled": 0}, {"rental_uris": {"android": "https://dc.lft.to/lastmile_qr_scan", "ios": "https://dc.lft.to/lastmile_qr_scan"}, "type": "electric_scooter", "lon": -77.025568, "name": "5dc127564b96477fe38594633da443a7", "bike_id": "5dc127564b96477fe38594633da443a7", "fusion_lat": 0.0, "is_reserved": 0, "lat": 38.9416425, "fusion_lon": 0.0, "is_disabled": 0}, {"rental_uris": {"android": "https://dc.lft.to/lastmile_qr_scan", "ios": "https://dc.lft.to/lastmile_qr_scan"}, "type": "electric_scooter", "lon": -77.00594266666667, "name": "62d9c1b00909f532de15a250f04639ac", "bike_id": "62d9c1b00909f532de15a250f04639ac", "fusion_lat": 0.0, "is_reserved": 0, "lat": 38.88377783333333, "fusion_lon": 0.0, "is_disabled": 0}, {"rental_uris": {"android": "https://dc.lft.to/lastmile_qr_scan", "ios": "https://dc.lft.to/lastmile_qr_scan"}, "type": "electric_scooter", "lon": -77.00580283333333, "name": "56d2ba53fe78a93daa3ffc6e6b39121d", "bike_id": "56d2ba53fe78a93daa3ffc6e6b39121d", "fusion_lat": 0.0, "is_reserved": 0, "lat": 38.88540016666666, "fusion_lon": 0.0, "is_disabled": 0}, {"rental_uris": {"android": "https://dc.lft.to/lastmile_qr_scan", "ios": "https://dc.lft.to/lastmile_qr_scan"}, "type": "electric_bike", "lon": -77.1289755, "name": "386ff52a31b92f86e547bb7a1a69759a", "bike_id": "386ff52a31b92f86e547bb7a1a69759a", "fusion_lat": 0.0, "is_reserved": 0, "lat": 38.86376666666666, "fusion_lon": 0.0, "is_disabled": 0}, {"rental_uris": {"android": "https://dc.lft.to/lastmile_qr_scan", "ios": "https://dc.lft.to/lastmile_qr_scan"}, "type": "electric_scooter", "lon": -77.03253183333334, "name": "0c15256824d6fa285de2d5e539e6645c", "bike_id": "0c15256824d6fa285de2d5e539e6645c", "fusion_lat": 0.0, "is_reserved": 0, "lat": 38.933791, "fusion_lon": 0.0, "is_disabled": 0}, {"rental_uris": {"android": "https://dc.lft.to/lastmile_qr_scan", "ios": "https://dc.lft.to/lastmile_qr_scan"}, "type": "electric_scooter", "lon": -77.03991666666667, "name": "d9373ff9ca6ea29bb72c97fb95bf4004", "bike_id": "d9373ff9ca6ea29bb72c97fb95bf4004", "fusion_lat": 0.0, "is_reserved": 0, "lat": 38.9092575, "fusion_lon": 0.0, "is_disabled": 0}, {"rental_uris": {"android": "https://dc.lft.to/lastmile_qr_scan", "ios": "https://dc.lft.to/lastmile_qr_scan"}, "type": "electric_scooter", "lon": -77.01132333333334, "name": "2ac5e977ce62a58f7a08fe78087c4088", "bike_id": "2ac5e977ce62a58f7a08fe78087c4088", "fusion_lat": 0.0, "is_reserved": 0, "lat": 38.907318, "fusion_lon": 0.0, "is_disabled": 0}, {"rental_uris": {"android": "https://dc.lft.to/lastmile_qr_scan", "ios": "https://dc.lft.to/lastmile_qr_scan"}, "type": "electric_scooter", "lon": -77.05145266666666, "name": "2c34b20be470070745d12a8cd7dfcbc8", "bike_id": "2c34b20be470070745d12a8cd7dfcbc8", "fusion_lat": 0.0, "is_reserved": 0, "lat": 38.908011, "fusion_lon": 0.0, "is_disabled": 0}, {"rental_uris": {"android": "https://dc.lft.to/lastmile_qr_scan", "ios": "https://dc.lft.to/lastmile_qr_scan"}, "type": "electric_bike", "lon": -76.979066, "name": "ceead0aae3d0cd1953ad995ac3377711", "bike_id": "ceead0aae3d0cd1953ad995ac3377711", "fusion_lat": 0.0, "is_reserved": 0, "lat": 38.8883555, "fusion_lon": 0.0, "is_disabled": 0}, {"rental_uris": {"android": "https://dc.lft.to/lastmile_qr_scan", "ios": "https://dc.lft.to/lastmile_qr_scan"}, "type": "electric_scooter", "lon": -77.05289983333333, "name": "1a81018507621c8d46a754d5684e2aba", "bike_id": "1a81018507621c8d46a754d5684e2aba", "fusion_lat": 0.0, "is_reserved": 0, "lat": 38.927892, "fusion_lon": 0.0, "is_disabled": 0}, {"rental_uris": {"android": "https://dc.lft.to/lastmile_qr_scan", "ios": "https://dc.lft.to/lastmile_qr_scan"}, "type": "electric_scooter", "lon": -77.02863916666666, "name": "1a38adc71c4b770161cd1ded73b92987", "bike_id": "1a38adc71c4b770161cd1ded73b92987", "fusion_lat": 0.0, "is_reserved": 0, "lat": 38.92229783333333, "fusion_lon": 0.0, "is_disabled": 0}, {"rental_uris": {"android": "https://dc.lft.to/lastmile_qr_scan", "ios": "https://dc.lft.to/lastmile_qr_scan"}, "type": "electric_scooter", "lon": -77.03897133333334, "name": "b19bca30a3ce81289b259787c9966b58", "bike_id": "b19bca30a3ce81289b259787c9966b58", "fusion_lat": 0.0, "is_reserved": 0, "lat": 38.922363833333335, "fusion_lon": 0.0, "is_disabled": 0}, {"rental_uris": {"android": "https://dc.lft.to/lastmile_qr_scan", "ios": "https://dc.lft.to/lastmile_qr_scan"}, "type": "electric_scooter", "lon": -77.03259666666666, "name": "a5e5988be2413ec4c26a7ed561913ab0", "bike_id": "a5e5988be2413ec4c26a7ed561913ab0", "fusion_lat": 0.0, "is_reserved": 0, "lat": 38.93665516666667, "fusion_lon": 0.0, "is_disabled": 0}, {"rental_uris": {"android": "https://dc.lft.to/lastmile_qr_scan", "ios": "https://dc.lft.to/lastmile_qr_scan"}, "type": "electric_scooter", "lon": -76.94818666666667, "name": "e77f510f014a60412078ba41bd0f67c5", "bike_id": "e77f510f014a60412078ba41bd0f67c5", "fusion_lat": 0.0, "is_reserved": 0, "lat": 38.89344616666666, "fusion_lon": 0.0, "is_disabled": 0}, {"rental_uris": {"android": "https://dc.lft.to/lastmile_qr_scan", "ios": "https://dc.lft.to/lastmile_qr_scan"}, "type": "electric_scooter", "lon": -76.93429883333333, "name": "454c14f7ad533b372117e02f9ee100ec", "bike_id": "454c14f7ad533b372117e02f9ee100ec", "fusion_lat": 0.0, "is_reserved": 0, "lat": 38.89961983333333, "fusion_lon": 0.0, "is_disabled": 0}, {"rental_uris": {"android": "https://dc.lft.to/lastmile_qr_scan", "ios": "https://dc.lft.to/lastmile_qr_scan"}, "type": "electric_scooter", "lon": -77.00204483333333, "name": "562170af4e6ae69c97e0fe34d94d74e1", "bike_id": "562170af4e6ae69c97e0fe34d94d74e1", "fusion_lat": 0.0, "is_reserved": 0, "lat": 38.908368, "fusion_lon": 0.0, "is_disabled": 0}, {"rental_uris": {"android": "https://dc.lft.to/lastmile_qr_scan", "ios": "https://dc.lft.to/lastmile_qr_scan"}, "type": "electric_scooter", "lon": -77.002229, "name": "6524e1b869423937d1cca591451583d7", "bike_id": "6524e1b869423937d1cca591451583d7", "fusion_lat": 0.0, "is_reserved": 0, "lat": 38.9572805, "fusion_lon": 0.0, "is_disabled": 0}, {"rental_uris": {"android": "https://dc.lft.to/lastmile_qr_scan", "ios": "https://dc.lft.to/lastmile_qr_scan"}, "type": "electric_scooter", "lon": -77.01763416666667, "name": "5d8ed25ab17d2e87de0247aefc1b9079", "bike_id": "5d8ed25ab17d2e87de0247aefc1b9079", "fusion_lat": 0.0, "is_reserved": 0, "lat": 38.87288916666667, "fusion_lon": 0.0, "is_disabled": 0}, {"rental_uris": {"android": "https://dc.lft.to/lastmile_qr_scan", "ios": "https://dc.lft.to/lastmile_qr_scan"}, "type": "electric_scooter", "lon": -76.990009, "name": "4d5a29b38ac95c48fea142220701ef80", "bike_id": "4d5a29b38ac95c48fea142220701ef80", "fusion_lat": 0.0, "is_reserved": 0, "lat": 38.8650275, "fusion_lon": 0.0, "is_disabled": 0}, {"rental_uris": {"android": "https://dc.lft.to/lastmile_qr_scan", "ios": "https://dc.lft.to/lastmile_qr_scan"}, "type": "electric_scooter", "lon": -77.0423935, "name": "5185c710ddef3936ca2f13a3a798f041", "bike_id": "5185c710ddef3936ca2f13a3a798f041", "fusion_lat": 0.0, "is_reserved": 0, "lat": 38.92270583333333, "fusion_lon": 0.0, "is_disabled": 0}, {"rental_uris": {"android": "https://dc.lft.to/lastmile_qr_scan", "ios": "https://dc.lft.to/lastmile_qr_scan"}, "type": "electric_scooter", "lon": -77.0639315, "name": "4eeddc74fc08c9a7bc3df6f67df5e1f1", "bike_id": "4eeddc74fc08c9a7bc3df6f67df5e1f1", "fusion_lat": 0.0, "is_reserved": 0, "lat": 38.92909016666667, "fusion_lon": 0.0, "is_disabled": 0}, {"rental_uris": {"android": "https://dc.lft.to/lastmile_qr_scan", "ios": "https://dc.lft.to/lastmile_qr_scan"}, "type": "electric_scooter", "lon": -76.98702383333334, "name": "dbaebb3df89b114b17a8e71172284ffe", "bike_id": "dbaebb3df89b114b17a8e71172284ffe", "fusion_lat": 0.0, "is_reserved": 0, "lat": 38.86533516666667, "fusion_lon": 0.0, "is_disabled": 0}, {"rental_uris": {"android": "https://dc.lft.to/lastmile_qr_scan", "ios": "https://dc.lft.to/lastmile_qr_scan"}, "type": "electric_scooter", "lon": -77.02213066666667, "name": "c8b6b4c2b1d219d6a4ee2c86d29fd841", "bike_id": "c8b6b4c2b1d219d6a4ee2c86d29fd841", "fusion_lat": 0.0, "is_reserved": 0, "lat": 38.905745333333336, "fusion_lon": 0.0, "is_disabled": 0}, {"rental_uris": {"android": "https://dc.lft.to/lastmile_qr_scan", "ios": "https://dc.lft.to/lastmile_qr_scan"}, "type": "electric_scooter", "lon": -76.947176, "name": "ba7df6742f70885daac098bc351ea105", "bike_id": "ba7df6742f70885daac098bc351ea105", "fusion_lat": 0.0, "is_reserved": 0, "lat": 38.89670566666667, "fusion_lon": 0.0, "is_disabled": 0}, {"rental_uris": {"android": "https://dc.lft.to/lastmile_qr_scan", "ios": "https://dc.lft.to/lastmile_qr_scan"}, "type": "electric_scooter", "lon": -77.03252533333334, "name": "b70e215837579ca2cb5e6bc81600b6c5", "bike_id": "b70e215837579ca2cb5e6bc81600b6c5", "fusion_lat": 0.0, "is_reserved": 0, "lat": 38.92847116666667, "fusion_lon": 0.0, "is_disabled": 0}, {"rental_uris": {"android": "https://dc.lft.to/lastmile_qr_scan", "ios": "https://dc.lft.to/lastmile_qr_scan"}, "type": "electric_bike", "lon": -77.12979916666667, "name": "138479f9286ffa86ab3e1a9f65f353cd", "bike_id": "138479f9286ffa86ab3e1a9f65f353cd", "fusion_lat": 0.0, "is_reserved": 0, "lat": 38.79989316666666, "fusion_lon": 0.0, "is_disabled": 0}, {"rental_uris": {"android": "https://dc.lft.to/lastmile_qr_scan", "ios": "https://dc.lft.to/lastmile_qr_scan"}, "type": "electric_bike", "lon": -77.0704825, "name": "de558ac2c8558e20046280386abfbb95", "bike_id": "de558ac2c8558e20046280386abfbb95", "fusion_lat": 0.0, "is_reserved": 0, "lat": 38.82445516666667, "fusion_lon": 0.0, "is_disabled": 0}, {"rental_uris": {"android": "https://dc.lft.to/lastmile_qr_scan", "ios": "https://dc.lft.to/lastmile_qr_scan"}, "type": "electric_bike", "lon": -76.91595466666666, "name": "d409845dd1203cd032da80777c79d5dd", "bike_id": "d409845dd1203cd032da80777c79d5dd", "fusion_lat": 0.0, "is_reserved": 0, "lat": 38.87983666666667, "fusion_lon": 0.0, "is_disabled": 0}, {"rental_uris": {"android": "https://dc.lft.to/lastmile_qr_scan", "ios": "https://dc.lft.to/lastmile_qr_scan"}, "type": "electric_scooter", "lon": -77.032479, "name": "0871693eceae445f239a9278078951c8", "bike_id": "0871693eceae445f239a9278078951c8", "fusion_lat": 0.0, "is_reserved": 0, "lat": 38.9288845, "fusion_lon": 0.0, "is_disabled": 0}, {"rental_uris": {"android": "https://dc.lft.to/lastmile_qr_scan", "ios": "https://dc.lft.to/lastmile_qr_scan"}, "type": "electric_scooter", "lon": -77.01207566666666, "name": "bcf05ad081df06fb98aee89399efb4d8", "bike_id": "bcf05ad081df06fb98aee89399efb4d8", "fusion_lat": 0.0, "is_reserved": 0, "lat": 38.8930955, "fusion_lon": 0.0, "is_disabled": 0}, {"rental_uris": {"android": "https://dc.lft.to/lastmile_qr_scan", "ios": "https://dc.lft.to/lastmile_qr_scan"}, "type": "electric_scooter", "lon": -76.97629283333333, "name": "6b7738a1fe622c2b2cb9bdd5a93045e7", "bike_id": "6b7738a1fe622c2b2cb9bdd5a93045e7", "fusion_lat": 0.0, "is_reserved": 0, "lat": 38.905683, "fusion_lon": 0.0, "is_disabled": 0}, {"rental_uris": {"android": "https://dc.lft.to/lastmile_qr_scan", "ios": "https://dc.lft.to/lastmile_qr_scan"}, "type": "electric_bike", "lon": -77.01210283333333, "name": "84be595fe62735d233b8b98a185d7046", "bike_id": "84be595fe62735d233b8b98a185d7046", "fusion_lat": 0.0, "is_reserved": 0, "lat": 38.87104083333333, "fusion_lon": 0.0, "is_disabled": 0}, {"rental_uris": {"android": "https://dc.lft.to/lastmile_qr_scan", "ios": "https://dc.lft.to/lastmile_qr_scan"}, "type": "electric_scooter", "lon": -77.022571, "name": "51a39438c5fe19327b33a5d6059eff57", "bike_id": "51a39438c5fe19327b33a5d6059eff57", "fusion_lat": 0.0, "is_reserved": 0, "lat": 38.928248333333336, "fusion_lon": 0.0, "is_disabled": 0}, {"rental_uris": {"android": "https://dc.lft.to/lastmile_qr_scan", "ios": "https://dc.lft.to/lastmile_qr_scan"}, "type": "electric_scooter", "lon": -77.05062516666666, "name": "9d117acda75a59567b75a9156b0f10e9", "bike_id": "9d117acda75a59567b75a9156b0f10e9", "fusion_lat": 0.0, "is_reserved": 0, "lat": 38.92375033333333, "fusion_lon": 0.0, "is_disabled": 0}, {"rental_uris": {"android": "https://dc.lft.to/lastmile_qr_scan", "ios": "https://dc.lft.to/lastmile_qr_scan"}, "type": "electric_bike", "lon": -77.12817016666666, "name": "0a8af5b5503a234ed93c22fe7b75097e", "bike_id": "0a8af5b5503a234ed93c22fe7b75097e", "fusion_lat": 0.0, "is_reserved": 0, "lat": 38.8653475, "fusion_lon": 0.0, "is_disabled": 0}, {"rental_uris": {"android": "https://dc.lft.to/lastmile_qr_scan", "ios": "https://dc.lft.to/lastmile_qr_scan"}, "type": "electric_scooter", "lon": -77.01945566666667, "name": "4764e7921f2e2a1736edcbb18b500d53", "bike_id": "4764e7921f2e2a1736edcbb18b500d53", "fusion_lat": 0.0, "is_reserved": 0, "lat": 38.90969583333333, "fusion_lon": 0.0, "is_disabled": 0}, {"rental_uris": {"android": "https://dc.lft.to/lastmile_qr_scan", "ios": "https://dc.lft.to/lastmile_qr_scan"}, "type": "electric_scooter", "lon": -76.99447166666667, "name": "f6fcda9ab55393847ce756f810d52dac", "bike_id": "f6fcda9ab55393847ce756f810d52dac", "fusion_lat": 0.0, "is_reserved": 0, "lat": 38.9050495, "fusion_lon": 0.0, "is_disabled": 0}, {"rental_uris": {"android": "https://dc.lft.to/lastmile_qr_scan", "ios": "https://dc.lft.to/lastmile_qr_scan"}, "type": "electric_scooter", "lon": -76.99608916666666, "name": "7c37ae6004653f36a4d206f42b4b2b4c", "bike_id": "7c37ae6004653f36a4d206f42b4b2b4c", "fusion_lat": 0.0, "is_reserved": 0, "lat": 38.9033295, "fusion_lon": 0.0, "is_disabled": 0}, {"rental_uris": {"android": "https://dc.lft.to/lastmile_qr_scan", "ios": "https://dc.lft.to/lastmile_qr_scan"}, "type": "electric_scooter", "lon": -77.00197583333333, "name": "41b944aff838da477437b488d6ec899c", "bike_id": "41b944aff838da477437b488d6ec899c", "fusion_lat": 0.0, "is_reserved": 0, "lat": 38.9023785, "fusion_lon": 0.0, "is_disabled": 0}, {"rental_uris": {"android": "https://dc.lft.to/lastmile_qr_scan", "ios": "https://dc.lft.to/lastmile_qr_scan"}, "type": "electric_scooter", "lon": -76.98728933333334, "name": "70f270173e29a1fa48759cab213b9c1b", "bike_id": "70f270173e29a1fa48759cab213b9c1b", "fusion_lat": 0.0, "is_reserved": 0, "lat": 38.867147333333335, "fusion_lon": 0.0, "is_disabled": 0}, {"rental_uris": {"android": "https://dc.lft.to/lastmile_qr_scan", "ios": "https://dc.lft.to/lastmile_qr_scan"}, "type": "electric_scooter", "lon": -76.99086816666667, "name": "e5bb8f80300df0c64e1ad5a9a1bb2cdd", "bike_id": "e5bb8f80300df0c64e1ad5a9a1bb2cdd", "fusion_lat": 0.0, "is_reserved": 0, "lat": 38.862359833333336, "fusion_lon": 0.0, "is_disabled": 0}, {"rental_uris": {"android": "https://dc.lft.to/lastmile_qr_scan", "ios": "https://dc.lft.to/lastmile_qr_scan"}, "type": "electric_scooter", "lon": -77.02487533333333, "name": "c3b810338a8a2a20832ac444d35a6976", "bike_id": "c3b810338a8a2a20832ac444d35a6976", "fusion_lat": 0.0, "is_reserved": 0, "lat": 38.932833333333335, "fusion_lon": 0.0, "is_disabled": 0}, {"rental_uris": {"android": "https://dc.lft.to/lastmile_qr_scan", "ios": "https://dc.lft.to/lastmile_qr_scan"}, "type": "electric_scooter", "lon": -77.04986883333333, "name": "f7b5dfd048cab1633e676e044e18a6ab", "bike_id": "f7b5dfd048cab1633e676e044e18a6ab", "fusion_lat": 0.0, "is_reserved": 0, "lat": 38.905144666666665, "fusion_lon": 0.0, "is_disabled": 0}, {"rental_uris": {"android": "https://dc.lft.to/lastmile_qr_scan", "ios": "https://dc.lft.to/lastmile_qr_scan"}, "type": "electric_scooter", "lon": -77.043469, "name": "81af764c2d4f83a5732a5f02c9652050", "bike_id": "81af764c2d4f83a5732a5f02c9652050", "fusion_lat": 0.0, "is_reserved": 0, "lat": 38.92184816666666, "fusion_lon": 0.0, "is_disabled": 0}, {"rental_uris": {"android": "https://dc.lft.to/lastmile_qr_scan", "ios": "https://dc.lft.to/lastmile_qr_scan"}, "type": "electric_scooter", "lon": -77.01629316666667, "name": "fec558c0e9f6f2b5e73fdf0f20376810", "bike_id": "fec558c0e9f6f2b5e73fdf0f20376810", "fusion_lat": 0.0, "is_reserved": 0, "lat": 38.876337, "fusion_lon": 0.0, "is_disabled": 0}, {"rental_uris": {"android": "https://dc.lft.to/lastmile_qr_scan", "ios": "https://dc.lft.to/lastmile_qr_scan"}, "type": "electric_scooter", "lon": -76.94987266666666, "name": "57d22c16a05d2babd4c5fcd85cd9d540", "bike_id": "57d22c16a05d2babd4c5fcd85cd9d540", "fusion_lat": 0.0, "is_reserved": 0, "lat": 38.894364833333334, "fusion_lon": 0.0, "is_disabled": 0}, {"rental_uris": {"android": "https://dc.lft.to/lastmile_qr_scan", "ios": "https://dc.lft.to/lastmile_qr_scan"}, "type": "electric_scooter", "lon": -77.038407, "name": "c5a5afc3c1dc255e2c49d7481285fa42", "bike_id": "c5a5afc3c1dc255e2c49d7481285fa42", "fusion_lat": 0.0, "is_reserved": 0, "lat": 38.91213966666667, "fusion_lon": 0.0, "is_disabled": 0}, {"rental_uris": {"android": "https://dc.lft.to/lastmile_qr_scan", "ios": "https://dc.lft.to/lastmile_qr_scan"}, "type": "electric_scooter", "lon": -77.02983183333333, "name": "286b73e78b82bcd1b0c84184cc05da4b", "bike_id": "286b73e78b82bcd1b0c84184cc05da4b", "fusion_lat": 0.0, "is_reserved": 0, "lat": 38.925366333333336, "fusion_lon": 0.0, "is_disabled": 0}, {"rental_uris": {"android": "https://dc.lft.to/lastmile_qr_scan", "ios": "https://dc.lft.to/lastmile_qr_scan"}, "type": "electric_scooter", "lon": -77.03899433333333, "name": "3e4e47c9e8aa84a793f0854f44a9e759", "bike_id": "3e4e47c9e8aa84a793f0854f44a9e759", "fusion_lat": 0.0, "is_reserved": 0, "lat": 38.922424, "fusion_lon": 0.0, "is_disabled": 0}, {"rental_uris": {"android": "https://dc.lft.to/lastmile_qr_scan", "ios": "https://dc.lft.to/lastmile_qr_scan"}, "type": "electric_scooter", "lon": -77.03508633333334, "name": "140a03d4e4b512976f08b6e864f4caf2", "bike_id": "140a03d4e4b512976f08b6e864f4caf2", "fusion_lat": 0.0, "is_reserved": 0, "lat": 38.92143683333333, "fusion_lon": 0.0, "is_disabled": 0}, {"rental_uris": {"android": "https://dc.lft.to/lastmile_qr_scan", "ios": "https://dc.lft.to/lastmile_qr_scan"}, "type": "electric_scooter", "lon": -77.03203883333333, "name": "b35a3247141dbedfa69f57dcb76734c2", "bike_id": "b35a3247141dbedfa69f57dcb76734c2", "fusion_lat": 0.0, "is_reserved": 0, "lat": 38.939682166666664, "fusion_lon": 0.0, "is_disabled": 0}, {"rental_uris": {"android": "https://dc.lft.to/lastmile_qr_scan", "ios": "https://dc.lft.to/lastmile_qr_scan"}, "type": "electric_scooter", "lon": -77.02153316666667, "name": "c5a9ac1e068b4e95d9be91233b5f6711", "bike_id": "c5a9ac1e068b4e95d9be91233b5f6711", "fusion_lat": 0.0, "is_reserved": 0, "lat": 38.926010166666664, "fusion_lon": 0.0, "is_disabled": 0}, {"rental_uris": {"android": "https://dc.lft.to/lastmile_qr_scan", "ios": "https://dc.lft.to/lastmile_qr_scan"}, "type": "electric_scooter", "lon": -77.02594466666666, "name": "9527c7c9efa9bde5a67dad64b4f63375", "bike_id": "9527c7c9efa9bde5a67dad64b4f63375", "fusion_lat": 0.0, "is_reserved": 0, "lat": 38.908437, "fusion_lon": 0.0, "is_disabled": 0}, {"rental_uris": {"android": "https://dc.lft.to/lastmile_qr_scan", "ios": "https://dc.lft.to/lastmile_qr_scan"}, "type": "electric_scooter", "lon": -77.0204835, "name": "35910055b4808addc436bbb2ea00434c", "bike_id": "35910055b4808addc436bbb2ea00434c", "fusion_lat": 0.0, "is_reserved": 0, "lat": 38.958701166666664, "fusion_lon": 0.0, "is_disabled": 0}, {"rental_uris": {"android": "https://dc.lft.to/lastmile_qr_scan", "ios": "https://dc.lft.to/lastmile_qr_scan"}, "type": "electric_scooter", "lon": -77.018398, "name": "fe584c0de823cba6f34675fcecfa0a85", "bike_id": "fe584c0de823cba6f34675fcecfa0a85", "fusion_lat": 0.0, "is_reserved": 0, "lat": 38.919690333333335, "fusion_lon": 0.0, "is_disabled": 0}, {"rental_uris": {"android": "https://dc.lft.to/lastmile_qr_scan", "ios": "https://dc.lft.to/lastmile_qr_scan"}, "type": "electric_bike", "lon": -77.02782933333333, "name": "6fb38cf8e1b2a516891b1c971bf2a263", "bike_id": "6fb38cf8e1b2a516891b1c971bf2a263", "fusion_lat": 0.0, "is_reserved": 0, "lat": 38.9652205, "fusion_lon": 0.0, "is_disabled": 0}, {"rental_uris": {"android": "https://dc.lft.to/lastmile_qr_scan", "ios": "https://dc.lft.to/lastmile_qr_scan"}, "type": "electric_bike", "lon": -76.97217966666666, "name": "a42ff6e7b81d0d61485dc4ea482c45f6", "bike_id": "a42ff6e7b81d0d61485dc4ea482c45f6", "fusion_lat": 0.0, "is_reserved": 0, "lat": 38.844776333333336, "fusion_lon": 0.0, "is_disabled": 0}, {"rental_uris": {"android": "https://dc.lft.to/lastmile_qr_scan", "ios": "https://dc.lft.to/lastmile_qr_scan"}, "type": "electric_scooter", "lon": -77.0303855, "name": "0e543caf11898c474b49600c1b417c6c", "bike_id": "0e543caf11898c474b49600c1b417c6c", "fusion_lat": 0.0, "is_reserved": 0, "lat": 38.939805666666665, "fusion_lon": 0.0, "is_disabled": 0}, {"rental_uris": {"android": "https://dc.lft.to/lastmile_qr_scan", "ios": "https://dc.lft.to/lastmile_qr_scan"}, "type": "electric_scooter", "lon": -77.06752733333333, "name": "2856d4f87a330e369ad652c76c5a307b", "bike_id": "2856d4f87a330e369ad652c76c5a307b", "fusion_lat": 0.0, "is_reserved": 0, "lat": 38.94979816666667, "fusion_lon": 0.0, "is_disabled": 0}, {"rental_uris": {"android": "https://dc.lft.to/lastmile_qr_scan", "ios": "https://dc.lft.to/lastmile_qr_scan"}, "type": "electric_scooter", "lon": -77.03837033333333, "name": "795367368c0c48708215fb0d43f87221", "bike_id": "795367368c0c48708215fb0d43f87221", "fusion_lat": 0.0, "is_reserved": 0, "lat": 38.915634, "fusion_lon": 0.0, "is_disabled": 0}, {"rental_uris": {"android": "https://dc.lft.to/lastmile_qr_scan", "ios": "https://dc.lft.to/lastmile_qr_scan"}, "type": "electric_scooter", "lon": -77.04539816666667, "name": "19d03f47875dd7559266135afc28151b", "bike_id": "19d03f47875dd7559266135afc28151b", "fusion_lat": 0.0, "is_reserved": 0, "lat": 38.920476, "fusion_lon": 0.0, "is_disabled": 0}, {"rental_uris": {"android": "https://dc.lft.to/lastmile_qr_scan", "ios": "https://dc.lft.to/lastmile_qr_scan"}, "type": "electric_scooter", "lon": -77.04155616666667, "name": "faf9557fb18ac3f2485900a365507424", "bike_id": "faf9557fb18ac3f2485900a365507424", "fusion_lat": 0.0, "is_reserved": 0, "lat": 38.91421033333334, "fusion_lon": 0.0, "is_disabled": 0}, {"rental_uris": {"android": "https://dc.lft.to/lastmile_qr_scan", "ios": "https://dc.lft.to/lastmile_qr_scan"}, "type": "electric_scooter", "lon": -76.99082566666667, "name": "cfa437c590b7aa4e042fd7a175ff1a29", "bike_id": "cfa437c590b7aa4e042fd7a175ff1a29", "fusion_lat": 0.0, "is_reserved": 0, "lat": 38.9002975, "fusion_lon": 0.0, "is_disabled": 0}, {"rental_uris": {"android": "https://dc.lft.to/lastmile_qr_scan", "ios": "https://dc.lft.to/lastmile_qr_scan"}, "type": "electric_scooter", "lon": -77.03776566666667, "name": "c716e0efb3ad1107584b3df9497f6c9e", "bike_id": "c716e0efb3ad1107584b3df9497f6c9e", "fusion_lat": 0.0, "is_reserved": 0, "lat": 38.924724833333336, "fusion_lon": 0.0, "is_disabled": 0}, {"rental_uris": {"android": "https://dc.lft.to/lastmile_qr_scan", "ios": "https://dc.lft.to/lastmile_qr_scan"}, "type": "electric_scooter", "lon": -77.03346316666666, "name": "6115990e9112a796ddbc2a90588e1b61", "bike_id": "6115990e9112a796ddbc2a90588e1b61", "fusion_lat": 0.0, "is_reserved": 0, "lat": 38.92058083333333, "fusion_lon": 0.0, "is_disabled": 0}, {"rental_uris": {"android": "https://dc.lft.to/lastmile_qr_scan", "ios": "https://dc.lft.to/lastmile_qr_scan"}, "type": "electric_scooter", "lon": -77.032909, "name": "5f32ea865ab0d02b9bbf080c3efb1284", "bike_id": "5f32ea865ab0d02b9bbf080c3efb1284", "fusion_lat": 0.0, "is_reserved": 0, "lat": 38.90834533333334, "fusion_lon": 0.0, "is_disabled": 0}, {"rental_uris": {"android": "https://dc.lft.to/lastmile_qr_scan", "ios": "https://dc.lft.to/lastmile_qr_scan"}, "type": "electric_scooter", "lon": -77.04247083333334, "name": "fbda882a3d9e3fcaa3b639ba89a5a24e", "bike_id": "fbda882a3d9e3fcaa3b639ba89a5a24e", "fusion_lat": 0.0, "is_reserved": 0, "lat": 38.917827, "fusion_lon": 0.0, "is_disabled": 0}, {"rental_uris": {"android": "https://dc.lft.to/lastmile_qr_scan", "ios": "https://dc.lft.to/lastmile_qr_scan"}, "type": "electric_scooter", "lon": -77.041747, "name": "d8791c87b3436fd93b9b5c7fe717ec2c", "bike_id": "d8791c87b3436fd93b9b5c7fe717ec2c", "fusion_lat": 0.0, "is_reserved": 0, "lat": 38.91980733333333, "fusion_lon": 0.0, "is_disabled": 0}, {"rental_uris": {"android": "https://dc.lft.to/lastmile_qr_scan", "ios": "https://dc.lft.to/lastmile_qr_scan"}, "type": "electric_scooter", "lon": -77.03880666666667, "name": "16316f493a0a1231c46312e85634f57b", "bike_id": "16316f493a0a1231c46312e85634f57b", "fusion_lat": 0.0, "is_reserved": 0, "lat": 38.914869, "fusion_lon": 0.0, "is_disabled": 0}, {"rental_uris": {"android": "https://dc.lft.to/lastmile_qr_scan", "ios": "https://dc.lft.to/lastmile_qr_scan"}, "type": "electric_scooter", "lon": -76.9914975, "name": "c337e9afd9e330b7fff52835c85c77ec", "bike_id": "c337e9afd9e330b7fff52835c85c77ec", "fusion_lat": 0.0, "is_reserved": 0, "lat": 38.873159666666666, "fusion_lon": 0.0, "is_disabled": 0}, {"rental_uris": {"android": "https://dc.lft.to/lastmile_qr_scan", "ios": "https://dc.lft.to/lastmile_qr_scan"}, "type": "electric_scooter", "lon": -77.027274, "name": "9c5035126f57a0f54435953d29016d51", "bike_id": "9c5035126f57a0f54435953d29016d51", "fusion_lat": 0.0, "is_reserved": 0, "lat": 38.93447233333333, "fusion_lon": 0.0, "is_disabled": 0}, {"rental_uris": {"android": "https://dc.lft.to/lastmile_qr_scan", "ios": "https://dc.lft.to/lastmile_qr_scan"}, "type": "electric_bike", "lon": -76.93186133333333, "name": "4b2dfa405e063d74b4fd9a12888bfab0", "bike_id": "4b2dfa405e063d74b4fd9a12888bfab0", "fusion_lat": 0.0, "is_reserved": 0, "lat": 38.898504333333335, "fusion_lon": 0.0, "is_disabled": 0}, {"rental_uris": {"android": "https://dc.lft.to/lastmile_qr_scan", "ios": "https://dc.lft.to/lastmile_qr_scan"}, "type": "electric_scooter", "lon": -77.01209483333334, "name": "8e68e92448e3617bb2a5158085d2e4bb", "bike_id": "8e68e92448e3617bb2a5158085d2e4bb", "fusion_lat": 0.0, "is_reserved": 0, "lat": 38.918193333333335, "fusion_lon": 0.0, "is_disabled": 0}, {"rental_uris": {"android": "https://dc.lft.to/lastmile_qr_scan", "ios": "https://dc.lft.to/lastmile_qr_scan"}, "type": "electric_scooter", "lon": -76.93739283333333, "name": "44db46cb0d03296d72860c9ec2f07b58", "bike_id": "44db46cb0d03296d72860c9ec2f07b58", "fusion_lat": 0.0, "is_reserved": 0, "lat": 38.890147666666664, "fusion_lon": 0.0, "is_disabled": 0}, {"rental_uris": {"android": "https://dc.lft.to/lastmile_qr_scan", "ios": "https://dc.lft.to/lastmile_qr_scan"}, "type": "electric_scooter", "lon": -76.9740805, "name": "715e1fe8578677af2fb91c0bd7704cc6", "bike_id": "715e1fe8578677af2fb91c0bd7704cc6", "fusion_lat": 0.0, "is_reserved": 0, "lat": 38.865598166666665, "fusion_lon": 0.0, "is_disabled": 0}, {"rental_uris": {"android": "https://dc.lft.to/lastmile_qr_scan", "ios": "https://dc.lft.to/lastmile_qr_scan"}, "type": "electric_scooter", "lon": -77.00278916666667, "name": "0b7bedba060404971b00f91aea59bf77", "bike_id": "0b7bedba060404971b00f91aea59bf77", "fusion_lat": 0.0, "is_reserved": 0, "lat": 38.93917, "fusion_lon": 0.0, "is_disabled": 0}, {"rental_uris": {"android": "https://dc.lft.to/lastmile_qr_scan", "ios": "https://dc.lft.to/lastmile_qr_scan"}, "type": "electric_scooter", "lon": -77.024735, "name": "f5139f6ddaf2dde2a5068e5f2089befb", "bike_id": "f5139f6ddaf2dde2a5068e5f2089befb", "fusion_lat": 0.0, "is_reserved": 0, "lat": 38.9265095, "fusion_lon": 0.0, "is_disabled": 0}, {"rental_uris": {"android": "https://dc.lft.to/lastmile_qr_scan", "ios": "https://dc.lft.to/lastmile_qr_scan"}, "type": "electric_scooter", "lon": -77.03824166666666, "name": "aac19af577c70f557f5679fecb5db923", "bike_id": "aac19af577c70f557f5679fecb5db923", "fusion_lat": 0.0, "is_reserved": 0, "lat": 38.908385333333335, "fusion_lon": 0.0, "is_disabled": 0}, {"rental_uris": {"android": "https://dc.lft.to/lastmile_qr_scan", "ios": "https://dc.lft.to/lastmile_qr_scan"}, "type": "electric_scooter", "lon": -77.00736033333334, "name": "36656a0c289dd8e5cd68cec5dafa653f", "bike_id": "36656a0c289dd8e5cd68cec5dafa653f", "fusion_lat": 0.0, "is_reserved": 0, "lat": 38.87660566666667, "fusion_lon": 0.0, "is_disabled": 0}, {"rental_uris": {"android": "https://dc.lft.to/lastmile_qr_scan", "ios": "https://dc.lft.to/lastmile_qr_scan"}, "type": "electric_scooter", "lon": -77.03636616666667, "name": "3f2aee6162e270ca79d8902a52eb765d", "bike_id": "3f2aee6162e270ca79d8902a52eb765d", "fusion_lat": 0.0, "is_reserved": 0, "lat": 38.9273835, "fusion_lon": 0.0, "is_disabled": 0}, {"rental_uris": {"android": "https://dc.lft.to/lastmile_qr_scan", "ios": "https://dc.lft.to/lastmile_qr_scan"}, "type": "electric_scooter", "lon": -77.02151166666667, "name": "b08714b606b375201b8ffd8f879e119a", "bike_id": "b08714b606b375201b8ffd8f879e119a", "fusion_lat": 0.0, "is_reserved": 0, "lat": 38.896125833333336, "fusion_lon": 0.0, "is_disabled": 0}, {"rental_uris": {"android": "https://dc.lft.to/lastmile_qr_scan", "ios": "https://dc.lft.to/lastmile_qr_scan"}, "type": "electric_scooter", "lon": -77.01997833333333, "name": "81a55fa569013a27a249506d9a714b34", "bike_id": "81a55fa569013a27a249506d9a714b34", "fusion_lat": 0.0, "is_reserved": 0, "lat": 38.9133115, "fusion_lon": 0.0, "is_disabled": 0}, {"rental_uris": {"android": "https://dc.lft.to/lastmile_qr_scan", "ios": "https://dc.lft.to/lastmile_qr_scan"}, "type": "electric_bike", "lon": -76.97979866666667, "name": "ca9b10ed4a05b0cd0f2afc2777853ee2", "bike_id": "ca9b10ed4a05b0cd0f2afc2777853ee2", "fusion_lat": 0.0, "is_reserved": 0, "lat": 38.95770783333333, "fusion_lon": 0.0, "is_disabled": 0}, {"rental_uris": {"android": "https://dc.lft.to/lastmile_qr_scan", "ios": "https://dc.lft.to/lastmile_qr_scan"}, "type": "electric_scooter", "lon": -77.0060655, "name": "c6fea50cf9cd710284cf726a3597b0c9", "bike_id": "c6fea50cf9cd710284cf726a3597b0c9", "fusion_lat": 0.0, "is_reserved": 0, "lat": 38.90578133333333, "fusion_lon": 0.0, "is_disabled": 0}, {"rental_uris": {"android": "https://dc.lft.to/lastmile_qr_scan", "ios": "https://dc.lft.to/lastmile_qr_scan"}, "type": "electric_scooter", "lon": -77.03263983333333, "name": "bc1e07ff08883e2154372f99af06a227", "bike_id": "bc1e07ff08883e2154372f99af06a227", "fusion_lat": 0.0, "is_reserved": 0, "lat": 38.93524433333333, "fusion_lon": 0.0, "is_disabled": 0}, {"rental_uris": {"android": "https://dc.lft.to/lastmile_qr_scan", "ios": "https://dc.lft.to/lastmile_qr_scan"}, "type": "electric_bike", "lon": -77.020008, "name": "74024b19fedc4ff4310a9fdaecdaca48", "bike_id": "74024b19fedc4ff4310a9fdaecdaca48", "fusion_lat": 0.0, "is_reserved": 0, "lat": 38.96022116666666, "fusion_lon": 0.0, "is_disabled": 0}, {"rental_uris": {"android": "https://dc.lft.to/lastmile_qr_scan", "ios": "https://dc.lft.to/lastmile_qr_scan"}, "type": "electric_scooter", "lon": -77.0634115, "name": "baa570c980d16967bc516e365490b5cb", "bike_id": "baa570c980d16967bc516e365490b5cb", "fusion_lat": 0.0, "is_reserved": 0, "lat": 38.91336233333333, "fusion_lon": 0.0, "is_disabled": 0}, {"rental_uris": {"android": "https://dc.lft.to/lastmile_qr_scan", "ios": "https://dc.lft.to/lastmile_qr_scan"}, "type": "electric_scooter", "lon": -77.03897783333333, "name": "86004ac213c177e1fadd44d1ad599af7", "bike_id": "86004ac213c177e1fadd44d1ad599af7", "fusion_lat": 0.0, "is_reserved": 0, "lat": 38.922205166666664, "fusion_lon": 0.0, "is_disabled": 0}, {"rental_uris": {"android": "https://dc.lft.to/lastmile_qr_scan", "ios": "https://dc.lft.to/lastmile_qr_scan"}, "type": "electric_scooter", "lon": -77.01627416666666, "name": "ce87402952452a4c420def122ca27ed5", "bike_id": "ce87402952452a4c420def122ca27ed5", "fusion_lat": 0.0, "is_reserved": 0, "lat": 38.883481333333336, "fusion_lon": 0.0, "is_disabled": 0}, {"rental_uris": {"android": "https://dc.lft.to/lastmile_qr_scan", "ios": "https://dc.lft.to/lastmile_qr_scan"}, "type": "electric_scooter", "lon": -77.02998583333333, "name": "55a3a6eeb0a0debc2e4562a535f1c313", "bike_id": "55a3a6eeb0a0debc2e4562a535f1c313", "fusion_lat": 0.0, "is_reserved": 0, "lat": 38.92794816666667, "fusion_lon": 0.0, "is_disabled": 0}, {"rental_uris": {"android": "https://dc.lft.to/lastmile_qr_scan", "ios": "https://dc.lft.to/lastmile_qr_scan"}, "type": "electric_bike", "lon": -77.35308766666667, "name": "ee83f8bf341f63d584aec63ee2c1c056", "bike_id": "ee83f8bf341f63d584aec63ee2c1c056", "fusion_lat": 0.0, "is_reserved": 0, "lat": 38.949993666666664, "fusion_lon": 0.0, "is_disabled": 0}, {"rental_uris": {"android": "https://dc.lft.to/lastmile_qr_scan", "ios": "https://dc.lft.to/lastmile_qr_scan"}, "type": "electric_scooter", "lon": -76.99707583333333, "name": "a57fc15a4800063c8315797d55754f18", "bike_id": "a57fc15a4800063c8315797d55754f18", "fusion_lat": 0.0, "is_reserved": 0, "lat": 38.911112833333334, "fusion_lon": 0.0, "is_disabled": 0}, {"rental_uris": {"android": "https://dc.lft.to/lastmile_qr_scan", "ios": "https://dc.lft.to/lastmile_qr_scan"}, "type": "electric_scooter", "lon": -77.02727, "name": "d0a1023aa7c010b826da1df1c1fdbd5e", "bike_id": "d0a1023aa7c010b826da1df1c1fdbd5e", "fusion_lat": 0.0, "is_reserved": 0, "lat": 38.951331333333336, "fusion_lon": 0.0, "is_disabled": 0}, {"rental_uris": {"android": "https://dc.lft.to/lastmile_qr_scan", "ios": "https://dc.lft.to/lastmile_qr_scan"}, "type": "electric_scooter", "lon": -77.0239, "name": "877f8cca275a3ef680200cfc6f540856", "bike_id": "877f8cca275a3ef680200cfc6f540856", "fusion_lat": 0.0, "is_reserved": 0, "lat": 38.904379, "fusion_lon": 0.0, "is_disabled": 0}, {"rental_uris": {"android": "https://dc.lft.to/lastmile_qr_scan", "ios": "https://dc.lft.to/lastmile_qr_scan"}, "type": "electric_bike", "lon": -77.10722916666667, "name": "d95f5da63fa345afdd2892a1bca9806b", "bike_id": "d95f5da63fa345afdd2892a1bca9806b", "fusion_lat": 0.0, "is_reserved": 0, "lat": 38.8553625, "fusion_lon": 0.0, "is_disabled": 0}, {"rental_uris": {"android": "https://dc.lft.to/lastmile_qr_scan", "ios": "https://dc.lft.to/lastmile_qr_scan"}, "type": "electric_bike", "lon": -76.98524433333333, "name": "3c86dc8a30fe578eccb1a9aebc73771b", "bike_id": "3c86dc8a30fe578eccb1a9aebc73771b", "fusion_lat": 0.0, "is_reserved": 0, "lat": 38.91995816666667, "fusion_lon": 0.0, "is_disabled": 0}, {"rental_uris": {"android": "https://dc.lft.to/lastmile_qr_scan", "ios": "https://dc.lft.to/lastmile_qr_scan"}, "type": "electric_bike", "lon": -76.8777865, "name": "264b75d075be1c412fff66265f404b3b", "bike_id": "264b75d075be1c412fff66265f404b3b", "fusion_lat": 0.0, "is_reserved": 0, "lat": 38.9922975, "fusion_lon": 0.0, "is_disabled": 0}, {"rental_uris": {"android": "https://dc.lft.to/lastmile_qr_scan", "ios": "https://dc.lft.to/lastmile_qr_scan"}, "type": "electric_scooter", "lon": -76.98781416666667, "name": "f4cf76e978ddcf4f3bd441f6ce8f9400", "bike_id": "f4cf76e978ddcf4f3bd441f6ce8f9400", "fusion_lat": 0.0, "is_reserved": 0, "lat": 38.9002825, "fusion_lon": 0.0, "is_disabled": 0}, {"rental_uris": {"android": "https://dc.lft.to/lastmile_qr_scan", "ios": "https://dc.lft.to/lastmile_qr_scan"}, "type": "electric_scooter", "lon": -76.9877905, "name": "24bd3773d188c7362e8e897a6c9d5377", "bike_id": "24bd3773d188c7362e8e897a6c9d5377", "fusion_lat": 0.0, "is_reserved": 0, "lat": 38.90029766666667, "fusion_lon": 0.0, "is_disabled": 0}, {"rental_uris": {"android": "https://dc.lft.to/lastmile_qr_scan", "ios": "https://dc.lft.to/lastmile_qr_scan"}, "type": "electric_scooter", "lon": -77.02949016666666, "name": "d18438aef5a1b634ef332584f7229f29", "bike_id": "d18438aef5a1b634ef332584f7229f29", "fusion_lat": 0.0, "is_reserved": 0, "lat": 38.93248833333333, "fusion_lon": 0.0, "is_disabled": 0}, {"rental_uris": {"android": "https://dc.lft.to/lastmile_qr_scan", "ios": "https://dc.lft.to/lastmile_qr_scan"}, "type": "electric_scooter", "lon": -77.037861, "name": "b9688edb31243ab4c4a55ff97c70727a", "bike_id": "b9688edb31243ab4c4a55ff97c70727a", "fusion_lat": 0.0, "is_reserved": 0, "lat": 38.9262685, "fusion_lon": 0.0, "is_disabled": 0}, {"rental_uris": {"android": "https://dc.lft.to/lastmile_qr_scan", "ios": "https://dc.lft.to/lastmile_qr_scan"}, "type": "electric_bike", "lon": -76.94871233333333, "name": "7a74964d54b632bd4c5fa8397f41e0d5", "bike_id": "7a74964d54b632bd4c5fa8397f41e0d5", "fusion_lat": 0.0, "is_reserved": 0, "lat": 38.88969066666667, "fusion_lon": 0.0, "is_disabled": 0}, {"rental_uris": {"android": "https://dc.lft.to/lastmile_qr_scan", "ios": "https://dc.lft.to/lastmile_qr_scan"}, "type": "electric_bike", "lon": -76.96386933333334, "name": "77154b03762983f56ae98bcd17a69527", "bike_id": "77154b03762983f56ae98bcd17a69527", "fusion_lat": 0.0, "is_reserved": 0, "lat": 38.975789, "fusion_lon": 0.0, "is_disabled": 0}, {"rental_uris": {"android": "https://dc.lft.to/lastmile_qr_scan", "ios": "https://dc.lft.to/lastmile_qr_scan"}, "type": "electric_scooter", "lon": -77.03302933333333, "name": "aeb45957ace5004f569991824dc97091", "bike_id": "aeb45957ace5004f569991824dc97091", "fusion_lat": 0.0, "is_reserved": 0, "lat": 38.899110666666665, "fusion_lon": 0.0, "is_disabled": 0}, {"rental_uris": {"android": "https://dc.lft.to/lastmile_qr_scan", "ios": "https://dc.lft.to/lastmile_qr_scan"}, "type": "electric_scooter", "lon": -77.04660583333333, "name": "15ded56ee8cd3e0a18dc036efea0ef98", "bike_id": "15ded56ee8cd3e0a18dc036efea0ef98", "fusion_lat": 0.0, "is_reserved": 0, "lat": 38.90502266666667, "fusion_lon": 0.0, "is_disabled": 0}, {"rental_uris": {"android": "https://dc.lft.to/lastmile_qr_scan", "ios": "https://dc.lft.to/lastmile_qr_scan"}, "type": "electric_scooter", "lon": -77.03279933333333, "name": "42df553648cf41d33520e65cb5956490", "bike_id": "42df553648cf41d33520e65cb5956490", "fusion_lat": 0.0, "is_reserved": 0, "lat": 38.932538, "fusion_lon": 0.0, "is_disabled": 0}, {"rental_uris": {"android": "https://dc.lft.to/lastmile_qr_scan", "ios": "https://dc.lft.to/lastmile_qr_scan"}, "type": "electric_scooter", "lon": -77.02500916666666, "name": "5767b28e358800cd7570e427e1d2105d", "bike_id": "5767b28e358800cd7570e427e1d2105d", "fusion_lat": 0.0, "is_reserved": 0, "lat": 38.91954233333333, "fusion_lon": 0.0, "is_disabled": 0}, {"rental_uris": {"android": "https://dc.lft.to/lastmile_qr_scan", "ios": "https://dc.lft.to/lastmile_qr_scan"}, "type": "electric_scooter", "lon": -77.03520816666666, "name": "f75c57011df23abca890534e1834c292", "bike_id": "f75c57011df23abca890534e1834c292", "fusion_lat": 0.0, "is_reserved": 0, "lat": 38.923323333333336, "fusion_lon": 0.0, "is_disabled": 0}, {"rental_uris": {"android": "https://dc.lft.to/lastmile_qr_scan", "ios": "https://dc.lft.to/lastmile_qr_scan"}, "type": "electric_scooter", "lon": -76.977239, "name": "6d2257d52573863bb0af904d04ff2ef8", "bike_id": "6d2257d52573863bb0af904d04ff2ef8", "fusion_lat": 0.0, "is_reserved": 0, "lat": 38.87245816666667, "fusion_lon": 0.0, "is_disabled": 0}, {"rental_uris": {"android": "https://dc.lft.to/lastmile_qr_scan", "ios": "https://dc.lft.to/lastmile_qr_scan"}, "type": "electric_scooter", "lon": -77.03335533333333, "name": "f8098c8477bf3aaddbaec33a0041ca45", "bike_id": "f8098c8477bf3aaddbaec33a0041ca45", "fusion_lat": 0.0, "is_reserved": 0, "lat": 38.9037105, "fusion_lon": 0.0, "is_disabled": 0}, {"rental_uris": {"android": "https://dc.lft.to/lastmile_qr_scan", "ios": "https://dc.lft.to/lastmile_qr_scan"}, "type": "electric_bike", "lon": -76.9732815, "name": "c221bdee478ca68c1fdffe6e5031e1eb", "bike_id": "c221bdee478ca68c1fdffe6e5031e1eb", "fusion_lat": 0.0, "is_reserved": 0, "lat": 38.850631, "fusion_lon": 0.0, "is_disabled": 0}, {"rental_uris": {"android": "https://dc.lft.to/lastmile_qr_scan", "ios": "https://dc.lft.to/lastmile_qr_scan"}, "type": "electric_scooter", "lon": -77.03445516666666, "name": "6d7b16385e330681037ca1036184785a", "bike_id": "6d7b16385e330681037ca1036184785a", "fusion_lat": 0.0, "is_reserved": 0, "lat": 38.92863966666667, "fusion_lon": 0.0, "is_disabled": 0}, {"rental_uris": {"android": "https://dc.lft.to/lastmile_qr_scan", "ios": "https://dc.lft.to/lastmile_qr_scan"}, "type": "electric_scooter", "lon": -77.0799245, "name": "06cfb543d81e85e99c724cdcf051792d", "bike_id": "06cfb543d81e85e99c724cdcf051792d", "fusion_lat": 0.0, "is_reserved": 0, "lat": 38.92367733333333, "fusion_lon": 0.0, "is_disabled": 0}, {"rental_uris": {"android": "https://dc.lft.to/lastmile_qr_scan", "ios": "https://dc.lft.to/lastmile_qr_scan"}, "type": "electric_scooter", "lon": -77.024999, "name": "625026900bd427c7d20cfcc84c08bc8b", "bike_id": "625026900bd427c7d20cfcc84c08bc8b", "fusion_lat": 0.0, "is_reserved": 0, "lat": 38.941986166666666, "fusion_lon": 0.0, "is_disabled": 0}, {"rental_uris": {"android": "https://dc.lft.to/lastmile_qr_scan", "ios": "https://dc.lft.to/lastmile_qr_scan"}, "type": "electric_scooter", "lon": -77.04023733333334, "name": "fb66e7aa3bd1a93b8e6869330c5941d5", "bike_id": "fb66e7aa3bd1a93b8e6869330c5941d5", "fusion_lat": 0.0, "is_reserved": 0, "lat": 38.924569, "fusion_lon": 0.0, "is_disabled": 0}, {"rental_uris": {"android": "https://dc.lft.to/lastmile_qr_scan", "ios": "https://dc.lft.to/lastmile_qr_scan"}, "type": "electric_scooter", "lon": -77.02417616666666, "name": "523efbb9249f27c856cc119d30f0d080", "bike_id": "523efbb9249f27c856cc119d30f0d080", "fusion_lat": 0.0, "is_reserved": 0, "lat": 38.90963216666667, "fusion_lon": 0.0, "is_disabled": 0}, {"rental_uris": {"android": "https://dc.lft.to/lastmile_qr_scan", "ios": "https://dc.lft.to/lastmile_qr_scan"}, "type": "electric_scooter", "lon": -77.03962933333334, "name": "0d44d2242bfbd41bfe6e7f2dbedc98aa", "bike_id": "0d44d2242bfbd41bfe6e7f2dbedc98aa", "fusion_lat": 0.0, "is_reserved": 0, "lat": 38.906233666666665, "fusion_lon": 0.0, "is_disabled": 0}, {"rental_uris": {"android": "https://dc.lft.to/lastmile_qr_scan", "ios": "https://dc.lft.to/lastmile_qr_scan"}, "type": "electric_scooter", "lon": -77.0088435, "name": "b092160d224c5b37b0e913af033dddc4", "bike_id": "b092160d224c5b37b0e913af033dddc4", "fusion_lat": 0.0, "is_reserved": 0, "lat": 38.905704166666666, "fusion_lon": 0.0, "is_disabled": 0}, {"rental_uris": {"android": "https://dc.lft.to/lastmile_qr_scan", "ios": "https://dc.lft.to/lastmile_qr_scan"}, "type": "electric_scooter", "lon": -77.021692, "name": "7611d5f73f6e3b025aa5263ca4f7c05c", "bike_id": "7611d5f73f6e3b025aa5263ca4f7c05c", "fusion_lat": 0.0, "is_reserved": 0, "lat": 38.887452333333336, "fusion_lon": 0.0, "is_disabled": 0}, {"rental_uris": {"android": "https://dc.lft.to/lastmile_qr_scan", "ios": "https://dc.lft.to/lastmile_qr_scan"}, "type": "electric_scooter", "lon": -77.04717883333333, "name": "0c4d0316c264f616a16a8fd7cb263ac1", "bike_id": "0c4d0316c264f616a16a8fd7cb263ac1", "fusion_lat": 0.0, "is_reserved": 0, "lat": 38.896209166666665, "fusion_lon": 0.0, "is_disabled": 0}, {"rental_uris": {"android": "https://dc.lft.to/lastmile_qr_scan", "ios": "https://dc.lft.to/lastmile_qr_scan"}, "type": "electric_scooter", "lon": -77.01956483333333, "name": "9b8a9fef7b2305cc53187e1e386d8357", "bike_id": "9b8a9fef7b2305cc53187e1e386d8357", "fusion_lat": 0.0, "is_reserved": 0, "lat": 38.93581183333333, "fusion_lon": 0.0, "is_disabled": 0}, {"rental_uris": {"android": "https://dc.lft.to/lastmile_qr_scan", "ios": "https://dc.lft.to/lastmile_qr_scan"}, "type": "electric_scooter", "lon": -77.0061355, "name": "4b95f0d94d6cbdd1ac42696fc807845c", "bike_id": "4b95f0d94d6cbdd1ac42696fc807845c", "fusion_lat": 0.0, "is_reserved": 0, "lat": 38.88503016666667, "fusion_lon": 0.0, "is_disabled": 0}, {"rental_uris": {"android": "https://dc.lft.to/lastmile_qr_scan", "ios": "https://dc.lft.to/lastmile_qr_scan"}, "type": "electric_scooter", "lon": -77.03078616666667, "name": "eb1b8e98c0d82dd89e0690a99180a779", "bike_id": "eb1b8e98c0d82dd89e0690a99180a779", "fusion_lat": 0.0, "is_reserved": 0, "lat": 38.923814, "fusion_lon": 0.0, "is_disabled": 0}, {"rental_uris": {"android": "https://dc.lft.to/lastmile_qr_scan", "ios": "https://dc.lft.to/lastmile_qr_scan"}, "type": "electric_scooter", "lon": -77.027929, "name": "d7b01d31b6aff115e9944957c5088810", "bike_id": "d7b01d31b6aff115e9944957c5088810", "fusion_lat": 0.0, "is_reserved": 0, "lat": 38.9308335, "fusion_lon": 0.0, "is_disabled": 0}, {"rental_uris": {"android": "https://dc.lft.to/lastmile_qr_scan", "ios": "https://dc.lft.to/lastmile_qr_scan"}, "type": "electric_scooter", "lon": -77.02204466666667, "name": "4ba7860a1db6780807fbc2833cec9639", "bike_id": "4ba7860a1db6780807fbc2833cec9639", "fusion_lat": 0.0, "is_reserved": 0, "lat": 38.8871605, "fusion_lon": 0.0, "is_disabled": 0}, {"rental_uris": {"android": "https://dc.lft.to/lastmile_qr_scan", "ios": "https://dc.lft.to/lastmile_qr_scan"}, "type": "electric_scooter", "lon": -77.04155383333334, "name": "b57aff948d50679e2fbe10e42c6bbd21", "bike_id": "b57aff948d50679e2fbe10e42c6bbd21", "fusion_lat": 0.0, "is_reserved": 0, "lat": 38.910839333333335, "fusion_lon": 0.0, "is_disabled": 0}, {"rental_uris": {"android": "https://dc.lft.to/lastmile_qr_scan", "ios": "https://dc.lft.to/lastmile_qr_scan"}, "type": "electric_bike", "lon": -77.11235766666667, "name": "55c4488be523d64a2ce6d33eec916a02", "bike_id": "55c4488be523d64a2ce6d33eec916a02", "fusion_lat": 0.0, "is_reserved": 0, "lat": 38.8123215, "fusion_lon": 0.0, "is_disabled": 0}, {"rental_uris": {"android": "https://dc.lft.to/lastmile_qr_scan", "ios": "https://dc.lft.to/lastmile_qr_scan"}, "type": "electric_bike", "lon": -76.981194, "name": "8abe2c032e8a39710cf9c19277054028", "bike_id": "8abe2c032e8a39710cf9c19277054028", "fusion_lat": 0.0, "is_reserved": 0, "lat": 38.8967385, "fusion_lon": 0.0, "is_disabled": 0}, {"rental_uris": {"android": "https://dc.lft.to/lastmile_qr_scan", "ios": "https://dc.lft.to/lastmile_qr_scan"}, "type": "electric_scooter", "lon": -77.03230583333334, "name": "84ea5cfecc41b7c22e3aac422aa8b83a", "bike_id": "84ea5cfecc41b7c22e3aac422aa8b83a", "fusion_lat": 0.0, "is_reserved": 0, "lat": 38.9055655, "fusion_lon": 0.0, "is_disabled": 0}, {"rental_uris": {"android": "https://dc.lft.to/lastmile_qr_scan", "ios": "https://dc.lft.to/lastmile_qr_scan"}, "type": "electric_scooter", "lon": -77.03284233333333, "name": "7c810ca889393146005305294105dfa0", "bike_id": "7c810ca889393146005305294105dfa0", "fusion_lat": 0.0, "is_reserved": 0, "lat": 38.93685283333333, "fusion_lon": 0.0, "is_disabled": 0}, {"rental_uris": {"android": "https://dc.lft.to/lastmile_qr_scan", "ios": "https://dc.lft.to/lastmile_qr_scan"}, "type": "electric_scooter", "lon": -77.0215685, "name": "d990f5a5b51c812ea22a9623d9665dc1", "bike_id": "d990f5a5b51c812ea22a9623d9665dc1", "fusion_lat": 0.0, "is_reserved": 0, "lat": 38.92601716666667, "fusion_lon": 0.0, "is_disabled": 0}, {"rental_uris": {"android": "https://dc.lft.to/lastmile_qr_scan", "ios": "https://dc.lft.to/lastmile_qr_scan"}, "type": "electric_bike", "lon": -77.10179883333333, "name": "e466c60cbbdf65c53fa417da0c5de029", "bike_id": "e466c60cbbdf65c53fa417da0c5de029", "fusion_lat": 0.0, "is_reserved": 0, "lat": 38.9180855, "fusion_lon": 0.0, "is_disabled": 0}, {"rental_uris": {"android": "https://dc.lft.to/lastmile_qr_scan", "ios": "https://dc.lft.to/lastmile_qr_scan"}, "type": "electric_scooter", "lon": -77.04555183333333, "name": "7c3f777307e8c3d3fa2405a99d31e107", "bike_id": "7c3f777307e8c3d3fa2405a99d31e107", "fusion_lat": 0.0, "is_reserved": 0, "lat": 38.919322666666666, "fusion_lon": 0.0, "is_disabled": 0}, {"rental_uris": {"android": "https://dc.lft.to/lastmile_qr_scan", "ios": "https://dc.lft.to/lastmile_qr_scan"}, "type": "electric_scooter", "lon": -77.03742633333333, "name": "16332ac8d3f51cca3713f928ed6554ed", "bike_id": "16332ac8d3f51cca3713f928ed6554ed", "fusion_lat": 0.0, "is_reserved": 0, "lat": 38.92928066666666, "fusion_lon": 0.0, "is_disabled": 0}, {"rental_uris": {"android": "https://dc.lft.to/lastmile_qr_scan", "ios": "https://dc.lft.to/lastmile_qr_scan"}, "type": "electric_bike", "lon": -76.98324583333333, "name": "bf50851c9aecea858cfe522ba987204e", "bike_id": "bf50851c9aecea858cfe522ba987204e", "fusion_lat": 0.0, "is_reserved": 0, "lat": 38.9659975, "fusion_lon": 0.0, "is_disabled": 0}, {"rental_uris": {"android": "https://dc.lft.to/lastmile_qr_scan", "ios": "https://dc.lft.to/lastmile_qr_scan"}, "type": "electric_scooter", "lon": -77.02624933333334, "name": "db47977d0f95c653d9531ff6625acd44", "bike_id": "db47977d0f95c653d9531ff6625acd44", "fusion_lat": 0.0, "is_reserved": 0, "lat": 38.88737416666667, "fusion_lon": 0.0, "is_disabled": 0}, {"rental_uris": {"android": "https://dc.lft.to/lastmile_qr_scan", "ios": "https://dc.lft.to/lastmile_qr_scan"}, "type": "electric_scooter", "lon": -77.034386, "name": "64ff9207dc9fcad189e2d46cc74bfe54", "bike_id": "64ff9207dc9fcad189e2d46cc74bfe54", "fusion_lat": 0.0, "is_reserved": 0, "lat": 38.920525, "fusion_lon": 0.0, "is_disabled": 0}, {"rental_uris": {"android": "https://dc.lft.to/lastmile_qr_scan", "ios": "https://dc.lft.to/lastmile_qr_scan"}, "type": "electric_scooter", "lon": -77.02704983333334, "name": "49c9b262a82afce0641fba3bee2f68a1", "bike_id": "49c9b262a82afce0641fba3bee2f68a1", "fusion_lat": 0.0, "is_reserved": 0, "lat": 38.94998283333334, "fusion_lon": 0.0, "is_disabled": 0}, {"rental_uris": {"android": "https://dc.lft.to/lastmile_qr_scan", "ios": "https://dc.lft.to/lastmile_qr_scan"}, "type": "electric_scooter", "lon": -77.033265, "name": "9afd970eba5b61ac4689acc95d8e83d2", "bike_id": "9afd970eba5b61ac4689acc95d8e83d2", "fusion_lat": 0.0, "is_reserved": 0, "lat": 38.9287375, "fusion_lon": 0.0, "is_disabled": 0}, {"rental_uris": {"android": "https://dc.lft.to/lastmile_qr_scan", "ios": "https://dc.lft.to/lastmile_qr_scan"}, "type": "electric_scooter", "lon": -77.02990166666666, "name": "67c5df08a87a40f73eb98e20b94de645", "bike_id": "67c5df08a87a40f73eb98e20b94de645", "fusion_lat": 0.0, "is_reserved": 0, "lat": 38.95629266666667, "fusion_lon": 0.0, "is_disabled": 0}, {"rental_uris": {"android": "https://dc.lft.to/lastmile_qr_scan", "ios": "https://dc.lft.to/lastmile_qr_scan"}, "type": "electric_bike", "lon": -77.0407915, "name": "73ee5935e8544105ccdb87ec08032fd2", "bike_id": "73ee5935e8544105ccdb87ec08032fd2", "fusion_lat": 0.0, "is_reserved": 0, "lat": 38.81235983333333, "fusion_lon": 0.0, "is_disabled": 0}, {"rental_uris": {"android": "https://dc.lft.to/lastmile_qr_scan", "ios": "https://dc.lft.to/lastmile_qr_scan"}, "type": "electric_scooter", "lon": -76.9521425, "name": "0334059cc1378f812ff42d406dc3e908", "bike_id": "0334059cc1378f812ff42d406dc3e908", "fusion_lat": 0.0, "is_reserved": 0, "lat": 38.886780333333334, "fusion_lon": 0.0, "is_disabled": 0}, {"rental_uris": {"android": "https://dc.lft.to/lastmile_qr_scan", "ios": "https://dc.lft.to/lastmile_qr_scan"}, "type": "electric_scooter", "lon": -77.02597166666666, "name": "8838171c269ac8ca7fdff769b7b5dc93", "bike_id": "8838171c269ac8ca7fdff769b7b5dc93", "fusion_lat": 0.0, "is_reserved": 0, "lat": 38.90490916666667, "fusion_lon": 0.0, "is_disabled": 0}, {"rental_uris": {"android": "https://dc.lft.to/lastmile_qr_scan", "ios": "https://dc.lft.to/lastmile_qr_scan"}, "type": "electric_scooter", "lon": -77.02195983333333, "name": "49d2e0001fae7aae90f9edb0ed6857c5", "bike_id": "49d2e0001fae7aae90f9edb0ed6857c5", "fusion_lat": 0.0, "is_reserved": 0, "lat": 38.921091, "fusion_lon": 0.0, "is_disabled": 0}, {"rental_uris": {"android": "https://dc.lft.to/lastmile_qr_scan", "ios": "https://dc.lft.to/lastmile_qr_scan"}, "type": "electric_scooter", "lon": -77.02717583333333, "name": "0f2f76d3e3773db24526568fa1183f26", "bike_id": "0f2f76d3e3773db24526568fa1183f26", "fusion_lat": 0.0, "is_reserved": 0, "lat": 38.915427333333334, "fusion_lon": 0.0, "is_disabled": 0}, {"rental_uris": {"android": "https://dc.lft.to/lastmile_qr_scan", "ios": "https://dc.lft.to/lastmile_qr_scan"}, "type": "electric_scooter", "lon": -77.0240365, "name": "45e7c87cc97882217a4e5993cd37aef0", "bike_id": "45e7c87cc97882217a4e5993cd37aef0", "fusion_lat": 0.0, "is_reserved": 0, "lat": 38.916913666666666, "fusion_lon": 0.0, "is_disabled": 0}, {"rental_uris": {"android": "https://dc.lft.to/lastmile_qr_scan", "ios": "https://dc.lft.to/lastmile_qr_scan"}, "type": "electric_scooter", "lon": -77.03290066666666, "name": "bb6144fab0813315a6206e115cf34482", "bike_id": "bb6144fab0813315a6206e115cf34482", "fusion_lat": 0.0, "is_reserved": 0, "lat": 38.95650933333334, "fusion_lon": 0.0, "is_disabled": 0}, {"rental_uris": {"android": "https://dc.lft.to/lastmile_qr_scan", "ios": "https://dc.lft.to/lastmile_qr_scan"}, "type": "electric_scooter", "lon": -77.03285383333333, "name": "6959331f83dc427302fb72828bcc3492", "bike_id": "6959331f83dc427302fb72828bcc3492", "fusion_lat": 0.0, "is_reserved": 0, "lat": 38.936887666666664, "fusion_lon": 0.0, "is_disabled": 0}, {"rental_uris": {"android": "https://dc.lft.to/lastmile_qr_scan", "ios": "https://dc.lft.to/lastmile_qr_scan"}, "type": "electric_scooter", "lon": -77.04335816666666, "name": "51dd54b55848ef5205ce9188e9325649", "bike_id": "51dd54b55848ef5205ce9188e9325649", "fusion_lat": 0.0, "is_reserved": 0, "lat": 38.904996833333335, "fusion_lon": 0.0, "is_disabled": 0}, {"rental_uris": {"android": "https://dc.lft.to/lastmile_qr_scan", "ios": "https://dc.lft.to/lastmile_qr_scan"}, "type": "electric_scooter", "lon": -77.03504616666666, "name": "0e09bcf6675f9048876a64bfcb594a02", "bike_id": "0e09bcf6675f9048876a64bfcb594a02", "fusion_lat": 0.0, "is_reserved": 0, "lat": 38.91875316666667, "fusion_lon": 0.0, "is_disabled": 0}, {"rental_uris": {"android": "https://dc.lft.to/lastmile_qr_scan", "ios": "https://dc.lft.to/lastmile_qr_scan"}, "type": "electric_bike", "lon": -76.93200766666666, "name": "969c3e75de885fdc2718d733dbf8421b", "bike_id": "969c3e75de885fdc2718d733dbf8421b", "fusion_lat": 0.0, "is_reserved": 0, "lat": 38.872358166666665, "fusion_lon": 0.0, "is_disabled": 0}, {"rental_uris": {"android": "https://dc.lft.to/lastmile_qr_scan", "ios": "https://dc.lft.to/lastmile_qr_scan"}, "type": "electric_scooter", "lon": -77.02603466666666, "name": "387956e50a49072a8c5fbc173e357548", "bike_id": "387956e50a49072a8c5fbc173e357548", "fusion_lat": 0.0, "is_reserved": 0, "lat": 38.91617933333333, "fusion_lon": 0.0, "is_disabled": 0}, {"rental_uris": {"android": "https://dc.lft.to/lastmile_qr_scan", "ios": "https://dc.lft.to/lastmile_qr_scan"}, "type": "electric_bike", "lon": -77.09964933333333, "name": "9d0cea53d474e72dc76dbdcae8918b08", "bike_id": "9d0cea53d474e72dc76dbdcae8918b08", "fusion_lat": 0.0, "is_reserved": 0, "lat": 38.857898166666665, "fusion_lon": 0.0, "is_disabled": 0}, {"rental_uris": {"android": "https://dc.lft.to/lastmile_qr_scan", "ios": "https://dc.lft.to/lastmile_qr_scan"}, "type": "electric_scooter", "lon": -77.02196633333334, "name": "c920129205dcfe7ddf3a7b87f98f24ea", "bike_id": "c920129205dcfe7ddf3a7b87f98f24ea", "fusion_lat": 0.0, "is_reserved": 0, "lat": 38.89507366666667, "fusion_lon": 0.0, "is_disabled": 0}, {"rental_uris": {"android": "https://dc.lft.to/lastmile_qr_scan", "ios": "https://dc.lft.to/lastmile_qr_scan"}, "type": "electric_scooter", "lon": -77.06346116666667, "name": "f75f3b21ef8cab7f8e3d308409212f76", "bike_id": "f75f3b21ef8cab7f8e3d308409212f76", "fusion_lat": 0.0, "is_reserved": 0, "lat": 38.90851283333333, "fusion_lon": 0.0, "is_disabled": 0}, {"rental_uris": {"android": "https://dc.lft.to/lastmile_qr_scan", "ios": "https://dc.lft.to/lastmile_qr_scan"}, "type": "electric_scooter", "lon": -77.02694716666667, "name": "bf6fd8dd5079a675670c942dc89ddfe1", "bike_id": "bf6fd8dd5079a675670c942dc89ddfe1", "fusion_lat": 0.0, "is_reserved": 0, "lat": 38.9126975, "fusion_lon": 0.0, "is_disabled": 0}, {"rental_uris": {"android": "https://dc.lft.to/lastmile_qr_scan", "ios": "https://dc.lft.to/lastmile_qr_scan"}, "type": "electric_scooter", "lon": -76.99953966666666, "name": "2bf6ebf0de8c806f3bfff94158ad9737", "bike_id": "2bf6ebf0de8c806f3bfff94158ad9737", "fusion_lat": 0.0, "is_reserved": 0, "lat": 38.908637166666665, "fusion_lon": 0.0, "is_disabled": 0}, {"rental_uris": {"android": "https://dc.lft.to/lastmile_qr_scan", "ios": "https://dc.lft.to/lastmile_qr_scan"}, "type": "electric_scooter", "lon": -77.021657, "name": "02469f898e224f3a65410ac8c591c51e", "bike_id": "02469f898e224f3a65410ac8c591c51e", "fusion_lat": 0.0, "is_reserved": 0, "lat": 38.94083233333333, "fusion_lon": 0.0, "is_disabled": 0}, {"rental_uris": {"android": "https://dc.lft.to/lastmile_qr_scan", "ios": "https://dc.lft.to/lastmile_qr_scan"}, "type": "electric_scooter", "lon": -77.03581566666666, "name": "57365d5787d9a13e1da450af1c9520dd", "bike_id": "57365d5787d9a13e1da450af1c9520dd", "fusion_lat": 0.0, "is_reserved": 0, "lat": 38.91918916666667, "fusion_lon": 0.0, "is_disabled": 0}, {"rental_uris": {"android": "https://dc.lft.to/lastmile_qr_scan", "ios": "https://dc.lft.to/lastmile_qr_scan"}, "type": "electric_bike", "lon": -76.99759616666667, "name": "3f53c081473825c8cc8e6d8d98d367db", "bike_id": "3f53c081473825c8cc8e6d8d98d367db", "fusion_lat": 0.0, "is_reserved": 0, "lat": 39.005901, "fusion_lon": 0.0, "is_disabled": 0}, {"rental_uris": {"android": "https://dc.lft.to/lastmile_qr_scan", "ios": "https://dc.lft.to/lastmile_qr_scan"}, "type": "electric_scooter", "lon": -77.034351, "name": "fc6c73b1eb5fcbe4f26653409fd47c34", "bike_id": "fc6c73b1eb5fcbe4f26653409fd47c34", "fusion_lat": 0.0, "is_reserved": 0, "lat": 38.905868166666664, "fusion_lon": 0.0, "is_disabled": 0}, {"rental_uris": {"android": "https://dc.lft.to/lastmile_qr_scan", "ios": "https://dc.lft.to/lastmile_qr_scan"}, "type": "electric_scooter", "lon": -77.0344195, "name": "aa5ce28e2d4acb735d298076b20593ed", "bike_id": "aa5ce28e2d4acb735d298076b20593ed", "fusion_lat": 0.0, "is_reserved": 0, "lat": 38.91806916666667, "fusion_lon": 0.0, "is_disabled": 0}, {"rental_uris": {"android": "https://dc.lft.to/lastmile_qr_scan", "ios": "https://dc.lft.to/lastmile_qr_scan"}, "type": "electric_bike", "lon": -77.11427916666666, "name": "2b913c0c8ae05ac5bda6ec6342850774", "bike_id": "2b913c0c8ae05ac5bda6ec6342850774", "fusion_lat": 0.0, "is_reserved": 0, "lat": 38.852483, "fusion_lon": 0.0, "is_disabled": 0}, {"rental_uris": {"android": "https://dc.lft.to/lastmile_qr_scan", "ios": "https://dc.lft.to/lastmile_qr_scan"}, "type": "electric_scooter", "lon": -76.99727766666666, "name": "bbcf7e5561dd874b290b94c00f15d052", "bike_id": "bbcf7e5561dd874b290b94c00f15d052", "fusion_lat": 0.0, "is_reserved": 0, "lat": 38.907912333333336, "fusion_lon": 0.0, "is_disabled": 0}, {"rental_uris": {"android": "https://dc.lft.to/lastmile_qr_scan", "ios": "https://dc.lft.to/lastmile_qr_scan"},