{"data": {"bikes": [{"lon": -77.04210916666666, "is_disabled": 0, "lat": 38.92257816666667, "fusion_lat": 0.0, "is_reserved": 0, "rental_uris": {"ios": "https://dc.lft.to/lastmile_qr_scan", "android": "https://dc.lft.to/lastmile_qr_scan"}, "fusion_lon": 0.0, "type": "electric_scooter", "bike_id": "c7184234e494eded78a42495a19e416e", "name": "c7184234e494eded78a42495a19e416e"}, {"lon": -77.01800566666667, "is_disabled": 0, "lat": 38.901218666666665, "fusion_lat": 0.0, "is_reserved": 0, "rental_uris": {"ios": "https://dc.lft.to/lastmile_qr_scan", "android": "https://dc.lft.to/lastmile_qr_scan"}, "fusion_lon": 0.0, "type": "electric_scooter", "bike_id": "71e7998750ad29e25c399f36563e47ce", "name": "71e7998750ad29e25c399f36563e47ce"}, {"lon": -77.03378266666667, "is_disabled": 0, "lat": 38.9386045, "fusion_lat": 0.0, "is_reserved": 0, "rental_uris": {"ios": "https://dc.lft.to/lastmile_qr_scan", "android": "https://dc.lft.to/lastmile_qr_scan"}, "fusion_lon": 0.0, "type": "electric_scooter", "bike_id": "718b0eb64e0a5104992a7bf30d2da4d8", "name": "718b0eb64e0a5104992a7bf30d2da4d8"}, {"lon": -76.94634266666667, "is_disabled": 0, "lat": 38.8982965, "fusion_lat": 0.0, "is_reserved": 0, "rental_uris": {"ios": "https://dc.lft.to/lastmile_qr_scan", "android": "https://dc.lft.to/lastmile_qr_scan"}, "fusion_lon": 0.0, "type": "electric_scooter", "bike_id": "4e4ad67ca1dc41be5aad4b1b8225022a", "name": "4e4ad67ca1dc41be5aad4b1b8225022a"}, {"lon": -76.98240716666666, "is_disabled": 0, "lat": 38.953207166666665, "fusion_lat": 0.0, "is_reserved": 0, "rental_uris": {"ios": "https://dc.lft.to/lastmile_qr_scan", "android": "https://dc.lft.to/lastmile_qr_scan"}, "fusion_lon": 0.0, "type": "electric_bike", "bike_id": "6b2e1684e7a8e61425364cbe28df514d", "name": "6b2e1684e7a8e61425364cbe28df514d"}, {"lon": -77.04208983333334, "is_disabled": 0, "lat": 38.903341166666664, "fusion_lat": 0.0, "is_reserved": 0, "rental_uris": {"ios": "https://dc.lft.to/lastmile_qr_scan", "android": "https://dc.lft.to/lastmile_qr_scan"}, "fusion_lon": 0.0, "type": "electric_scooter", "bike_id": "343ee32ce72fb251494327172ef7ee93", "name": "343ee32ce72fb251494327172ef7ee93"}, {"lon": -77.04530616666666, "is_disabled": 0, "lat": 38.93455433333333, "fusion_lat": 0.0, "is_reserved": 0, "rental_uris": {"ios": "https://dc.lft.to/lastmile_qr_scan", "android": "https://dc.lft.to/lastmile_qr_scan"}, "fusion_lon": 0.0, "type": "electric_scooter", "bike_id": "0208dc972f05c3e2f773b660e23e904b", "name": "0208dc972f05c3e2f773b660e23e904b"}, {"lon": -77.03168033333333, "is_disabled": 0, "lat": 38.918246, "fusion_lat": 0.0, "is_reserved": 0, "rental_uris": {"ios": "https://dc.lft.to/lastmile_qr_scan", "android": "https://dc.lft.to/lastmile_qr_scan"}, "fusion_lon": 0.0, "type": "electric_scooter", "bike_id": "d5c6f9b6ad5528d35f4ec730302257fe", "name": "d5c6f9b6ad5528d35f4ec730302257fe"}, {"lon": -76.98056033333333, "is_disabled": 0, "lat": 38.8853535, "fusion_lat": 0.0, "is_reserved": 0, "rental_uris": {"ios": "https://dc.lft.to/lastmile_qr_scan", "android": "https://dc.lft.to/lastmile_qr_scan"}, "fusion_lon": 0.0, "type": "electric_scooter", "bike_id": "042d24522268eb1f554ab03bedeea02d", "name": "042d24522268eb1f554ab03bedeea02d"}, {"lon": -77.025934, "is_disabled": 0, "lat": 38.91563416666666, "fusion_lat": 0.0, "is_reserved": 0, "rental_uris": {"ios": "https://dc.lft.to/lastmile_qr_scan", "android": "https://dc.lft.to/lastmile_qr_scan"}, "fusion_lon": 0.0, "type": "electric_scooter", "bike_id": "4ffa211ac317b911a10a18be7314f056", "name": "4ffa211ac317b911a10a18be7314f056"}, {"lon": -77.02238033333333, "is_disabled": 0, "lat": 38.956866, "fusion_lat": 0.0, "is_reserved": 0, "rental_uris": {"ios": "https://dc.lft.to/lastmile_qr_scan", "android": "https://dc.lft.to/lastmile_qr_scan"}, "fusion_lon": 0.0, "type": "electric_bike", "bike_id": "1ebae90178a0715927e49fffbe933a89", "name": "1ebae90178a0715927e49fffbe933a89"}, {"lon": -77.0383, "is_disabled": 0, "lat": 38.919689, "fusion_lat": 0.0, "is_reserved": 0, "rental_uris": {"ios": "https://dc.lft.to/lastmile_qr_scan", "android": "https://dc.lft.to/lastmile_qr_scan"}, "fusion_lon": 0.0, "type": "electric_scooter", "bike_id": "514ab4bbf76a1f9b5771e986eaa58511", "name": "514ab4bbf76a1f9b5771e986eaa58511"}, {"lon": -77.03270883333333, "is_disabled": 0, "lat": 38.93434283333333, "fusion_lat": 0.0, "is_reserved": 0, "rental_uris": {"ios": "https://dc.lft.to/lastmile_qr_scan", "android": "https://dc.lft.to/lastmile_qr_scan"}, "fusion_lon": 0.0, "type": "electric_scooter", "bike_id": "2a8e4d7400cb3a6410404c3538be6be2", "name": "2a8e4d7400cb3a6410404c3538be6be2"}, {"lon": -77.0164165, "is_disabled": 0, "lat": 38.88116483333334, "fusion_lat": 0.0, "is_reserved": 0, "rental_uris": {"ios": "https://dc.lft.to/lastmile_qr_scan", "android": "https://dc.lft.to/lastmile_qr_scan"}, "fusion_lon": 0.0, "type": "electric_scooter", "bike_id": "c79fe631a6c83818576842a714292a4c", "name": "c79fe631a6c83818576842a714292a4c"}, {"lon": -77.04332316666667, "is_disabled": 0, "lat": 38.92217216666667, "fusion_lat": 0.0, "is_reserved": 0, "rental_uris": {"ios": "https://dc.lft.to/lastmile_qr_scan", "android": "https://dc.lft.to/lastmile_qr_scan"}, "fusion_lon": 0.0, "type": "electric_scooter", "bike_id": "fb82d30b511485315f032a2ad346aa4e", "name": "fb82d30b511485315f032a2ad346aa4e"}, {"lon": -77.0415535, "is_disabled": 0, "lat": 38.914195666666664, "fusion_lat": 0.0, "is_reserved": 0, "rental_uris": {"ios": "https://dc.lft.to/lastmile_qr_scan", "android": "https://dc.lft.to/lastmile_qr_scan"}, "fusion_lon": 0.0, "type": "electric_scooter", "bike_id": "983c88570def6ec5b586b782a17b7e97", "name": "983c88570def6ec5b586b782a17b7e97"}, {"lon": -77.03766216666666, "is_disabled": 0, "lat": 38.92571216666666, "fusion_lat": 0.0, "is_reserved": 0, "rental_uris": {"ios": "https://dc.lft.to/lastmile_qr_scan", "android": "https://dc.lft.to/lastmile_qr_scan"}, "fusion_lon": 0.0, "type": "electric_scooter", "bike_id": "ac836fef23ef36eb9f9eda3e79147ccd", "name": "ac836fef23ef36eb9f9eda3e79147ccd"}, {"lon": -77.00558216666667, "is_disabled": 0, "lat": 38.880128166666665, "fusion_lat": 0.0, "is_reserved": 0, "rental_uris": {"ios": "https://dc.lft.to/lastmile_qr_scan", "android": "https://dc.lft.to/lastmile_qr_scan"}, "fusion_lon": 0.0, "type": "electric_scooter", "bike_id": "fda8900003d34fa9e2f9715179803aa2", "name": "fda8900003d34fa9e2f9715179803aa2"}, {"lon": -77.02050466666667, "is_disabled": 0, "lat": 38.9210945, "fusion_lat": 0.0, "is_reserved": 0, "rental_uris": {"ios": "https://dc.lft.to/lastmile_qr_scan", "android": "https://dc.lft.to/lastmile_qr_scan"}, "fusion_lon": 0.0, "type": "electric_scooter", "bike_id": "8ff3f747f33497d313f3011878d731cc", "name": "8ff3f747f33497d313f3011878d731cc"}, {"lon": -77.03004083333333, "is_disabled": 0, "lat": 38.90119033333333, "fusion_lat": 0.0, "is_reserved": 0, "rental_uris": {"ios": "https://dc.lft.to/lastmile_qr_scan", "android": "https://dc.lft.to/lastmile_qr_scan"}, "fusion_lon": 0.0, "type": "electric_scooter", "bike_id": "d9a6c44856667e04825990ddf65842f6", "name": "d9a6c44856667e04825990ddf65842f6"}, {"lon": -77.01783516666667, "is_disabled": 0, "lat": 38.876934166666665, "fusion_lat": 0.0, "is_reserved": 0, "rental_uris": {"ios": "https://dc.lft.to/lastmile_qr_scan", "android": "https://dc.lft.to/lastmile_qr_scan"}, "fusion_lon": 0.0, "type": "electric_scooter", "bike_id": "ac7bb8cb848dcb905c31e9f01f703002", "name": "ac7bb8cb848dcb905c31e9f01f703002"}, {"lon": -77.04492416666666, "is_disabled": 0, "lat": 38.89919583333333, "fusion_lat": 0.0, "is_reserved": 0, "rental_uris": {"ios": "https://dc.lft.to/lastmile_qr_scan", "android": "https://dc.lft.to/lastmile_qr_scan"}, "fusion_lon": 0.0, "type": "electric_scooter", "bike_id": "9394ec206775b2c62af043fed9dfcbf9", "name": "9394ec206775b2c62af043fed9dfcbf9"}, {"lon": -77.037322, "is_disabled": 0, "lat": 38.92665433333333, "fusion_lat": 0.0, "is_reserved": 0, "rental_uris": {"ios": "https://dc.lft.to/lastmile_qr_scan", "android": "https://dc.lft.to/lastmile_qr_scan"}, "fusion_lon": 0.0, "type": "electric_scooter", "bike_id": "379d4f389c948a50b9940dd346132639", "name": "379d4f389c948a50b9940dd346132639"}, {"lon": -77.04573516666666, "is_disabled": 0, "lat": 38.9140695, "fusion_lat": 0.0, "is_reserved": 0, "rental_uris": {"ios": "https://dc.lft.to/lastmile_qr_scan", "android": "https://dc.lft.to/lastmile_qr_scan"}, "fusion_lon": 0.0, "type": "electric_scooter", "bike_id": "b399644acf8f52cbf6859be2f2b096ab", "name": "b399644acf8f52cbf6859be2f2b096ab"}, {"lon": -77.04342133333333, "is_disabled": 0, "lat": 38.907276, "fusion_lat": 0.0, "is_reserved": 0, "rental_uris": {"ios": "https://dc.lft.to/lastmile_qr_scan", "android": "https://dc.lft.to/lastmile_qr_scan"}, "fusion_lon": 0.0, "type": "electric_scooter", "bike_id": "5d86cd4482ffd42263a6d03a57b9cff9", "name": "5d86cd4482ffd42263a6d03a57b9cff9"}, {"lon": -77.114657, "is_disabled": 0, "lat": 38.8414635, "fusion_lat": 0.0, "is_reserved": 0, "rental_uris": {"ios": "https://dc.lft.to/lastmile_qr_scan", "android": "https://dc.lft.to/lastmile_qr_scan"}, "fusion_lon": 0.0, "type": "electric_bike", "bike_id": "961f85da9089ea992f770f494f131726", "name": "961f85da9089ea992f770f494f131726"}, {"lon": -77.0392475, "is_disabled": 0, "lat": 38.924792333333336, "fusion_lat": 0.0, "is_reserved": 0, "rental_uris": {"ios": "https://dc.lft.to/lastmile_qr_scan", "android": "https://dc.lft.to/lastmile_qr_scan"}, "fusion_lon": 0.0, "type": "electric_scooter", "bike_id": "be6d18aa28148828c941f9683e112877", "name": "be6d18aa28148828c941f9683e112877"}, {"lon": -76.94406916666667, "is_disabled": 0, "lat": 38.99223633333333, "fusion_lat": 0.0, "is_reserved": 0, "rental_uris": {"ios": "https://dc.lft.to/lastmile_qr_scan", "android": "https://dc.lft.to/lastmile_qr_scan"}, "fusion_lon": 0.0, "type": "electric_bike", "bike_id": "12e6f263bb98d5a17f53fbc32d527216", "name": "12e6f263bb98d5a17f53fbc32d527216"}, {"lon": -77.03864316666666, "is_disabled": 0, "lat": 38.907134, "fusion_lat": 0.0, "is_reserved": 0, "rental_uris": {"ios": "https://dc.lft.to/lastmile_qr_scan", "android": "https://dc.lft.to/lastmile_qr_scan"}, "fusion_lon": 0.0, "type": "electric_scooter", "bike_id": "f21a122e27884d9f5e58b4bccf67113d", "name": "f21a122e27884d9f5e58b4bccf67113d"}, {"lon": -77.0340145, "is_disabled": 0, "lat": 38.924412, "fusion_lat": 0.0, "is_reserved": 0, "rental_uris": {"ios": "https://dc.lft.to/lastmile_qr_scan", "android": "https://dc.lft.to/lastmile_qr_scan"}, "fusion_lon": 0.0, "type": "electric_scooter", "bike_id": "7996056072ad74920a1eb4a9fddf7661", "name": "7996056072ad74920a1eb4a9fddf7661"}, {"lon": -77.01680366666666, "is_disabled": 0, "lat": 38.90571883333333, "fusion_lat": 0.0, "is_reserved": 0, "rental_uris": {"ios": "https://dc.lft.to/lastmile_qr_scan", "android": "https://dc.lft.to/lastmile_qr_scan"}, "fusion_lon": 0.0, "type": "electric_scooter", "bike_id": "b33c3c54bbd4fc27d19abf0e17df97fd", "name": "b33c3c54bbd4fc27d19abf0e17df97fd"}, {"lon": -77.04667466666666, "is_disabled": 0, "lat": 38.90573883333333, "fusion_lat": 0.0, "is_reserved": 0, "rental_uris": {"ios": "https://dc.lft.to/lastmile_qr_scan", "android": "https://dc.lft.to/lastmile_qr_scan"}, "fusion_lon": 0.0, "type": "electric_scooter", "bike_id": "ea7b4aecef2fe41e63a7f45fb807818d", "name": "ea7b4aecef2fe41e63a7f45fb807818d"}, {"lon": -77.02008366666666, "is_disabled": 0, "lat": 38.914045, "fusion_lat": 0.0, "is_reserved": 0, "rental_uris": {"ios": "https://dc.lft.to/lastmile_qr_scan", "android": "https://dc.lft.to/lastmile_qr_scan"}, "fusion_lon": 0.0, "type": "electric_scooter", "bike_id": "ddb59d4c7889ad02732abb0e7cf0160c", "name": "ddb59d4c7889ad02732abb0e7cf0160c"}, {"lon": -77.036684, "is_disabled": 0, "lat": 38.908026, "fusion_lat": 0.0, "is_reserved": 0, "rental_uris": {"ios": "https://dc.lft.to/lastmile_qr_scan", "android": "https://dc.lft.to/lastmile_qr_scan"}, "fusion_lon": 0.0, "type": "electric_scooter", "bike_id": "d8e4cf9213d1dc8a05e7dd7213069c7b", "name": "d8e4cf9213d1dc8a05e7dd7213069c7b"}, {"lon": -77.02212883333333, "is_disabled": 0, "lat": 38.93397083333333, "fusion_lat": 0.0, "is_reserved": 0, "rental_uris": {"ios": "https://dc.lft.to/lastmile_qr_scan", "android": "https://dc.lft.to/lastmile_qr_scan"}, "fusion_lon": 0.0, "type": "electric_scooter", "bike_id": "1ec27e27ac4bb1a7d1184d4629edd9f5", "name": "1ec27e27ac4bb1a7d1184d4629edd9f5"}, {"lon": -77.11608866666667, "is_disabled": 0, "lat": 38.8548125, "fusion_lat": 0.0, "is_reserved": 0, "rental_uris": {"ios": "https://dc.lft.to/lastmile_qr_scan", "android": "https://dc.lft.to/lastmile_qr_scan"}, "fusion_lon": 0.0, "type": "electric_bike", "bike_id": "317bdff79a0af9a77f41e3aa3f508790", "name": "317bdff79a0af9a77f41e3aa3f508790"}, {"lon": -76.99861066666666, "is_disabled": 0, "lat": 38.89197266666667, "fusion_lat": 0.0, "is_reserved": 0, "rental_uris": {"ios": "https://dc.lft.to/lastmile_qr_scan", "android": "https://dc.lft.to/lastmile_qr_scan"}, "fusion_lon": 0.0, "type": "electric_scooter", "bike_id": "d0fd9365760eecc5560ca6106e3adef8", "name": "d0fd9365760eecc5560ca6106e3adef8"}, {"lon": -77.033206, "is_disabled": 0, "lat": 38.898093833333334, "fusion_lat": 0.0, "is_reserved": 0, "rental_uris": {"ios": "https://dc.lft.to/lastmile_qr_scan", "android": "https://dc.lft.to/lastmile_qr_scan"}, "fusion_lon": 0.0, "type": "electric_scooter", "bike_id": "6f234775867a39b5e13e47e01db47f0e", "name": "6f234775867a39b5e13e47e01db47f0e"}, {"lon": -76.977851, "is_disabled": 0, "lat": 38.905678333333334, "fusion_lat": 0.0, "is_reserved": 0, "rental_uris": {"ios": "https://dc.lft.to/lastmile_qr_scan", "android": "https://dc.lft.to/lastmile_qr_scan"}, "fusion_lon": 0.0, "type": "electric_scooter", "bike_id": "acb4807b51287b2df6a2d0c58864b6a2", "name": "acb4807b51287b2df6a2d0c58864b6a2"}, {"lon": -77.0515335, "is_disabled": 0, "lat": 38.9237845, "fusion_lat": 0.0, "is_reserved": 0, "rental_uris": {"ios": "https://dc.lft.to/lastmile_qr_scan", "android": "https://dc.lft.to/lastmile_qr_scan"}, "fusion_lon": 0.0, "type": "electric_scooter", "bike_id": "9dd7cdf894448deea2127cc0422067ac", "name": "9dd7cdf894448deea2127cc0422067ac"}, {"lon": -76.98686333333333, "is_disabled": 0, "lat": 38.877585833333335, "fusion_lat": 0.0, "is_reserved": 0, "rental_uris": {"ios": "https://dc.lft.to/lastmile_qr_scan", "android": "https://dc.lft.to/lastmile_qr_scan"}, "fusion_lon": 0.0, "type": "electric_scooter", "bike_id": "42e6d4214a18a104c094d22a9526fd4f", "name": "42e6d4214a18a104c094d22a9526fd4f"}, {"lon": -77.01210966666666, "is_disabled": 0, "lat": 38.90616766666667, "fusion_lat": 0.0, "is_reserved": 0, "rental_uris": {"ios": "https://dc.lft.to/lastmile_qr_scan", "android": "https://dc.lft.to/lastmile_qr_scan"}, "fusion_lon": 0.0, "type": "electric_scooter", "bike_id": "175bf6320d6f7fa750122b2757f7a995", "name": "175bf6320d6f7fa750122b2757f7a995"}, {"lon": -77.03405316666667, "is_disabled": 0, "lat": 38.9099445, "fusion_lat": 0.0, "is_reserved": 0, "rental_uris": {"ios": "https://dc.lft.to/lastmile_qr_scan", "android": "https://dc.lft.to/lastmile_qr_scan"}, "fusion_lon": 0.0, "type": "electric_scooter", "bike_id": "630619e098fdb9dccee9614c8052afd5", "name": "630619e098fdb9dccee9614c8052afd5"}, {"lon": -77.03366983333333, "is_disabled": 0, "lat": 38.921555833333336, "fusion_lat": 0.0, "is_reserved": 0, "rental_uris": {"ios": "https://dc.lft.to/lastmile_qr_scan", "android": "https://dc.lft.to/lastmile_qr_scan"}, "fusion_lon": 0.0, "type": "electric_scooter", "bike_id": "7801a5fab80008a1b6fbfdde50864a6b", "name": "7801a5fab80008a1b6fbfdde50864a6b"}, {"lon": -77.04515266666667, "is_disabled": 0, "lat": 38.923147166666666, "fusion_lat": 0.0, "is_reserved": 0, "rental_uris": {"ios": "https://dc.lft.to/lastmile_qr_scan", "android": "https://dc.lft.to/lastmile_qr_scan"}, "fusion_lon": 0.0, "type": "electric_scooter", "bike_id": "98546fc2e073db90aeec5ccb6bc9e5de", "name": "98546fc2e073db90aeec5ccb6bc9e5de"}, {"lon": -77.02775233333334, "is_disabled": 0, "lat": 38.928618, "fusion_lat": 0.0, "is_reserved": 0, "rental_uris": {"ios": "https://dc.lft.to/lastmile_qr_scan", "android": "https://dc.lft.to/lastmile_qr_scan"}, "fusion_lon": 0.0, "type": "electric_scooter", "bike_id": "53779241413d69184055fbfe3dbfc3f1", "name": "53779241413d69184055fbfe3dbfc3f1"}, {"lon": -76.95663666666667, "is_disabled": 0, "lat": 38.88468366666667, "fusion_lat": 0.0, "is_reserved": 0, "rental_uris": {"ios": "https://dc.lft.to/lastmile_qr_scan", "android": "https://dc.lft.to/lastmile_qr_scan"}, "fusion_lon": 0.0, "type": "electric_bike", "bike_id": "03cf1fb8496b62f3e76b162717e56baa", "name": "03cf1fb8496b62f3e76b162717e56baa"}, {"lon": -77.02407383333333, "is_disabled": 0, "lat": 38.914167166666665, "fusion_lat": 0.0, "is_reserved": 0, "rental_uris": {"ios": "https://dc.lft.to/lastmile_qr_scan", "android": "https://dc.lft.to/lastmile_qr_scan"}, "fusion_lon": 0.0, "type": "electric_scooter", "bike_id": "07d0abc7f00c01670c23701cf23de220", "name": "07d0abc7f00c01670c23701cf23de220"}, {"lon": -77.02305683333333, "is_disabled": 0, "lat": 38.927407, "fusion_lat": 0.0, "is_reserved": 0, "rental_uris": {"ios": "https://dc.lft.to/lastmile_qr_scan", "android": "https://dc.lft.to/lastmile_qr_scan"}, "fusion_lon": 0.0, "type": "electric_scooter", "bike_id": "cfe1b61739092d0418dc274ad286e636", "name": "cfe1b61739092d0418dc274ad286e636"}, {"lon": -77.03771783333333, "is_disabled": 0, "lat": 38.902301333333334, "fusion_lat": 0.0, "is_reserved": 0, "rental_uris": {"ios": "https://dc.lft.to/lastmile_qr_scan", "android": "https://dc.lft.to/lastmile_qr_scan"}, "fusion_lon": 0.0, "type": "electric_scooter", "bike_id": "556df0741686157721d617899ae3f14d", "name": "556df0741686157721d617899ae3f14d"}, {"lon": -76.9302575, "is_disabled": 0, "lat": 38.895712, "fusion_lat": 0.0, "is_reserved": 0, "rental_uris": {"ios": "https://dc.lft.to/lastmile_qr_scan", "android": "https://dc.lft.to/lastmile_qr_scan"}, "fusion_lon": 0.0, "type": "electric_scooter", "bike_id": "d35c7c3f8a4a6cea61253ccf123174c2", "name": "d35c7c3f8a4a6cea61253ccf123174c2"}, {"lon": -76.99621016666667, "is_disabled": 0, "lat": 38.884421, "fusion_lat": 0.0, "is_reserved": 0, "rental_uris": {"ios": "https://dc.lft.to/lastmile_qr_scan", "android": "https://dc.lft.to/lastmile_qr_scan"}, "fusion_lon": 0.0, "type": "electric_scooter", "bike_id": "36331004011730b15d90bf234040e862", "name": "36331004011730b15d90bf234040e862"}, {"lon": -76.9462885, "is_disabled": 0, "lat": 38.8324495, "fusion_lat": 0.0, "is_reserved": 0, "rental_uris": {"ios": "https://dc.lft.to/lastmile_qr_scan", "android": "https://dc.lft.to/lastmile_qr_scan"}, "fusion_lon": 0.0, "type": "electric_bike", "bike_id": "3b27cdf9322fbffa9dc9da69cb64f9c9", "name": "3b27cdf9322fbffa9dc9da69cb64f9c9"}, {"lon": -77.0430135, "is_disabled": 0, "lat": 39.03429, "fusion_lat": 0.0, "is_reserved": 0, "rental_uris": {"ios": "https://dc.lft.to/lastmile_qr_scan", "android": "https://dc.lft.to/lastmile_qr_scan"}, "fusion_lon": 0.0, "type": "electric_bike", "bike_id": "408edbfeee491899aa87258ea3d574a5", "name": "408edbfeee491899aa87258ea3d574a5"}, {"lon": -77.0435315, "is_disabled": 0, "lat": 38.9147445, "fusion_lat": 0.0, "is_reserved": 0, "rental_uris": {"ios": "https://dc.lft.to/lastmile_qr_scan", "android": "https://dc.lft.to/lastmile_qr_scan"}, "fusion_lon": 0.0, "type": "electric_scooter", "bike_id": "d31464b06b7d3daa6eaf1e91f0d961e8", "name": "d31464b06b7d3daa6eaf1e91f0d961e8"}, {"lon": -77.041488, "is_disabled": 0, "lat": 38.907126, "fusion_lat": 0.0, "is_reserved": 0, "rental_uris": {"ios": "https://dc.lft.to/lastmile_qr_scan", "android": "https://dc.lft.to/lastmile_qr_scan"}, "fusion_lon": 0.0, "type": "electric_scooter", "bike_id": "8962a657e8e39170168bebd8eb461916", "name": "8962a657e8e39170168bebd8eb461916"}, {"lon": -77.0151605, "is_disabled": 0, "lat": 38.9267295, "fusion_lat": 0.0, "is_reserved": 0, "rental_uris": {"ios": "https://dc.lft.to/lastmile_qr_scan", "android": "https://dc.lft.to/lastmile_qr_scan"}, "fusion_lon": 0.0, "type": "electric_scooter", "bike_id": "a4c9ea2f1cc8894f0caa17ad8410f084", "name": "a4c9ea2f1cc8894f0caa17ad8410f084"}, {"lon": -77.04156516666667, "is_disabled": 0, "lat": 38.91856216666667, "fusion_lat": 0.0, "is_reserved": 0, "rental_uris": {"ios": "https://dc.lft.to/lastmile_qr_scan", "android": "https://dc.lft.to/lastmile_qr_scan"}, "fusion_lon": 0.0, "type": "electric_scooter", "bike_id": "07c4f8049ab7e9096be2ac4fb80717cd", "name": "07c4f8049ab7e9096be2ac4fb80717cd"}, {"lon": -77.03877866666667, "is_disabled": 0, "lat": 38.912624666666666, "fusion_lat": 0.0, "is_reserved": 0, "rental_uris": {"ios": "https://dc.lft.to/lastmile_qr_scan", "android": "https://dc.lft.to/lastmile_qr_scan"}, "fusion_lon": 0.0, "type": "electric_scooter", "bike_id": "b791a31e84191cc9b0e5184508be38c4", "name": "b791a31e84191cc9b0e5184508be38c4"}, {"lon": -77.03867216666667, "is_disabled": 0, "lat": 38.91694616666667, "fusion_lat": 0.0, "is_reserved": 0, "rental_uris": {"ios": "https://dc.lft.to/lastmile_qr_scan", "android": "https://dc.lft.to/lastmile_qr_scan"}, "fusion_lon": 0.0, "type": "electric_scooter", "bike_id": "ab0c23ff82ddabda0bcf0300a31ef54d", "name": "ab0c23ff82ddabda0bcf0300a31ef54d"}, {"lon": -77.02715316666666, "is_disabled": 0, "lat": 38.91674116666667, "fusion_lat": 0.0, "is_reserved": 0, "rental_uris": {"ios": "https://dc.lft.to/lastmile_qr_scan", "android": "https://dc.lft.to/lastmile_qr_scan"}, "fusion_lon": 0.0, "type": "electric_scooter", "bike_id": "8f16ac1a883ed40af8130b7424e7a5f0", "name": "8f16ac1a883ed40af8130b7424e7a5f0"}, {"lon": -77.03810783333333, "is_disabled": 0, "lat": 38.902427, "fusion_lat": 0.0, "is_reserved": 0, "rental_uris": {"ios": "https://dc.lft.to/lastmile_qr_scan", "android": "https://dc.lft.to/lastmile_qr_scan"}, "fusion_lon": 0.0, "type": "electric_scooter", "bike_id": "332ab4cb7bae152617221848cf639cf2", "name": "332ab4cb7bae152617221848cf639cf2"}, {"lon": -77.01415766666666, "is_disabled": 0, "lat": 38.928013666666665, "fusion_lat": 0.0, "is_reserved": 0, "rental_uris": {"ios": "https://dc.lft.to/lastmile_qr_scan", "android": "https://dc.lft.to/lastmile_qr_scan"}, "fusion_lon": 0.0, "type": "electric_scooter", "bike_id": "9d376586bdddb7ed7d4bc627afa42fde", "name": "9d376586bdddb7ed7d4bc627afa42fde"}, {"lon": -77.02151866666667, "is_disabled": 0, "lat": 38.897026833333335, "fusion_lat": 0.0, "is_reserved": 0, "rental_uris": {"ios": "https://dc.lft.to/lastmile_qr_scan", "android": "https://dc.lft.to/lastmile_qr_scan"}, "fusion_lon": 0.0, "type": "electric_scooter", "bike_id": "dba10a7a4b049591e62affb1e08b65eb", "name": "dba10a7a4b049591e62affb1e08b65eb"}, {"lon": -77.00445933333333, "is_disabled": 0, "lat": 38.9117765, "fusion_lat": 0.0, "is_reserved": 0, "rental_uris": {"ios": "https://dc.lft.to/lastmile_qr_scan", "android": "https://dc.lft.to/lastmile_qr_scan"}, "fusion_lon": 0.0, "type": "electric_scooter", "bike_id": "051d4577ef9c354faa0f4abcf504d89e", "name": "051d4577ef9c354faa0f4abcf504d89e"}, {"lon": -77.046509, "is_disabled": 0, "lat": 38.89839466666667, "fusion_lat": 0.0, "is_reserved": 0, "rental_uris": {"ios": "https://dc.lft.to/lastmile_qr_scan", "android": "https://dc.lft.to/lastmile_qr_scan"}, "fusion_lon": 0.0, "type": "electric_scooter", "bike_id": "98218dd5ab5fda86bc5b3002933d916d", "name": "98218dd5ab5fda86bc5b3002933d916d"}, {"lon": -77.00283966666667, "is_disabled": 0, "lat": 38.91908183333334, "fusion_lat": 0.0, "is_reserved": 0, "rental_uris": {"ios": "https://dc.lft.to/lastmile_qr_scan", "android": "https://dc.lft.to/lastmile_qr_scan"}, "fusion_lon": 0.0, "type": "electric_scooter", "bike_id": "dba81471b0fc46058d061afd03547f30", "name": "dba81471b0fc46058d061afd03547f30"}, {"lon": -77.02661166666667, "is_disabled": 0, "lat": 38.97192033333333, "fusion_lat": 0.0, "is_reserved": 0, "rental_uris": {"ios": "https://dc.lft.to/lastmile_qr_scan", "android": "https://dc.lft.to/lastmile_qr_scan"}, "fusion_lon": 0.0, "type": "electric_scooter", "bike_id": "28f966bc443ec20a4be45c4b3833fd5f", "name": "28f966bc443ec20a4be45c4b3833fd5f"}, {"lon": -76.97712916666667, "is_disabled": 0, "lat": 38.88519316666667, "fusion_lat": 0.0, "is_reserved": 0, "rental_uris": {"ios": "https://dc.lft.to/lastmile_qr_scan", "android": "https://dc.lft.to/lastmile_qr_scan"}, "fusion_lon": 0.0, "type": "electric_scooter", "bike_id": "c637811bb64af69c017f5cf08a1f08b3", "name": "c637811bb64af69c017f5cf08a1f08b3"}, {"lon": -77.0240365, "is_disabled": 0, "lat": 38.91548983333333, "fusion_lat": 0.0, "is_reserved": 0, "rental_uris": {"ios": "https://dc.lft.to/lastmile_qr_scan", "android": "https://dc.lft.to/lastmile_qr_scan"}, "fusion_lon": 0.0, "type": "electric_scooter", "bike_id": "7caffe665b542363bb74ed2de377378e", "name": "7caffe665b542363bb74ed2de377378e"}, {"lon": -77.03827866666667, "is_disabled": 0, "lat": 38.91264983333333, "fusion_lat": 0.0, "is_reserved": 0, "rental_uris": {"ios": "https://dc.lft.to/lastmile_qr_scan", "android": "https://dc.lft.to/lastmile_qr_scan"}, "fusion_lon": 0.0, "type": "electric_scooter", "bike_id": "2f53b5579e014879409b508da46bf410", "name": "2f53b5579e014879409b508da46bf410"}, {"lon": -76.99350683333333, "is_disabled": 0, "lat": 38.898747, "fusion_lat": 0.0, "is_reserved": 0, "rental_uris": {"ios": "https://dc.lft.to/lastmile_qr_scan", "android": "https://dc.lft.to/lastmile_qr_scan"}, "fusion_lon": 0.0, "type": "electric_scooter", "bike_id": "2db9f897e53ec88805732b37786b6ab0", "name": "2db9f897e53ec88805732b37786b6ab0"}, {"lon": -77.0193985, "is_disabled": 0, "lat": 38.90455333333333, "fusion_lat": 0.0, "is_reserved": 0, "rental_uris": {"ios": "https://dc.lft.to/lastmile_qr_scan", "android": "https://dc.lft.to/lastmile_qr_scan"}, "fusion_lon": 0.0, "type": "electric_scooter", "bike_id": "9ad255d1bc72317835fb367d55eeb05f", "name": "9ad255d1bc72317835fb367d55eeb05f"}, {"lon": -77.04882583333334, "is_disabled": 0, "lat": 38.903097, "fusion_lat": 0.0, "is_reserved": 0, "rental_uris": {"ios": "https://dc.lft.to/lastmile_qr_scan", "android": "https://dc.lft.to/lastmile_qr_scan"}, "fusion_lon": 0.0, "type": "electric_scooter", "bike_id": "08e0af581508c0f4aff5ad3adda48ca0", "name": "08e0af581508c0f4aff5ad3adda48ca0"}, {"lon": -77.0198615, "is_disabled": 0, "lat": 38.9141775, "fusion_lat": 0.0, "is_reserved": 0, "rental_uris": {"ios": "https://dc.lft.to/lastmile_qr_scan", "android": "https://dc.lft.to/lastmile_qr_scan"}, "fusion_lon": 0.0, "type": "electric_scooter", "bike_id": "499bff1f31a6c35cbdb6db7c2cff62d0", "name": "499bff1f31a6c35cbdb6db7c2cff62d0"}, {"lon": -76.99036, "is_disabled": 0, "lat": 38.92871133333333, "fusion_lat": 0.0, "is_reserved": 0, "rental_uris": {"ios": "https://dc.lft.to/lastmile_qr_scan", "android": "https://dc.lft.to/lastmile_qr_scan"}, "fusion_lon": 0.0, "type": "electric_scooter", "bike_id": "556d62cf827941d8ed610e6fdaa5a64c", "name": "556d62cf827941d8ed610e6fdaa5a64c"}, {"lon": -77.01210333333333, "is_disabled": 0, "lat": 38.91716733333333, "fusion_lat": 0.0, "is_reserved": 0, "rental_uris": {"ios": "https://dc.lft.to/lastmile_qr_scan", "android": "https://dc.lft.to/lastmile_qr_scan"}, "fusion_lon": 0.0, "type": "electric_scooter", "bike_id": "34696360aa7ac50d9e2141c5d1bcaaf7", "name": "34696360aa7ac50d9e2141c5d1bcaaf7"}, {"lon": -77.02173033333334, "is_disabled": 0, "lat": 38.911088, "fusion_lat": 0.0, "is_reserved": 0, "rental_uris": {"ios": "https://dc.lft.to/lastmile_qr_scan", "android": "https://dc.lft.to/lastmile_qr_scan"}, "fusion_lon": 0.0, "type": "electric_scooter", "bike_id": "d6a72e5e27b45e5f54a82feeecf83fc0", "name": "d6a72e5e27b45e5f54a82feeecf83fc0"}, {"lon": -76.92132083333334, "is_disabled": 0, "lat": 39.01372283333333, "fusion_lat": 0.0, "is_reserved": 0, "rental_uris": {"ios": "https://dc.lft.to/lastmile_qr_scan", "android": "https://dc.lft.to/lastmile_qr_scan"}, "fusion_lon": 0.0, "type": "electric_bike", "bike_id": "74f07d7080e53517bedb13d61e41c776", "name": "74f07d7080e53517bedb13d61e41c776"}, {"lon": -76.99512466666667, "is_disabled": 0, "lat": 38.9063955, "fusion_lat": 0.0, "is_reserved": 0, "rental_uris": {"ios": "https://dc.lft.to/lastmile_qr_scan", "android": "https://dc.lft.to/lastmile_qr_scan"}, "fusion_lon": 0.0, "type": "electric_scooter", "bike_id": "b2a5a61e3d853d4900a81f82eaa77241", "name": "b2a5a61e3d853d4900a81f82eaa77241"}, {"lon": -77.03664583333334, "is_disabled": 0, "lat": 38.92266266666667, "fusion_lat": 0.0, "is_reserved": 0, "rental_uris": {"ios": "https://dc.lft.to/lastmile_qr_scan", "android": "https://dc.lft.to/lastmile_qr_scan"}, "fusion_lon": 0.0, "type": "electric_scooter", "bike_id": "9e0fd212fab7613a0f94f488e7dd6ef6", "name": "9e0fd212fab7613a0f94f488e7dd6ef6"}, {"lon": -77.01772766666667, "is_disabled": 0, "lat": 38.88706283333333, "fusion_lat": 0.0, "is_reserved": 0, "rental_uris": {"ios": "https://dc.lft.to/lastmile_qr_scan", "android": "https://dc.lft.to/lastmile_qr_scan"}, "fusion_lon": 0.0, "type": "electric_scooter", "bike_id": "9141b1ce7cb931839a8335bf7aaa6e77", "name": "9141b1ce7cb931839a8335bf7aaa6e77"}, {"lon": -77.02116266666667, "is_disabled": 0, "lat": 38.91415466666667, "fusion_lat": 0.0, "is_reserved": 0, "rental_uris": {"ios": "https://dc.lft.to/lastmile_qr_scan", "android": "https://dc.lft.to/lastmile_qr_scan"}, "fusion_lon": 0.0, "type": "electric_scooter", "bike_id": "4fc9f61f3acf74636de39f2cfffd7f3d", "name": "4fc9f61f3acf74636de39f2cfffd7f3d"}, {"lon": -77.02955733333333, "is_disabled": 0, "lat": 38.91771466666667, "fusion_lat": 0.0, "is_reserved": 0, "rental_uris": {"ios": "https://dc.lft.to/lastmile_qr_scan", "android": "https://dc.lft.to/lastmile_qr_scan"}, "fusion_lon": 0.0, "type": "electric_scooter", "bike_id": "6aa85d1112510a0dc7a0086dedff0ff9", "name": "6aa85d1112510a0dc7a0086dedff0ff9"}, {"lon": -77.0058385, "is_disabled": 0, "lat": 38.885413, "fusion_lat": 0.0, "is_reserved": 0, "rental_uris": {"ios": "https://dc.lft.to/lastmile_qr_scan", "android": "https://dc.lft.to/lastmile_qr_scan"}, "fusion_lon": 0.0, "type": "electric_scooter", "bike_id": "ae2cfb7c956e8fbdb234c436e6f48680", "name": "ae2cfb7c956e8fbdb234c436e6f48680"}, {"lon": -77.01977216666667, "is_disabled": 0, "lat": 38.8804335, "fusion_lat": 0.0, "is_reserved": 0, "rental_uris": {"ios": "https://dc.lft.to/lastmile_qr_scan", "android": "https://dc.lft.to/lastmile_qr_scan"}, "fusion_lon": 0.0, "type": "electric_scooter", "bike_id": "ebe16534068b6b8008fe970ecd72beb1", "name": "ebe16534068b6b8008fe970ecd72beb1"}, {"lon": -77.03615916666666, "is_disabled": 0, "lat": 38.937424166666666, "fusion_lat": 0.0, "is_reserved": 0, "rental_uris": {"ios": "https://dc.lft.to/lastmile_qr_scan", "android": "https://dc.lft.to/lastmile_qr_scan"}, "fusion_lon": 0.0, "type": "electric_scooter", "bike_id": "28de1876eeda5ba4de387c77dfe330e9", "name": "28de1876eeda5ba4de387c77dfe330e9"}, {"lon": -77.04367633333334, "is_disabled": 0, "lat": 38.901324833333334, "fusion_lat": 0.0, "is_reserved": 0, "rental_uris": {"ios": "https://dc.lft.to/lastmile_qr_scan", "android": "https://dc.lft.to/lastmile_qr_scan"}, "fusion_lon": 0.0, "type": "electric_scooter", "bike_id": "861b8dfcdb8cecdcaea636adbeb6b193", "name": "861b8dfcdb8cecdcaea636adbeb6b193"}, {"lon": -77.03709116666667, "is_disabled": 0, "lat": 38.93510466666667, "fusion_lat": 0.0, "is_reserved": 0, "rental_uris": {"ios": "https://dc.lft.to/lastmile_qr_scan", "android": "https://dc.lft.to/lastmile_qr_scan"}, "fusion_lon": 0.0, "type": "electric_scooter", "bike_id": "c32ab39b65985b212647aba22ac20024", "name": "c32ab39b65985b212647aba22ac20024"}, {"lon": -77.04717283333333, "is_disabled": 0, "lat": 38.8971705, "fusion_lat": 0.0, "is_reserved": 0, "rental_uris": {"ios": "https://dc.lft.to/lastmile_qr_scan", "android": "https://dc.lft.to/lastmile_qr_scan"}, "fusion_lon": 0.0, "type": "electric_scooter", "bike_id": "944e5027cd629b75af870975fcbf0c32", "name": "944e5027cd629b75af870975fcbf0c32"}, {"lon": -77.046715, "is_disabled": 0, "lat": 38.90576866666667, "fusion_lat": 0.0, "is_reserved": 0, "rental_uris": {"ios": "https://dc.lft.to/lastmile_qr_scan", "android": "https://dc.lft.to/lastmile_qr_scan"}, "fusion_lon": 0.0, "type": "electric_scooter", "bike_id": "a9843c15f2404385349d3881e6b0e9c1", "name": "a9843c15f2404385349d3881e6b0e9c1"}, {"lon": -77.03477816666667, "is_disabled": 0, "lat": 38.9077835, "fusion_lat": 0.0, "is_reserved": 0, "rental_uris": {"ios": "https://dc.lft.to/lastmile_qr_scan", "android": "https://dc.lft.to/lastmile_qr_scan"}, "fusion_lon": 0.0, "type": "electric_scooter", "bike_id": "445f700dbdb4d41b2d27b3bdf0b3c7bd", "name": "445f700dbdb4d41b2d27b3bdf0b3c7bd"}, {"lon": -77.025903, "is_disabled": 0, "lat": 38.91417466666667, "fusion_lat": 0.0, "is_reserved": 0, "rental_uris": {"ios": "https://dc.lft.to/lastmile_qr_scan", "android": "https://dc.lft.to/lastmile_qr_scan"}, "fusion_lon": 0.0, "type": "electric_scooter", "bike_id": "31094734596a502e803b1b107fca9e49", "name": "31094734596a502e803b1b107fca9e49"}, {"lon": -77.03355533333334, "is_disabled": 0, "lat": 38.9284655, "fusion_lat": 0.0, "is_reserved": 0, "rental_uris": {"ios": "https://dc.lft.to/lastmile_qr_scan", "android": "https://dc.lft.to/lastmile_qr_scan"}, "fusion_lon": 0.0, "type": "electric_scooter", "bike_id": "4bb070d53618f0cc74bea72a47718a11", "name": "4bb070d53618f0cc74bea72a47718a11"}, {"lon": -77.04229783333334, "is_disabled": 0, "lat": 38.91332516666667, "fusion_lat": 0.0, "is_reserved": 0, "rental_uris": {"ios": "https://dc.lft.to/lastmile_qr_scan", "android": "https://dc.lft.to/lastmile_qr_scan"}, "fusion_lon": 0.0, "type": "electric_scooter", "bike_id": "1e11e5f4155171b8e0284f4f714f92eb", "name": "1e11e5f4155171b8e0284f4f714f92eb"}, {"lon": -77.04659733333334, "is_disabled": 0, "lat": 38.892237333333334, "fusion_lat": 0.0, "is_reserved": 0, "rental_uris": {"ios": "https://dc.lft.to/lastmile_qr_scan", "android": "https://dc.lft.to/lastmile_qr_scan"}, "fusion_lon": 0.0, "type": "electric_scooter", "bike_id": "b9773002f41927fbb415546883afac0a", "name": "b9773002f41927fbb415546883afac0a"}, {"lon": -77.03286, "is_disabled": 0, "lat": 38.928377833333336, "fusion_lat": 0.0, "is_reserved": 0, "rental_uris": {"ios": "https://dc.lft.to/lastmile_qr_scan", "android": "https://dc.lft.to/lastmile_qr_scan"}, "fusion_lon": 0.0, "type": "electric_scooter", "bike_id": "1c1b79520a47e1aecb4ed2020892dd39", "name": "1c1b79520a47e1aecb4ed2020892dd39"}, {"lon": -77.02696883333333, "is_disabled": 0, "lat": 38.908676, "fusion_lat": 0.0, "is_reserved": 0, "rental_uris": {"ios": "https://dc.lft.to/lastmile_qr_scan", "android": "https://dc.lft.to/lastmile_qr_scan"}, "fusion_lon": 0.0, "type": "electric_scooter", "bike_id": "fec1878f418401d273ddd17639b77472", "name": "fec1878f418401d273ddd17639b77472"}, {"lon": -77.03123616666667, "is_disabled": 0, "lat": 38.91560833333333, "fusion_lat": 0.0, "is_reserved": 0, "rental_uris": {"ios": "https://dc.lft.to/lastmile_qr_scan", "android": "https://dc.lft.to/lastmile_qr_scan"}, "fusion_lon": 0.0, "type": "electric_scooter", "bike_id": "6aaa5719aef69ed1fd858704cf3549e1", "name": "6aaa5719aef69ed1fd858704cf3549e1"}, {"lon": -76.907364, "is_disabled": 0, "lat": 38.896110666666665, "fusion_lat": 0.0, "is_reserved": 0, "rental_uris": {"ios": "https://dc.lft.to/lastmile_qr_scan", "android": "https://dc.lft.to/lastmile_qr_scan"}, "fusion_lon": 0.0, "type": "electric_bike", "bike_id": "59e227922038813584ae2812008a95a9", "name": "59e227922038813584ae2812008a95a9"}, {"lon": -77.042123, "is_disabled": 0, "lat": 38.923112, "fusion_lat": 0.0, "is_reserved": 0, "rental_uris": {"ios": "https://dc.lft.to/lastmile_qr_scan", "android": "https://dc.lft.to/lastmile_qr_scan"}, "fusion_lon": 0.0, "type": "electric_scooter", "bike_id": "30bd6252119950a86ae2e9a274b52715", "name": "30bd6252119950a86ae2e9a274b52715"}, {"lon": -77.04068966666667, "is_disabled": 0, "lat": 38.90506083333333, "fusion_lat": 0.0, "is_reserved": 0, "rental_uris": {"ios": "https://dc.lft.to/lastmile_qr_scan", "android": "https://dc.lft.to/lastmile_qr_scan"}, "fusion_lon": 0.0, "type": "electric_scooter", "bike_id": "6ca8041e395d7ae16fe9540a7aeb7514", "name": "6ca8041e395d7ae16fe9540a7aeb7514"}, {"lon": -77.024133, "is_disabled": 0, "lat": 38.919247166666665, "fusion_lat": 0.0, "is_reserved": 0, "rental_uris": {"ios": "https://dc.lft.to/lastmile_qr_scan", "android": "https://dc.lft.to/lastmile_qr_scan"}, "fusion_lon": 0.0, "type": "electric_scooter", "bike_id": "1a4ac2b6ede8115e45b2bc829eae8d68", "name": "1a4ac2b6ede8115e45b2bc829eae8d68"}, {"lon": -77.02841566666666, "is_disabled": 0, "lat": 38.94264, "fusion_lat": 0.0, "is_reserved": 0, "rental_uris": {"ios": "https://dc.lft.to/lastmile_qr_scan", "android": "https://dc.lft.to/lastmile_qr_scan"}, "fusion_lon": 0.0, "type": "electric_scooter", "bike_id": "08bbc463981bc887159d9960c2d0b9e9", "name": "08bbc463981bc887159d9960c2d0b9e9"}, {"lon": -77.01207633333334, "is_disabled": 0, "lat": 38.9197665, "fusion_lat": 0.0, "is_reserved": 0, "rental_uris": {"ios": "https://dc.lft.to/lastmile_qr_scan", "android": "https://dc.lft.to/lastmile_qr_scan"}, "fusion_lon": 0.0, "type": "electric_scooter", "bike_id": "f7f86f694b2a40d24e0faf038034e998", "name": "f7f86f694b2a40d24e0faf038034e998"}, {"lon": -77.068525, "is_disabled": 0, "lat": 38.91736216666666, "fusion_lat": 0.0, "is_reserved": 0, "rental_uris": {"ios": "https://dc.lft.to/lastmile_qr_scan", "android": "https://dc.lft.to/lastmile_qr_scan"}, "fusion_lon": 0.0, "type": "electric_scooter", "bike_id": "719e44e6ddee3ac59f9fa89d09f2ac34", "name": "719e44e6ddee3ac59f9fa89d09f2ac34"}, {"lon": -77.041483, "is_disabled": 0, "lat": 38.907152833333335, "fusion_lat": 0.0, "is_reserved": 0, "rental_uris": {"ios": "https://dc.lft.to/lastmile_qr_scan", "android": "https://dc.lft.to/lastmile_qr_scan"}, "fusion_lon": 0.0, "type": "electric_scooter", "bike_id": "2b9b8f692d278e221b0a0fc37af6514e", "name": "2b9b8f692d278e221b0a0fc37af6514e"}, {"lon": -77.0442315, "is_disabled": 0, "lat": 38.908920333333334, "fusion_lat": 0.0, "is_reserved": 0, "rental_uris": {"ios": "https://dc.lft.to/lastmile_qr_scan", "android": "https://dc.lft.to/lastmile_qr_scan"}, "fusion_lon": 0.0, "type": "electric_scooter", "bike_id": "e9fd95381d9019981953f7faa73b7f5e", "name": "e9fd95381d9019981953f7faa73b7f5e"}, {"lon": -77.02187116666667, "is_disabled": 0, "lat": 38.910359, "fusion_lat": 0.0, "is_reserved": 0, "rental_uris": {"ios": "https://dc.lft.to/lastmile_qr_scan", "android": "https://dc.lft.to/lastmile_qr_scan"}, "fusion_lon": 0.0, "type": "electric_scooter", "bike_id": "3b07e40b30ba76b95eaae299ce31b996", "name": "3b07e40b30ba76b95eaae299ce31b996"}, {"lon": -77.04447883333333, "is_disabled": 0, "lat": 38.91551, "fusion_lat": 0.0, "is_reserved": 0, "rental_uris": {"ios": "https://dc.lft.to/lastmile_qr_scan", "android": "https://dc.lft.to/lastmile_qr_scan"}, "fusion_lon": 0.0, "type": "electric_scooter", "bike_id": "8061ae666d0534c68d5294897b75ce9f", "name": "8061ae666d0534c68d5294897b75ce9f"}, {"lon": -76.99010383333334, "is_disabled": 0, "lat": 38.86509616666667, "fusion_lat": 0.0, "is_reserved": 0, "rental_uris": {"ios": "https://dc.lft.to/lastmile_qr_scan", "android": "https://dc.lft.to/lastmile_qr_scan"}, "fusion_lon": 0.0, "type": "electric_scooter", "bike_id": "33d57acab368322fed2c844da5c0cb9f", "name": "33d57acab368322fed2c844da5c0cb9f"}, {"lon": -77.017672, "is_disabled": 0, "lat": 38.883947666666664, "fusion_lat": 0.0, "is_reserved": 0, "rental_uris": {"ios": "https://dc.lft.to/lastmile_qr_scan", "android": "https://dc.lft.to/lastmile_qr_scan"}, "fusion_lon": 0.0, "type": "electric_scooter", "bike_id": "b0ecc8a70967b25e0175365a7822516f", "name": "b0ecc8a70967b25e0175365a7822516f"}, {"lon": -77.02838016666666, "is_disabled": 0, "lat": 38.94259916666667, "fusion_lat": 0.0, "is_reserved": 0, "rental_uris": {"ios": "https://dc.lft.to/lastmile_qr_scan", "android": "https://dc.lft.to/lastmile_qr_scan"}, "fusion_lon": 0.0, "type": "electric_bike", "bike_id": "2de2f8d846d7d0db74b0f1e9e0fe5c74", "name": "2de2f8d846d7d0db74b0f1e9e0fe5c74"}, {"lon": -77.027807, "is_disabled": 0, "lat": 38.92762666666667, "fusion_lat": 0.0, "is_reserved": 0, "rental_uris": {"ios": "https://dc.lft.to/lastmile_qr_scan", "android": "https://dc.lft.to/lastmile_qr_scan"}, "fusion_lon": 0.0, "type": "electric_scooter", "bike_id": "1a4f1cf1e0b1f329233542b6f14c87ad", "name": "1a4f1cf1e0b1f329233542b6f14c87ad"}, {"lon": -77.05032133333333, "is_disabled": 0, "lat": 38.92365366666667, "fusion_lat": 0.0, "is_reserved": 0, "rental_uris": {"ios": "https://dc.lft.to/lastmile_qr_scan", "android": "https://dc.lft.to/lastmile_qr_scan"}, "fusion_lon": 0.0, "type": "electric_scooter", "bike_id": "f4cfdca2f625593ebf6af6af0a615e1c", "name": "f4cfdca2f625593ebf6af6af0a615e1c"}, {"lon": -77.02715783333333, "is_disabled": 0, "lat": 38.927634166666664, "fusion_lat": 0.0, "is_reserved": 0, "rental_uris": {"ios": "https://dc.lft.to/lastmile_qr_scan", "android": "https://dc.lft.to/lastmile_qr_scan"}, "fusion_lon": 0.0, "type": "electric_scooter", "bike_id": "837eec0b167558d98c20b64b808e1e5c", "name": "837eec0b167558d98c20b64b808e1e5c"}, {"lon": -77.0217705, "is_disabled": 0, "lat": 38.90209, "fusion_lat": 0.0, "is_reserved": 0, "rental_uris": {"ios": "https://dc.lft.to/lastmile_qr_scan", "android": "https://dc.lft.to/lastmile_qr_scan"}, "fusion_lon": 0.0, "type": "electric_scooter", "bike_id": "cdbf7bcd6d5aa29de89e0a7cf136a5e1", "name": "cdbf7bcd6d5aa29de89e0a7cf136a5e1"}, {"lon": -77.03180816666666, "is_disabled": 0, "lat": 38.924851333333336, "fusion_lat": 0.0, "is_reserved": 0, "rental_uris": {"ios": "https://dc.lft.to/lastmile_qr_scan", "android": "https://dc.lft.to/lastmile_qr_scan"}, "fusion_lon": 0.0, "type": "electric_scooter", "bike_id": "4a32981122a94d058a5a16b82e0dae67", "name": "4a32981122a94d058a5a16b82e0dae67"}, {"lon": -77.05487, "is_disabled": 0, "lat": 38.90862833333333, "fusion_lat": 0.0, "is_reserved": 0, "rental_uris": {"ios": "https://dc.lft.to/lastmile_qr_scan", "android": "https://dc.lft.to/lastmile_qr_scan"}, "fusion_lon": 0.0, "type": "electric_scooter", "bike_id": "d3b485aa5ca598325802eeb2d251d552", "name": "d3b485aa5ca598325802eeb2d251d552"}, {"lon": -76.93139683333334, "is_disabled": 0, "lat": 38.876578333333335, "fusion_lat": 0.0, "is_reserved": 0, "rental_uris": {"ios": "https://dc.lft.to/lastmile_qr_scan", "android": "https://dc.lft.to/lastmile_qr_scan"}, "fusion_lon": 0.0, "type": "electric_scooter", "bike_id": "700b229e67c6ce61c63ec8415b4dc053", "name": "700b229e67c6ce61c63ec8415b4dc053"}, {"lon": -77.0225115, "is_disabled": 0, "lat": 38.89601916666667, "fusion_lat": 0.0, "is_reserved": 0, "rental_uris": {"ios": "https://dc.lft.to/lastmile_qr_scan", "android": "https://dc.lft.to/lastmile_qr_scan"}, "fusion_lon": 0.0, "type": "electric_scooter", "bike_id": "0de61837392627a72cf161894377091e", "name": "0de61837392627a72cf161894377091e"}, {"lon": -77.02374, "is_disabled": 0, "lat": 38.90725183333333, "fusion_lat": 0.0, "is_reserved": 0, "rental_uris": {"ios": "https://dc.lft.to/lastmile_qr_scan", "android": "https://dc.lft.to/lastmile_qr_scan"}, "fusion_lon": 0.0, "type": "electric_scooter", "bike_id": "9b17fcb70f46434f9e5a5ec385047a48", "name": "9b17fcb70f46434f9e5a5ec385047a48"}, {"lon": -77.02375383333333, "is_disabled": 0, "lat": 38.90730216666667, "fusion_lat": 0.0, "is_reserved": 0, "rental_uris": {"ios": "https://dc.lft.to/lastmile_qr_scan", "android": "https://dc.lft.to/lastmile_qr_scan"}, "fusion_lon": 0.0, "type": "electric_scooter", "bike_id": "16f3fdfd9b2cc0ee13da11c5b8f47cd5", "name": "16f3fdfd9b2cc0ee13da11c5b8f47cd5"}, {"lon": -77.02713066666666, "is_disabled": 0, "lat": 38.906665333333336, "fusion_lat": 0.0, "is_reserved": 0, "rental_uris": {"ios": "https://dc.lft.to/lastmile_qr_scan", "android": "https://dc.lft.to/lastmile_qr_scan"}, "fusion_lon": 0.0, "type": "electric_scooter", "bike_id": "840775da7cba5b4d9e4206827c8917bb", "name": "840775da7cba5b4d9e4206827c8917bb"}, {"lon": -76.99800416666666, "is_disabled": 0, "lat": 38.90855583333333, "fusion_lat": 0.0, "is_reserved": 0, "rental_uris": {"ios": "https://dc.lft.to/lastmile_qr_scan", "android": "https://dc.lft.to/lastmile_qr_scan"}, "fusion_lon": 0.0, "type": "electric_scooter", "bike_id": "6e078d8cd79df3f0b3db91f4dcde0377", "name": "6e078d8cd79df3f0b3db91f4dcde0377"}, {"lon": -77.03603266666667, "is_disabled": 0, "lat": 38.934704833333335, "fusion_lat": 0.0, "is_reserved": 0, "rental_uris": {"ios": "https://dc.lft.to/lastmile_qr_scan", "android": "https://dc.lft.to/lastmile_qr_scan"}, "fusion_lon": 0.0, "type": "electric_scooter", "bike_id": "ab96c3b583de202b7de20d7cd0f87237", "name": "ab96c3b583de202b7de20d7cd0f87237"}, {"lon": -77.0075675, "is_disabled": 0, "lat": 38.87113933333333, "fusion_lat": 0.0, "is_reserved": 0, "rental_uris": {"ios": "https://dc.lft.to/lastmile_qr_scan", "android": "https://dc.lft.to/lastmile_qr_scan"}, "fusion_lon": 0.0, "type": "electric_scooter", "bike_id": "80e9614f5a045af19cc6a355695072c8", "name": "80e9614f5a045af19cc6a355695072c8"}, {"lon": -77.02985033333333, "is_disabled": 0, "lat": 38.934424, "fusion_lat": 0.0, "is_reserved": 0, "rental_uris": {"ios": "https://dc.lft.to/lastmile_qr_scan", "android": "https://dc.lft.to/lastmile_qr_scan"}, "fusion_lon": 0.0, "type": "electric_scooter", "bike_id": "6d4faeae9d2dda90ee3dbd53db009d95", "name": "6d4faeae9d2dda90ee3dbd53db009d95"}, {"lon": -77.03394966666667, "is_disabled": 0, "lat": 38.9388015, "fusion_lat": 0.0, "is_reserved": 0, "rental_uris": {"ios": "https://dc.lft.to/lastmile_qr_scan", "android": "https://dc.lft.to/lastmile_qr_scan"}, "fusion_lon": 0.0, "type": "electric_scooter", "bike_id": "c976437cc069bfedb204595fa841219c", "name": "c976437cc069bfedb204595fa841219c"}, {"lon": -76.99661183333333, "is_disabled": 0, "lat": 38.860079999999996, "fusion_lat": 0.0, "is_reserved": 0, "rental_uris": {"ios": "https://dc.lft.to/lastmile_qr_scan", "android": "https://dc.lft.to/lastmile_qr_scan"}, "fusion_lon": 0.0, "type": "electric_scooter", "bike_id": "728451fb397a71149f53bcda736fd51d", "name": "728451fb397a71149f53bcda736fd51d"}, {"lon": -77.03326266666667, "is_disabled": 0, "lat": 38.89823766666667, "fusion_lat": 0.0, "is_reserved": 0, "rental_uris": {"ios": "https://dc.lft.to/lastmile_qr_scan", "android": "https://dc.lft.to/lastmile_qr_scan"}, "fusion_lon": 0.0, "type": "electric_scooter", "bike_id": "031e4c9dd9b71dce0d0400b20caeca7a", "name": "031e4c9dd9b71dce0d0400b20caeca7a"}, {"lon": -76.98177366666667, "is_disabled": 0, "lat": 38.86962233333333, "fusion_lat": 0.0, "is_reserved": 0, "rental_uris": {"ios": "https://dc.lft.to/lastmile_qr_scan", "android": "https://dc.lft.to/lastmile_qr_scan"}, "fusion_lon": 0.0, "type": "electric_scooter", "bike_id": "f4751f1dc3cb26f152da39f88661d939", "name": "f4751f1dc3cb26f152da39f88661d939"}, {"lon": -77.02597633333333, "is_disabled": 0, "lat": 38.927915166666665, "fusion_lat": 0.0, "is_reserved": 0, "rental_uris": {"ios": "https://dc.lft.to/lastmile_qr_scan", "android": "https://dc.lft.to/lastmile_qr_scan"}, "fusion_lon": 0.0, "type": "electric_scooter", "bike_id": "35f218efd473378eb20197930a6f59f8", "name": "35f218efd473378eb20197930a6f59f8"}, {"lon": -77.0341575, "is_disabled": 0, "lat": 38.9285465, "fusion_lat": 0.0, "is_reserved": 0, "rental_uris": {"ios": "https://dc.lft.to/lastmile_qr_scan", "android": "https://dc.lft.to/lastmile_qr_scan"}, "fusion_lon": 0.0, "type": "electric_scooter", "bike_id": "99e7b3bb9a6ef8737e1ca5debd538960", "name": "99e7b3bb9a6ef8737e1ca5debd538960"}, {"lon": -77.04117566666666, "is_disabled": 0, "lat": 38.91066466666667, "fusion_lat": 0.0, "is_reserved": 0, "rental_uris": {"ios": "https://dc.lft.to/lastmile_qr_scan", "android": "https://dc.lft.to/lastmile_qr_scan"}, "fusion_lon": 0.0, "type": "electric_scooter", "bike_id": "406f10869278c45869c5e5b0b094c911", "name": "406f10869278c45869c5e5b0b094c911"}, {"lon": -77.03929816666667, "is_disabled": 0, "lat": 38.8985785, "fusion_lat": 0.0, "is_reserved": 0, "rental_uris": {"ios": "https://dc.lft.to/lastmile_qr_scan", "android": "https://dc.lft.to/lastmile_qr_scan"}, "fusion_lon": 0.0, "type": "electric_scooter", "bike_id": "cc7400c86b9220e58afd783841ff40a6", "name": "cc7400c86b9220e58afd783841ff40a6"}, {"lon": -77.041776, "is_disabled": 0, "lat": 38.91391266666667, "fusion_lat": 0.0, "is_reserved": 0, "rental_uris": {"ios": "https://dc.lft.to/lastmile_qr_scan", "android": "https://dc.lft.to/lastmile_qr_scan"}, "fusion_lon": 0.0, "type": "electric_scooter", "bike_id": "b212c5f2dd2f41fd8e99a61226ad5c3b", "name": "b212c5f2dd2f41fd8e99a61226ad5c3b"}, {"lon": -76.97837833333334, "is_disabled": 0, "lat": 38.8984785, "fusion_lat": 0.0, "is_reserved": 0, "rental_uris": {"ios": "https://dc.lft.to/lastmile_qr_scan", "android": "https://dc.lft.to/lastmile_qr_scan"}, "fusion_lon": 0.0, "type": "electric_scooter", "bike_id": "888ac75fcca81a7d13e79c34f64382c6", "name": "888ac75fcca81a7d13e79c34f64382c6"}, {"lon": -77.011473, "is_disabled": 0, "lat": 38.896418833333335, "fusion_lat": 0.0, "is_reserved": 0, "rental_uris": {"ios": "https://dc.lft.to/lastmile_qr_scan", "android": "https://dc.lft.to/lastmile_qr_scan"}, "fusion_lon": 0.0, "type": "electric_scooter", "bike_id": "f230f7d2bb94e227b22951295300bc87", "name": "f230f7d2bb94e227b22951295300bc87"}, {"lon": -77.03860266666666, "is_disabled": 0, "lat": 38.90717383333333, "fusion_lat": 0.0, "is_reserved": 0, "rental_uris": {"ios": "https://dc.lft.to/lastmile_qr_scan", "android": "https://dc.lft.to/lastmile_qr_scan"}, "fusion_lon": 0.0, "type": "electric_scooter", "bike_id": "60548f3dffa6dd9d66da87b08c07806a", "name": "60548f3dffa6dd9d66da87b08c07806a"}, {"lon": -77.02785983333334, "is_disabled": 0, "lat": 38.927633666666665, "fusion_lat": 0.0, "is_reserved": 0, "rental_uris": {"ios": "https://dc.lft.to/lastmile_qr_scan", "android": "https://dc.lft.to/lastmile_qr_scan"}, "fusion_lon": 0.0, "type": "electric_scooter", "bike_id": "f7354ad16dd4f551a2a7c9f8eee52b5d", "name": "f7354ad16dd4f551a2a7c9f8eee52b5d"}, {"lon": -77.232583, "is_disabled": 0, "lat": 38.87257866666667, "fusion_lat": 0.0, "is_reserved": 0, "rental_uris": {"ios": "https://dc.lft.to/lastmile_qr_scan", "android": "https://dc.lft.to/lastmile_qr_scan"}, "fusion_lon": 0.0, "type": "electric_bike", "bike_id": "892f820da8dc3625b1a81f2d16f19502", "name": "892f820da8dc3625b1a81f2d16f19502"}, {"lon": -77.05056666666667, "is_disabled": 0, "lat": 38.90504833333333, "fusion_lat": 0.0, "is_reserved": 0, "rental_uris": {"ios": "https://dc.lft.to/lastmile_qr_scan", "android": "https://dc.lft.to/lastmile_qr_scan"}, "fusion_lon": 0.0, "type": "electric_scooter", "bike_id": "165c3f23b79abf01a79177f88ea2c3d2", "name": "165c3f23b79abf01a79177f88ea2c3d2"}, {"lon": -77.048166, "is_disabled": 0, "lat": 38.909502, "fusion_lat": 0.0, "is_reserved": 0, "rental_uris": {"ios": "https://dc.lft.to/lastmile_qr_scan", "android": "https://dc.lft.to/lastmile_qr_scan"}, "fusion_lon": 0.0, "type": "electric_scooter", "bike_id": "3b85b946faeb0176701ce727b65cf09e", "name": "3b85b946faeb0176701ce727b65cf09e"}, {"lon": -77.01850233333333, "is_disabled": 0, "lat": 38.90967166666667, "fusion_lat": 0.0, "is_reserved": 0, "rental_uris": {"ios": "https://dc.lft.to/lastmile_qr_scan", "android": "https://dc.lft.to/lastmile_qr_scan"}, "fusion_lon": 0.0, "type": "electric_scooter", "bike_id": "5e19c6969f6f0797fd58dcd0cacbf83a", "name": "5e19c6969f6f0797fd58dcd0cacbf83a"}, {"lon": -76.98880033333333, "is_disabled": 0, "lat": 38.866587333333335, "fusion_lat": 0.0, "is_reserved": 0, "rental_uris": {"ios": "https://dc.lft.to/lastmile_qr_scan", "android": "https://dc.lft.to/lastmile_qr_scan"}, "fusion_lon": 0.0, "type": "electric_scooter", "bike_id": "5c1fbe3875eab9ee554da8c167b58fa3", "name": "5c1fbe3875eab9ee554da8c167b58fa3"}, {"lon": -77.01496933333334, "is_disabled": 0, "lat": 38.91755066666666, "fusion_lat": 0.0, "is_reserved": 0, "rental_uris": {"ios": "https://dc.lft.to/lastmile_qr_scan", "android": "https://dc.lft.to/lastmile_qr_scan"}, "fusion_lon": 0.0, "type": "electric_scooter", "bike_id": "355ed653a91822c98aed457d384df005", "name": "355ed653a91822c98aed457d384df005"}, {"lon": -77.0078335, "is_disabled": 0, "lat": 38.87894083333333, "fusion_lat": 0.0, "is_reserved": 0, "rental_uris": {"ios": "https://dc.lft.to/lastmile_qr_scan", "android": "https://dc.lft.to/lastmile_qr_scan"}, "fusion_lon": 0.0, "type": "electric_scooter", "bike_id": "a3b786f899f18cd2b6df4c8aea5cfb20", "name": "a3b786f899f18cd2b6df4c8aea5cfb20"}, {"lon": -77.22888866666666, "is_disabled": 0, "lat": 38.90955966666667, "fusion_lat": 0.0, "is_reserved": 0, "rental_uris": {"ios": "https://dc.lft.to/lastmile_qr_scan", "android": "https://dc.lft.to/lastmile_qr_scan"}, "fusion_lon": 0.0, "type": "electric_bike", "bike_id": "10c69fbd6eab10b57ab864ee3e105d00", "name": "10c69fbd6eab10b57ab864ee3e105d00"}, {"lon": -77.04234466666666, "is_disabled": 0, "lat": 38.9204185, "fusion_lat": 0.0, "is_reserved": 0, "rental_uris": {"ios": "https://dc.lft.to/lastmile_qr_scan", "android": "https://dc.lft.to/lastmile_qr_scan"}, "fusion_lon": 0.0, "type": "electric_scooter", "bike_id": "651f4439679458da6615f7d7d556bf8e", "name": "651f4439679458da6615f7d7d556bf8e"}, {"lon": -77.06400966666666, "is_disabled": 0, "lat": 38.944219333333336, "fusion_lat": 0.0, "is_reserved": 0, "rental_uris": {"ios": "https://dc.lft.to/lastmile_qr_scan", "android": "https://dc.lft.to/lastmile_qr_scan"}, "fusion_lon": 0.0, "type": "electric_scooter", "bike_id": "65d0b0890ddc85148b3d6ad10466a194", "name": "65d0b0890ddc85148b3d6ad10466a194"}, {"lon": -77.00392283333333, "is_disabled": 0, "lat": 38.89546133333333, "fusion_lat": 0.0, "is_reserved": 0, "rental_uris": {"ios": "https://dc.lft.to/lastmile_qr_scan", "android": "https://dc.lft.to/lastmile_qr_scan"}, "fusion_lon": 0.0, "type": "electric_scooter", "bike_id": "e5bd5bf01f013bdf09e619feec75593e", "name": "e5bd5bf01f013bdf09e619feec75593e"}, {"lon": -77.02802783333334, "is_disabled": 0, "lat": 38.908887, "fusion_lat": 0.0, "is_reserved": 0, "rental_uris": {"ios": "https://dc.lft.to/lastmile_qr_scan", "android": "https://dc.lft.to/lastmile_qr_scan"}, "fusion_lon": 0.0, "type": "electric_scooter", "bike_id": "75a219b2256d96ae68479f3798172e79", "name": "75a219b2256d96ae68479f3798172e79"}, {"lon": -77.02288616666667, "is_disabled": 0, "lat": 38.895003833333334, "fusion_lat": 0.0, "is_reserved": 0, "rental_uris": {"ios": "https://dc.lft.to/lastmile_qr_scan", "android": "https://dc.lft.to/lastmile_qr_scan"}, "fusion_lon": 0.0, "type": "electric_scooter", "bike_id": "a8e8506477a1cc3887a29f425a5cf5c6", "name": "a8e8506477a1cc3887a29f425a5cf5c6"}, {"lon": -77.02206066666666, "is_disabled": 0, "lat": 38.902035166666664, "fusion_lat": 0.0, "is_reserved": 0, "rental_uris": {"ios": "https://dc.lft.to/lastmile_qr_scan", "android": "https://dc.lft.to/lastmile_qr_scan"}, "fusion_lon": 0.0, "type": "electric_scooter", "bike_id": "faa3392256ddebb84ae69e274c4790f6", "name": "faa3392256ddebb84ae69e274c4790f6"}, {"lon": -77.04138616666667, "is_disabled": 0, "lat": 38.9070995, "fusion_lat": 0.0, "is_reserved": 0, "rental_uris": {"ios": "https://dc.lft.to/lastmile_qr_scan", "android": "https://dc.lft.to/lastmile_qr_scan"}, "fusion_lon": 0.0, "type": "electric_scooter", "bike_id": "ebb812f75a4269e0cf34f0ec7cfc5163", "name": "ebb812f75a4269e0cf34f0ec7cfc5163"}, {"lon": -76.96113883333334, "is_disabled": 0, "lat": 38.91858833333333, "fusion_lat": 0.0, "is_reserved": 0, "rental_uris": {"ios": "https://dc.lft.to/lastmile_qr_scan", "android": "https://dc.lft.to/lastmile_qr_scan"}, "fusion_lon": 0.0, "type": "electric_scooter", "bike_id": "f8eb625db5ec49435c555652e16ec1b0", "name": "f8eb625db5ec49435c555652e16ec1b0"}, {"lon": -77.050433, "is_disabled": 0, "lat": 38.92342816666667, "fusion_lat": 0.0, "is_reserved": 0, "rental_uris": {"ios": "https://dc.lft.to/lastmile_qr_scan", "android": "https://dc.lft.to/lastmile_qr_scan"}, "fusion_lon": 0.0, "type": "electric_scooter", "bike_id": "84fdc5536771ace5f247fff98029c9f3", "name": "84fdc5536771ace5f247fff98029c9f3"}, {"lon": -77.01767066666666, "is_disabled": 0, "lat": 38.920956333333336, "fusion_lat": 0.0, "is_reserved": 0, "rental_uris": {"ios": "https://dc.lft.to/lastmile_qr_scan", "android": "https://dc.lft.to/lastmile_qr_scan"}, "fusion_lon": 0.0, "type": "electric_scooter", "bike_id": "5c2bb919dc45483547b55c3a2fb4a5cf", "name": "5c2bb919dc45483547b55c3a2fb4a5cf"}, {"lon": -77.04462633333333, "is_disabled": 0, "lat": 38.91174316666667, "fusion_lat": 0.0, "is_reserved": 0, "rental_uris": {"ios": "https://dc.lft.to/lastmile_qr_scan", "android": "https://dc.lft.to/lastmile_qr_scan"}, "fusion_lon": 0.0, "type": "electric_scooter", "bike_id": "784fd6b54812bfa245a5c9df94b8a118", "name": "784fd6b54812bfa245a5c9df94b8a118"}, {"lon": -77.03016966666667, "is_disabled": 0, "lat": 38.93487916666667, "fusion_lat": 0.0, "is_reserved": 0, "rental_uris": {"ios": "https://dc.lft.to/lastmile_qr_scan", "android": "https://dc.lft.to/lastmile_qr_scan"}, "fusion_lon": 0.0, "type": "electric_scooter", "bike_id": "21b0e3c5421520b82bbe152b0a6a1f65", "name": "21b0e3c5421520b82bbe152b0a6a1f65"}, {"lon": -76.9972625, "is_disabled": 0, "lat": 38.9102695, "fusion_lat": 0.0, "is_reserved": 0, "rental_uris": {"ios": "https://dc.lft.to/lastmile_qr_scan", "android": "https://dc.lft.to/lastmile_qr_scan"}, "fusion_lon": 0.0, "type": "electric_scooter", "bike_id": "c480babbf2bdcf42db81cbbe5a7e4f09", "name": "c480babbf2bdcf42db81cbbe5a7e4f09"}, {"lon": -77.02397083333334, "is_disabled": 0, "lat": 38.919725, "fusion_lat": 0.0, "is_reserved": 0, "rental_uris": {"ios": "https://dc.lft.to/lastmile_qr_scan", "android": "https://dc.lft.to/lastmile_qr_scan"}, "fusion_lon": 0.0, "type": "electric_scooter", "bike_id": "67aba4736b7256b2e288430a0bb9000e", "name": "67aba4736b7256b2e288430a0bb9000e"}, {"lon": -77.0207925, "is_disabled": 0, "lat": 38.881803, "fusion_lat": 0.0, "is_reserved": 0, "rental_uris": {"ios": "https://dc.lft.to/lastmile_qr_scan", "android": "https://dc.lft.to/lastmile_qr_scan"}, "fusion_lon": 0.0, "type": "electric_scooter", "bike_id": "df415b21be1533f974300315e3c6834b", "name": "df415b21be1533f974300315e3c6834b"}, {"lon": -77.0335795, "is_disabled": 0, "lat": 38.920437, "fusion_lat": 0.0, "is_reserved": 0, "rental_uris": {"ios": "https://dc.lft.to/lastmile_qr_scan", "android": "https://dc.lft.to/lastmile_qr_scan"}, "fusion_lon": 0.0, "type": "electric_scooter", "bike_id": "3f4ae5b4ac4c2aa4aba9935e8931a363", "name": "3f4ae5b4ac4c2aa4aba9935e8931a363"}, {"lon": -76.92657733333333, "is_disabled": 0, "lat": 38.90170883333333, "fusion_lat": 0.0, "is_reserved": 0, "rental_uris": {"ios": "https://dc.lft.to/lastmile_qr_scan", "android": "https://dc.lft.to/lastmile_qr_scan"}, "fusion_lon": 0.0, "type": "electric_scooter", "bike_id": "ca287f5f4e545ba98ce0d2d5698e40c0", "name": "ca287f5f4e545ba98ce0d2d5698e40c0"}, {"lon": -77.02791233333333, "is_disabled": 0, "lat": 38.8992405, "fusion_lat": 0.0, "is_reserved": 0, "rental_uris": {"ios": "https://dc.lft.to/lastmile_qr_scan", "android": "https://dc.lft.to/lastmile_qr_scan"}, "fusion_lon": 0.0, "type": "electric_scooter", "bike_id": "9d2bd20863a704b905a6fcaaa154db6a", "name": "9d2bd20863a704b905a6fcaaa154db6a"}, {"lon": -77.05093433333333, "is_disabled": 0, "lat": 38.92345066666667, "fusion_lat": 0.0, "is_reserved": 0, "rental_uris": {"ios": "https://dc.lft.to/lastmile_qr_scan", "android": "https://dc.lft.to/lastmile_qr_scan"}, "fusion_lon": 0.0, "type": "electric_scooter", "bike_id": "1f66b5a929569b9d3769f8eac5c9e32f", "name": "1f66b5a929569b9d3769f8eac5c9e32f"}, {"lon": -77.00091366666666, "is_disabled": 0, "lat": 38.907599833333336, "fusion_lat": 0.0, "is_reserved": 0, "rental_uris": {"ios": "https://dc.lft.to/lastmile_qr_scan", "android": "https://dc.lft.to/lastmile_qr_scan"}, "fusion_lon": 0.0, "type": "electric_scooter", "bike_id": "3874ffe58374f369100379aeb269a854", "name": "3874ffe58374f369100379aeb269a854"}, {"lon": -77.03766533333334, "is_disabled": 0, "lat": 38.9156115, "fusion_lat": 0.0, "is_reserved": 0, "rental_uris": {"ios": "https://dc.lft.to/lastmile_qr_scan", "android": "https://dc.lft.to/lastmile_qr_scan"}, "fusion_lon": 0.0, "type": "electric_scooter", "bike_id": "28d8e7f9ae3a7882d498b351caa04456", "name": "28d8e7f9ae3a7882d498b351caa04456"}, {"lon": -77.04726783333334, "is_disabled": 0, "lat": 38.9133055, "fusion_lat": 0.0, "is_reserved": 0, "rental_uris": {"ios": "https://dc.lft.to/lastmile_qr_scan", "android": "https://dc.lft.to/lastmile_qr_scan"}, "fusion_lon": 0.0, "type": "electric_scooter", "bike_id": "9b97210be9363e890b0f51d2ae279489", "name": "9b97210be9363e890b0f51d2ae279489"}, {"lon": -77.0212075, "is_disabled": 0, "lat": 38.9300165, "fusion_lat": 0.0, "is_reserved": 0, "rental_uris": {"ios": "https://dc.lft.to/lastmile_qr_scan", "android": "https://dc.lft.to/lastmile_qr_scan"}, "fusion_lon": 0.0, "type": "electric_scooter", "bike_id": "d0838dfb26a9f29fef601fdfbaa7144f", "name": "d0838dfb26a9f29fef601fdfbaa7144f"}, {"lon": -77.0294335, "is_disabled": 0, "lat": 38.90225016666667, "fusion_lat": 0.0, "is_reserved": 0, "rental_uris": {"ios": "https://dc.lft.to/lastmile_qr_scan", "android": "https://dc.lft.to/lastmile_qr_scan"}, "fusion_lon": 0.0, "type": "electric_scooter", "bike_id": "cb9c1b3fca2d6f50c0ea48e3f03c5827", "name": "cb9c1b3fca2d6f50c0ea48e3f03c5827"}, {"lon": -77.01692266666667, "is_disabled": 0, "lat": 38.97494283333333, "fusion_lat": 0.0, "is_reserved": 0, "rental_uris": {"ios": "https://dc.lft.to/lastmile_qr_scan", "android": "https://dc.lft.to/lastmile_qr_scan"}, "fusion_lon": 0.0, "type": "electric_scooter", "bike_id": "e54cb47a73473191e9e707313fe08a4a", "name": "e54cb47a73473191e9e707313fe08a4a"}, {"lon": -77.03835433333333, "is_disabled": 0, "lat": 38.921646833333334, "fusion_lat": 0.0, "is_reserved": 0, "rental_uris": {"ios": "https://dc.lft.to/lastmile_qr_scan", "android": "https://dc.lft.to/lastmile_qr_scan"}, "fusion_lon": 0.0, "type": "electric_scooter", "bike_id": "411fe934d02e8c1ac6de0eba8399a2ac", "name": "411fe934d02e8c1ac6de0eba8399a2ac"}, {"lon": -77.02712316666667, "is_disabled": 0, "lat": 38.9067075, "fusion_lat": 0.0, "is_reserved": 0, "rental_uris": {"ios": "https://dc.lft.to/lastmile_qr_scan", "android": "https://dc.lft.to/lastmile_qr_scan"}, "fusion_lon": 0.0, "type": "electric_scooter", "bike_id": "4d991810327b738e965b44e403cda966", "name": "4d991810327b738e965b44e403cda966"}, {"lon": -77.03596116666667, "is_disabled": 0, "lat": 38.936764333333336, "fusion_lat": 0.0, "is_reserved": 0, "rental_uris": {"ios": "https://dc.lft.to/lastmile_qr_scan", "android": "https://dc.lft.to/lastmile_qr_scan"}, "fusion_lon": 0.0, "type": "electric_scooter", "bike_id": "4d061a8fcf43b98a047c2626b5b0d32a", "name": "4d061a8fcf43b98a047c2626b5b0d32a"}, {"lon": -77.00568116666666, "is_disabled": 0, "lat": 38.905952166666665, "fusion_lat": 0.0, "is_reserved": 0, "rental_uris": {"ios": "https://dc.lft.to/lastmile_qr_scan", "android": "https://dc.lft.to/lastmile_qr_scan"}, "fusion_lon": 0.0, "type": "electric_scooter", "bike_id": "75f1f8b7e0bdafb21546004154597416", "name": "75f1f8b7e0bdafb21546004154597416"}, {"lon": -77.03338266666667, "is_disabled": 0, "lat": 38.923520333333336, "fusion_lat": 0.0, "is_reserved": 0, "rental_uris": {"ios": "https://dc.lft.to/lastmile_qr_scan", "android": "https://dc.lft.to/lastmile_qr_scan"}, "fusion_lon": 0.0, "type": "electric_scooter", "bike_id": "f8d587e279ccde3adc6894638f0ee03c", "name": "f8d587e279ccde3adc6894638f0ee03c"}, {"lon": -77.00041116666667, "is_disabled": 0, "lat": 38.873794833333335, "fusion_lat": 0.0, "is_reserved": 0, "rental_uris": {"ios": "https://dc.lft.to/lastmile_qr_scan", "android": "https://dc.lft.to/lastmile_qr_scan"}, "fusion_lon": 0.0, "type": "electric_scooter", "bike_id": "cdd319d48529cb0144ec33ed939176bc", "name": "cdd319d48529cb0144ec33ed939176bc"}, {"lon": -77.03663816666666, "is_disabled": 0, "lat": 38.92259816666667, "fusion_lat": 0.0, "is_reserved": 0, "rental_uris": {"ios": "https://dc.lft.to/lastmile_qr_scan", "android": "https://dc.lft.to/lastmile_qr_scan"}, "fusion_lon": 0.0, "type": "electric_scooter", "bike_id": "505394899954aa48c35997753ea457d3", "name": "505394899954aa48c35997753ea457d3"}, {"lon": -77.02313333333333, "is_disabled": 0, "lat": 38.90951916666667, "fusion_lat": 0.0, "is_reserved": 0, "rental_uris": {"ios": "https://dc.lft.to/lastmile_qr_scan", "android": "https://dc.lft.to/lastmile_qr_scan"}, "fusion_lon": 0.0, "type": "electric_scooter", "bike_id": "967d3121b52cf9cf5df2e911a93a83d9", "name": "967d3121b52cf9cf5df2e911a93a83d9"}, {"lon": -77.04185783333334, "is_disabled": 0, "lat": 38.911307666666666, "fusion_lat": 0.0, "is_reserved": 0, "rental_uris": {"ios": "https://dc.lft.to/lastmile_qr_scan", "android": "https://dc.lft.to/lastmile_qr_scan"}, "fusion_lon": 0.0, "type": "electric_scooter", "bike_id": "1d814788c95fff4333d4cdda2499da04", "name": "1d814788c95fff4333d4cdda2499da04"}, {"lon": -77.02008333333333, "is_disabled": 0, "lat": 38.91405666666667, "fusion_lat": 0.0, "is_reserved": 0, "rental_uris": {"ios": "https://dc.lft.to/lastmile_qr_scan", "android": "https://dc.lft.to/lastmile_qr_scan"}, "fusion_lon": 0.0, "type": "electric_scooter", "bike_id": "3af6d927270eb08036b7b6e8f6acbeb8", "name": "3af6d927270eb08036b7b6e8f6acbeb8"}, {"lon": -77.02348266666667, "is_disabled": 0, "lat": 38.89601716666667, "fusion_lat": 0.0, "is_reserved": 0, "rental_uris": {"ios": "https://dc.lft.to/lastmile_qr_scan", "android": "https://dc.lft.to/lastmile_qr_scan"}, "fusion_lon": 0.0, "type": "electric_scooter", "bike_id": "c400177a4c1662b9c8559c43f81fdb5b", "name": "c400177a4c1662b9c8559c43f81fdb5b"}, {"lon": -77.0248805, "is_disabled": 0, "lat": 38.941849500000004, "fusion_lat": 0.0, "is_reserved": 0, "rental_uris": {"ios": "https://dc.lft.to/lastmile_qr_scan", "android": "https://dc.lft.to/lastmile_qr_scan"}, "fusion_lon": 0.0, "type": "electric_scooter", "bike_id": "9aca3e9e154a467d4c2c511195b0630b", "name": "9aca3e9e154a467d4c2c511195b0630b"}, {"lon": -77.00309333333334, "is_disabled": 0, "lat": 38.8771775, "fusion_lat": 0.0, "is_reserved": 0, "rental_uris": {"ios": "https://dc.lft.to/lastmile_qr_scan", "android": "https://dc.lft.to/lastmile_qr_scan"}, "fusion_lon": 0.0, "type": "electric_scooter", "bike_id": "018faef7dfebc5b0abf01c92325ff3c2", "name": "018faef7dfebc5b0abf01c92325ff3c2"}, {"lon": -77.04039066666667, "is_disabled": 0, "lat": 38.90351316666667, "fusion_lat": 0.0, "is_reserved": 0, "rental_uris": {"ios": "https://dc.lft.to/lastmile_qr_scan", "android": "https://dc.lft.to/lastmile_qr_scan"}, "fusion_lon": 0.0, "type": "electric_scooter", "bike_id": "a1d0e722210ecbb5cfd193ef6eaece75", "name": "a1d0e722210ecbb5cfd193ef6eaece75"}, {"lon": -77.05336, "is_disabled": 0, "lat": 38.9026195, "fusion_lat": 0.0, "is_reserved": 0, "rental_uris": {"ios": "https://dc.lft.to/lastmile_qr_scan", "android": "https://dc.lft.to/lastmile_qr_scan"}, "fusion_lon": 0.0, "type": "electric_scooter", "bike_id": "2f105cf625c0d9d23ad331d8623e7a55", "name": "2f105cf625c0d9d23ad331d8623e7a55"}, {"lon": -77.02239233333333, "is_disabled": 0, "lat": 38.922398333333334, "fusion_lat": 0.0, "is_reserved": 0, "rental_uris": {"ios": "https://dc.lft.to/lastmile_qr_scan", "android": "https://dc.lft.to/lastmile_qr_scan"}, "fusion_lon": 0.0, "type": "electric_scooter", "bike_id": "64f2268b5d0e2f4c7c1dada7ff1d8191", "name": "64f2268b5d0e2f4c7c1dada7ff1d8191"}, {"lon": -77.02310316666667, "is_disabled": 0, "lat": 38.91780333333333, "fusion_lat": 0.0, "is_reserved": 0, "rental_uris": {"ios": "https://dc.lft.to/lastmile_qr_scan", "android": "https://dc.lft.to/lastmile_qr_scan"}, "fusion_lon": 0.0, "type": "electric_scooter", "bike_id": "fc8f4756d6ff400d813bd086bd74b131", "name": "fc8f4756d6ff400d813bd086bd74b131"}, {"lon": -76.94895066666666, "is_disabled": 0, "lat": 38.895353166666666, "fusion_lat": 0.0, "is_reserved": 0, "rental_uris": {"ios": "https://dc.lft.to/lastmile_qr_scan", "android": "https://dc.lft.to/lastmile_qr_scan"}, "fusion_lon": 0.0, "type": "electric_scooter", "bike_id": "5b899709b10730b7b536272f9a30fddd", "name": "5b899709b10730b7b536272f9a30fddd"}, {"lon": -76.94894783333334, "is_disabled": 0, "lat": 38.89532916666667, "fusion_lat": 0.0, "is_reserved": 0, "rental_uris": {"ios": "https://dc.lft.to/lastmile_qr_scan", "android": "https://dc.lft.to/lastmile_qr_scan"}, "fusion_lon": 0.0, "type": "electric_scooter", "bike_id": "3da7ab0ad76687e7ff94fa6cd920e64e", "name": "3da7ab0ad76687e7ff94fa6cd920e64e"}, {"lon": -76.9911695, "is_disabled": 0, "lat": 38.9087735, "fusion_lat": 0.0, "is_reserved": 0, "rental_uris": {"ios": "https://dc.lft.to/lastmile_qr_scan", "android": "https://dc.lft.to/lastmile_qr_scan"}, "fusion_lon": 0.0, "type": "electric_bike", "bike_id": "45cb1094ddd3c6b80ae5a0e81a95aaa2", "name": "45cb1094ddd3c6b80ae5a0e81a95aaa2"}, {"lon": -77.03188883333333, "is_disabled": 0, "lat": 38.8924875, "fusion_lat": 0.0, "is_reserved": 0, "rental_uris": {"ios": "https://dc.lft.to/lastmile_qr_scan", "android": "https://dc.lft.to/lastmile_qr_scan"}, "fusion_lon": 0.0, "type": "electric_scooter", "bike_id": "82982a47c55b8beaeca181a0140094c8", "name": "82982a47c55b8beaeca181a0140094c8"}, {"lon": -77.03210316666667, "is_disabled": 0, "lat": 38.89232633333334, "fusion_lat": 0.0, "is_reserved": 0, "rental_uris": {"ios": "https://dc.lft.to/lastmile_qr_scan", "android": "https://dc.lft.to/lastmile_qr_scan"}, "fusion_lon": 0.0, "type": "electric_scooter", "bike_id": "3d65008d770c7db6c69bc34de278859d", "name": "3d65008d770c7db6c69bc34de278859d"}, {"lon": -77.03341866666666, "is_disabled": 0, "lat": 38.915578, "fusion_lat": 0.0, "is_reserved": 0, "rental_uris": {"ios": "https://dc.lft.to/lastmile_qr_scan", "android": "https://dc.lft.to/lastmile_qr_scan"}, "fusion_lon": 0.0, "type": "electric_scooter", "bike_id": "49b36e742ec67acdd6c068869a1aa30c", "name": "49b36e742ec67acdd6c068869a1aa30c"}, {"lon": -77.048741, "is_disabled": 0, "lat": 38.90976883333333, "fusion_lat": 0.0, "is_reserved": 0, "rental_uris": {"ios": "https://dc.lft.to/lastmile_qr_scan", "android": "https://dc.lft.to/lastmile_qr_scan"}, "fusion_lon": 0.0, "type": "electric_scooter", "bike_id": "27a094562cf48990f744d16fe85c16f0", "name": "27a094562cf48990f744d16fe85c16f0"}, {"lon": -76.91598, "is_disabled": 0, "lat": 38.87986816666667, "fusion_lat": 0.0, "is_reserved": 0, "rental_uris": {"ios": "https://dc.lft.to/lastmile_qr_scan", "android": "https://dc.lft.to/lastmile_qr_scan"}, "fusion_lon": 0.0, "type": "electric_bike", "bike_id": "ee48c945eed1f2907d9293325646e0cb", "name": "ee48c945eed1f2907d9293325646e0cb"}, {"lon": -77.0400395, "is_disabled": 0, "lat": 38.934234000000004, "fusion_lat": 0.0, "is_reserved": 0, "rental_uris": {"ios": "https://dc.lft.to/lastmile_qr_scan", "android": "https://dc.lft.to/lastmile_qr_scan"}, "fusion_lon": 0.0, "type": "electric_scooter", "bike_id": "a2497e280099b449b74b37de41d4a0cb", "name": "a2497e280099b449b74b37de41d4a0cb"}, {"lon": -77.052601, "is_disabled": 0, "lat": 38.9277235, "fusion_lat": 0.0, "is_reserved": 0, "rental_uris": {"ios": "https://dc.lft.to/lastmile_qr_scan", "android": "https://dc.lft.to/lastmile_qr_scan"}, "fusion_lon": 0.0, "type": "electric_scooter", "bike_id": "f285731d29cb044871cf9341cfa788a5", "name": "f285731d29cb044871cf9341cfa788a5"}, {"lon": -76.99158683333333, "is_disabled": 0, "lat": 38.9013975, "fusion_lat": 0.0, "is_reserved": 0, "rental_uris": {"ios": "https://dc.lft.to/lastmile_qr_scan", "android": "https://dc.lft.to/lastmile_qr_scan"}, "fusion_lon": 0.0, "type": "electric_scooter", "bike_id": "428e839e51929806db0a42f9ee73e5e9", "name": "428e839e51929806db0a42f9ee73e5e9"}, {"lon": -77.01409166666667, "is_disabled": 0, "lat": 38.92816633333333, "fusion_lat": 0.0, "is_reserved": 0, "rental_uris": {"ios": "https://dc.lft.to/lastmile_qr_scan", "android": "https://dc.lft.to/lastmile_qr_scan"}, "fusion_lon": 0.0, "type": "electric_scooter", "bike_id": "0c13dba32fc56d457d0117d93546415a", "name": "0c13dba32fc56d457d0117d93546415a"}, {"lon": -77.03281, "is_disabled": 0, "lat": 38.928168166666666, "fusion_lat": 0.0, "is_reserved": 0, "rental_uris": {"ios": "https://dc.lft.to/lastmile_qr_scan", "android": "https://dc.lft.to/lastmile_qr_scan"}, "fusion_lon": 0.0, "type": "electric_scooter", "bike_id": "133f9546ff8821db46b4fbabc761548f", "name": "133f9546ff8821db46b4fbabc761548f"}, {"lon": -76.990627, "is_disabled": 0, "lat": 38.898164333333334, "fusion_lat": 0.0, "is_reserved": 0, "rental_uris": {"ios": "https://dc.lft.to/lastmile_qr_scan", "android": "https://dc.lft.to/lastmile_qr_scan"}, "fusion_lon": 0.0, "type": "electric_bike", "bike_id": "26d7d8dc6b49a26ceba16b9766214c33", "name": "26d7d8dc6b49a26ceba16b9766214c33"}, {"lon": -77.00107466666667, "is_disabled": 0, "lat": 38.8736985, "fusion_lat": 0.0, "is_reserved": 0, "rental_uris": {"ios": "https://dc.lft.to/lastmile_qr_scan", "android": "https://dc.lft.to/lastmile_qr_scan"}, "fusion_lon": 0.0, "type": "electric_scooter", "bike_id": "4084e9558652c7811f714cdce08f06aa", "name": "4084e9558652c7811f714cdce08f06aa"}, {"lon": -77.01223416666667, "is_disabled": 0, "lat": 38.924021, "fusion_lat": 0.0, "is_reserved": 0, "rental_uris": {"ios": "https://dc.lft.to/lastmile_qr_scan", "android": "https://dc.lft.to/lastmile_qr_scan"}, "fusion_lon": 0.0, "type": "electric_scooter", "bike_id": "ebd3b2a1da9519b739c6f81774e52f53", "name": "ebd3b2a1da9519b739c6f81774e52f53"}, {"lon": -77.03327783333333, "is_disabled": 0, "lat": 38.921569166666664, "fusion_lat": 0.0, "is_reserved": 0, "rental_uris": {"ios": "https://dc.lft.to/lastmile_qr_scan", "android": "https://dc.lft.to/lastmile_qr_scan"}, "fusion_lon": 0.0, "type": "electric_scooter", "bike_id": "4db77ca1e03c80570c3bc0f2ce2a02fb", "name": "4db77ca1e03c80570c3bc0f2ce2a02fb"}, {"lon": -77.02209433333333, "is_disabled": 0, "lat": 38.915631833333336, "fusion_lat": 0.0, "is_reserved": 0, "rental_uris": {"ios": "https://dc.lft.to/lastmile_qr_scan", "android": "https://dc.lft.to/lastmile_qr_scan"}, "fusion_lon": 0.0, "type": "electric_scooter", "bike_id": "1bb9d0b3e27a3552a144127cb9481872", "name": "1bb9d0b3e27a3552a144127cb9481872"}, {"lon": -77.04895966666666, "is_disabled": 0, "lat": 38.90059083333333, "fusion_lat": 0.0, "is_reserved": 0, "rental_uris": {"ios": "https://dc.lft.to/lastmile_qr_scan", "android": "https://dc.lft.to/lastmile_qr_scan"}, "fusion_lon": 0.0, "type": "electric_scooter", "bike_id": "71c9842619afd04fd322ca4782549069", "name": "71c9842619afd04fd322ca4782549069"}, {"lon": -77.0352185, "is_disabled": 0, "lat": 38.92233683333333, "fusion_lat": 0.0, "is_reserved": 0, "rental_uris": {"ios": "https://dc.lft.to/lastmile_qr_scan", "android": "https://dc.lft.to/lastmile_qr_scan"}, "fusion_lon": 0.0, "type": "electric_scooter", "bike_id": "1b153a8751e4d589803a3534b93839a8", "name": "1b153a8751e4d589803a3534b93839a8"}, {"lon": -77.0343395, "is_disabled": 0, "lat": 38.9056665, "fusion_lat": 0.0, "is_reserved": 0, "rental_uris": {"ios": "https://dc.lft.to/lastmile_qr_scan", "android": "https://dc.lft.to/lastmile_qr_scan"}, "fusion_lon": 0.0, "type": "electric_scooter", "bike_id": "ef80e217afe608e06490e3be0509df84", "name": "ef80e217afe608e06490e3be0509df84"}, {"lon": -76.978616, "is_disabled": 0, "lat": 38.86747866666666, "fusion_lat": 0.0, "is_reserved": 0, "rental_uris": {"ios": "https://dc.lft.to/lastmile_qr_scan", "android": "https://dc.lft.to/lastmile_qr_scan"}, "fusion_lon": 0.0, "type": "electric_scooter", "bike_id": "d6976f3de426480e4579be25995e425e", "name": "d6976f3de426480e4579be25995e425e"}, {"lon": -77.03943316666667, "is_disabled": 0, "lat": 38.91414183333333, "fusion_lat": 0.0, "is_reserved": 0, "rental_uris": {"ios": "https://dc.lft.to/lastmile_qr_scan", "android": "https://dc.lft.to/lastmile_qr_scan"}, "fusion_lon": 0.0, "type": "electric_scooter", "bike_id": "28ef56b8d53dc1a6fc42c7b4f5e9d0ec", "name": "28ef56b8d53dc1a6fc42c7b4f5e9d0ec"}, {"lon": -77.02558183333333, "is_disabled": 0, "lat": 38.997197166666666, "fusion_lat": 0.0, "is_reserved": 0, "rental_uris": {"ios": "https://dc.lft.to/lastmile_qr_scan", "android": "https://dc.lft.to/lastmile_qr_scan"}, "fusion_lon": 0.0, "type": "electric_bike", "bike_id": "e7fe7000675c501974d0556e3c20125d", "name": "e7fe7000675c501974d0556e3c20125d"}, {"lon": -76.98086383333333, "is_disabled": 0, "lat": 38.9262965, "fusion_lat": 0.0, "is_reserved": 0, "rental_uris": {"ios": "https://dc.lft.to/lastmile_qr_scan", "android": "https://dc.lft.to/lastmile_qr_scan"}, "fusion_lon": 0.0, "type": "electric_scooter", "bike_id": "b8599c2c73e5b42c5bcc6f60964bc144", "name": "b8599c2c73e5b42c5bcc6f60964bc144"}, {"lon": -77.02088666666667, "is_disabled": 0, "lat": 38.92710866666667, "fusion_lat": 0.0, "is_reserved": 0, "rental_uris": {"ios": "https://dc.lft.to/lastmile_qr_scan", "android": "https://dc.lft.to/lastmile_qr_scan"}, "fusion_lon": 0.0, "type": "electric_scooter", "bike_id": "fd1c00e6d7c148a7d430f79a574b2df3", "name": "fd1c00e6d7c148a7d430f79a574b2df3"}, {"lon": -77.03828233333333, "is_disabled": 0, "lat": 38.9155325, "fusion_lat": 0.0, "is_reserved": 0, "rental_uris": {"ios": "https://dc.lft.to/lastmile_qr_scan", "android": "https://dc.lft.to/lastmile_qr_scan"}, "fusion_lon": 0.0, "type": "electric_bike", "bike_id": "5ab46e1bad4dc14aacb2256df8f60278", "name": "5ab46e1bad4dc14aacb2256df8f60278"}, {"lon": -76.98061583333333, "is_disabled": 0, "lat": 38.90117466666667, "fusion_lat": 0.0, "is_reserved": 0, "rental_uris": {"ios": "https://dc.lft.to/lastmile_qr_scan", "android": "https://dc.lft.to/lastmile_qr_scan"}, "fusion_lon": 0.0, "type": "electric_bike", "bike_id": "4b219df1f6507ce76819675fa8f76462", "name": "4b219df1f6507ce76819675fa8f76462"}, {"lon": -77.03192716666666, "is_disabled": 0, "lat": 38.912460833333334, "fusion_lat": 0.0, "is_reserved": 0, "rental_uris": {"ios": "https://dc.lft.to/lastmile_qr_scan", "android": "https://dc.lft.to/lastmile_qr_scan"}, "fusion_lon": 0.0, "type": "electric_scooter", "bike_id": "7b8432c752b2ce71c39b603ad0f33439", "name": "7b8432c752b2ce71c39b603ad0f33439"}, {"lon": -76.997868, "is_disabled": 0, "lat": 38.908705499999996, "fusion_lat": 0.0, "is_reserved": 0, "rental_uris": {"ios": "https://dc.lft.to/lastmile_qr_scan", "android": "https://dc.lft.to/lastmile_qr_scan"}, "fusion_lon": 0.0, "type": "electric_scooter", "bike_id": "f08d3db48f069ab268b7530180542651", "name": "f08d3db48f069ab268b7530180542651"}, {"lon": -77.058596, "is_disabled": 0, "lat": 38.930394166666666, "fusion_lat": 0.0, "is_reserved": 0, "rental_uris": {"ios": "https://dc.lft.to/lastmile_qr_scan", "android": "https://dc.lft.to/lastmile_qr_scan"}, "fusion_lon": 0.0, "type": "electric_scooter", "bike_id": "b17df110e33d200a601af0b1d48e8ed6", "name": "b17df110e33d200a601af0b1d48e8ed6"}, {"lon": -76.954182, "is_disabled": 0, "lat": 38.88413033333333, "fusion_lat": 0.0, "is_reserved": 0, "rental_uris": {"ios": "https://dc.lft.to/lastmile_qr_scan", "android": "https://dc.lft.to/lastmile_qr_scan"}, "fusion_lon": 0.0, "type": "electric_bike", "bike_id": "1a45eb69b0e88e1e12e85b7f481c7a25", "name": "1a45eb69b0e88e1e12e85b7f481c7a25"}, {"lon": -77.021509, "is_disabled": 0, "lat": 38.87916166666667, "fusion_lat": 0.0, "is_reserved": 0, "rental_uris": {"ios": "https://dc.lft.to/lastmile_qr_scan", "android": "https://dc.lft.to/lastmile_qr_scan"}, "fusion_lon": 0.0, "type": "electric_scooter", "bike_id": "94a25f11d32dafd3ec55d72d784b5228", "name": "94a25f11d32dafd3ec55d72d784b5228"}, {"lon": -77.03181983333333, "is_disabled": 0, "lat": 38.9098035, "fusion_lat": 0.0, "is_reserved": 0, "rental_uris": {"ios": "https://dc.lft.to/lastmile_qr_scan", "android": "https://dc.lft.to/lastmile_qr_scan"}, "fusion_lon": 0.0, "type": "electric_scooter", "bike_id": "bd685125b702c5169a07781b06547ffd", "name": "bd685125b702c5169a07781b06547ffd"}, {"lon": -77.061868, "is_disabled": 0, "lat": 38.9033585, "fusion_lat": 0.0, "is_reserved": 0, "rental_uris": {"ios": "https://dc.lft.to/lastmile_qr_scan", "android": "https://dc.lft.to/lastmile_qr_scan"}, "fusion_lon": 0.0, "type": "electric_scooter", "bike_id": "86aa401be4bf2c4345b1d6a7d14e903f", "name": "86aa401be4bf2c4345b1d6a7d14e903f"}, {"lon": -77.03261, "is_disabled": 0, "lat": 38.90956366666666, "fusion_lat": 0.0, "is_reserved": 0, "rental_uris": {"ios": "https://dc.lft.to/lastmile_qr_scan", "android": "https://dc.lft.to/lastmile_qr_scan"}, "fusion_lon": 0.0, "type": "electric_scooter", "bike_id": "034236944da7f5784ad95bab4ddbbedf", "name": "034236944da7f5784ad95bab4ddbbedf"}, {"lon": -77.003468, "is_disabled": 0, "lat": 38.882039, "fusion_lat": 0.0, "is_reserved": 0, "rental_uris": {"ios": "https://dc.lft.to/lastmile_qr_scan", "android": "https://dc.lft.to/lastmile_qr_scan"}, "fusion_lon": 0.0, "type": "electric_scooter", "bike_id": "650d30b910d947ba6e7f1a71ca1c0a66", "name": "650d30b910d947ba6e7f1a71ca1c0a66"}, {"lon": -77.053227, "is_disabled": 0, "lat": 38.90428766666667, "fusion_lat": 0.0, "is_reserved": 0, "rental_uris": {"ios": "https://dc.lft.to/lastmile_qr_scan", "android": "https://dc.lft.to/lastmile_qr_scan"}, "fusion_lon": 0.0, "type": "electric_scooter", "bike_id": "19ce74aca0d2caec047d18e94f7cfe24", "name": "19ce74aca0d2caec047d18e94f7cfe24"}, {"lon": -77.02941383333334, "is_disabled": 0, "lat": 38.9014595, "fusion_lat": 0.0, "is_reserved": 0, "rental_uris": {"ios": "https://dc.lft.to/lastmile_qr_scan", "android": "https://dc.lft.to/lastmile_qr_scan"}, "fusion_lon": 0.0, "type": "electric_scooter", "bike_id": "d00e1ddc8bf518ad9546a5f2749edb19", "name": "d00e1ddc8bf518ad9546a5f2749edb19"}, {"lon": -77.036625, "is_disabled": 0, "lat": 38.92262483333333, "fusion_lat": 0.0, "is_reserved": 0, "rental_uris": {"ios": "https://dc.lft.to/lastmile_qr_scan", "android": "https://dc.lft.to/lastmile_qr_scan"}, "fusion_lon": 0.0, "type": "electric_scooter", "bike_id": "0d629cdac18f10e5b12f9f5ca7a26496", "name": "0d629cdac18f10e5b12f9f5ca7a26496"}, {"lon": -77.03339333333334, "is_disabled": 0, "lat": 38.938893666666665, "fusion_lat": 0.0, "is_reserved": 0, "rental_uris": {"ios": "https://dc.lft.to/lastmile_qr_scan", "android": "https://dc.lft.to/lastmile_qr_scan"}, "fusion_lon": 0.0, "type": "electric_scooter", "bike_id": "505094d87be121d34ed3cd317bf001e2", "name": "505094d87be121d34ed3cd317bf001e2"}, {"lon": -77.05152516666666, "is_disabled": 0, "lat": 38.92379016666667, "fusion_lat": 0.0, "is_reserved": 0, "rental_uris": {"ios": "https://dc.lft.to/lastmile_qr_scan", "android": "https://dc.lft.to/lastmile_qr_scan"}, "fusion_lon": 0.0, "type": "electric_scooter", "bike_id": "95d952d66912c3b1d1bca1e97d22f315", "name": "95d952d66912c3b1d1bca1e97d22f315"}, {"lon": -77.03271483333333, "is_disabled": 0, "lat": 38.92758283333333, "fusion_lat": 0.0, "is_reserved": 0, "rental_uris": {"ios": "https://dc.lft.to/lastmile_qr_scan", "android": "https://dc.lft.to/lastmile_qr_scan"}, "fusion_lon": 0.0, "type": "electric_scooter", "bike_id": "d42208b907710bb0eb8cb545613ae089", "name": "d42208b907710bb0eb8cb545613ae089"}, {"lon": -77.03521016666667, "is_disabled": 0, "lat": 38.922367, "fusion_lat": 0.0, "is_reserved": 0, "rental_uris": {"ios": "https://dc.lft.to/lastmile_qr_scan", "android": "https://dc.lft.to/lastmile_qr_scan"}, "fusion_lon": 0.0, "type": "electric_scooter", "bike_id": "b2ecd9fea1fe2aa38686c5045822ea63", "name": "b2ecd9fea1fe2aa38686c5045822ea63"}, {"lon": -77.005192, "is_disabled": 0, "lat": 38.87469433333333, "fusion_lat": 0.0, "is_reserved": 0, "rental_uris": {"ios": "https://dc.lft.to/lastmile_qr_scan", "android": "https://dc.lft.to/lastmile_qr_scan"}, "fusion_lon": 0.0, "type": "electric_scooter", "bike_id": "0d10d22c4ec7e32f02570a3398dccb74", "name": "0d10d22c4ec7e32f02570a3398dccb74"}, {"lon": -77.046649, "is_disabled": 0, "lat": 38.903389, "fusion_lat": 0.0, "is_reserved": 0, "rental_uris": {"ios": "https://dc.lft.to/lastmile_qr_scan", "android": "https://dc.lft.to/lastmile_qr_scan"}, "fusion_lon": 0.0, "type": "electric_scooter", "bike_id": "6ee6470a6bc191f646c0018436eca2fe", "name": "6ee6470a6bc191f646c0018436eca2fe"}, {"lon": -77.0079915, "is_disabled": 0, "lat": 38.949161833333335, "fusion_lat": 0.0, "is_reserved": 0, "rental_uris": {"ios": "https://dc.lft.to/lastmile_qr_scan", "android": "https://dc.lft.to/lastmile_qr_scan"}, "fusion_lon": 0.0, "type": "electric_bike", "bike_id": "0953c00c833e600d675f7374fb3c35ea", "name": "0953c00c833e600d675f7374fb3c35ea"}, {"lon": -77.06407166666666, "is_disabled": 0, "lat": 38.94438933333333, "fusion_lat": 0.0, "is_reserved": 0, "rental_uris": {"ios": "https://dc.lft.to/lastmile_qr_scan", "android": "https://dc.lft.to/lastmile_qr_scan"}, "fusion_lon": 0.0, "type": "electric_scooter", "bike_id": "eabc067090cf77d065f4b8142fbb13fa", "name": "eabc067090cf77d065f4b8142fbb13fa"}, {"lon": -77.02407566666666, "is_disabled": 0, "lat": 38.91545133333333, "fusion_lat": 0.0, "is_reserved": 0, "rental_uris": {"ios": "https://dc.lft.to/lastmile_qr_scan", "android": "https://dc.lft.to/lastmile_qr_scan"}, "fusion_lon": 0.0, "type": "electric_scooter", "bike_id": "45dc7c0c0517afc771da69ed33b51ff6", "name": "45dc7c0c0517afc771da69ed33b51ff6"}, {"lon": -77.01859083333333, "is_disabled": 0, "lat": 38.874679666666665, "fusion_lat": 0.0, "is_reserved": 0, "rental_uris": {"ios": "https://dc.lft.to/lastmile_qr_scan", "android": "https://dc.lft.to/lastmile_qr_scan"}, "fusion_lon": 0.0, "type": "electric_scooter", "bike_id": "2eaf052b89c73ba1580362305f9d2c1f", "name": "2eaf052b89c73ba1580362305f9d2c1f"}, {"lon": -76.94568733333334, "is_disabled": 0, "lat": 38.86623266666667, "fusion_lat": 0.0, "is_reserved": 0, "rental_uris": {"ios": "https://dc.lft.to/lastmile_qr_scan", "android": "https://dc.lft.to/lastmile_qr_scan"}, "fusion_lon": 0.0, "type": "electric_bike", "bike_id": "da98b788c92bf3a32600fe4782b9746e", "name": "da98b788c92bf3a32600fe4782b9746e"}, {"lon": -77.08432466666666, "is_disabled": 0, "lat": 38.9318395, "fusion_lat": 0.0, "is_reserved": 0, "rental_uris": {"ios": "https://dc.lft.to/lastmile_qr_scan", "android": "https://dc.lft.to/lastmile_qr_scan"}, "fusion_lon": 0.0, "type": "electric_scooter", "bike_id": "c0bdbefd3a8e1456306adbb5aa32865f", "name": "c0bdbefd3a8e1456306adbb5aa32865f"}, {"lon": -77.04161933333333, "is_disabled": 0, "lat": 38.901264, "fusion_lat": 0.0, "is_reserved": 0, "rental_uris": {"ios": "https://dc.lft.to/lastmile_qr_scan", "android": "https://dc.lft.to/lastmile_qr_scan"}, "fusion_lon": 0.0, "type": "electric_scooter", "bike_id": "5fe551943caa9c3d20ea51642ee5e8ef", "name": "5fe551943caa9c3d20ea51642ee5e8ef"}, {"lon": -77.0321195, "is_disabled": 0, "lat": 38.92861966666667, "fusion_lat": 0.0, "is_reserved": 0, "rental_uris": {"ios": "https://dc.lft.to/lastmile_qr_scan", "android": "https://dc.lft.to/lastmile_qr_scan"}, "fusion_lon": 0.0, "type": "electric_scooter", "bike_id": "8595d9efab2f26a8538360c500637e77", "name": "8595d9efab2f26a8538360c500637e77"}, {"lon": -77.04533966666666, "is_disabled": 0, "lat": 38.913275, "fusion_lat": 0.0, "is_reserved": 0, "rental_uris": {"ios": "https://dc.lft.to/lastmile_qr_scan", "android": "https://dc.lft.to/lastmile_qr_scan"}, "fusion_lon": 0.0, "type": "electric_scooter", "bike_id": "e79a9399472c4302ed8e3137ead1d272", "name": "e79a9399472c4302ed8e3137ead1d272"}, {"lon": -77.006792, "is_disabled": 0, "lat": 38.8716915, "fusion_lat": 0.0, "is_reserved": 0, "rental_uris": {"ios": "https://dc.lft.to/lastmile_qr_scan", "android": "https://dc.lft.to/lastmile_qr_scan"}, "fusion_lon": 0.0, "type": "electric_scooter", "bike_id": "73b094cd9eb1a0cd43b1d77c0427318b", "name": "73b094cd9eb1a0cd43b1d77c0427318b"}, {"lon": -76.94894483333333, "is_disabled": 0, "lat": 38.895325, "fusion_lat": 0.0, "is_reserved": 0, "rental_uris": {"ios": "https://dc.lft.to/lastmile_qr_scan", "android": "https://dc.lft.to/lastmile_qr_scan"}, "fusion_lon": 0.0, "type": "electric_scooter", "bike_id": "774b6c8fecbc5f39f490c7f25fce62d6", "name": "774b6c8fecbc5f39f490c7f25fce62d6"}, {"lon": -77.02451116666667, "is_disabled": 0, "lat": 38.91887416666667, "fusion_lat": 0.0, "is_reserved": 0, "rental_uris": {"ios": "https://dc.lft.to/lastmile_qr_scan", "android": "https://dc.lft.to/lastmile_qr_scan"}, "fusion_lon": 0.0, "type": "electric_scooter", "bike_id": "4b4780ac33c3aba2e694daa3878a39f4", "name": "4b4780ac33c3aba2e694daa3878a39f4"}, {"lon": -77.05732033333334, "is_disabled": 0, "lat": 38.9336545, "fusion_lat": 0.0, "is_reserved": 0, "rental_uris": {"ios": "https://dc.lft.to/lastmile_qr_scan", "android": "https://dc.lft.to/lastmile_qr_scan"}, "fusion_lon": 0.0, "type": "electric_scooter", "bike_id": "897f76485c3a40b8ca22bc31a123d048", "name": "897f76485c3a40b8ca22bc31a123d048"}, {"lon": -77.03527566666666, "is_disabled": 0, "lat": 38.922554, "fusion_lat": 0.0, "is_reserved": 0, "rental_uris": {"ios": "https://dc.lft.to/lastmile_qr_scan", "android": "https://dc.lft.to/lastmile_qr_scan"}, "fusion_lon": 0.0, "type": "electric_scooter", "bike_id": "277aca16ac4999164c1c4b2cc33a1a72", "name": "277aca16ac4999164c1c4b2cc33a1a72"}, {"lon": -77.0020005, "is_disabled": 0, "lat": 38.9655835, "fusion_lat": 0.0, "is_reserved": 0, "rental_uris": {"ios": "https://dc.lft.to/lastmile_qr_scan", "android": "https://dc.lft.to/lastmile_qr_scan"}, "fusion_lon": 0.0, "type": "electric_scooter", "bike_id": "a71959ad36f2cca65daa7e10dffa6321", "name": "a71959ad36f2cca65daa7e10dffa6321"}, {"lon": -77.04258466666667, "is_disabled": 0, "lat": 38.910348166666665, "fusion_lat": 0.0, "is_reserved": 0, "rental_uris": {"ios": "https://dc.lft.to/lastmile_qr_scan", "android": "https://dc.lft.to/lastmile_qr_scan"}, "fusion_lon": 0.0, "type": "electric_scooter", "bike_id": "21fe0400309e07d017a06edd2b99b3a2", "name": "21fe0400309e07d017a06edd2b99b3a2"}, {"lon": -77.0194895, "is_disabled": 0, "lat": 38.924212, "fusion_lat": 0.0, "is_reserved": 0, "rental_uris": {"ios": "https://dc.lft.to/lastmile_qr_scan", "android": "https://dc.lft.to/lastmile_qr_scan"}, "fusion_lon": 0.0, "type": "electric_scooter", "bike_id": "52621cb88b30529ee495d075184dac85", "name": "52621cb88b30529ee495d075184dac85"}, {"lon": -77.027382, "is_disabled": 0, "lat": 38.93358833333333, "fusion_lat": 0.0, "is_reserved": 0, "rental_uris": {"ios": "https://dc.lft.to/lastmile_qr_scan", "android": "https://dc.lft.to/lastmile_qr_scan"}, "fusion_lon": 0.0, "type": "electric_scooter", "bike_id": "0a61eeadb54a4a36325b2286c79c9dd2", "name": "0a61eeadb54a4a36325b2286c79c9dd2"}, {"lon": -77.02711283333333, "is_disabled": 0, "lat": 38.919573166666666, "fusion_lat": 0.0, "is_reserved": 0, "rental_uris": {"ios": "https://dc.lft.to/lastmile_qr_scan", "android": "https://dc.lft.to/lastmile_qr_scan"}, "fusion_lon": 0.0, "type": "electric_scooter", "bike_id": "1f4d6f6079f79b9c2566d43daf401a4d", "name": "1f4d6f6079f79b9c2566d43daf401a4d"}, {"lon": -77.06446016666666, "is_disabled": 0, "lat": 38.9460325, "fusion_lat": 0.0, "is_reserved": 0, "rental_uris": {"ios": "https://dc.lft.to/lastmile_qr_scan", "android": "https://dc.lft.to/lastmile_qr_scan"}, "fusion_lon": 0.0, "type": "electric_scooter", "bike_id": "a0f24a5874e4f910bddab65d12ac5b04", "name": "a0f24a5874e4f910bddab65d12ac5b04"}, {"lon": -77.04810566666667, "is_disabled": 0, "lat": 38.9023205, "fusion_lat": 0.0, "is_reserved": 0, "rental_uris": {"ios": "https://dc.lft.to/lastmile_qr_scan", "android": "https://dc.lft.to/lastmile_qr_scan"}, "fusion_lon": 0.0, "type": "electric_scooter", "bike_id": "d9a76a51551a24a1adf06d9da2991ffd", "name": "d9a76a51551a24a1adf06d9da2991ffd"}, {"lon": -77.0019575, "is_disabled": 0, "lat": 38.915985666666664, "fusion_lat": 0.0, "is_reserved": 0, "rental_uris": {"ios": "https://dc.lft.to/lastmile_qr_scan", "android": "https://dc.lft.to/lastmile_qr_scan"}, "fusion_lon": 0.0, "type": "electric_scooter", "bike_id": "00a603cbde2cfbe5e890226895a426e7", "name": "00a603cbde2cfbe5e890226895a426e7"}, {"lon": -77.02541933333333, "is_disabled": 0, "lat": 38.94112616666666, "fusion_lat": 0.0, "is_reserved": 0, "rental_uris": {"ios": "https://dc.lft.to/lastmile_qr_scan", "android": "https://dc.lft.to/lastmile_qr_scan"}, "fusion_lon": 0.0, "type": "electric_scooter", "bike_id": "64640893d5a3647d6d840f6740d9ea71", "name": "64640893d5a3647d6d840f6740d9ea71"}, {"lon": -77.0184275, "is_disabled": 0, "lat": 38.94628766666666, "fusion_lat": 0.0, "is_reserved": 0, "rental_uris": {"ios": "https://dc.lft.to/lastmile_qr_scan", "android": "https://dc.lft.to/lastmile_qr_scan"}, "fusion_lon": 0.0, "type": "electric_scooter", "bike_id": "70a1c5de02e011adaedd767a2e58b96b", "name": "70a1c5de02e011adaedd767a2e58b96b"}, {"lon": -77.026931, "is_disabled": 0, "lat": 38.89432766666667, "fusion_lat": 0.0, "is_reserved": 0, "rental_uris": {"ios": "https://dc.lft.to/lastmile_qr_scan", "android": "https://dc.lft.to/lastmile_qr_scan"}, "fusion_lon": 0.0, "type": "electric_scooter", "bike_id": "7866c2384be31e5711f51e42c0ea02e3", "name": "7866c2384be31e5711f51e42c0ea02e3"}, {"lon": -77.04013333333333, "is_disabled": 0, "lat": 38.91004783333333, "fusion_lat": 0.0, "is_reserved": 0, "rental_uris": {"ios": "https://dc.lft.to/lastmile_qr_scan", "android": "https://dc.lft.to/lastmile_qr_scan"}, "fusion_lon": 0.0, "type": "electric_scooter", "bike_id": "c148dd429be6c3233cdaa79126ee5452", "name": "c148dd429be6c3233cdaa79126ee5452"}, {"lon": -76.98815066666667, "is_disabled": 0, "lat": 38.900694333333334, "fusion_lat": 0.0, "is_reserved": 0, "rental_uris": {"ios": "https://dc.lft.to/lastmile_qr_scan", "android": "https://dc.lft.to/lastmile_qr_scan"}, "fusion_lon": 0.0, "type": "electric_scooter", "bike_id": "4c41bfcc1c931d0faf2aefb3b6d33cc7", "name": "4c41bfcc1c931d0faf2aefb3b6d33cc7"}, {"lon": -76.98605116666667, "is_disabled": 0, "lat": 38.90010766666666, "fusion_lat": 0.0, "is_reserved": 0, "rental_uris": {"ios": "https://dc.lft.to/lastmile_qr_scan", "android": "https://dc.lft.to/lastmile_qr_scan"}, "fusion_lon": 0.0, "type": "electric_scooter", "bike_id": "6f4e4cf5c4ba9d6401cb743a31a78125", "name": "6f4e4cf5c4ba9d6401cb743a31a78125"}, {"lon": -77.04875316666667, "is_disabled": 0, "lat": 38.90981816666667, "fusion_lat": 0.0, "is_reserved": 0, "rental_uris": {"ios": "https://dc.lft.to/lastmile_qr_scan", "android": "https://dc.lft.to/lastmile_qr_scan"}, "fusion_lon": 0.0, "type": "electric_scooter", "bike_id": "03097c441eb3faec9b76151b51c0cc86", "name": "03097c441eb3faec9b76151b51c0cc86"}, {"lon": -76.99493433333333, "is_disabled": 0, "lat": 38.88341333333334, "fusion_lat": 0.0, "is_reserved": 0, "rental_uris": {"ios": "https://dc.lft.to/lastmile_qr_scan", "android": "https://dc.lft.to/lastmile_qr_scan"}, "fusion_lon": 0.0, "type": "electric_scooter", "bike_id": "93fc849cb604d110937d77dc718c111e", "name": "93fc849cb604d110937d77dc718c111e"}, {"lon": -77.02093183333334, "is_disabled": 0, "lat": 38.88183133333333, "fusion_lat": 0.0, "is_reserved": 0, "rental_uris": {"ios": "https://dc.lft.to/lastmile_qr_scan", "android": "https://dc.lft.to/lastmile_qr_scan"}, "fusion_lon": 0.0, "type": "electric_scooter", "bike_id": "9dfe4c375483c0a62ffdda4e3b7a5264", "name": "9dfe4c375483c0a62ffdda4e3b7a5264"}, {"lon": -76.965266, "is_disabled": 0, "lat": 38.876206833333335, "fusion_lat": 0.0, "is_reserved": 0, "rental_uris": {"ios": "https://dc.lft.to/lastmile_qr_scan", "android": "https://dc.lft.to/lastmile_qr_scan"}, "fusion_lon": 0.0, "type": "electric_scooter", "bike_id": "8d4df0a72bf080dd5722c5cdd70685a1", "name": "8d4df0a72bf080dd5722c5cdd70685a1"}, {"lon": -77.0157965, "is_disabled": 0, "lat": 38.87650416666666, "fusion_lat": 0.0, "is_reserved": 0, "rental_uris": {"ios": "https://dc.lft.to/lastmile_qr_scan", "android": "https://dc.lft.to/lastmile_qr_scan"}, "fusion_lon": 0.0, "type": "electric_scooter", "bike_id": "fd3a5875cc31d8a21cb32828efd023f6", "name": "fd3a5875cc31d8a21cb32828efd023f6"}, {"lon": -77.04158866666667, "is_disabled": 0, "lat": 38.914176833333336, "fusion_lat": 0.0, "is_reserved": 0, "rental_uris": {"ios": "https://dc.lft.to/lastmile_qr_scan", "android": "https://dc.lft.to/lastmile_qr_scan"}, "fusion_lon": 0.0, "type": "electric_scooter", "bike_id": "48fbc214f3fa8ff3875fc35d7d6e7c0c", "name": "48fbc214f3fa8ff3875fc35d7d6e7c0c"}, {"lon": -77.02376116666667, "is_disabled": 0, "lat": 38.936388666666666, "fusion_lat": 0.0, "is_reserved": 0, "rental_uris": {"ios": "https://dc.lft.to/lastmile_qr_scan", "android": "https://dc.lft.to/lastmile_qr_scan"}, "fusion_lon": 0.0, "type": "electric_scooter", "bike_id": "b8b3f7ced6bc1ffce29f9b9930d86f82", "name": "b8b3f7ced6bc1ffce29f9b9930d86f82"}, {"lon": -77.07655483333333, "is_disabled": 0, "lat": 38.943229333333335, "fusion_lat": 0.0, "is_reserved": 0, "rental_uris": {"ios": "https://dc.lft.to/lastmile_qr_scan", "android": "https://dc.lft.to/lastmile_qr_scan"}, "fusion_lon": 0.0, "type": "electric_scooter", "bike_id": "e7e25e84e806fa3586509a038d10855e", "name": "e7e25e84e806fa3586509a038d10855e"}, {"lon": -77.00114766666667, "is_disabled": 0, "lat": 38.87369616666667, "fusion_lat": 0.0, "is_reserved": 0, "rental_uris": {"ios": "https://dc.lft.to/lastmile_qr_scan", "android": "https://dc.lft.to/lastmile_qr_scan"}, "fusion_lon": 0.0, "type": "electric_scooter", "bike_id": "f3b8fd672e3cf43981cf38f9a6f78cb2", "name": "f3b8fd672e3cf43981cf38f9a6f78cb2"}, {"lon": -77.04001383333333, "is_disabled": 0, "lat": 38.9342255, "fusion_lat": 0.0, "is_reserved": 0, "rental_uris": {"ios": "https://dc.lft.to/lastmile_qr_scan", "android": "https://dc.lft.to/lastmile_qr_scan"}, "fusion_lon": 0.0, "type": "electric_scooter", "bike_id": "b1a47e7d122ed9354196066c947a355f", "name": "b1a47e7d122ed9354196066c947a355f"}, {"lon": -77.027184, "is_disabled": 0, "lat": 38.89714133333333, "fusion_lat": 0.0, "is_reserved": 0, "rental_uris": {"ios": "https://dc.lft.to/lastmile_qr_scan", "android": "https://dc.lft.to/lastmile_qr_scan"}, "fusion_lon": 0.0, "type": "electric_scooter", "bike_id": "210aa853c28983efceaa3b1859937b83", "name": "210aa853c28983efceaa3b1859937b83"}, {"lon": -77.024429, "is_disabled": 0, "lat": 38.938007166666665, "fusion_lat": 0.0, "is_reserved": 0, "rental_uris": {"ios": "https://dc.lft.to/lastmile_qr_scan", "android": "https://dc.lft.to/lastmile_qr_scan"}, "fusion_lon": 0.0, "type": "electric_scooter", "bike_id": "ba6b907a73ce2ce5ad5f455f1fdd534c", "name": "ba6b907a73ce2ce5ad5f455f1fdd534c"}, {"lon": -77.0445835, "is_disabled": 0, "lat": 38.9154295, "fusion_lat": 0.0, "is_reserved": 0, "rental_uris": {"ios": "https://dc.lft.to/lastmile_qr_scan", "android": "https://dc.lft.to/lastmile_qr_scan"}, "fusion_lon": 0.0, "type": "electric_scooter", "bike_id": "1f4fa5a7f6b4c814027df854d4dd8127", "name": "1f4fa5a7f6b4c814027df854d4dd8127"}, {"lon": -77.02357916666666, "is_disabled": 0, "lat": 38.92400966666666, "fusion_lat": 0.0, "is_reserved": 0, "rental_uris": {"ios": "https://dc.lft.to/lastmile_qr_scan", "android": "https://dc.lft.to/lastmile_qr_scan"}, "fusion_lon": 0.0, "type": "electric_scooter", "bike_id": "de824d6febf9dacb665331f0b7cf3fe3", "name": "de824d6febf9dacb665331f0b7cf3fe3"}, {"lon": -77.04337016666666, "is_disabled": 0, "lat": 38.922192333333335, "fusion_lat": 0.0, "is_reserved": 0, "rental_uris": {"ios": "https://dc.lft.to/lastmile_qr_scan", "android": "https://dc.lft.to/lastmile_qr_scan"}, "fusion_lon": 0.0, "type": "electric_scooter", "bike_id": "e3a5acd748234e93b26ee6701ba009ae", "name": "e3a5acd748234e93b26ee6701ba009ae"}, {"lon": -77.0290765, "is_disabled": 0, "lat": 38.910272166666665, "fusion_lat": 0.0, "is_reserved": 0, "rental_uris": {"ios": "https://dc.lft.to/lastmile_qr_scan", "android": "https://dc.lft.to/lastmile_qr_scan"}, "fusion_lon": 0.0, "type": "electric_scooter", "bike_id": "764a118e1ed3ebe7830142a4de1071d1", "name": "764a118e1ed3ebe7830142a4de1071d1"}, {"lon": -77.02714, "is_disabled": 0, "lat": 38.927642166666665, "fusion_lat": 0.0, "is_reserved": 0, "rental_uris": {"ios": "https://dc.lft.to/lastmile_qr_scan", "android": "https://dc.lft.to/lastmile_qr_scan"}, "fusion_lon": 0.0, "type": "electric_scooter", "bike_id": "50a361ad07847ffd34c9a3a9aca099cd", "name": "50a361ad07847ffd34c9a3a9aca099cd"},