{"data": {"bikes": [{"is_disabled": 0, "fusion_lat": 0.0, "lat": 38.89882566666667, "type": "electric_scooter", "lon": -76.93175516666666, "is_reserved": 0, "fusion_lon": 0.0, "bike_id": "4521b7da029963957ef4998f65f15c93", "name": "4521b7da029963957ef4998f65f15c93", "rental_uris": {"ios": "https://dc.lft.to/lastmile_qr_scan", "android": "https://dc.lft.to/lastmile_qr_scan"}}, {"is_disabled": 0, "fusion_lat": 0.0, "lat": 38.9155, "type": "electric_scooter", "lon": -77.04159133333333, "is_reserved": 0, "fusion_lon": 0.0, "bike_id": "155113cf931d4ad27e0b04e1e3a99277", "name": "155113cf931d4ad27e0b04e1e3a99277", "rental_uris": {"ios": "https://dc.lft.to/lastmile_qr_scan", "android": "https://dc.lft.to/lastmile_qr_scan"}}, {"is_disabled": 0, "fusion_lat": 0.0, "lat": 38.8636925, "type": "electric_bike", "lon": -76.97013716666666, "is_reserved": 0, "fusion_lon": 0.0, "bike_id": "0c14610cee93a20f9c3e30868980fe7b", "name": "0c14610cee93a20f9c3e30868980fe7b", "rental_uris": {"ios": "https://dc.lft.to/lastmile_qr_scan", "android": "https://dc.lft.to/lastmile_qr_scan"}}, {"is_disabled": 0, "fusion_lat": 0.0, "lat": 38.920671166666665, "type": "electric_scooter", "lon": -77.04379666666667, "is_reserved": 0, "fusion_lon": 0.0, "bike_id": "13d0e27850967e176c4d7560d07466db", "name": "13d0e27850967e176c4d7560d07466db", "rental_uris": {"ios": "https://dc.lft.to/lastmile_qr_scan", "android": "https://dc.lft.to/lastmile_qr_scan"}}, {"is_disabled": 0, "fusion_lat": 0.0, "lat": 38.9145245, "type": "electric_scooter", "lon": -77.04601466666666, "is_reserved": 0, "fusion_lon": 0.0, "bike_id": "c367776206b888b1278eb32397ec29ec", "name": "c367776206b888b1278eb32397ec29ec", "rental_uris": {"ios": "https://dc.lft.to/lastmile_qr_scan", "android": "https://dc.lft.to/lastmile_qr_scan"}}, {"is_disabled": 0, "fusion_lat": 0.0, "lat": 38.85059, "type": "electric_bike", "lon": -76.97331616666666, "is_reserved": 0, "fusion_lon": 0.0, "bike_id": "514e86423cb0651e0d96424905395dbf", "name": "514e86423cb0651e0d96424905395dbf", "rental_uris": {"ios": "https://dc.lft.to/lastmile_qr_scan", "android": "https://dc.lft.to/lastmile_qr_scan"}}, {"is_disabled": 0, "fusion_lat": 0.0, "lat": 38.90267733333334, "type": "electric_scooter", "lon": -77.04607816666666, "is_reserved": 0, "fusion_lon": 0.0, "bike_id": "acb77e8d0d534528caecfb2cc55ff3de", "name": "acb77e8d0d534528caecfb2cc55ff3de", "rental_uris": {"ios": "https://dc.lft.to/lastmile_qr_scan", "android": "https://dc.lft.to/lastmile_qr_scan"}}, {"is_disabled": 0, "fusion_lat": 0.0, "lat": 38.902651, "type": "electric_scooter", "lon": -77.053148, "is_reserved": 0, "fusion_lon": 0.0, "bike_id": "b62c573a809e55ffbef66c2bfce243b7", "name": "b62c573a809e55ffbef66c2bfce243b7", "rental_uris": {"ios": "https://dc.lft.to/lastmile_qr_scan", "android": "https://dc.lft.to/lastmile_qr_scan"}}, {"is_disabled": 0, "fusion_lat": 0.0, "lat": 38.925608, "type": "electric_scooter", "lon": -77.0526955, "is_reserved": 0, "fusion_lon": 0.0, "bike_id": "8c04abf1b74f4aa28dbacfdc77e15b44", "name": "8c04abf1b74f4aa28dbacfdc77e15b44", "rental_uris": {"ios": "https://dc.lft.to/lastmile_qr_scan", "android": "https://dc.lft.to/lastmile_qr_scan"}}, {"is_disabled": 0, "fusion_lat": 0.0, "lat": 38.940200833333336, "type": "electric_scooter", "lon": -77.07170483333333, "is_reserved": 0, "fusion_lon": 0.0, "bike_id": "e8b7c65fe5cf800afd3dfe3144556f9b", "name": "e8b7c65fe5cf800afd3dfe3144556f9b", "rental_uris": {"ios": "https://dc.lft.to/lastmile_qr_scan", "android": "https://dc.lft.to/lastmile_qr_scan"}}, {"is_disabled": 0, "fusion_lat": 0.0, "lat": 38.9254705, "type": "electric_bike", "lon": -77.00130083333333, "is_reserved": 0, "fusion_lon": 0.0, "bike_id": "0fbeb80c33a85c23a07542813dffa53b", "name": "0fbeb80c33a85c23a07542813dffa53b", "rental_uris": {"ios": "https://dc.lft.to/lastmile_qr_scan", "android": "https://dc.lft.to/lastmile_qr_scan"}}, {"is_disabled": 0, "fusion_lat": 0.0, "lat": 38.91686933333333, "type": "electric_scooter", "lon": -77.03871533333333, "is_reserved": 0, "fusion_lon": 0.0, "bike_id": "a8291362eb15fa70a20c7a80588835d0", "name": "a8291362eb15fa70a20c7a80588835d0", "rental_uris": {"ios": "https://dc.lft.to/lastmile_qr_scan", "android": "https://dc.lft.to/lastmile_qr_scan"}}, {"is_disabled": 0, "fusion_lat": 0.0, "lat": 38.90025583333333, "type": "electric_scooter", "lon": -77.01212783333334, "is_reserved": 0, "fusion_lon": 0.0, "bike_id": "899bf29cc631299f7109791316bfb0f3", "name": "899bf29cc631299f7109791316bfb0f3", "rental_uris": {"ios": "https://dc.lft.to/lastmile_qr_scan", "android": "https://dc.lft.to/lastmile_qr_scan"}}, {"is_disabled": 0, "fusion_lat": 0.0, "lat": 38.935249666666664, "type": "electric_scooter", "lon": -77.03264033333333, "is_reserved": 0, "fusion_lon": 0.0, "bike_id": "3d4fad91cd0d20ab6498da9c8519625f", "name": "3d4fad91cd0d20ab6498da9c8519625f", "rental_uris": {"ios": "https://dc.lft.to/lastmile_qr_scan", "android": "https://dc.lft.to/lastmile_qr_scan"}}, {"is_disabled": 0, "fusion_lat": 0.0, "lat": 38.90276183333334, "type": "electric_scooter", "lon": -77.04147, "is_reserved": 0, "fusion_lon": 0.0, "bike_id": "af827c151a6aaa6ddaf18fe8bc200a4e", "name": "af827c151a6aaa6ddaf18fe8bc200a4e", "rental_uris": {"ios": "https://dc.lft.to/lastmile_qr_scan", "android": "https://dc.lft.to/lastmile_qr_scan"}}, {"is_disabled": 0, "fusion_lat": 0.0, "lat": 38.90966266666667, "type": "electric_scooter", "lon": -77.039878, "is_reserved": 0, "fusion_lon": 0.0, "bike_id": "92c0376c27ed439d912a1300688d6e14", "name": "92c0376c27ed439d912a1300688d6e14", "rental_uris": {"ios": "https://dc.lft.to/lastmile_qr_scan", "android": "https://dc.lft.to/lastmile_qr_scan"}}, {"is_disabled": 0, "fusion_lat": 0.0, "lat": 38.85510216666667, "type": "electric_bike", "lon": -77.12027383333333, "is_reserved": 0, "fusion_lon": 0.0, "bike_id": "79aa84f507156235826baf8c1c1f01eb", "name": "79aa84f507156235826baf8c1c1f01eb", "rental_uris": {"ios": "https://dc.lft.to/lastmile_qr_scan", "android": "https://dc.lft.to/lastmile_qr_scan"}}, {"is_disabled": 0, "fusion_lat": 0.0, "lat": 38.91634, "type": "electric_scooter", "lon": -77.048177, "is_reserved": 0, "fusion_lon": 0.0, "bike_id": "e75d421b44b19f9eac88d08e2beca8fd", "name": "e75d421b44b19f9eac88d08e2beca8fd", "rental_uris": {"ios": "https://dc.lft.to/lastmile_qr_scan", "android": "https://dc.lft.to/lastmile_qr_scan"}}, {"is_disabled": 0, "fusion_lat": 0.0, "lat": 38.9056185, "type": "electric_scooter", "lon": -77.0345555, "is_reserved": 0, "fusion_lon": 0.0, "bike_id": "4c400633316ac7d866f5757ef2366b02", "name": "4c400633316ac7d866f5757ef2366b02", "rental_uris": {"ios": "https://dc.lft.to/lastmile_qr_scan", "android": "https://dc.lft.to/lastmile_qr_scan"}}, {"is_disabled": 0, "fusion_lat": 0.0, "lat": 38.9993775, "type": "electric_bike", "lon": -77.017661, "is_reserved": 0, "fusion_lon": 0.0, "bike_id": "510bfbeb7135ee5d366a64254fa86448", "name": "510bfbeb7135ee5d366a64254fa86448", "rental_uris": {"ios": "https://dc.lft.to/lastmile_qr_scan", "android": "https://dc.lft.to/lastmile_qr_scan"}}, {"is_disabled": 0, "fusion_lat": 0.0, "lat": 38.902568333333335, "type": "electric_scooter", "lon": -76.986884, "is_reserved": 0, "fusion_lon": 0.0, "bike_id": "1cdd3328532ab4ee426f02c8b7754ec4", "name": "1cdd3328532ab4ee426f02c8b7754ec4", "rental_uris": {"ios": "https://dc.lft.to/lastmile_qr_scan", "android": "https://dc.lft.to/lastmile_qr_scan"}}, {"is_disabled": 0, "fusion_lat": 0.0, "lat": 38.9115835, "type": "electric_scooter", "lon": -76.986596, "is_reserved": 0, "fusion_lon": 0.0, "bike_id": "dcbbfe6294c2170b13705c2472adac61", "name": "dcbbfe6294c2170b13705c2472adac61", "rental_uris": {"ios": "https://dc.lft.to/lastmile_qr_scan", "android": "https://dc.lft.to/lastmile_qr_scan"}}, {"is_disabled": 0, "fusion_lat": 0.0, "lat": 38.952754166666665, "type": "electric_scooter", "lon": -77.06869583333334, "is_reserved": 0, "fusion_lon": 0.0, "bike_id": "4294627726eee21c479f8026de946070", "name": "4294627726eee21c479f8026de946070", "rental_uris": {"ios": "https://dc.lft.to/lastmile_qr_scan", "android": "https://dc.lft.to/lastmile_qr_scan"}}, {"is_disabled": 0, "fusion_lat": 0.0, "lat": 38.92706483333333, "type": "electric_scooter", "lon": -77.04050183333334, "is_reserved": 0, "fusion_lon": 0.0, "bike_id": "483511da91be7313e3fa16d5260332fe", "name": "483511da91be7313e3fa16d5260332fe", "rental_uris": {"ios": "https://dc.lft.to/lastmile_qr_scan", "android": "https://dc.lft.to/lastmile_qr_scan"}}, {"is_disabled": 0, "fusion_lat": 0.0, "lat": 38.920093, "type": "electric_scooter", "lon": -77.04076566666667, "is_reserved": 0, "fusion_lon": 0.0, "bike_id": "4ce854bf8cbc20a9380e2829ac8cbae8", "name": "4ce854bf8cbc20a9380e2829ac8cbae8", "rental_uris": {"ios": "https://dc.lft.to/lastmile_qr_scan", "android": "https://dc.lft.to/lastmile_qr_scan"}}, {"is_disabled": 0, "fusion_lat": 0.0, "lat": 38.92013816666667, "type": "electric_scooter", "lon": -77.02183233333334, "is_reserved": 0, "fusion_lon": 0.0, "bike_id": "10c3848062ba09157470ff983e8d2e8c", "name": "10c3848062ba09157470ff983e8d2e8c", "rental_uris": {"ios": "https://dc.lft.to/lastmile_qr_scan", "android": "https://dc.lft.to/lastmile_qr_scan"}}, {"is_disabled": 0, "fusion_lat": 0.0, "lat": 38.9012775, "type": "electric_scooter", "lon": -76.99711316666667, "is_reserved": 0, "fusion_lon": 0.0, "bike_id": "99d1697b123cf6d72e8d88e90262ac55", "name": "99d1697b123cf6d72e8d88e90262ac55", "rental_uris": {"ios": "https://dc.lft.to/lastmile_qr_scan", "android": "https://dc.lft.to/lastmile_qr_scan"}}, {"is_disabled": 0, "fusion_lat": 0.0, "lat": 38.92556916666667, "type": "electric_scooter", "lon": -77.05269666666666, "is_reserved": 0, "fusion_lon": 0.0, "bike_id": "c0177f089e7575192966763d2d690320", "name": "c0177f089e7575192966763d2d690320", "rental_uris": {"ios": "https://dc.lft.to/lastmile_qr_scan", "android": "https://dc.lft.to/lastmile_qr_scan"}}, {"is_disabled": 0, "fusion_lat": 0.0, "lat": 38.946262833333336, "type": "electric_scooter", "lon": -77.018435, "is_reserved": 0, "fusion_lon": 0.0, "bike_id": "39951a0c6db336b98f8df5bf7c27014b", "name": "39951a0c6db336b98f8df5bf7c27014b", "rental_uris": {"ios": "https://dc.lft.to/lastmile_qr_scan", "android": "https://dc.lft.to/lastmile_qr_scan"}}, {"is_disabled": 0, "fusion_lat": 0.0, "lat": 38.865221166666664, "type": "electric_scooter", "lon": -76.99032833333334, "is_reserved": 0, "fusion_lon": 0.0, "bike_id": "b9e171628a6abc4166f3dc09d9cef004", "name": "b9e171628a6abc4166f3dc09d9cef004", "rental_uris": {"ios": "https://dc.lft.to/lastmile_qr_scan", "android": "https://dc.lft.to/lastmile_qr_scan"}}, {"is_disabled": 0, "fusion_lat": 0.0, "lat": 38.8381075, "type": "electric_bike", "lon": -77.09523666666666, "is_reserved": 0, "fusion_lon": 0.0, "bike_id": "ee772211816dee6d5b29e76cc0712447", "name": "ee772211816dee6d5b29e76cc0712447", "rental_uris": {"ios": "https://dc.lft.to/lastmile_qr_scan", "android": "https://dc.lft.to/lastmile_qr_scan"}}, {"is_disabled": 0, "fusion_lat": 0.0, "lat": 38.8973825, "type": "electric_scooter", "lon": -76.9384715, "is_reserved": 0, "fusion_lon": 0.0, "bike_id": "ffa0321b4a9597d8c6d3fc7214f791fd", "name": "ffa0321b4a9597d8c6d3fc7214f791fd", "rental_uris": {"ios": "https://dc.lft.to/lastmile_qr_scan", "android": "https://dc.lft.to/lastmile_qr_scan"}}, {"is_disabled": 0, "fusion_lat": 0.0, "lat": 38.8386465, "type": "electric_bike", "lon": -76.99702966666666, "is_reserved": 0, "fusion_lon": 0.0, "bike_id": "6aa5a3d483efc1295214a8ed793afd80", "name": "6aa5a3d483efc1295214a8ed793afd80", "rental_uris": {"ios": "https://dc.lft.to/lastmile_qr_scan", "android": "https://dc.lft.to/lastmile_qr_scan"}}, {"is_disabled": 0, "fusion_lat": 0.0, "lat": 38.914556833333336, "type": "electric_scooter", "lon": -76.98429266666666, "is_reserved": 0, "fusion_lon": 0.0, "bike_id": "dd32a0c7930a7bfedffbb16524b3e895", "name": "dd32a0c7930a7bfedffbb16524b3e895", "rental_uris": {"ios": "https://dc.lft.to/lastmile_qr_scan", "android": "https://dc.lft.to/lastmile_qr_scan"}}, {"is_disabled": 0, "fusion_lat": 0.0, "lat": 38.9002995, "type": "electric_scooter", "lon": -76.99861633333333, "is_reserved": 0, "fusion_lon": 0.0, "bike_id": "c9c616902818ed7739b4f4bcbdd60fca", "name": "c9c616902818ed7739b4f4bcbdd60fca", "rental_uris": {"ios": "https://dc.lft.to/lastmile_qr_scan", "android": "https://dc.lft.to/lastmile_qr_scan"}}, {"is_disabled": 0, "fusion_lat": 0.0, "lat": 38.92114866666667, "type": "electric_scooter", "lon": -77.04579933333333, "is_reserved": 0, "fusion_lon": 0.0, "bike_id": "12172bb26a20850161f0c1cb1f401daa", "name": "12172bb26a20850161f0c1cb1f401daa", "rental_uris": {"ios": "https://dc.lft.to/lastmile_qr_scan", "android": "https://dc.lft.to/lastmile_qr_scan"}}, {"is_disabled": 0, "fusion_lat": 0.0, "lat": 38.876282, "type": "electric_scooter", "lon": -76.96528933333333, "is_reserved": 0, "fusion_lon": 0.0, "bike_id": "e7914a10c41840978fb36a30f4fa5d63", "name": "e7914a10c41840978fb36a30f4fa5d63", "rental_uris": {"ios": "https://dc.lft.to/lastmile_qr_scan", "android": "https://dc.lft.to/lastmile_qr_scan"}}, {"is_disabled": 0, "fusion_lat": 0.0, "lat": 38.912663, "type": "electric_scooter", "lon": -77.03391016666667, "is_reserved": 0, "fusion_lon": 0.0, "bike_id": "70f558b21043499a325842963f934ff0", "name": "70f558b21043499a325842963f934ff0", "rental_uris": {"ios": "https://dc.lft.to/lastmile_qr_scan", "android": "https://dc.lft.to/lastmile_qr_scan"}}, {"is_disabled": 0, "fusion_lat": 0.0, "lat": 38.919595, "type": "electric_scooter", "lon": -77.027152, "is_reserved": 0, "fusion_lon": 0.0, "bike_id": "aee927279143764ca9a42c681fb2c56f", "name": "aee927279143764ca9a42c681fb2c56f", "rental_uris": {"ios": "https://dc.lft.to/lastmile_qr_scan", "android": "https://dc.lft.to/lastmile_qr_scan"}}, {"is_disabled": 0, "fusion_lat": 0.0, "lat": 38.9083515, "type": "electric_scooter", "lon": -77.02695733333333, "is_reserved": 0, "fusion_lon": 0.0, "bike_id": "1de9731f6f3af1c4ba5ec3b084870c0f", "name": "1de9731f6f3af1c4ba5ec3b084870c0f", "rental_uris": {"ios": "https://dc.lft.to/lastmile_qr_scan", "android": "https://dc.lft.to/lastmile_qr_scan"}}, {"is_disabled": 0, "fusion_lat": 0.0, "lat": 38.866588166666666, "type": "electric_scooter", "lon": -76.989036, "is_reserved": 0, "fusion_lon": 0.0, "bike_id": "5245f5e7be892e16a34fc59f03272ce4", "name": "5245f5e7be892e16a34fc59f03272ce4", "rental_uris": {"ios": "https://dc.lft.to/lastmile_qr_scan", "android": "https://dc.lft.to/lastmile_qr_scan"}}, {"is_disabled": 0, "fusion_lat": 0.0, "lat": 38.93629933333333, "type": "electric_scooter", "lon": -77.03662916666667, "is_reserved": 0, "fusion_lon": 0.0, "bike_id": "43c30126980e78a8a6208b1f39645788", "name": "43c30126980e78a8a6208b1f39645788", "rental_uris": {"ios": "https://dc.lft.to/lastmile_qr_scan", "android": "https://dc.lft.to/lastmile_qr_scan"}}, {"is_disabled": 0, "fusion_lat": 0.0, "lat": 38.93986866666667, "type": "electric_scooter", "lon": -77.028935, "is_reserved": 0, "fusion_lon": 0.0, "bike_id": "4b37f187e3fece1fa45e1ff637d7f59d", "name": "4b37f187e3fece1fa45e1ff637d7f59d", "rental_uris": {"ios": "https://dc.lft.to/lastmile_qr_scan", "android": "https://dc.lft.to/lastmile_qr_scan"}}, {"is_disabled": 0, "fusion_lat": 0.0, "lat": 38.85967183333333, "type": "electric_scooter", "lon": -76.99122083333333, "is_reserved": 0, "fusion_lon": 0.0, "bike_id": "37cdff90189b6565008df611919f6ebb", "name": "37cdff90189b6565008df611919f6ebb", "rental_uris": {"ios": "https://dc.lft.to/lastmile_qr_scan", "android": "https://dc.lft.to/lastmile_qr_scan"}}, {"is_disabled": 0, "fusion_lat": 0.0, "lat": 38.924735166666665, "type": "electric_scooter", "lon": -77.02631833333334, "is_reserved": 0, "fusion_lon": 0.0, "bike_id": "0a59a2655f1e36f75d4207ad30b31b4f", "name": "0a59a2655f1e36f75d4207ad30b31b4f", "rental_uris": {"ios": "https://dc.lft.to/lastmile_qr_scan", "android": "https://dc.lft.to/lastmile_qr_scan"}}, {"is_disabled": 0, "fusion_lat": 0.0, "lat": 38.89220916666667, "type": "electric_scooter", "lon": -77.04656733333333, "is_reserved": 0, "fusion_lon": 0.0, "bike_id": "46a1d235d5a54366bc59f2afd4f5abab", "name": "46a1d235d5a54366bc59f2afd4f5abab", "rental_uris": {"ios": "https://dc.lft.to/lastmile_qr_scan", "android": "https://dc.lft.to/lastmile_qr_scan"}}, {"is_disabled": 0, "fusion_lat": 0.0, "lat": 38.918034666666664, "type": "electric_scooter", "lon": -77.03303916666667, "is_reserved": 0, "fusion_lon": 0.0, "bike_id": "0343f80872e68695b90e479cdf86186d", "name": "0343f80872e68695b90e479cdf86186d", "rental_uris": {"ios": "https://dc.lft.to/lastmile_qr_scan", "android": "https://dc.lft.to/lastmile_qr_scan"}}, {"is_disabled": 0, "fusion_lat": 0.0, "lat": 38.8784125, "type": "electric_scooter", "lon": -77.0196295, "is_reserved": 0, "fusion_lon": 0.0, "bike_id": "bed85b8fd52919bb8d9904945bbbcd0c", "name": "bed85b8fd52919bb8d9904945bbbcd0c", "rental_uris": {"ios": "https://dc.lft.to/lastmile_qr_scan", "android": "https://dc.lft.to/lastmile_qr_scan"}}, {"is_disabled": 0, "fusion_lat": 0.0, "lat": 38.91298533333333, "type": "electric_scooter", "lon": -77.0196665, "is_reserved": 0, "fusion_lon": 0.0, "bike_id": "6ea3b2aed64017aa659df67be1a5e442", "name": "6ea3b2aed64017aa659df67be1a5e442", "rental_uris": {"ios": "https://dc.lft.to/lastmile_qr_scan", "android": "https://dc.lft.to/lastmile_qr_scan"}}, {"is_disabled": 0, "fusion_lat": 0.0, "lat": 38.916882333333334, "type": "electric_scooter", "lon": -77.04604516666667, "is_reserved": 0, "fusion_lon": 0.0, "bike_id": "a223c2b082372614d720bd8815f87708", "name": "a223c2b082372614d720bd8815f87708", "rental_uris": {"ios": "https://dc.lft.to/lastmile_qr_scan", "android": "https://dc.lft.to/lastmile_qr_scan"}}, {"is_disabled": 0, "fusion_lat": 0.0, "lat": 38.9137645, "type": "electric_scooter", "lon": -77.004611, "is_reserved": 0, "fusion_lon": 0.0, "bike_id": "f3c74aab9153ec3ffe4a303567ccac0a", "name": "f3c74aab9153ec3ffe4a303567ccac0a", "rental_uris": {"ios": "https://dc.lft.to/lastmile_qr_scan", "android": "https://dc.lft.to/lastmile_qr_scan"}}, {"is_disabled": 0, "fusion_lat": 0.0, "lat": 38.921506, "type": "electric_scooter", "lon": -77.0388415, "is_reserved": 0, "fusion_lon": 0.0, "bike_id": "49c4853a07eafa9b7b6be62ff8634ad8", "name": "49c4853a07eafa9b7b6be62ff8634ad8", "rental_uris": {"ios": "https://dc.lft.to/lastmile_qr_scan", "android": "https://dc.lft.to/lastmile_qr_scan"}}, {"is_disabled": 0, "fusion_lat": 0.0, "lat": 38.87234633333333, "type": "electric_bike", "lon": -77.0116225, "is_reserved": 0, "fusion_lon": 0.0, "bike_id": "64df53a50ff21a55dbf4da482879ab27", "name": "64df53a50ff21a55dbf4da482879ab27", "rental_uris": {"ios": "https://dc.lft.to/lastmile_qr_scan", "android": "https://dc.lft.to/lastmile_qr_scan"}}, {"is_disabled": 0, "fusion_lat": 0.0, "lat": 38.900039166666666, "type": "electric_scooter", "lon": -76.9901445, "is_reserved": 0, "fusion_lon": 0.0, "bike_id": "13c1b525220a4bac3b69844b3c04acb5", "name": "13c1b525220a4bac3b69844b3c04acb5", "rental_uris": {"ios": "https://dc.lft.to/lastmile_qr_scan", "android": "https://dc.lft.to/lastmile_qr_scan"}}, {"is_disabled": 0, "fusion_lat": 0.0, "lat": 38.896143, "type": "electric_scooter", "lon": -76.98120983333334, "is_reserved": 0, "fusion_lon": 0.0, "bike_id": "7440e151ccdac7dcfce79765a9e4bbbb", "name": "7440e151ccdac7dcfce79765a9e4bbbb", "rental_uris": {"ios": "https://dc.lft.to/lastmile_qr_scan", "android": "https://dc.lft.to/lastmile_qr_scan"}}, {"is_disabled": 0, "fusion_lat": 0.0, "lat": 38.950941666666665, "type": "electric_scooter", "lon": -77.0233945, "is_reserved": 0, "fusion_lon": 0.0, "bike_id": "f0965811e637664a591d477d9e2e4956", "name": "f0965811e637664a591d477d9e2e4956", "rental_uris": {"ios": "https://dc.lft.to/lastmile_qr_scan", "android": "https://dc.lft.to/lastmile_qr_scan"}}, {"is_disabled": 0, "fusion_lat": 0.0, "lat": 38.865714833333335, "type": "electric_scooter", "lon": -76.98947616666666, "is_reserved": 0, "fusion_lon": 0.0, "bike_id": "e25dc399c73040bbaa272122fd68ff3e", "name": "e25dc399c73040bbaa272122fd68ff3e", "rental_uris": {"ios": "https://dc.lft.to/lastmile_qr_scan", "android": "https://dc.lft.to/lastmile_qr_scan"}}, {"is_disabled": 0, "fusion_lat": 0.0, "lat": 38.894726166666665, "type": "electric_scooter", "lon": -76.98397616666666, "is_reserved": 0, "fusion_lon": 0.0, "bike_id": "39f4cf5e504599acec125830f4e52622", "name": "39f4cf5e504599acec125830f4e52622", "rental_uris": {"ios": "https://dc.lft.to/lastmile_qr_scan", "android": "https://dc.lft.to/lastmile_qr_scan"}}, {"is_disabled": 0, "fusion_lat": 0.0, "lat": 38.9100905, "type": "electric_scooter", "lon": -77.0889645, "is_reserved": 0, "fusion_lon": 0.0, "bike_id": "2fdbc4142eead1712c188c1d5bb5de12", "name": "2fdbc4142eead1712c188c1d5bb5de12", "rental_uris": {"ios": "https://dc.lft.to/lastmile_qr_scan", "android": "https://dc.lft.to/lastmile_qr_scan"}}, {"is_disabled": 0, "fusion_lat": 0.0, "lat": 38.86169616666667, "type": "electric_bike", "lon": -77.13146516666667, "is_reserved": 0, "fusion_lon": 0.0, "bike_id": "872c0e7ea65023a5e219f346cd464783", "name": "872c0e7ea65023a5e219f346cd464783", "rental_uris": {"ios": "https://dc.lft.to/lastmile_qr_scan", "android": "https://dc.lft.to/lastmile_qr_scan"}}, {"is_disabled": 0, "fusion_lat": 0.0, "lat": 38.93699216666667, "type": "electric_bike", "lon": -77.02979516666667, "is_reserved": 0, "fusion_lon": 0.0, "bike_id": "15a30848ef6509a3a991bb35ea1db7b7", "name": "15a30848ef6509a3a991bb35ea1db7b7", "rental_uris": {"ios": "https://dc.lft.to/lastmile_qr_scan", "android": "https://dc.lft.to/lastmile_qr_scan"}}, {"is_disabled": 0, "fusion_lat": 0.0, "lat": 38.871387166666665, "type": "electric_bike", "lon": -76.936663, "is_reserved": 0, "fusion_lon": 0.0, "bike_id": "1728d9a461544328521fab35f05d92ef", "name": "1728d9a461544328521fab35f05d92ef", "rental_uris": {"ios": "https://dc.lft.to/lastmile_qr_scan", "android": "https://dc.lft.to/lastmile_qr_scan"}}, {"is_disabled": 0, "fusion_lat": 0.0, "lat": 38.916784666666665, "type": "electric_scooter", "lon": -76.97286416666667, "is_reserved": 0, "fusion_lon": 0.0, "bike_id": "fa8c8427a7f1ea8f2941d4fc153222a8", "name": "fa8c8427a7f1ea8f2941d4fc153222a8", "rental_uris": {"ios": "https://dc.lft.to/lastmile_qr_scan", "android": "https://dc.lft.to/lastmile_qr_scan"}}, {"is_disabled": 0, "fusion_lat": 0.0, "lat": 38.94794533333334, "type": "electric_bike", "lon": -77.0081185, "is_reserved": 0, "fusion_lon": 0.0, "bike_id": "503763f1747b3cc1959876bd2c4e85d7", "name": "503763f1747b3cc1959876bd2c4e85d7", "rental_uris": {"ios": "https://dc.lft.to/lastmile_qr_scan", "android": "https://dc.lft.to/lastmile_qr_scan"}}, {"is_disabled": 0, "fusion_lat": 0.0, "lat": 38.89613933333333, "type": "electric_scooter", "lon": -76.99422966666667, "is_reserved": 0, "fusion_lon": 0.0, "bike_id": "ea74277e6a0db9e99501cf2cd1827fcf", "name": "ea74277e6a0db9e99501cf2cd1827fcf", "rental_uris": {"ios": "https://dc.lft.to/lastmile_qr_scan", "android": "https://dc.lft.to/lastmile_qr_scan"}}, {"is_disabled": 0, "fusion_lat": 0.0, "lat": 38.953524333333334, "type": "electric_bike", "lon": -76.98083383333334, "is_reserved": 0, "fusion_lon": 0.0, "bike_id": "f615bb132bb1728b7df73fc3a8c83c91", "name": "f615bb132bb1728b7df73fc3a8c83c91", "rental_uris": {"ios": "https://dc.lft.to/lastmile_qr_scan", "android": "https://dc.lft.to/lastmile_qr_scan"}}, {"is_disabled": 0, "fusion_lat": 0.0, "lat": 38.924973, "type": "electric_scooter", "lon": -77.02154916666667, "is_reserved": 0, "fusion_lon": 0.0, "bike_id": "03a365874b146254f1299222179322ef", "name": "03a365874b146254f1299222179322ef", "rental_uris": {"ios": "https://dc.lft.to/lastmile_qr_scan", "android": "https://dc.lft.to/lastmile_qr_scan"}}, {"is_disabled": 0, "fusion_lat": 0.0, "lat": 38.89993533333333, "type": "electric_scooter", "lon": -77.006217, "is_reserved": 0, "fusion_lon": 0.0, "bike_id": "d25f671513c3e3408611173cc700cb98", "name": "d25f671513c3e3408611173cc700cb98", "rental_uris": {"ios": "https://dc.lft.to/lastmile_qr_scan", "android": "https://dc.lft.to/lastmile_qr_scan"}}, {"is_disabled": 0, "fusion_lat": 0.0, "lat": 38.9015975, "type": "electric_scooter", "lon": -77.02548516666667, "is_reserved": 0, "fusion_lon": 0.0, "bike_id": "38295c02afb7511de94fd39ef96dec55", "name": "38295c02afb7511de94fd39ef96dec55", "rental_uris": {"ios": "https://dc.lft.to/lastmile_qr_scan", "android": "https://dc.lft.to/lastmile_qr_scan"}}, {"is_disabled": 0, "fusion_lat": 0.0, "lat": 38.88311783333333, "type": "electric_scooter", "lon": -77.00932083333333, "is_reserved": 0, "fusion_lon": 0.0, "bike_id": "78e9eb7d390356d6815e5a804d5b2baa", "name": "78e9eb7d390356d6815e5a804d5b2baa", "rental_uris": {"ios": "https://dc.lft.to/lastmile_qr_scan", "android": "https://dc.lft.to/lastmile_qr_scan"}}, {"is_disabled": 0, "fusion_lat": 0.0, "lat": 38.92287866666667, "type": "electric_scooter", "lon": -77.03195266666667, "is_reserved": 0, "fusion_lon": 0.0, "bike_id": "cf09718a760a548a356f83cc29503578", "name": "cf09718a760a548a356f83cc29503578", "rental_uris": {"ios": "https://dc.lft.to/lastmile_qr_scan", "android": "https://dc.lft.to/lastmile_qr_scan"}}, {"is_disabled": 0, "fusion_lat": 0.0, "lat": 38.875446333333336, "type": "electric_scooter", "lon": -77.00065033333334, "is_reserved": 0, "fusion_lon": 0.0, "bike_id": "1dac2306e81ccda7e7454983e2ac30a9", "name": "1dac2306e81ccda7e7454983e2ac30a9", "rental_uris": {"ios": "https://dc.lft.to/lastmile_qr_scan", "android": "https://dc.lft.to/lastmile_qr_scan"}}, {"is_disabled": 0, "fusion_lat": 0.0, "lat": 38.89917, "type": "electric_scooter", "lon": -77.0330245, "is_reserved": 0, "fusion_lon": 0.0, "bike_id": "b8e23525f1e4288ccbe78345ec4e8144", "name": "b8e23525f1e4288ccbe78345ec4e8144", "rental_uris": {"ios": "https://dc.lft.to/lastmile_qr_scan", "android": "https://dc.lft.to/lastmile_qr_scan"}}, {"is_disabled": 0, "fusion_lat": 0.0, "lat": 38.948905833333335, "type": "electric_bike", "lon": -76.96382916666667, "is_reserved": 0, "fusion_lon": 0.0, "bike_id": "f6a12e0db267cd3b46f20cfe01ef6f5c", "name": "f6a12e0db267cd3b46f20cfe01ef6f5c", "rental_uris": {"ios": "https://dc.lft.to/lastmile_qr_scan", "android": "https://dc.lft.to/lastmile_qr_scan"}}, {"is_disabled": 0, "fusion_lat": 0.0, "lat": 38.90387283333333, "type": "electric_scooter", "lon": -77.03917133333333, "is_reserved": 0, "fusion_lon": 0.0, "bike_id": "ded87236b8bab2cd51bc8f7bc0111613", "name": "ded87236b8bab2cd51bc8f7bc0111613", "rental_uris": {"ios": "https://dc.lft.to/lastmile_qr_scan", "android": "https://dc.lft.to/lastmile_qr_scan"}}, {"is_disabled": 0, "fusion_lat": 0.0, "lat": 38.9214765, "type": "electric_scooter", "lon": -77.03869783333333, "is_reserved": 0, "fusion_lon": 0.0, "bike_id": "e54bfa5455ea7c7ac5f77b384d2c6d5d", "name": "e54bfa5455ea7c7ac5f77b384d2c6d5d", "rental_uris": {"ios": "https://dc.lft.to/lastmile_qr_scan", "android": "https://dc.lft.to/lastmile_qr_scan"}}, {"is_disabled": 0, "fusion_lat": 0.0, "lat": 38.892473333333335, "type": "electric_scooter", "lon": -76.9432455, "is_reserved": 0, "fusion_lon": 0.0, "bike_id": "0fa7f7498f08ebaa36818f3159d50e29", "name": "0fa7f7498f08ebaa36818f3159d50e29", "rental_uris": {"ios": "https://dc.lft.to/lastmile_qr_scan", "android": "https://dc.lft.to/lastmile_qr_scan"}}, {"is_disabled": 0, "fusion_lat": 0.0, "lat": 38.90138266666666, "type": "electric_scooter", "lon": -76.9980245, "is_reserved": 0, "fusion_lon": 0.0, "bike_id": "39a038be89ecbbe1c8717f7c72712496", "name": "39a038be89ecbbe1c8717f7c72712496", "rental_uris": {"ios": "https://dc.lft.to/lastmile_qr_scan", "android": "https://dc.lft.to/lastmile_qr_scan"}}, {"is_disabled": 0, "fusion_lat": 0.0, "lat": 38.916084833333336, "type": "electric_scooter", "lon": -77.02710483333334, "is_reserved": 0, "fusion_lon": 0.0, "bike_id": "cb4c1792a363fad4c33befeb8f39a606", "name": "cb4c1792a363fad4c33befeb8f39a606", "rental_uris": {"ios": "https://dc.lft.to/lastmile_qr_scan", "android": "https://dc.lft.to/lastmile_qr_scan"}}, {"is_disabled": 0, "fusion_lat": 0.0, "lat": 38.9126755, "type": "electric_scooter", "lon": -77.04173433333334, "is_reserved": 0, "fusion_lon": 0.0, "bike_id": "e26ff6a37b9c7f5673d673ac4d01b41e", "name": "e26ff6a37b9c7f5673d673ac4d01b41e", "rental_uris": {"ios": "https://dc.lft.to/lastmile_qr_scan", "android": "https://dc.lft.to/lastmile_qr_scan"}}, {"is_disabled": 0, "fusion_lat": 0.0, "lat": 38.938262, "type": "electric_bike", "lon": -77.032914, "is_reserved": 0, "fusion_lon": 0.0, "bike_id": "c687a08f52a2445b49c44845087c6ac8", "name": "c687a08f52a2445b49c44845087c6ac8", "rental_uris": {"ios": "https://dc.lft.to/lastmile_qr_scan", "android": "https://dc.lft.to/lastmile_qr_scan"}}, {"is_disabled": 0, "fusion_lat": 0.0, "lat": 38.90849033333333, "type": "electric_scooter", "lon": -77.02465166666667, "is_reserved": 0, "fusion_lon": 0.0, "bike_id": "936f57566d9c3727b1bbc91c10fc7ab1", "name": "936f57566d9c3727b1bbc91c10fc7ab1", "rental_uris": {"ios": "https://dc.lft.to/lastmile_qr_scan", "android": "https://dc.lft.to/lastmile_qr_scan"}}, {"is_disabled": 0, "fusion_lat": 0.0, "lat": 38.911084, "type": "electric_scooter", "lon": -77.04508816666667, "is_reserved": 0, "fusion_lon": 0.0, "bike_id": "93be6d6a90694f1fcaed80f4906b485b", "name": "93be6d6a90694f1fcaed80f4906b485b", "rental_uris": {"ios": "https://dc.lft.to/lastmile_qr_scan", "android": "https://dc.lft.to/lastmile_qr_scan"}}, {"is_disabled": 0, "fusion_lat": 0.0, "lat": 38.905919833333336, "type": "electric_scooter", "lon": -77.032513, "is_reserved": 0, "fusion_lon": 0.0, "bike_id": "3e5fa5f9c4ad615fa72e1eb18e5685fc", "name": "3e5fa5f9c4ad615fa72e1eb18e5685fc", "rental_uris": {"ios": "https://dc.lft.to/lastmile_qr_scan", "android": "https://dc.lft.to/lastmile_qr_scan"}}, {"is_disabled": 0, "fusion_lat": 0.0, "lat": 38.889924, "type": "electric_scooter", "lon": -76.9471035, "is_reserved": 0, "fusion_lon": 0.0, "bike_id": "796272f71328e4fa9c205e1f751d906c", "name": "796272f71328e4fa9c205e1f751d906c", "rental_uris": {"ios": "https://dc.lft.to/lastmile_qr_scan", "android": "https://dc.lft.to/lastmile_qr_scan"}}, {"is_disabled": 0, "fusion_lat": 0.0, "lat": 38.8323875, "type": "electric_bike", "lon": -76.9462915, "is_reserved": 0, "fusion_lon": 0.0, "bike_id": "549b5b77375772f36e98646d02f93c43", "name": "549b5b77375772f36e98646d02f93c43", "rental_uris": {"ios": "https://dc.lft.to/lastmile_qr_scan", "android": "https://dc.lft.to/lastmile_qr_scan"}}, {"is_disabled": 0, "fusion_lat": 0.0, "lat": 38.92547016666666, "type": "electric_scooter", "lon": -77.03367233333333, "is_reserved": 0, "fusion_lon": 0.0, "bike_id": "7cc202430f2309dfe0d6b4fa954b5ee8", "name": "7cc202430f2309dfe0d6b4fa954b5ee8", "rental_uris": {"ios": "https://dc.lft.to/lastmile_qr_scan", "android": "https://dc.lft.to/lastmile_qr_scan"}}, {"is_disabled": 0, "fusion_lat": 0.0, "lat": 38.86457333333333, "type": "electric_scooter", "lon": -76.98245833333333, "is_reserved": 0, "fusion_lon": 0.0, "bike_id": "76352c1d7856db2d0cf16d2944a21fd3", "name": "76352c1d7856db2d0cf16d2944a21fd3", "rental_uris": {"ios": "https://dc.lft.to/lastmile_qr_scan", "android": "https://dc.lft.to/lastmile_qr_scan"}}, {"is_disabled": 0, "fusion_lat": 0.0, "lat": 38.92442583333333, "type": "electric_scooter", "lon": -77.020371, "is_reserved": 0, "fusion_lon": 0.0, "bike_id": "046845e221c18a900d845121d55aa54b", "name": "046845e221c18a900d845121d55aa54b", "rental_uris": {"ios": "https://dc.lft.to/lastmile_qr_scan", "android": "https://dc.lft.to/lastmile_qr_scan"}}, {"is_disabled": 0, "fusion_lat": 0.0, "lat": 38.927420166666664, "type": "electric_scooter", "lon": -77.03557633333334, "is_reserved": 0, "fusion_lon": 0.0, "bike_id": "da092bad92e2a5489deb018b2c63d8b3", "name": "da092bad92e2a5489deb018b2c63d8b3", "rental_uris": {"ios": "https://dc.lft.to/lastmile_qr_scan", "android": "https://dc.lft.to/lastmile_qr_scan"}}, {"is_disabled": 0, "fusion_lat": 0.0, "lat": 38.915703666666666, "type": "electric_scooter", "lon": -77.0469715, "is_reserved": 0, "fusion_lon": 0.0, "bike_id": "7f8baff9201b6d93c002be3d657f5b24", "name": "7f8baff9201b6d93c002be3d657f5b24", "rental_uris": {"ios": "https://dc.lft.to/lastmile_qr_scan", "android": "https://dc.lft.to/lastmile_qr_scan"}}, {"is_disabled": 0, "fusion_lat": 0.0, "lat": 38.91116433333333, "type": "electric_scooter", "lon": -77.038341, "is_reserved": 0, "fusion_lon": 0.0, "bike_id": "7ded1d38403a446255a0c8085890f55a", "name": "7ded1d38403a446255a0c8085890f55a", "rental_uris": {"ios": "https://dc.lft.to/lastmile_qr_scan", "android": "https://dc.lft.to/lastmile_qr_scan"}}, {"is_disabled": 0, "fusion_lat": 0.0, "lat": 38.978797166666666, "type": "electric_scooter", "lon": -77.02553333333333, "is_reserved": 0, "fusion_lon": 0.0, "bike_id": "3758233b5ff2370682d61e2020ecaca8", "name": "3758233b5ff2370682d61e2020ecaca8", "rental_uris": {"ios": "https://dc.lft.to/lastmile_qr_scan", "android": "https://dc.lft.to/lastmile_qr_scan"}}, {"is_disabled": 0, "fusion_lat": 0.0, "lat": 38.917447333333335, "type": "electric_scooter", "lon": -77.03188383333334, "is_reserved": 0, "fusion_lon": 0.0, "bike_id": "d3b1f7045998577e76f6e9387fddb647", "name": "d3b1f7045998577e76f6e9387fddb647", "rental_uris": {"ios": "https://dc.lft.to/lastmile_qr_scan", "android": "https://dc.lft.to/lastmile_qr_scan"}}, {"is_disabled": 0, "fusion_lat": 0.0, "lat": 38.90920766666667, "type": "electric_scooter", "lon": -77.04383266666666, "is_reserved": 0, "fusion_lon": 0.0, "bike_id": "ea57d79e6cf7f5d011773844da2a7da6", "name": "ea57d79e6cf7f5d011773844da2a7da6", "rental_uris": {"ios": "https://dc.lft.to/lastmile_qr_scan", "android": "https://dc.lft.to/lastmile_qr_scan"}}, {"is_disabled": 0, "fusion_lat": 0.0, "lat": 38.9097385, "type": "electric_scooter", "lon": -77.0387075, "is_reserved": 0, "fusion_lon": 0.0, "bike_id": "fa1d739cbf82567259350c58d30560bb", "name": "fa1d739cbf82567259350c58d30560bb", "rental_uris": {"ios": "https://dc.lft.to/lastmile_qr_scan", "android": "https://dc.lft.to/lastmile_qr_scan"}}, {"is_disabled": 0, "fusion_lat": 0.0, "lat": 38.94085533333333, "type": "electric_scooter", "lon": -77.02722833333333, "is_reserved": 0, "fusion_lon": 0.0, "bike_id": "9ab0bd8e3ad4a76246acbd815544fd07", "name": "9ab0bd8e3ad4a76246acbd815544fd07", "rental_uris": {"ios": "https://dc.lft.to/lastmile_qr_scan", "android": "https://dc.lft.to/lastmile_qr_scan"}}, {"is_disabled": 0, "fusion_lat": 0.0, "lat": 38.919595, "type": "electric_scooter", "lon": -77.03210366666667, "is_reserved": 0, "fusion_lon": 0.0, "bike_id": "dd6fb6231da9072578665374eeb68a71", "name": "dd6fb6231da9072578665374eeb68a71", "rental_uris": {"ios": "https://dc.lft.to/lastmile_qr_scan", "android": "https://dc.lft.to/lastmile_qr_scan"}}, {"is_disabled": 0, "fusion_lat": 0.0, "lat": 38.9066765, "type": "electric_scooter", "lon": -77.027138, "is_reserved": 0, "fusion_lon": 0.0, "bike_id": "78ec6190450eccf6a92be2182e4fbffa", "name": "78ec6190450eccf6a92be2182e4fbffa", "rental_uris": {"ios": "https://dc.lft.to/lastmile_qr_scan", "android": "https://dc.lft.to/lastmile_qr_scan"}}, {"is_disabled": 0, "fusion_lat": 0.0, "lat": 38.919207166666666, "type": "electric_scooter", "lon": -77.034234, "is_reserved": 0, "fusion_lon": 0.0, "bike_id": "684cd9e786c6b9f2fcc7a12c68942869", "name": "684cd9e786c6b9f2fcc7a12c68942869", "rental_uris": {"ios": "https://dc.lft.to/lastmile_qr_scan", "android": "https://dc.lft.to/lastmile_qr_scan"}}, {"is_disabled": 0, "fusion_lat": 0.0, "lat": 38.9353635, "type": "electric_scooter", "lon": -77.023526, "is_reserved": 0, "fusion_lon": 0.0, "bike_id": "8d38782307afd67d0f5c35c7187796d3", "name": "8d38782307afd67d0f5c35c7187796d3", "rental_uris": {"ios": "https://dc.lft.to/lastmile_qr_scan", "android": "https://dc.lft.to/lastmile_qr_scan"}}, {"is_disabled": 0, "fusion_lat": 0.0, "lat": 38.9376495, "type": "electric_scooter", "lon": -77.02116983333333, "is_reserved": 0, "fusion_lon": 0.0, "bike_id": "d5b443b2da9de3d0d32027dc342de6b4", "name": "d5b443b2da9de3d0d32027dc342de6b4", "rental_uris": {"ios": "https://dc.lft.to/lastmile_qr_scan", "android": "https://dc.lft.to/lastmile_qr_scan"}}, {"is_disabled": 0, "fusion_lat": 0.0, "lat": 38.919473333333336, "type": "electric_scooter", "lon": -77.0320955, "is_reserved": 0, "fusion_lon": 0.0, "bike_id": "4e4bbaee29bbb1f45eb8242a6a5789ee", "name": "4e4bbaee29bbb1f45eb8242a6a5789ee", "rental_uris": {"ios": "https://dc.lft.to/lastmile_qr_scan", "android": "https://dc.lft.to/lastmile_qr_scan"}}, {"is_disabled": 0, "fusion_lat": 0.0, "lat": 38.9079815, "type": "electric_scooter", "lon": -77.04482833333333, "is_reserved": 0, "fusion_lon": 0.0, "bike_id": "026e99997a89ceeab6719571e6d7c0a3", "name": "026e99997a89ceeab6719571e6d7c0a3", "rental_uris": {"ios": "https://dc.lft.to/lastmile_qr_scan", "android": "https://dc.lft.to/lastmile_qr_scan"}}, {"is_disabled": 0, "fusion_lat": 0.0, "lat": 38.92636983333333, "type": "electric_scooter", "lon": -77.0133915, "is_reserved": 0, "fusion_lon": 0.0, "bike_id": "2573fd4405802adc9a892e526c56f369", "name": "2573fd4405802adc9a892e526c56f369", "rental_uris": {"ios": "https://dc.lft.to/lastmile_qr_scan", "android": "https://dc.lft.to/lastmile_qr_scan"}}, {"is_disabled": 0, "fusion_lat": 0.0, "lat": 38.952653166666664, "type": "electric_bike", "lon": -77.06984866666667, "is_reserved": 0, "fusion_lon": 0.0, "bike_id": "f07e13f417fb78d01250015ee3ca2d6e", "name": "f07e13f417fb78d01250015ee3ca2d6e", "rental_uris": {"ios": "https://dc.lft.to/lastmile_qr_scan", "android": "https://dc.lft.to/lastmile_qr_scan"}}, {"is_disabled": 0, "fusion_lat": 0.0, "lat": 38.9259845, "type": "electric_scooter", "lon": -77.05694583333333, "is_reserved": 0, "fusion_lon": 0.0, "bike_id": "14b31d70ded59cfb203443ebe3b20fa1", "name": "14b31d70ded59cfb203443ebe3b20fa1", "rental_uris": {"ios": "https://dc.lft.to/lastmile_qr_scan", "android": "https://dc.lft.to/lastmile_qr_scan"}}, {"is_disabled": 0, "fusion_lat": 0.0, "lat": 38.8989925, "type": "electric_scooter", "lon": -77.00726716666667, "is_reserved": 0, "fusion_lon": 0.0, "bike_id": "40522dc896973643a7a3f80107797edc", "name": "40522dc896973643a7a3f80107797edc", "rental_uris": {"ios": "https://dc.lft.to/lastmile_qr_scan", "android": "https://dc.lft.to/lastmile_qr_scan"}}, {"is_disabled": 0, "fusion_lat": 0.0, "lat": 38.82081816666667, "type": "electric_bike", "lon": -77.05365, "is_reserved": 0, "fusion_lon": 0.0, "bike_id": "3a7f8bf76de296e3e78e2b5a623f3cd3", "name": "3a7f8bf76de296e3e78e2b5a623f3cd3", "rental_uris": {"ios": "https://dc.lft.to/lastmile_qr_scan", "android": "https://dc.lft.to/lastmile_qr_scan"}}, {"is_disabled": 0, "fusion_lat": 0.0, "lat": 38.9181825, "type": "electric_scooter", "lon": -77.0352525, "is_reserved": 0, "fusion_lon": 0.0, "bike_id": "4ea8dc0c82efb503b2f445eda682ce02", "name": "4ea8dc0c82efb503b2f445eda682ce02", "rental_uris": {"ios": "https://dc.lft.to/lastmile_qr_scan", "android": "https://dc.lft.to/lastmile_qr_scan"}}, {"is_disabled": 0, "fusion_lat": 0.0, "lat": 38.923199333333336, "type": "electric_scooter", "lon": -77.03899366666667, "is_reserved": 0, "fusion_lon": 0.0, "bike_id": "cd1766d9b774097b164a3e354a0a3091", "name": "cd1766d9b774097b164a3e354a0a3091", "rental_uris": {"ios": "https://dc.lft.to/lastmile_qr_scan", "android": "https://dc.lft.to/lastmile_qr_scan"}}, {"is_disabled": 0, "fusion_lat": 0.0, "lat": 38.95082766666667, "type": "electric_scooter", "lon": -77.02830516666667, "is_reserved": 0, "fusion_lon": 0.0, "bike_id": "01709c35fd7cc51d1c8c72ed4258eb99", "name": "01709c35fd7cc51d1c8c72ed4258eb99", "rental_uris": {"ios": "https://dc.lft.to/lastmile_qr_scan", "android": "https://dc.lft.to/lastmile_qr_scan"}}, {"is_disabled": 0, "fusion_lat": 0.0, "lat": 38.870761333333334, "type": "electric_bike", "lon": -77.0121235, "is_reserved": 0, "fusion_lon": 0.0, "bike_id": "23e68e935882aa2bf2ca6ff776615659", "name": "23e68e935882aa2bf2ca6ff776615659", "rental_uris": {"ios": "https://dc.lft.to/lastmile_qr_scan", "android": "https://dc.lft.to/lastmile_qr_scan"}}, {"is_disabled": 0, "fusion_lat": 0.0, "lat": 38.917575666666664, "type": "electric_scooter", "lon": -77.03660216666667, "is_reserved": 0, "fusion_lon": 0.0, "bike_id": "69ab88be704c7930e25250b57ebf5621", "name": "69ab88be704c7930e25250b57ebf5621", "rental_uris": {"ios": "https://dc.lft.to/lastmile_qr_scan", "android": "https://dc.lft.to/lastmile_qr_scan"}}, {"is_disabled": 0, "fusion_lat": 0.0, "lat": 38.9223685, "type": "electric_scooter", "lon": -77.030987, "is_reserved": 0, "fusion_lon": 0.0, "bike_id": "ae9639b08e726623e9b589cd10af491d", "name": "ae9639b08e726623e9b589cd10af491d", "rental_uris": {"ios": "https://dc.lft.to/lastmile_qr_scan", "android": "https://dc.lft.to/lastmile_qr_scan"}}, {"is_disabled": 0, "fusion_lat": 0.0, "lat": 38.8844775, "type": "electric_scooter", "lon": -76.9509965, "is_reserved": 0, "fusion_lon": 0.0, "bike_id": "b124c39d6e5bb4aa87ba33a02a79bc4f", "name": "b124c39d6e5bb4aa87ba33a02a79bc4f", "rental_uris": {"ios": "https://dc.lft.to/lastmile_qr_scan", "android": "https://dc.lft.to/lastmile_qr_scan"}}, {"is_disabled": 0, "fusion_lat": 0.0, "lat": 38.89681483333333, "type": "electric_scooter", "lon": -76.99625416666666, "is_reserved": 0, "fusion_lon": 0.0, "bike_id": "62529532b106c10626517da3f9ebd56b", "name": "62529532b106c10626517da3f9ebd56b", "rental_uris": {"ios": "https://dc.lft.to/lastmile_qr_scan", "android": "https://dc.lft.to/lastmile_qr_scan"}}, {"is_disabled": 0, "fusion_lat": 0.0, "lat": 38.88041183333333, "type": "electric_scooter", "lon": -76.98627516666667, "is_reserved": 0, "fusion_lon": 0.0, "bike_id": "284a887aaf337045b378136abdefdb5b", "name": "284a887aaf337045b378136abdefdb5b", "rental_uris": {"ios": "https://dc.lft.to/lastmile_qr_scan", "android": "https://dc.lft.to/lastmile_qr_scan"}}, {"is_disabled": 0, "fusion_lat": 0.0, "lat": 38.89222066666667, "type": "electric_scooter", "lon": -77.04196716666667, "is_reserved": 0, "fusion_lon": 0.0, "bike_id": "eb7d70e2d38115ed795f15e0b82a801e", "name": "eb7d70e2d38115ed795f15e0b82a801e", "rental_uris": {"ios": "https://dc.lft.to/lastmile_qr_scan", "android": "https://dc.lft.to/lastmile_qr_scan"}}, {"is_disabled": 0, "fusion_lat": 0.0, "lat": 38.92878783333333, "type": "electric_scooter", "lon": -77.01379866666667, "is_reserved": 0, "fusion_lon": 0.0, "bike_id": "0c3711247d38194712f739d29e37ba46", "name": "0c3711247d38194712f739d29e37ba46", "rental_uris": {"ios": "https://dc.lft.to/lastmile_qr_scan", "android": "https://dc.lft.to/lastmile_qr_scan"}}, {"is_disabled": 0, "fusion_lat": 0.0, "lat": 38.915531666666666, "type": "electric_scooter", "lon": -77.03029083333334, "is_reserved": 0, "fusion_lon": 0.0, "bike_id": "a2b4871fac629c9f71f6857557360f13", "name": "a2b4871fac629c9f71f6857557360f13", "rental_uris": {"ios": "https://dc.lft.to/lastmile_qr_scan", "android": "https://dc.lft.to/lastmile_qr_scan"}}, {"is_disabled": 0, "fusion_lat": 0.0, "lat": 38.89606033333333, "type": "electric_scooter", "lon": -77.00925583333333, "is_reserved": 0, "fusion_lon": 0.0, "bike_id": "5ebf3e584ce753db5ff681e0139b0c5c", "name": "5ebf3e584ce753db5ff681e0139b0c5c", "rental_uris": {"ios": "https://dc.lft.to/lastmile_qr_scan", "android": "https://dc.lft.to/lastmile_qr_scan"}}, {"is_disabled": 0, "fusion_lat": 0.0, "lat": 38.924106333333334, "type": "electric_scooter", "lon": -77.03640733333333, "is_reserved": 0, "fusion_lon": 0.0, "bike_id": "91d80d62d9d167adbb874b5bcd062908", "name": "91d80d62d9d167adbb874b5bcd062908", "rental_uris": {"ios": "https://dc.lft.to/lastmile_qr_scan", "android": "https://dc.lft.to/lastmile_qr_scan"}}, {"is_disabled": 0, "fusion_lat": 0.0, "lat": 38.8990945, "type": "electric_scooter", "lon": -76.93377083333333, "is_reserved": 0, "fusion_lon": 0.0, "bike_id": "2a1a8d14b6ca72fd8a730121d5fa6770", "name": "2a1a8d14b6ca72fd8a730121d5fa6770", "rental_uris": {"ios": "https://dc.lft.to/lastmile_qr_scan", "android": "https://dc.lft.to/lastmile_qr_scan"}}, {"is_disabled": 0, "fusion_lat": 0.0, "lat": 38.90715683333333, "type": "electric_scooter", "lon": -77.02977583333333, "is_reserved": 0, "fusion_lon": 0.0, "bike_id": "a1b6181c125c70630ed58dde53723530", "name": "a1b6181c125c70630ed58dde53723530", "rental_uris": {"ios": "https://dc.lft.to/lastmile_qr_scan", "android": "https://dc.lft.to/lastmile_qr_scan"}}, {"is_disabled": 0, "fusion_lat": 0.0, "lat": 38.895021166666666, "type": "electric_scooter", "lon": -77.0230255, "is_reserved": 0, "fusion_lon": 0.0, "bike_id": "80b0c3c8e6afbeaa8de5d9480b975b9b", "name": "80b0c3c8e6afbeaa8de5d9480b975b9b", "rental_uris": {"ios": "https://dc.lft.to/lastmile_qr_scan", "android": "https://dc.lft.to/lastmile_qr_scan"}}, {"is_disabled": 0, "fusion_lat": 0.0, "lat": 38.92538283333333, "type": "electric_scooter", "lon": -77.0411555, "is_reserved": 0, "fusion_lon": 0.0, "bike_id": "92d9ef8ac38dfd3434bb7bc95ee46823", "name": "92d9ef8ac38dfd3434bb7bc95ee46823", "rental_uris": {"ios": "https://dc.lft.to/lastmile_qr_scan", "android": "https://dc.lft.to/lastmile_qr_scan"}}, {"is_disabled": 0, "fusion_lat": 0.0, "lat": 38.908410333333336, "type": "electric_scooter", "lon": -77.08530716666667, "is_reserved": 0, "fusion_lon": 0.0, "bike_id": "f470c9deb25fe94cdcfa46c175d9a9ca", "name": "f470c9deb25fe94cdcfa46c175d9a9ca", "rental_uris": {"ios": "https://dc.lft.to/lastmile_qr_scan", "android": "https://dc.lft.to/lastmile_qr_scan"}}, {"is_disabled": 0, "fusion_lat": 0.0, "lat": 38.917186666666666, "type": "electric_scooter", "lon": -77.03838566666667, "is_reserved": 0, "fusion_lon": 0.0, "bike_id": "7097b40fd1140374cfbd54c1d4b2254b", "name": "7097b40fd1140374cfbd54c1d4b2254b", "rental_uris": {"ios": "https://dc.lft.to/lastmile_qr_scan", "android": "https://dc.lft.to/lastmile_qr_scan"}}, {"is_disabled": 0, "fusion_lat": 0.0, "lat": 38.96600883333333, "type": "electric_bike", "lon": -76.98334216666666, "is_reserved": 0, "fusion_lon": 0.0, "bike_id": "26edfd2c01e871cf96cdbac6bc351a71", "name": "26edfd2c01e871cf96cdbac6bc351a71", "rental_uris": {"ios": "https://dc.lft.to/lastmile_qr_scan", "android": "https://dc.lft.to/lastmile_qr_scan"}}, {"is_disabled": 0, "fusion_lat": 0.0, "lat": 38.92132316666667, "type": "electric_scooter", "lon": -77.04236266666666, "is_reserved": 0, "fusion_lon": 0.0, "bike_id": "2533093dfa339ad8dcd20ef3d5f29e93", "name": "2533093dfa339ad8dcd20ef3d5f29e93", "rental_uris": {"ios": "https://dc.lft.to/lastmile_qr_scan", "android": "https://dc.lft.to/lastmile_qr_scan"}}, {"is_disabled": 0, "fusion_lat": 0.0, "lat": 38.93307883333333, "type": "electric_scooter", "lon": -77.02918466666667, "is_reserved": 0, "fusion_lon": 0.0, "bike_id": "a6d080c098d68109ece9c5ab91dfe554", "name": "a6d080c098d68109ece9c5ab91dfe554", "rental_uris": {"ios": "https://dc.lft.to/lastmile_qr_scan", "android": "https://dc.lft.to/lastmile_qr_scan"}}, {"is_disabled": 0, "fusion_lat": 0.0, "lat": 38.938193166666665, "type": "electric_scooter", "lon": -77.06174483333334, "is_reserved": 0, "fusion_lon": 0.0, "bike_id": "62eb11d34d8cadd15c8b7c838b4d0018", "name": "62eb11d34d8cadd15c8b7c838b4d0018", "rental_uris": {"ios": "https://dc.lft.to/lastmile_qr_scan", "android": "https://dc.lft.to/lastmile_qr_scan"}}, {"is_disabled": 0, "fusion_lat": 0.0, "lat": 38.898369, "type": "electric_scooter", "lon": -76.93102483333334, "is_reserved": 0, "fusion_lon": 0.0, "bike_id": "3c77fc3d3a446d1d102d8841b3d127dd", "name": "3c77fc3d3a446d1d102d8841b3d127dd", "rental_uris": {"ios": "https://dc.lft.to/lastmile_qr_scan", "android": "https://dc.lft.to/lastmile_qr_scan"}}, {"is_disabled": 0, "fusion_lat": 0.0, "lat": 38.90059816666667, "type": "electric_scooter", "lon": -77.045903, "is_reserved": 0, "fusion_lon": 0.0, "bike_id": "ee58c03d4a9248cc084b0016e4e0ca16", "name": "ee58c03d4a9248cc084b0016e4e0ca16", "rental_uris": {"ios": "https://dc.lft.to/lastmile_qr_scan", "android": "https://dc.lft.to/lastmile_qr_scan"}}, {"is_disabled": 0, "fusion_lat": 0.0, "lat": 38.92696516666667, "type": "electric_scooter", "lon": -77.02325433333333, "is_reserved": 0, "fusion_lon": 0.0, "bike_id": "7473ab385f115d139a0a3a1282b54d81", "name": "7473ab385f115d139a0a3a1282b54d81", "rental_uris": {"ios": "https://dc.lft.to/lastmile_qr_scan", "android": "https://dc.lft.to/lastmile_qr_scan"}}, {"is_disabled": 0, "fusion_lat": 0.0, "lat": 38.85808266666667, "type": "electric_scooter", "lon": -76.98653883333333, "is_reserved": 0, "fusion_lon": 0.0, "bike_id": "da374cc4b00238e325cfcbba42b26db1", "name": "da374cc4b00238e325cfcbba42b26db1", "rental_uris": {"ios": "https://dc.lft.to/lastmile_qr_scan", "android": "https://dc.lft.to/lastmile_qr_scan"}}, {"is_disabled": 0, "fusion_lat": 0.0, "lat": 38.891874333333334, "type": "electric_bike", "lon": -77.1225925, "is_reserved": 0, "fusion_lon": 0.0, "bike_id": "ba2eff9fd6f98af02b1e56efce0ae3df", "name": "ba2eff9fd6f98af02b1e56efce0ae3df", "rental_uris": {"ios": "https://dc.lft.to/lastmile_qr_scan", "android": "https://dc.lft.to/lastmile_qr_scan"}}, {"is_disabled": 0, "fusion_lat": 0.0, "lat": 38.882929, "type": "electric_scooter", "lon": -76.99139783333334, "is_reserved": 0, "fusion_lon": 0.0, "bike_id": "463f310b72074fa7633155d416fc5335", "name": "463f310b72074fa7633155d416fc5335", "rental_uris": {"ios": "https://dc.lft.to/lastmile_qr_scan", "android": "https://dc.lft.to/lastmile_qr_scan"}}, {"is_disabled": 0, "fusion_lat": 0.0, "lat": 38.92071466666667, "type": "electric_scooter", "lon": -77.0239335, "is_reserved": 0, "fusion_lon": 0.0, "bike_id": "867f15d76922d64199eca94403a7f664", "name": "867f15d76922d64199eca94403a7f664", "rental_uris": {"ios": "https://dc.lft.to/lastmile_qr_scan", "android": "https://dc.lft.to/lastmile_qr_scan"}}, {"is_disabled": 0, "fusion_lat": 0.0, "lat": 38.921132, "type": "electric_scooter", "lon": -77.03190066666667, "is_reserved": 0, "fusion_lon": 0.0, "bike_id": "6daa0b614b08011df74088718a09a934", "name": "6daa0b614b08011df74088718a09a934", "rental_uris": {"ios": "https://dc.lft.to/lastmile_qr_scan", "android": "https://dc.lft.to/lastmile_qr_scan"}}, {"is_disabled": 0, "fusion_lat": 0.0, "lat": 38.91857316666667, "type": "electric_scooter", "lon": -77.03197766666666, "is_reserved": 0, "fusion_lon": 0.0, "bike_id": "a675c44183178bc61148d216a73d5d88", "name": "a675c44183178bc61148d216a73d5d88", "rental_uris": {"ios": "https://dc.lft.to/lastmile_qr_scan", "android": "https://dc.lft.to/lastmile_qr_scan"}}, {"is_disabled": 0, "fusion_lat": 0.0, "lat": 38.941652500000004, "type": "electric_scooter", "lon": -77.02535033333334, "is_reserved": 0, "fusion_lon": 0.0, "bike_id": "e9335e632408d1d7fb8094eb52853845", "name": "e9335e632408d1d7fb8094eb52853845", "rental_uris": {"ios": "https://dc.lft.to/lastmile_qr_scan", "android": "https://dc.lft.to/lastmile_qr_scan"}}, {"is_disabled": 0, "fusion_lat": 0.0, "lat": 38.9049425, "type": "electric_scooter", "lon": -77.0250225, "is_reserved": 0, "fusion_lon": 0.0, "bike_id": "405be19a450b5c5b66be7ffea6028fbf", "name": "405be19a450b5c5b66be7ffea6028fbf", "rental_uris": {"ios": "https://dc.lft.to/lastmile_qr_scan", "android": "https://dc.lft.to/lastmile_qr_scan"}}, {"is_disabled": 0, "fusion_lat": 0.0, "lat": 38.90717733333334, "type": "electric_scooter", "lon": -76.99797033333333, "is_reserved": 0, "fusion_lon": 0.0, "bike_id": "0624ba07430c243d5079980f30c951f4", "name": "0624ba07430c243d5079980f30c951f4", "rental_uris": {"ios": "https://dc.lft.to/lastmile_qr_scan", "android": "https://dc.lft.to/lastmile_qr_scan"}}, {"is_disabled": 0, "fusion_lat": 0.0, "lat": 38.902798, "type": "electric_scooter", "lon": -77.04154166666666, "is_reserved": 0, "fusion_lon": 0.0, "bike_id": "2d9b33c9e986d3355012800774b0dcd3", "name": "2d9b33c9e986d3355012800774b0dcd3", "rental_uris": {"ios": "https://dc.lft.to/lastmile_qr_scan", "android": "https://dc.lft.to/lastmile_qr_scan"}}, {"is_disabled": 0, "fusion_lat": 0.0, "lat": 38.935982833333334, "type": "electric_scooter", "lon": -77.02335533333333, "is_reserved": 0, "fusion_lon": 0.0, "bike_id": "4ead719bd53b130e080ffc5d3066e035", "name": "4ead719bd53b130e080ffc5d3066e035", "rental_uris": {"ios": "https://dc.lft.to/lastmile_qr_scan", "android": "https://dc.lft.to/lastmile_qr_scan"}}, {"is_disabled": 0, "fusion_lat": 0.0, "lat": 38.92430983333333, "type": "electric_scooter", "lon": -77.04246766666667, "is_reserved": 0, "fusion_lon": 0.0, "bike_id": "bb6ad4f3efad79bba2b5e146d5cecda5", "name": "bb6ad4f3efad79bba2b5e146d5cecda5", "rental_uris": {"ios": "https://dc.lft.to/lastmile_qr_scan", "android": "https://dc.lft.to/lastmile_qr_scan"}}, {"is_disabled": 0, "fusion_lat": 0.0, "lat": 38.91257, "type": "electric_scooter", "lon": -77.03282433333334, "is_reserved": 0, "fusion_lon": 0.0, "bike_id": "da5502be8f0317bc1ceca25c332abf25", "name": "da5502be8f0317bc1ceca25c332abf25", "rental_uris": {"ios": "https://dc.lft.to/lastmile_qr_scan", "android": "https://dc.lft.to/lastmile_qr_scan"}}, {"is_disabled": 0, "fusion_lat": 0.0, "lat": 38.866175166666665, "type": "electric_bike", "lon": -76.94569666666666, "is_reserved": 0, "fusion_lon": 0.0, "bike_id": "3de26c7233d0e97b6c1661c605d37721", "name": "3de26c7233d0e97b6c1661c605d37721", "rental_uris": {"ios": "https://dc.lft.to/lastmile_qr_scan", "android": "https://dc.lft.to/lastmile_qr_scan"}}, {"is_disabled": 0, "fusion_lat": 0.0, "lat": 38.924543166666666, "type": "electric_bike", "lon": -77.208397, "is_reserved": 0, "fusion_lon": 0.0, "bike_id": "051a7482aa5cdf655faa6408d4680efa", "name": "051a7482aa5cdf655faa6408d4680efa", "rental_uris": {"ios": "https://dc.lft.to/lastmile_qr_scan", "android": "https://dc.lft.to/lastmile_qr_scan"}}, {"is_disabled": 0, "fusion_lat": 0.0, "lat": 38.9101415, "type": "electric_scooter", "lon": -77.05465383333333, "is_reserved": 0, "fusion_lon": 0.0, "bike_id": "ccfd100cd7da21709403c721e16db345", "name": "ccfd100cd7da21709403c721e16db345", "rental_uris": {"ios": "https://dc.lft.to/lastmile_qr_scan", "android": "https://dc.lft.to/lastmile_qr_scan"}}, {"is_disabled": 0, "fusion_lat": 0.0, "lat": 38.89740583333333, "type": "electric_bike", "lon": -76.99224866666667, "is_reserved": 0, "fusion_lon": 0.0, "bike_id": "cac8b412f8e25728848d12d1d506a05b", "name": "cac8b412f8e25728848d12d1d506a05b", "rental_uris": {"ios": "https://dc.lft.to/lastmile_qr_scan", "android": "https://dc.lft.to/lastmile_qr_scan"}}, {"is_disabled": 0, "fusion_lat": 0.0, "lat": 38.89060966666667, "type": "electric_scooter", "lon": -76.94336583333333, "is_reserved": 0, "fusion_lon": 0.0, "bike_id": "a9da3a218c406f3254e4c25fc0fc8a6c", "name": "a9da3a218c406f3254e4c25fc0fc8a6c", "rental_uris": {"ios": "https://dc.lft.to/lastmile_qr_scan", "android": "https://dc.lft.to/lastmile_qr_scan"}}, {"is_disabled": 0, "fusion_lat": 0.0, "lat": 38.912937666666664, "type": "electric_scooter", "lon": -77.04352183333333, "is_reserved": 0, "fusion_lon": 0.0, "bike_id": "4e69acd7c8a1543c901bc472f54d7b5f", "name": "4e69acd7c8a1543c901bc472f54d7b5f", "rental_uris": {"ios": "https://dc.lft.to/lastmile_qr_scan", "android": "https://dc.lft.to/lastmile_qr_scan"}}, {"is_disabled": 0, "fusion_lat": 0.0, "lat": 38.8766545, "type": "electric_scooter", "lon": -77.01580733333333, "is_reserved": 0, "fusion_lon": 0.0, "bike_id": "8b62f16f5cbbf7faaf4fbd06eec6c05e", "name": "8b62f16f5cbbf7faaf4fbd06eec6c05e", "rental_uris": {"ios": "https://dc.lft.to/lastmile_qr_scan", "android": "https://dc.lft.to/lastmile_qr_scan"}}, {"is_disabled": 0, "fusion_lat": 0.0, "lat": 38.90495933333333, "type": "electric_scooter", "lon": -77.0665905, "is_reserved": 0, "fusion_lon": 0.0, "bike_id": "7c8520f3e9452a2b43257156ca967747", "name": "7c8520f3e9452a2b43257156ca967747", "rental_uris": {"ios": "https://dc.lft.to/lastmile_qr_scan", "android": "https://dc.lft.to/lastmile_qr_scan"}}, {"is_disabled": 0, "fusion_lat": 0.0, "lat": 38.874817, "type": "electric_scooter", "lon": -77.00115683333334, "is_reserved": 0, "fusion_lon": 0.0, "bike_id": "3b2086d28057d584291d52007054a5ed", "name": "3b2086d28057d584291d52007054a5ed", "rental_uris": {"ios": "https://dc.lft.to/lastmile_qr_scan", "android": "https://dc.lft.to/lastmile_qr_scan"}}, {"is_disabled": 0, "fusion_lat": 0.0, "lat": 38.9563395, "type": "electric_scooter", "lon": -77.03307683333334, "is_reserved": 0, "fusion_lon": 0.0, "bike_id": "66f89dc4bb7dd0450a1fbdd7bc9b6b88", "name": "66f89dc4bb7dd0450a1fbdd7bc9b6b88", "rental_uris": {"ios": "https://dc.lft.to/lastmile_qr_scan", "android": "https://dc.lft.to/lastmile_qr_scan"}}, {"is_disabled": 0, "fusion_lat": 0.0, "lat": 38.871959333333336, "type": "electric_scooter", "lon": -77.006102, "is_reserved": 0, "fusion_lon": 0.0, "bike_id": "4e568b0aff1598c3b5f49064533610c9", "name": "4e568b0aff1598c3b5f49064533610c9", "rental_uris": {"ios": "https://dc.lft.to/lastmile_qr_scan", "android": "https://dc.lft.to/lastmile_qr_scan"}}, {"is_disabled": 0, "fusion_lat": 0.0, "lat": 38.9008835, "type": "electric_scooter", "lon": -77.050506, "is_reserved": 0, "fusion_lon": 0.0, "bike_id": "b2f0329c4ef12a81106640420164e9d2", "name": "b2f0329c4ef12a81106640420164e9d2", "rental_uris": {"ios": "https://dc.lft.to/lastmile_qr_scan", "android": "https://dc.lft.to/lastmile_qr_scan"}}, {"is_disabled": 0, "fusion_lat": 0.0, "lat": 38.925538, "type": "electric_scooter", "lon": -77.03780883333333, "is_reserved": 0, "fusion_lon": 0.0, "bike_id": "1ea8cd471ccef810a20347d9a6787a90", "name": "1ea8cd471ccef810a20347d9a6787a90", "rental_uris": {"ios": "https://dc.lft.to/lastmile_qr_scan", "android": "https://dc.lft.to/lastmile_qr_scan"}}, {"is_disabled": 0, "fusion_lat": 0.0, "lat": 38.89228716666667, "type": "electric_scooter", "lon": -77.0465185, "is_reserved": 0, "fusion_lon": 0.0, "bike_id": "2e7ca0cb467e1b83d8dc15d24639e320", "name": "2e7ca0cb467e1b83d8dc15d24639e320", "rental_uris": {"ios": "https://dc.lft.to/lastmile_qr_scan", "android": "https://dc.lft.to/lastmile_qr_scan"}}, {"is_disabled": 0, "fusion_lat": 0.0, "lat": 38.905122166666665, "type": "electric_scooter", "lon": -77.05910966666667, "is_reserved": 0, "fusion_lon": 0.0, "bike_id": "306dadd6b0686f8abb3e8e5bd0819f93", "name": "306dadd6b0686f8abb3e8e5bd0819f93", "rental_uris": {"ios": "https://dc.lft.to/lastmile_qr_scan", "android": "https://dc.lft.to/lastmile_qr_scan"}}, {"is_disabled": 0, "fusion_lat": 0.0, "lat": 38.91821916666667, "type": "electric_scooter", "lon": -77.0384545, "is_reserved": 0, "fusion_lon": 0.0, "bike_id": "8b6d1acafe476e5c0f93ad2e9a4e995b", "name": "8b6d1acafe476e5c0f93ad2e9a4e995b", "rental_uris": {"ios": "https://dc.lft.to/lastmile_qr_scan", "android": "https://dc.lft.to/lastmile_qr_scan"}}, {"is_disabled": 0, "fusion_lat": 0.0, "lat": 38.909577166666665, "type": "electric_scooter", "lon": -77.04652333333334, "is_reserved": 0, "fusion_lon": 0.0, "bike_id": "5ae84dfad14ad82135009ed98f244d5f", "name": "5ae84dfad14ad82135009ed98f244d5f", "rental_uris": {"ios": "https://dc.lft.to/lastmile_qr_scan", "android": "https://dc.lft.to/lastmile_qr_scan"}}, {"is_disabled": 0, "fusion_lat": 0.0, "lat": 38.90484416666666, "type": "electric_scooter", "lon": -77.06789216666667, "is_reserved": 0, "fusion_lon": 0.0, "bike_id": "c2f097afba29c1a4c8f79b5891cb6b99", "name": "c2f097afba29c1a4c8f79b5891cb6b99", "rental_uris": {"ios": "https://dc.lft.to/lastmile_qr_scan", "android": "https://dc.lft.to/lastmile_qr_scan"}}, {"is_disabled": 0, "fusion_lat": 0.0, "lat": 38.91048033333333, "type": "electric_scooter", "lon": -77.0152335, "is_reserved": 0, "fusion_lon": 0.0, "bike_id": "442b4c2e2a8e70f72ef65dd4f7486bd0", "name": "442b4c2e2a8e70f72ef65dd4f7486bd0", "rental_uris": {"ios": "https://dc.lft.to/lastmile_qr_scan", "android": "https://dc.lft.to/lastmile_qr_scan"}}, {"is_disabled": 0, "fusion_lat": 0.0, "lat": 38.902661333333334, "type": "electric_scooter", "lon": -77.049096, "is_reserved": 0, "fusion_lon": 0.0, "bike_id": "2aa7c5173322fe1b7c8414fe92b466a6", "name": "2aa7c5173322fe1b7c8414fe92b466a6", "rental_uris": {"ios": "https://dc.lft.to/lastmile_qr_scan", "android": "https://dc.lft.to/lastmile_qr_scan"}}, {"is_disabled": 0, "fusion_lat": 0.0, "lat": 38.93359133333333, "type": "electric_scooter", "lon": -77.0571675, "is_reserved": 0, "fusion_lon": 0.0, "bike_id": "0781fa8db13cf9d1b9d4c9195dcc1159", "name": "0781fa8db13cf9d1b9d4c9195dcc1159", "rental_uris": {"ios": "https://dc.lft.to/lastmile_qr_scan", "android": "https://dc.lft.to/lastmile_qr_scan"}}, {"is_disabled": 0, "fusion_lat": 0.0, "lat": 38.90414216666667, "type": "electric_scooter", "lon": -77.05327533333333, "is_reserved": 0, "fusion_lon": 0.0, "bike_id": "1577f91fb6c4cd2950ed5037494b2112", "name": "1577f91fb6c4cd2950ed5037494b2112", "rental_uris": {"ios": "https://dc.lft.to/lastmile_qr_scan", "android": "https://dc.lft.to/lastmile_qr_scan"}}, {"is_disabled": 0, "fusion_lat": 0.0, "lat": 38.919753166666666, "type": "electric_scooter", "lon": -76.97304716666666, "is_reserved": 0, "fusion_lon": 0.0, "bike_id": "e263f769507148222fa4ab01fa6158a5", "name": "e263f769507148222fa4ab01fa6158a5", "rental_uris": {"ios": "https://dc.lft.to/lastmile_qr_scan", "android": "https://dc.lft.to/lastmile_qr_scan"}}, {"is_disabled": 0, "fusion_lat": 0.0, "lat": 38.960233, "type": "electric_bike", "lon": -77.01733133333333, "is_reserved": 0, "fusion_lon": 0.0, "bike_id": "87c6472c30b246831407c9debe211994", "name": "87c6472c30b246831407c9debe211994", "rental_uris": {"ios": "https://dc.lft.to/lastmile_qr_scan", "android": "https://dc.lft.to/lastmile_qr_scan"}}, {"is_disabled": 0, "fusion_lat": 0.0, "lat": 38.936059666666665, "type": "electric_scooter", "lon": -77.03755933333333, "is_reserved": 0, "fusion_lon": 0.0, "bike_id": "cc2c70a4096837edeef08d3114513c08", "name": "cc2c70a4096837edeef08d3114513c08", "rental_uris": {"ios": "https://dc.lft.to/lastmile_qr_scan", "android": "https://dc.lft.to/lastmile_qr_scan"}}, {"is_disabled": 0, "fusion_lat": 0.0, "lat": 39.029347333333334, "type": "electric_bike", "lon": -77.0492815, "is_reserved": 0, "fusion_lon": 0.0, "bike_id": "03ece78c64edb095fa6e9889e7029c5a", "name": "03ece78c64edb095fa6e9889e7029c5a", "rental_uris": {"ios": "https://dc.lft.to/lastmile_qr_scan", "android": "https://dc.lft.to/lastmile_qr_scan"}}, {"is_disabled": 0, "fusion_lat": 0.0, "lat": 38.93532066666667, "type": "electric_scooter", "lon": -77.023787, "is_reserved": 0, "fusion_lon": 0.0, "bike_id": "a137a6f0c449ff174c1d556e53eb82f4", "name": "a137a6f0c449ff174c1d556e53eb82f4", "rental_uris": {"ios": "https://dc.lft.to/lastmile_qr_scan", "android": "https://dc.lft.to/lastmile_qr_scan"}}, {"is_disabled": 0, "fusion_lat": 0.0, "lat": 38.90855633333334, "type": "electric_bike", "lon": -77.080783, "is_reserved": 0, "fusion_lon": 0.0, "bike_id": "4364adc2c789a32e838cbfefa70f8fcf", "name": "4364adc2c789a32e838cbfefa70f8fcf", "rental_uris": {"ios": "https://dc.lft.to/lastmile_qr_scan", "android": "https://dc.lft.to/lastmile_qr_scan"}}, {"is_disabled": 0, "fusion_lat": 0.0, "lat": 38.911007166666664, "type": "electric_scooter", "lon": -77.04201366666666, "is_reserved": 0, "fusion_lon": 0.0, "bike_id": "fcb949343c1053f1bbf0cf530431e969", "name": "fcb949343c1053f1bbf0cf530431e969", "rental_uris": {"ios": "https://dc.lft.to/lastmile_qr_scan", "android": "https://dc.lft.to/lastmile_qr_scan"}}, {"is_disabled": 0, "fusion_lat": 0.0, "lat": 38.956396, "type": "electric_scooter", "lon": -76.99794683333333, "is_reserved": 0, "fusion_lon": 0.0, "bike_id": "9d0a4dcbbd82fa55fdf8ded4688ccedb", "name": "9d0a4dcbbd82fa55fdf8ded4688ccedb", "rental_uris": {"ios": "https://dc.lft.to/lastmile_qr_scan", "android": "https://dc.lft.to/lastmile_qr_scan"}}, {"is_disabled": 0, "fusion_lat": 0.0, "lat": 38.88227966666667, "type": "electric_scooter", "lon": -76.99089183333334, "is_reserved": 0, "fusion_lon": 0.0, "bike_id": "453621bd2c65ee6b82e377c4dad11056", "name": "453621bd2c65ee6b82e377c4dad11056", "rental_uris": {"ios": "https://dc.lft.to/lastmile_qr_scan", "android": "https://dc.lft.to/lastmile_qr_scan"}}, {"is_disabled": 0, "fusion_lat": 0.0, "lat": 38.8796705, "type": "electric_scooter", "lon": -76.98550416666667, "is_reserved": 0, "fusion_lon": 0.0, "bike_id": "677b0b1bd247735c52947a0d95e94d35", "name": "677b0b1bd247735c52947a0d95e94d35", "rental_uris": {"ios": "https://dc.lft.to/lastmile_qr_scan", "android": "https://dc.lft.to/lastmile_qr_scan"}}, {"is_disabled": 0, "fusion_lat": 0.0, "lat": 38.8861835, "type": "electric_scooter", "lon": -77.01943666666666, "is_reserved": 0, "fusion_lon": 0.0, "bike_id": "d4c4fffc93edb1e4c1229f63d2d75a66", "name": "d4c4fffc93edb1e4c1229f63d2d75a66", "rental_uris": {"ios": "https://dc.lft.to/lastmile_qr_scan", "android": "https://dc.lft.to/lastmile_qr_scan"}}, {"is_disabled": 0, "fusion_lat": 0.0, "lat": 38.9914615, "type": "electric_scooter", "lon": -77.04735966666667, "is_reserved": 0, "fusion_lon": 0.0, "bike_id": "2d5116d714a89dc15bb2639aa713ec0c", "name": "2d5116d714a89dc15bb2639aa713ec0c", "rental_uris": {"ios": "https://dc.lft.to/lastmile_qr_scan", "android": "https://dc.lft.to/lastmile_qr_scan"}}, {"is_disabled": 0, "fusion_lat": 0.0, "lat": 38.887442, "type": "electric_scooter", "lon": -77.02024533333334, "is_reserved": 0, "fusion_lon": 0.0, "bike_id": "269c2cb001621a7dd8f469aa5f2b1552", "name": "269c2cb001621a7dd8f469aa5f2b1552", "rental_uris": {"ios": "https://dc.lft.to/lastmile_qr_scan", "android": "https://dc.lft.to/lastmile_qr_scan"}}, {"is_disabled": 0, "fusion_lat": 0.0, "lat": 38.92614616666667, "type": "electric_scooter", "lon": -77.00558083333334, "is_reserved": 0, "fusion_lon": 0.0, "bike_id": "8620445e8fdee8c57d655904abdf63ea", "name": "8620445e8fdee8c57d655904abdf63ea", "rental_uris": {"ios": "https://dc.lft.to/lastmile_qr_scan", "android": "https://dc.lft.to/lastmile_qr_scan"}}, {"is_disabled": 0, "fusion_lat": 0.0, "lat": 38.922452, "type": "electric_scooter", "lon": -77.03070283333334, "is_reserved": 0, "fusion_lon": 0.0, "bike_id": "5e60a3228f68280cfe58b26645653cb6", "name": "5e60a3228f68280cfe58b26645653cb6", "rental_uris": {"ios": "https://dc.lft.to/lastmile_qr_scan", "android": "https://dc.lft.to/lastmile_qr_scan"}}, {"is_disabled": 0, "fusion_lat": 0.0, "lat": 38.887050333333335, "type": "electric_scooter", "lon": -77.03209433333333, "is_reserved": 0, "fusion_lon": 0.0, "bike_id": "1257335578355887a7ebd6d517160432", "name": "1257335578355887a7ebd6d517160432", "rental_uris": {"ios": "https://dc.lft.to/lastmile_qr_scan", "android": "https://dc.lft.to/lastmile_qr_scan"}}, {"is_disabled": 0, "fusion_lat": 0.0, "lat": 38.88280783333333, "type": "electric_scooter", "lon": -77.04151766666666, "is_reserved": 0, "fusion_lon": 0.0, "bike_id": "29143ffe88cadc3f5194d1dc69008761", "name": "29143ffe88cadc3f5194d1dc69008761", "rental_uris": {"ios": "https://dc.lft.to/lastmile_qr_scan", "android": "https://dc.lft.to/lastmile_qr_scan"}}, {"is_disabled": 0, "fusion_lat": 0.0, "lat": 38.918788166666666, "type": "electric_scooter", "lon": -76.97146733333334, "is_reserved": 0, "fusion_lon": 0.0, "bike_id": "05165fc8c16206a430f811b8b11c7144", "name": "05165fc8c16206a430f811b8b11c7144", "rental_uris": {"ios": "https://dc.lft.to/lastmile_qr_scan", "android": "https://dc.lft.to/lastmile_qr_scan"}}, {"is_disabled": 0, "fusion_lat": 0.0, "lat": 38.90266883333334, "type": "electric_scooter", "lon": -77.03830333333333, "is_reserved": 0, "fusion_lon": 0.0, "bike_id": "02b47d55509e81d862d07dc79973cfc7", "name": "02b47d55509e81d862d07dc79973cfc7", "rental_uris": {"ios": "https://dc.lft.to/lastmile_qr_scan", "android": "https://dc.lft.to/lastmile_qr_scan"}}, {"is_disabled": 0, "fusion_lat": 0.0, "lat": 38.946118166666665, "type": "electric_scooter", "lon": -77.035133, "is_reserved": 0, "fusion_lon": 0.0, "bike_id": "206b603ec5df00bfcd271b6186eadabd", "name": "206b603ec5df00bfcd271b6186eadabd", "rental_uris": {"ios": "https://dc.lft.to/lastmile_qr_scan", "android": "https://dc.lft.to/lastmile_qr_scan"}}, {"is_disabled": 0, "fusion_lat": 0.0, "lat": 38.908494833333336, "type": "electric_scooter", "lon": -77.0245225, "is_reserved": 0, "fusion_lon": 0.0, "bike_id": "c2223c958271ac933f2983ba65b59693", "name": "c2223c958271ac933f2983ba65b59693", "rental_uris": {"ios": "https://dc.lft.to/lastmile_qr_scan", "android": "https://dc.lft.to/lastmile_qr_scan"}}, {"is_disabled": 0, "fusion_lat": 0.0, "lat": 38.89925183333333, "type": "electric_scooter", "lon": -77.05346983333334, "is_reserved": 0, "fusion_lon": 0.0, "bike_id": "c99c55dbf97a96480734a2322d9fe044", "name": "c99c55dbf97a96480734a2322d9fe044", "rental_uris": {"ios": "https://dc.lft.to/lastmile_qr_scan", "android": "https://dc.lft.to/lastmile_qr_scan"}}, {"is_disabled": 0, "fusion_lat": 0.0, "lat": 38.94324566666667, "type": "electric_scooter", "lon": -77.073854, "is_reserved": 0, "fusion_lon": 0.0, "bike_id": "5703d5044c77d10d1779e4e3dddc7c4b", "name": "5703d5044c77d10d1779e4e3dddc7c4b", "rental_uris": {"ios": "https://dc.lft.to/lastmile_qr_scan", "android": "https://dc.lft.to/lastmile_qr_scan"}}, {"is_disabled": 0, "fusion_lat": 0.0, "lat": 38.86360166666667, "type": "electric_scooter", "lon": -76.99040933333333, "is_reserved": 0, "fusion_lon": 0.0, "bike_id": "183e5dbf3c2c17ce6b5cf744cba83470", "name": "183e5dbf3c2c17ce6b5cf744cba83470", "rental_uris": {"ios": "https://dc.lft.to/lastmile_qr_scan", "android": "https://dc.lft.to/lastmile_qr_scan"}}, {"is_disabled": 0, "fusion_lat": 0.0, "lat": 38.907092166666665, "type": "electric_scooter", "lon": -77.0296295, "is_reserved": 0, "fusion_lon": 0.0, "bike_id": "52d93ceb51c0020d70ce4b80c2c7334e", "name": "52d93ceb51c0020d70ce4b80c2c7334e", "rental_uris": {"ios": "https://dc.lft.to/lastmile_qr_scan", "android": "https://dc.lft.to/lastmile_qr_scan"}}, {"is_disabled": 0, "fusion_lat": 0.0, "lat": 38.8748125, "type": "electric_scooter", "lon": -77.00177516666666, "is_reserved": 0, "fusion_lon": 0.0, "bike_id": "ff3df772b89fa57539367aaea6af55a8", "name": "ff3df772b89fa57539367aaea6af55a8", "rental_uris": {"ios": "https://dc.lft.to/lastmile_qr_scan", "android": "https://dc.lft.to/lastmile_qr_scan"}}, {"is_disabled": 0, "fusion_lat": 0.0, "lat": 38.90215216666667, "type": "electric_bike", "lon": -76.95049683333333, "is_reserved": 0, "fusion_lon": 0.0, "bike_id": "ba06b11f855d76e1d08884229b561ea1", "name": "ba06b11f855d76e1d08884229b561ea1", "rental_uris": {"ios": "https://dc.lft.to/lastmile_qr_scan", "android": "https://dc.lft.to/lastmile_qr_scan"}}, {"is_disabled": 0, "fusion_lat": 0.0, "lat": 38.922043, "type": "electric_scooter", "lon": -77.04026516666667, "is_reserved": 0, "fusion_lon": 0.0, "bike_id": "46f4ea08215c82c34c32f1bd7205f46f", "name": "46f4ea08215c82c34c32f1bd7205f46f", "rental_uris": {"ios": "https://dc.lft.to/lastmile_qr_scan", "android": "https://dc.lft.to/lastmile_qr_scan"}}, {"is_disabled": 0, "fusion_lat": 0.0, "lat": 38.932407, "type": "electric_scooter", "lon": -77.03293016666667, "is_reserved": 0, "fusion_lon": 0.0, "bike_id": "bb24c2155fe9bb33421c5d032ab1af5b", "name": "bb24c2155fe9bb33421c5d032ab1af5b", "rental_uris": {"ios": "https://dc.lft.to/lastmile_qr_scan", "android": "https://dc.lft.to/lastmile_qr_scan"}}, {"is_disabled": 0, "fusion_lat": 0.0, "lat": 38.93128016666667, "type": "electric_scooter", "lon": -77.05622433333333, "is_reserved": 0, "fusion_lon": 0.0, "bike_id": "5e1b60df9096b30996edc919320ccd05", "name": "5e1b60df9096b30996edc919320ccd05", "rental_uris": {"ios": "https://dc.lft.to/lastmile_qr_scan", "android": "https://dc.lft.to/lastmile_qr_scan"}}, {"is_disabled": 0, "fusion_lat": 0.0, "lat": 38.9036665, "type": "electric_scooter", "lon": -77.04272416666667, "is_reserved": 0, "fusion_lon": 0.0, "bike_id": "54661c65857c6e8b1a0354f6b4e5b751", "name": "54661c65857c6e8b1a0354f6b4e5b751", "rental_uris": {"ios": "https://dc.lft.to/lastmile_qr_scan", "android": "https://dc.lft.to/lastmile_qr_scan"}}, {"is_disabled": 0, "fusion_lat": 0.0, "lat": 38.89827116666667, "type": "electric_scooter", "lon": -77.05031516666666, "is_reserved": 0, "fusion_lon": 0.0, "bike_id": "cd4cd9bc972226dc2034edcce735de8b", "name": "cd4cd9bc972226dc2034edcce735de8b", "rental_uris": {"ios": "https://dc.lft.to/lastmile_qr_scan", "android": "https://dc.lft.to/lastmile_qr_scan"}}, {"is_disabled": 0, "fusion_lat": 0.0, "lat": 38.909708333333334, "type": "electric_scooter", "lon": -77.03870983333333, "is_reserved": 0, "fusion_lon": 0.0, "bike_id": "31ac6eb7f09845718e421df775b85780", "name": "31ac6eb7f09845718e421df775b85780", "rental_uris": {"ios": "https://dc.lft.to/lastmile_qr_scan", "android": "https://dc.lft.to/lastmile_qr_scan"}}, {"is_disabled": 0, "fusion_lat": 0.0, "lat": 38.90032983333333, "type": "electric_scooter", "lon": -77.040379, "is_reserved": 0, "fusion_lon": 0.0, "bike_id": "6cc76c4ba9735d6c2112382e008243ce", "name": "6cc76c4ba9735d6c2112382e008243ce", "rental_uris": {"ios": "https://dc.lft.to/lastmile_qr_scan", "android": "https://dc.lft.to/lastmile_qr_scan"}}, {"is_disabled": 0, "fusion_lat": 0.0, "lat": 38.92298016666667, "type": "electric_scooter", "lon": -77.04146233333333, "is_reserved": 0, "fusion_lon": 0.0, "bike_id": "6edcf57918a8c1920011b13a31a40507", "name": "6edcf57918a8c1920011b13a31a40507", "rental_uris": {"ios": "https://dc.lft.to/lastmile_qr_scan", "android": "https://dc.lft.to/lastmile_qr_scan"}}, {"is_disabled": 0, "fusion_lat": 0.0, "lat": 38.925855, "type": "electric_scooter", "lon": -77.05053816666667, "is_reserved": 0, "fusion_lon": 0.0, "bike_id": "a5cbfaf18709c7d14ede820731d154c5", "name": "a5cbfaf18709c7d14ede820731d154c5", "rental_uris": {"ios": "https://dc.lft.to/lastmile_qr_scan", "android": "https://dc.lft.to/lastmile_qr_scan"}}, {"is_disabled": 0, "fusion_lat": 0.0, "lat": 38.897547, "type": "electric_scooter", "lon": -76.94184266666667, "is_reserved": 0, "fusion_lon": 0.0, "bike_id": "0b79afa1cb6454f4252bcaf1eff96ac4", "name": "0b79afa1cb6454f4252bcaf1eff96ac4", "rental_uris": {"ios": "https://dc.lft.to/lastmile_qr_scan", "android": "https://dc.lft.to/lastmile_qr_scan"}}, {"is_disabled": 0, "fusion_lat": 0.0, "lat": 38.90038783333333, "type": "electric_scooter", "lon": -76.9247175, "is_reserved": 0, "fusion_lon": 0.0, "bike_id": "becb017fe36de62aa146c80c5b673fca", "name": "becb017fe36de62aa146c80c5b673fca", "rental_uris": {"ios": "https://dc.lft.to/lastmile_qr_scan", "android": "https://dc.lft.to/lastmile_qr_scan"}}, {"is_disabled": 0, "fusion_lat": 0.0, "lat": 38.90008866666667, "type": "electric_scooter", "lon": -77.03341, "is_reserved": 0, "fusion_lon": 0.0, "bike_id": "b0c4cdc9409be9475a108340a00e41b7", "name": "b0c4cdc9409be9475a108340a00e41b7", "rental_uris": {"ios": "https://dc.lft.to/lastmile_qr_scan", "android": "https://dc.lft.to/lastmile_qr_scan"}}, {"is_disabled": 0, "fusion_lat": 0.0, "lat": 38.88433633333333, "type": "electric_scooter", "lon": -76.95758966666666, "is_reserved": 0, "fusion_lon": 0.0, "bike_id": "18cb0ebe20ca2e3b0e980805349df5de", "name": "18cb0ebe20ca2e3b0e980805349df5de", "rental_uris": {"ios": "https://dc.lft.to/lastmile_qr_scan", "android": "https://dc.lft.to/lastmile_qr_scan"}}, {"is_disabled": 0, "fusion_lat": 0.0, "lat": 38.85794883333333, "type": "electric_bike", "lon": -77.09962466666667, "is_reserved": 0, "fusion_lon": 0.0, "bike_id": "60a82a6c276733b3027c60806e1171e0", "name": "60a82a6c276733b3027c60806e1171e0", "rental_uris": {"ios": "https://dc.lft.to/lastmile_qr_scan", "android": "https://dc.lft.to/lastmile_qr_scan"}}, {"is_disabled": 0, "fusion_lat": 0.0, "lat": 38.879142, "type": "electric_scooter", "lon": -77.02154883333333, "is_reserved": 0, "fusion_lon": 0.0, "bike_id": "55c0af16d8d1a963925d3bb39daef600", "name": "55c0af16d8d1a963925d3bb39daef600", "rental_uris": {"ios": "https://dc.lft.to/lastmile_qr_scan", "android": "https://dc.lft.to/lastmile_qr_scan"}}, {"is_disabled": 0, "fusion_lat": 0.0, "lat": 38.900323666666665, "type": "electric_scooter", "lon": -77.01212116666666, "is_reserved": 0, "fusion_lon": 0.0, "bike_id": "f3bd4839bb3a070aecf989aaf7888dcc", "name": "f3bd4839bb3a070aecf989aaf7888dcc", "rental_uris": {"ios": "https://dc.lft.to/lastmile_qr_scan", "android": "https://dc.lft.to/lastmile_qr_scan"}}, {"is_disabled": 0, "fusion_lat": 0.0, "lat": 38.911538666666665, "type": "electric_scooter", "lon": -77.02004666666667, "is_reserved": 0, "fusion_lon": 0.0, "bike_id": "b44c2b87f215f88689b849bae6142a61", "name": "b44c2b87f215f88689b849bae6142a61", "rental_uris": {"ios": "https://dc.lft.to/lastmile_qr_scan", "android": "https://dc.lft.to/lastmile_qr_scan"}}, {"is_disabled": 0, "fusion_lat": 0.0, "lat": 38.919911666666664, "type": "electric_scooter", "lon": -77.02370866666666, "is_reserved": 0, "fusion_lon": 0.0, "bike_id": "ce26ce72a9eed940b6024125e189c439", "name": "ce26ce72a9eed940b6024125e189c439", "rental_uris": {"ios": "https://dc.lft.to/lastmile_qr_scan", "android": "https://dc.lft.to/lastmile_qr_scan"}}, {"is_disabled": 0, "fusion_lat": 0.0, "lat": 38.93117016666667, "type": "electric_scooter", "lon": -77.02091133333333, "is_reserved": 0, "fusion_lon": 0.0, "bike_id": "6710ef86f74dfab8a294a0080bd0e1ae", "name": "6710ef86f74dfab8a294a0080bd0e1ae", "rental_uris": {"ios": "https://dc.lft.to/lastmile_qr_scan", "android": "https://dc.lft.to/lastmile_qr_scan"}}, {"is_disabled": 0, "fusion_lat": 0.0, "lat": 38.916592666666666, "type": "electric_scooter", "lon": -77.02704316666667, "is_reserved": 0, "fusion_lon": 0.0, "bike_id": "bd1588c2ab14fe48f36dc083ea107efe", "name": "bd1588c2ab14fe48f36dc083ea107efe", "rental_uris": {"ios": "https://dc.lft.to/lastmile_qr_scan", "android": "https://dc.lft.to/lastmile_qr_scan"}}, {"is_disabled": 0, "fusion_lat": 0.0, "lat": 38.924133499999996, "type": "electric_scooter", "lon": -77.0224035, "is_reserved": 0, "fusion_lon": 0.0, "bike_id": "f48c9899ad5115a22111272405cc7cb3", "name": "f48c9899ad5115a22111272405cc7cb3", "rental_uris": {"ios": "https://dc.lft.to/lastmile_qr_scan", "android": "https://dc.lft.to/lastmile_qr_scan"}}, {"is_disabled": 0, "fusion_lat": 0.0, "lat": 38.90400116666667, "type": "electric_scooter", "lon": -77.02075983333333, "is_reserved": 0, "fusion_lon": 0.0, "bike_id": "82e1bdbe1b9dfa76e491d0350872d5fa", "name": "82e1bdbe1b9dfa76e491d0350872d5fa", "rental_uris": {"ios": "https://dc.lft.to/lastmile_qr_scan", "android": "https://dc.lft.to/lastmile_qr_scan"}}, {"is_disabled": 0, "fusion_lat": 0.0, "lat": 38.8580675, "type": "electric_scooter", "lon": -76.98991616666666, "is_reserved": 0, "fusion_lon": 0.0, "bike_id": "ccfaefad06cfa2c131c96df8d2971da1", "name": "ccfaefad06cfa2c131c96df8d2971da1", "rental_uris": {"ios": "https://dc.lft.to/lastmile_qr_scan", "android": "https://dc.lft.to/lastmile_qr_scan"}}, {"is_disabled": 0, "fusion_lat": 0.0, "lat": 38.885150333333335, "type": "electric_scooter", "lon": -77.0334705, "is_reserved": 0, "fusion_lon": 0.0, "bike_id": "8572d954555f46cfc2bbcfa65b694eca", "name": "8572d954555f46cfc2bbcfa65b694eca", "rental_uris": {"ios": "https://dc.lft.to/lastmile_qr_scan", "android": "https://dc.lft.to/lastmile_qr_scan"}}, {"is_disabled": 0, "fusion_lat": 0.0, "lat": 38.940116833333335, "type": "electric_scooter", "lon": -77.07174116666667, "is_reserved": 0, "fusion_lon": 0.0, "bike_id": "0fe1ee4d2916823a8fef0a97cd41f54e", "name": "0fe1ee4d2916823a8fef0a97cd41f54e", "rental_uris": {"ios": "https://dc.lft.to/lastmile_qr_scan", "android": "https://dc.lft.to/lastmile_qr_scan"}}, {"is_disabled": 0, "fusion_lat": 0.0, "lat": 38.904938666666666, "type": "electric_scooter", "lon": -77.06024183333334, "is_reserved": 0, "fusion_lon": 0.0, "bike_id": "034f820e3d2465465e5efee61e45d4f1", "name": "034f820e3d2465465e5efee61e45d4f1", "rental_uris": {"ios": "https://dc.lft.to/lastmile_qr_scan", "android": "https://dc.lft.to/lastmile_qr_scan"}}, {"is_disabled": 0, "fusion_lat": 0.0, "lat": 38.8901515, "type": "electric_scooter", "lon": -76.93748683333334, "is_reserved": 0, "fusion_lon": 0.0, "bike_id": "29676b57fac316a54ea02918e25b175a", "name": "29676b57fac316a54ea02918e25b175a", "rental_uris": {"ios": "https://dc.lft.to/lastmile_qr_scan", "android": "https://dc.lft.to/lastmile_qr_scan"}}, {"is_disabled": 0, "fusion_lat": 0.0, "lat": 38.90837833333333, "type": "electric_scooter", "lon": -77.02700466666667, "is_reserved": 0, "fusion_lon": 0.0, "bike_id": "41c845306537f5b589254bc326791857", "name": "41c845306537f5b589254bc326791857", "rental_uris": {"ios": "https://dc.lft.to/lastmile_qr_scan", "android": "https://dc.lft.to/lastmile_qr_scan"}}, {"is_disabled": 0, "fusion_lat": 0.0, "lat": 38.917924166666666, "type": "electric_scooter", "lon": -77.02317966666666, "is_reserved": 0, "fusion_lon": 0.0, "bike_id": "a4282095e14fbd7c0e12cf4b1408b939", "name": "a4282095e14fbd7c0e12cf4b1408b939", "rental_uris": {"ios": "https://dc.lft.to/lastmile_qr_scan", "android": "https://dc.lft.to/lastmile_qr_scan"}}, {"is_disabled": 0, "fusion_lat": 0.0, "lat": 38.874990833333335, "type": "electric_scooter", "lon": -76.99799733333333, "is_reserved": 0, "fusion_lon": 0.0, "bike_id": "3145105f41f014263e6a98746a2f83bb", "name": "3145105f41f014263e6a98746a2f83bb", "rental_uris": {"ios": "https://dc.lft.to/lastmile_qr_scan", "android": "https://dc.lft.to/lastmile_qr_scan"}}, {"is_disabled": 0, "fusion_lat": 0.0, "lat": 38.85493266666667, "type": "electric_bike", "lon": -77.11613233333334, "is_reserved": 0, "fusion_lon": 0.0, "bike_id": "5dabf733afa5f374135c517cde609dc1", "name": "5dabf733afa5f374135c517cde609dc1", "rental_uris": {"ios": "https://dc.lft.to/lastmile_qr_scan", "android": "https://dc.lft.to/lastmile_qr_scan"}}, {"is_disabled": 0, "fusion_lat": 0.0, "lat": 38.899080166666664, "type": "electric_scooter", "lon": -76.93351566666666, "is_reserved": 0, "fusion_lon": 0.0, "bike_id": "9d51710f4e4fb8d2bc44051811274ac8", "name": "9d51710f4e4fb8d2bc44051811274ac8", "rental_uris": {"ios": "https://dc.lft.to/lastmile_qr_scan", "android": "https://dc.lft.to/lastmile_qr_scan"}}, {"is_disabled": 0, "fusion_lat": 0.0, "lat": 38.89196716666667, "type": "electric_scooter", "lon": -77.02381316666667, "is_reserved": 0, "fusion_lon": 0.0, "bike_id": "c533a608cea90e7d1e8026c36ec81dac", "name": "c533a608cea90e7d1e8026c36ec81dac", "rental_uris": {"ios": "https://dc.lft.to/lastmile_qr_scan", "android": "https://dc.lft.to/lastmile_qr_scan"}}, {"is_disabled": 0, "fusion_lat": 0.0, "lat": 38.90505683333333, "type": "electric_scooter", "lon": -77.04061566666667, "is_reserved": 0, "fusion_lon": 0.0, "bike_id": "ea3fabb33191d2a4e12f02e0a0f24840", "name": "ea3fabb33191d2a4e12f02e0a0f24840", "rental_uris": {"ios": "https://dc.lft.to/lastmile_qr_scan", "android": "https://dc.lft.to/lastmile_qr_scan"}}, {"is_disabled": 0, "fusion_lat": 0.0, "lat": 38.8618205, "type": "electric_scooter", "lon": -76.99459133333333, "is_reserved": 0, "fusion_lon": 0.0, "bike_id": "b2a380a058763d130da2f97d046bfa34", "name": "b2a380a058763d130da2f97d046bfa34", "rental_uris": {"ios": "https://dc.lft.to/lastmile_qr_scan", "android": "https://dc.lft.to/lastmile_qr_scan"}}, {"is_disabled": 0, "fusion_lat": 0.0, "lat": 38.9033615, "type": "electric_scooter", "lon": -77.062298, "is_reserved": 0, "fusion_lon": 0.0, "bike_id": "e5f3312934cc0335ec40d0fdebd77702", "name": "e5f3312934cc0335ec40d0fdebd77702", "rental_uris": {"ios": "https://dc.lft.to/lastmile_qr_scan", "android": "https://dc.lft.to/lastmile_qr_scan"}}, {"is_disabled": 0, "fusion_lat": 0.0, "lat": 38.936824, "type": "electric_scooter", "lon": -77.03630816666667, "is_reserved": 0, "fusion_lon": 0.0, "bike_id": "d695f9be9d1517811f2305e602d096dc", "name": "d695f9be9d1517811f2305e602d096dc", "rental_uris": {"ios": "https://dc.lft.to/lastmile_qr_scan", "android": "https://dc.lft.to/lastmile_qr_scan"}}, {"is_disabled": 0, "fusion_lat": 0.0, "lat": 38.934014166666664, "type": "electric_scooter", "lon": -77.0388915, "is_reserved": 0, "fusion_lon": 0.0, "bike_id": "1073e55fa2efffb06bd562d7fb8cb533", "name": "1073e55fa2efffb06bd562d7fb8cb533", "rental_uris": {"ios": "https://dc.lft.to/lastmile_qr_scan", "android": "https://dc.lft.to/lastmile_qr_scan"}}, {"is_disabled": 0, "fusion_lat": 0.0, "lat": 38.90321733333333, "type": "electric_scooter", "lon": -77.0375895, "is_reserved": 0, "fusion_lon": 0.0, "bike_id": "0fec958514a2d4300e52af7ec0ad8e4b", "name": "0fec958514a2d4300e52af7ec0ad8e4b", "rental_uris": {"ios": "https://dc.lft.to/lastmile_qr_scan", "android": "https://dc.lft.to/lastmile_qr_scan"}}, {"is_disabled": 0, "fusion_lat": 0.0, "lat": 38.8982695, "type": "electric_scooter", "lon": -77.00915383333333, "is_reserved": 0, "fusion_lon": 0.0, "bike_id": "e36bed38bcd296bb7a777d56eaaae4d0", "name": "e36bed38bcd296bb7a777d56eaaae4d0", "rental_uris": {"ios": "https://dc.lft.to/lastmile_qr_scan", "android": "https://dc.lft.to/lastmile_qr_scan"}}, {"is_disabled": 0, "fusion_lat": 0.0, "lat": 38.874726333333335, "type": "electric_scooter", "lon": -77.00936633333333, "is_reserved": 0, "fusion_lon": 0.0, "bike_id": "396b80ffd9a871d8e02ec5807e8bd334", "name": "396b80ffd9a871d8e02ec5807e8bd334", "rental_uris": {"ios": "https://dc.lft.to/lastmile_qr_scan", "android": "https://dc.lft.to/lastmile_qr_scan"}}, {"is_disabled": 0, "fusion_lat": 0.0, "lat": 38.9133095, "type": "electric_scooter", "lon": -77.04271516666667, "is_reserved": 0, "fusion_lon": 0.0, "bike_id": "a57c9f6170b0677d192c12f3468d0932", "name": "a57c9f6170b0677d192c12f3468d0932", "rental_uris": {"ios": "https://dc.lft.to/lastmile_qr_scan", "android": "https://dc.lft.to/lastmile_qr_scan"}}, {"is_disabled": 0, "fusion_lat": 0.0, "lat": 38.924178, "type": "electric_bike", "lon": -77.0456775, "is_reserved": 0, "fusion_lon": 0.0, "bike_id": "2472cf9c939e835b9514dcbff9020d8f", "name": "2472cf9c939e835b9514dcbff9020d8f", "rental_uris": {"ios": "https://dc.lft.to/lastmile_qr_scan", "android": "https://dc.lft.to/lastmile_qr_scan"}}, {"is_disabled": 0, "fusion_lat": 0.0, "lat": 38.9195565, "type": "electric_bike", "lon": -76.97261066666667, "is_reserved": 0, "fusion_lon": 0.0, "bike_id": "41d0c9636bed4993c472f327df95696b", "name": "41d0c9636bed4993c472f327df95696b", "rental_uris": {"ios": "https://dc.lft.to/lastmile_qr_scan", "android": "https://dc.lft.to/lastmile_qr_scan"}}, {"is_disabled": 0, "fusion_lat": 0.0, "lat": 38.8609395, "type": "electric_scooter", "lon": -76.98376666666667, "is_reserved": 0, "fusion_lon": 0.0, "bike_id": "82ed302cbe7cd9581eff9987882bd754", "name": "82ed302cbe7cd9581eff9987882bd754", "rental_uris": {"ios": "https://dc.lft.to/lastmile_qr_scan", "android": "https://dc.lft.to/lastmile_qr_scan"}}, {"is_disabled": 0, "fusion_lat": 0.0, "lat": 38.92475016666667, "type": "electric_scooter", "lon": -77.03910516666667, "is_reserved": 0, "fusion_lon": 0.0, "bike_id": "449f0c4128075d32fd81a53d1eaef446", "name": "449f0c4128075d32fd81a53d1eaef446", "rental_uris": {"ios": "https://dc.lft.to/lastmile_qr_scan", "android": "https://dc.lft.to/lastmile_qr_scan"}}, {"is_disabled": 0, "fusion_lat": 0.0, "lat": 38.9182305, "type": "electric_scooter", "lon": -77.0365045, "is_reserved": 0, "fusion_lon": 0.0, "bike_id": "dd838ca8397d826595634da4f22cd3cd", "name": "dd838ca8397d826595634da4f22cd3cd", "rental_uris": {"ios": "https://dc.lft.to/lastmile_qr_scan", "android": "https://dc.lft.to/lastmile_qr_scan"}}, {"is_disabled": 0, "fusion_lat": 0.0, "lat": 38.896269833333335, "type": "electric_scooter", "lon": -77.0092435, "is_reserved": 0, "fusion_lon": 0.0, "bike_id": "76d176042c6dfdfd1a8afcfdfc48813c", "name": "76d176042c6dfdfd1a8afcfdfc48813c", "rental_uris": {"ios": "https://dc.lft.to/lastmile_qr_scan", "android": "https://dc.lft.to/lastmile_qr_scan"}}, {"is_disabled": 0, "fusion_lat": 0.0, "lat": 38.902151, "type": "electric_scooter", "lon": -76.945928, "is_reserved": 0, "fusion_lon": 0.0, "bike_id": "03424ce86df858992d34a301de4267f4", "name": "03424ce86df858992d34a301de4267f4", "rental_uris": {"ios": "https://dc.lft.to/lastmile_qr_scan", "android": "https://dc.lft.to/lastmile_qr_scan"}}, {"is_disabled": 0, "fusion_lat": 0.0, "lat": 38.90969583333333, "type": "electric_scooter", "lon": -77.03603083333333, "is_reserved": 0, "fusion_lon": 0.0, "bike_id": "25c499038afefb86e7dbc6e678d9fe4f", "name": "25c499038afefb86e7dbc6e678d9fe4f", "rental_uris": {"ios": "https://dc.lft.to/lastmile_qr_scan", "android": "https://dc.lft.to/lastmile_qr_scan"}}, {"is_disabled": 0, "fusion_lat": 0.0, "lat": 38.94943383333333, "type": "electric_scooter", "lon": -77.01620233333334, "is_reserved": 0, "fusion_lon": 0.0, "bike_id": "a8ebaef1445531f0e70771f8effc7e32", "name": "a8ebaef1445531f0e70771f8effc7e32", "rental_uris": {"ios": "https://dc.lft.to/lastmile_qr_scan", "android": "https://dc.lft.to/lastmile_qr_scan"}}, {"is_disabled": 0, "fusion_lat": 0.0, "lat": 38.9157315, "type": "electric_scooter", "lon": -77.04682533333333, "is_reserved": 0, "fusion_lon": 0.0, "bike_id": "cce5981b3054574985a9d2cb050ec79a", "name": "cce5981b3054574985a9d2cb050ec79a", "rental_uris": {"ios": "https://dc.lft.to/lastmile_qr_scan", "android": "https://dc.lft.to/lastmile_qr_scan"}}, {"is_disabled": 0, "fusion_lat": 0.0, "lat": 38.958802666666664, "type": "electric_bike", "lon": -77.0103815, "is_reserved": 0, "fusion_lon": 0.0, "bike_id": "ee0b3992356c7d6da38c5422602852c6", "name": "ee0b3992356c7d6da38c5422602852c6", "rental_uris": {"ios": "https://dc.lft.to/lastmile_qr_scan", "android": "https://dc.lft.to/lastmile_qr_scan"}}, {"is_disabled": 0, "fusion_lat": 0.0, "lat": 38.92900683333333, "type": "electric_scooter", "lon": -77.032756, "is_reserved": 0, "fusion_lon": 0.0, "bike_id": "34252490017475d871ead673dcf6f3e9", "name": "34252490017475d871ead673dcf6f3e9", "rental_uris": {"ios": "https://dc.lft.to/lastmile_qr_scan", "android": "https://dc.lft.to/lastmile_qr_scan"}}, {"is_disabled": 0, "fusion_lat": 0.0, "lat": 38.9617295, "type": "electric_bike", "lon": -76.99591283333334, "is_reserved": 0, "fusion_lon": 0.0, "bike_id": "720324bef90f7cae5e755cd5a2439757", "name": "720324bef90f7cae5e755cd5a2439757", "rental_uris": {"ios": "https://dc.lft.to/lastmile_qr_scan", "android": "https://dc.lft.to/lastmile_qr_scan"}}, {"is_disabled": 0, "fusion_lat": 0.0, "lat": 38.914532, "type": "electric_scooter", "lon": -77.03668433333333, "is_reserved": 0, "fusion_lon": 0.0, "bike_id": "ab6270d6cff9bcb85c3e9d80713f9c3b", "name": "ab6270d6cff9bcb85c3e9d80713f9c3b", "rental_uris": {"ios": "https://dc.lft.to/lastmile_qr_scan", "android": "https://dc.lft.to/lastmile_qr_scan"}}, {"is_disabled": 0, "fusion_lat": 0.0, "lat": 38.922089, "type": "electric_scooter", "lon": -77.04258216666666, "is_reserved": 0, "fusion_lon": 0.0, "bike_id": "2173a5a14d475ab762b031b89fa0b0a1", "name": "2173a5a14d475ab762b031b89fa0b0a1", "rental_uris": {"ios": "https://dc.lft.to/lastmile_qr_scan", "android": "https://dc.lft.to/lastmile_qr_scan"}}, {"is_disabled": 0, "fusion_lat": 0.0, "lat": 38.9232465, "type": "electric_scooter", "lon": -77.03782766666667, "is_reserved": 0, "fusion_lon": 0.0, "bike_id": "4d22531361ec4c6ce95ca933878f9927", "name": "4d22531361ec4c6ce95ca933878f9927", "rental_uris": {"ios": "https://dc.lft.to/lastmile_qr_scan", "android": "https://dc.lft.to/lastmile_qr_scan"}}, {"is_disabled": 0, "fusion_lat": 0.0, "lat": 38.925709166666664, "type": "electric_scooter", "lon": -77.02578416666667, "is_reserved": 0, "fusion_lon": 0.0, "bike_id": "eba5538a2d2a6d569d43c61ab7e391bc", "name": "eba5538a2d2a6d569d43c61ab7e391bc", "rental_uris": {"ios": "https://dc.lft.to/lastmile_qr_scan", "android": "https://dc.lft.to/lastmile_qr_scan"}}, {"is_disabled": 0, "fusion_lat": 0.0, "lat": 38.9081115, "type": "electric_scooter", "lon": -76.98408016666667, "is_reserved": 0, "fusion_lon": 0.0, "bike_id": "705a92aa47cc7dbc8972cf6cb7707671", "name": "705a92aa47cc7dbc8972cf6cb7707671", "rental_uris": {"ios": "https://dc.lft.to/lastmile_qr_scan", "android": "https://dc.lft.to/lastmile_qr_scan"}}, {"is_disabled": 0, "fusion_lat": 0.0, "lat": 38.903231, "type": "electric_scooter", "lon": -77.03749833333333, "is_reserved": 0, "fusion_lon": 0.0, "bike_id": "701bff429b5dc8d506ef06b1d7242108", "name": "701bff429b5dc8d506ef06b1d7242108", "rental_uris": {"ios": "https://dc.lft.to/lastmile_qr_scan", "android": "https://dc.lft.to/lastmile_qr_scan"}}, {"is_disabled": 0, "fusion_lat": 0.0, "lat": 38.911106333333336, "type": "electric_scooter", "lon": -77.0383405, "is_reserved": 0, "fusion_lon": 0.0, "bike_id": "673572adcbad0adf57e080dd02a4dad9", "name": "673572adcbad0adf57e080dd02a4dad9", "rental_uris": {"ios": "https://dc.lft.to/lastmile_qr_scan", "android": "https://dc.lft.to/lastmile_qr_scan"}}, {"is_disabled": 0, "fusion_lat": 0.0, "lat": 38.8749645, "type": "electric_scooter", "lon": -77.00175683333333, "is_reserved": 0, "fusion_lon": 0.0, "bike_id": "8945c9997b0d9d705d66df51d54214e9", "name": "8945c9997b0d9d705d66df51d54214e9", "rental_uris": {"ios": "https://dc.lft.to/lastmile_qr_scan", "android": "https://dc.lft.to/lastmile_qr_scan"}}, {"is_disabled": 0, "fusion_lat": 0.0, "lat": 38.905233333333335, "type": "electric_scooter", "lon": -77.06462916666666, "is_reserved": 0, "fusion_lon": 0.0, "bike_id": "d18f6a873f3a19d9703dd2b1d92f4d69", "name": "d18f6a873f3a19d9703dd2b1d92f4d69", "rental_uris": {"ios": "https://dc.lft.to/lastmile_qr_scan", "android": "https://dc.lft.to/lastmile_qr_scan"}}, {"is_disabled": 0, "fusion_lat": 0.0, "lat": 38.88118733333334, "type": "electric_scooter", "lon": -77.00099516666667, "is_reserved": 0, "fusion_lon": 0.0, "bike_id": "2f48a391f1353b01c2b51152ea3239bf", "name": "2f48a391f1353b01c2b51152ea3239bf", "rental_uris": {"ios": "https://dc.lft.to/lastmile_qr_scan", "android": "https://dc.lft.to/lastmile_qr_scan"}}, {"is_disabled": 0, "fusion_lat": 0.0, "lat": 38.90038366666667, "type": "electric_scooter", "lon": -77.0019505, "is_reserved": 0, "fusion_lon": 0.0, "bike_id": "7eb2e33f9ad2269a2d5a430b3bcaeac1", "name": "7eb2e33f9ad2269a2d5a430b3bcaeac1", "rental_uris": {"ios": "https://dc.lft.to/lastmile_qr_scan", "android": "https://dc.lft.to/lastmile_qr_scan"}}, {"is_disabled": 0, "fusion_lat": 0.0, "lat": 38.88488666666667, "type": "electric_scooter", "lon": -77.007262, "is_reserved": 0, "fusion_lon": 0.0, "bike_id": "d9c4af58abf74d04e256d8b8f4381c29", "name": "d9c4af58abf74d04e256d8b8f4381c29", "rental_uris": {"ios": "https://dc.lft.to/lastmile_qr_scan", "android": "https://dc.lft.to/lastmile_qr_scan"}}, {"is_disabled": 0, "fusion_lat": 0.0, "lat": 38.9171745, "type": "electric_scooter", "lon": -77.03185816666667, "is_reserved": 0, "fusion_lon": 0.0, "bike_id": "1299c30c49a81e4806dce1b604abb7fe", "name": "1299c30c49a81e4806dce1b604abb7fe", "rental_uris": {"ios": "https://dc.lft.to/lastmile_qr_scan", "android": "https://dc.lft.to/lastmile_qr_scan"}}, {"is_disabled": 0, "fusion_lat": 0.0, "lat": 38.90214566666667, "type": "electric_scooter", "lon": -77.03366016666666, "is_reserved": 0, "fusion_lon": 0.0, "bike_id": "2fe5778b6150139e9876e51cdb744153", "name": "2fe5778b6150139e9876e51cdb744153", "rental_uris": {"ios": "https://dc.lft.to/lastmile_qr_scan", "android": "https://dc.lft.to/lastmile_qr_scan"}}, {"is_disabled": 0, "fusion_lat": 0.0, "lat": 38.916845333333335, "type": "electric_scooter", "lon": -77.03192983333334, "is_reserved": 0, "fusion_lon": 0.0, "bike_id": "9250b1d41fbee48b843289b500c40ef6", "name": "9250b1d41fbee48b843289b500c40ef6", "rental_uris": {"ios": "https://dc.lft.to/lastmile_qr_scan", "android": "https://dc.lft.to/lastmile_qr_scan"}}, {"is_disabled": 0, "fusion_lat": 0.0, "lat": 38.842656833333336, "type": "electric_bike", "lon": -76.98835816666667, "is_reserved": 0, "fusion_lon": 0.0, "bike_id": "5c33b97861082d0f7cfeca6216a34da1", "name": "5c33b97861082d0f7cfeca6216a34da1", "rental_uris": {"ios": "https://dc.lft.to/lastmile_qr_scan", "android": "https://dc.lft.to/lastmile_qr_scan"}}, {"is_disabled": 0, "fusion_lat": 0.0, "lat": 38.91933933333333, "type": "electric_scooter", "lon": -77.0306465, "is_reserved": 0, "fusion_lon": 0.0, "bike_id": "dc86a405c39fea4fd89751a44859a289", "name": "dc86a405c39fea4fd89751a44859a289", "rental_uris": {"ios": "https://dc.lft.to/lastmile_qr_scan", "android": "https://dc.lft.to/lastmile_qr_scan"}}, {"is_disabled": 0, "fusion_lat": 0.0, "lat": 38.894568, "type": "electric_bike", "lon": -76.9703555, "is_reserved": 0, "fusion_lon": 0.0, "bike_id": "1d00946d0a399226f17d5febc4b6f028", "name": "1d00946d0a399226f17d5febc4b6f028", "rental_uris": {"ios": "https://dc.lft.to/lastmile_qr_scan", "android": "https://dc.lft.to/lastmile_qr_scan"}}, {"is_disabled": 0, "fusion_lat": 0.0, "lat": 38.8728635, "type": "electric_scooter", "lon": -76.97731033333334, "is_reserved": 0, "fusion_lon": 0.0, "bike_id": "bb647cccf41d1cf1b19376b4eb809632", "name": "bb647cccf41d1cf1b19376b4eb809632", "rental_uris": {"ios": "https://dc.lft.to/lastmile_qr_scan", "android": "https://dc.lft.to/lastmile_qr_scan"}}, {"is_disabled": 0, "fusion_lat": 0.0, "lat": 38.89853083333333, "type": "electric_scooter", "lon": -77.0332095, "is_reserved": 0, "fusion_lon": 0.0, "bike_id": "86e70ac1b17d0d2bfe3d2aa50941a073", "name": "86e70ac1b17d0d2bfe3d2aa50941a073", "rental_uris": {"ios": "https://dc.lft.to/lastmile_qr_scan", "android": "https://dc.lft.to/lastmile_qr_scan"}}, {"is_disabled": 0, "fusion_lat": 0.0, "lat": 38.9249535, "type": "electric_scooter", "lon": -77.02151516666666, "is_reserved": 0, "fusion_lon": 0.0, "bike_id": "b7f304a7421b2083e8b333cc8afb5b34", "name": "b7f304a7421b2083e8b333cc8afb5b34", "rental_uris": {"ios": "https://dc.lft.to/lastmile_qr_scan", "android": "https://dc.lft.to/lastmile_qr_scan"}}, {"is_disabled": 0, "fusion_lat": 0.0, "lat": 38.90384866666667, "type": "electric_scooter", "lon": -77.039196, "is_reserved": 0, "fusion_lon": 0.0, "bike_id": "0b93a892d4e4d90e753fb3359f4c7d43", "name": "0b93a892d4e4d90e753fb3359f4c7d43", "rental_uris": {"ios": "https://dc.lft.to/lastmile_qr_scan", "android": "https://dc.lft.to/lastmile_qr_scan"}}, {"is_disabled": 0, "fusion_lat": 0.0, "lat": 38.909294, "type": "electric_scooter", "lon": -76.99980733333334, "is_reserved": 0, "fusion_lon": 0.0, "bike_id": "b9e221c68da2c4bbd1704187550961c6", "name": "b9e221c68da2c4bbd1704187550961c6", "rental_uris": {"ios": "https://dc.lft.to/lastmile_qr_scan", "android": "https://dc.lft.to/lastmile_qr_scan"}}, {"is_disabled": 0, "fusion_lat": 0.0, "lat": 38.90781033333333, "type": "electric_scooter", "lon": -77.03476533333334, "is_reserved": 0, "fusion_lon": 0.0, "bike_id": "f34ef061ae48d8d87e01d04bbd1933b1", "name": "f34ef061ae48d8d87e01d04bbd1933b1", "rental_uris": {"ios": "https://dc.lft.to/lastmile_qr_scan", "android": "https://dc.lft.to/lastmile_qr_scan"}}, {"is_disabled": 0, "fusion_lat": 0.0, "lat": 39.058094833333335, "type": "electric_bike", "lon": -77.12624533333333, "is_reserved": 0, "fusion_lon": 0.0, "bike_id": "ab134d708f32505311dfa4e8c37e8d45", "name": "ab134d708f32505311dfa4e8c37e8d45", "rental_uris": {"ios": "https://dc.lft.to/lastmile_qr_scan", "android": "https://dc.lft.to/lastmile_qr_scan"}}, {"is_disabled": 0, "fusion_lat": 0.0, "lat": 38.9012685, "type": "electric_scooter", "lon": -76.99663533333333, "is_reserved": 0, "fusion_lon": 0.0, "bike_id": "58cf6f05beaf76fb1565757c1f2c78cc", "name": "58cf6f05beaf76fb1565757c1f2c78cc", "rental_uris": {"ios": "https://dc.lft.to/lastmile_qr_scan", "android": "https://dc.lft.to/lastmile_qr_scan"}}, {"is_disabled": 0, "fusion_lat": 0.0, "lat": 38.95351133333333, "type": "electric_bike", "lon": -76.98090466666666, "is_reserved": 0, "fusion_lon": 0.0, "bike_id": "3f3eb17b1429b2ba4fbe8e4387101648", "name": "3f3eb17b1429b2ba4fbe8e4387101648", "rental_uris": {"ios": "https://dc.lft.to/lastmile_qr_scan", "android": "https://dc.lft.to/lastmile_qr_scan"}}, {"is_disabled": 0, "fusion_lat": 0.0, "lat": 38.84610766666667, "type": "electric_bike", "lon": -76.969048, "is_reserved": 0, "fusion_lon": 0.0, "bike_id": "4911932869b827396fad12afee1cb806", "name": "4911932869b827396fad12afee1cb806", "rental_uris": {"ios": "https://dc.lft.to/lastmile_qr_scan", "android": "https://dc.lft.to/lastmile_qr_scan"}}, {"is_disabled": 0, "fusion_lat": 0.0, "lat": 38.895541, "type": "electric_scooter", "lon": -76.930439, "is_reserved": 0, "fusion_lon": 0.0, "bike_id": "f6bcab3132682aa9d5e90b9b944fb9de", "name": "f6bcab3132682aa9d5e90b9b944fb9de", "rental_uris": {"ios": "https://dc.lft.to/lastmile_qr_scan", "android": "https://dc.lft.to/lastmile_qr_scan"}},