{"data": {"bikes": [{"lon": -77.0323045, "is_disabled": 0, "lat": 38.917098, "fusion_lat": 0.0, "is_reserved": 0, "rental_uris": {"ios": "https://dc.lft.to/lastmile_qr_scan", "android": "https://dc.lft.to/lastmile_qr_scan"}, "fusion_lon": 0.0, "type": "electric_scooter", "bike_id": "8175deb868c97a2dfcae580b61abb58a", "name": "8175deb868c97a2dfcae580b61abb58a"}, {"lon": -77.005424, "is_disabled": 0, "lat": 38.87711866666667, "fusion_lat": 0.0, "is_reserved": 0, "rental_uris": {"ios": "https://dc.lft.to/lastmile_qr_scan", "android": "https://dc.lft.to/lastmile_qr_scan"}, "fusion_lon": 0.0, "type": "electric_scooter", "bike_id": "7eb8188317764aa6b73686a01804af96", "name": "7eb8188317764aa6b73686a01804af96"}, {"lon": -77.03358083333333, "is_disabled": 0, "lat": 38.892383833333334, "fusion_lat": 0.0, "is_reserved": 0, "rental_uris": {"ios": "https://dc.lft.to/lastmile_qr_scan", "android": "https://dc.lft.to/lastmile_qr_scan"}, "fusion_lon": 0.0, "type": "electric_scooter", "bike_id": "404083d8414ac58b1f0fe365b8d2414d", "name": "404083d8414ac58b1f0fe365b8d2414d"}, {"lon": -77.02227166666667, "is_disabled": 0, "lat": 38.9125625, "fusion_lat": 0.0, "is_reserved": 0, "rental_uris": {"ios": "https://dc.lft.to/lastmile_qr_scan", "android": "https://dc.lft.to/lastmile_qr_scan"}, "fusion_lon": 0.0, "type": "electric_bike", "bike_id": "d6371e4f37b0aa085a25314beff0b88d", "name": "d6371e4f37b0aa085a25314beff0b88d"}, {"lon": -77.03208366666667, "is_disabled": 0, "lat": 38.916196666666664, "fusion_lat": 0.0, "is_reserved": 0, "rental_uris": {"ios": "https://dc.lft.to/lastmile_qr_scan", "android": "https://dc.lft.to/lastmile_qr_scan"}, "fusion_lon": 0.0, "type": "electric_scooter", "bike_id": "ad57cd06827d02c7ee771e10c96341d5", "name": "ad57cd06827d02c7ee771e10c96341d5"}, {"lon": -76.94865133333333, "is_disabled": 0, "lat": 38.8947685, "fusion_lat": 0.0, "is_reserved": 0, "rental_uris": {"ios": "https://dc.lft.to/lastmile_qr_scan", "android": "https://dc.lft.to/lastmile_qr_scan"}, "fusion_lon": 0.0, "type": "electric_scooter", "bike_id": "f0a35fb0259703054e374f8b5c95aa3e", "name": "f0a35fb0259703054e374f8b5c95aa3e"}, {"lon": -77.039983, "is_disabled": 0, "lat": 38.91406533333333, "fusion_lat": 0.0, "is_reserved": 0, "rental_uris": {"ios": "https://dc.lft.to/lastmile_qr_scan", "android": "https://dc.lft.to/lastmile_qr_scan"}, "fusion_lon": 0.0, "type": "electric_scooter", "bike_id": "a4915b3a1b2236da65908f7fd3fd12e6", "name": "a4915b3a1b2236da65908f7fd3fd12e6"}, {"lon": -76.9761015, "is_disabled": 0, "lat": 38.940207666666666, "fusion_lat": 0.0, "is_reserved": 0, "rental_uris": {"ios": "https://dc.lft.to/lastmile_qr_scan", "android": "https://dc.lft.to/lastmile_qr_scan"}, "fusion_lon": 0.0, "type": "electric_scooter", "bike_id": "32b4edfa6562b4c5bbd09ce25432a6c3", "name": "32b4edfa6562b4c5bbd09ce25432a6c3"}, {"lon": -77.0433845, "is_disabled": 0, "lat": 38.91109183333333, "fusion_lat": 0.0, "is_reserved": 0, "rental_uris": {"ios": "https://dc.lft.to/lastmile_qr_scan", "android": "https://dc.lft.to/lastmile_qr_scan"}, "fusion_lon": 0.0, "type": "electric_scooter", "bike_id": "bbe9466c5226c5ba6ad28bec9fc18c4e", "name": "bbe9466c5226c5ba6ad28bec9fc18c4e"}, {"lon": -77.02197716666667, "is_disabled": 0, "lat": 38.909764333333335, "fusion_lat": 0.0, "is_reserved": 0, "rental_uris": {"ios": "https://dc.lft.to/lastmile_qr_scan", "android": "https://dc.lft.to/lastmile_qr_scan"}, "fusion_lon": 0.0, "type": "electric_scooter", "bike_id": "c41b76ea8cd5860ca0308b4d5a67822e", "name": "c41b76ea8cd5860ca0308b4d5a67822e"}, {"lon": -77.07751083333333, "is_disabled": 0, "lat": 38.911716, "fusion_lat": 0.0, "is_reserved": 0, "rental_uris": {"ios": "https://dc.lft.to/lastmile_qr_scan", "android": "https://dc.lft.to/lastmile_qr_scan"}, "fusion_lon": 0.0, "type": "electric_scooter", "bike_id": "e3251bda80670bef6051c9367a9a0d71", "name": "e3251bda80670bef6051c9367a9a0d71"}, {"lon": -77.03218016666666, "is_disabled": 0, "lat": 38.90126266666667, "fusion_lat": 0.0, "is_reserved": 0, "rental_uris": {"ios": "https://dc.lft.to/lastmile_qr_scan", "android": "https://dc.lft.to/lastmile_qr_scan"}, "fusion_lon": 0.0, "type": "electric_scooter", "bike_id": "e4d36a5001362f73e9c03b90288b9219", "name": "e4d36a5001362f73e9c03b90288b9219"}, {"lon": -77.0526795, "is_disabled": 0, "lat": 38.92776833333333, "fusion_lat": 0.0, "is_reserved": 0, "rental_uris": {"ios": "https://dc.lft.to/lastmile_qr_scan", "android": "https://dc.lft.to/lastmile_qr_scan"}, "fusion_lon": 0.0, "type": "electric_scooter", "bike_id": "0b453ef587df42991569b862496e090f", "name": "0b453ef587df42991569b862496e090f"}, {"lon": -77.03108816666666, "is_disabled": 0, "lat": 38.8831525, "fusion_lat": 0.0, "is_reserved": 0, "rental_uris": {"ios": "https://dc.lft.to/lastmile_qr_scan", "android": "https://dc.lft.to/lastmile_qr_scan"}, "fusion_lon": 0.0, "type": "electric_scooter", "bike_id": "9a99f777ab3bca8e85e23ddb860c5def", "name": "9a99f777ab3bca8e85e23ddb860c5def"}, {"lon": -77.043526, "is_disabled": 0, "lat": 38.9071165, "fusion_lat": 0.0, "is_reserved": 0, "rental_uris": {"ios": "https://dc.lft.to/lastmile_qr_scan", "android": "https://dc.lft.to/lastmile_qr_scan"}, "fusion_lon": 0.0, "type": "electric_scooter", "bike_id": "5c73a7e358921d48fbc6d3b53c556ef3", "name": "5c73a7e358921d48fbc6d3b53c556ef3"}, {"lon": -76.9896455, "is_disabled": 0, "lat": 38.85875266666667, "fusion_lat": 0.0, "is_reserved": 0, "rental_uris": {"ios": "https://dc.lft.to/lastmile_qr_scan", "android": "https://dc.lft.to/lastmile_qr_scan"}, "fusion_lon": 0.0, "type": "electric_scooter", "bike_id": "435622bcdbc31b709aaab35b2dbf2899", "name": "435622bcdbc31b709aaab35b2dbf2899"}, {"lon": -77.043023, "is_disabled": 0, "lat": 38.931825833333335, "fusion_lat": 0.0, "is_reserved": 0, "rental_uris": {"ios": "https://dc.lft.to/lastmile_qr_scan", "android": "https://dc.lft.to/lastmile_qr_scan"}, "fusion_lon": 0.0, "type": "electric_scooter", "bike_id": "2b9dbc7ac40cfdb6e69f674de827fbda", "name": "2b9dbc7ac40cfdb6e69f674de827fbda"}, {"lon": -77.023888, "is_disabled": 0, "lat": 38.91716233333333, "fusion_lat": 0.0, "is_reserved": 0, "rental_uris": {"ios": "https://dc.lft.to/lastmile_qr_scan", "android": "https://dc.lft.to/lastmile_qr_scan"}, "fusion_lon": 0.0, "type": "electric_scooter", "bike_id": "08b0e638c4f19d164b3df907be5c5c17", "name": "08b0e638c4f19d164b3df907be5c5c17"}, {"lon": -77.0386555, "is_disabled": 0, "lat": 38.90580516666667, "fusion_lat": 0.0, "is_reserved": 0, "rental_uris": {"ios": "https://dc.lft.to/lastmile_qr_scan", "android": "https://dc.lft.to/lastmile_qr_scan"}, "fusion_lon": 0.0, "type": "electric_scooter", "bike_id": "f9ec0a7f213a3a1758fd0acc2cd1315d", "name": "f9ec0a7f213a3a1758fd0acc2cd1315d"}, {"lon": -76.92915433333333, "is_disabled": 0, "lat": 38.898532, "fusion_lat": 0.0, "is_reserved": 0, "rental_uris": {"ios": "https://dc.lft.to/lastmile_qr_scan", "android": "https://dc.lft.to/lastmile_qr_scan"}, "fusion_lon": 0.0, "type": "electric_scooter", "bike_id": "1fb38b6e7a67945b61d9d9bcdae8d462", "name": "1fb38b6e7a67945b61d9d9bcdae8d462"}, {"lon": -77.00229466666667, "is_disabled": 0, "lat": 38.925117166666666, "fusion_lat": 0.0, "is_reserved": 0, "rental_uris": {"ios": "https://dc.lft.to/lastmile_qr_scan", "android": "https://dc.lft.to/lastmile_qr_scan"}, "fusion_lon": 0.0, "type": "electric_scooter", "bike_id": "70f5230ff176f1d8679f3e7875c9c99b", "name": "70f5230ff176f1d8679f3e7875c9c99b"}, {"lon": -77.02985666666666, "is_disabled": 0, "lat": 38.9198985, "fusion_lat": 0.0, "is_reserved": 0, "rental_uris": {"ios": "https://dc.lft.to/lastmile_qr_scan", "android": "https://dc.lft.to/lastmile_qr_scan"}, "fusion_lon": 0.0, "type": "electric_scooter", "bike_id": "5b131da4ff6b9403ba94a931fad385dd", "name": "5b131da4ff6b9403ba94a931fad385dd"}, {"lon": -77.0468035, "is_disabled": 0, "lat": 38.90597016666667, "fusion_lat": 0.0, "is_reserved": 0, "rental_uris": {"ios": "https://dc.lft.to/lastmile_qr_scan", "android": "https://dc.lft.to/lastmile_qr_scan"}, "fusion_lon": 0.0, "type": "electric_scooter", "bike_id": "acd11ad4bd487791d3d31b0241e3df78", "name": "acd11ad4bd487791d3d31b0241e3df78"}, {"lon": -77.04839616666666, "is_disabled": 0, "lat": 38.89836916666667, "fusion_lat": 0.0, "is_reserved": 0, "rental_uris": {"ios": "https://dc.lft.to/lastmile_qr_scan", "android": "https://dc.lft.to/lastmile_qr_scan"}, "fusion_lon": 0.0, "type": "electric_scooter", "bike_id": "99121eee6b93b1ffb12c0bbb84a39028", "name": "99121eee6b93b1ffb12c0bbb84a39028"}, {"lon": -77.04927966666666, "is_disabled": 0, "lat": 38.9182595, "fusion_lat": 0.0, "is_reserved": 0, "rental_uris": {"ios": "https://dc.lft.to/lastmile_qr_scan", "android": "https://dc.lft.to/lastmile_qr_scan"}, "fusion_lon": 0.0, "type": "electric_scooter", "bike_id": "50cf79b861c76fa4c68174558f9584dc", "name": "50cf79b861c76fa4c68174558f9584dc"}, {"lon": -77.0452025, "is_disabled": 0, "lat": 38.89959266666666, "fusion_lat": 0.0, "is_reserved": 0, "rental_uris": {"ios": "https://dc.lft.to/lastmile_qr_scan", "android": "https://dc.lft.to/lastmile_qr_scan"}, "fusion_lon": 0.0, "type": "electric_scooter", "bike_id": "f7421468b671d357ce9a9d29adb9fdaa", "name": "f7421468b671d357ce9a9d29adb9fdaa"}, {"lon": -77.022067, "is_disabled": 0, "lat": 38.914726, "fusion_lat": 0.0, "is_reserved": 0, "rental_uris": {"ios": "https://dc.lft.to/lastmile_qr_scan", "android": "https://dc.lft.to/lastmile_qr_scan"}, "fusion_lon": 0.0, "type": "electric_scooter", "bike_id": "6ce63fdd0fec5a1fda88c1ef34fa4df3", "name": "6ce63fdd0fec5a1fda88c1ef34fa4df3"}, {"lon": -76.9901885, "is_disabled": 0, "lat": 38.86509266666667, "fusion_lat": 0.0, "is_reserved": 0, "rental_uris": {"ios": "https://dc.lft.to/lastmile_qr_scan", "android": "https://dc.lft.to/lastmile_qr_scan"}, "fusion_lon": 0.0, "type": "electric_scooter", "bike_id": "d9ff854657f9a4f6669eb4b15a7bad67", "name": "d9ff854657f9a4f6669eb4b15a7bad67"}, {"lon": -77.05516383333334, "is_disabled": 0, "lat": 38.91524016666666, "fusion_lat": 0.0, "is_reserved": 0, "rental_uris": {"ios": "https://dc.lft.to/lastmile_qr_scan", "android": "https://dc.lft.to/lastmile_qr_scan"}, "fusion_lon": 0.0, "type": "electric_scooter", "bike_id": "30fb605fc958a3b5a6eb594df05ece46", "name": "30fb605fc958a3b5a6eb594df05ece46"}, {"lon": -77.01235566666666, "is_disabled": 0, "lat": 38.87503983333333, "fusion_lat": 0.0, "is_reserved": 0, "rental_uris": {"ios": "https://dc.lft.to/lastmile_qr_scan", "android": "https://dc.lft.to/lastmile_qr_scan"}, "fusion_lon": 0.0, "type": "electric_scooter", "bike_id": "6dc656774589980bb5d48f5c579a9dfb", "name": "6dc656774589980bb5d48f5c579a9dfb"}, {"lon": -77.01920116666666, "is_disabled": 0, "lat": 38.92339416666667, "fusion_lat": 0.0, "is_reserved": 0, "rental_uris": {"ios": "https://dc.lft.to/lastmile_qr_scan", "android": "https://dc.lft.to/lastmile_qr_scan"}, "fusion_lon": 0.0, "type": "electric_scooter", "bike_id": "ba43b934addb827661c99fd4b4520818", "name": "ba43b934addb827661c99fd4b4520818"}, {"lon": -77.05888133333333, "is_disabled": 0, "lat": 38.93636016666667, "fusion_lat": 0.0, "is_reserved": 0, "rental_uris": {"ios": "https://dc.lft.to/lastmile_qr_scan", "android": "https://dc.lft.to/lastmile_qr_scan"}, "fusion_lon": 0.0, "type": "electric_scooter", "bike_id": "41a0fd4ebf2bd7c0a28fb404f5b7340b", "name": "41a0fd4ebf2bd7c0a28fb404f5b7340b"}, {"lon": -77.02806416666667, "is_disabled": 0, "lat": 38.89626766666667, "fusion_lat": 0.0, "is_reserved": 0, "rental_uris": {"ios": "https://dc.lft.to/lastmile_qr_scan", "android": "https://dc.lft.to/lastmile_qr_scan"}, "fusion_lon": 0.0, "type": "electric_scooter", "bike_id": "7da1955cb9326b05e459de464442b5b7", "name": "7da1955cb9326b05e459de464442b5b7"}, {"lon": -77.013285, "is_disabled": 0, "lat": 38.897103, "fusion_lat": 0.0, "is_reserved": 0, "rental_uris": {"ios": "https://dc.lft.to/lastmile_qr_scan", "android": "https://dc.lft.to/lastmile_qr_scan"}, "fusion_lon": 0.0, "type": "electric_bike", "bike_id": "239f84252d1f01b50da9b74bc94e1f1a", "name": "239f84252d1f01b50da9b74bc94e1f1a"}, {"lon": -77.03960366666666, "is_disabled": 0, "lat": 38.8985025, "fusion_lat": 0.0, "is_reserved": 0, "rental_uris": {"ios": "https://dc.lft.to/lastmile_qr_scan", "android": "https://dc.lft.to/lastmile_qr_scan"}, "fusion_lon": 0.0, "type": "electric_scooter", "bike_id": "c58128d70a54fc96e792e9c03413e71d", "name": "c58128d70a54fc96e792e9c03413e71d"}, {"lon": -77.086628, "is_disabled": 0, "lat": 38.809051, "fusion_lat": 0.0, "is_reserved": 0, "rental_uris": {"ios": "https://dc.lft.to/lastmile_qr_scan", "android": "https://dc.lft.to/lastmile_qr_scan"}, "fusion_lon": 0.0, "type": "electric_bike", "bike_id": "17f1bab5f9d9d80f44878e9c0ca083f3", "name": "17f1bab5f9d9d80f44878e9c0ca083f3"}, {"lon": -77.04079033333333, "is_disabled": 0, "lat": 38.902545833333335, "fusion_lat": 0.0, "is_reserved": 0, "rental_uris": {"ios": "https://dc.lft.to/lastmile_qr_scan", "android": "https://dc.lft.to/lastmile_qr_scan"}, "fusion_lon": 0.0, "type": "electric_scooter", "bike_id": "144868f2a3e50bba6cbd1d576c4dbd24", "name": "144868f2a3e50bba6cbd1d576c4dbd24"}, {"lon": -76.98339433333334, "is_disabled": 0, "lat": 38.900951666666664, "fusion_lat": 0.0, "is_reserved": 0, "rental_uris": {"ios": "https://dc.lft.to/lastmile_qr_scan", "android": "https://dc.lft.to/lastmile_qr_scan"}, "fusion_lon": 0.0, "type": "electric_scooter", "bike_id": "fedeb9c319a9cc43bfdcf8d864ca5aa5", "name": "fedeb9c319a9cc43bfdcf8d864ca5aa5"}, {"lon": -77.04408216666667, "is_disabled": 0, "lat": 38.897399, "fusion_lat": 0.0, "is_reserved": 0, "rental_uris": {"ios": "https://dc.lft.to/lastmile_qr_scan", "android": "https://dc.lft.to/lastmile_qr_scan"}, "fusion_lon": 0.0, "type": "electric_scooter", "bike_id": "1c6b9bd46cb8ad6c575f62ac8a553d60", "name": "1c6b9bd46cb8ad6c575f62ac8a553d60"}, {"lon": -77.01896916666666, "is_disabled": 0, "lat": 38.91761316666667, "fusion_lat": 0.0, "is_reserved": 0, "rental_uris": {"ios": "https://dc.lft.to/lastmile_qr_scan", "android": "https://dc.lft.to/lastmile_qr_scan"}, "fusion_lon": 0.0, "type": "electric_bike", "bike_id": "56d8f3db6af0fa1d40a024e69bebde20", "name": "56d8f3db6af0fa1d40a024e69bebde20"}, {"lon": -76.95330816666667, "is_disabled": 0, "lat": 38.8924055, "fusion_lat": 0.0, "is_reserved": 0, "rental_uris": {"ios": "https://dc.lft.to/lastmile_qr_scan", "android": "https://dc.lft.to/lastmile_qr_scan"}, "fusion_lon": 0.0, "type": "electric_scooter", "bike_id": "88cdb8ee3c9ea54bf53d76f25a3b8da6", "name": "88cdb8ee3c9ea54bf53d76f25a3b8da6"}, {"lon": -77.03272283333334, "is_disabled": 0, "lat": 38.92915433333334, "fusion_lat": 0.0, "is_reserved": 0, "rental_uris": {"ios": "https://dc.lft.to/lastmile_qr_scan", "android": "https://dc.lft.to/lastmile_qr_scan"}, "fusion_lon": 0.0, "type": "electric_scooter", "bike_id": "d0a7005e63c6ed0d6847ddcf38e01a02", "name": "d0a7005e63c6ed0d6847ddcf38e01a02"}, {"lon": -76.971078, "is_disabled": 0, "lat": 38.92440783333333, "fusion_lat": 0.0, "is_reserved": 0, "rental_uris": {"ios": "https://dc.lft.to/lastmile_qr_scan", "android": "https://dc.lft.to/lastmile_qr_scan"}, "fusion_lon": 0.0, "type": "electric_bike", "bike_id": "917480d6dd83da347eebcc7b0af9cb85", "name": "917480d6dd83da347eebcc7b0af9cb85"}, {"lon": -77.03160333333334, "is_disabled": 0, "lat": 38.96442116666667, "fusion_lat": 0.0, "is_reserved": 0, "rental_uris": {"ios": "https://dc.lft.to/lastmile_qr_scan", "android": "https://dc.lft.to/lastmile_qr_scan"}, "fusion_lon": 0.0, "type": "electric_bike", "bike_id": "eee9f1f70316ad69212091a7e6542389", "name": "eee9f1f70316ad69212091a7e6542389"}, {"lon": -77.0320515, "is_disabled": 0, "lat": 38.90983583333333, "fusion_lat": 0.0, "is_reserved": 0, "rental_uris": {"ios": "https://dc.lft.to/lastmile_qr_scan", "android": "https://dc.lft.to/lastmile_qr_scan"}, "fusion_lon": 0.0, "type": "electric_scooter", "bike_id": "2384d227461276fbbe393ad3b558677d", "name": "2384d227461276fbbe393ad3b558677d"}, {"lon": -77.04498116666667, "is_disabled": 0, "lat": 38.911846, "fusion_lat": 0.0, "is_reserved": 0, "rental_uris": {"ios": "https://dc.lft.to/lastmile_qr_scan", "android": "https://dc.lft.to/lastmile_qr_scan"}, "fusion_lon": 0.0, "type": "electric_scooter", "bike_id": "0e9804076a2fce6d42b9b7caad4b0e43", "name": "0e9804076a2fce6d42b9b7caad4b0e43"}, {"lon": -77.02414366666666, "is_disabled": 0, "lat": 38.917632833333336, "fusion_lat": 0.0, "is_reserved": 0, "rental_uris": {"ios": "https://dc.lft.to/lastmile_qr_scan", "android": "https://dc.lft.to/lastmile_qr_scan"}, "fusion_lon": 0.0, "type": "electric_scooter", "bike_id": "2960d90d39c92accaec520dc7e68a867", "name": "2960d90d39c92accaec520dc7e68a867"}, {"lon": -76.94643, "is_disabled": 0, "lat": 38.89866933333333, "fusion_lat": 0.0, "is_reserved": 0, "rental_uris": {"ios": "https://dc.lft.to/lastmile_qr_scan", "android": "https://dc.lft.to/lastmile_qr_scan"}, "fusion_lon": 0.0, "type": "electric_scooter", "bike_id": "451ae072345bc2eae94da07882f0e34e", "name": "451ae072345bc2eae94da07882f0e34e"}, {"lon": -77.022287, "is_disabled": 0, "lat": 38.9346735, "fusion_lat": 0.0, "is_reserved": 0, "rental_uris": {"ios": "https://dc.lft.to/lastmile_qr_scan", "android": "https://dc.lft.to/lastmile_qr_scan"}, "fusion_lon": 0.0, "type": "electric_scooter", "bike_id": "3bacaab9e4fd833e56c57dd90c1ee393", "name": "3bacaab9e4fd833e56c57dd90c1ee393"}, {"lon": -77.04645783333333, "is_disabled": 0, "lat": 38.909728, "fusion_lat": 0.0, "is_reserved": 0, "rental_uris": {"ios": "https://dc.lft.to/lastmile_qr_scan", "android": "https://dc.lft.to/lastmile_qr_scan"}, "fusion_lon": 0.0, "type": "electric_scooter", "bike_id": "3bfc45a0274531a6c7c6d7bc9eda1fbb", "name": "3bfc45a0274531a6c7c6d7bc9eda1fbb"}, {"lon": -77.2013945, "is_disabled": 0, "lat": 38.922176666666665, "fusion_lat": 0.0, "is_reserved": 0, "rental_uris": {"ios": "https://dc.lft.to/lastmile_qr_scan", "android": "https://dc.lft.to/lastmile_qr_scan"}, "fusion_lon": 0.0, "type": "electric_bike", "bike_id": "c897555b8386ee9a865c1b38d9c8998c", "name": "c897555b8386ee9a865c1b38d9c8998c"}, {"lon": -77.03288233333333, "is_disabled": 0, "lat": 38.922631333333335, "fusion_lat": 0.0, "is_reserved": 0, "rental_uris": {"ios": "https://dc.lft.to/lastmile_qr_scan", "android": "https://dc.lft.to/lastmile_qr_scan"}, "fusion_lon": 0.0, "type": "electric_scooter", "bike_id": "3a227a8bdcc95620eda7b1707f3d4ef7", "name": "3a227a8bdcc95620eda7b1707f3d4ef7"}, {"lon": -76.971019, "is_disabled": 0, "lat": 38.87062733333333, "fusion_lat": 0.0, "is_reserved": 0, "rental_uris": {"ios": "https://dc.lft.to/lastmile_qr_scan", "android": "https://dc.lft.to/lastmile_qr_scan"}, "fusion_lon": 0.0, "type": "electric_scooter", "bike_id": "22b23f4f4f318b9a9e51fee9951ffb30", "name": "22b23f4f4f318b9a9e51fee9951ffb30"}, {"lon": -77.04681416666666, "is_disabled": 0, "lat": 38.893253666666666, "fusion_lat": 0.0, "is_reserved": 0, "rental_uris": {"ios": "https://dc.lft.to/lastmile_qr_scan", "android": "https://dc.lft.to/lastmile_qr_scan"}, "fusion_lon": 0.0, "type": "electric_scooter", "bike_id": "5514a7e8cd43196259e00a4d15febc19", "name": "5514a7e8cd43196259e00a4d15febc19"}, {"lon": -77.02591666666666, "is_disabled": 0, "lat": 38.94208316666667, "fusion_lat": 0.0, "is_reserved": 0, "rental_uris": {"ios": "https://dc.lft.to/lastmile_qr_scan", "android": "https://dc.lft.to/lastmile_qr_scan"}, "fusion_lon": 0.0, "type": "electric_scooter", "bike_id": "7501a773556f253ce64a30c37e593122", "name": "7501a773556f253ce64a30c37e593122"}, {"lon": -77.012172, "is_disabled": 0, "lat": 38.898461833333336, "fusion_lat": 0.0, "is_reserved": 0, "rental_uris": {"ios": "https://dc.lft.to/lastmile_qr_scan", "android": "https://dc.lft.to/lastmile_qr_scan"}, "fusion_lon": 0.0, "type": "electric_scooter", "bike_id": "6a4dde81d59e14104b55eeebb3e20bb9", "name": "6a4dde81d59e14104b55eeebb3e20bb9"}, {"lon": -77.02562133333333, "is_disabled": 0, "lat": 38.90960483333333, "fusion_lat": 0.0, "is_reserved": 0, "rental_uris": {"ios": "https://dc.lft.to/lastmile_qr_scan", "android": "https://dc.lft.to/lastmile_qr_scan"}, "fusion_lon": 0.0, "type": "electric_scooter", "bike_id": "1d11444a0210e3de181da0217e50dc8b", "name": "1d11444a0210e3de181da0217e50dc8b"}, {"lon": -77.00589883333333, "is_disabled": 0, "lat": 38.87662366666667, "fusion_lat": 0.0, "is_reserved": 0, "rental_uris": {"ios": "https://dc.lft.to/lastmile_qr_scan", "android": "https://dc.lft.to/lastmile_qr_scan"}, "fusion_lon": 0.0, "type": "electric_scooter", "bike_id": "2a6d2334732f2610e796f265dc903e91", "name": "2a6d2334732f2610e796f265dc903e91"}, {"lon": -77.0085035, "is_disabled": 0, "lat": 38.92233183333333, "fusion_lat": 0.0, "is_reserved": 0, "rental_uris": {"ios": "https://dc.lft.to/lastmile_qr_scan", "android": "https://dc.lft.to/lastmile_qr_scan"}, "fusion_lon": 0.0, "type": "electric_scooter", "bike_id": "3422b3036c252576f20bf48908861b9f", "name": "3422b3036c252576f20bf48908861b9f"}, {"lon": -77.0566335, "is_disabled": 0, "lat": 38.9060025, "fusion_lat": 0.0, "is_reserved": 0, "rental_uris": {"ios": "https://dc.lft.to/lastmile_qr_scan", "android": "https://dc.lft.to/lastmile_qr_scan"}, "fusion_lon": 0.0, "type": "electric_scooter", "bike_id": "24ef02821bd5237d29918d33e9e50fe7", "name": "24ef02821bd5237d29918d33e9e50fe7"}, {"lon": -77.0333055, "is_disabled": 0, "lat": 38.972207166666664, "fusion_lat": 0.0, "is_reserved": 0, "rental_uris": {"ios": "https://dc.lft.to/lastmile_qr_scan", "android": "https://dc.lft.to/lastmile_qr_scan"}, "fusion_lon": 0.0, "type": "electric_bike", "bike_id": "6e1fcec7e3790711282f946eb27e241c", "name": "6e1fcec7e3790711282f946eb27e241c"}, {"lon": -77.00342866666666, "is_disabled": 0, "lat": 38.894659, "fusion_lat": 0.0, "is_reserved": 0, "rental_uris": {"ios": "https://dc.lft.to/lastmile_qr_scan", "android": "https://dc.lft.to/lastmile_qr_scan"}, "fusion_lon": 0.0, "type": "electric_scooter", "bike_id": "ba894dbd27e9a8ff48352e1906297aa3", "name": "ba894dbd27e9a8ff48352e1906297aa3"}, {"lon": -76.98381383333333, "is_disabled": 0, "lat": 38.8794355, "fusion_lat": 0.0, "is_reserved": 0, "rental_uris": {"ios": "https://dc.lft.to/lastmile_qr_scan", "android": "https://dc.lft.to/lastmile_qr_scan"}, "fusion_lon": 0.0, "type": "electric_scooter", "bike_id": "c6c0a87071e27c27b2903ee600be39d7", "name": "c6c0a87071e27c27b2903ee600be39d7"}, {"lon": -77.02501983333333, "is_disabled": 0, "lat": 38.91807633333333, "fusion_lat": 0.0, "is_reserved": 0, "rental_uris": {"ios": "https://dc.lft.to/lastmile_qr_scan", "android": "https://dc.lft.to/lastmile_qr_scan"}, "fusion_lon": 0.0, "type": "electric_scooter", "bike_id": "14fbff6da0c96f759aed5d9ac55209e8", "name": "14fbff6da0c96f759aed5d9ac55209e8"}, {"lon": -77.06384166666666, "is_disabled": 0, "lat": 38.905205, "fusion_lat": 0.0, "is_reserved": 0, "rental_uris": {"ios": "https://dc.lft.to/lastmile_qr_scan", "android": "https://dc.lft.to/lastmile_qr_scan"}, "fusion_lon": 0.0, "type": "electric_scooter", "bike_id": "af3542d7b73e2dc3babfc3f8fcfb08a6", "name": "af3542d7b73e2dc3babfc3f8fcfb08a6"}, {"lon": -76.978613, "is_disabled": 0, "lat": 38.844674166666664, "fusion_lat": 0.0, "is_reserved": 0, "rental_uris": {"ios": "https://dc.lft.to/lastmile_qr_scan", "android": "https://dc.lft.to/lastmile_qr_scan"}, "fusion_lon": 0.0, "type": "electric_bike", "bike_id": "f94652020ba257def62c12f52ce1386e", "name": "f94652020ba257def62c12f52ce1386e"}, {"lon": -77.03364616666667, "is_disabled": 0, "lat": 38.9028155, "fusion_lat": 0.0, "is_reserved": 0, "rental_uris": {"ios": "https://dc.lft.to/lastmile_qr_scan", "android": "https://dc.lft.to/lastmile_qr_scan"}, "fusion_lon": 0.0, "type": "electric_scooter", "bike_id": "68ac973708ba108fe773a3b1244564f3", "name": "68ac973708ba108fe773a3b1244564f3"}, {"lon": -77.05728016666667, "is_disabled": 0, "lat": 38.933655333333334, "fusion_lat": 0.0, "is_reserved": 0, "rental_uris": {"ios": "https://dc.lft.to/lastmile_qr_scan", "android": "https://dc.lft.to/lastmile_qr_scan"}, "fusion_lon": 0.0, "type": "electric_scooter", "bike_id": "9a6b1039b3f9e7d02724bab033384527", "name": "9a6b1039b3f9e7d02724bab033384527"}, {"lon": -76.96719166666666, "is_disabled": 0, "lat": 38.8603395, "fusion_lat": 0.0, "is_reserved": 0, "rental_uris": {"ios": "https://dc.lft.to/lastmile_qr_scan", "android": "https://dc.lft.to/lastmile_qr_scan"}, "fusion_lon": 0.0, "type": "electric_scooter", "bike_id": "d4f9e260ff4482a83decd9683d89b159", "name": "d4f9e260ff4482a83decd9683d89b159"}, {"lon": -76.956682, "is_disabled": 0, "lat": 38.8846435, "fusion_lat": 0.0, "is_reserved": 0, "rental_uris": {"ios": "https://dc.lft.to/lastmile_qr_scan", "android": "https://dc.lft.to/lastmile_qr_scan"}, "fusion_lon": 0.0, "type": "electric_bike", "bike_id": "92fc4c7d90bb68c76f03fc101341b705", "name": "92fc4c7d90bb68c76f03fc101341b705"}, {"lon": -77.04297016666666, "is_disabled": 0, "lat": 39.03427383333333, "fusion_lat": 0.0, "is_reserved": 0, "rental_uris": {"ios": "https://dc.lft.to/lastmile_qr_scan", "android": "https://dc.lft.to/lastmile_qr_scan"}, "fusion_lon": 0.0, "type": "electric_bike", "bike_id": "4aafea73322cf2b764a8c63c66251c6e", "name": "4aafea73322cf2b764a8c63c66251c6e"}, {"lon": -77.051531, "is_disabled": 0, "lat": 38.923752666666665, "fusion_lat": 0.0, "is_reserved": 0, "rental_uris": {"ios": "https://dc.lft.to/lastmile_qr_scan", "android": "https://dc.lft.to/lastmile_qr_scan"}, "fusion_lon": 0.0, "type": "electric_scooter", "bike_id": "44a89a9d2dea8645783b7bb48321e55e", "name": "44a89a9d2dea8645783b7bb48321e55e"}, {"lon": -77.04168516666667, "is_disabled": 0, "lat": 38.907365666666664, "fusion_lat": 0.0, "is_reserved": 0, "rental_uris": {"ios": "https://dc.lft.to/lastmile_qr_scan", "android": "https://dc.lft.to/lastmile_qr_scan"}, "fusion_lon": 0.0, "type": "electric_scooter", "bike_id": "877cdddae718e955d0665e250c0b5d3f", "name": "877cdddae718e955d0665e250c0b5d3f"}, {"lon": -77.043489, "is_disabled": 0, "lat": 38.910407666666664, "fusion_lat": 0.0, "is_reserved": 0, "rental_uris": {"ios": "https://dc.lft.to/lastmile_qr_scan", "android": "https://dc.lft.to/lastmile_qr_scan"}, "fusion_lon": 0.0, "type": "electric_scooter", "bike_id": "a58447d5a2004d4fe122cb62ae7d7eeb", "name": "a58447d5a2004d4fe122cb62ae7d7eeb"}, {"lon": -76.9778625, "is_disabled": 0, "lat": 38.90569833333333, "fusion_lat": 0.0, "is_reserved": 0, "rental_uris": {"ios": "https://dc.lft.to/lastmile_qr_scan", "android": "https://dc.lft.to/lastmile_qr_scan"}, "fusion_lon": 0.0, "type": "electric_scooter", "bike_id": "52b3c0170a48f84fcebdf106aabec64e", "name": "52b3c0170a48f84fcebdf106aabec64e"}, {"lon": -77.0463285, "is_disabled": 0, "lat": 38.90274133333333, "fusion_lat": 0.0, "is_reserved": 0, "rental_uris": {"ios": "https://dc.lft.to/lastmile_qr_scan", "android": "https://dc.lft.to/lastmile_qr_scan"}, "fusion_lon": 0.0, "type": "electric_scooter", "bike_id": "0e13724320ffaed8e3bea0a6aaba7448", "name": "0e13724320ffaed8e3bea0a6aaba7448"}, {"lon": -77.00073033333334, "is_disabled": 0, "lat": 38.8768715, "fusion_lat": 0.0, "is_reserved": 0, "rental_uris": {"ios": "https://dc.lft.to/lastmile_qr_scan", "android": "https://dc.lft.to/lastmile_qr_scan"}, "fusion_lon": 0.0, "type": "electric_scooter", "bike_id": "e0009150e375d11bab799c4f18769cd9", "name": "e0009150e375d11bab799c4f18769cd9"}, {"lon": -76.98686083333334, "is_disabled": 0, "lat": 38.8775755, "fusion_lat": 0.0, "is_reserved": 0, "rental_uris": {"ios": "https://dc.lft.to/lastmile_qr_scan", "android": "https://dc.lft.to/lastmile_qr_scan"}, "fusion_lon": 0.0, "type": "electric_scooter", "bike_id": "e5a014f35f2beef33e2490348f4f0107", "name": "e5a014f35f2beef33e2490348f4f0107"}, {"lon": -77.02772883333333, "is_disabled": 0, "lat": 38.92861033333333, "fusion_lat": 0.0, "is_reserved": 0, "rental_uris": {"ios": "https://dc.lft.to/lastmile_qr_scan", "android": "https://dc.lft.to/lastmile_qr_scan"}, "fusion_lon": 0.0, "type": "electric_scooter", "bike_id": "1d4336f2db88022cfd108d5ec7ffca3e", "name": "1d4336f2db88022cfd108d5ec7ffca3e"}, {"lon": -76.99633966666667, "is_disabled": 0, "lat": 38.8844125, "fusion_lat": 0.0, "is_reserved": 0, "rental_uris": {"ios": "https://dc.lft.to/lastmile_qr_scan", "android": "https://dc.lft.to/lastmile_qr_scan"}, "fusion_lon": 0.0, "type": "electric_scooter", "bike_id": "34150b9986dd264c4878f2c64ade720e", "name": "34150b9986dd264c4878f2c64ade720e"}, {"lon": -77.03782933333333, "is_disabled": 0, "lat": 38.902507666666665, "fusion_lat": 0.0, "is_reserved": 0, "rental_uris": {"ios": "https://dc.lft.to/lastmile_qr_scan", "android": "https://dc.lft.to/lastmile_qr_scan"}, "fusion_lon": 0.0, "type": "electric_scooter", "bike_id": "a7576331de8168d42d043f0f27b5ceec", "name": "a7576331de8168d42d043f0f27b5ceec"}, {"lon": -77.0231425, "is_disabled": 0, "lat": 38.927499166666664, "fusion_lat": 0.0, "is_reserved": 0, "rental_uris": {"ios": "https://dc.lft.to/lastmile_qr_scan", "android": "https://dc.lft.to/lastmile_qr_scan"}, "fusion_lon": 0.0, "type": "electric_scooter", "bike_id": "37cfb43056afb23d251834c7205dc973", "name": "37cfb43056afb23d251834c7205dc973"}, {"lon": -76.9302715, "is_disabled": 0, "lat": 38.895709333333336, "fusion_lat": 0.0, "is_reserved": 0, "rental_uris": {"ios": "https://dc.lft.to/lastmile_qr_scan", "android": "https://dc.lft.to/lastmile_qr_scan"}, "fusion_lon": 0.0, "type": "electric_scooter", "bike_id": "21dae853bc0449043a11a84c3aef7d6d", "name": "21dae853bc0449043a11a84c3aef7d6d"}, {"lon": -76.94639783333334, "is_disabled": 0, "lat": 38.832414666666665, "fusion_lat": 0.0, "is_reserved": 0, "rental_uris": {"ios": "https://dc.lft.to/lastmile_qr_scan", "android": "https://dc.lft.to/lastmile_qr_scan"}, "fusion_lon": 0.0, "type": "electric_bike", "bike_id": "8ae9b78d01a41618fbcd56230fce97a0", "name": "8ae9b78d01a41618fbcd56230fce97a0"}, {"lon": -77.04623366666667, "is_disabled": 0, "lat": 38.923141666666666, "fusion_lat": 0.0, "is_reserved": 0, "rental_uris": {"ios": "https://dc.lft.to/lastmile_qr_scan", "android": "https://dc.lft.to/lastmile_qr_scan"}, "fusion_lon": 0.0, "type": "electric_scooter", "bike_id": "397753b458a4429cdad0d487a268fcfe", "name": "397753b458a4429cdad0d487a268fcfe"}, {"lon": -77.0297005, "is_disabled": 0, "lat": 38.8973625, "fusion_lat": 0.0, "is_reserved": 0, "rental_uris": {"ios": "https://dc.lft.to/lastmile_qr_scan", "android": "https://dc.lft.to/lastmile_qr_scan"}, "fusion_lon": 0.0, "type": "electric_scooter", "bike_id": "9a353670492569027a9730c7c57e387c", "name": "9a353670492569027a9730c7c57e387c"}, {"lon": -77.03166166666666, "is_disabled": 0, "lat": 38.9163165, "fusion_lat": 0.0, "is_reserved": 0, "rental_uris": {"ios": "https://dc.lft.to/lastmile_qr_scan", "android": "https://dc.lft.to/lastmile_qr_scan"}, "fusion_lon": 0.0, "type": "electric_scooter", "bike_id": "eef77ff8ebb12d8678017b4ed69bf655", "name": "eef77ff8ebb12d8678017b4ed69bf655"}, {"lon": -77.015109, "is_disabled": 0, "lat": 38.92669166666667, "fusion_lat": 0.0, "is_reserved": 0, "rental_uris": {"ios": "https://dc.lft.to/lastmile_qr_scan", "android": "https://dc.lft.to/lastmile_qr_scan"}, "fusion_lon": 0.0, "type": "electric_scooter", "bike_id": "4a90a509f3ec9bfe128a25d14a3699c7", "name": "4a90a509f3ec9bfe128a25d14a3699c7"}, {"lon": -77.04168716666666, "is_disabled": 0, "lat": 38.90734716666667, "fusion_lat": 0.0, "is_reserved": 0, "rental_uris": {"ios": "https://dc.lft.to/lastmile_qr_scan", "android": "https://dc.lft.to/lastmile_qr_scan"}, "fusion_lon": 0.0, "type": "electric_scooter", "bike_id": "bf38ba72ccb55d6400a73f5274df66cc", "name": "bf38ba72ccb55d6400a73f5274df66cc"}, {"lon": -77.03734683333333, "is_disabled": 0, "lat": 38.92660516666667, "fusion_lat": 0.0, "is_reserved": 0, "rental_uris": {"ios": "https://dc.lft.to/lastmile_qr_scan", "android": "https://dc.lft.to/lastmile_qr_scan"}, "fusion_lon": 0.0, "type": "electric_scooter", "bike_id": "e5c3dfdf9cb39e9f7d7279836c1dba32", "name": "e5c3dfdf9cb39e9f7d7279836c1dba32"}, {"lon": -77.02052983333333, "is_disabled": 0, "lat": 38.9208875, "fusion_lat": 0.0, "is_reserved": 0, "rental_uris": {"ios": "https://dc.lft.to/lastmile_qr_scan", "android": "https://dc.lft.to/lastmile_qr_scan"}, "fusion_lon": 0.0, "type": "electric_scooter", "bike_id": "2e2832831c0a78a7717663b913ed51f9", "name": "2e2832831c0a78a7717663b913ed51f9"}, {"lon": -77.04655016666666, "is_disabled": 0, "lat": 38.903865333333336, "fusion_lat": 0.0, "is_reserved": 0, "rental_uris": {"ios": "https://dc.lft.to/lastmile_qr_scan", "android": "https://dc.lft.to/lastmile_qr_scan"}, "fusion_lon": 0.0, "type": "electric_scooter", "bike_id": "67fdc013d71faecf0fa8dc93cf76ad6e", "name": "67fdc013d71faecf0fa8dc93cf76ad6e"}, {"lon": -76.99704266666667, "is_disabled": 0, "lat": 38.9079905, "fusion_lat": 0.0, "is_reserved": 0, "rental_uris": {"ios": "https://dc.lft.to/lastmile_qr_scan", "android": "https://dc.lft.to/lastmile_qr_scan"}, "fusion_lon": 0.0, "type": "electric_scooter", "bike_id": "2c33cf912fac80adb76620f41a0ae29d", "name": "2c33cf912fac80adb76620f41a0ae29d"}, {"lon": -77.0417705, "is_disabled": 0, "lat": 38.901461833333336, "fusion_lat": 0.0, "is_reserved": 0, "rental_uris": {"ios": "https://dc.lft.to/lastmile_qr_scan", "android": "https://dc.lft.to/lastmile_qr_scan"}, "fusion_lon": 0.0, "type": "electric_scooter", "bike_id": "1cfbebad26b3b3d1f3ba5a6ce27d76fa", "name": "1cfbebad26b3b3d1f3ba5a6ce27d76fa"}, {"lon": -77.02201083333334, "is_disabled": 0, "lat": 38.895369, "fusion_lat": 0.0, "is_reserved": 0, "rental_uris": {"ios": "https://dc.lft.to/lastmile_qr_scan", "android": "https://dc.lft.to/lastmile_qr_scan"}, "fusion_lon": 0.0, "type": "electric_scooter", "bike_id": "97960ca6a4df9795166136daee2b086f", "name": "97960ca6a4df9795166136daee2b086f"}, {"lon": -77.0081835, "is_disabled": 0, "lat": 38.87668133333333, "fusion_lat": 0.0, "is_reserved": 0, "rental_uris": {"ios": "https://dc.lft.to/lastmile_qr_scan", "android": "https://dc.lft.to/lastmile_qr_scan"}, "fusion_lon": 0.0, "type": "electric_scooter", "bike_id": "10150e63d3a4f935e4dd6c59da4768e5", "name": "10150e63d3a4f935e4dd6c59da4768e5"}, {"lon": -77.022019, "is_disabled": 0, "lat": 38.91127266666667, "fusion_lat": 0.0, "is_reserved": 0, "rental_uris": {"ios": "https://dc.lft.to/lastmile_qr_scan", "android": "https://dc.lft.to/lastmile_qr_scan"}, "fusion_lon": 0.0, "type": "electric_scooter", "bike_id": "06b45094710c1af43e446e23eb251be2", "name": "06b45094710c1af43e446e23eb251be2"}, {"lon": -77.01911833333334, "is_disabled": 0, "lat": 38.9172715, "fusion_lat": 0.0, "is_reserved": 0, "rental_uris": {"ios": "https://dc.lft.to/lastmile_qr_scan", "android": "https://dc.lft.to/lastmile_qr_scan"}, "fusion_lon": 0.0, "type": "electric_scooter", "bike_id": "936838d123fa30172b4a1596405d7c28", "name": "936838d123fa30172b4a1596405d7c28"}, {"lon": -77.040927, "is_disabled": 0, "lat": 38.9173015, "fusion_lat": 0.0, "is_reserved": 0, "rental_uris": {"ios": "https://dc.lft.to/lastmile_qr_scan", "android": "https://dc.lft.to/lastmile_qr_scan"}, "fusion_lon": 0.0, "type": "electric_scooter", "bike_id": "b1fd4389cae463ad5ae45602c29b73c6", "name": "b1fd4389cae463ad5ae45602c29b73c6"}, {"lon": -77.0633355, "is_disabled": 0, "lat": 38.92107016666667, "fusion_lat": 0.0, "is_reserved": 0, "rental_uris": {"ios": "https://dc.lft.to/lastmile_qr_scan", "android": "https://dc.lft.to/lastmile_qr_scan"}, "fusion_lon": 0.0, "type": "electric_scooter", "bike_id": "ab5f71a28bb5caba8b50a7ffdb71813e", "name": "ab5f71a28bb5caba8b50a7ffdb71813e"}, {"lon": -76.9653385, "is_disabled": 0, "lat": 38.876244, "fusion_lat": 0.0, "is_reserved": 0, "rental_uris": {"ios": "https://dc.lft.to/lastmile_qr_scan", "android": "https://dc.lft.to/lastmile_qr_scan"}, "fusion_lon": 0.0, "type": "electric_scooter", "bike_id": "6f1b3c37437f88e3bbd9adfe4be61672", "name": "6f1b3c37437f88e3bbd9adfe4be61672"}, {"lon": -77.02803783333333, "is_disabled": 0, "lat": 38.899753, "fusion_lat": 0.0, "is_reserved": 0, "rental_uris": {"ios": "https://dc.lft.to/lastmile_qr_scan", "android": "https://dc.lft.to/lastmile_qr_scan"}, "fusion_lon": 0.0, "type": "electric_scooter", "bike_id": "dd73b4eef0e156c54bd684436a5d107d", "name": "dd73b4eef0e156c54bd684436a5d107d"}, {"lon": -77.01211933333333, "is_disabled": 0, "lat": 38.87473266666667, "fusion_lat": 0.0, "is_reserved": 0, "rental_uris": {"ios": "https://dc.lft.to/lastmile_qr_scan", "android": "https://dc.lft.to/lastmile_qr_scan"}, "fusion_lon": 0.0, "type": "electric_scooter", "bike_id": "2fb400357885d2634900b66709531f6d", "name": "2fb400357885d2634900b66709531f6d"}, {"lon": -77.02418733333333, "is_disabled": 0, "lat": 38.915431, "fusion_lat": 0.0, "is_reserved": 0, "rental_uris": {"ios": "https://dc.lft.to/lastmile_qr_scan", "android": "https://dc.lft.to/lastmile_qr_scan"}, "fusion_lon": 0.0, "type": "electric_scooter", "bike_id": "f157377d5290e2f51efb743853921008", "name": "f157377d5290e2f51efb743853921008"}, {"lon": -77.02826166666667, "is_disabled": 0, "lat": 38.886523, "fusion_lat": 0.0, "is_reserved": 0, "rental_uris": {"ios": "https://dc.lft.to/lastmile_qr_scan", "android": "https://dc.lft.to/lastmile_qr_scan"}, "fusion_lon": 0.0, "type": "electric_scooter", "bike_id": "b0be63b61b571e2d45b03021a01b2b06", "name": "b0be63b61b571e2d45b03021a01b2b06"}, {"lon": -77.02962783333334, "is_disabled": 0, "lat": 38.9345785, "fusion_lat": 0.0, "is_reserved": 0, "rental_uris": {"ios": "https://dc.lft.to/lastmile_qr_scan", "android": "https://dc.lft.to/lastmile_qr_scan"}, "fusion_lon": 0.0, "type": "electric_scooter", "bike_id": "8b82fd9242cb6d401f8ed3ff5570cd33", "name": "8b82fd9242cb6d401f8ed3ff5570cd33"}, {"lon": -77.03362166666666, "is_disabled": 0, "lat": 38.900098166666666, "fusion_lat": 0.0, "is_reserved": 0, "rental_uris": {"ios": "https://dc.lft.to/lastmile_qr_scan", "android": "https://dc.lft.to/lastmile_qr_scan"}, "fusion_lon": 0.0, "type": "electric_scooter", "bike_id": "8e24631d8f59c390989299a87da604b0", "name": "8e24631d8f59c390989299a87da604b0"}, {"lon": -76.9872005, "is_disabled": 0, "lat": 38.86697733333333, "fusion_lat": 0.0, "is_reserved": 0, "rental_uris": {"ios": "https://dc.lft.to/lastmile_qr_scan", "android": "https://dc.lft.to/lastmile_qr_scan"}, "fusion_lon": 0.0, "type": "electric_scooter", "bike_id": "8848fffc2c562da5f9f73b73ab2305ac", "name": "8848fffc2c562da5f9f73b73ab2305ac"}, {"lon": -76.94638033333334, "is_disabled": 0, "lat": 38.8986605, "fusion_lat": 0.0, "is_reserved": 0, "rental_uris": {"ios": "https://dc.lft.to/lastmile_qr_scan", "android": "https://dc.lft.to/lastmile_qr_scan"}, "fusion_lon": 0.0, "type": "electric_scooter", "bike_id": "4983d7f8c1815786f6a3ea2bf2585279", "name": "4983d7f8c1815786f6a3ea2bf2585279"}, {"lon": -77.0308665, "is_disabled": 0, "lat": 38.90273366666667, "fusion_lat": 0.0, "is_reserved": 0, "rental_uris": {"ios": "https://dc.lft.to/lastmile_qr_scan", "android": "https://dc.lft.to/lastmile_qr_scan"}, "fusion_lon": 0.0, "type": "electric_scooter", "bike_id": "aabb9b6bcf42ba65f883cb129b0b1a6d", "name": "aabb9b6bcf42ba65f883cb129b0b1a6d"}, {"lon": -77.04506933333333, "is_disabled": 0, "lat": 38.90374966666667, "fusion_lat": 0.0, "is_reserved": 0, "rental_uris": {"ios": "https://dc.lft.to/lastmile_qr_scan", "android": "https://dc.lft.to/lastmile_qr_scan"}, "fusion_lon": 0.0, "type": "electric_scooter", "bike_id": "ecc15879a42684a43741cb0727beacd1", "name": "ecc15879a42684a43741cb0727beacd1"}, {"lon": -76.94050066666667, "is_disabled": 0, "lat": 38.97858083333333, "fusion_lat": 0.0, "is_reserved": 0, "rental_uris": {"ios": "https://dc.lft.to/lastmile_qr_scan", "android": "https://dc.lft.to/lastmile_qr_scan"}, "fusion_lon": 0.0, "type": "electric_bike", "bike_id": "d2462b318a3bf8c5612b4284f6f44237", "name": "d2462b318a3bf8c5612b4284f6f44237"}, {"lon": -77.05013083333333, "is_disabled": 0, "lat": 38.90524466666667, "fusion_lat": 0.0, "is_reserved": 0, "rental_uris": {"ios": "https://dc.lft.to/lastmile_qr_scan", "android": "https://dc.lft.to/lastmile_qr_scan"}, "fusion_lon": 0.0, "type": "electric_scooter", "bike_id": "ead67e2a43bea5b769d801b32a1e3cac", "name": "ead67e2a43bea5b769d801b32a1e3cac"}, {"lon": -77.03127183333334, "is_disabled": 0, "lat": 38.916102333333335, "fusion_lat": 0.0, "is_reserved": 0, "rental_uris": {"ios": "https://dc.lft.to/lastmile_qr_scan", "android": "https://dc.lft.to/lastmile_qr_scan"}, "fusion_lon": 0.0, "type": "electric_scooter", "bike_id": "d930969a2b6a0de74061419e705e1531", "name": "d930969a2b6a0de74061419e705e1531"}, {"lon": -77.0262065, "is_disabled": 0, "lat": 38.9440635, "fusion_lat": 0.0, "is_reserved": 0, "rental_uris": {"ios": "https://dc.lft.to/lastmile_qr_scan", "android": "https://dc.lft.to/lastmile_qr_scan"}, "fusion_lon": 0.0, "type": "electric_scooter", "bike_id": "bf04476e48e68523efd2a1685c558a0d", "name": "bf04476e48e68523efd2a1685c558a0d"}, {"lon": -76.98971466666667, "is_disabled": 0, "lat": 38.86539483333333, "fusion_lat": 0.0, "is_reserved": 0, "rental_uris": {"ios": "https://dc.lft.to/lastmile_qr_scan", "android": "https://dc.lft.to/lastmile_qr_scan"}, "fusion_lon": 0.0, "type": "electric_scooter", "bike_id": "5ff20655e73c5ef3c94f3571bd0a2eaf", "name": "5ff20655e73c5ef3c94f3571bd0a2eaf"}, {"lon": -76.94704966666667, "is_disabled": 0, "lat": 38.89365383333333, "fusion_lat": 0.0, "is_reserved": 0, "rental_uris": {"ios": "https://dc.lft.to/lastmile_qr_scan", "android": "https://dc.lft.to/lastmile_qr_scan"}, "fusion_lon": 0.0, "type": "electric_scooter", "bike_id": "2374cfaa3460268229bfccc2b74aee2f", "name": "2374cfaa3460268229bfccc2b74aee2f"}, {"lon": -77.23410366666667, "is_disabled": 0, "lat": 38.875823833333335, "fusion_lat": 0.0, "is_reserved": 0, "rental_uris": {"ios": "https://dc.lft.to/lastmile_qr_scan", "android": "https://dc.lft.to/lastmile_qr_scan"}, "fusion_lon": 0.0, "type": "electric_bike", "bike_id": "c082828430d3332cf84448f72889b2a2", "name": "c082828430d3332cf84448f72889b2a2"}, {"lon": -77.030385, "is_disabled": 0, "lat": 38.90266583333333, "fusion_lat": 0.0, "is_reserved": 0, "rental_uris": {"ios": "https://dc.lft.to/lastmile_qr_scan", "android": "https://dc.lft.to/lastmile_qr_scan"}, "fusion_lon": 0.0, "type": "electric_scooter", "bike_id": "36e28b7d501a233fda4a46e33bf99a59", "name": "36e28b7d501a233fda4a46e33bf99a59"}, {"lon": -76.990369, "is_disabled": 0, "lat": 38.8985125, "fusion_lat": 0.0, "is_reserved": 0, "rental_uris": {"ios": "https://dc.lft.to/lastmile_qr_scan", "android": "https://dc.lft.to/lastmile_qr_scan"}, "fusion_lon": 0.0, "type": "electric_scooter", "bike_id": "9dc6193c49e9027cf9a65b9d758ba2a2", "name": "9dc6193c49e9027cf9a65b9d758ba2a2"}, {"lon": -77.04866666666666, "is_disabled": 0, "lat": 38.90552516666666, "fusion_lat": 0.0, "is_reserved": 0, "rental_uris": {"ios": "https://dc.lft.to/lastmile_qr_scan", "android": "https://dc.lft.to/lastmile_qr_scan"}, "fusion_lon": 0.0, "type": "electric_scooter", "bike_id": "06e12541386a333ae7b3838a302c6f7c", "name": "06e12541386a333ae7b3838a302c6f7c"}, {"lon": -77.026108, "is_disabled": 0, "lat": 38.934883, "fusion_lat": 0.0, "is_reserved": 0, "rental_uris": {"ios": "https://dc.lft.to/lastmile_qr_scan", "android": "https://dc.lft.to/lastmile_qr_scan"}, "fusion_lon": 0.0, "type": "electric_scooter", "bike_id": "61c5888b7dcb877416ac320a07d75b96", "name": "61c5888b7dcb877416ac320a07d75b96"}, {"lon": -77.052642, "is_disabled": 0, "lat": 38.925727333333334, "fusion_lat": 0.0, "is_reserved": 0, "rental_uris": {"ios": "https://dc.lft.to/lastmile_qr_scan", "android": "https://dc.lft.to/lastmile_qr_scan"}, "fusion_lon": 0.0, "type": "electric_scooter", "bike_id": "eff362bbb1cff82f74be699ed71c737f", "name": "eff362bbb1cff82f74be699ed71c737f"}, {"lon": -77.03562866666667, "is_disabled": 0, "lat": 38.90467566666667, "fusion_lat": 0.0, "is_reserved": 0, "rental_uris": {"ios": "https://dc.lft.to/lastmile_qr_scan", "android": "https://dc.lft.to/lastmile_qr_scan"}, "fusion_lon": 0.0, "type": "electric_scooter", "bike_id": "413ca4011a67b0082306e02a602f0b1c", "name": "413ca4011a67b0082306e02a602f0b1c"}, {"lon": -77.04130083333334, "is_disabled": 0, "lat": 38.9236685, "fusion_lat": 0.0, "is_reserved": 0, "rental_uris": {"ios": "https://dc.lft.to/lastmile_qr_scan", "android": "https://dc.lft.to/lastmile_qr_scan"}, "fusion_lon": 0.0, "type": "electric_scooter", "bike_id": "477ccba6c26dcbe83b26b177b981e73b", "name": "477ccba6c26dcbe83b26b177b981e73b"}, {"lon": -77.02446533333334, "is_disabled": 0, "lat": 38.899942333333335, "fusion_lat": 0.0, "is_reserved": 0, "rental_uris": {"ios": "https://dc.lft.to/lastmile_qr_scan", "android": "https://dc.lft.to/lastmile_qr_scan"}, "fusion_lon": 0.0, "type": "electric_scooter", "bike_id": "0c5cd26e69dc0b2f60439079367dc4b7", "name": "0c5cd26e69dc0b2f60439079367dc4b7"}, {"lon": -77.05050233333333, "is_disabled": 0, "lat": 38.90539916666667, "fusion_lat": 0.0, "is_reserved": 0, "rental_uris": {"ios": "https://dc.lft.to/lastmile_qr_scan", "android": "https://dc.lft.to/lastmile_qr_scan"}, "fusion_lon": 0.0, "type": "electric_scooter", "bike_id": "38a0b532f692304d3842d7805460460d", "name": "38a0b532f692304d3842d7805460460d"}, {"lon": -77.052365, "is_disabled": 0, "lat": 38.925094666666666, "fusion_lat": 0.0, "is_reserved": 0, "rental_uris": {"ios": "https://dc.lft.to/lastmile_qr_scan", "android": "https://dc.lft.to/lastmile_qr_scan"}, "fusion_lon": 0.0, "type": "electric_scooter", "bike_id": "304670dd6522f676cdf3b28479c8ef81", "name": "304670dd6522f676cdf3b28479c8ef81"}, {"lon": -76.98277066666667, "is_disabled": 0, "lat": 38.885256166666665, "fusion_lat": 0.0, "is_reserved": 0, "rental_uris": {"ios": "https://dc.lft.to/lastmile_qr_scan", "android": "https://dc.lft.to/lastmile_qr_scan"}, "fusion_lon": 0.0, "type": "electric_scooter", "bike_id": "1810d26003d1fb03c841aad1a98e5a33", "name": "1810d26003d1fb03c841aad1a98e5a33"}, {"lon": -77.03381516666667, "is_disabled": 0, "lat": 38.901600333333334, "fusion_lat": 0.0, "is_reserved": 0, "rental_uris": {"ios": "https://dc.lft.to/lastmile_qr_scan", "android": "https://dc.lft.to/lastmile_qr_scan"}, "fusion_lon": 0.0, "type": "electric_scooter", "bike_id": "1f7a93a47eb97240b09c55904d79d724", "name": "1f7a93a47eb97240b09c55904d79d724"}, {"lon": -77.026425, "is_disabled": 0, "lat": 38.9365205, "fusion_lat": 0.0, "is_reserved": 0, "rental_uris": {"ios": "https://dc.lft.to/lastmile_qr_scan", "android": "https://dc.lft.to/lastmile_qr_scan"}, "fusion_lon": 0.0, "type": "electric_scooter", "bike_id": "33396a3bd79d6bbf5c3c1c5f8f65c0cd", "name": "33396a3bd79d6bbf5c3c1c5f8f65c0cd"}, {"lon": -76.99794433333334, "is_disabled": 0, "lat": 38.95086333333333, "fusion_lat": 0.0, "is_reserved": 0, "rental_uris": {"ios": "https://dc.lft.to/lastmile_qr_scan", "android": "https://dc.lft.to/lastmile_qr_scan"}, "fusion_lon": 0.0, "type": "electric_bike", "bike_id": "c4751c2ab08d61c642b8d52764ff0018", "name": "c4751c2ab08d61c642b8d52764ff0018"}, {"lon": -77.04881966666666, "is_disabled": 0, "lat": 38.905241333333336, "fusion_lat": 0.0, "is_reserved": 0, "rental_uris": {"ios": "https://dc.lft.to/lastmile_qr_scan", "android": "https://dc.lft.to/lastmile_qr_scan"}, "fusion_lon": 0.0, "type": "electric_scooter", "bike_id": "3fd13f89f155eea9a60b9bb30b7e96e3", "name": "3fd13f89f155eea9a60b9bb30b7e96e3"}, {"lon": -77.003465, "is_disabled": 0, "lat": 38.89510333333333, "fusion_lat": 0.0, "is_reserved": 0, "rental_uris": {"ios": "https://dc.lft.to/lastmile_qr_scan", "android": "https://dc.lft.to/lastmile_qr_scan"}, "fusion_lon": 0.0, "type": "electric_scooter", "bike_id": "b2471d1c7d12ace62d5798ac3a78c560", "name": "b2471d1c7d12ace62d5798ac3a78c560"}, {"lon": -77.03483466666667, "is_disabled": 0, "lat": 38.9025515, "fusion_lat": 0.0, "is_reserved": 0, "rental_uris": {"ios": "https://dc.lft.to/lastmile_qr_scan", "android": "https://dc.lft.to/lastmile_qr_scan"}, "fusion_lon": 0.0, "type": "electric_scooter", "bike_id": "8561a8e796c253612dc21fccdc7a9a54", "name": "8561a8e796c253612dc21fccdc7a9a54"}, {"lon": -77.01880816666667, "is_disabled": 0, "lat": 38.90247933333333, "fusion_lat": 0.0, "is_reserved": 0, "rental_uris": {"ios": "https://dc.lft.to/lastmile_qr_scan", "android": "https://dc.lft.to/lastmile_qr_scan"}, "fusion_lon": 0.0, "type": "electric_bike", "bike_id": "c12c583679089cc4c528758a0b572e21", "name": "c12c583679089cc4c528758a0b572e21"}, {"lon": -77.01980816666666, "is_disabled": 0, "lat": 38.935745, "fusion_lat": 0.0, "is_reserved": 0, "rental_uris": {"ios": "https://dc.lft.to/lastmile_qr_scan", "android": "https://dc.lft.to/lastmile_qr_scan"}, "fusion_lon": 0.0, "type": "electric_scooter", "bike_id": "a74fc32ee8811df76d3fc30fbf2f2cba", "name": "a74fc32ee8811df76d3fc30fbf2f2cba"}, {"lon": -77.02448916666667, "is_disabled": 0, "lat": 38.89992783333334, "fusion_lat": 0.0, "is_reserved": 0, "rental_uris": {"ios": "https://dc.lft.to/lastmile_qr_scan", "android": "https://dc.lft.to/lastmile_qr_scan"}, "fusion_lon": 0.0, "type": "electric_scooter", "bike_id": "8e6b62bc9ec778cd26cbbf65578a12fb", "name": "8e6b62bc9ec778cd26cbbf65578a12fb"}, {"lon": -77.02282333333333, "is_disabled": 0, "lat": 38.92700216666667, "fusion_lat": 0.0, "is_reserved": 0, "rental_uris": {"ios": "https://dc.lft.to/lastmile_qr_scan", "android": "https://dc.lft.to/lastmile_qr_scan"}, "fusion_lon": 0.0, "type": "electric_scooter", "bike_id": "20956bcb09d6438d592461697b7cf168", "name": "20956bcb09d6438d592461697b7cf168"}, {"lon": -76.95762583333334, "is_disabled": 0, "lat": 38.88428916666667, "fusion_lat": 0.0, "is_reserved": 0, "rental_uris": {"ios": "https://dc.lft.to/lastmile_qr_scan", "android": "https://dc.lft.to/lastmile_qr_scan"}, "fusion_lon": 0.0, "type": "electric_scooter", "bike_id": "130f70118f3350023dc780f19b9c1ff7", "name": "130f70118f3350023dc780f19b9c1ff7"}, {"lon": -77.02654683333333, "is_disabled": 0, "lat": 38.896053, "fusion_lat": 0.0, "is_reserved": 0, "rental_uris": {"ios": "https://dc.lft.to/lastmile_qr_scan", "android": "https://dc.lft.to/lastmile_qr_scan"}, "fusion_lon": 0.0, "type": "electric_scooter", "bike_id": "f8982608890ea894cb1a290d6092267a", "name": "f8982608890ea894cb1a290d6092267a"}, {"lon": -77.00887083333333, "is_disabled": 0, "lat": 38.925092, "fusion_lat": 0.0, "is_reserved": 0, "rental_uris": {"ios": "https://dc.lft.to/lastmile_qr_scan", "android": "https://dc.lft.to/lastmile_qr_scan"}, "fusion_lon": 0.0, "type": "electric_scooter", "bike_id": "c82e7b80904fed15cde84742052e95ee", "name": "c82e7b80904fed15cde84742052e95ee"}, {"lon": -77.05144366666667, "is_disabled": 0, "lat": 38.89817716666667, "fusion_lat": 0.0, "is_reserved": 0, "rental_uris": {"ios": "https://dc.lft.to/lastmile_qr_scan", "android": "https://dc.lft.to/lastmile_qr_scan"}, "fusion_lon": 0.0, "type": "electric_scooter", "bike_id": "f48c4d862dc92f95e3e78576be885e5c", "name": "f48c4d862dc92f95e3e78576be885e5c"}, {"lon": -77.08659283333333, "is_disabled": 0, "lat": 38.8624545, "fusion_lat": 0.0, "is_reserved": 0, "rental_uris": {"ios": "https://dc.lft.to/lastmile_qr_scan", "android": "https://dc.lft.to/lastmile_qr_scan"}, "fusion_lon": 0.0, "type": "electric_bike", "bike_id": "fb5d38a5087ca0dc8ec54c5bb3ac731f", "name": "fb5d38a5087ca0dc8ec54c5bb3ac731f"}, {"lon": -77.04291583333334, "is_disabled": 0, "lat": 38.92792166666667, "fusion_lat": 0.0, "is_reserved": 0, "rental_uris": {"ios": "https://dc.lft.to/lastmile_qr_scan", "android": "https://dc.lft.to/lastmile_qr_scan"}, "fusion_lon": 0.0, "type": "electric_scooter", "bike_id": "2eb19d863dbfa3867bd99422ae3a27f0", "name": "2eb19d863dbfa3867bd99422ae3a27f0"}, {"lon": -77.02239766666666, "is_disabled": 0, "lat": 38.92242016666667, "fusion_lat": 0.0, "is_reserved": 0, "rental_uris": {"ios": "https://dc.lft.to/lastmile_qr_scan", "android": "https://dc.lft.to/lastmile_qr_scan"}, "fusion_lon": 0.0, "type": "electric_scooter", "bike_id": "968a5c1c4534e7aae870fff82765963c", "name": "968a5c1c4534e7aae870fff82765963c"}, {"lon": -77.04450383333334, "is_disabled": 0, "lat": 38.896053, "fusion_lat": 0.0, "is_reserved": 0, "rental_uris": {"ios": "https://dc.lft.to/lastmile_qr_scan", "android": "https://dc.lft.to/lastmile_qr_scan"}, "fusion_lon": 0.0, "type": "electric_scooter", "bike_id": "c9c569e4af03288b4b4d2091d0b49ae0", "name": "c9c569e4af03288b4b4d2091d0b49ae0"}, {"lon": -76.99474733333334, "is_disabled": 0, "lat": 38.90512916666667, "fusion_lat": 0.0, "is_reserved": 0, "rental_uris": {"ios": "https://dc.lft.to/lastmile_qr_scan", "android": "https://dc.lft.to/lastmile_qr_scan"}, "fusion_lon": 0.0, "type": "electric_scooter", "bike_id": "87f094410ee69c00f5fcbefbd757d3d1", "name": "87f094410ee69c00f5fcbefbd757d3d1"}, {"lon": -76.99015683333333, "is_disabled": 0, "lat": 38.911406666666664, "fusion_lat": 0.0, "is_reserved": 0, "rental_uris": {"ios": "https://dc.lft.to/lastmile_qr_scan", "android": "https://dc.lft.to/lastmile_qr_scan"}, "fusion_lon": 0.0, "type": "electric_scooter", "bike_id": "9423c0629fd0bf4ac27fadfd00ca5fc1", "name": "9423c0629fd0bf4ac27fadfd00ca5fc1"}, {"lon": -77.02878283333334, "is_disabled": 0, "lat": 38.914013833333335, "fusion_lat": 0.0, "is_reserved": 0, "rental_uris": {"ios": "https://dc.lft.to/lastmile_qr_scan", "android": "https://dc.lft.to/lastmile_qr_scan"}, "fusion_lon": 0.0, "type": "electric_scooter", "bike_id": "bebc04f668f08998e4f69b48a7545bfa", "name": "bebc04f668f08998e4f69b48a7545bfa"}, {"lon": -77.040563, "is_disabled": 0, "lat": 38.9086845, "fusion_lat": 0.0, "is_reserved": 0, "rental_uris": {"ios": "https://dc.lft.to/lastmile_qr_scan", "android": "https://dc.lft.to/lastmile_qr_scan"}, "fusion_lon": 0.0, "type": "electric_scooter", "bike_id": "993278c419b47e81cdde7c852d7b4bd6", "name": "993278c419b47e81cdde7c852d7b4bd6"}, {"lon": -77.00633083333334, "is_disabled": 0, "lat": 38.871755, "fusion_lat": 0.0, "is_reserved": 0, "rental_uris": {"ios": "https://dc.lft.to/lastmile_qr_scan", "android": "https://dc.lft.to/lastmile_qr_scan"}, "fusion_lon": 0.0, "type": "electric_scooter", "bike_id": "53befef928bce383fbfb5c96f91fd6bb", "name": "53befef928bce383fbfb5c96f91fd6bb"}, {"lon": -76.97613733333333, "is_disabled": 0, "lat": 38.903431, "fusion_lat": 0.0, "is_reserved": 0, "rental_uris": {"ios": "https://dc.lft.to/lastmile_qr_scan", "android": "https://dc.lft.to/lastmile_qr_scan"}, "fusion_lon": 0.0, "type": "electric_scooter", "bike_id": "cbaab71d553de713a8bd7c9eb900a32e", "name": "cbaab71d553de713a8bd7c9eb900a32e"}, {"lon": -77.03401733333334, "is_disabled": 0, "lat": 38.92435716666667, "fusion_lat": 0.0, "is_reserved": 0, "rental_uris": {"ios": "https://dc.lft.to/lastmile_qr_scan", "android": "https://dc.lft.to/lastmile_qr_scan"}, "fusion_lon": 0.0, "type": "electric_scooter", "bike_id": "9f8bc7a3e4a7e194ecace511f3f7f92f", "name": "9f8bc7a3e4a7e194ecace511f3f7f92f"}, {"lon": -77.13925766666667, "is_disabled": 0, "lat": 38.87299266666667, "fusion_lat": 0.0, "is_reserved": 0, "rental_uris": {"ios": "https://dc.lft.to/lastmile_qr_scan", "android": "https://dc.lft.to/lastmile_qr_scan"}, "fusion_lon": 0.0, "type": "electric_bike", "bike_id": "8ca5e24098abcd1766cc810256ca032f", "name": "8ca5e24098abcd1766cc810256ca032f"}, {"lon": -77.04840916666667, "is_disabled": 0, "lat": 38.89839, "fusion_lat": 0.0, "is_reserved": 0, "rental_uris": {"ios": "https://dc.lft.to/lastmile_qr_scan", "android": "https://dc.lft.to/lastmile_qr_scan"}, "fusion_lon": 0.0, "type": "electric_scooter", "bike_id": "f1cce32c80f511ae4e779c1115e22b6c", "name": "f1cce32c80f511ae4e779c1115e22b6c"}, {"lon": -77.06028766666667, "is_disabled": 0, "lat": 38.905057666666664, "fusion_lat": 0.0, "is_reserved": 0, "rental_uris": {"ios": "https://dc.lft.to/lastmile_qr_scan", "android": "https://dc.lft.to/lastmile_qr_scan"}, "fusion_lon": 0.0, "type": "electric_bike", "bike_id": "5602d66e04a6bbee10bd1e6569d0349c", "name": "5602d66e04a6bbee10bd1e6569d0349c"}, {"lon": -77.04592083333333, "is_disabled": 0, "lat": 38.91599983333333, "fusion_lat": 0.0, "is_reserved": 0, "rental_uris": {"ios": "https://dc.lft.to/lastmile_qr_scan", "android": "https://dc.lft.to/lastmile_qr_scan"}, "fusion_lon": 0.0, "type": "electric_scooter", "bike_id": "a288a3764d27f9482ef9d5f494358663", "name": "a288a3764d27f9482ef9d5f494358663"}, {"lon": -77.02542433333333, "is_disabled": 0, "lat": 38.892185166666664, "fusion_lat": 0.0, "is_reserved": 0, "rental_uris": {"ios": "https://dc.lft.to/lastmile_qr_scan", "android": "https://dc.lft.to/lastmile_qr_scan"}, "fusion_lon": 0.0, "type": "electric_scooter", "bike_id": "411869acf9f57bef077e252efa602b19", "name": "411869acf9f57bef077e252efa602b19"}, {"lon": -77.02698983333333, "is_disabled": 0, "lat": 38.899827333333334, "fusion_lat": 0.0, "is_reserved": 0, "rental_uris": {"ios": "https://dc.lft.to/lastmile_qr_scan", "android": "https://dc.lft.to/lastmile_qr_scan"}, "fusion_lon": 0.0, "type": "electric_scooter", "bike_id": "882e155c685948f8ffef396fc8c8d514", "name": "882e155c685948f8ffef396fc8c8d514"}, {"lon": -77.039647, "is_disabled": 0, "lat": 38.895881, "fusion_lat": 0.0, "is_reserved": 0, "rental_uris": {"ios": "https://dc.lft.to/lastmile_qr_scan", "android": "https://dc.lft.to/lastmile_qr_scan"}, "fusion_lon": 0.0, "type": "electric_scooter", "bike_id": "c1629df65cddf944b1e17852abb2bcbd", "name": "c1629df65cddf944b1e17852abb2bcbd"}, {"lon": -77.02730283333334, "is_disabled": 0, "lat": 38.90137433333334, "fusion_lat": 0.0, "is_reserved": 0, "rental_uris": {"ios": "https://dc.lft.to/lastmile_qr_scan", "android": "https://dc.lft.to/lastmile_qr_scan"}, "fusion_lon": 0.0, "type": "electric_scooter", "bike_id": "2134d1295d35b367b2191d1291073a2a", "name": "2134d1295d35b367b2191d1291073a2a"}, {"lon": -76.90731833333334, "is_disabled": 0, "lat": 38.896111166666664, "fusion_lat": 0.0, "is_reserved": 0, "rental_uris": {"ios": "https://dc.lft.to/lastmile_qr_scan", "android": "https://dc.lft.to/lastmile_qr_scan"}, "fusion_lon": 0.0, "type": "electric_bike", "bike_id": "5153d06717c6ddcab298e891d86375a2", "name": "5153d06717c6ddcab298e891d86375a2"}, {"lon": -77.04348633333333, "is_disabled": 0, "lat": 38.90136833333333, "fusion_lat": 0.0, "is_reserved": 0, "rental_uris": {"ios": "https://dc.lft.to/lastmile_qr_scan", "android": "https://dc.lft.to/lastmile_qr_scan"}, "fusion_lon": 0.0, "type": "electric_scooter", "bike_id": "726c61d4394271180a2110b5d8ca68eb", "name": "726c61d4394271180a2110b5d8ca68eb"}, {"lon": -77.03081333333333, "is_disabled": 0, "lat": 38.933068, "fusion_lat": 0.0, "is_reserved": 0, "rental_uris": {"ios": "https://dc.lft.to/lastmile_qr_scan", "android": "https://dc.lft.to/lastmile_qr_scan"}, "fusion_lon": 0.0, "type": "electric_scooter", "bike_id": "6f7a9715c59f56c49ad6194ff9704ec0", "name": "6f7a9715c59f56c49ad6194ff9704ec0"}, {"lon": -77.04652633333333, "is_disabled": 0, "lat": 38.905780666666665, "fusion_lat": 0.0, "is_reserved": 0, "rental_uris": {"ios": "https://dc.lft.to/lastmile_qr_scan", "android": "https://dc.lft.to/lastmile_qr_scan"}, "fusion_lon": 0.0, "type": "electric_scooter", "bike_id": "ff5443e085b656eafcaab8b575491be5", "name": "ff5443e085b656eafcaab8b575491be5"}, {"lon": -77.02394616666666, "is_disabled": 0, "lat": 38.881215, "fusion_lat": 0.0, "is_reserved": 0, "rental_uris": {"ios": "https://dc.lft.to/lastmile_qr_scan", "android": "https://dc.lft.to/lastmile_qr_scan"}, "fusion_lon": 0.0, "type": "electric_scooter", "bike_id": "cdfc06b89f3bc93cd59ec06119fa7404", "name": "cdfc06b89f3bc93cd59ec06119fa7404"}, {"lon": -77.03367716666666, "is_disabled": 0, "lat": 38.9286275, "fusion_lat": 0.0, "is_reserved": 0, "rental_uris": {"ios": "https://dc.lft.to/lastmile_qr_scan", "android": "https://dc.lft.to/lastmile_qr_scan"}, "fusion_lon": 0.0, "type": "electric_scooter", "bike_id": "acac4e5968f6888e0e075a77bc87bec0", "name": "acac4e5968f6888e0e075a77bc87bec0"}, {"lon": -77.0258335, "is_disabled": 0, "lat": 38.91411266666667, "fusion_lat": 0.0, "is_reserved": 0, "rental_uris": {"ios": "https://dc.lft.to/lastmile_qr_scan", "android": "https://dc.lft.to/lastmile_qr_scan"}, "fusion_lon": 0.0, "type": "electric_scooter", "bike_id": "7d3070f04bf7f047c229d3743186a4a0", "name": "7d3070f04bf7f047c229d3743186a4a0"}, {"lon": -77.04242133333334, "is_disabled": 0, "lat": 38.9132685, "fusion_lat": 0.0, "is_reserved": 0, "rental_uris": {"ios": "https://dc.lft.to/lastmile_qr_scan", "android": "https://dc.lft.to/lastmile_qr_scan"}, "fusion_lon": 0.0, "type": "electric_scooter", "bike_id": "f4f28c65ed76fb0c551a014cfeda0fbb", "name": "f4f28c65ed76fb0c551a014cfeda0fbb"}, {"lon": -77.04656766666666, "is_disabled": 0, "lat": 38.892249, "fusion_lat": 0.0, "is_reserved": 0, "rental_uris": {"ios": "https://dc.lft.to/lastmile_qr_scan", "android": "https://dc.lft.to/lastmile_qr_scan"}, "fusion_lon": 0.0, "type": "electric_scooter", "bike_id": "652de3facb810e715efcb0cc59b00d55", "name": "652de3facb810e715efcb0cc59b00d55"}, {"lon": -76.97525666666667, "is_disabled": 0, "lat": 38.898583333333335, "fusion_lat": 0.0, "is_reserved": 0, "rental_uris": {"ios": "https://dc.lft.to/lastmile_qr_scan", "android": "https://dc.lft.to/lastmile_qr_scan"}, "fusion_lon": 0.0, "type": "electric_scooter", "bike_id": "172704c91f91eaf602bd1663252d3a8d", "name": "172704c91f91eaf602bd1663252d3a8d"}, {"lon": -77.04352066666667, "is_disabled": 0, "lat": 38.898278, "fusion_lat": 0.0, "is_reserved": 0, "rental_uris": {"ios": "https://dc.lft.to/lastmile_qr_scan", "android": "https://dc.lft.to/lastmile_qr_scan"}, "fusion_lon": 0.0, "type": "electric_scooter", "bike_id": "76fa639bb8be1bab169dc2377ee4366a", "name": "76fa639bb8be1bab169dc2377ee4366a"}, {"lon": -77.024077, "is_disabled": 0, "lat": 38.91420216666667, "fusion_lat": 0.0, "is_reserved": 0, "rental_uris": {"ios": "https://dc.lft.to/lastmile_qr_scan", "android": "https://dc.lft.to/lastmile_qr_scan"}, "fusion_lon": 0.0, "type": "electric_scooter", "bike_id": "42367100a27302fcb7a496859d6f37a0", "name": "42367100a27302fcb7a496859d6f37a0"}, {"lon": -77.04494916666667, "is_disabled": 0, "lat": 38.9142345, "fusion_lat": 0.0, "is_reserved": 0, "rental_uris": {"ios": "https://dc.lft.to/lastmile_qr_scan", "android": "https://dc.lft.to/lastmile_qr_scan"}, "fusion_lon": 0.0, "type": "electric_scooter", "bike_id": "e41d403dca27c278d422d2fe57468c2a", "name": "e41d403dca27c278d422d2fe57468c2a"}, {"lon": -77.04620816666667, "is_disabled": 0, "lat": 38.8961145, "fusion_lat": 0.0, "is_reserved": 0, "rental_uris": {"ios": "https://dc.lft.to/lastmile_qr_scan", "android": "https://dc.lft.to/lastmile_qr_scan"}, "fusion_lon": 0.0, "type": "electric_scooter", "bike_id": "17dfc6646ffada0d0ad1131a2b46b2a9", "name": "17dfc6646ffada0d0ad1131a2b46b2a9"}, {"lon": -77.0330015, "is_disabled": 0, "lat": 38.899071166666666, "fusion_lat": 0.0, "is_reserved": 0, "rental_uris": {"ios": "https://dc.lft.to/lastmile_qr_scan", "android": "https://dc.lft.to/lastmile_qr_scan"}, "fusion_lon": 0.0, "type": "electric_scooter", "bike_id": "185a62345c92abeae317b50d167b6b51", "name": "185a62345c92abeae317b50d167b6b51"}, {"lon": -76.99582383333333, "is_disabled": 0, "lat": 38.94737833333333, "fusion_lat": 0.0, "is_reserved": 0, "rental_uris": {"ios": "https://dc.lft.to/lastmile_qr_scan", "android": "https://dc.lft.to/lastmile_qr_scan"}, "fusion_lon": 0.0, "type": "electric_bike", "bike_id": "0216c235209060c096df18c71ae167e1", "name": "0216c235209060c096df18c71ae167e1"}, {"lon": -77.03772833333333, "is_disabled": 0, "lat": 38.9067375, "fusion_lat": 0.0, "is_reserved": 0, "rental_uris": {"ios": "https://dc.lft.to/lastmile_qr_scan", "android": "https://dc.lft.to/lastmile_qr_scan"}, "fusion_lon": 0.0, "type": "electric_scooter", "bike_id": "9c432facf52d716f3a093dfa2201ba45", "name": "9c432facf52d716f3a093dfa2201ba45"}, {"lon": -77.05401883333333, "is_disabled": 0, "lat": 38.804453, "fusion_lat": 0.0, "is_reserved": 0, "rental_uris": {"ios": "https://dc.lft.to/lastmile_qr_scan", "android": "https://dc.lft.to/lastmile_qr_scan"}, "fusion_lon": 0.0, "type": "electric_bike", "bike_id": "c5ffd50788b7ce00a8677ef4ae39b8e0", "name": "c5ffd50788b7ce00a8677ef4ae39b8e0"}, {"lon": -77.02448666666666, "is_disabled": 0, "lat": 38.935910666666665, "fusion_lat": 0.0, "is_reserved": 0, "rental_uris": {"ios": "https://dc.lft.to/lastmile_qr_scan", "android": "https://dc.lft.to/lastmile_qr_scan"}, "fusion_lon": 0.0, "type": "electric_scooter", "bike_id": "862ab9bd2534c6a94ff9ba8eadf5137c", "name": "862ab9bd2534c6a94ff9ba8eadf5137c"}, {"lon": -76.97520633333333, "is_disabled": 0, "lat": 38.902976333333335, "fusion_lat": 0.0, "is_reserved": 0, "rental_uris": {"ios": "https://dc.lft.to/lastmile_qr_scan", "android": "https://dc.lft.to/lastmile_qr_scan"}, "fusion_lon": 0.0, "type": "electric_scooter", "bike_id": "fc07f63fc72f5790d1194fe1b71972cc", "name": "fc07f63fc72f5790d1194fe1b71972cc"}, {"lon": -77.03363416666667, "is_disabled": 0, "lat": 38.8963715, "fusion_lat": 0.0, "is_reserved": 0, "rental_uris": {"ios": "https://dc.lft.to/lastmile_qr_scan", "android": "https://dc.lft.to/lastmile_qr_scan"}, "fusion_lon": 0.0, "type": "electric_scooter", "bike_id": "64760ac810b8dc992fe151ef5dfb697e", "name": "64760ac810b8dc992fe151ef5dfb697e"}, {"lon": -77.00486283333333, "is_disabled": 0, "lat": 38.874668166666666, "fusion_lat": 0.0, "is_reserved": 0, "rental_uris": {"ios": "https://dc.lft.to/lastmile_qr_scan", "android": "https://dc.lft.to/lastmile_qr_scan"}, "fusion_lon": 0.0, "type": "electric_scooter", "bike_id": "b92fe2e32eb9bb5269be6aed5541e94c", "name": "b92fe2e32eb9bb5269be6aed5541e94c"}, {"lon": -77.026855, "is_disabled": 0, "lat": 38.89849733333333, "fusion_lat": 0.0, "is_reserved": 0, "rental_uris": {"ios": "https://dc.lft.to/lastmile_qr_scan", "android": "https://dc.lft.to/lastmile_qr_scan"}, "fusion_lon": 0.0, "type": "electric_scooter", "bike_id": "dac9c93ccfbe4a5bc6a6c42cdd86c794", "name": "dac9c93ccfbe4a5bc6a6c42cdd86c794"}, {"lon": -77.03223683333333, "is_disabled": 0, "lat": 38.89621566666667, "fusion_lat": 0.0, "is_reserved": 0, "rental_uris": {"ios": "https://dc.lft.to/lastmile_qr_scan", "android": "https://dc.lft.to/lastmile_qr_scan"}, "fusion_lon": 0.0, "type": "electric_scooter", "bike_id": "4b6c51053a127f78db613034428c5180", "name": "4b6c51053a127f78db613034428c5180"}, {"lon": -77.002127, "is_disabled": 0, "lat": 38.89716833333333, "fusion_lat": 0.0, "is_reserved": 0, "rental_uris": {"ios": "https://dc.lft.to/lastmile_qr_scan", "android": "https://dc.lft.to/lastmile_qr_scan"}, "fusion_lon": 0.0, "type": "electric_scooter", "bike_id": "0f9d8b8cc22369e38c180655bcf229f8", "name": "0f9d8b8cc22369e38c180655bcf229f8"}, {"lon": -77.01230616666666, "is_disabled": 0, "lat": 38.89772966666666, "fusion_lat": 0.0, "is_reserved": 0, "rental_uris": {"ios": "https://dc.lft.to/lastmile_qr_scan", "android": "https://dc.lft.to/lastmile_qr_scan"}, "fusion_lon": 0.0, "type": "electric_scooter", "bike_id": "89fb1d35d4626e6171ae310cfc9ef012", "name": "89fb1d35d4626e6171ae310cfc9ef012"}, {"lon": -77.0451825, "is_disabled": 0, "lat": 38.9037525, "fusion_lat": 0.0, "is_reserved": 0, "rental_uris": {"ios": "https://dc.lft.to/lastmile_qr_scan", "android": "https://dc.lft.to/lastmile_qr_scan"}, "fusion_lon": 0.0, "type": "electric_scooter", "bike_id": "6fdb853f6b98b78c659e27436c7029e6", "name": "6fdb853f6b98b78c659e27436c7029e6"}, {"lon": -77.039792, "is_disabled": 0, "lat": 38.90278133333333, "fusion_lat": 0.0, "is_reserved": 0, "rental_uris": {"ios": "https://dc.lft.to/lastmile_qr_scan", "android": "https://dc.lft.to/lastmile_qr_scan"}, "fusion_lon": 0.0, "type": "electric_scooter", "bike_id": "b595ac98e0c28a82d92fc9a64fe95abe", "name": "b595ac98e0c28a82d92fc9a64fe95abe"}, {"lon": -77.0197235, "is_disabled": 0, "lat": 38.8860495, "fusion_lat": 0.0, "is_reserved": 0, "rental_uris": {"ios": "https://dc.lft.to/lastmile_qr_scan", "android": "https://dc.lft.to/lastmile_qr_scan"}, "fusion_lon": 0.0, "type": "electric_scooter", "bike_id": "f84ae41d8bcaf0347d5ea68ccc108228", "name": "f84ae41d8bcaf0347d5ea68ccc108228"}, {"lon": -77.00984866666667, "is_disabled": 0, "lat": 38.872917666666666, "fusion_lat": 0.0, "is_reserved": 0, "rental_uris": {"ios": "https://dc.lft.to/lastmile_qr_scan", "android": "https://dc.lft.to/lastmile_qr_scan"}, "fusion_lon": 0.0, "type": "electric_scooter", "bike_id": "df963115ab6d176c36bb315a9dbaa2bd", "name": "df963115ab6d176c36bb315a9dbaa2bd"}, {"lon": -77.04467383333333, "is_disabled": 0, "lat": 38.89614433333333, "fusion_lat": 0.0, "is_reserved": 0, "rental_uris": {"ios": "https://dc.lft.to/lastmile_qr_scan", "android": "https://dc.lft.to/lastmile_qr_scan"}, "fusion_lon": 0.0, "type": "electric_scooter", "bike_id": "734c81c267d83b5e4fc94303d648d57d", "name": "734c81c267d83b5e4fc94303d648d57d"}, {"lon": -77.04356566666667, "is_disabled": 0, "lat": 38.90207816666667, "fusion_lat": 0.0, "is_reserved": 0, "rental_uris": {"ios": "https://dc.lft.to/lastmile_qr_scan", "android": "https://dc.lft.to/lastmile_qr_scan"}, "fusion_lon": 0.0, "type": "electric_scooter", "bike_id": "a8317f66abe760c800ae70170ecd07c9", "name": "a8317f66abe760c800ae70170ecd07c9"}, {"lon": -77.01768766666666, "is_disabled": 0, "lat": 38.87214566666667, "fusion_lat": 0.0, "is_reserved": 0, "rental_uris": {"ios": "https://dc.lft.to/lastmile_qr_scan", "android": "https://dc.lft.to/lastmile_qr_scan"}, "fusion_lon": 0.0, "type": "electric_scooter", "bike_id": "d93ea148b20b4514025407e668ff4e3f", "name": "d93ea148b20b4514025407e668ff4e3f"}, {"lon": -77.00534883333333, "is_disabled": 0, "lat": 38.87630883333333, "fusion_lat": 0.0, "is_reserved": 0, "rental_uris": {"ios": "https://dc.lft.to/lastmile_qr_scan", "android": "https://dc.lft.to/lastmile_qr_scan"}, "fusion_lon": 0.0, "type": "electric_scooter", "bike_id": "323c8645e211801f940362d573ecfae3", "name": "323c8645e211801f940362d573ecfae3"}, {"lon": -77.05570083333333, "is_disabled": 0, "lat": 38.89974483333334, "fusion_lat": 0.0, "is_reserved": 0, "rental_uris": {"ios": "https://dc.lft.to/lastmile_qr_scan", "android": "https://dc.lft.to/lastmile_qr_scan"}, "fusion_lon": 0.0, "type": "electric_scooter", "bike_id": "af1feb0b5aaaa0db2defaadd8d7f72d7", "name": "af1feb0b5aaaa0db2defaadd8d7f72d7"}, {"lon": -76.9494095, "is_disabled": 0, "lat": 38.893610833333334, "fusion_lat": 0.0, "is_reserved": 0, "rental_uris": {"ios": "https://dc.lft.to/lastmile_qr_scan", "android": "https://dc.lft.to/lastmile_qr_scan"}, "fusion_lon": 0.0, "type": "electric_scooter", "bike_id": "87d48ca54876db5859bb3e272f245e56", "name": "87d48ca54876db5859bb3e272f245e56"}, {"lon": -77.02589783333333, "is_disabled": 0, "lat": 38.89826933333333, "fusion_lat": 0.0, "is_reserved": 0, "rental_uris": {"ios": "https://dc.lft.to/lastmile_qr_scan", "android": "https://dc.lft.to/lastmile_qr_scan"}, "fusion_lon": 0.0, "type": "electric_scooter", "bike_id": "5dd61f777ae627576b844a6b5480de35", "name": "5dd61f777ae627576b844a6b5480de35"}, {"lon": -77.12981183333333, "is_disabled": 0, "lat": 38.799852666666666, "fusion_lat": 0.0, "is_reserved": 0, "rental_uris": {"ios": "https://dc.lft.to/lastmile_qr_scan", "android": "https://dc.lft.to/lastmile_qr_scan"}, "fusion_lon": 0.0, "type": "electric_bike", "bike_id": "fcb350059e5f7c5b77cc204638f85aec", "name": "fcb350059e5f7c5b77cc204638f85aec"}, {"lon": -76.9859545, "is_disabled": 0, "lat": 38.8587055, "fusion_lat": 0.0, "is_reserved": 0, "rental_uris": {"ios": "https://dc.lft.to/lastmile_qr_scan", "android": "https://dc.lft.to/lastmile_qr_scan"}, "fusion_lon": 0.0, "type": "electric_scooter", "bike_id": "3853c085125ce3491a628eb123bac5bc", "name": "3853c085125ce3491a628eb123bac5bc"}, {"lon": -77.03634416666667, "is_disabled": 0, "lat": 38.931799, "fusion_lat": 0.0, "is_reserved": 0, "rental_uris": {"ios": "https://dc.lft.to/lastmile_qr_scan", "android": "https://dc.lft.to/lastmile_qr_scan"}, "fusion_lon": 0.0, "type": "electric_scooter", "bike_id": "195dd055b96ee7c0d82f7ff299db3459", "name": "195dd055b96ee7c0d82f7ff299db3459"}, {"lon": -77.0386135, "is_disabled": 0, "lat": 38.90800683333333, "fusion_lat": 0.0, "is_reserved": 0, "rental_uris": {"ios": "https://dc.lft.to/lastmile_qr_scan", "android": "https://dc.lft.to/lastmile_qr_scan"}, "fusion_lon": 0.0, "type": "electric_scooter", "bike_id": "a65c5a23b7887b934132b6c530a8d602", "name": "a65c5a23b7887b934132b6c530a8d602"}, {"lon": -77.02404616666666, "is_disabled": 0, "lat": 38.916769333333335, "fusion_lat": 0.0, "is_reserved": 0, "rental_uris": {"ios": "https://dc.lft.to/lastmile_qr_scan", "android": "https://dc.lft.to/lastmile_qr_scan"}, "fusion_lon": 0.0, "type": "electric_scooter", "bike_id": "4a9a951bf606419cf43aad4fcfbecaf7", "name": "4a9a951bf606419cf43aad4fcfbecaf7"}, {"lon": -77.02632083333333, "is_disabled": 0, "lat": 38.9299165, "fusion_lat": 0.0, "is_reserved": 0, "rental_uris": {"ios": "https://dc.lft.to/lastmile_qr_scan", "android": "https://dc.lft.to/lastmile_qr_scan"}, "fusion_lon": 0.0, "type": "electric_scooter", "bike_id": "a4b892d44041bc3507dc4d527b90c84e", "name": "a4b892d44041bc3507dc4d527b90c84e"}, {"lon": -77.01819566666667, "is_disabled": 0, "lat": 38.9223505, "fusion_lat": 0.0, "is_reserved": 0, "rental_uris": {"ios": "https://dc.lft.to/lastmile_qr_scan", "android": "https://dc.lft.to/lastmile_qr_scan"}, "fusion_lon": 0.0, "type": "electric_scooter", "bike_id": "550d3b2a20d14a58b3be2ce2b026a261", "name": "550d3b2a20d14a58b3be2ce2b026a261"}, {"lon": -77.0449, "is_disabled": 0, "lat": 38.90468216666667, "fusion_lat": 0.0, "is_reserved": 0, "rental_uris": {"ios": "https://dc.lft.to/lastmile_qr_scan", "android": "https://dc.lft.to/lastmile_qr_scan"}, "fusion_lon": 0.0, "type": "electric_scooter", "bike_id": "8e904de95fb420962dd2bfee40616b28", "name": "8e904de95fb420962dd2bfee40616b28"}, {"lon": -77.0411135, "is_disabled": 0, "lat": 38.9013305, "fusion_lat": 0.0, "is_reserved": 0, "rental_uris": {"ios": "https://dc.lft.to/lastmile_qr_scan", "android": "https://dc.lft.to/lastmile_qr_scan"}, "fusion_lon": 0.0, "type": "electric_scooter", "bike_id": "13d704159f277a89bdbff33e599fe8b8", "name": "13d704159f277a89bdbff33e599fe8b8"}, {"lon": -77.02217283333333, "is_disabled": 0, "lat": 38.9037835, "fusion_lat": 0.0, "is_reserved": 0, "rental_uris": {"ios": "https://dc.lft.to/lastmile_qr_scan", "android": "https://dc.lft.to/lastmile_qr_scan"}, "fusion_lon": 0.0, "type": "electric_scooter", "bike_id": "bb43548dd7ba25342ca8f68eddc03301", "name": "bb43548dd7ba25342ca8f68eddc03301"}, {"lon": -77.04123133333333, "is_disabled": 0, "lat": 38.9335755, "fusion_lat": 0.0, "is_reserved": 0, "rental_uris": {"ios": "https://dc.lft.to/lastmile_qr_scan", "android": "https://dc.lft.to/lastmile_qr_scan"}, "fusion_lon": 0.0, "type": "electric_scooter", "bike_id": "b5ae9de287f7c971abc6807ce680144d", "name": "b5ae9de287f7c971abc6807ce680144d"}, {"lon": -77.0448835, "is_disabled": 0, "lat": 38.91176733333333, "fusion_lat": 0.0, "is_reserved": 0, "rental_uris": {"ios": "https://dc.lft.to/lastmile_qr_scan", "android": "https://dc.lft.to/lastmile_qr_scan"}, "fusion_lon": 0.0, "type": "electric_scooter", "bike_id": "1f6eecb114036645e83d36a3aa6558a4", "name": "1f6eecb114036645e83d36a3aa6558a4"}, {"lon": -76.9972445, "is_disabled": 0, "lat": 38.910219833333336, "fusion_lat": 0.0, "is_reserved": 0, "rental_uris": {"ios": "https://dc.lft.to/lastmile_qr_scan", "android": "https://dc.lft.to/lastmile_qr_scan"}, "fusion_lon": 0.0, "type": "electric_scooter", "bike_id": "5f27d81b93b3bb8e4a06758e4b2db4b3", "name": "5f27d81b93b3bb8e4a06758e4b2db4b3"}, {"lon": -77.04234483333333, "is_disabled": 0, "lat": 38.920613333333336, "fusion_lat": 0.0, "is_reserved": 0, "rental_uris": {"ios": "https://dc.lft.to/lastmile_qr_scan", "android": "https://dc.lft.to/lastmile_qr_scan"}, "fusion_lon": 0.0, "type": "electric_scooter", "bike_id": "05d7cda05312564871b873036dc982dc", "name": "05d7cda05312564871b873036dc982dc"}, {"lon": -77.0314915, "is_disabled": 0, "lat": 38.91117833333333, "fusion_lat": 0.0, "is_reserved": 0, "rental_uris": {"ios": "https://dc.lft.to/lastmile_qr_scan", "android": "https://dc.lft.to/lastmile_qr_scan"}, "fusion_lon": 0.0, "type": "electric_scooter", "bike_id": "13bdc666f6089dbcbb09829d10b06f9b", "name": "13bdc666f6089dbcbb09829d10b06f9b"}, {"lon": -77.02320033333334, "is_disabled": 0, "lat": 38.8949055, "fusion_lat": 0.0, "is_reserved": 0, "rental_uris": {"ios": "https://dc.lft.to/lastmile_qr_scan", "android": "https://dc.lft.to/lastmile_qr_scan"}, "fusion_lon": 0.0, "type": "electric_scooter", "bike_id": "12aad164bab69e525a881bbd3ee6ad04", "name": "12aad164bab69e525a881bbd3ee6ad04"}, {"lon": -77.00391283333333, "is_disabled": 0, "lat": 38.89544866666667, "fusion_lat": 0.0, "is_reserved": 0, "rental_uris": {"ios": "https://dc.lft.to/lastmile_qr_scan", "android": "https://dc.lft.to/lastmile_qr_scan"}, "fusion_lon": 0.0, "type": "electric_scooter", "bike_id": "98db6365c8496562401bcb4a78490c23", "name": "98db6365c8496562401bcb4a78490c23"}, {"lon": -77.06402966666667, "is_disabled": 0, "lat": 38.9441775, "fusion_lat": 0.0, "is_reserved": 0, "rental_uris": {"ios": "https://dc.lft.to/lastmile_qr_scan", "android": "https://dc.lft.to/lastmile_qr_scan"}, "fusion_lon": 0.0, "type": "electric_scooter", "bike_id": "a40108e3181b0be7315e499f4a9fbcaa", "name": "a40108e3181b0be7315e499f4a9fbcaa"}, {"lon": -77.03016833333334, "is_disabled": 0, "lat": 38.934814833333334, "fusion_lat": 0.0, "is_reserved": 0, "rental_uris": {"ios": "https://dc.lft.to/lastmile_qr_scan", "android": "https://dc.lft.to/lastmile_qr_scan"}, "fusion_lon": 0.0, "type": "electric_scooter", "bike_id": "6ece77ecde99c6c0f6f699bccad57068", "name": "6ece77ecde99c6c0f6f699bccad57068"}, {"lon": -77.02832416666666, "is_disabled": 0, "lat": 38.9089185, "fusion_lat": 0.0, "is_reserved": 0, "rental_uris": {"ios": "https://dc.lft.to/lastmile_qr_scan", "android": "https://dc.lft.to/lastmile_qr_scan"}, "fusion_lon": 0.0, "type": "electric_scooter", "bike_id": "5d6dbf9afe2ffcaced02150b432cd561", "name": "5d6dbf9afe2ffcaced02150b432cd561"}, {"lon": -77.024323, "is_disabled": 0, "lat": 38.9224965, "fusion_lat": 0.0, "is_reserved": 0, "rental_uris": {"ios": "https://dc.lft.to/lastmile_qr_scan", "android": "https://dc.lft.to/lastmile_qr_scan"}, "fusion_lon": 0.0, "type": "electric_scooter", "bike_id": "0975cec90ad3211548f3699a40428d2e", "name": "0975cec90ad3211548f3699a40428d2e"}, {"lon": -77.056171, "is_disabled": 0, "lat": 38.931804, "fusion_lat": 0.0, "is_reserved": 0, "rental_uris": {"ios": "https://dc.lft.to/lastmile_qr_scan", "android": "https://dc.lft.to/lastmile_qr_scan"}, "fusion_lon": 0.0, "type": "electric_scooter", "bike_id": "5bf5029c9f4146b19dba4f3571bd1f0d", "name": "5bf5029c9f4146b19dba4f3571bd1f0d"}, {"lon": -77.03327583333333, "is_disabled": 0, "lat": 38.8987535, "fusion_lat": 0.0, "is_reserved": 0, "rental_uris": {"ios": "https://dc.lft.to/lastmile_qr_scan", "android": "https://dc.lft.to/lastmile_qr_scan"}, "fusion_lon": 0.0, "type": "electric_scooter", "bike_id": "7963bed86c5a72892919a71bc3d8c1fa", "name": "7963bed86c5a72892919a71bc3d8c1fa"}, {"lon": -77.12934583333333, "is_disabled": 0, "lat": 38.865172666666666, "fusion_lat": 0.0, "is_reserved": 0, "rental_uris": {"ios": "https://dc.lft.to/lastmile_qr_scan", "android": "https://dc.lft.to/lastmile_qr_scan"}, "fusion_lon": 0.0, "type": "electric_bike", "bike_id": "205fd626d1b51c5359f579234ce269bb", "name": "205fd626d1b51c5359f579234ce269bb"}, {"lon": -77.03208066666667, "is_disabled": 0, "lat": 38.909832, "fusion_lat": 0.0, "is_reserved": 0, "rental_uris": {"ios": "https://dc.lft.to/lastmile_qr_scan", "android": "https://dc.lft.to/lastmile_qr_scan"}, "fusion_lon": 0.0, "type": "electric_scooter", "bike_id": "08649f477aca7fdf81619cbf0af7cd0b", "name": "08649f477aca7fdf81619cbf0af7cd0b"}, {"lon": -77.02353633333334, "is_disabled": 0, "lat": 38.9320955, "fusion_lat": 0.0, "is_reserved": 0, "rental_uris": {"ios": "https://dc.lft.to/lastmile_qr_scan", "android": "https://dc.lft.to/lastmile_qr_scan"}, "fusion_lon": 0.0, "type": "electric_scooter", "bike_id": "9fe1c22a1512c35ac1d013315979f6c1", "name": "9fe1c22a1512c35ac1d013315979f6c1"}, {"lon": -77.00143033333333, "is_disabled": 0, "lat": 38.874955666666665, "fusion_lat": 0.0, "is_reserved": 0, "rental_uris": {"ios": "https://dc.lft.to/lastmile_qr_scan", "android": "https://dc.lft.to/lastmile_qr_scan"}, "fusion_lon": 0.0, "type": "electric_scooter", "bike_id": "d587a797d35db71eb3de7c531cc32eac", "name": "d587a797d35db71eb3de7c531cc32eac"}, {"lon": -77.02294683333334, "is_disabled": 0, "lat": 38.89518566666667, "fusion_lat": 0.0, "is_reserved": 0, "rental_uris": {"ios": "https://dc.lft.to/lastmile_qr_scan", "android": "https://dc.lft.to/lastmile_qr_scan"}, "fusion_lon": 0.0, "type": "electric_scooter", "bike_id": "d7a40f5227ec0b4fa8e4202b03b2aff1", "name": "d7a40f5227ec0b4fa8e4202b03b2aff1"}, {"lon": -77.02638766666666, "is_disabled": 0, "lat": 38.910659, "fusion_lat": 0.0, "is_reserved": 0, "rental_uris": {"ios": "https://dc.lft.to/lastmile_qr_scan", "android": "https://dc.lft.to/lastmile_qr_scan"}, "fusion_lon": 0.0, "type": "electric_scooter", "bike_id": "dc8df96f5cb080ad07c02ef5667d3484", "name": "dc8df96f5cb080ad07c02ef5667d3484"}, {"lon": -76.94947933333333, "is_disabled": 0, "lat": 38.893632833333335, "fusion_lat": 0.0, "is_reserved": 0, "rental_uris": {"ios": "https://dc.lft.to/lastmile_qr_scan", "android": "https://dc.lft.to/lastmile_qr_scan"}, "fusion_lon": 0.0, "type": "electric_scooter", "bike_id": "b5cef8337125c11f814951c4d4165ac0", "name": "b5cef8337125c11f814951c4d4165ac0"}, {"lon": -77.04544783333333, "is_disabled": 0, "lat": 38.931552, "fusion_lat": 0.0, "is_reserved": 0, "rental_uris": {"ios": "https://dc.lft.to/lastmile_qr_scan", "android": "https://dc.lft.to/lastmile_qr_scan"}, "fusion_lon": 0.0, "type": "electric_scooter", "bike_id": "965e2761d7b7cf9cefd82f29d420a601", "name": "965e2761d7b7cf9cefd82f29d420a601"}, {"lon": -77.0366655, "is_disabled": 0, "lat": 38.923844833333334, "fusion_lat": 0.0, "is_reserved": 0, "rental_uris": {"ios": "https://dc.lft.to/lastmile_qr_scan", "android": "https://dc.lft.to/lastmile_qr_scan"}, "fusion_lon": 0.0, "type": "electric_scooter", "bike_id": "93f1ce0a19909087b9f4552ec6057e24", "name": "93f1ce0a19909087b9f4552ec6057e24"}, {"lon": -77.05568983333333, "is_disabled": 0, "lat": 38.80395033333333, "fusion_lat": 0.0, "is_reserved": 0, "rental_uris": {"ios": "https://dc.lft.to/lastmile_qr_scan", "android": "https://dc.lft.to/lastmile_qr_scan"}, "fusion_lon": 0.0, "type": "electric_bike", "bike_id": "ab2a29ff04a3d81d02330306951ef191", "name": "ab2a29ff04a3d81d02330306951ef191"}, {"lon": -77.0034635, "is_disabled": 0, "lat": 38.89525883333334, "fusion_lat": 0.0, "is_reserved": 0, "rental_uris": {"ios": "https://dc.lft.to/lastmile_qr_scan", "android": "https://dc.lft.to/lastmile_qr_scan"}, "fusion_lon": 0.0, "type": "electric_scooter", "bike_id": "449dd2189ae221b36eb1bdf8c99b123a", "name": "449dd2189ae221b36eb1bdf8c99b123a"}, {"lon": -77.050322, "is_disabled": 0, "lat": 38.903804, "fusion_lat": 0.0, "is_reserved": 0, "rental_uris": {"ios": "https://dc.lft.to/lastmile_qr_scan", "android": "https://dc.lft.to/lastmile_qr_scan"}, "fusion_lon": 0.0, "type": "electric_scooter", "bike_id": "a28ad3d08890894e556d9a4c7046de04", "name": "a28ad3d08890894e556d9a4c7046de04"}, {"lon": -77.02186716666667, "is_disabled": 0, "lat": 38.8871455, "fusion_lat": 0.0, "is_reserved": 0, "rental_uris": {"ios": "https://dc.lft.to/lastmile_qr_scan", "android": "https://dc.lft.to/lastmile_qr_scan"}, "fusion_lon": 0.0, "type": "electric_scooter", "bike_id": "c9ff6b707fcfbb2f42c25015422942bc", "name": "c9ff6b707fcfbb2f42c25015422942bc"}, {"lon": -77.03156116666666, "is_disabled": 0, "lat": 38.903526, "fusion_lat": 0.0, "is_reserved": 0, "rental_uris": {"ios": "https://dc.lft.to/lastmile_qr_scan", "android": "https://dc.lft.to/lastmile_qr_scan"}, "fusion_lon": 0.0, "type": "electric_scooter", "bike_id": "de908af0df2b579b1ec254847d19dd6c", "name": "de908af0df2b579b1ec254847d19dd6c"}, {"lon": -77.033248, "is_disabled": 0, "lat": 38.89809, "fusion_lat": 0.0, "is_reserved": 0, "rental_uris": {"ios": "https://dc.lft.to/lastmile_qr_scan", "android": "https://dc.lft.to/lastmile_qr_scan"}, "fusion_lon": 0.0, "type": "electric_scooter", "bike_id": "a95eed27d731c99435f6d349e58e4fc6", "name": "a95eed27d731c99435f6d349e58e4fc6"}, {"lon": -77.02486166666667, "is_disabled": 0, "lat": 38.9191355, "fusion_lat": 0.0, "is_reserved": 0, "rental_uris": {"ios": "https://dc.lft.to/lastmile_qr_scan", "android": "https://dc.lft.to/lastmile_qr_scan"}, "fusion_lon": 0.0, "type": "electric_scooter", "bike_id": "3fad20a8832383aaf995a394d9b55085", "name": "3fad20a8832383aaf995a394d9b55085"}, {"lon": -76.993755, "is_disabled": 0, "lat": 38.990961, "fusion_lat": 0.0, "is_reserved": 0, "rental_uris": {"ios": "https://dc.lft.to/lastmile_qr_scan", "android": "https://dc.lft.to/lastmile_qr_scan"}, "fusion_lon": 0.0, "type": "electric_bike", "bike_id": "4164a2dc96e6c993fe0268f241194aaf", "name": "4164a2dc96e6c993fe0268f241194aaf"}, {"lon": -77.03166133333333, "is_disabled": 0, "lat": 38.9013145, "fusion_lat": 0.0, "is_reserved": 0, "rental_uris": {"ios": "https://dc.lft.to/lastmile_qr_scan", "android": "https://dc.lft.to/lastmile_qr_scan"}, "fusion_lon": 0.0, "type": "electric_scooter", "bike_id": "4b191b4c061a121adbae50d4e326ed21", "name": "4b191b4c061a121adbae50d4e326ed21"}, {"lon": -77.00730583333333, "is_disabled": 0, "lat": 38.884968, "fusion_lat": 0.0, "is_reserved": 0, "rental_uris": {"ios": "https://dc.lft.to/lastmile_qr_scan", "android": "https://dc.lft.to/lastmile_qr_scan"}, "fusion_lon": 0.0, "type": "electric_scooter", "bike_id": "9d290b532e0e43e3b7a1bb04d732bc26", "name": "9d290b532e0e43e3b7a1bb04d732bc26"}, {"lon": -77.04269183333334, "is_disabled": 0, "lat": 38.909795833333334, "fusion_lat": 0.0, "is_reserved": 0, "rental_uris": {"ios": "https://dc.lft.to/lastmile_qr_scan", "android": "https://dc.lft.to/lastmile_qr_scan"}, "fusion_lon": 0.0, "type": "electric_scooter", "bike_id": "2bb50079a212ae492e2b35703c650d99", "name": "2bb50079a212ae492e2b35703c650d99"}, {"lon": -76.97171333333333, "is_disabled": 0, "lat": 38.8781845, "fusion_lat": 0.0, "is_reserved": 0, "rental_uris": {"ios": "https://dc.lft.to/lastmile_qr_scan", "android": "https://dc.lft.to/lastmile_qr_scan"}, "fusion_lon": 0.0, "type": "electric_scooter", "bike_id": "b01898e2fd6bf49e819d34aff1d798d0", "name": "b01898e2fd6bf49e819d34aff1d798d0"}, {"lon": -77.04510216666667, "is_disabled": 0, "lat": 38.892992, "fusion_lat": 0.0, "is_reserved": 0, "rental_uris": {"ios": "https://dc.lft.to/lastmile_qr_scan", "android": "https://dc.lft.to/lastmile_qr_scan"}, "fusion_lon": 0.0, "type": "electric_scooter", "bike_id": "315dcfa38af3c85b83d5d4327ec28f71", "name": "315dcfa38af3c85b83d5d4327ec28f71"}, {"lon": -76.98175466666666, "is_disabled": 0, "lat": 38.916692, "fusion_lat": 0.0, "is_reserved": 0, "rental_uris": {"ios": "https://dc.lft.to/lastmile_qr_scan", "android": "https://dc.lft.to/lastmile_qr_scan"}, "fusion_lon": 0.0, "type": "electric_scooter", "bike_id": "c471026acd1b98d495031c55a67c86d1", "name": "c471026acd1b98d495031c55a67c86d1"}, {"lon": -77.01772766666667, "is_disabled": 0, "lat": 38.903164, "fusion_lat": 0.0, "is_reserved": 0, "rental_uris": {"ios": "https://dc.lft.to/lastmile_qr_scan", "android": "https://dc.lft.to/lastmile_qr_scan"}, "fusion_lon": 0.0, "type": "electric_scooter", "bike_id": "3103827bc9291830b6f214a5c0ffeae1", "name": "3103827bc9291830b6f214a5c0ffeae1"}, {"lon": -77.03287983333334, "is_disabled": 0, "lat": 38.92853983333333, "fusion_lat": 0.0, "is_reserved": 0, "rental_uris": {"ios": "https://dc.lft.to/lastmile_qr_scan", "android": "https://dc.lft.to/lastmile_qr_scan"}, "fusion_lon": 0.0, "type": "electric_scooter", "bike_id": "2c81b3974c92fd6ccbade008e273a3a9", "name": "2c81b3974c92fd6ccbade008e273a3a9"}, {"lon": -77.03793433333334, "is_disabled": 0, "lat": 38.926367666666664, "fusion_lat": 0.0, "is_reserved": 0, "rental_uris": {"ios": "https://dc.lft.to/lastmile_qr_scan", "android": "https://dc.lft.to/lastmile_qr_scan"}, "fusion_lon": 0.0, "type": "electric_scooter", "bike_id": "8ad266bf90b9295e7e721861b0203ecf", "name": "8ad266bf90b9295e7e721861b0203ecf"}, {"lon": -77.02966266666667, "is_disabled": 0, "lat": 38.950668, "fusion_lat": 0.0, "is_reserved": 0, "rental_uris": {"ios": "https://dc.lft.to/lastmile_qr_scan", "android": "https://dc.lft.to/lastmile_qr_scan"}, "fusion_lon": 0.0, "type": "electric_scooter", "bike_id": "f9a49a2793bfbb9eb1c1a45049a0957c", "name": "f9a49a2793bfbb9eb1c1a45049a0957c"}, {"lon": -77.043806, "is_disabled": 0, "lat": 38.901024166666666, "fusion_lat": 0.0, "is_reserved": 0, "rental_uris": {"ios": "https://dc.lft.to/lastmile_qr_scan", "android": "https://dc.lft.to/lastmile_qr_scan"}, "fusion_lon": 0.0, "type": "electric_scooter", "bike_id": "980d571dc841bbee5c4b7418bff999ca", "name": "980d571dc841bbee5c4b7418bff999ca"}, {"lon": -77.0443975, "is_disabled": 0, "lat": 38.898359, "fusion_lat": 0.0, "is_reserved": 0, "rental_uris": {"ios": "https://dc.lft.to/lastmile_qr_scan", "android": "https://dc.lft.to/lastmile_qr_scan"}, "fusion_lon": 0.0, "type": "electric_scooter", "bike_id": "81abc6b8b67c9e7f594e630aa9dd48e4", "name": "81abc6b8b67c9e7f594e630aa9dd48e4"}, {"lon": -76.99150916666666, "is_disabled": 0, "lat": 38.900402166666666, "fusion_lat": 0.0, "is_reserved": 0, "rental_uris": {"ios": "https://dc.lft.to/lastmile_qr_scan", "android": "https://dc.lft.to/lastmile_qr_scan"}, "fusion_lon": 0.0, "type": "electric_scooter", "bike_id": "a33b0421f57170e074b1ac9f71e371ec", "name": "a33b0421f57170e074b1ac9f71e371ec"}, {"lon": -77.03009816666666, "is_disabled": 0, "lat": 38.90272316666667, "fusion_lat": 0.0, "is_reserved": 0, "rental_uris": {"ios": "https://dc.lft.to/lastmile_qr_scan", "android": "https://dc.lft.to/lastmile_qr_scan"}, "fusion_lon": 0.0, "type": "electric_scooter", "bike_id": "96b5ba372b72f0b26fc89c803dfec168", "name": "96b5ba372b72f0b26fc89c803dfec168"}, {"lon": -77.08576766666667, "is_disabled": 0, "lat": 38.874208, "fusion_lat": 0.0, "is_reserved": 0, "rental_uris": {"ios": "https://dc.lft.to/lastmile_qr_scan", "android": "https://dc.lft.to/lastmile_qr_scan"}, "fusion_lon": 0.0, "type": "electric_bike", "bike_id": "3eb6b4998b42a2aa42f39d79489d47a1", "name": "3eb6b4998b42a2aa42f39d79489d47a1"}, {"lon": -76.99223716666667, "is_disabled": 0, "lat": 38.94019683333333, "fusion_lat": 0.0, "is_reserved": 0, "rental_uris": {"ios": "https://dc.lft.to/lastmile_qr_scan", "android": "https://dc.lft.to/lastmile_qr_scan"}, "fusion_lon": 0.0, "type": "electric_bike", "bike_id": "f0efbc54118b921148eec29498f3e78a", "name": "f0efbc54118b921148eec29498f3e78a"}, {"lon": -77.0263605, "is_disabled": 0, "lat": 38.896077166666664, "fusion_lat": 0.0, "is_reserved": 0, "rental_uris": {"ios": "https://dc.lft.to/lastmile_qr_scan", "android": "https://dc.lft.to/lastmile_qr_scan"}, "fusion_lon": 0.0, "type": "electric_scooter", "bike_id": "de6e0c39c0cccf99b10b7aa400e3dcb5", "name": "de6e0c39c0cccf99b10b7aa400e3dcb5"}, {"lon": -77.003378, "is_disabled": 0, "lat": 38.89522616666667, "fusion_lat": 0.0, "is_reserved": 0, "rental_uris": {"ios": "https://dc.lft.to/lastmile_qr_scan", "android": "https://dc.lft.to/lastmile_qr_scan"}, "fusion_lon": 0.0, "type": "electric_scooter", "bike_id": "a9045fa2b994590ca00e00e4c0b60b60", "name": "a9045fa2b994590ca00e00e4c0b60b60"}, {"lon": -77.05233966666667, "is_disabled": 0, "lat": 38.92510816666667, "fusion_lat": 0.0, "is_reserved": 0, "rental_uris": {"ios": "https://dc.lft.to/lastmile_qr_scan", "android": "https://dc.lft.to/lastmile_qr_scan"}, "fusion_lon": 0.0, "type": "electric_scooter", "bike_id": "c90f3f0ae379850eac4927601170cc93", "name": "c90f3f0ae379850eac4927601170cc93"}, {"lon": -77.04227883333333, "is_disabled": 0, "lat": 38.926244, "fusion_lat": 0.0, "is_reserved": 0, "rental_uris": {"ios": "https://dc.lft.to/lastmile_qr_scan", "android": "https://dc.lft.to/lastmile_qr_scan"}, "fusion_lon": 0.0, "type": "electric_scooter", "bike_id": "a4f10fe7cb0f5c9fcd14b3df0ba6799d", "name": "a4f10fe7cb0f5c9fcd14b3df0ba6799d"}, {"lon": -76.9821945, "is_disabled": 0, "lat": 38.90200933333333, "fusion_lat": 0.0, "is_reserved": 0, "rental_uris": {"ios": "https://dc.lft.to/lastmile_qr_scan", "android": "https://dc.lft.to/lastmile_qr_scan"}, "fusion_lon": 0.0, "type": "electric_scooter", "bike_id": "cc8e3c3998b1a91c0ffbac52f3bed018", "name": "cc8e3c3998b1a91c0ffbac52f3bed018"}, {"lon": -77.031871, "is_disabled": 0, "lat": 38.913244666666664, "fusion_lat": 0.0, "is_reserved": 0, "rental_uris": {"ios": "https://dc.lft.to/lastmile_qr_scan", "android": "https://dc.lft.to/lastmile_qr_scan"}, "fusion_lon": 0.0, "type": "electric_scooter", "bike_id": "170900a7f42df7c7f4942fe9a70038d1", "name": "170900a7f42df7c7f4942fe9a70038d1"}, {"lon": -77.02937116666666, "is_disabled": 0, "lat": 38.895263166666666, "fusion_lat": 0.0, "is_reserved": 0, "rental_uris": {"ios": "https://dc.lft.to/lastmile_qr_scan", "android": "https://dc.lft.to/lastmile_qr_scan"}, "fusion_lon": 0.0, "type": "electric_scooter", "bike_id": "29b9c824c070426f9b71fda61964ab35", "name": "29b9c824c070426f9b71fda61964ab35"}, {"lon": -77.03379383333333, "is_disabled": 0, "lat": 38.90383533333333, "fusion_lat": 0.0, "is_reserved": 0, "rental_uris": {"ios": "https://dc.lft.to/lastmile_qr_scan", "android": "https://dc.lft.to/lastmile_qr_scan"}, "fusion_lon": 0.0, "type": "electric_scooter", "bike_id": "57046ac34934cce3b0c48dcf823108c9", "name": "57046ac34934cce3b0c48dcf823108c9"}, {"lon": -77.05428216666667, "is_disabled": 0, "lat": 38.92848716666666, "fusion_lat": 0.0, "is_reserved": 0, "rental_uris": {"ios": "https://dc.lft.to/lastmile_qr_scan", "android": "https://dc.lft.to/lastmile_qr_scan"}, "fusion_lon": 0.0, "type": "electric_scooter", "bike_id": "6aacba441a084ea441c191491faa617e", "name": "6aacba441a084ea441c191491faa617e"}, {"lon": -77.00896066666667, "is_disabled": 0, "lat": 38.88500116666667, "fusion_lat": 0.0, "is_reserved": 0, "rental_uris": {"ios": "https://dc.lft.to/lastmile_qr_scan", "android": "https://dc.lft.to/lastmile_qr_scan"}, "fusion_lon": 0.0, "type": "electric_scooter", "bike_id": "afb3a768fc01ac4c54148a09334ca660", "name": "afb3a768fc01ac4c54148a09334ca660"}, {"lon": -76.978613, "is_disabled": 0, "lat": 38.8674585, "fusion_lat": 0.0, "is_reserved": 0, "rental_uris": {"ios": "https://dc.lft.to/lastmile_qr_scan", "android": "https://dc.lft.to/lastmile_qr_scan"}, "fusion_lon": 0.0, "type": "electric_scooter", "bike_id": "31ae8d1f07d4225b11c10dd0c646fcab", "name": "31ae8d1f07d4225b11c10dd0c646fcab"}, {"lon": -76.9808675, "is_disabled": 0, "lat": 38.926297, "fusion_lat": 0.0, "is_reserved": 0, "rental_uris": {"ios": "https://dc.lft.to/lastmile_qr_scan", "android": "https://dc.lft.to/lastmile_qr_scan"}, "fusion_lon": 0.0, "type": "electric_scooter", "bike_id": "ae6c54fb5540ae2e248343b150b978a3", "name": "ae6c54fb5540ae2e248343b150b978a3"}, {"lon": -77.03271883333333, "is_disabled": 0, "lat": 38.92808983333333, "fusion_lat": 0.0, "is_reserved": 0, "rental_uris": {"ios": "https://dc.lft.to/lastmile_qr_scan", "android": "https://dc.lft.to/lastmile_qr_scan"}, "fusion_lon": 0.0, "type": "electric_scooter", "bike_id": "eab373400dad556187f597f5266f06a9", "name": "eab373400dad556187f597f5266f06a9"}, {"lon": -77.051565, "is_disabled": 0, "lat": 38.905537, "fusion_lat": 0.0, "is_reserved": 0, "rental_uris": {"ios": "https://dc.lft.to/lastmile_qr_scan", "android": "https://dc.lft.to/lastmile_qr_scan"}, "fusion_lon": 0.0, "type": "electric_scooter", "bike_id": "04e5e9d8a7a78c2a9f9703589d07888b", "name": "04e5e9d8a7a78c2a9f9703589d07888b"}, {"lon": -77.07890083333334, "is_disabled": 0, "lat": 38.8425265, "fusion_lat": 0.0, "is_reserved": 0, "rental_uris": {"ios": "https://dc.lft.to/lastmile_qr_scan", "android": "https://dc.lft.to/lastmile_qr_scan"}, "fusion_lon": 0.0, "type": "electric_bike", "bike_id": "da466757964f462417e9107d935503eb", "name": "da466757964f462417e9107d935503eb"}, {"lon": -77.00117433333334, "is_disabled": 0, "lat": 38.8737565, "fusion_lat": 0.0, "is_reserved": 0, "rental_uris": {"ios": "https://dc.lft.to/lastmile_qr_scan", "android": "https://dc.lft.to/lastmile_qr_scan"}, "fusion_lon": 0.0, "type": "electric_scooter", "bike_id": "844a39f37271a083363fb47e3e6f0f43", "name": "844a39f37271a083363fb47e3e6f0f43"}, {"lon": -77.02567466666666, "is_disabled": 0, "lat": 38.99698466666667, "fusion_lat": 0.0, "is_reserved": 0, "rental_uris": {"ios": "https://dc.lft.to/lastmile_qr_scan", "android": "https://dc.lft.to/lastmile_qr_scan"}, "fusion_lon": 0.0, "type": "electric_bike", "bike_id": "530b1a984316587dda2126ae4bfe17b2", "name": "530b1a984316587dda2126ae4bfe17b2"}, {"lon": -77.0122405, "is_disabled": 0, "lat": 38.924027, "fusion_lat": 0.0, "is_reserved": 0, "rental_uris": {"ios": "https://dc.lft.to/lastmile_qr_scan", "android": "https://dc.lft.to/lastmile_qr_scan"}, "fusion_lon": 0.0, "type": "electric_scooter", "bike_id": "ff1504f99075a14b8ceb8f5ba76f2490", "name": "ff1504f99075a14b8ceb8f5ba76f2490"}, {"lon": -77.01676833333333, "is_disabled": 0, "lat": 38.92040866666667, "fusion_lat": 0.0, "is_reserved": 0, "rental_uris": {"ios": "https://dc.lft.to/lastmile_qr_scan", "android": "https://dc.lft.to/lastmile_qr_scan"}, "fusion_lon": 0.0, "type": "electric_scooter", "bike_id": "d32456a141e20a855744f5f8998822e2", "name": "d32456a141e20a855744f5f8998822e2"}, {"lon": -77.0613755, "is_disabled": 0, "lat": 38.907243333333334, "fusion_lat": 0.0, "is_reserved": 0, "rental_uris": {"ios": "https://dc.lft.to/lastmile_qr_scan", "android": "https://dc.lft.to/lastmile_qr_scan"}, "fusion_lon": 0.0, "type": "electric_scooter", "bike_id": "f8bf44795e4a338df5cd0c05817c6755", "name": "f8bf44795e4a338df5cd0c05817c6755"}, {"lon": -77.03516683333334, "is_disabled": 0, "lat": 38.922375, "fusion_lat": 0.0, "is_reserved": 0, "rental_uris": {"ios": "https://dc.lft.to/lastmile_qr_scan", "android": "https://dc.lft.to/lastmile_qr_scan"}, "fusion_lon": 0.0, "type": "electric_scooter", "bike_id": "3a59aa1ec18e60d62950209c4a930667", "name": "3a59aa1ec18e60d62950209c4a930667"}, {"lon": -77.03568416666667, "is_disabled": 0, "lat": 38.926967833333336, "fusion_lat": 0.0, "is_reserved": 0, "rental_uris": {"ios": "https://dc.lft.to/lastmile_qr_scan", "android": "https://dc.lft.to/lastmile_qr_scan"}, "fusion_lon": 0.0, "type": "electric_scooter", "bike_id": "4dce0009cb0e30374b485f4530edf840", "name": "4dce0009cb0e30374b485f4530edf840"}, {"lon": -77.043579, "is_disabled": 0, "lat": 38.89687416666666, "fusion_lat": 0.0, "is_reserved": 0, "rental_uris": {"ios": "https://dc.lft.to/lastmile_qr_scan", "android": "https://dc.lft.to/lastmile_qr_scan"}, "fusion_lon": 0.0, "type": "electric_scooter", "bike_id": "c980fb85d576d5f001c2b44f3e436245", "name": "c980fb85d576d5f001c2b44f3e436245"}, {"lon": -77.01098166666667, "is_disabled": 0, "lat": 38.91742683333333, "fusion_lat": 0.0, "is_reserved": 0, "rental_uris": {"ios": "https://dc.lft.to/lastmile_qr_scan", "android": "https://dc.lft.to/lastmile_qr_scan"}, "fusion_lon": 0.0, "type": "electric_scooter", "bike_id": "7743fdb62f7accd433c51cd419d2ba44", "name": "7743fdb62f7accd433c51cd419d2ba44"}, {"lon": -77.024771, "is_disabled": 0, "lat": 38.91880233333333, "fusion_lat": 0.0, "is_reserved": 0, "rental_uris": {"ios": "https://dc.lft.to/lastmile_qr_scan", "android": "https://dc.lft.to/lastmile_qr_scan"}, "fusion_lon": 0.0, "type": "electric_scooter", "bike_id": "0359c7c6e62df21a780939fcc7c9f6ab", "name": "0359c7c6e62df21a780939fcc7c9f6ab"}, {"lon": -77.02392166666667, "is_disabled": 0, "lat": 38.912884, "fusion_lat": 0.0, "is_reserved": 0, "rental_uris": {"ios": "https://dc.lft.to/lastmile_qr_scan", "android": "https://dc.lft.to/lastmile_qr_scan"}, "fusion_lon": 0.0, "type": "electric_scooter", "bike_id": "0aca01a5b64583580ac0d721c61ec8b5", "name": "0aca01a5b64583580ac0d721c61ec8b5"}, {"lon": -77.03642366666666, "is_disabled": 0, "lat": 38.91736516666667, "fusion_lat": 0.0, "is_reserved": 0, "rental_uris": {"ios": "https://dc.lft.to/lastmile_qr_scan", "android": "https://dc.lft.to/lastmile_qr_scan"}, "fusion_lon": 0.0, "type": "electric_scooter", "bike_id": "1ddda6dc2d106852b109030c6383924f", "name": "1ddda6dc2d106852b109030c6383924f"}, {"lon": -77.01543566666666, "is_disabled": 0, "lat": 38.887382, "fusion_lat": 0.0, "is_reserved": 0, "rental_uris": {"ios": "https://dc.lft.to/lastmile_qr_scan", "android": "https://dc.lft.to/lastmile_qr_scan"},