{"data": {"bikes": [{"bike_id": "7dd8d52053cacdde4ca6faf986e216ad", "is_reserved": 0, "name": "7dd8d52053cacdde4ca6faf986e216ad", "lat": 38.90372966666666, "fusion_lat": 0.0, "lon": -77.00982816666667, "is_disabled": 0, "fusion_lon": 0.0, "rental_uris": {"android": "https://dc.lft.to/lastmile_qr_scan", "ios": "https://dc.lft.to/lastmile_qr_scan"}, "type": "electric_scooter"}, {"bike_id": "cb87dce605f875aa26e3a91b108afb82", "is_reserved": 0, "name": "cb87dce605f875aa26e3a91b108afb82", "lat": 38.92128183333333, "fusion_lat": 0.0, "lon": -77.02527416666666, "is_disabled": 0, "fusion_lon": 0.0, "rental_uris": {"android": "https://dc.lft.to/lastmile_qr_scan", "ios": "https://dc.lft.to/lastmile_qr_scan"}, "type": "electric_scooter"}, {"bike_id": "8300020d35d910eb9b7df4461e4ccc9e", "is_reserved": 0, "name": "8300020d35d910eb9b7df4461e4ccc9e", "lat": 38.90950516666667, "fusion_lat": 0.0, "lon": -77.027115, "is_disabled": 0, "fusion_lon": 0.0, "rental_uris": {"android": "https://dc.lft.to/lastmile_qr_scan", "ios": "https://dc.lft.to/lastmile_qr_scan"}, "type": "electric_scooter"}, {"bike_id": "996935c754ce3f1a7ec9c4db5cd53ca1", "is_reserved": 0, "name": "996935c754ce3f1a7ec9c4db5cd53ca1", "lat": 38.902485666666664, "fusion_lat": 0.0, "lon": -77.02855866666667, "is_disabled": 0, "fusion_lon": 0.0, "rental_uris": {"android": "https://dc.lft.to/lastmile_qr_scan", "ios": "https://dc.lft.to/lastmile_qr_scan"}, "type": "electric_scooter"}, {"bike_id": "47b0a58d8eab463066969d69b5c45ace", "is_reserved": 0, "name": "47b0a58d8eab463066969d69b5c45ace", "lat": 38.91920483333333, "fusion_lat": 0.0, "lon": -77.01198683333334, "is_disabled": 0, "fusion_lon": 0.0, "rental_uris": {"android": "https://dc.lft.to/lastmile_qr_scan", "ios": "https://dc.lft.to/lastmile_qr_scan"}, "type": "electric_scooter"}, {"bike_id": "9baf431c0bb0599f2f968d66e83cc447", "is_reserved": 0, "name": "9baf431c0bb0599f2f968d66e83cc447", "lat": 38.9055395, "fusion_lat": 0.0, "lon": -76.99469916666666, "is_disabled": 0, "fusion_lon": 0.0, "rental_uris": {"android": "https://dc.lft.to/lastmile_qr_scan", "ios": "https://dc.lft.to/lastmile_qr_scan"}, "type": "electric_scooter"}, {"bike_id": "4923151f20f591702a9bf57307c64473", "is_reserved": 0, "name": "4923151f20f591702a9bf57307c64473", "lat": 38.924427333333334, "fusion_lat": 0.0, "lon": -77.02016433333333, "is_disabled": 0, "fusion_lon": 0.0, "rental_uris": {"android": "https://dc.lft.to/lastmile_qr_scan", "ios": "https://dc.lft.to/lastmile_qr_scan"}, "type": "electric_scooter"}, {"bike_id": "c98daf827e8e2e35c475b2e8b5829eca", "is_reserved": 0, "name": "c98daf827e8e2e35c475b2e8b5829eca", "lat": 38.8935605, "fusion_lat": 0.0, "lon": -77.00338066666667, "is_disabled": 0, "fusion_lon": 0.0, "rental_uris": {"android": "https://dc.lft.to/lastmile_qr_scan", "ios": "https://dc.lft.to/lastmile_qr_scan"}, "type": "electric_scooter"}, {"bike_id": "333e5896759f1a7177bf30fbe8a2edb1", "is_reserved": 0, "name": "333e5896759f1a7177bf30fbe8a2edb1", "lat": 38.88408366666667, "fusion_lat": 0.0, "lon": -76.99380833333333, "is_disabled": 0, "fusion_lon": 0.0, "rental_uris": {"android": "https://dc.lft.to/lastmile_qr_scan", "ios": "https://dc.lft.to/lastmile_qr_scan"}, "type": "electric_scooter"}, {"bike_id": "c7761e1a0f7d0fb65916d16c551b7e97", "is_reserved": 0, "name": "c7761e1a0f7d0fb65916d16c551b7e97", "lat": 38.89219833333333, "fusion_lat": 0.0, "lon": -77.02656883333333, "is_disabled": 0, "fusion_lon": 0.0, "rental_uris": {"android": "https://dc.lft.to/lastmile_qr_scan", "ios": "https://dc.lft.to/lastmile_qr_scan"}, "type": "electric_scooter"}, {"bike_id": "245db2fe67cf0ddd0e2fba797f6a1bbd", "is_reserved": 0, "name": "245db2fe67cf0ddd0e2fba797f6a1bbd", "lat": 38.92189283333333, "fusion_lat": 0.0, "lon": -77.039701, "is_disabled": 0, "fusion_lon": 0.0, "rental_uris": {"android": "https://dc.lft.to/lastmile_qr_scan", "ios": "https://dc.lft.to/lastmile_qr_scan"}, "type": "electric_scooter"}, {"bike_id": "951a32bc134d79111290a50a279683df", "is_reserved": 0, "name": "951a32bc134d79111290a50a279683df", "lat": 38.93566283333333, "fusion_lat": 0.0, "lon": -77.08766033333333, "is_disabled": 0, "fusion_lon": 0.0, "rental_uris": {"android": "https://dc.lft.to/lastmile_qr_scan", "ios": "https://dc.lft.to/lastmile_qr_scan"}, "type": "electric_scooter"}, {"bike_id": "17a9426ce6b8aa59218ec8452a6c6377", "is_reserved": 0, "name": "17a9426ce6b8aa59218ec8452a6c6377", "lat": 38.914754, "fusion_lat": 0.0, "lon": -77.024504, "is_disabled": 0, "fusion_lon": 0.0, "rental_uris": {"android": "https://dc.lft.to/lastmile_qr_scan", "ios": "https://dc.lft.to/lastmile_qr_scan"}, "type": "electric_scooter"}, {"bike_id": "f85cd3162b793baeab02579194b75cad", "is_reserved": 0, "name": "f85cd3162b793baeab02579194b75cad", "lat": 38.8988595, "fusion_lat": 0.0, "lon": -76.99699533333333, "is_disabled": 0, "fusion_lon": 0.0, "rental_uris": {"android": "https://dc.lft.to/lastmile_qr_scan", "ios": "https://dc.lft.to/lastmile_qr_scan"}, "type": "electric_scooter"}, {"bike_id": "4f4b5030e46c901a147e0168a82ac086", "is_reserved": 0, "name": "4f4b5030e46c901a147e0168a82ac086", "lat": 38.9095965, "fusion_lat": 0.0, "lon": -77.03423533333333, "is_disabled": 0, "fusion_lon": 0.0, "rental_uris": {"android": "https://dc.lft.to/lastmile_qr_scan", "ios": "https://dc.lft.to/lastmile_qr_scan"}, "type": "electric_scooter"}, {"bike_id": "20cb29eea29a4115b507e40206c3c48d", "is_reserved": 0, "name": "20cb29eea29a4115b507e40206c3c48d", "lat": 38.89174366666667, "fusion_lat": 0.0, "lon": -76.9264775, "is_disabled": 0, "fusion_lon": 0.0, "rental_uris": {"android": "https://dc.lft.to/lastmile_qr_scan", "ios": "https://dc.lft.to/lastmile_qr_scan"}, "type": "electric_scooter"}, {"bike_id": "b77ee80757c12352f02ee6e342189303", "is_reserved": 0, "name": "b77ee80757c12352f02ee6e342189303", "lat": 38.924462, "fusion_lat": 0.0, "lon": -76.989862, "is_disabled": 0, "fusion_lon": 0.0, "rental_uris": {"android": "https://dc.lft.to/lastmile_qr_scan", "ios": "https://dc.lft.to/lastmile_qr_scan"}, "type": "electric_scooter"}, {"bike_id": "961add7c0f67b7a120d7649a2ec0bbec", "is_reserved": 0, "name": "961add7c0f67b7a120d7649a2ec0bbec", "lat": 38.90354633333333, "fusion_lat": 0.0, "lon": -77.03310733333333, "is_disabled": 0, "fusion_lon": 0.0, "rental_uris": {"android": "https://dc.lft.to/lastmile_qr_scan", "ios": "https://dc.lft.to/lastmile_qr_scan"}, "type": "electric_scooter"}, {"bike_id": "3bce54b9bf048c3775a155f7ddda29fd", "is_reserved": 0, "name": "3bce54b9bf048c3775a155f7ddda29fd", "lat": 38.91926133333333, "fusion_lat": 0.0, "lon": -77.02480966666667, "is_disabled": 0, "fusion_lon": 0.0, "rental_uris": {"android": "https://dc.lft.to/lastmile_qr_scan", "ios": "https://dc.lft.to/lastmile_qr_scan"}, "type": "electric_scooter"}, {"bike_id": "933fc6ca1b2c1b53ff8f9db9d6a857f4", "is_reserved": 0, "name": "933fc6ca1b2c1b53ff8f9db9d6a857f4", "lat": 38.90315183333333, "fusion_lat": 0.0, "lon": -77.00563966666667, "is_disabled": 0, "fusion_lon": 0.0, "rental_uris": {"android": "https://dc.lft.to/lastmile_qr_scan", "ios": "https://dc.lft.to/lastmile_qr_scan"}, "type": "electric_scooter"}, {"bike_id": "d19f6bc3bdacee9375d970e4b40fd7ea", "is_reserved": 0, "name": "d19f6bc3bdacee9375d970e4b40fd7ea", "lat": 38.915667, "fusion_lat": 0.0, "lon": -77.02000583333333, "is_disabled": 0, "fusion_lon": 0.0, "rental_uris": {"android": "https://dc.lft.to/lastmile_qr_scan", "ios": "https://dc.lft.to/lastmile_qr_scan"}, "type": "electric_scooter"}, {"bike_id": "4f737d3baf4f48bdb78e087733459d9e", "is_reserved": 0, "name": "4f737d3baf4f48bdb78e087733459d9e", "lat": 38.914167666666664, "fusion_lat": 0.0, "lon": -77.02097383333333, "is_disabled": 0, "fusion_lon": 0.0, "rental_uris": {"android": "https://dc.lft.to/lastmile_qr_scan", "ios": "https://dc.lft.to/lastmile_qr_scan"}, "type": "electric_scooter"}, {"bike_id": "4e2f77517bd9c4dd8d94d6dac6b0759c", "is_reserved": 0, "name": "4e2f77517bd9c4dd8d94d6dac6b0759c", "lat": 38.8922135, "fusion_lat": 0.0, "lon": -77.04325683333333, "is_disabled": 0, "fusion_lon": 0.0, "rental_uris": {"android": "https://dc.lft.to/lastmile_qr_scan", "ios": "https://dc.lft.to/lastmile_qr_scan"}, "type": "electric_scooter"}, {"bike_id": "dced10e14259194f1a804b9da1418c65", "is_reserved": 0, "name": "dced10e14259194f1a804b9da1418c65", "lat": 38.92244916666667, "fusion_lat": 0.0, "lon": -77.01968283333333, "is_disabled": 0, "fusion_lon": 0.0, "rental_uris": {"android": "https://dc.lft.to/lastmile_qr_scan", "ios": "https://dc.lft.to/lastmile_qr_scan"}, "type": "electric_scooter"}, {"bike_id": "1a02fb7f0fa9c31f63419cbe3f10e63b", "is_reserved": 0, "name": "1a02fb7f0fa9c31f63419cbe3f10e63b", "lat": 38.927601333333335, "fusion_lat": 0.0, "lon": -77.05263783333334, "is_disabled": 0, "fusion_lon": 0.0, "rental_uris": {"android": "https://dc.lft.to/lastmile_qr_scan", "ios": "https://dc.lft.to/lastmile_qr_scan"}, "type": "electric_scooter"}, {"bike_id": "7af4f018d1b4bc44977a18ddaebbbaa7", "is_reserved": 0, "name": "7af4f018d1b4bc44977a18ddaebbbaa7", "lat": 38.90330683333333, "fusion_lat": 0.0, "lon": -77.021494, "is_disabled": 0, "fusion_lon": 0.0, "rental_uris": {"android": "https://dc.lft.to/lastmile_qr_scan", "ios": "https://dc.lft.to/lastmile_qr_scan"}, "type": "electric_scooter"}, {"bike_id": "95cca0a6db6838210994ffeb1d6abbe4", "is_reserved": 0, "name": "95cca0a6db6838210994ffeb1d6abbe4", "lat": 38.92792016666667, "fusion_lat": 0.0, "lon": -77.02108116666666, "is_disabled": 0, "fusion_lon": 0.0, "rental_uris": {"android": "https://dc.lft.to/lastmile_qr_scan", "ios": "https://dc.lft.to/lastmile_qr_scan"}, "type": "electric_scooter"}, {"bike_id": "f2c0ede171a4ce37fc605ce509d217f0", "is_reserved": 0, "name": "f2c0ede171a4ce37fc605ce509d217f0", "lat": 38.92552466666667, "fusion_lat": 0.0, "lon": -76.98147466666667, "is_disabled": 0, "fusion_lon": 0.0, "rental_uris": {"android": "https://dc.lft.to/lastmile_qr_scan", "ios": "https://dc.lft.to/lastmile_qr_scan"}, "type": "electric_scooter"}, {"bike_id": "af04101222026f946168e85b58f53bc0", "is_reserved": 0, "name": "af04101222026f946168e85b58f53bc0", "lat": 38.924651833333336, "fusion_lat": 0.0, "lon": -77.02693866666667, "is_disabled": 0, "fusion_lon": 0.0, "rental_uris": {"android": "https://dc.lft.to/lastmile_qr_scan", "ios": "https://dc.lft.to/lastmile_qr_scan"}, "type": "electric_scooter"}, {"bike_id": "4c8cf3f9000e007acd2c049a9a0ba1a9", "is_reserved": 0, "name": "4c8cf3f9000e007acd2c049a9a0ba1a9", "lat": 38.92788016666667, "fusion_lat": 0.0, "lon": -77.05311016666667, "is_disabled": 0, "fusion_lon": 0.0, "rental_uris": {"android": "https://dc.lft.to/lastmile_qr_scan", "ios": "https://dc.lft.to/lastmile_qr_scan"}, "type": "electric_scooter"}, {"bike_id": "16e94cb89cfcbecd0f1c35131ccb0883", "is_reserved": 0, "name": "16e94cb89cfcbecd0f1c35131ccb0883", "lat": 38.908088, "fusion_lat": 0.0, "lon": -77.04173483333334, "is_disabled": 0, "fusion_lon": 0.0, "rental_uris": {"android": "https://dc.lft.to/lastmile_qr_scan", "ios": "https://dc.lft.to/lastmile_qr_scan"}, "type": "electric_scooter"}, {"bike_id": "34ded65a78949a14592b9d24d9d13ba0", "is_reserved": 0, "name": "34ded65a78949a14592b9d24d9d13ba0", "lat": 38.925178, "fusion_lat": 0.0, "lon": -77.05039733333334, "is_disabled": 0, "fusion_lon": 0.0, "rental_uris": {"android": "https://dc.lft.to/lastmile_qr_scan", "ios": "https://dc.lft.to/lastmile_qr_scan"}, "type": "electric_scooter"}, {"bike_id": "5c20c511621e9fce4a7b820cf61110d6", "is_reserved": 0, "name": "5c20c511621e9fce4a7b820cf61110d6", "lat": 38.91657816666667, "fusion_lat": 0.0, "lon": -77.031831, "is_disabled": 0, "fusion_lon": 0.0, "rental_uris": {"android": "https://dc.lft.to/lastmile_qr_scan", "ios": "https://dc.lft.to/lastmile_qr_scan"}, "type": "electric_scooter"}, {"bike_id": "e750c10cc886d719dccda4050e979cf0", "is_reserved": 0, "name": "e750c10cc886d719dccda4050e979cf0", "lat": 38.8198345, "fusion_lat": 0.0, "lon": -76.99808866666666, "is_disabled": 0, "fusion_lon": 0.0, "rental_uris": {"android": "https://dc.lft.to/lastmile_qr_scan", "ios": "https://dc.lft.to/lastmile_qr_scan"}, "type": "electric_bike"}, {"bike_id": "1ee25163771b10ce0375cbba5fda62b8", "is_reserved": 0, "name": "1ee25163771b10ce0375cbba5fda62b8", "lat": 38.90001866666667, "fusion_lat": 0.0, "lon": -77.007018, "is_disabled": 0, "fusion_lon": 0.0, "rental_uris": {"android": "https://dc.lft.to/lastmile_qr_scan", "ios": "https://dc.lft.to/lastmile_qr_scan"}, "type": "electric_scooter"}, {"bike_id": "ca3a8b8499e934097a7ba1151ff4e0d6", "is_reserved": 0, "name": "ca3a8b8499e934097a7ba1151ff4e0d6", "lat": 38.92678, "fusion_lat": 0.0, "lon": -77.03096433333333, "is_disabled": 0, "fusion_lon": 0.0, "rental_uris": {"android": "https://dc.lft.to/lastmile_qr_scan", "ios": "https://dc.lft.to/lastmile_qr_scan"}, "type": "electric_scooter"}, {"bike_id": "6f201a0b02b94464a21c838341439ffb", "is_reserved": 0, "name": "6f201a0b02b94464a21c838341439ffb", "lat": 38.908627, "fusion_lat": 0.0, "lon": -77.02855783333334, "is_disabled": 0, "fusion_lon": 0.0, "rental_uris": {"android": "https://dc.lft.to/lastmile_qr_scan", "ios": "https://dc.lft.to/lastmile_qr_scan"}, "type": "electric_scooter"}, {"bike_id": "b05c15b998f9afe6d94f0893134f8048", "is_reserved": 0, "name": "b05c15b998f9afe6d94f0893134f8048", "lat": 38.924519, "fusion_lat": 0.0, "lon": -77.02033316666666, "is_disabled": 0, "fusion_lon": 0.0, "rental_uris": {"android": "https://dc.lft.to/lastmile_qr_scan", "ios": "https://dc.lft.to/lastmile_qr_scan"}, "type": "electric_scooter"}, {"bike_id": "56e4b5a93f2387ddda26473030564fd8", "is_reserved": 0, "name": "56e4b5a93f2387ddda26473030564fd8", "lat": 38.8973305, "fusion_lat": 0.0, "lon": -77.0232745, "is_disabled": 0, "fusion_lon": 0.0, "rental_uris": {"android": "https://dc.lft.to/lastmile_qr_scan", "ios": "https://dc.lft.to/lastmile_qr_scan"}, "type": "electric_scooter"}, {"bike_id": "6daa535c5948b5cafd90cb257fdb19d6", "is_reserved": 0, "name": "6daa535c5948b5cafd90cb257fdb19d6", "lat": 38.896686833333334, "fusion_lat": 0.0, "lon": -76.93207366666667, "is_disabled": 0, "fusion_lon": 0.0, "rental_uris": {"android": "https://dc.lft.to/lastmile_qr_scan", "ios": "https://dc.lft.to/lastmile_qr_scan"}, "type": "electric_scooter"}, {"bike_id": "6767231f4baefe4e070e7b700a78bf9f", "is_reserved": 0, "name": "6767231f4baefe4e070e7b700a78bf9f", "lat": 38.915653166666665, "fusion_lat": 0.0, "lon": -77.02003233333333, "is_disabled": 0, "fusion_lon": 0.0, "rental_uris": {"android": "https://dc.lft.to/lastmile_qr_scan", "ios": "https://dc.lft.to/lastmile_qr_scan"}, "type": "electric_scooter"}, {"bike_id": "fb25783df0207a570a090cf2984343b8", "is_reserved": 0, "name": "fb25783df0207a570a090cf2984343b8", "lat": 38.91679466666667, "fusion_lat": 0.0, "lon": -77.045997, "is_disabled": 0, "fusion_lon": 0.0, "rental_uris": {"android": "https://dc.lft.to/lastmile_qr_scan", "ios": "https://dc.lft.to/lastmile_qr_scan"}, "type": "electric_scooter"}, {"bike_id": "023a7c39278eee1e7a5314b47adc4b61", "is_reserved": 0, "name": "023a7c39278eee1e7a5314b47adc4b61", "lat": 38.9016305, "fusion_lat": 0.0, "lon": -77.026878, "is_disabled": 0, "fusion_lon": 0.0, "rental_uris": {"android": "https://dc.lft.to/lastmile_qr_scan", "ios": "https://dc.lft.to/lastmile_qr_scan"}, "type": "electric_scooter"}, {"bike_id": "54c4088770a0ec1ba2bb080d73af1b92", "is_reserved": 0, "name": "54c4088770a0ec1ba2bb080d73af1b92", "lat": 38.92339166666667, "fusion_lat": 0.0, "lon": -77.01907933333334, "is_disabled": 0, "fusion_lon": 0.0, "rental_uris": {"android": "https://dc.lft.to/lastmile_qr_scan", "ios": "https://dc.lft.to/lastmile_qr_scan"}, "type": "electric_scooter"}, {"bike_id": "2239bfaa088f5e0cc1e343f0975c7b0a", "is_reserved": 0, "name": "2239bfaa088f5e0cc1e343f0975c7b0a", "lat": 38.8842895, "fusion_lat": 0.0, "lon": -77.008205, "is_disabled": 0, "fusion_lon": 0.0, "rental_uris": {"android": "https://dc.lft.to/lastmile_qr_scan", "ios": "https://dc.lft.to/lastmile_qr_scan"}, "type": "electric_scooter"}, {"bike_id": "03a2091103d0f6b11c556ecbddd160f5", "is_reserved": 0, "name": "03a2091103d0f6b11c556ecbddd160f5", "lat": 38.90532833333333, "fusion_lat": 0.0, "lon": -77.05638466666667, "is_disabled": 0, "fusion_lon": 0.0, "rental_uris": {"android": "https://dc.lft.to/lastmile_qr_scan", "ios": "https://dc.lft.to/lastmile_qr_scan"}, "type": "electric_scooter"}, {"bike_id": "cd95f1f3ff19f07b66509cb91b926d4c", "is_reserved": 0, "name": "cd95f1f3ff19f07b66509cb91b926d4c", "lat": 38.90032983333333, "fusion_lat": 0.0, "lon": -76.98834416666666, "is_disabled": 0, "fusion_lon": 0.0, "rental_uris": {"android": "https://dc.lft.to/lastmile_qr_scan", "ios": "https://dc.lft.to/lastmile_qr_scan"}, "type": "electric_scooter"}, {"bike_id": "0a20fb5263e0ddda59df298a7cdedc07", "is_reserved": 0, "name": "0a20fb5263e0ddda59df298a7cdedc07", "lat": 38.92227666666667, "fusion_lat": 0.0, "lon": -77.02008533333333, "is_disabled": 0, "fusion_lon": 0.0, "rental_uris": {"android": "https://dc.lft.to/lastmile_qr_scan", "ios": "https://dc.lft.to/lastmile_qr_scan"}, "type": "electric_scooter"}, {"bike_id": "64944070eebee8559ccdf400794265f7", "is_reserved": 0, "name": "64944070eebee8559ccdf400794265f7", "lat": 38.90671566666666, "fusion_lat": 0.0, "lon": -77.02700416666667, "is_disabled": 0, "fusion_lon": 0.0, "rental_uris": {"android": "https://dc.lft.to/lastmile_qr_scan", "ios": "https://dc.lft.to/lastmile_qr_scan"}, "type": "electric_scooter"}, {"bike_id": "2c1b0219c6978674968fa46c5e3f66d6", "is_reserved": 0, "name": "2c1b0219c6978674968fa46c5e3f66d6", "lat": 38.90956466666667, "fusion_lat": 0.0, "lon": -77.04610733333334, "is_disabled": 0, "fusion_lon": 0.0, "rental_uris": {"android": "https://dc.lft.to/lastmile_qr_scan", "ios": "https://dc.lft.to/lastmile_qr_scan"}, "type": "electric_scooter"}, {"bike_id": "2991347d3fb6062194c61556459ae776", "is_reserved": 0, "name": "2991347d3fb6062194c61556459ae776", "lat": 38.93690816666667, "fusion_lat": 0.0, "lon": -76.99058216666667, "is_disabled": 0, "fusion_lon": 0.0, "rental_uris": {"android": "https://dc.lft.to/lastmile_qr_scan", "ios": "https://dc.lft.to/lastmile_qr_scan"}, "type": "electric_bike"}, {"bike_id": "465e6da1671deff8cdad54dd0bb99637", "is_reserved": 0, "name": "465e6da1671deff8cdad54dd0bb99637", "lat": 38.9042495, "fusion_lat": 0.0, "lon": -77.01971266666666, "is_disabled": 0, "fusion_lon": 0.0, "rental_uris": {"android": "https://dc.lft.to/lastmile_qr_scan", "ios": "https://dc.lft.to/lastmile_qr_scan"}, "type": "electric_scooter"}, {"bike_id": "1bf8ca1ebdd316dc126aa8f688127969", "is_reserved": 0, "name": "1bf8ca1ebdd316dc126aa8f688127969", "lat": 38.91833, "fusion_lat": 0.0, "lon": -77.0228235, "is_disabled": 0, "fusion_lon": 0.0, "rental_uris": {"android": "https://dc.lft.to/lastmile_qr_scan", "ios": "https://dc.lft.to/lastmile_qr_scan"}, "type": "electric_scooter"}, {"bike_id": "1836838c2b67d4470e9f85d409158162", "is_reserved": 0, "name": "1836838c2b67d4470e9f85d409158162", "lat": 38.871861333333335, "fusion_lat": 0.0, "lon": -77.00579683333333, "is_disabled": 0, "fusion_lon": 0.0, "rental_uris": {"android": "https://dc.lft.to/lastmile_qr_scan", "ios": "https://dc.lft.to/lastmile_qr_scan"}, "type": "electric_scooter"}, {"bike_id": "cd7d6b85d80c6544b829015054abe012", "is_reserved": 0, "name": "cd7d6b85d80c6544b829015054abe012", "lat": 38.90519583333333, "fusion_lat": 0.0, "lon": -77.00735916666666, "is_disabled": 0, "fusion_lon": 0.0, "rental_uris": {"android": "https://dc.lft.to/lastmile_qr_scan", "ios": "https://dc.lft.to/lastmile_qr_scan"}, "type": "electric_scooter"}, {"bike_id": "41aca9d6674a75077ea35b85e1fcab0c", "is_reserved": 0, "name": "41aca9d6674a75077ea35b85e1fcab0c", "lat": 38.917123333333336, "fusion_lat": 0.0, "lon": -77.03858616666666, "is_disabled": 0, "fusion_lon": 0.0, "rental_uris": {"android": "https://dc.lft.to/lastmile_qr_scan", "ios": "https://dc.lft.to/lastmile_qr_scan"}, "type": "electric_scooter"}, {"bike_id": "bb7870d09ac5c89bd0fb260ab77fbcc0", "is_reserved": 0, "name": "bb7870d09ac5c89bd0fb260ab77fbcc0", "lat": 38.901455, "fusion_lat": 0.0, "lon": -77.01905133333334, "is_disabled": 0, "fusion_lon": 0.0, "rental_uris": {"android": "https://dc.lft.to/lastmile_qr_scan", "ios": "https://dc.lft.to/lastmile_qr_scan"}, "type": "electric_scooter"}, {"bike_id": "f0719d4f79770dd6a3685196ae864031", "is_reserved": 0, "name": "f0719d4f79770dd6a3685196ae864031", "lat": 38.8753415, "fusion_lat": 0.0, "lon": -77.00507683333333, "is_disabled": 0, "fusion_lon": 0.0, "rental_uris": {"android": "https://dc.lft.to/lastmile_qr_scan", "ios": "https://dc.lft.to/lastmile_qr_scan"}, "type": "electric_scooter"}, {"bike_id": "9b4a5cc0ed238e0faded8dd80899d2ce", "is_reserved": 0, "name": "9b4a5cc0ed238e0faded8dd80899d2ce", "lat": 38.90064266666667, "fusion_lat": 0.0, "lon": -76.92747516666667, "is_disabled": 0, "fusion_lon": 0.0, "rental_uris": {"android": "https://dc.lft.to/lastmile_qr_scan", "ios": "https://dc.lft.to/lastmile_qr_scan"}, "type": "electric_scooter"}, {"bike_id": "7ea3243f93568a13a2e1e1c72a382372", "is_reserved": 0, "name": "7ea3243f93568a13a2e1e1c72a382372", "lat": 38.86960933333334, "fusion_lat": 0.0, "lon": -77.01367516666667, "is_disabled": 0, "fusion_lon": 0.0, "rental_uris": {"android": "https://dc.lft.to/lastmile_qr_scan", "ios": "https://dc.lft.to/lastmile_qr_scan"}, "type": "electric_scooter"}, {"bike_id": "24977c5778f7f57c5503128046d26b41", "is_reserved": 0, "name": "24977c5778f7f57c5503128046d26b41", "lat": 38.89553883333333, "fusion_lat": 0.0, "lon": -76.94870783333333, "is_disabled": 0, "fusion_lon": 0.0, "rental_uris": {"android": "https://dc.lft.to/lastmile_qr_scan", "ios": "https://dc.lft.to/lastmile_qr_scan"}, "type": "electric_scooter"}, {"bike_id": "a80cc63358f7b8eb140dc094829e7f62", "is_reserved": 0, "name": "a80cc63358f7b8eb140dc094829e7f62", "lat": 38.895466666666664, "fusion_lat": 0.0, "lon": -76.94947133333334, "is_disabled": 0, "fusion_lon": 0.0, "rental_uris": {"android": "https://dc.lft.to/lastmile_qr_scan", "ios": "https://dc.lft.to/lastmile_qr_scan"}, "type": "electric_scooter"}, {"bike_id": "0f01f8440c4795a6710edace00a39acc", "is_reserved": 0, "name": "0f01f8440c4795a6710edace00a39acc", "lat": 38.8919615, "fusion_lat": 0.0, "lon": -77.02217416666667, "is_disabled": 0, "fusion_lon": 0.0, "rental_uris": {"android": "https://dc.lft.to/lastmile_qr_scan", "ios": "https://dc.lft.to/lastmile_qr_scan"}, "type": "electric_scooter"}, {"bike_id": "5d2599f6f3bc1c4158d08e1161cef0ae", "is_reserved": 0, "name": "5d2599f6f3bc1c4158d08e1161cef0ae", "lat": 38.91108116666667, "fusion_lat": 0.0, "lon": -77.04539033333333, "is_disabled": 0, "fusion_lon": 0.0, "rental_uris": {"android": "https://dc.lft.to/lastmile_qr_scan", "ios": "https://dc.lft.to/lastmile_qr_scan"}, "type": "electric_scooter"}, {"bike_id": "7a21b2abd39850ebdf88e900433d5926", "is_reserved": 0, "name": "7a21b2abd39850ebdf88e900433d5926", "lat": 38.80761116666667, "fusion_lat": 0.0, "lon": -77.129843, "is_disabled": 0, "fusion_lon": 0.0, "rental_uris": {"android": "https://dc.lft.to/lastmile_qr_scan", "ios": "https://dc.lft.to/lastmile_qr_scan"}, "type": "electric_bike"}, {"bike_id": "e1e8b31fbc27feb7fda4134a4ac0cc52", "is_reserved": 0, "name": "e1e8b31fbc27feb7fda4134a4ac0cc52", "lat": 38.90962233333333, "fusion_lat": 0.0, "lon": -77.02411683333334, "is_disabled": 0, "fusion_lon": 0.0, "rental_uris": {"android": "https://dc.lft.to/lastmile_qr_scan", "ios": "https://dc.lft.to/lastmile_qr_scan"}, "type": "electric_scooter"}, {"bike_id": "d7a700f13e5e25143e0dc6c90f96441b", "is_reserved": 0, "name": "d7a700f13e5e25143e0dc6c90f96441b", "lat": 38.92746433333333, "fusion_lat": 0.0, "lon": -77.02432616666667, "is_disabled": 0, "fusion_lon": 0.0, "rental_uris": {"android": "https://dc.lft.to/lastmile_qr_scan", "ios": "https://dc.lft.to/lastmile_qr_scan"}, "type": "electric_scooter"}, {"bike_id": "53b7e2ebbd2344ca19593a0eedcde4d8", "is_reserved": 0, "name": "53b7e2ebbd2344ca19593a0eedcde4d8", "lat": 38.89730333333333, "fusion_lat": 0.0, "lon": -77.02324116666666, "is_disabled": 0, "fusion_lon": 0.0, "rental_uris": {"android": "https://dc.lft.to/lastmile_qr_scan", "ios": "https://dc.lft.to/lastmile_qr_scan"}, "type": "electric_scooter"}, {"bike_id": "65b4a78c152a02227f1f438b98ccd1b9", "is_reserved": 0, "name": "65b4a78c152a02227f1f438b98ccd1b9", "lat": 38.90021333333333, "fusion_lat": 0.0, "lon": -77.00537033333333, "is_disabled": 0, "fusion_lon": 0.0, "rental_uris": {"android": "https://dc.lft.to/lastmile_qr_scan", "ios": "https://dc.lft.to/lastmile_qr_scan"}, "type": "electric_scooter"}, {"bike_id": "da8b76f8d5437bc3b8f01add9a389bee", "is_reserved": 0, "name": "da8b76f8d5437bc3b8f01add9a389bee", "lat": 38.90880033333333, "fusion_lat": 0.0, "lon": -77.04157633333334, "is_disabled": 0, "fusion_lon": 0.0, "rental_uris": {"android": "https://dc.lft.to/lastmile_qr_scan", "ios": "https://dc.lft.to/lastmile_qr_scan"}, "type": "electric_scooter"}, {"bike_id": "849a27068544a15046da8c9485828c61", "is_reserved": 0, "name": "849a27068544a15046da8c9485828c61", "lat": 38.9013715, "fusion_lat": 0.0, "lon": -77.04336716666667, "is_disabled": 0, "fusion_lon": 0.0, "rental_uris": {"android": "https://dc.lft.to/lastmile_qr_scan", "ios": "https://dc.lft.to/lastmile_qr_scan"}, "type": "electric_scooter"}, {"bike_id": "6ebb77937ac6bc5b3c0646ab0ab105b0", "is_reserved": 0, "name": "6ebb77937ac6bc5b3c0646ab0ab105b0", "lat": 38.941802, "fusion_lat": 0.0, "lon": -77.02530666666667, "is_disabled": 0, "fusion_lon": 0.0, "rental_uris": {"android": "https://dc.lft.to/lastmile_qr_scan", "ios": "https://dc.lft.to/lastmile_qr_scan"}, "type": "electric_scooter"}, {"bike_id": "20d6d84bef49202e82db06c0375754c5", "is_reserved": 0, "name": "20d6d84bef49202e82db06c0375754c5", "lat": 38.905649, "fusion_lat": 0.0, "lon": -77.008079, "is_disabled": 0, "fusion_lon": 0.0, "rental_uris": {"android": "https://dc.lft.to/lastmile_qr_scan", "ios": "https://dc.lft.to/lastmile_qr_scan"}, "type": "electric_scooter"}, {"bike_id": "e036f1382d98499b498f55e144af7a00", "is_reserved": 0, "name": "e036f1382d98499b498f55e144af7a00", "lat": 38.924299833333336, "fusion_lat": 0.0, "lon": -77.026994, "is_disabled": 0, "fusion_lon": 0.0, "rental_uris": {"android": "https://dc.lft.to/lastmile_qr_scan", "ios": "https://dc.lft.to/lastmile_qr_scan"}, "type": "electric_scooter"}, {"bike_id": "089b56911450c42aa1b53b0669d66770", "is_reserved": 0, "name": "089b56911450c42aa1b53b0669d66770", "lat": 38.87662483333333, "fusion_lat": 0.0, "lon": -77.00316083333334, "is_disabled": 0, "fusion_lon": 0.0, "rental_uris": {"android": "https://dc.lft.to/lastmile_qr_scan", "ios": "https://dc.lft.to/lastmile_qr_scan"}, "type": "electric_scooter"}, {"bike_id": "390f59f1c2f18c08b906d67d7f2dcf88", "is_reserved": 0, "name": "390f59f1c2f18c08b906d67d7f2dcf88", "lat": 38.9200345, "fusion_lat": 0.0, "lon": -77.04170233333333, "is_disabled": 0, "fusion_lon": 0.0, "rental_uris": {"android": "https://dc.lft.to/lastmile_qr_scan", "ios": "https://dc.lft.to/lastmile_qr_scan"}, "type": "electric_scooter"}, {"bike_id": "1010ba2323f9c2af27c85980acbc37fe", "is_reserved": 0, "name": "1010ba2323f9c2af27c85980acbc37fe", "lat": 38.91482216666667, "fusion_lat": 0.0, "lon": -77.04258133333333, "is_disabled": 0, "fusion_lon": 0.0, "rental_uris": {"android": "https://dc.lft.to/lastmile_qr_scan", "ios": "https://dc.lft.to/lastmile_qr_scan"}, "type": "electric_scooter"}, {"bike_id": "159202e141a0cad90b5637234d0be735", "is_reserved": 0, "name": "159202e141a0cad90b5637234d0be735", "lat": 38.99689016666667, "fusion_lat": 0.0, "lon": -77.02575966666667, "is_disabled": 0, "fusion_lon": 0.0, "rental_uris": {"android": "https://dc.lft.to/lastmile_qr_scan", "ios": "https://dc.lft.to/lastmile_qr_scan"}, "type": "electric_bike"}, {"bike_id": "26b944316a9e6c4d3f1115780561f1a2", "is_reserved": 0, "name": "26b944316a9e6c4d3f1115780561f1a2", "lat": 38.9214665, "fusion_lat": 0.0, "lon": -77.04343316666667, "is_disabled": 0, "fusion_lon": 0.0, "rental_uris": {"android": "https://dc.lft.to/lastmile_qr_scan", "ios": "https://dc.lft.to/lastmile_qr_scan"}, "type": "electric_scooter"}, {"bike_id": "289af723ac56efad55c6ecafa5b1826e", "is_reserved": 0, "name": "289af723ac56efad55c6ecafa5b1826e", "lat": 38.91608383333333, "fusion_lat": 0.0, "lon": -77.0372345, "is_disabled": 0, "fusion_lon": 0.0, "rental_uris": {"android": "https://dc.lft.to/lastmile_qr_scan", "ios": "https://dc.lft.to/lastmile_qr_scan"}, "type": "electric_scooter"}, {"bike_id": "5d95d67c6ff06d0d356dc896ac70363c", "is_reserved": 0, "name": "5d95d67c6ff06d0d356dc896ac70363c", "lat": 38.907574833333335, "fusion_lat": 0.0, "lon": -77.03580766666667, "is_disabled": 0, "fusion_lon": 0.0, "rental_uris": {"android": "https://dc.lft.to/lastmile_qr_scan", "ios": "https://dc.lft.to/lastmile_qr_scan"}, "type": "electric_scooter"}, {"bike_id": "e97717e1598b3175e14eefc05ed1b2f5", "is_reserved": 0, "name": "e97717e1598b3175e14eefc05ed1b2f5", "lat": 38.9188075, "fusion_lat": 0.0, "lon": -77.03494433333333, "is_disabled": 0, "fusion_lon": 0.0, "rental_uris": {"android": "https://dc.lft.to/lastmile_qr_scan", "ios": "https://dc.lft.to/lastmile_qr_scan"}, "type": "electric_scooter"}, {"bike_id": "13a2ea3291bc3949d4f4e91eb6221f0d", "is_reserved": 0, "name": "13a2ea3291bc3949d4f4e91eb6221f0d", "lat": 38.9128685, "fusion_lat": 0.0, "lon": -77.03656666666667, "is_disabled": 0, "fusion_lon": 0.0, "rental_uris": {"android": "https://dc.lft.to/lastmile_qr_scan", "ios": "https://dc.lft.to/lastmile_qr_scan"}, "type": "electric_scooter"}, {"bike_id": "e53a9f288ac5245b95b8cf4f3dd2227c", "is_reserved": 0, "name": "e53a9f288ac5245b95b8cf4f3dd2227c", "lat": 38.8975, "fusion_lat": 0.0, "lon": -77.03283016666667, "is_disabled": 0, "fusion_lon": 0.0, "rental_uris": {"android": "https://dc.lft.to/lastmile_qr_scan", "ios": "https://dc.lft.to/lastmile_qr_scan"}, "type": "electric_scooter"}, {"bike_id": "74983e61051f5920002714536c152bb6", "is_reserved": 0, "name": "74983e61051f5920002714536c152bb6", "lat": 38.928465833333334, "fusion_lat": 0.0, "lon": -77.0205765, "is_disabled": 0, "fusion_lon": 0.0, "rental_uris": {"android": "https://dc.lft.to/lastmile_qr_scan", "ios": "https://dc.lft.to/lastmile_qr_scan"}, "type": "electric_bike"}, {"bike_id": "21d3526de266c446e5af494130bfcb79", "is_reserved": 0, "name": "21d3526de266c446e5af494130bfcb79", "lat": 38.938512, "fusion_lat": 0.0, "lon": -77.0246915, "is_disabled": 0, "fusion_lon": 0.0, "rental_uris": {"android": "https://dc.lft.to/lastmile_qr_scan", "ios": "https://dc.lft.to/lastmile_qr_scan"}, "type": "electric_scooter"}, {"bike_id": "eec87a450d516eeb05056d277c360955", "is_reserved": 0, "name": "eec87a450d516eeb05056d277c360955", "lat": 38.922840666666666, "fusion_lat": 0.0, "lon": -77.03658133333333, "is_disabled": 0, "fusion_lon": 0.0, "rental_uris": {"android": "https://dc.lft.to/lastmile_qr_scan", "ios": "https://dc.lft.to/lastmile_qr_scan"}, "type": "electric_scooter"}, {"bike_id": "447c4554daf49340263146582fe38c65", "is_reserved": 0, "name": "447c4554daf49340263146582fe38c65", "lat": 38.89575716666667, "fusion_lat": 0.0, "lon": -76.983217, "is_disabled": 0, "fusion_lon": 0.0, "rental_uris": {"android": "https://dc.lft.to/lastmile_qr_scan", "ios": "https://dc.lft.to/lastmile_qr_scan"}, "type": "electric_scooter"}, {"bike_id": "da1bdd92e6a8c33f41c994babafbbb97", "is_reserved": 0, "name": "da1bdd92e6a8c33f41c994babafbbb97", "lat": 38.879099333333336, "fusion_lat": 0.0, "lon": -76.9948785, "is_disabled": 0, "fusion_lon": 0.0, "rental_uris": {"android": "https://dc.lft.to/lastmile_qr_scan", "ios": "https://dc.lft.to/lastmile_qr_scan"}, "type": "electric_scooter"}, {"bike_id": "b6a8acdf15a6091a71a3ad63af155df2", "is_reserved": 0, "name": "b6a8acdf15a6091a71a3ad63af155df2", "lat": 38.923416833333334, "fusion_lat": 0.0, "lon": -77.019032, "is_disabled": 0, "fusion_lon": 0.0, "rental_uris": {"android": "https://dc.lft.to/lastmile_qr_scan", "ios": "https://dc.lft.to/lastmile_qr_scan"}, "type": "electric_scooter"}, {"bike_id": "e398d70f1adf2e7415e32d08979177ed", "is_reserved": 0, "name": "e398d70f1adf2e7415e32d08979177ed", "lat": 38.916363, "fusion_lat": 0.0, "lon": -77.0401185, "is_disabled": 0, "fusion_lon": 0.0, "rental_uris": {"android": "https://dc.lft.to/lastmile_qr_scan", "ios": "https://dc.lft.to/lastmile_qr_scan"}, "type": "electric_scooter"}, {"bike_id": "aac9cd24440a66fa1c9b3056f907d7b4", "is_reserved": 0, "name": "aac9cd24440a66fa1c9b3056f907d7b4", "lat": 38.926499, "fusion_lat": 0.0, "lon": -77.036936, "is_disabled": 0, "fusion_lon": 0.0, "rental_uris": {"android": "https://dc.lft.to/lastmile_qr_scan", "ios": "https://dc.lft.to/lastmile_qr_scan"}, "type": "electric_scooter"}, {"bike_id": "93789b12e1b330bb2a86d84e8be2da71", "is_reserved": 0, "name": "93789b12e1b330bb2a86d84e8be2da71", "lat": 38.90670933333333, "fusion_lat": 0.0, "lon": -77.03445283333333, "is_disabled": 0, "fusion_lon": 0.0, "rental_uris": {"android": "https://dc.lft.to/lastmile_qr_scan", "ios": "https://dc.lft.to/lastmile_qr_scan"}, "type": "electric_scooter"}, {"bike_id": "a5fdbd43114e2f8211b86b0f01a4badc", "is_reserved": 0, "name": "a5fdbd43114e2f8211b86b0f01a4badc", "lat": 38.91690416666667, "fusion_lat": 0.0, "lon": -77.04270583333333, "is_disabled": 0, "fusion_lon": 0.0, "rental_uris": {"android": "https://dc.lft.to/lastmile_qr_scan", "ios": "https://dc.lft.to/lastmile_qr_scan"}, "type": "electric_scooter"}, {"bike_id": "ab414a26f2848f25fe08e380454e4606", "is_reserved": 0, "name": "ab414a26f2848f25fe08e380454e4606", "lat": 38.86932683333333, "fusion_lat": 0.0, "lon": -77.0136785, "is_disabled": 0, "fusion_lon": 0.0, "rental_uris": {"android": "https://dc.lft.to/lastmile_qr_scan", "ios": "https://dc.lft.to/lastmile_qr_scan"}, "type": "electric_scooter"}, {"bike_id": "d0830991ec4ada1d7e48258be114dcaf", "is_reserved": 0, "name": "d0830991ec4ada1d7e48258be114dcaf", "lat": 38.93054683333333, "fusion_lat": 0.0, "lon": -77.0363495, "is_disabled": 0, "fusion_lon": 0.0, "rental_uris": {"android": "https://dc.lft.to/lastmile_qr_scan", "ios": "https://dc.lft.to/lastmile_qr_scan"}, "type": "electric_scooter"}, {"bike_id": "e6b389ed784e0a0d6d93345dc3f40049", "is_reserved": 0, "name": "e6b389ed784e0a0d6d93345dc3f40049", "lat": 38.959360833333335, "fusion_lat": 0.0, "lon": -76.92837133333333, "is_disabled": 0, "fusion_lon": 0.0, "rental_uris": {"android": "https://dc.lft.to/lastmile_qr_scan", "ios": "https://dc.lft.to/lastmile_qr_scan"}, "type": "electric_bike"}, {"bike_id": "b668af4dc7a6cba5eaaf3f0d774bb3f3", "is_reserved": 0, "name": "b668af4dc7a6cba5eaaf3f0d774bb3f3", "lat": 38.928727333333335, "fusion_lat": 0.0, "lon": -77.033295, "is_disabled": 0, "fusion_lon": 0.0, "rental_uris": {"android": "https://dc.lft.to/lastmile_qr_scan", "ios": "https://dc.lft.to/lastmile_qr_scan"}, "type": "electric_scooter"}, {"bike_id": "28143dc80af11acca755685a6723c515", "is_reserved": 0, "name": "28143dc80af11acca755685a6723c515", "lat": 38.92553983333333, "fusion_lat": 0.0, "lon": -77.05262166666667, "is_disabled": 0, "fusion_lon": 0.0, "rental_uris": {"android": "https://dc.lft.to/lastmile_qr_scan", "ios": "https://dc.lft.to/lastmile_qr_scan"}, "type": "electric_scooter"}, {"bike_id": "e64c6be5007086ecb2b689f293159d8f", "is_reserved": 0, "name": "e64c6be5007086ecb2b689f293159d8f", "lat": 38.89622683333333, "fusion_lat": 0.0, "lon": -76.9984705, "is_disabled": 0, "fusion_lon": 0.0, "rental_uris": {"android": "https://dc.lft.to/lastmile_qr_scan", "ios": "https://dc.lft.to/lastmile_qr_scan"}, "type": "electric_scooter"}, {"bike_id": "2d14df220dabca2bc43769c114e3a93c", "is_reserved": 0, "name": "2d14df220dabca2bc43769c114e3a93c", "lat": 38.901375333333334, "fusion_lat": 0.0, "lon": -77.04493966666666, "is_disabled": 0, "fusion_lon": 0.0, "rental_uris": {"android": "https://dc.lft.to/lastmile_qr_scan", "ios": "https://dc.lft.to/lastmile_qr_scan"}, "type": "electric_scooter"}, {"bike_id": "2c33132e7e0b77edb003174f35773a43", "is_reserved": 0, "name": "2c33132e7e0b77edb003174f35773a43", "lat": 38.921772, "fusion_lat": 0.0, "lon": -77.03819416666667, "is_disabled": 0, "fusion_lon": 0.0, "rental_uris": {"android": "https://dc.lft.to/lastmile_qr_scan", "ios": "https://dc.lft.to/lastmile_qr_scan"}, "type": "electric_scooter"}, {"bike_id": "7cce521d53b227945138001817429533", "is_reserved": 0, "name": "7cce521d53b227945138001817429533", "lat": 38.8713765, "fusion_lat": 0.0, "lon": -77.01221866666667, "is_disabled": 0, "fusion_lon": 0.0, "rental_uris": {"android": "https://dc.lft.to/lastmile_qr_scan", "ios": "https://dc.lft.to/lastmile_qr_scan"}, "type": "electric_scooter"}, {"bike_id": "dee159b1b237380bd03e316c6a8ec422", "is_reserved": 0, "name": "dee159b1b237380bd03e316c6a8ec422", "lat": 38.9087095, "fusion_lat": 0.0, "lon": -77.00352783333334, "is_disabled": 0, "fusion_lon": 0.0, "rental_uris": {"android": "https://dc.lft.to/lastmile_qr_scan", "ios": "https://dc.lft.to/lastmile_qr_scan"}, "type": "electric_scooter"}, {"bike_id": "ce95e50746db72bb3f97f960366135e8", "is_reserved": 0, "name": "ce95e50746db72bb3f97f960366135e8", "lat": 38.901076833333335, "fusion_lat": 0.0, "lon": -77.05061483333333, "is_disabled": 0, "fusion_lon": 0.0, "rental_uris": {"android": "https://dc.lft.to/lastmile_qr_scan", "ios": "https://dc.lft.to/lastmile_qr_scan"}, "type": "electric_scooter"}, {"bike_id": "ef93d376b44c99951130fa3409d2f14e", "is_reserved": 0, "name": "ef93d376b44c99951130fa3409d2f14e", "lat": 38.8217255, "fusion_lat": 0.0, "lon": -77.0014275, "is_disabled": 0, "fusion_lon": 0.0, "rental_uris": {"android": "https://dc.lft.to/lastmile_qr_scan", "ios": "https://dc.lft.to/lastmile_qr_scan"}, "type": "electric_bike"}, {"bike_id": "7e9b1e9969591c581825641e7b5bdc60", "is_reserved": 0, "name": "7e9b1e9969591c581825641e7b5bdc60", "lat": 38.9002715, "fusion_lat": 0.0, "lon": -76.99138583333334, "is_disabled": 0, "fusion_lon": 0.0, "rental_uris": {"android": "https://dc.lft.to/lastmile_qr_scan", "ios": "https://dc.lft.to/lastmile_qr_scan"}, "type": "electric_scooter"}, {"bike_id": "a534b6a230528384057cfb64478df5d3", "is_reserved": 0, "name": "a534b6a230528384057cfb64478df5d3", "lat": 38.896102166666665, "fusion_lat": 0.0, "lon": -77.00925083333334, "is_disabled": 0, "fusion_lon": 0.0, "rental_uris": {"android": "https://dc.lft.to/lastmile_qr_scan", "ios": "https://dc.lft.to/lastmile_qr_scan"}, "type": "electric_scooter"}, {"bike_id": "eec2730249902a5b3d7c0f8de603909d", "is_reserved": 0, "name": "eec2730249902a5b3d7c0f8de603909d", "lat": 38.88964883333333, "fusion_lat": 0.0, "lon": -76.92730733333333, "is_disabled": 0, "fusion_lon": 0.0, "rental_uris": {"android": "https://dc.lft.to/lastmile_qr_scan", "ios": "https://dc.lft.to/lastmile_qr_scan"}, "type": "electric_scooter"}, {"bike_id": "4c50feb3ee10b6a80d877ba6a1a19d48", "is_reserved": 0, "name": "4c50feb3ee10b6a80d877ba6a1a19d48", "lat": 38.917095333333336, "fusion_lat": 0.0, "lon": -77.03545, "is_disabled": 0, "fusion_lon": 0.0, "rental_uris": {"android": "https://dc.lft.to/lastmile_qr_scan", "ios": "https://dc.lft.to/lastmile_qr_scan"}, "type": "electric_scooter"}, {"bike_id": "fcc6448ac4cadcc168826003facf6cfb", "is_reserved": 0, "name": "fcc6448ac4cadcc168826003facf6cfb", "lat": 38.8427605, "fusion_lat": 0.0, "lon": -76.98837733333333, "is_disabled": 0, "fusion_lon": 0.0, "rental_uris": {"android": "https://dc.lft.to/lastmile_qr_scan", "ios": "https://dc.lft.to/lastmile_qr_scan"}, "type": "electric_bike"}, {"bike_id": "8a4cfa7797e97d7db6c07ef2d13be431", "is_reserved": 0, "name": "8a4cfa7797e97d7db6c07ef2d13be431", "lat": 38.912990666666666, "fusion_lat": 0.0, "lon": -76.98473616666666, "is_disabled": 0, "fusion_lon": 0.0, "rental_uris": {"android": "https://dc.lft.to/lastmile_qr_scan", "ios": "https://dc.lft.to/lastmile_qr_scan"}, "type": "electric_scooter"}, {"bike_id": "5a10fbf3b0711d6adab4c8e371d434e3", "is_reserved": 0, "name": "5a10fbf3b0711d6adab4c8e371d434e3", "lat": 38.9007975, "fusion_lat": 0.0, "lon": -77.05138566666666, "is_disabled": 0, "fusion_lon": 0.0, "rental_uris": {"android": "https://dc.lft.to/lastmile_qr_scan", "ios": "https://dc.lft.to/lastmile_qr_scan"}, "type": "electric_scooter"}, {"bike_id": "c23ba62a76df380c5d8bed67168bc21d", "is_reserved": 0, "name": "c23ba62a76df380c5d8bed67168bc21d", "lat": 38.89540866666667, "fusion_lat": 0.0, "lon": -76.9833335, "is_disabled": 0, "fusion_lon": 0.0, "rental_uris": {"android": "https://dc.lft.to/lastmile_qr_scan", "ios": "https://dc.lft.to/lastmile_qr_scan"}, "type": "electric_scooter"}, {"bike_id": "f6a68097920bfbd09a301ddbf99a3ec3", "is_reserved": 0, "name": "f6a68097920bfbd09a301ddbf99a3ec3", "lat": 38.869197166666666, "fusion_lat": 0.0, "lon": -77.01074383333334, "is_disabled": 0, "fusion_lon": 0.0, "rental_uris": {"android": "https://dc.lft.to/lastmile_qr_scan", "ios": "https://dc.lft.to/lastmile_qr_scan"}, "type": "electric_bike"}, {"bike_id": "3162bc8bd41477e13abda02ba586378b", "is_reserved": 0, "name": "3162bc8bd41477e13abda02ba586378b", "lat": 38.874348, "fusion_lat": 0.0, "lon": -77.00920066666667, "is_disabled": 0, "fusion_lon": 0.0, "rental_uris": {"android": "https://dc.lft.to/lastmile_qr_scan", "ios": "https://dc.lft.to/lastmile_qr_scan"}, "type": "electric_scooter"}, {"bike_id": "d5b3d1643f378a19504816cda5131371", "is_reserved": 0, "name": "d5b3d1643f378a19504816cda5131371", "lat": 38.9244325, "fusion_lat": 0.0, "lon": -77.03329733333334, "is_disabled": 0, "fusion_lon": 0.0, "rental_uris": {"android": "https://dc.lft.to/lastmile_qr_scan", "ios": "https://dc.lft.to/lastmile_qr_scan"}, "type": "electric_scooter"}, {"bike_id": "0ec1f653b926c9d702ad6d2b7e2fb254", "is_reserved": 0, "name": "0ec1f653b926c9d702ad6d2b7e2fb254", "lat": 38.910259, "fusion_lat": 0.0, "lon": -77.0487055, "is_disabled": 0, "fusion_lon": 0.0, "rental_uris": {"android": "https://dc.lft.to/lastmile_qr_scan", "ios": "https://dc.lft.to/lastmile_qr_scan"}, "type": "electric_scooter"}, {"bike_id": "8fa6c4169232a6e9cbb43bc75d1eaccd", "is_reserved": 0, "name": "8fa6c4169232a6e9cbb43bc75d1eaccd", "lat": 38.881884666666664, "fusion_lat": 0.0, "lon": -77.00353483333333, "is_disabled": 0, "fusion_lon": 0.0, "rental_uris": {"android": "https://dc.lft.to/lastmile_qr_scan", "ios": "https://dc.lft.to/lastmile_qr_scan"}, "type": "electric_scooter"}, {"bike_id": "4f08479b8439adc7ba782e6f41065b54", "is_reserved": 0, "name": "4f08479b8439adc7ba782e6f41065b54", "lat": 38.917970333333336, "fusion_lat": 0.0, "lon": -77.027044, "is_disabled": 0, "fusion_lon": 0.0, "rental_uris": {"android": "https://dc.lft.to/lastmile_qr_scan", "ios": "https://dc.lft.to/lastmile_qr_scan"}, "type": "electric_scooter"}, {"bike_id": "4e8f8f5ab6fdf083d6b78a44ea27ef35", "is_reserved": 0, "name": "4e8f8f5ab6fdf083d6b78a44ea27ef35", "lat": 38.91678533333334, "fusion_lat": 0.0, "lon": -77.001903, "is_disabled": 0, "fusion_lon": 0.0, "rental_uris": {"android": "https://dc.lft.to/lastmile_qr_scan", "ios": "https://dc.lft.to/lastmile_qr_scan"}, "type": "electric_scooter"}, {"bike_id": "65b894f6e9313b147f84377dc3da68ba", "is_reserved": 0, "name": "65b894f6e9313b147f84377dc3da68ba", "lat": 38.921349666666664, "fusion_lat": 0.0, "lon": -77.0094105, "is_disabled": 0, "fusion_lon": 0.0, "rental_uris": {"android": "https://dc.lft.to/lastmile_qr_scan", "ios": "https://dc.lft.to/lastmile_qr_scan"}, "type": "electric_scooter"}, {"bike_id": "6c6f12270a9b77ff8e7877b36c981823", "is_reserved": 0, "name": "6c6f12270a9b77ff8e7877b36c981823", "lat": 38.903812, "fusion_lat": 0.0, "lon": -76.9761135, "is_disabled": 0, "fusion_lon": 0.0, "rental_uris": {"android": "https://dc.lft.to/lastmile_qr_scan", "ios": "https://dc.lft.to/lastmile_qr_scan"}, "type": "electric_scooter"}, {"bike_id": "4e590832805c2bc0d3850fa9168392c8", "is_reserved": 0, "name": "4e590832805c2bc0d3850fa9168392c8", "lat": 38.903875, "fusion_lat": 0.0, "lon": -77.0329335, "is_disabled": 0, "fusion_lon": 0.0, "rental_uris": {"android": "https://dc.lft.to/lastmile_qr_scan", "ios": "https://dc.lft.to/lastmile_qr_scan"}, "type": "electric_scooter"}, {"bike_id": "fd12ee3a54e2e62b2b10a74b02d4076f", "is_reserved": 0, "name": "fd12ee3a54e2e62b2b10a74b02d4076f", "lat": 38.900733833333334, "fusion_lat": 0.0, "lon": -77.05058433333333, "is_disabled": 0, "fusion_lon": 0.0, "rental_uris": {"android": "https://dc.lft.to/lastmile_qr_scan", "ios": "https://dc.lft.to/lastmile_qr_scan"}, "type": "electric_scooter"}, {"bike_id": "4ddc4f242485b185764dbbc4fc9f2b0f", "is_reserved": 0, "name": "4ddc4f242485b185764dbbc4fc9f2b0f", "lat": 38.92372733333333, "fusion_lat": 0.0, "lon": -77.0281645, "is_disabled": 0, "fusion_lon": 0.0, "rental_uris": {"android": "https://dc.lft.to/lastmile_qr_scan", "ios": "https://dc.lft.to/lastmile_qr_scan"}, "type": "electric_scooter"}, {"bike_id": "3725f3932f2dc2c15d1133eaec02f95c", "is_reserved": 0, "name": "3725f3932f2dc2c15d1133eaec02f95c", "lat": 38.892356666666664, "fusion_lat": 0.0, "lon": -77.04873716666667, "is_disabled": 0, "fusion_lon": 0.0, "rental_uris": {"android": "https://dc.lft.to/lastmile_qr_scan", "ios": "https://dc.lft.to/lastmile_qr_scan"}, "type": "electric_scooter"}, {"bike_id": "de47c22c4eebd4f6947b894d9d0a2790", "is_reserved": 0, "name": "de47c22c4eebd4f6947b894d9d0a2790", "lat": 38.90515416666667, "fusion_lat": 0.0, "lon": -77.04352283333333, "is_disabled": 0, "fusion_lon": 0.0, "rental_uris": {"android": "https://dc.lft.to/lastmile_qr_scan", "ios": "https://dc.lft.to/lastmile_qr_scan"}, "type": "electric_scooter"}, {"bike_id": "e719ce3c62aec3b115ee7da469bb4a38", "is_reserved": 0, "name": "e719ce3c62aec3b115ee7da469bb4a38", "lat": 38.908667333333334, "fusion_lat": 0.0, "lon": -77.071136, "is_disabled": 0, "fusion_lon": 0.0, "rental_uris": {"android": "https://dc.lft.to/lastmile_qr_scan", "ios": "https://dc.lft.to/lastmile_qr_scan"}, "type": "electric_scooter"}, {"bike_id": "0662b1481ff07cf86ab7aa062156fd6f", "is_reserved": 0, "name": "0662b1481ff07cf86ab7aa062156fd6f", "lat": 38.89726733333333, "fusion_lat": 0.0, "lon": -77.01872683333333, "is_disabled": 0, "fusion_lon": 0.0, "rental_uris": {"android": "https://dc.lft.to/lastmile_qr_scan", "ios": "https://dc.lft.to/lastmile_qr_scan"}, "type": "electric_scooter"}, {"bike_id": "d962a7a6c1e6f0391f9aab9eebecd5a6", "is_reserved": 0, "name": "d962a7a6c1e6f0391f9aab9eebecd5a6", "lat": 38.903422166666665, "fusion_lat": 0.0, "lon": -76.9850905, "is_disabled": 0, "fusion_lon": 0.0, "rental_uris": {"android": "https://dc.lft.to/lastmile_qr_scan", "ios": "https://dc.lft.to/lastmile_qr_scan"}, "type": "electric_scooter"}, {"bike_id": "eb8ab015134a3a5899cfd9cfebf89f75", "is_reserved": 0, "name": "eb8ab015134a3a5899cfd9cfebf89f75", "lat": 38.8927385, "fusion_lat": 0.0, "lon": -77.0465985, "is_disabled": 0, "fusion_lon": 0.0, "rental_uris": {"android": "https://dc.lft.to/lastmile_qr_scan", "ios": "https://dc.lft.to/lastmile_qr_scan"}, "type": "electric_scooter"}, {"bike_id": "49398b705821f5c255f10bd3d6f3805c", "is_reserved": 0, "name": "49398b705821f5c255f10bd3d6f3805c", "lat": 38.86978783333333, "fusion_lat": 0.0, "lon": -77.01369716666666, "is_disabled": 0, "fusion_lon": 0.0, "rental_uris": {"android": "https://dc.lft.to/lastmile_qr_scan", "ios": "https://dc.lft.to/lastmile_qr_scan"}, "type": "electric_scooter"}, {"bike_id": "f0655ff20a315635eea58e31da88a140", "is_reserved": 0, "name": "f0655ff20a315635eea58e31da88a140", "lat": 38.897268833333335, "fusion_lat": 0.0, "lon": -77.02965833333333, "is_disabled": 0, "fusion_lon": 0.0, "rental_uris": {"android": "https://dc.lft.to/lastmile_qr_scan", "ios": "https://dc.lft.to/lastmile_qr_scan"}, "type": "electric_scooter"}, {"bike_id": "daa90261cedb6da1239d99c5a2699020", "is_reserved": 0, "name": "daa90261cedb6da1239d99c5a2699020", "lat": 38.89901283333333, "fusion_lat": 0.0, "lon": -77.02173066666667, "is_disabled": 0, "fusion_lon": 0.0, "rental_uris": {"android": "https://dc.lft.to/lastmile_qr_scan", "ios": "https://dc.lft.to/lastmile_qr_scan"}, "type": "electric_bike"}, {"bike_id": "cbae08dd3bf9ab66580f37c68c3f0af6", "is_reserved": 0, "name": "cbae08dd3bf9ab66580f37c68c3f0af6", "lat": 38.90467833333334, "fusion_lat": 0.0, "lon": -77.06596366666666, "is_disabled": 0, "fusion_lon": 0.0, "rental_uris": {"android": "https://dc.lft.to/lastmile_qr_scan", "ios": "https://dc.lft.to/lastmile_qr_scan"}, "type": "electric_scooter"}, {"bike_id": "853a8c466ccb72cafb3d06e9cbec0839", "is_reserved": 0, "name": "853a8c466ccb72cafb3d06e9cbec0839", "lat": 38.87376166666667, "fusion_lat": 0.0, "lon": -77.00124383333333, "is_disabled": 0, "fusion_lon": 0.0, "rental_uris": {"android": "https://dc.lft.to/lastmile_qr_scan", "ios": "https://dc.lft.to/lastmile_qr_scan"}, "type": "electric_scooter"}, {"bike_id": "8389c6449b093df9767946eef8c95591", "is_reserved": 0, "name": "8389c6449b093df9767946eef8c95591", "lat": 38.98787633333333, "fusion_lat": 0.0, "lon": -77.14098883333334, "is_disabled": 0, "fusion_lon": 0.0, "rental_uris": {"android": "https://dc.lft.to/lastmile_qr_scan", "ios": "https://dc.lft.to/lastmile_qr_scan"}, "type": "electric_bike"}, {"bike_id": "d4a24b130b3b52aed7f46b2e1bbaba4e", "is_reserved": 0, "name": "d4a24b130b3b52aed7f46b2e1bbaba4e", "lat": 38.9118465, "fusion_lat": 0.0, "lon": -77.02286733333334, "is_disabled": 0, "fusion_lon": 0.0, "rental_uris": {"android": "https://dc.lft.to/lastmile_qr_scan", "ios": "https://dc.lft.to/lastmile_qr_scan"}, "type": "electric_scooter"}, {"bike_id": "47e9e71a2caef1d36591ddc16fde547d", "is_reserved": 0, "name": "47e9e71a2caef1d36591ddc16fde547d", "lat": 38.916050166666665, "fusion_lat": 0.0, "lon": -77.02302233333333, "is_disabled": 0, "fusion_lon": 0.0, "rental_uris": {"android": "https://dc.lft.to/lastmile_qr_scan", "ios": "https://dc.lft.to/lastmile_qr_scan"}, "type": "electric_scooter"}, {"bike_id": "d82c87ab2f2c9f2ccda63d19eeab9fed", "is_reserved": 0, "name": "d82c87ab2f2c9f2ccda63d19eeab9fed", "lat": 38.895437333333334, "fusion_lat": 0.0, "lon": -76.98334366666667, "is_disabled": 0, "fusion_lon": 0.0, "rental_uris": {"android": "https://dc.lft.to/lastmile_qr_scan", "ios": "https://dc.lft.to/lastmile_qr_scan"}, "type": "electric_scooter"}, {"bike_id": "c7ce5d1e82d91782e4b6682617b3c5df", "is_reserved": 0, "name": "c7ce5d1e82d91782e4b6682617b3c5df", "lat": 38.924045666666665, "fusion_lat": 0.0, "lon": -77.050385, "is_disabled": 0, "fusion_lon": 0.0, "rental_uris": {"android": "https://dc.lft.to/lastmile_qr_scan", "ios": "https://dc.lft.to/lastmile_qr_scan"}, "type": "electric_bike"}, {"bike_id": "52dab8756c906e3c53dfa8a20c023065", "is_reserved": 0, "name": "52dab8756c906e3c53dfa8a20c023065", "lat": 38.914654, "fusion_lat": 0.0, "lon": -77.04559933333333, "is_disabled": 0, "fusion_lon": 0.0, "rental_uris": {"android": "https://dc.lft.to/lastmile_qr_scan", "ios": "https://dc.lft.to/lastmile_qr_scan"}, "type": "electric_scooter"}, {"bike_id": "85bfea26f767c6d1f32d466beffb5de0", "is_reserved": 0, "name": "85bfea26f767c6d1f32d466beffb5de0", "lat": 38.92725, "fusion_lat": 0.0, "lon": -77.02778033333334, "is_disabled": 0, "fusion_lon": 0.0, "rental_uris": {"android": "https://dc.lft.to/lastmile_qr_scan", "ios": "https://dc.lft.to/lastmile_qr_scan"}, "type": "electric_scooter"}, {"bike_id": "c22a7b1ce4e414136fc1c649d35c9e8f", "is_reserved": 0, "name": "c22a7b1ce4e414136fc1c649d35c9e8f", "lat": 38.966741666666664, "fusion_lat": 0.0, "lon": -77.0229035, "is_disabled": 0, "fusion_lon": 0.0, "rental_uris": {"android": "https://dc.lft.to/lastmile_qr_scan", "ios": "https://dc.lft.to/lastmile_qr_scan"}, "type": "electric_bike"}, {"bike_id": "0d39e4a62111f6cd501d43565eca947d", "is_reserved": 0, "name": "0d39e4a62111f6cd501d43565eca947d", "lat": 38.923415166666665, "fusion_lat": 0.0, "lon": -77.04706916666666, "is_disabled": 0, "fusion_lon": 0.0, "rental_uris": {"android": "https://dc.lft.to/lastmile_qr_scan", "ios": "https://dc.lft.to/lastmile_qr_scan"}, "type": "electric_scooter"}, {"bike_id": "7c77f8fd816e2fe7fb57be7b0f21deee", "is_reserved": 0, "name": "7c77f8fd816e2fe7fb57be7b0f21deee", "lat": 38.901383333333335, "fusion_lat": 0.0, "lon": -77.0546945, "is_disabled": 0, "fusion_lon": 0.0, "rental_uris": {"android": "https://dc.lft.to/lastmile_qr_scan", "ios": "https://dc.lft.to/lastmile_qr_scan"}, "type": "electric_scooter"}, {"bike_id": "2b8314bc7b500ff6f1e8839ac5af0724", "is_reserved": 0, "name": "2b8314bc7b500ff6f1e8839ac5af0724", "lat": 38.90095616666667, "fusion_lat": 0.0, "lon": -77.0569495, "is_disabled": 0, "fusion_lon": 0.0, "rental_uris": {"android": "https://dc.lft.to/lastmile_qr_scan", "ios": "https://dc.lft.to/lastmile_qr_scan"}, "type": "electric_scooter"}, {"bike_id": "11b639f42dc7630a3e8475450b3691c5", "is_reserved": 0, "name": "11b639f42dc7630a3e8475450b3691c5", "lat": 38.907373666666665, "fusion_lat": 0.0, "lon": -77.0294595, "is_disabled": 0, "fusion_lon": 0.0, "rental_uris": {"android": "https://dc.lft.to/lastmile_qr_scan", "ios": "https://dc.lft.to/lastmile_qr_scan"}, "type": "electric_scooter"}, {"bike_id": "0a4a0b60250bfaa80f44f890a52fc57d", "is_reserved": 0, "name": "0a4a0b60250bfaa80f44f890a52fc57d", "lat": 38.9104585, "fusion_lat": 0.0, "lon": -77.042651, "is_disabled": 0, "fusion_lon": 0.0, "rental_uris": {"android": "https://dc.lft.to/lastmile_qr_scan", "ios": "https://dc.lft.to/lastmile_qr_scan"}, "type": "electric_scooter"}, {"bike_id": "5716380d1507f854b8bdc2a692eb3b00", "is_reserved": 0, "name": "5716380d1507f854b8bdc2a692eb3b00", "lat": 38.905666333333336, "fusion_lat": 0.0, "lon": -76.9814495, "is_disabled": 0, "fusion_lon": 0.0, "rental_uris": {"android": "https://dc.lft.to/lastmile_qr_scan", "ios": "https://dc.lft.to/lastmile_qr_scan"}, "type": "electric_scooter"}, {"bike_id": "ecf8be01d1a4c631fefdd199f25428a5", "is_reserved": 0, "name": "ecf8be01d1a4c631fefdd199f25428a5", "lat": 38.901984166666665, "fusion_lat": 0.0, "lon": -77.0237625, "is_disabled": 0, "fusion_lon": 0.0, "rental_uris": {"android": "https://dc.lft.to/lastmile_qr_scan", "ios": "https://dc.lft.to/lastmile_qr_scan"}, "type": "electric_scooter"}, {"bike_id": "e991620e7ae61c6141596d2e6a5850a5", "is_reserved": 0, "name": "e991620e7ae61c6141596d2e6a5850a5", "lat": 38.909746, "fusion_lat": 0.0, "lon": -77.03421016666667, "is_disabled": 0, "fusion_lon": 0.0, "rental_uris": {"android": "https://dc.lft.to/lastmile_qr_scan", "ios": "https://dc.lft.to/lastmile_qr_scan"}, "type": "electric_scooter"}, {"bike_id": "97cd91361508d34bfac4240b81c8674c", "is_reserved": 0, "name": "97cd91361508d34bfac4240b81c8674c", "lat": 38.878379, "fusion_lat": 0.0, "lon": -76.98351166666667, "is_disabled": 0, "fusion_lon": 0.0, "rental_uris": {"android": "https://dc.lft.to/lastmile_qr_scan", "ios": "https://dc.lft.to/lastmile_qr_scan"}, "type": "electric_bike"}, {"bike_id": "2cc50783330fe77976d1b72d8b352090", "is_reserved": 0, "name": "2cc50783330fe77976d1b72d8b352090", "lat": 38.89739983333333, "fusion_lat": 0.0, "lon": -77.02440516666667, "is_disabled": 0, "fusion_lon": 0.0, "rental_uris": {"android": "https://dc.lft.to/lastmile_qr_scan", "ios": "https://dc.lft.to/lastmile_qr_scan"}, "type": "electric_scooter"}, {"bike_id": "66c11e96971662c58307d32d4c38152a", "is_reserved": 0, "name": "66c11e96971662c58307d32d4c38152a", "lat": 38.9248155, "fusion_lat": 0.0, "lon": -77.233638, "is_disabled": 0, "fusion_lon": 0.0, "rental_uris": {"android": "https://dc.lft.to/lastmile_qr_scan", "ios": "https://dc.lft.to/lastmile_qr_scan"}, "type": "electric_bike"}, {"bike_id": "044d680b1a7988469e2e80dff1c12711", "is_reserved": 0, "name": "044d680b1a7988469e2e80dff1c12711", "lat": 38.930583166666665, "fusion_lat": 0.0, "lon": -77.02320266666666, "is_disabled": 0, "fusion_lon": 0.0, "rental_uris": {"android": "https://dc.lft.to/lastmile_qr_scan", "ios": "https://dc.lft.to/lastmile_qr_scan"}, "type": "electric_scooter"}, {"bike_id": "0156423be3645deab4e1baf035bbed97", "is_reserved": 0, "name": "0156423be3645deab4e1baf035bbed97", "lat": 38.927687, "fusion_lat": 0.0, "lon": -76.97347216666667, "is_disabled": 0, "fusion_lon": 0.0, "rental_uris": {"android": "https://dc.lft.to/lastmile_qr_scan", "ios": "https://dc.lft.to/lastmile_qr_scan"}, "type": "electric_scooter"}, {"bike_id": "be5a643474a295b956f5e2333de9ae5e", "is_reserved": 0, "name": "be5a643474a295b956f5e2333de9ae5e", "lat": 38.862641333333336, "fusion_lat": 0.0, "lon": -76.98351966666667, "is_disabled": 0, "fusion_lon": 0.0, "rental_uris": {"android": "https://dc.lft.to/lastmile_qr_scan", "ios": "https://dc.lft.to/lastmile_qr_scan"}, "type": "electric_bike"}, {"bike_id": "45854df8f137167eab55dd673de50f2e", "is_reserved": 0, "name": "45854df8f137167eab55dd673de50f2e", "lat": 38.906682, "fusion_lat": 0.0, "lon": -77.02708116666666, "is_disabled": 0, "fusion_lon": 0.0, "rental_uris": {"android": "https://dc.lft.to/lastmile_qr_scan", "ios": "https://dc.lft.to/lastmile_qr_scan"}, "type": "electric_scooter"}, {"bike_id": "96478195f2106c097520403b06c2da85", "is_reserved": 0, "name": "96478195f2106c097520403b06c2da85", "lat": 38.911029, "fusion_lat": 0.0, "lon": -77.0419975, "is_disabled": 0, "fusion_lon": 0.0, "rental_uris": {"android": "https://dc.lft.to/lastmile_qr_scan", "ios": "https://dc.lft.to/lastmile_qr_scan"}, "type": "electric_scooter"}, {"bike_id": "48d91ccc511f1292ed60a23e16cded46", "is_reserved": 0, "name": "48d91ccc511f1292ed60a23e16cded46", "lat": 38.88385016666667, "fusion_lat": 0.0, "lon": -77.00876816666667, "is_disabled": 0, "fusion_lon": 0.0, "rental_uris": {"android": "https://dc.lft.to/lastmile_qr_scan", "ios": "https://dc.lft.to/lastmile_qr_scan"}, "type": "electric_scooter"}, {"bike_id": "7c0ef8f38cf0fad5220412fd27163e74", "is_reserved": 0, "name": "7c0ef8f38cf0fad5220412fd27163e74", "lat": 38.9037655, "fusion_lat": 0.0, "lon": -77.05073916666667, "is_disabled": 0, "fusion_lon": 0.0, "rental_uris": {"android": "https://dc.lft.to/lastmile_qr_scan", "ios": "https://dc.lft.to/lastmile_qr_scan"}, "type": "electric_scooter"}, {"bike_id": "58bd0b98d17954aaa4c0f35e267110e5", "is_reserved": 0, "name": "58bd0b98d17954aaa4c0f35e267110e5", "lat": 38.90502983333333, "fusion_lat": 0.0, "lon": -77.0295435, "is_disabled": 0, "fusion_lon": 0.0, "rental_uris": {"android": "https://dc.lft.to/lastmile_qr_scan", "ios": "https://dc.lft.to/lastmile_qr_scan"}, "type": "electric_scooter"}, {"bike_id": "61ff251074e7acdf9454697f38ddef35", "is_reserved": 0, "name": "61ff251074e7acdf9454697f38ddef35", "lat": 38.887293, "fusion_lat": 0.0, "lon": -76.9835415, "is_disabled": 0, "fusion_lon": 0.0, "rental_uris": {"android": "https://dc.lft.to/lastmile_qr_scan", "ios": "https://dc.lft.to/lastmile_qr_scan"}, "type": "electric_scooter"}, {"bike_id": "cb315efb2ed1acbfe9caeb09c24b014a", "is_reserved": 0, "name": "cb315efb2ed1acbfe9caeb09c24b014a", "lat": 38.914215, "fusion_lat": 0.0, "lon": -77.01798916666667, "is_disabled": 0, "fusion_lon": 0.0, "rental_uris": {"android": "https://dc.lft.to/lastmile_qr_scan", "ios": "https://dc.lft.to/lastmile_qr_scan"}, "type": "electric_scooter"}, {"bike_id": "b1e96da1ab744d451c3c1103f2512431", "is_reserved": 0, "name": "b1e96da1ab744d451c3c1103f2512431", "lat": 38.911136, "fusion_lat": 0.0, "lon": -77.04083866666667, "is_disabled": 0, "fusion_lon": 0.0, "rental_uris": {"android": "https://dc.lft.to/lastmile_qr_scan", "ios": "https://dc.lft.to/lastmile_qr_scan"}, "type": "electric_scooter"}, {"bike_id": "03f27b1b0039afad2c60e277c0e0135f", "is_reserved": 0, "name": "03f27b1b0039afad2c60e277c0e0135f", "lat": 38.855220333333335, "fusion_lat": 0.0, "lon": -76.98438, "is_disabled": 0, "fusion_lon": 0.0, "rental_uris": {"android": "https://dc.lft.to/lastmile_qr_scan", "ios": "https://dc.lft.to/lastmile_qr_scan"}, "type": "electric_bike"}, {"bike_id": "9070fae837dd8885caf4aad320bb9488", "is_reserved": 0, "name": "9070fae837dd8885caf4aad320bb9488", "lat": 38.916980833333334, "fusion_lat": 0.0, "lon": -77.03085966666667, "is_disabled": 0, "fusion_lon": 0.0, "rental_uris": {"android": "https://dc.lft.to/lastmile_qr_scan", "ios": "https://dc.lft.to/lastmile_qr_scan"}, "type": "electric_scooter"}, {"bike_id": "a23a34372060550d044001c78e7daded", "is_reserved": 0, "name": "a23a34372060550d044001c78e7daded", "lat": 38.897119, "fusion_lat": 0.0, "lon": -77.02714266666666, "is_disabled": 0, "fusion_lon": 0.0, "rental_uris": {"android": "https://dc.lft.to/lastmile_qr_scan", "ios": "https://dc.lft.to/lastmile_qr_scan"}, "type": "electric_scooter"}, {"bike_id": "78339f13ff367f343f19faf59de8dd02", "is_reserved": 0, "name": "78339f13ff367f343f19faf59de8dd02", "lat": 38.92484983333333, "fusion_lat": 0.0, "lon": -77.022665, "is_disabled": 0, "fusion_lon": 0.0, "rental_uris": {"android": "https://dc.lft.to/lastmile_qr_scan", "ios": "https://dc.lft.to/lastmile_qr_scan"}, "type": "electric_scooter"}, {"bike_id": "2f41cd89439379a8512ed115dc26b091", "is_reserved": 0, "name": "2f41cd89439379a8512ed115dc26b091", "lat": 38.89666866666666, "fusion_lat": 0.0, "lon": -76.9883795, "is_disabled": 0, "fusion_lon": 0.0, "rental_uris": {"android": "https://dc.lft.to/lastmile_qr_scan", "ios": "https://dc.lft.to/lastmile_qr_scan"}, "type": "electric_scooter"}, {"bike_id": "8301cf56050b3a33f2c27b8db26fc975", "is_reserved": 0, "name": "8301cf56050b3a33f2c27b8db26fc975", "lat": 38.88387866666667, "fusion_lat": 0.0, "lon": -76.93049033333334, "is_disabled": 0, "fusion_lon": 0.0, "rental_uris": {"android": "https://dc.lft.to/lastmile_qr_scan", "ios": "https://dc.lft.to/lastmile_qr_scan"}, "type": "electric_scooter"}, {"bike_id": "38ece74a6163410b933b9eae14532ce8", "is_reserved": 0, "name": "38ece74a6163410b933b9eae14532ce8", "lat": 38.915874333333335, "fusion_lat": 0.0, "lon": -77.04170583333334, "is_disabled": 0, "fusion_lon": 0.0, "rental_uris": {"android": "https://dc.lft.to/lastmile_qr_scan", "ios": "https://dc.lft.to/lastmile_qr_scan"}, "type": "electric_scooter"}, {"bike_id": "3ea2194c2373f30cc70729e54c94e00b", "is_reserved": 0, "name": "3ea2194c2373f30cc70729e54c94e00b", "lat": 38.92120166666667, "fusion_lat": 0.0, "lon": -77.01211083333334, "is_disabled": 0, "fusion_lon": 0.0, "rental_uris": {"android": "https://dc.lft.to/lastmile_qr_scan", "ios": "https://dc.lft.to/lastmile_qr_scan"}, "type": "electric_scooter"}, {"bike_id": "016a822f287bd050d950e451961ed1f0", "is_reserved": 0, "name": "016a822f287bd050d950e451961ed1f0", "lat": 38.9096795, "fusion_lat": 0.0, "lon": -77.03460383333334, "is_disabled": 0, "fusion_lon": 0.0, "rental_uris": {"android": "https://dc.lft.to/lastmile_qr_scan", "ios": "https://dc.lft.to/lastmile_qr_scan"}, "type": "electric_scooter"}, {"bike_id": "430c2a792e6679e4881a5cf2adc7f326", "is_reserved": 0, "name": "430c2a792e6679e4881a5cf2adc7f326", "lat": 38.928248333333336, "fusion_lat": 0.0, "lon": -77.02252433333334, "is_disabled": 0, "fusion_lon": 0.0, "rental_uris": {"android": "https://dc.lft.to/lastmile_qr_scan", "ios": "https://dc.lft.to/lastmile_qr_scan"}, "type": "electric_scooter"}, {"bike_id": "d00e67e10725cdf3b03db85e6e24005f", "is_reserved": 0, "name": "d00e67e10725cdf3b03db85e6e24005f", "lat": 38.922558, "fusion_lat": 0.0, "lon": -77.01927783333333, "is_disabled": 0, "fusion_lon": 0.0, "rental_uris": {"android": "https://dc.lft.to/lastmile_qr_scan", "ios": "https://dc.lft.to/lastmile_qr_scan"}, "type": "electric_scooter"}, {"bike_id": "08bc0dd8265b761307975f681987345b", "is_reserved": 0, "name": "08bc0dd8265b761307975f681987345b", "lat": 38.92612116666667, "fusion_lat": 0.0, "lon": -77.02159016666667, "is_disabled": 0, "fusion_lon": 0.0, "rental_uris": {"android": "https://dc.lft.to/lastmile_qr_scan", "ios": "https://dc.lft.to/lastmile_qr_scan"}, "type": "electric_scooter"}, {"bike_id": "f2a7d798957d62285e5e26eecacb49a1", "is_reserved": 0, "name": "f2a7d798957d62285e5e26eecacb49a1", "lat": 38.922739666666665, "fusion_lat": 0.0, "lon": -76.99777316666666, "is_disabled": 0, "fusion_lon": 0.0, "rental_uris": {"android": "https://dc.lft.to/lastmile_qr_scan", "ios": "https://dc.lft.to/lastmile_qr_scan"}, "type": "electric_scooter"}, {"bike_id": "d2f51a354e0fdf27455cf7bde2eac8d1", "is_reserved": 0, "name": "d2f51a354e0fdf27455cf7bde2eac8d1", "lat": 38.93425516666667, "fusion_lat": 0.0, "lon": -77.03997866666667, "is_disabled": 0, "fusion_lon": 0.0, "rental_uris": {"android": "https://dc.lft.to/lastmile_qr_scan", "ios": "https://dc.lft.to/lastmile_qr_scan"}, "type": "electric_scooter"}, {"bike_id": "d19f592a842921be7c127c66686742ba", "is_reserved": 0, "name": "d19f592a842921be7c127c66686742ba", "lat": 38.9003745, "fusion_lat": 0.0, "lon": -77.0164255, "is_disabled": 0, "fusion_lon": 0.0, "rental_uris": {"android": "https://dc.lft.to/lastmile_qr_scan", "ios": "https://dc.lft.to/lastmile_qr_scan"}, "type": "electric_scooter"}, {"bike_id": "f448611acc688b8ebbe457b614d2eb76", "is_reserved": 0, "name": "f448611acc688b8ebbe457b614d2eb76", "lat": 38.90126166666667, "fusion_lat": 0.0, "lon": -77.04421416666666, "is_disabled": 0, "fusion_lon": 0.0, "rental_uris": {"android": "https://dc.lft.to/lastmile_qr_scan", "ios": "https://dc.lft.to/lastmile_qr_scan"}, "type": "electric_scooter"}, {"bike_id": "b8e405e5044a23791d9ea640b0baa338", "is_reserved": 0, "name": "b8e405e5044a23791d9ea640b0baa338", "lat": 38.892322666666665, "fusion_lat": 0.0, "lon": -77.02751866666667, "is_disabled": 0, "fusion_lon": 0.0, "rental_uris": {"android": "https://dc.lft.to/lastmile_qr_scan", "ios": "https://dc.lft.to/lastmile_qr_scan"}, "type": "electric_scooter"}, {"bike_id": "425ad54339ca16ad1121c4bcfb580cab", "is_reserved": 0, "name": "425ad54339ca16ad1121c4bcfb580cab", "lat": 38.92342416666666, "fusion_lat": 0.0, "lon": -77.05173883333333, "is_disabled": 0, "fusion_lon": 0.0, "rental_uris": {"android": "https://dc.lft.to/lastmile_qr_scan", "ios": "https://dc.lft.to/lastmile_qr_scan"}, "type": "electric_scooter"}, {"bike_id": "f59f2e3f98d8bf448dbb2359764df1e0", "is_reserved": 0, "name": "f59f2e3f98d8bf448dbb2359764df1e0", "lat": 38.9148385, "fusion_lat": 0.0, "lon": -77.02575633333333, "is_disabled": 0, "fusion_lon": 0.0, "rental_uris": {"android": "https://dc.lft.to/lastmile_qr_scan", "ios": "https://dc.lft.to/lastmile_qr_scan"}, "type": "electric_scooter"}, {"bike_id": "21fcf15a4e544211cebed0ca1be9470f", "is_reserved": 0, "name": "21fcf15a4e544211cebed0ca1be9470f", "lat": 38.90135566666667, "fusion_lat": 0.0, "lon": -77.01653383333333, "is_disabled": 0, "fusion_lon": 0.0, "rental_uris": {"android": "https://dc.lft.to/lastmile_qr_scan", "ios": "https://dc.lft.to/lastmile_qr_scan"}, "type": "electric_scooter"}, {"bike_id": "c52da7cce894aa3adb0ba53edf01e972", "is_reserved": 0, "name": "c52da7cce894aa3adb0ba53edf01e972", "lat": 38.912049833333334, "fusion_lat": 0.0, "lon": -77.038518, "is_disabled": 0, "fusion_lon": 0.0, "rental_uris": {"android": "https://dc.lft.to/lastmile_qr_scan", "ios": "https://dc.lft.to/lastmile_qr_scan"}, "type": "electric_scooter"}, {"bike_id": "ff3ba9ab1d5f2fbe5936eb5627ffee11", "is_reserved": 0, "name": "ff3ba9ab1d5f2fbe5936eb5627ffee11", "lat": 38.914792, "fusion_lat": 0.0, "lon": -77.04607833333333, "is_disabled": 0, "fusion_lon": 0.0, "rental_uris": {"android": "https://dc.lft.to/lastmile_qr_scan", "ios": "https://dc.lft.to/lastmile_qr_scan"}, "type": "electric_scooter"}, {"bike_id": "89ad9d3328d10237bc1221b9942615c6", "is_reserved": 0, "name": "89ad9d3328d10237bc1221b9942615c6", "lat": 38.8922265, "fusion_lat": 0.0, "lon": -77.02646483333334, "is_disabled": 0, "fusion_lon": 0.0, "rental_uris": {"android": "https://dc.lft.to/lastmile_qr_scan", "ios": "https://dc.lft.to/lastmile_qr_scan"}, "type": "electric_scooter"}, {"bike_id": "c364efe7d4b49897dbba08dd6095ae71", "is_reserved": 0, "name": "c364efe7d4b49897dbba08dd6095ae71", "lat": 38.9247745, "fusion_lat": 0.0, "lon": -77.02657666666667, "is_disabled": 0, "fusion_lon": 0.0, "rental_uris": {"android": "https://dc.lft.to/lastmile_qr_scan", "ios": "https://dc.lft.to/lastmile_qr_scan"}, "type": "electric_scooter"}, {"bike_id": "320ee61e0b3df10bf1ee9a9343180322", "is_reserved": 0, "name": "320ee61e0b3df10bf1ee9a9343180322", "lat": 38.9035475, "fusion_lat": 0.0, "lon": -77.005738, "is_disabled": 0, "fusion_lon": 0.0, "rental_uris": {"android": "https://dc.lft.to/lastmile_qr_scan", "ios": "https://dc.lft.to/lastmile_qr_scan"}, "type": "electric_scooter"}, {"bike_id": "597a70200ab19aa654d1eb2c59978386", "is_reserved": 0, "name": "597a70200ab19aa654d1eb2c59978386", "lat": 38.924219666666666, "fusion_lat": 0.0, "lon": -77.019663, "is_disabled": 0, "fusion_lon": 0.0, "rental_uris": {"android": "https://dc.lft.to/lastmile_qr_scan", "ios": "https://dc.lft.to/lastmile_qr_scan"}, "type": "electric_scooter"}, {"bike_id": "9353f80a73dcf00ccfc37fbb50d9b416", "is_reserved": 0, "name": "9353f80a73dcf00ccfc37fbb50d9b416", "lat": 38.901017833333334, "fusion_lat": 0.0, "lon": -76.99382016666667, "is_disabled": 0, "fusion_lon": 0.0, "rental_uris": {"android": "https://dc.lft.to/lastmile_qr_scan", "ios": "https://dc.lft.to/lastmile_qr_scan"}, "type": "electric_scooter"}, {"bike_id": "90d65c34220d6059007485319cdc3d02", "is_reserved": 0, "name": "90d65c34220d6059007485319cdc3d02", "lat": 38.900045666666664, "fusion_lat": 0.0, "lon": -77.00615666666667, "is_disabled": 0, "fusion_lon": 0.0, "rental_uris": {"android": "https://dc.lft.to/lastmile_qr_scan", "ios": "https://dc.lft.to/lastmile_qr_scan"}, "type": "electric_bike"}, {"bike_id": "cacecf2a20ae33c496175c755ea793f3", "is_reserved": 0, "name": "cacecf2a20ae33c496175c755ea793f3", "lat": 38.89220866666667, "fusion_lat": 0.0, "lon": -77.02628116666666, "is_disabled": 0, "fusion_lon": 0.0, "rental_uris": {"android": "https://dc.lft.to/lastmile_qr_scan", "ios": "https://dc.lft.to/lastmile_qr_scan"}, "type": "electric_scooter"}, {"bike_id": "88e196ba44c22725da685dadba55a446", "is_reserved": 0, "name": "88e196ba44c22725da685dadba55a446", "lat": 38.903953666666666, "fusion_lat": 0.0, "lon": -77.0680535, "is_disabled": 0, "fusion_lon": 0.0, "rental_uris": {"android": "https://dc.lft.to/lastmile_qr_scan", "ios": "https://dc.lft.to/lastmile_qr_scan"}, "type": "electric_scooter"}, {"bike_id": "d779f9f39e6e5b526c4bdf061e9b8195", "is_reserved": 0, "name": "d779f9f39e6e5b526c4bdf061e9b8195", "lat": 38.90455, "fusion_lat": 0.0, "lon": -77.0016185, "is_disabled": 0, "fusion_lon": 0.0, "rental_uris": {"android": "https://dc.lft.to/lastmile_qr_scan", "ios": "https://dc.lft.to/lastmile_qr_scan"}, "type": "electric_scooter"}, {"bike_id": "7a13401faf95612b5371edf2c49bbcc1", "is_reserved": 0, "name": "7a13401faf95612b5371edf2c49bbcc1", "lat": 38.92252633333333, "fusion_lat": 0.0, "lon": -77.035185, "is_disabled": 0, "fusion_lon": 0.0, "rental_uris": {"android": "https://dc.lft.to/lastmile_qr_scan", "ios": "https://dc.lft.to/lastmile_qr_scan"}, "type": "electric_scooter"}, {"bike_id": "d27e75561921f06f2a30403a599724e4", "is_reserved": 0, "name": "d27e75561921f06f2a30403a599724e4", "lat": 38.8770785, "fusion_lat": 0.0, "lon": -76.99689916666667, "is_disabled": 0, "fusion_lon": 0.0, "rental_uris": {"android": "https://dc.lft.to/lastmile_qr_scan", "ios": "https://dc.lft.to/lastmile_qr_scan"}, "type": "electric_scooter"}, {"bike_id": "90ccd93f4f91b69c5e0a6ed799aac1cf", "is_reserved": 0, "name": "90ccd93f4f91b69c5e0a6ed799aac1cf", "lat": 38.9060065, "fusion_lat": 0.0, "lon": -77.05685416666667, "is_disabled": 0, "fusion_lon": 0.0, "rental_uris": {"android": "https://dc.lft.to/lastmile_qr_scan", "ios": "https://dc.lft.to/lastmile_qr_scan"}, "type": "electric_scooter"}, {"bike_id": "eb8db8613a50c791ff900728751d7b2f", "is_reserved": 0, "name": "eb8db8613a50c791ff900728751d7b2f", "lat": 38.88536216666667, "fusion_lat": 0.0, "lon": -77.00061316666667, "is_disabled": 0, "fusion_lon": 0.0, "rental_uris": {"android": "https://dc.lft.to/lastmile_qr_scan", "ios": "https://dc.lft.to/lastmile_qr_scan"}, "type": "electric_scooter"}, {"bike_id": "9564563ee6ac15727f40a505d134c659", "is_reserved": 0, "name": "9564563ee6ac15727f40a505d134c659", "lat": 38.895461, "fusion_lat": 0.0, "lon": -76.99007383333333, "is_disabled": 0, "fusion_lon": 0.0, "rental_uris": {"android": "https://dc.lft.to/lastmile_qr_scan", "ios": "https://dc.lft.to/lastmile_qr_scan"}, "type": "electric_scooter"}, {"bike_id": "eb28a44ef1c559010451a2440cfa145c", "is_reserved": 0, "name": "eb28a44ef1c559010451a2440cfa145c", "lat": 38.94294, "fusion_lat": 0.0, "lon": -77.02170466666666, "is_disabled": 0, "fusion_lon": 0.0, "rental_uris": {"android": "https://dc.lft.to/lastmile_qr_scan", "ios": "https://dc.lft.to/lastmile_qr_scan"}, "type": "electric_scooter"}, {"bike_id": "28d5e34aa9a5d164c9656a5b8ad91ed5", "is_reserved": 0, "name": "28d5e34aa9a5d164c9656a5b8ad91ed5", "lat": 38.92867533333333, "fusion_lat": 0.0, "lon": -77.0328065, "is_disabled": 0, "fusion_lon": 0.0, "rental_uris": {"android": "https://dc.lft.to/lastmile_qr_scan", "ios": "https://dc.lft.to/lastmile_qr_scan"}, "type": "electric_scooter"}, {"bike_id": "f9763ab950c3f50480f607481274a3f1", "is_reserved": 0, "name": "f9763ab950c3f50480f607481274a3f1", "lat": 38.931987166666666, "fusion_lat": 0.0, "lon": -77.030526, "is_disabled": 0, "fusion_lon": 0.0, "rental_uris": {"android": "https://dc.lft.to/lastmile_qr_scan", "ios": "https://dc.lft.to/lastmile_qr_scan"}, "type": "electric_scooter"}, {"bike_id": "5bf25c26de680b6bbb7ea2a20d889211", "is_reserved": 0, "name": "5bf25c26de680b6bbb7ea2a20d889211", "lat": 38.904621166666665, "fusion_lat": 0.0, "lon": -77.06290216666666, "is_disabled": 0, "fusion_lon": 0.0, "rental_uris": {"android": "https://dc.lft.to/lastmile_qr_scan", "ios": "https://dc.lft.to/lastmile_qr_scan"}, "type": "electric_scooter"}, {"bike_id": "48b7522e23ad96f2e00e88c3417b72db", "is_reserved": 0, "name": "48b7522e23ad96f2e00e88c3417b72db", "lat": 38.87223016666667, "fusion_lat": 0.0, "lon": -77.012166, "is_disabled": 0, "fusion_lon": 0.0, "rental_uris": {"android": "https://dc.lft.to/lastmile_qr_scan", "ios": "https://dc.lft.to/lastmile_qr_scan"}, "type": "electric_scooter"}, {"bike_id": "ac34bd2b0ff083630c25d9eafbcecd83", "is_reserved": 0, "name": "ac34bd2b0ff083630c25d9eafbcecd83", "lat": 38.916927, "fusion_lat": 0.0, "lon": -77.03212066666667, "is_disabled": 0, "fusion_lon": 0.0, "rental_uris": {"android": "https://dc.lft.to/lastmile_qr_scan", "ios": "https://dc.lft.to/lastmile_qr_scan"}, "type": "electric_scooter"}, {"bike_id": "6a862727e652069b7e20d05dac5583db", "is_reserved": 0, "name": "6a862727e652069b7e20d05dac5583db", "lat": 38.9246005, "fusion_lat": 0.0, "lon": -77.022351, "is_disabled": 0, "fusion_lon": 0.0, "rental_uris": {"android": "https://dc.lft.to/lastmile_qr_scan", "ios": "https://dc.lft.to/lastmile_qr_scan"}, "type": "electric_scooter"}, {"bike_id": "5ce15c181ee65ef1249f23be607626b0", "is_reserved": 0, "name": "5ce15c181ee65ef1249f23be607626b0", "lat": 38.921010333333335, "fusion_lat": 0.0, "lon": -77.025132, "is_disabled": 0, "fusion_lon": 0.0, "rental_uris": {"android": "https://dc.lft.to/lastmile_qr_scan", "ios": "https://dc.lft.to/lastmile_qr_scan"}, "type": "electric_scooter"}, {"bike_id": "2a222f177be2bcf23c0709d0e46a392b", "is_reserved": 0, "name": "2a222f177be2bcf23c0709d0e46a392b", "lat": 38.883458166666664, "fusion_lat": 0.0, "lon": -76.93501716666667, "is_disabled": 0, "fusion_lon": 0.0, "rental_uris": {"android": "https://dc.lft.to/lastmile_qr_scan", "ios": "https://dc.lft.to/lastmile_qr_scan"}, "type": "electric_scooter"}, {"bike_id": "4ede3e675459262e8a087d5e7ef5c272", "is_reserved": 0, "name": "4ede3e675459262e8a087d5e7ef5c272", "lat": 38.89754816666667, "fusion_lat": 0.0, "lon": -77.03329283333333, "is_disabled": 0, "fusion_lon": 0.0, "rental_uris": {"android": "https://dc.lft.to/lastmile_qr_scan", "ios": "https://dc.lft.to/lastmile_qr_scan"}, "type": "electric_scooter"}, {"bike_id": "b6cdec48f241256bb3de9598f16b745a", "is_reserved": 0, "name": "b6cdec48f241256bb3de9598f16b745a", "lat": 38.923328833333336, "fusion_lat": 0.0, "lon": -77.05684883333333, "is_disabled": 0, "fusion_lon": 0.0, "rental_uris": {"android": "https://dc.lft.to/lastmile_qr_scan", "ios": "https://dc.lft.to/lastmile_qr_scan"}, "type": "electric_scooter"}, {"bike_id": "43fb63404e737ba29dd6f69c50d56227", "is_reserved": 0, "name": "43fb63404e737ba29dd6f69c50d56227", "lat": 38.94501366666667, "fusion_lat": 0.0, "lon": -77.0778785, "is_disabled": 0, "fusion_lon": 0.0, "rental_uris": {"android": "https://dc.lft.to/lastmile_qr_scan", "ios": "https://dc.lft.to/lastmile_qr_scan"}, "type": "electric_scooter"}, {"bike_id": "68eb27de169d4a41d523353881bdee1d", "is_reserved": 0, "name": "68eb27de169d4a41d523353881bdee1d", "lat": 38.90410266666667, "fusion_lat": 0.0, "lon": -76.97327733333333, "is_disabled": 0, "fusion_lon": 0.0, "rental_uris": {"android": "https://dc.lft.to/lastmile_qr_scan", "ios": "https://dc.lft.to/lastmile_qr_scan"}, "type": "electric_scooter"}, {"bike_id": "744ab702aa84e4551c5e3db7fa8f33ff", "is_reserved": 0, "name": "744ab702aa84e4551c5e3db7fa8f33ff", "lat": 38.91697816666667, "fusion_lat": 0.0, "lon": -77.0267415, "is_disabled": 0, "fusion_lon": 0.0, "rental_uris": {"android": "https://dc.lft.to/lastmile_qr_scan", "ios": "https://dc.lft.to/lastmile_qr_scan"}, "type": "electric_scooter"}, {"bike_id": "77f84976a602213b0a5b81455597b340", "is_reserved": 0, "name": "77f84976a602213b0a5b81455597b340", "lat": 38.923746333333334, "fusion_lat": 0.0, "lon": -77.03048016666666, "is_disabled": 0, "fusion_lon": 0.0, "rental_uris": {"android": "https://dc.lft.to/lastmile_qr_scan", "ios": "https://dc.lft.to/lastmile_qr_scan"}, "type": "electric_scooter"}, {"bike_id": "3d09a35b68245dfd26a4d985813c5f90", "is_reserved": 0, "name": "3d09a35b68245dfd26a4d985813c5f90", "lat": 38.85814233333333, "fusion_lat": 0.0, "lon": -76.9899015, "is_disabled": 0, "fusion_lon": 0.0, "rental_uris": {"android": "https://dc.lft.to/lastmile_qr_scan", "ios": "https://dc.lft.to/lastmile_qr_scan"}, "type": "electric_scooter"}, {"bike_id": "cda77e8fa7830e56812de046c504fe40", "is_reserved": 0, "name": "cda77e8fa7830e56812de046c504fe40", "lat": 38.87055466666666, "fusion_lat": 0.0, "lon": -77.00748383333334, "is_disabled": 0, "fusion_lon": 0.0, "rental_uris": {"android": "https://dc.lft.to/lastmile_qr_scan", "ios": "https://dc.lft.to/lastmile_qr_scan"}, "type": "electric_scooter"}, {"bike_id": "ac8c9dac92b4b340e2354cbdd162bb09", "is_reserved": 0, "name": "ac8c9dac92b4b340e2354cbdd162bb09", "lat": 38.909571, "fusion_lat": 0.0, "lon": -77.03230533333333, "is_disabled": 0, "fusion_lon": 0.0, "rental_uris": {"android": "https://dc.lft.to/lastmile_qr_scan", "ios": "https://dc.lft.to/lastmile_qr_scan"}, "type": "electric_scooter"}, {"bike_id": "58b5fc8f17c6c92cc8b59a861bb75356", "is_reserved": 0, "name": "58b5fc8f17c6c92cc8b59a861bb75356", "lat": 38.9247665, "fusion_lat": 0.0, "lon": -77.02653233333334, "is_disabled": 0, "fusion_lon": 0.0, "rental_uris": {"android": "https://dc.lft.to/lastmile_qr_scan", "ios": "https://dc.lft.to/lastmile_qr_scan"}, "type": "electric_scooter"}, {"bike_id": "ad0ea0ff2345608a995d3a37146c65d5", "is_reserved": 0, "name": "ad0ea0ff2345608a995d3a37146c65d5", "lat": 38.923394, "fusion_lat": 0.0, "lon": -77.05222383333333, "is_disabled": 0, "fusion_lon": 0.0, "rental_uris": {"android": "https://dc.lft.to/lastmile_qr_scan", "ios": "https://dc.lft.to/lastmile_qr_scan"}, "type": "electric_scooter"}, {"bike_id": "a75e941b778d1dde49935a3664539880", "is_reserved": 0, "name": "a75e941b778d1dde49935a3664539880", "lat": 38.940197166666664, "fusion_lat": 0.0, "lon": -76.9760695, "is_disabled": 0, "fusion_lon": 0.0, "rental_uris": {"android": "https://dc.lft.to/lastmile_qr_scan", "ios": "https://dc.lft.to/lastmile_qr_scan"}, "type": "electric_bike"}, {"bike_id": "0605ba7bf8ad9aeee45cf50f4ebae5b2", "is_reserved": 0, "name": "0605ba7bf8ad9aeee45cf50f4ebae5b2", "lat": 38.95627116666667, "fusion_lat": 0.0, "lon": -77.02832866666667, "is_disabled": 0, "fusion_lon": 0.0, "rental_uris": {"android": "https://dc.lft.to/lastmile_qr_scan", "ios": "https://dc.lft.to/lastmile_qr_scan"}, "type": "electric_scooter"}, {"bike_id": "03f6459adc33e4871867d43057379f28", "is_reserved": 0, "name": "03f6459adc33e4871867d43057379f28", "lat": 38.89668983333333, "fusion_lat": 0.0, "lon": -77.02469, "is_disabled": 0, "fusion_lon": 0.0, "rental_uris": {"android": "https://dc.lft.to/lastmile_qr_scan", "ios": "https://dc.lft.to/lastmile_qr_scan"}, "type": "electric_scooter"}, {"bike_id": "ca39ed3e31e338a9cc6c0e4acb76bf6f", "is_reserved": 0, "name": "ca39ed3e31e338a9cc6c0e4acb76bf6f", "lat": 38.923410833333335, "fusion_lat": 0.0, "lon": -77.0321975, "is_disabled": 0, "fusion_lon": 0.0, "rental_uris": {"android": "https://dc.lft.to/lastmile_qr_scan", "ios": "https://dc.lft.to/lastmile_qr_scan"}, "type": "electric_scooter"}, {"bike_id": "0f8841da347aceb50b127b10773af03c", "is_reserved": 0, "name": "0f8841da347aceb50b127b10773af03c", "lat": 38.91570766666667, "fusion_lat": 0.0, "lon": -76.98405116666666, "is_disabled": 0, "fusion_lon": 0.0, "rental_uris": {"android": "https://dc.lft.to/lastmile_qr_scan", "ios": "https://dc.lft.to/lastmile_qr_scan"}, "type": "electric_scooter"}, {"bike_id": "15955fc17f8eefcfc9b2bf3be48df36f", "is_reserved": 0, "name": "15955fc17f8eefcfc9b2bf3be48df36f", "lat": 38.91651733333333, "fusion_lat": 0.0, "lon": -77.04153116666667, "is_disabled": 0, "fusion_lon": 0.0, "rental_uris": {"android": "https://dc.lft.to/lastmile_qr_scan", "ios": "https://dc.lft.to/lastmile_qr_scan"}, "type": "electric_scooter"}, {"bike_id": "114f6fe08a260cdc5d40ee0a21397f7c", "is_reserved": 0, "name": "114f6fe08a260cdc5d40ee0a21397f7c", "lat": 38.898219833333336, "fusion_lat": 0.0, "lon": -77.033429, "is_disabled": 0, "fusion_lon": 0.0, "rental_uris": {"android": "https://dc.lft.to/lastmile_qr_scan", "ios": "https://dc.lft.to/lastmile_qr_scan"}, "type": "electric_scooter"}, {"bike_id": "c74b2cb8d94dd5324ae0b23d43fb4a0c", "is_reserved": 0, "name": "c74b2cb8d94dd5324ae0b23d43fb4a0c", "lat": 38.94474183333333, "fusion_lat": 0.0, "lon": -77.02239583333333, "is_disabled": 0, "fusion_lon": 0.0, "rental_uris": {"android": "https://dc.lft.to/lastmile_qr_scan", "ios": "https://dc.lft.to/lastmile_qr_scan"}, "type": "electric_bike"}, {"bike_id": "23818f7aa07d42e94315e83fa7b49e89", "is_reserved": 0, "name": "23818f7aa07d42e94315e83fa7b49e89", "lat": 38.87963666666667, "fusion_lat": 0.0, "lon": -77.005952, "is_disabled": 0, "fusion_lon": 0.0, "rental_uris": {"android": "https://dc.lft.to/lastmile_qr_scan", "ios": "https://dc.lft.to/lastmile_qr_scan"}, "type": "electric_scooter"}, {"bike_id": "d7541c2a371b99916329a32bafbdf090", "is_reserved": 0, "name": "d7541c2a371b99916329a32bafbdf090", "lat": 38.9073755, "fusion_lat": 0.0, "lon": -77.02945483333333, "is_disabled": 0, "fusion_lon": 0.0, "rental_uris": {"android": "https://dc.lft.to/lastmile_qr_scan", "ios": "https://dc.lft.to/lastmile_qr_scan"}, "type": "electric_scooter"}, {"bike_id": "3e0c67302472a1ffb2bac32e00f31c5c", "is_reserved": 0, "name": "3e0c67302472a1ffb2bac32e00f31c5c", "lat": 38.904984, "fusion_lat": 0.0, "lon": -76.97447183333334, "is_disabled": 0, "fusion_lon": 0.0, "rental_uris": {"android": "https://dc.lft.to/lastmile_qr_scan", "ios": "https://dc.lft.to/lastmile_qr_scan"}, "type": "electric_bike"}, {"bike_id": "5151780fa3d340cb1d4b21136df870cf", "is_reserved": 0, "name": "5151780fa3d340cb1d4b21136df870cf", "lat": 38.92507333333333, "fusion_lat": 0.0, "lon": -77.0379535, "is_disabled": 0, "fusion_lon": 0.0, "rental_uris": {"android": "https://dc.lft.to/lastmile_qr_scan", "ios": "https://dc.lft.to/lastmile_qr_scan"}, "type": "electric_scooter"}, {"bike_id": "0579e092cf40759ea5db317d4a691384", "is_reserved": 0, "name": "0579e092cf40759ea5db317d4a691384", "lat": 38.9014765, "fusion_lat": 0.0, "lon": -77.04631916666666, "is_disabled": 0, "fusion_lon": 0.0, "rental_uris": {"android": "https://dc.lft.to/lastmile_qr_scan", "ios": "https://dc.lft.to/lastmile_qr_scan"}, "type": "electric_scooter"}, {"bike_id": "e38034f9417472bbd95b7b7e6b45ede9", "is_reserved": 0, "name": "e38034f9417472bbd95b7b7e6b45ede9", "lat": 38.926500833333336, "fusion_lat": 0.0, "lon": -76.993163, "is_disabled": 0, "fusion_lon": 0.0, "rental_uris": {"android": "https://dc.lft.to/lastmile_qr_scan", "ios": "https://dc.lft.to/lastmile_qr_scan"}, "type": "electric_scooter"}, {"bike_id": "7e213eda3a217d3ea816702baf62b56d", "is_reserved": 0, "name": "7e213eda3a217d3ea816702baf62b56d", "lat": 39.09966416666666, "fusion_lat": 0.0, "lon": -77.18303566666667, "is_disabled": 0, "fusion_lon": 0.0, "rental_uris": {"android": "https://dc.lft.to/lastmile_qr_scan", "ios": "https://dc.lft.to/lastmile_qr_scan"}, "type": "electric_bike"}, {"bike_id": "ba77d1b0194188ed31f03d9a0ecb36b6", "is_reserved": 0, "name": "ba77d1b0194188ed31f03d9a0ecb36b6", "lat": 38.901646, "fusion_lat": 0.0, "lon": -77.02687383333334, "is_disabled": 0, "fusion_lon": 0.0, "rental_uris": {"android": "https://dc.lft.to/lastmile_qr_scan", "ios": "https://dc.lft.to/lastmile_qr_scan"}, "type": "electric_scooter"}, {"bike_id": "c1b4f751a52f7c920216c61057a72047", "is_reserved": 0, "name": "c1b4f751a52f7c920216c61057a72047", "lat": 38.92651716666667, "fusion_lat": 0.0, "lon": -77.03840183333334, "is_disabled": 0, "fusion_lon": 0.0, "rental_uris": {"android": "https://dc.lft.to/lastmile_qr_scan", "ios": "https://dc.lft.to/lastmile_qr_scan"}, "type": "electric_scooter"}, {"bike_id": "7ac43348733d2563c484efe82ab016da", "is_reserved": 0, "name": "7ac43348733d2563c484efe82ab016da", "lat": 38.87079966666667, "fusion_lat": 0.0, "lon": -77.008365, "is_disabled": 0, "fusion_lon": 0.0, "rental_uris": {"android": "https://dc.lft.to/lastmile_qr_scan", "ios": "https://dc.lft.to/lastmile_qr_scan"}, "type": "electric_scooter"}, {"bike_id": "0e9a797c0cc86db8c4c5a39a45f84ee2", "is_reserved": 0, "name": "0e9a797c0cc86db8c4c5a39a45f84ee2", "lat": 38.91465183333333, "fusion_lat": 0.0, "lon": -77.0386365, "is_disabled": 0, "fusion_lon": 0.0, "rental_uris": {"android": "https://dc.lft.to/lastmile_qr_scan", "ios": "https://dc.lft.to/lastmile_qr_scan"}, "type": "electric_scooter"}, {"bike_id": "ef4d8117a0b94ad9ca78912ba2eef473", "is_reserved": 0, "name": "ef4d8117a0b94ad9ca78912ba2eef473", "lat": 38.86997483333333, "fusion_lat": 0.0, "lon": -77.01112466666666, "is_disabled": 0, "fusion_lon": 0.0, "rental_uris": {"android": "https://dc.lft.to/lastmile_qr_scan", "ios": "https://dc.lft.to/lastmile_qr_scan"}, "type": "electric_bike"}, {"bike_id": "ebf65def2540b94fe156578980ad7901", "is_reserved": 0, "name": "ebf65def2540b94fe156578980ad7901", "lat": 38.93114833333333, "fusion_lat": 0.0, "lon": -77.0303045, "is_disabled": 0, "fusion_lon": 0.0, "rental_uris": {"android": "https://dc.lft.to/lastmile_qr_scan", "ios": "https://dc.lft.to/lastmile_qr_scan"}, "type": "electric_scooter"}, {"bike_id": "a6f483f875b44a68da61a7b12eba71b2", "is_reserved": 0, "name": "a6f483f875b44a68da61a7b12eba71b2", "lat": 38.873145, "fusion_lat": 0.0, "lon": -76.96992216666666, "is_disabled": 0, "fusion_lon": 0.0, "rental_uris": {"android": "https://dc.lft.to/lastmile_qr_scan", "ios": "https://dc.lft.to/lastmile_qr_scan"}, "type": "electric_scooter"}, {"bike_id": "7d986ddd14ba7c47b07e509e07f4ef7c", "is_reserved": 0, "name": "7d986ddd14ba7c47b07e509e07f4ef7c", "lat": 38.930722833333334, "fusion_lat": 0.0, "lon": -77.02156, "is_disabled": 0, "fusion_lon": 0.0, "rental_uris": {"android": "https://dc.lft.to/lastmile_qr_scan", "ios": "https://dc.lft.to/lastmile_qr_scan"}, "type": "electric_scooter"}, {"bike_id": "b28b37d56920571cd17e8bab8ac8cfaf", "is_reserved": 0, "name": "b28b37d56920571cd17e8bab8ac8cfaf", "lat": 38.8782085, "fusion_lat": 0.0, "lon": -77.0012285, "is_disabled": 0, "fusion_lon": 0.0, "rental_uris": {"android": "https://dc.lft.to/lastmile_qr_scan", "ios": "https://dc.lft.to/lastmile_qr_scan"}, "type": "electric_scooter"}, {"bike_id": "ac92ca2eabed5882b7b7958ba51ad95a", "is_reserved": 0, "name": "ac92ca2eabed5882b7b7958ba51ad95a", "lat": 38.853735, "fusion_lat": 0.0, "lon": -76.9652405, "is_disabled": 0, "fusion_lon": 0.0, "rental_uris": {"android": "https://dc.lft.to/lastmile_qr_scan", "ios": "https://dc.lft.to/lastmile_qr_scan"}, "type": "electric_bike"}, {"bike_id": "be89df622e8df26b7b72bae07a5f132e", "is_reserved": 0, "name": "be89df622e8df26b7b72bae07a5f132e", "lat": 38.8737425, "fusion_lat": 0.0, "lon": -77.00159683333334, "is_disabled": 0, "fusion_lon": 0.0, "rental_uris": {"android": "https://dc.lft.to/lastmile_qr_scan", "ios": "https://dc.lft.to/lastmile_qr_scan"}, "type": "electric_scooter"}, {"bike_id": "96ae70d8d10a4238b0087c45cb47bd11", "is_reserved": 0, "name": "96ae70d8d10a4238b0087c45cb47bd11", "lat": 38.892253833333335, "fusion_lat": 0.0, "lon": -77.04644016666667, "is_disabled": 0, "fusion_lon": 0.0, "rental_uris": {"android": "https://dc.lft.to/lastmile_qr_scan", "ios": "https://dc.lft.to/lastmile_qr_scan"}, "type": "electric_scooter"}, {"bike_id": "2507b0e23294afe105577562ea9abf8a", "is_reserved": 0, "name": "2507b0e23294afe105577562ea9abf8a", "lat": 38.88711816666667, "fusion_lat": 0.0, "lon": -77.025784, "is_disabled": 0, "fusion_lon": 0.0, "rental_uris": {"android": "https://dc.lft.to/lastmile_qr_scan", "ios": "https://dc.lft.to/lastmile_qr_scan"}, "type": "electric_scooter"}, {"bike_id": "1c70bfbf3e4c27d6923708489741ed58", "is_reserved": 0, "name": "1c70bfbf3e4c27d6923708489741ed58", "lat": 38.92621966666667, "fusion_lat": 0.0, "lon": -77.041907, "is_disabled": 0, "fusion_lon": 0.0, "rental_uris": {"android": "https://dc.lft.to/lastmile_qr_scan", "ios": "https://dc.lft.to/lastmile_qr_scan"}, "type": "electric_scooter"}, {"bike_id": "87ab98c2eae3c15135e1645efba211ad", "is_reserved": 0, "name": "87ab98c2eae3c15135e1645efba211ad", "lat": 38.921212833333335, "fusion_lat": 0.0, "lon": -77.23679066666666, "is_disabled": 0, "fusion_lon": 0.0, "rental_uris": {"android": "https://dc.lft.to/lastmile_qr_scan", "ios": "https://dc.lft.to/lastmile_qr_scan"}, "type": "electric_bike"}, {"bike_id": "db1c1fe76e0504dc00a9a55d8db34dd7", "is_reserved": 0, "name": "db1c1fe76e0504dc00a9a55d8db34dd7", "lat": 38.876672166666665, "fusion_lat": 0.0, "lon": -77.00304216666666, "is_disabled": 0, "fusion_lon": 0.0, "rental_uris": {"android": "https://dc.lft.to/lastmile_qr_scan", "ios": "https://dc.lft.to/lastmile_qr_scan"}, "type": "electric_scooter"}, {"bike_id": "ffed41cf4eadd41597aa04f3dfcc2005", "is_reserved": 0, "name": "ffed41cf4eadd41597aa04f3dfcc2005", "lat": 38.8698345, "fusion_lat": 0.0, "lon": -77.013679, "is_disabled": 0, "fusion_lon": 0.0, "rental_uris": {"android": "https://dc.lft.to/lastmile_qr_scan", "ios": "https://dc.lft.to/lastmile_qr_scan"}, "type": "electric_bike"}, {"bike_id": "3b1829525657a91f382047f6ccdfda6d", "is_reserved": 0, "name": "3b1829525657a91f382047f6ccdfda6d", "lat": 38.892261500000004, "fusion_lat": 0.0, "lon": -77.04893583333333, "is_disabled": 0, "fusion_lon": 0.0, "rental_uris": {"android": "https://dc.lft.to/lastmile_qr_scan", "ios": "https://dc.lft.to/lastmile_qr_scan"}, "type": "electric_scooter"}, {"bike_id": "c4d36265049f1e0579296bea293f6bb5", "is_reserved": 0, "name": "c4d36265049f1e0579296bea293f6bb5", "lat": 38.897072333333334, "fusion_lat": 0.0, "lon": -77.0213865, "is_disabled": 0, "fusion_lon": 0.0, "rental_uris": {"android": "https://dc.lft.to/lastmile_qr_scan", "ios": "https://dc.lft.to/lastmile_qr_scan"}, "type": "electric_scooter"}, {"bike_id": "cbe65b2ef86b5f3b322a2c9297e0f709", "is_reserved": 0, "name": "cbe65b2ef86b5f3b322a2c9297e0f709", "lat": 38.9157315, "fusion_lat": 0.0, "lon": -76.9838575, "is_disabled": 0, "fusion_lon": 0.0, "rental_uris": {"android": "https://dc.lft.to/lastmile_qr_scan", "ios": "https://dc.lft.to/lastmile_qr_scan"}, "type": "electric_scooter"}, {"bike_id": "28899972c5378c02d2ef6c99f20531b7", "is_reserved": 0, "name": "28899972c5378c02d2ef6c99f20531b7", "lat": 38.90359983333333, "fusion_lat": 0.0, "lon": -77.02957916666666, "is_disabled": 0, "fusion_lon": 0.0, "rental_uris": {"android": "https://dc.lft.to/lastmile_qr_scan", "ios": "https://dc.lft.to/lastmile_qr_scan"}, "type": "electric_scooter"}, {"bike_id": "546d07e42cf357ac700ab889dbda35f2", "is_reserved": 0, "name": "546d07e42cf357ac700ab889dbda35f2", "lat": 38.89904716666667, "fusion_lat": 0.0, "lon": -77.027021, "is_disabled": 0, "fusion_lon": 0.0, "rental_uris": {"android": "https://dc.lft.to/lastmile_qr_scan", "ios": "https://dc.lft.to/lastmile_qr_scan"}, "type": "electric_scooter"}, {"bike_id": "f124cfe7c0e4ab47e11253eff0fa682d", "is_reserved": 0, "name": "f124cfe7c0e4ab47e11253eff0fa682d", "lat": 38.906499, "fusion_lat": 0.0, "lon": -77.03155316666667, "is_disabled": 0, "fusion_lon": 0.0, "rental_uris": {"android": "https://dc.lft.to/lastmile_qr_scan", "ios": "https://dc.lft.to/lastmile_qr_scan"}, "type": "electric_scooter"}, {"bike_id": "7956438b14e92b01cfd84cdea9039dfd", "is_reserved": 0, "name": "7956438b14e92b01cfd84cdea9039dfd", "lat": 38.88767333333333, "fusion_lat": 0.0, "lon": -77.0237025, "is_disabled": 0, "fusion_lon": 0.0, "rental_uris": {"android": "https://dc.lft.to/lastmile_qr_scan", "ios": "https://dc.lft.to/lastmile_qr_scan"}, "type": "electric_scooter"}, {"bike_id": "d6d3a65b845c59d5881001d33d9114bc", "is_reserved": 0, "name": "d6d3a65b845c59d5881001d33d9114bc", "lat": 38.93570066666667, "fusion_lat": 0.0, "lon": -77.03260233333333, "is_disabled": 0, "fusion_lon": 0.0, "rental_uris": {"android": "https://dc.lft.to/lastmile_qr_scan", "ios": "https://dc.lft.to/lastmile_qr_scan"}, "type": "electric_scooter"}, {"bike_id": "5b57c4adb56aa559cbb983ed000d3133", "is_reserved": 0, "name": "5b57c4adb56aa559cbb983ed000d3133", "lat": 38.954697, "fusion_lat": 0.0, "lon": -77.00915516666667, "is_disabled": 0, "fusion_lon": 0.0, "rental_uris": {"android": "https://dc.lft.to/lastmile_qr_scan", "ios": "https://dc.lft.to/lastmile_qr_scan"}, "type": "electric_scooter"}, {"bike_id": "6999a3786711cfc09a74db37287c4945", "is_reserved": 0, "name": "6999a3786711cfc09a74db37287c4945", "lat": 38.92184616666667, "fusion_lat": 0.0, "lon": -77.04345766666667, "is_disabled": 0, "fusion_lon": 0.0, "rental_uris": {"android": "https://dc.lft.to/lastmile_qr_scan", "ios": "https://dc.lft.to/lastmile_qr_scan"}, "type": "electric_scooter"}, {"bike_id": "fb9014cae460891d30d9e1a6999a0b01", "is_reserved": 0, "name": "fb9014cae460891d30d9e1a6999a0b01", "lat": 38.898551499999996, "fusion_lat": 0.0, "lon": -76.95045733333333, "is_disabled": 0, "fusion_lon": 0.0, "rental_uris": {"android": "https://dc.lft.to/lastmile_qr_scan", "ios": "https://dc.lft.to/lastmile_qr_scan"}, "type": "electric_scooter"}, {"bike_id": "bd069c271d214a0a976d162ed33aefa6", "is_reserved": 0, "name": "bd069c271d214a0a976d162ed33aefa6", "lat": 38.9293885, "fusion_lat": 0.0, "lon": -77.0327305, "is_disabled": 0, "fusion_lon": 0.0, "rental_uris": {"android": "https://dc.lft.to/lastmile_qr_scan", "ios": "https://dc.lft.to/lastmile_qr_scan"}, "type": "electric_scooter"}, {"bike_id": "42bff18c2868711efbc395aed3d374b5", "is_reserved": 0, "name": "42bff18c2868711efbc395aed3d374b5", "lat": 38.9247275, "fusion_lat": 0.0, "lon": -76.97611483333333, "is_disabled": 0, "fusion_lon": 0.0, "rental_uris": {"android": "https://dc.lft.to/lastmile_qr_scan", "ios": "https://dc.lft.to/lastmile_qr_scan"}, "type": "electric_scooter"}, {"bike_id": "828b7cb6384ee3474ecf7960d997cee1", "is_reserved": 0, "name": "828b7cb6384ee3474ecf7960d997cee1", "lat": 38.86669833333333, "fusion_lat": 0.0, "lon": -76.98901116666667, "is_disabled": 0, "fusion_lon": 0.0, "rental_uris": {"android": "https://dc.lft.to/lastmile_qr_scan", "ios": "https://dc.lft.to/lastmile_qr_scan"}, "type": "electric_scooter"}, {"bike_id": "5baea48dee09c45500f35a65ce9c0789", "is_reserved": 0, "name": "5baea48dee09c45500f35a65ce9c0789", "lat": 38.900322, "fusion_lat": 0.0, "lon": -76.998476, "is_disabled": 0, "fusion_lon": 0.0, "rental_uris": {"android": "https://dc.lft.to/lastmile_qr_scan", "ios": "https://dc.lft.to/lastmile_qr_scan"}, "type": "electric_scooter"}, {"bike_id": "876d7ced6535789f31788e43c6d4fa68", "is_reserved": 0, "name": "876d7ced6535789f31788e43c6d4fa68", "lat": 38.88763433333333, "fusion_lat": 0.0, "lon": -77.0293945, "is_disabled": 0, "fusion_lon": 0.0, "rental_uris": {"android": "https://dc.lft.to/lastmile_qr_scan", "ios": "https://dc.lft.to/lastmile_qr_scan"}, "type": "electric_scooter"}, {"bike_id": "8fb88e206c91dbb341e57d65cfbb4fd6", "is_reserved": 0, "name": "8fb88e206c91dbb341e57d65cfbb4fd6", "lat": 38.90947383333334, "fusion_lat": 0.0, "lon": -77.03180383333333, "is_disabled": 0, "fusion_lon": 0.0, "rental_uris": {"android": "https://dc.lft.to/lastmile_qr_scan", "ios": "https://dc.lft.to/lastmile_qr_scan"}, "type": "electric_scooter"}, {"bike_id": "4c992af3ec9d7a90c9de9347c508d974", "is_reserved": 0, "name": "4c992af3ec9d7a90c9de9347c508d974", "lat": 38.90081383333333, "fusion_lat": 0.0, "lon": -77.04914, "is_disabled": 0, "fusion_lon": 0.0, "rental_uris": {"android": "https://dc.lft.to/lastmile_qr_scan", "ios": "https://dc.lft.to/lastmile_qr_scan"}, "type": "electric_scooter"}, {"bike_id": "339cef93ea81d0763a197291246b7ac7", "is_reserved": 0, "name": "339cef93ea81d0763a197291246b7ac7", "lat": 38.9172, "fusion_lat": 0.0, "lon": -77.02401883333333, "is_disabled": 0, "fusion_lon": 0.0, "rental_uris": {"android": "https://dc.lft.to/lastmile_qr_scan", "ios": "https://dc.lft.to/lastmile_qr_scan"}, "type": "electric_scooter"}, {"bike_id": "47c3d40fa44cf9eb0cbebaa8bc19c2c8", "is_reserved": 0, "name": "47c3d40fa44cf9eb0cbebaa8bc19c2c8", "lat": 38.89876916666667, "fusion_lat": 0.0, "lon": -77.05001383333334, "is_disabled": 0, "fusion_lon": 0.0, "rental_uris": {"android": "https://dc.lft.to/lastmile_qr_scan", "ios": "https://dc.lft.to/lastmile_qr_scan"}, "type": "electric_scooter"}, {"bike_id": "c20940e5347ed85a4cb325bdefb8f757", "is_reserved": 0, "name": "c20940e5347ed85a4cb325bdefb8f757", "lat": 38.87263766666667, "fusion_lat": 0.0, "lon": -77.01360616666666, "is_disabled": 0, "fusion_lon": 0.0, "rental_uris": {"android": "https://dc.lft.to/lastmile_qr_scan", "ios": "https://dc.lft.to/lastmile_qr_scan"}, "type": "electric_scooter"}, {"bike_id": "76c4e2fe1c1354d118bb955a3f0132b2", "is_reserved": 0, "name": "76c4e2fe1c1354d118bb955a3f0132b2", "lat": 38.894968, "fusion_lat": 0.0, "lon": -77.0035655, "is_disabled": 0, "fusion_lon": 0.0, "rental_uris": {"android": "https://dc.lft.to/lastmile_qr_scan", "ios": "https://dc.lft.to/lastmile_qr_scan"}, "type": "electric_scooter"}, {"bike_id": "f59cc0ccd5c87e98da220afb01e0147a", "is_reserved": 0, "name": "f59cc0ccd5c87e98da220afb01e0147a", "lat": 38.94254466666667, "fusion_lat": 0.0, "lon": -77.03626233333334, "is_disabled": 0, "fusion_lon": 0.0, "rental_uris": {"android": "https://dc.lft.to/lastmile_qr_scan", "ios": "https://dc.lft.to/lastmile_qr_scan"}, "type": "electric_scooter"}, {"bike_id": "e45e5354d186eb4156c650ac09f7efe9", "is_reserved": 0, "name": "e45e5354d186eb4156c650ac09f7efe9", "lat": 38.892385, "fusion_lat": 0.0, "lon": -77.04871566666667, "is_disabled": 0, "fusion_lon": 0.0, "rental_uris": {"android": "https://dc.lft.to/lastmile_qr_scan", "ios": "https://dc.lft.to/lastmile_qr_scan"}, "type": "electric_scooter"}, {"bike_id": "4e5683df27e16109e9500b999e8cff54", "is_reserved": 0, "name": "4e5683df27e16109e9500b999e8cff54", "lat": 38.87371816666667, "fusion_lat": 0.0, "lon": -77.0008745, "is_disabled": 0, "fusion_lon": 0.0, "rental_uris": {"android": "https://dc.lft.to/lastmile_qr_scan", "ios": "https://dc.lft.to/lastmile_qr_scan"}, "type": "electric_scooter"}, {"bike_id": "0b4544f4ce1183fc650927501fe4fc8d", "is_reserved": 0, "name": "0b4544f4ce1183fc650927501fe4fc8d", "lat": 38.87791333333333, "fusion_lat": 0.0, "lon": -76.9994045, "is_disabled": 0, "fusion_lon": 0.0, "rental_uris": {"android": "https://dc.lft.to/lastmile_qr_scan", "ios": "https://dc.lft.to/lastmile_qr_scan"}, "type": "electric_scooter"}, {"bike_id": "49e7155b0802ca23e52d245deaef0b29", "is_reserved": 0, "name": "49e7155b0802ca23e52d245deaef0b29", "lat": 38.939794666666664, "fusion_lat": 0.0, "lon": -77.02862, "is_disabled": 0, "fusion_lon": 0.0, "rental_uris": {"android": "https://dc.lft.to/lastmile_qr_scan", "ios": "https://dc.lft.to/lastmile_qr_scan"}, "type": "electric_scooter"},