{"data": {"bikes": [{"is_disabled": 0, "is_reserved": 0, "fusion_lat": 0.0, "lat": 38.900542333333334, "fusion_lon": 0.0, "rental_uris": {"ios": "https://dc.lft.to/lastmile_qr_scan", "android": "https://dc.lft.to/lastmile_qr_scan"}, "lon": -77.04915166666666, "bike_id": "555f09fd5fac38e776f279e67652b538", "type": "electric_scooter", "name": "555f09fd5fac38e776f279e67652b538"}, {"is_disabled": 0, "is_reserved": 0, "fusion_lat": 0.0, "lat": 38.901930666666665, "fusion_lon": 0.0, "rental_uris": {"ios": "https://dc.lft.to/lastmile_qr_scan", "android": "https://dc.lft.to/lastmile_qr_scan"}, "lon": -77.00063633333333, "bike_id": "0f90a447514b38cc012254f85652ab2e", "type": "electric_scooter", "name": "0f90a447514b38cc012254f85652ab2e"}, {"is_disabled": 0, "is_reserved": 0, "fusion_lat": 0.0, "lat": 38.901939, "fusion_lon": 0.0, "rental_uris": {"ios": "https://dc.lft.to/lastmile_qr_scan", "android": "https://dc.lft.to/lastmile_qr_scan"}, "lon": -76.987108, "bike_id": "91ad0bf373a94c53fe2c018bb511aa23", "type": "electric_scooter", "name": "91ad0bf373a94c53fe2c018bb511aa23"}, {"is_disabled": 0, "is_reserved": 0, "fusion_lat": 0.0, "lat": 38.898328, "fusion_lon": 0.0, "rental_uris": {"ios": "https://dc.lft.to/lastmile_qr_scan", "android": "https://dc.lft.to/lastmile_qr_scan"}, "lon": -76.94632533333333, "bike_id": "d57040b3e4ca24df0fa8f51c2d879107", "type": "electric_scooter", "name": "d57040b3e4ca24df0fa8f51c2d879107"}, {"is_disabled": 0, "is_reserved": 0, "fusion_lat": 0.0, "lat": 38.898612, "fusion_lon": 0.0, "rental_uris": {"ios": "https://dc.lft.to/lastmile_qr_scan", "android": "https://dc.lft.to/lastmile_qr_scan"}, "lon": -76.94639966666666, "bike_id": "3e1c064d7cff54acc894fc40a65e0fa6", "type": "electric_scooter", "name": "3e1c064d7cff54acc894fc40a65e0fa6"}, {"is_disabled": 0, "is_reserved": 0, "fusion_lat": 0.0, "lat": 38.91807816666667, "fusion_lon": 0.0, "rental_uris": {"ios": "https://dc.lft.to/lastmile_qr_scan", "android": "https://dc.lft.to/lastmile_qr_scan"}, "lon": -77.03466716666667, "bike_id": "f18b87ce7ae3d2012a38a8de51620ad1", "type": "electric_scooter", "name": "f18b87ce7ae3d2012a38a8de51620ad1"}, {"is_disabled": 0, "is_reserved": 0, "fusion_lat": 0.0, "lat": 38.917132333333335, "fusion_lon": 0.0, "rental_uris": {"ios": "https://dc.lft.to/lastmile_qr_scan", "android": "https://dc.lft.to/lastmile_qr_scan"}, "lon": -77.03236416666667, "bike_id": "db2ec9c522dd8f9d0f76d30144a84a99", "type": "electric_scooter", "name": "db2ec9c522dd8f9d0f76d30144a84a99"}, {"is_disabled": 0, "is_reserved": 0, "fusion_lat": 0.0, "lat": 38.87069483333333, "fusion_lon": 0.0, "rental_uris": {"ios": "https://dc.lft.to/lastmile_qr_scan", "android": "https://dc.lft.to/lastmile_qr_scan"}, "lon": -76.979388, "bike_id": "2e9e7858ea81b4abda64328837704c78", "type": "electric_scooter", "name": "2e9e7858ea81b4abda64328837704c78"}, {"is_disabled": 0, "is_reserved": 0, "fusion_lat": 0.0, "lat": 38.93566083333333, "fusion_lon": 0.0, "rental_uris": {"ios": "https://dc.lft.to/lastmile_qr_scan", "android": "https://dc.lft.to/lastmile_qr_scan"}, "lon": -77.02851833333334, "bike_id": "fb79c80fb08202cea5cc75081bf3828b", "type": "electric_scooter", "name": "fb79c80fb08202cea5cc75081bf3828b"}, {"is_disabled": 0, "is_reserved": 0, "fusion_lat": 0.0, "lat": 38.90307466666667, "fusion_lon": 0.0, "rental_uris": {"ios": "https://dc.lft.to/lastmile_qr_scan", "android": "https://dc.lft.to/lastmile_qr_scan"}, "lon": -77.05048416666666, "bike_id": "3340196fa77dc149e4aa92957cc2dd11", "type": "electric_scooter", "name": "3340196fa77dc149e4aa92957cc2dd11"}, {"is_disabled": 0, "is_reserved": 0, "fusion_lat": 0.0, "lat": 38.92778966666667, "fusion_lon": 0.0, "rental_uris": {"ios": "https://dc.lft.to/lastmile_qr_scan", "android": "https://dc.lft.to/lastmile_qr_scan"}, "lon": -77.05260666666666, "bike_id": "386fc6622e208cbb79abffd1bef63953", "type": "electric_scooter", "name": "386fc6622e208cbb79abffd1bef63953"}, {"is_disabled": 0, "is_reserved": 0, "fusion_lat": 0.0, "lat": 39.000194666666665, "fusion_lon": 0.0, "rental_uris": {"ios": "https://dc.lft.to/lastmile_qr_scan", "android": "https://dc.lft.to/lastmile_qr_scan"}, "lon": -76.91062966666667, "bike_id": "d8ec16a6eb77f68afd17ac609647285d", "type": "electric_bike", "name": "d8ec16a6eb77f68afd17ac609647285d"}, {"is_disabled": 0, "is_reserved": 0, "fusion_lat": 0.0, "lat": 38.939805166666666, "fusion_lon": 0.0, "rental_uris": {"ios": "https://dc.lft.to/lastmile_qr_scan", "android": "https://dc.lft.to/lastmile_qr_scan"}, "lon": -77.01912633333333, "bike_id": "11975a47b8e2588c4be3e8f80fdef5ac", "type": "electric_scooter", "name": "11975a47b8e2588c4be3e8f80fdef5ac"}, {"is_disabled": 0, "is_reserved": 0, "fusion_lat": 0.0, "lat": 38.941667, "fusion_lon": 0.0, "rental_uris": {"ios": "https://dc.lft.to/lastmile_qr_scan", "android": "https://dc.lft.to/lastmile_qr_scan"}, "lon": -76.994067, "bike_id": "0268dc5be6cc27710c0ebde0c74af4f1", "type": "electric_bike", "name": "0268dc5be6cc27710c0ebde0c74af4f1"}, {"is_disabled": 0, "is_reserved": 0, "fusion_lat": 0.0, "lat": 38.95744083333334, "fusion_lon": 0.0, "rental_uris": {"ios": "https://dc.lft.to/lastmile_qr_scan", "android": "https://dc.lft.to/lastmile_qr_scan"}, "lon": -77.02313533333333, "bike_id": "45f965fb8145f246e5858722ab254113", "type": "electric_scooter", "name": "45f965fb8145f246e5858722ab254113"}, {"is_disabled": 0, "is_reserved": 0, "fusion_lat": 0.0, "lat": 38.87575366666667, "fusion_lon": 0.0, "rental_uris": {"ios": "https://dc.lft.to/lastmile_qr_scan", "android": "https://dc.lft.to/lastmile_qr_scan"}, "lon": -77.00589366666667, "bike_id": "6c91ad8880d39cb215e745a31f18ae31", "type": "electric_scooter", "name": "6c91ad8880d39cb215e745a31f18ae31"}, {"is_disabled": 0, "is_reserved": 0, "fusion_lat": 0.0, "lat": 38.92612416666667, "fusion_lon": 0.0, "rental_uris": {"ios": "https://dc.lft.to/lastmile_qr_scan", "android": "https://dc.lft.to/lastmile_qr_scan"}, "lon": -77.00648733333334, "bike_id": "e464f3bde904622d7e6d081a054cc22f", "type": "electric_scooter", "name": "e464f3bde904622d7e6d081a054cc22f"}, {"is_disabled": 0, "is_reserved": 0, "fusion_lat": 0.0, "lat": 38.912648833333336, "fusion_lon": 0.0, "rental_uris": {"ios": "https://dc.lft.to/lastmile_qr_scan", "android": "https://dc.lft.to/lastmile_qr_scan"}, "lon": -77.04787033333334, "bike_id": "4735874aae53a14a75987552cb152b17", "type": "electric_scooter", "name": "4735874aae53a14a75987552cb152b17"}, {"is_disabled": 0, "is_reserved": 0, "fusion_lat": 0.0, "lat": 38.901770166666665, "fusion_lon": 0.0, "rental_uris": {"ios": "https://dc.lft.to/lastmile_qr_scan", "android": "https://dc.lft.to/lastmile_qr_scan"}, "lon": -77.00207983333334, "bike_id": "281ea8492cc6d2a27580ac8be9c1d7b3", "type": "electric_scooter", "name": "281ea8492cc6d2a27580ac8be9c1d7b3"}, {"is_disabled": 0, "is_reserved": 0, "fusion_lat": 0.0, "lat": 38.926139666666664, "fusion_lon": 0.0, "rental_uris": {"ios": "https://dc.lft.to/lastmile_qr_scan", "android": "https://dc.lft.to/lastmile_qr_scan"}, "lon": -77.02158966666667, "bike_id": "2ee0ffccb5317512bbd9a312a110b80c", "type": "electric_scooter", "name": "2ee0ffccb5317512bbd9a312a110b80c"}, {"is_disabled": 0, "is_reserved": 0, "fusion_lat": 0.0, "lat": 38.93971666666667, "fusion_lon": 0.0, "rental_uris": {"ios": "https://dc.lft.to/lastmile_qr_scan", "android": "https://dc.lft.to/lastmile_qr_scan"}, "lon": -77.03248616666667, "bike_id": "52447185f434553f7fdecb2b0e510215", "type": "electric_scooter", "name": "52447185f434553f7fdecb2b0e510215"}, {"is_disabled": 0, "is_reserved": 0, "fusion_lat": 0.0, "lat": 38.8936425, "fusion_lon": 0.0, "rental_uris": {"ios": "https://dc.lft.to/lastmile_qr_scan", "android": "https://dc.lft.to/lastmile_qr_scan"}, "lon": -77.04471766666667, "bike_id": "de161c9d49268db1a8284b38426b0063", "type": "electric_scooter", "name": "de161c9d49268db1a8284b38426b0063"}, {"is_disabled": 0, "is_reserved": 0, "fusion_lat": 0.0, "lat": 38.91534766666667, "fusion_lon": 0.0, "rental_uris": {"ios": "https://dc.lft.to/lastmile_qr_scan", "android": "https://dc.lft.to/lastmile_qr_scan"}, "lon": -77.0754045, "bike_id": "ca5907fe00eef8e44b2d4148d2488af7", "type": "electric_scooter", "name": "ca5907fe00eef8e44b2d4148d2488af7"}, {"is_disabled": 0, "is_reserved": 0, "fusion_lat": 0.0, "lat": 38.90268833333333, "fusion_lon": 0.0, "rental_uris": {"ios": "https://dc.lft.to/lastmile_qr_scan", "android": "https://dc.lft.to/lastmile_qr_scan"}, "lon": -77.0627205, "bike_id": "3070468817afdab10a7fea4bf6bc1cae", "type": "electric_scooter", "name": "3070468817afdab10a7fea4bf6bc1cae"}, {"is_disabled": 0, "is_reserved": 0, "fusion_lat": 0.0, "lat": 38.87352583333333, "fusion_lon": 0.0, "rental_uris": {"ios": "https://dc.lft.to/lastmile_qr_scan", "android": "https://dc.lft.to/lastmile_qr_scan"}, "lon": -77.00195866666667, "bike_id": "42d4e29e4c0a680a73f3c90f3e8e50f0", "type": "electric_scooter", "name": "42d4e29e4c0a680a73f3c90f3e8e50f0"}, {"is_disabled": 0, "is_reserved": 0, "fusion_lat": 0.0, "lat": 38.870903, "fusion_lon": 0.0, "rental_uris": {"ios": "https://dc.lft.to/lastmile_qr_scan", "android": "https://dc.lft.to/lastmile_qr_scan"}, "lon": -77.0108055, "bike_id": "3c2f5df852a055f0e44aa8a09c4831da", "type": "electric_scooter", "name": "3c2f5df852a055f0e44aa8a09c4831da"}, {"is_disabled": 0, "is_reserved": 0, "fusion_lat": 0.0, "lat": 38.889737833333335, "fusion_lon": 0.0, "rental_uris": {"ios": "https://dc.lft.to/lastmile_qr_scan", "android": "https://dc.lft.to/lastmile_qr_scan"}, "lon": -76.98174983333334, "bike_id": "320e11f98d29a975ada0cce5fa3a38b5", "type": "electric_scooter", "name": "320e11f98d29a975ada0cce5fa3a38b5"}, {"is_disabled": 0, "is_reserved": 0, "fusion_lat": 0.0, "lat": 38.87641033333333, "fusion_lon": 0.0, "rental_uris": {"ios": "https://dc.lft.to/lastmile_qr_scan", "android": "https://dc.lft.to/lastmile_qr_scan"}, "lon": -77.00210016666666, "bike_id": "bda3d1618aad0c00cec023ec0f1ff20d", "type": "electric_scooter", "name": "bda3d1618aad0c00cec023ec0f1ff20d"}, {"is_disabled": 0, "is_reserved": 0, "fusion_lat": 0.0, "lat": 38.879246, "fusion_lon": 0.0, "rental_uris": {"ios": "https://dc.lft.to/lastmile_qr_scan", "android": "https://dc.lft.to/lastmile_qr_scan"}, "lon": -77.0237235, "bike_id": "9fcd97039cc448d791a4f8c2bbf70aec", "type": "electric_scooter", "name": "9fcd97039cc448d791a4f8c2bbf70aec"}, {"is_disabled": 0, "is_reserved": 0, "fusion_lat": 0.0, "lat": 38.92431, "fusion_lon": 0.0, "rental_uris": {"ios": "https://dc.lft.to/lastmile_qr_scan", "android": "https://dc.lft.to/lastmile_qr_scan"}, "lon": -77.01954316666667, "bike_id": "3ea4b5a7cf8c98cff77ee402e31f52df", "type": "electric_scooter", "name": "3ea4b5a7cf8c98cff77ee402e31f52df"}, {"is_disabled": 0, "is_reserved": 0, "fusion_lat": 0.0, "lat": 38.9038045, "fusion_lon": 0.0, "rental_uris": {"ios": "https://dc.lft.to/lastmile_qr_scan", "android": "https://dc.lft.to/lastmile_qr_scan"}, "lon": -77.01754533333333, "bike_id": "82de688ce4f0ca1d1f68f0e8bd648950", "type": "electric_scooter", "name": "82de688ce4f0ca1d1f68f0e8bd648950"}, {"is_disabled": 0, "is_reserved": 0, "fusion_lat": 0.0, "lat": 38.91746666666667, "fusion_lon": 0.0, "rental_uris": {"ios": "https://dc.lft.to/lastmile_qr_scan", "android": "https://dc.lft.to/lastmile_qr_scan"}, "lon": -77.010883, "bike_id": "62be5a0dba271632f15acdb0a12e690d", "type": "electric_scooter", "name": "62be5a0dba271632f15acdb0a12e690d"}, {"is_disabled": 0, "is_reserved": 0, "fusion_lat": 0.0, "lat": 38.8993885, "fusion_lon": 0.0, "rental_uris": {"ios": "https://dc.lft.to/lastmile_qr_scan", "android": "https://dc.lft.to/lastmile_qr_scan"}, "lon": -76.93759933333334, "bike_id": "0c7b0ea839a3dbd49d3cdb1b0ecf5e2e", "type": "electric_scooter", "name": "0c7b0ea839a3dbd49d3cdb1b0ecf5e2e"}, {"is_disabled": 0, "is_reserved": 0, "fusion_lat": 0.0, "lat": 38.90034816666667, "fusion_lon": 0.0, "rental_uris": {"ios": "https://dc.lft.to/lastmile_qr_scan", "android": "https://dc.lft.to/lastmile_qr_scan"}, "lon": -77.00366616666666, "bike_id": "8c8b91dadf676a9cc61fa4a47528bb78", "type": "electric_scooter", "name": "8c8b91dadf676a9cc61fa4a47528bb78"}, {"is_disabled": 0, "is_reserved": 0, "fusion_lat": 0.0, "lat": 38.8810625, "fusion_lon": 0.0, "rental_uris": {"ios": "https://dc.lft.to/lastmile_qr_scan", "android": "https://dc.lft.to/lastmile_qr_scan"}, "lon": -77.02659766666666, "bike_id": "2b78c6a53f0e4937c5e308f829d76aca", "type": "electric_scooter", "name": "2b78c6a53f0e4937c5e308f829d76aca"}, {"is_disabled": 0, "is_reserved": 0, "fusion_lat": 0.0, "lat": 38.8836065, "fusion_lon": 0.0, "rental_uris": {"ios": "https://dc.lft.to/lastmile_qr_scan", "android": "https://dc.lft.to/lastmile_qr_scan"}, "lon": -76.9949855, "bike_id": "0586a12b990acd85a8be8039ffa5fd54", "type": "electric_scooter", "name": "0586a12b990acd85a8be8039ffa5fd54"}, {"is_disabled": 0, "is_reserved": 0, "fusion_lat": 0.0, "lat": 38.918891, "fusion_lon": 0.0, "rental_uris": {"ios": "https://dc.lft.to/lastmile_qr_scan", "android": "https://dc.lft.to/lastmile_qr_scan"}, "lon": -77.02305066666666, "bike_id": "744cbc6ee0e5faba786f5a02cb599059", "type": "electric_scooter", "name": "744cbc6ee0e5faba786f5a02cb599059"}, {"is_disabled": 0, "is_reserved": 0, "fusion_lat": 0.0, "lat": 38.903765666666665, "fusion_lon": 0.0, "rental_uris": {"ios": "https://dc.lft.to/lastmile_qr_scan", "android": "https://dc.lft.to/lastmile_qr_scan"}, "lon": -77.05070516666666, "bike_id": "d05f865d96bf26c350c1823c730752a6", "type": "electric_scooter", "name": "d05f865d96bf26c350c1823c730752a6"}, {"is_disabled": 0, "is_reserved": 0, "fusion_lat": 0.0, "lat": 38.90410766666667, "fusion_lon": 0.0, "rental_uris": {"ios": "https://dc.lft.to/lastmile_qr_scan", "android": "https://dc.lft.to/lastmile_qr_scan"}, "lon": -77.02406083333334, "bike_id": "67b58b95f204e841793b5d508b98ac36", "type": "electric_scooter", "name": "67b58b95f204e841793b5d508b98ac36"}, {"is_disabled": 0, "is_reserved": 0, "fusion_lat": 0.0, "lat": 38.91414183333333, "fusion_lon": 0.0, "rental_uris": {"ios": "https://dc.lft.to/lastmile_qr_scan", "android": "https://dc.lft.to/lastmile_qr_scan"}, "lon": -77.0316615, "bike_id": "5c720b59fbcad7e05dd2b716a14ef71d", "type": "electric_scooter", "name": "5c720b59fbcad7e05dd2b716a14ef71d"}, {"is_disabled": 0, "is_reserved": 0, "fusion_lat": 0.0, "lat": 38.92914283333333, "fusion_lon": 0.0, "rental_uris": {"ios": "https://dc.lft.to/lastmile_qr_scan", "android": "https://dc.lft.to/lastmile_qr_scan"}, "lon": -77.02089066666667, "bike_id": "61db9e12012c479c36771d673fe55c4a", "type": "electric_scooter", "name": "61db9e12012c479c36771d673fe55c4a"}, {"is_disabled": 0, "is_reserved": 0, "fusion_lat": 0.0, "lat": 38.898967, "fusion_lon": 0.0, "rental_uris": {"ios": "https://dc.lft.to/lastmile_qr_scan", "android": "https://dc.lft.to/lastmile_qr_scan"}, "lon": -76.988357, "bike_id": "fbcae789b157c561b5cdf19fdbcddd6f", "type": "electric_scooter", "name": "fbcae789b157c561b5cdf19fdbcddd6f"}, {"is_disabled": 0, "is_reserved": 0, "fusion_lat": 0.0, "lat": 38.883716666666665, "fusion_lon": 0.0, "rental_uris": {"ios": "https://dc.lft.to/lastmile_qr_scan", "android": "https://dc.lft.to/lastmile_qr_scan"}, "lon": -76.92417233333333, "bike_id": "fde0bb112ec7fbd507a5967675c932cb", "type": "electric_scooter", "name": "fde0bb112ec7fbd507a5967675c932cb"}, {"is_disabled": 0, "is_reserved": 0, "fusion_lat": 0.0, "lat": 38.928904, "fusion_lon": 0.0, "rental_uris": {"ios": "https://dc.lft.to/lastmile_qr_scan", "android": "https://dc.lft.to/lastmile_qr_scan"}, "lon": -77.032644, "bike_id": "fb6d6745137bf5d9f7ea2325efcf6595", "type": "electric_scooter", "name": "fb6d6745137bf5d9f7ea2325efcf6595"}, {"is_disabled": 0, "is_reserved": 0, "fusion_lat": 0.0, "lat": 38.87651266666667, "fusion_lon": 0.0, "rental_uris": {"ios": "https://dc.lft.to/lastmile_qr_scan", "android": "https://dc.lft.to/lastmile_qr_scan"}, "lon": -77.0057815, "bike_id": "8e110a64a4b829907e56b3f95bcdd9d9", "type": "electric_scooter", "name": "8e110a64a4b829907e56b3f95bcdd9d9"}, {"is_disabled": 0, "is_reserved": 0, "fusion_lat": 0.0, "lat": 38.884427, "fusion_lon": 0.0, "rental_uris": {"ios": "https://dc.lft.to/lastmile_qr_scan", "android": "https://dc.lft.to/lastmile_qr_scan"}, "lon": -77.029868, "bike_id": "3b84e1e77d92fd274a2ebdfabf9a310c", "type": "electric_scooter", "name": "3b84e1e77d92fd274a2ebdfabf9a310c"}, {"is_disabled": 0, "is_reserved": 0, "fusion_lat": 0.0, "lat": 38.9275595, "fusion_lon": 0.0, "rental_uris": {"ios": "https://dc.lft.to/lastmile_qr_scan", "android": "https://dc.lft.to/lastmile_qr_scan"}, "lon": -77.03271266666667, "bike_id": "160a68926c94815fcd7c18b42c31e48e", "type": "electric_scooter", "name": "160a68926c94815fcd7c18b42c31e48e"}, {"is_disabled": 0, "is_reserved": 0, "fusion_lat": 0.0, "lat": 38.902331333333336, "fusion_lon": 0.0, "rental_uris": {"ios": "https://dc.lft.to/lastmile_qr_scan", "android": "https://dc.lft.to/lastmile_qr_scan"}, "lon": -77.0006095, "bike_id": "6ff5df061ec0052651632481325e8ca7", "type": "electric_scooter", "name": "6ff5df061ec0052651632481325e8ca7"}, {"is_disabled": 0, "is_reserved": 0, "fusion_lat": 0.0, "lat": 38.908629833333336, "fusion_lon": 0.0, "rental_uris": {"ios": "https://dc.lft.to/lastmile_qr_scan", "android": "https://dc.lft.to/lastmile_qr_scan"}, "lon": -77.0329375, "bike_id": "57611afbba1f89d4034bf7aa4a156e49", "type": "electric_scooter", "name": "57611afbba1f89d4034bf7aa4a156e49"}, {"is_disabled": 0, "is_reserved": 0, "fusion_lat": 0.0, "lat": 38.9650275, "fusion_lon": 0.0, "rental_uris": {"ios": "https://dc.lft.to/lastmile_qr_scan", "android": "https://dc.lft.to/lastmile_qr_scan"}, "lon": -77.0628555, "bike_id": "6fdabb8d905389fb8f810dbb95678183", "type": "electric_scooter", "name": "6fdabb8d905389fb8f810dbb95678183"}, {"is_disabled": 0, "is_reserved": 0, "fusion_lat": 0.0, "lat": 38.879403333333336, "fusion_lon": 0.0, "rental_uris": {"ios": "https://dc.lft.to/lastmile_qr_scan", "android": "https://dc.lft.to/lastmile_qr_scan"}, "lon": -77.0126765, "bike_id": "816211898fe3831667bf42cd14639ebf", "type": "electric_scooter", "name": "816211898fe3831667bf42cd14639ebf"}, {"is_disabled": 0, "is_reserved": 0, "fusion_lat": 0.0, "lat": 38.88697, "fusion_lon": 0.0, "rental_uris": {"ios": "https://dc.lft.to/lastmile_qr_scan", "android": "https://dc.lft.to/lastmile_qr_scan"}, "lon": -77.00059033333334, "bike_id": "76d38ee8063adcb6e66cb13ab49dbbc1", "type": "electric_scooter", "name": "76d38ee8063adcb6e66cb13ab49dbbc1"}, {"is_disabled": 0, "is_reserved": 0, "fusion_lat": 0.0, "lat": 38.911192166666666, "fusion_lon": 0.0, "rental_uris": {"ios": "https://dc.lft.to/lastmile_qr_scan", "android": "https://dc.lft.to/lastmile_qr_scan"}, "lon": -76.99761216666667, "bike_id": "75afd6afa8cd4adef36889a35768486d", "type": "electric_scooter", "name": "75afd6afa8cd4adef36889a35768486d"}, {"is_disabled": 0, "is_reserved": 0, "fusion_lat": 0.0, "lat": 38.90269416666667, "fusion_lon": 0.0, "rental_uris": {"ios": "https://dc.lft.to/lastmile_qr_scan", "android": "https://dc.lft.to/lastmile_qr_scan"}, "lon": -77.01960983333333, "bike_id": "c87379907c935786afb0687d3f7755a8", "type": "electric_scooter", "name": "c87379907c935786afb0687d3f7755a8"}, {"is_disabled": 0, "is_reserved": 0, "fusion_lat": 0.0, "lat": 38.96779083333333, "fusion_lon": 0.0, "rental_uris": {"ios": "https://dc.lft.to/lastmile_qr_scan", "android": "https://dc.lft.to/lastmile_qr_scan"}, "lon": -76.9965035, "bike_id": "aeef63b4956deedf79b3b5cdf102fda2", "type": "electric_bike", "name": "aeef63b4956deedf79b3b5cdf102fda2"}, {"is_disabled": 0, "is_reserved": 0, "fusion_lat": 0.0, "lat": 38.905049, "fusion_lon": 0.0, "rental_uris": {"ios": "https://dc.lft.to/lastmile_qr_scan", "android": "https://dc.lft.to/lastmile_qr_scan"}, "lon": -77.06112266666666, "bike_id": "b1a6377c90760c268c23df3e57ebfb67", "type": "electric_scooter", "name": "b1a6377c90760c268c23df3e57ebfb67"}, {"is_disabled": 0, "is_reserved": 0, "fusion_lat": 0.0, "lat": 38.85837983333333, "fusion_lon": 0.0, "rental_uris": {"ios": "https://dc.lft.to/lastmile_qr_scan", "android": "https://dc.lft.to/lastmile_qr_scan"}, "lon": -76.98818833333333, "bike_id": "5acadf0806bae2424abd7ec515994cd4", "type": "electric_scooter", "name": "5acadf0806bae2424abd7ec515994cd4"}, {"is_disabled": 0, "is_reserved": 0, "fusion_lat": 0.0, "lat": 38.92135416666667, "fusion_lon": 0.0, "rental_uris": {"ios": "https://dc.lft.to/lastmile_qr_scan", "android": "https://dc.lft.to/lastmile_qr_scan"}, "lon": -77.0039705, "bike_id": "63d9f974107e257d7284d0a428f45531", "type": "electric_scooter", "name": "63d9f974107e257d7284d0a428f45531"}, {"is_disabled": 0, "is_reserved": 0, "fusion_lat": 0.0, "lat": 38.905693666666664, "fusion_lon": 0.0, "rental_uris": {"ios": "https://dc.lft.to/lastmile_qr_scan", "android": "https://dc.lft.to/lastmile_qr_scan"}, "lon": -77.04009316666667, "bike_id": "4ed9423aed31933e8ccacc2e995ce433", "type": "electric_scooter", "name": "4ed9423aed31933e8ccacc2e995ce433"}, {"is_disabled": 0, "is_reserved": 0, "fusion_lat": 0.0, "lat": 38.90148966666667, "fusion_lon": 0.0, "rental_uris": {"ios": "https://dc.lft.to/lastmile_qr_scan", "android": "https://dc.lft.to/lastmile_qr_scan"}, "lon": -77.03439366666667, "bike_id": "526522dbc400539c018a40ac38fb8833", "type": "electric_bike", "name": "526522dbc400539c018a40ac38fb8833"}, {"is_disabled": 0, "is_reserved": 0, "fusion_lat": 0.0, "lat": 38.836067666666665, "fusion_lon": 0.0, "rental_uris": {"ios": "https://dc.lft.to/lastmile_qr_scan", "android": "https://dc.lft.to/lastmile_qr_scan"}, "lon": -77.0037425, "bike_id": "e493fc1ae9d0ede9767e0bffd743cac8", "type": "electric_bike", "name": "e493fc1ae9d0ede9767e0bffd743cac8"}, {"is_disabled": 0, "is_reserved": 0, "fusion_lat": 0.0, "lat": 38.92421383333333, "fusion_lon": 0.0, "rental_uris": {"ios": "https://dc.lft.to/lastmile_qr_scan", "android": "https://dc.lft.to/lastmile_qr_scan"}, "lon": -77.02013066666666, "bike_id": "45d3cf4ec2dd4165ef5eba87cdfd9be8", "type": "electric_scooter", "name": "45d3cf4ec2dd4165ef5eba87cdfd9be8"}, {"is_disabled": 0, "is_reserved": 0, "fusion_lat": 0.0, "lat": 38.904271666666666, "fusion_lon": 0.0, "rental_uris": {"ios": "https://dc.lft.to/lastmile_qr_scan", "android": "https://dc.lft.to/lastmile_qr_scan"}, "lon": -77.05148816666667, "bike_id": "822a0b5d0e50065b93850dbe6cb6014f", "type": "electric_scooter", "name": "822a0b5d0e50065b93850dbe6cb6014f"}, {"is_disabled": 0, "is_reserved": 0, "fusion_lat": 0.0, "lat": 38.882391166666665, "fusion_lon": 0.0, "rental_uris": {"ios": "https://dc.lft.to/lastmile_qr_scan", "android": "https://dc.lft.to/lastmile_qr_scan"}, "lon": -76.99087116666666, "bike_id": "f6565feaf5fc83b7a613d4f1266f028f", "type": "electric_scooter", "name": "f6565feaf5fc83b7a613d4f1266f028f"}, {"is_disabled": 0, "is_reserved": 0, "fusion_lat": 0.0, "lat": 38.857899333333336, "fusion_lon": 0.0, "rental_uris": {"ios": "https://dc.lft.to/lastmile_qr_scan", "android": "https://dc.lft.to/lastmile_qr_scan"}, "lon": -76.98755266666667, "bike_id": "0a8caecbc03ee078e606f31ac6aaed7a", "type": "electric_bike", "name": "0a8caecbc03ee078e606f31ac6aaed7a"}, {"is_disabled": 0, "is_reserved": 0, "fusion_lat": 0.0, "lat": 38.807324, "fusion_lon": 0.0, "rental_uris": {"ios": "https://dc.lft.to/lastmile_qr_scan", "android": "https://dc.lft.to/lastmile_qr_scan"}, "lon": -76.9926145, "bike_id": "63ae4eaf2b2c70456564cae3acb1924f", "type": "electric_bike", "name": "63ae4eaf2b2c70456564cae3acb1924f"}, {"is_disabled": 0, "is_reserved": 0, "fusion_lat": 0.0, "lat": 38.9446455, "fusion_lon": 0.0, "rental_uris": {"ios": "https://dc.lft.to/lastmile_qr_scan", "android": "https://dc.lft.to/lastmile_qr_scan"}, "lon": -77.00656016666667, "bike_id": "72bf20a0a37d105cc64fdad42c86f8e8", "type": "electric_scooter", "name": "72bf20a0a37d105cc64fdad42c86f8e8"}, {"is_disabled": 0, "is_reserved": 0, "fusion_lat": 0.0, "lat": 38.87841933333333, "fusion_lon": 0.0, "rental_uris": {"ios": "https://dc.lft.to/lastmile_qr_scan", "android": "https://dc.lft.to/lastmile_qr_scan"}, "lon": -77.00875516666666, "bike_id": "c2d45975807cde8f248884c6f21c52ac", "type": "electric_scooter", "name": "c2d45975807cde8f248884c6f21c52ac"}, {"is_disabled": 0, "is_reserved": 0, "fusion_lat": 0.0, "lat": 38.881370833333335, "fusion_lon": 0.0, "rental_uris": {"ios": "https://dc.lft.to/lastmile_qr_scan", "android": "https://dc.lft.to/lastmile_qr_scan"}, "lon": -76.99615466666667, "bike_id": "a969d7220cb153fcc084f0e1540152d6", "type": "electric_scooter", "name": "a969d7220cb153fcc084f0e1540152d6"}, {"is_disabled": 0, "is_reserved": 0, "fusion_lat": 0.0, "lat": 38.921893, "fusion_lon": 0.0, "rental_uris": {"ios": "https://dc.lft.to/lastmile_qr_scan", "android": "https://dc.lft.to/lastmile_qr_scan"}, "lon": -76.99848183333333, "bike_id": "3851e692c578b40f1a2fde47b72bf437", "type": "electric_scooter", "name": "3851e692c578b40f1a2fde47b72bf437"}, {"is_disabled": 0, "is_reserved": 0, "fusion_lat": 0.0, "lat": 38.904916, "fusion_lon": 0.0, "rental_uris": {"ios": "https://dc.lft.to/lastmile_qr_scan", "android": "https://dc.lft.to/lastmile_qr_scan"}, "lon": -77.01997333333334, "bike_id": "579c47a031fead87f7a50cdbf0196848", "type": "electric_scooter", "name": "579c47a031fead87f7a50cdbf0196848"}, {"is_disabled": 0, "is_reserved": 0, "fusion_lat": 0.0, "lat": 38.89052183333333, "fusion_lon": 0.0, "rental_uris": {"ios": "https://dc.lft.to/lastmile_qr_scan", "android": "https://dc.lft.to/lastmile_qr_scan"}, "lon": -77.044926, "bike_id": "4f946e11a8be652d33f733a74aa64d29", "type": "electric_scooter", "name": "4f946e11a8be652d33f733a74aa64d29"}, {"is_disabled": 0, "is_reserved": 0, "fusion_lat": 0.0, "lat": 38.92447033333333, "fusion_lon": 0.0, "rental_uris": {"ios": "https://dc.lft.to/lastmile_qr_scan", "android": "https://dc.lft.to/lastmile_qr_scan"}, "lon": -77.02033366666667, "bike_id": "a8f16e915df6069b5188f4a2c6b9b930", "type": "electric_scooter", "name": "a8f16e915df6069b5188f4a2c6b9b930"}, {"is_disabled": 0, "is_reserved": 0, "fusion_lat": 0.0, "lat": 38.89676383333333, "fusion_lon": 0.0, "rental_uris": {"ios": "https://dc.lft.to/lastmile_qr_scan", "android": "https://dc.lft.to/lastmile_qr_scan"}, "lon": -77.05461633333333, "bike_id": "7fcbb2083f502403ba37bd5d2190eaac", "type": "electric_scooter", "name": "7fcbb2083f502403ba37bd5d2190eaac"}, {"is_disabled": 0, "is_reserved": 0, "fusion_lat": 0.0, "lat": 38.917043, "fusion_lon": 0.0, "rental_uris": {"ios": "https://dc.lft.to/lastmile_qr_scan", "android": "https://dc.lft.to/lastmile_qr_scan"}, "lon": -77.023758, "bike_id": "769956687df6d6dd649e5f4a3e6f101e", "type": "electric_scooter", "name": "769956687df6d6dd649e5f4a3e6f101e"}, {"is_disabled": 0, "is_reserved": 0, "fusion_lat": 0.0, "lat": 38.885434000000004, "fusion_lon": 0.0, "rental_uris": {"ios": "https://dc.lft.to/lastmile_qr_scan", "android": "https://dc.lft.to/lastmile_qr_scan"}, "lon": -76.9853605, "bike_id": "8a065237b74ae2dbd115ba83aa8441d6", "type": "electric_scooter", "name": "8a065237b74ae2dbd115ba83aa8441d6"}, {"is_disabled": 0, "is_reserved": 0, "fusion_lat": 0.0, "lat": 38.916968, "fusion_lon": 0.0, "rental_uris": {"ios": "https://dc.lft.to/lastmile_qr_scan", "android": "https://dc.lft.to/lastmile_qr_scan"}, "lon": -77.053022, "bike_id": "4a99c67b27cb364d18147dd3d804a6e2", "type": "electric_scooter", "name": "4a99c67b27cb364d18147dd3d804a6e2"}, {"is_disabled": 0, "is_reserved": 0, "fusion_lat": 0.0, "lat": 38.921855666666666, "fusion_lon": 0.0, "rental_uris": {"ios": "https://dc.lft.to/lastmile_qr_scan", "android": "https://dc.lft.to/lastmile_qr_scan"}, "lon": -77.0209875, "bike_id": "e35ce2f6a2f02c66a7f57e4eba8b0f4e", "type": "electric_scooter", "name": "e35ce2f6a2f02c66a7f57e4eba8b0f4e"}, {"is_disabled": 0, "is_reserved": 0, "fusion_lat": 0.0, "lat": 38.927904833333336, "fusion_lon": 0.0, "rental_uris": {"ios": "https://dc.lft.to/lastmile_qr_scan", "android": "https://dc.lft.to/lastmile_qr_scan"}, "lon": -77.22934333333333, "bike_id": "fef3bc953e648cc89ba368adb3599613", "type": "electric_bike", "name": "fef3bc953e648cc89ba368adb3599613"}, {"is_disabled": 0, "is_reserved": 0, "fusion_lat": 0.0, "lat": 38.89879483333333, "fusion_lon": 0.0, "rental_uris": {"ios": "https://dc.lft.to/lastmile_qr_scan", "android": "https://dc.lft.to/lastmile_qr_scan"}, "lon": -76.93171366666667, "bike_id": "7151ed43dfbd8daceecd92a48dbb5841", "type": "electric_scooter", "name": "7151ed43dfbd8daceecd92a48dbb5841"}, {"is_disabled": 0, "is_reserved": 0, "fusion_lat": 0.0, "lat": 38.901292833333336, "fusion_lon": 0.0, "rental_uris": {"ios": "https://dc.lft.to/lastmile_qr_scan", "android": "https://dc.lft.to/lastmile_qr_scan"}, "lon": -77.00362833333334, "bike_id": "7e4ff39a84a0603a0c3e5ccb1765ee13", "type": "electric_scooter", "name": "7e4ff39a84a0603a0c3e5ccb1765ee13"}, {"is_disabled": 0, "is_reserved": 0, "fusion_lat": 0.0, "lat": 38.924610333333334, "fusion_lon": 0.0, "rental_uris": {"ios": "https://dc.lft.to/lastmile_qr_scan", "android": "https://dc.lft.to/lastmile_qr_scan"}, "lon": -77.07852916666667, "bike_id": "aaac7577eeb6b638f4f81ef589ef3748", "type": "electric_scooter", "name": "aaac7577eeb6b638f4f81ef589ef3748"}, {"is_disabled": 0, "is_reserved": 0, "fusion_lat": 0.0, "lat": 38.917825666666666, "fusion_lon": 0.0, "rental_uris": {"ios": "https://dc.lft.to/lastmile_qr_scan", "android": "https://dc.lft.to/lastmile_qr_scan"}, "lon": -77.0409535, "bike_id": "b3aab1b78ef60bf49153aff7d4406633", "type": "electric_scooter", "name": "b3aab1b78ef60bf49153aff7d4406633"}, {"is_disabled": 0, "is_reserved": 0, "fusion_lat": 0.0, "lat": 38.964265833333336, "fusion_lon": 0.0, "rental_uris": {"ios": "https://dc.lft.to/lastmile_qr_scan", "android": "https://dc.lft.to/lastmile_qr_scan"}, "lon": -77.074241, "bike_id": "0e9d7804cb5c041f033be808debbbb2c", "type": "electric_scooter", "name": "0e9d7804cb5c041f033be808debbbb2c"}, {"is_disabled": 0, "is_reserved": 0, "fusion_lat": 0.0, "lat": 38.83405183333333, "fusion_lon": 0.0, "rental_uris": {"ios": "https://dc.lft.to/lastmile_qr_scan", "android": "https://dc.lft.to/lastmile_qr_scan"}, "lon": -77.04995666666667, "bike_id": "64fd09d9400d1666767925e53e19d379", "type": "electric_bike", "name": "64fd09d9400d1666767925e53e19d379"}, {"is_disabled": 0, "is_reserved": 0, "fusion_lat": 0.0, "lat": 38.902471, "fusion_lon": 0.0, "rental_uris": {"ios": "https://dc.lft.to/lastmile_qr_scan", "android": "https://dc.lft.to/lastmile_qr_scan"}, "lon": -77.03927616666667, "bike_id": "f789ac0a59974a4c0736d8fa0c5308b6", "type": "electric_scooter", "name": "f789ac0a59974a4c0736d8fa0c5308b6"}, {"is_disabled": 0, "is_reserved": 0, "fusion_lat": 0.0, "lat": 38.906756333333334, "fusion_lon": 0.0, "rental_uris": {"ios": "https://dc.lft.to/lastmile_qr_scan", "android": "https://dc.lft.to/lastmile_qr_scan"}, "lon": -77.04879283333334, "bike_id": "92ecfe60bc5aafbe9cf469a956598583", "type": "electric_scooter", "name": "92ecfe60bc5aafbe9cf469a956598583"}, {"is_disabled": 0, "is_reserved": 0, "fusion_lat": 0.0, "lat": 38.85716016666667, "fusion_lon": 0.0, "rental_uris": {"ios": "https://dc.lft.to/lastmile_qr_scan", "android": "https://dc.lft.to/lastmile_qr_scan"}, "lon": -76.98097083333333, "bike_id": "6bf8d688f6ba19853b28d0ab303ebbd1", "type": "electric_scooter", "name": "6bf8d688f6ba19853b28d0ab303ebbd1"}, {"is_disabled": 0, "is_reserved": 0, "fusion_lat": 0.0, "lat": 38.9094495, "fusion_lon": 0.0, "rental_uris": {"ios": "https://dc.lft.to/lastmile_qr_scan", "android": "https://dc.lft.to/lastmile_qr_scan"}, "lon": -76.99582966666667, "bike_id": "3aab0cbd41e32a0f4c3216cc12e7513f", "type": "electric_scooter", "name": "3aab0cbd41e32a0f4c3216cc12e7513f"}, {"is_disabled": 0, "is_reserved": 0, "fusion_lat": 0.0, "lat": 38.902461833333334, "fusion_lon": 0.0, "rental_uris": {"ios": "https://dc.lft.to/lastmile_qr_scan", "android": "https://dc.lft.to/lastmile_qr_scan"}, "lon": -77.00770366666667, "bike_id": "1dc299617a1dba3def705063273f1891", "type": "electric_scooter", "name": "1dc299617a1dba3def705063273f1891"}, {"is_disabled": 0, "is_reserved": 0, "fusion_lat": 0.0, "lat": 38.932363, "fusion_lon": 0.0, "rental_uris": {"ios": "https://dc.lft.to/lastmile_qr_scan", "android": "https://dc.lft.to/lastmile_qr_scan"}, "lon": -76.997089, "bike_id": "16e5c01ab3af188d55d854abf2941da5", "type": "electric_scooter", "name": "16e5c01ab3af188d55d854abf2941da5"}, {"is_disabled": 0, "is_reserved": 0, "fusion_lat": 0.0, "lat": 38.860829, "fusion_lon": 0.0, "rental_uris": {"ios": "https://dc.lft.to/lastmile_qr_scan", "android": "https://dc.lft.to/lastmile_qr_scan"}, "lon": -76.98373466666666, "bike_id": "9f8e1bb23b5d06fbe3f7ec1f186bd9ba", "type": "electric_scooter", "name": "9f8e1bb23b5d06fbe3f7ec1f186bd9ba"}, {"is_disabled": 0, "is_reserved": 0, "fusion_lat": 0.0, "lat": 38.920913666666664, "fusion_lon": 0.0, "rental_uris": {"ios": "https://dc.lft.to/lastmile_qr_scan", "android": "https://dc.lft.to/lastmile_qr_scan"}, "lon": -77.02521683333333, "bike_id": "c6a35504b96e74cdc1a90d2b05812a0b", "type": "electric_scooter", "name": "c6a35504b96e74cdc1a90d2b05812a0b"}, {"is_disabled": 0, "is_reserved": 0, "fusion_lat": 0.0, "lat": 38.919180833333336, "fusion_lon": 0.0, "rental_uris": {"ios": "https://dc.lft.to/lastmile_qr_scan", "android": "https://dc.lft.to/lastmile_qr_scan"}, "lon": -77.0311115, "bike_id": "ca7fb6d3d1517026e5a02c8e7f28b8dc", "type": "electric_scooter", "name": "ca7fb6d3d1517026e5a02c8e7f28b8dc"}, {"is_disabled": 0, "is_reserved": 0, "fusion_lat": 0.0, "lat": 38.928186, "fusion_lon": 0.0, "rental_uris": {"ios": "https://dc.lft.to/lastmile_qr_scan", "android": "https://dc.lft.to/lastmile_qr_scan"}, "lon": -77.0434895, "bike_id": "9bf51a1a745bb9ff934babd217efbb32", "type": "electric_scooter", "name": "9bf51a1a745bb9ff934babd217efbb32"}, {"is_disabled": 0, "is_reserved": 0, "fusion_lat": 0.0, "lat": 38.9111995, "fusion_lon": 0.0, "rental_uris": {"ios": "https://dc.lft.to/lastmile_qr_scan", "android": "https://dc.lft.to/lastmile_qr_scan"}, "lon": -77.004221, "bike_id": "6fc497e82f4b42464cba30c25bdc25ff", "type": "electric_scooter", "name": "6fc497e82f4b42464cba30c25bdc25ff"}, {"is_disabled": 0, "is_reserved": 0, "fusion_lat": 0.0, "lat": 38.91713933333333, "fusion_lon": 0.0, "rental_uris": {"ios": "https://dc.lft.to/lastmile_qr_scan", "android": "https://dc.lft.to/lastmile_qr_scan"}, "lon": -77.028871, "bike_id": "3976e6edeca5edc31ca54504dea576d7", "type": "electric_scooter", "name": "3976e6edeca5edc31ca54504dea576d7"}, {"is_disabled": 0, "is_reserved": 0, "fusion_lat": 0.0, "lat": 38.902095333333335, "fusion_lon": 0.0, "rental_uris": {"ios": "https://dc.lft.to/lastmile_qr_scan", "android": "https://dc.lft.to/lastmile_qr_scan"}, "lon": -77.00061133333334, "bike_id": "aed511319f86a707b98dc26f86d37d0c", "type": "electric_scooter", "name": "aed511319f86a707b98dc26f86d37d0c"}, {"is_disabled": 0, "is_reserved": 0, "fusion_lat": 0.0, "lat": 38.85059966666667, "fusion_lon": 0.0, "rental_uris": {"ios": "https://dc.lft.to/lastmile_qr_scan", "android": "https://dc.lft.to/lastmile_qr_scan"}, "lon": -76.95828633333333, "bike_id": "a050df00a2079ce9d595c4ab0a5505c6", "type": "electric_bike", "name": "a050df00a2079ce9d595c4ab0a5505c6"}, {"is_disabled": 0, "is_reserved": 0, "fusion_lat": 0.0, "lat": 38.88577216666667, "fusion_lon": 0.0, "rental_uris": {"ios": "https://dc.lft.to/lastmile_qr_scan", "android": "https://dc.lft.to/lastmile_qr_scan"}, "lon": -77.01208583333333, "bike_id": "ce9e122f7bd291afd8edac6790c6d294", "type": "electric_scooter", "name": "ce9e122f7bd291afd8edac6790c6d294"}, {"is_disabled": 0, "is_reserved": 0, "fusion_lat": 0.0, "lat": 38.90290783333333, "fusion_lon": 0.0, "rental_uris": {"ios": "https://dc.lft.to/lastmile_qr_scan", "android": "https://dc.lft.to/lastmile_qr_scan"}, "lon": -77.0367015, "bike_id": "0fbebaa400427f1f80406c25e384c76d", "type": "electric_scooter", "name": "0fbebaa400427f1f80406c25e384c76d"}, {"is_disabled": 0, "is_reserved": 0, "fusion_lat": 0.0, "lat": 38.91969733333333, "fusion_lon": 0.0, "rental_uris": {"ios": "https://dc.lft.to/lastmile_qr_scan", "android": "https://dc.lft.to/lastmile_qr_scan"}, "lon": -77.07118316666667, "bike_id": "a23604f23a471d386cb12efcf6f48d01", "type": "electric_scooter", "name": "a23604f23a471d386cb12efcf6f48d01"}, {"is_disabled": 0, "is_reserved": 0, "fusion_lat": 0.0, "lat": 38.90732466666667, "fusion_lon": 0.0, "rental_uris": {"ios": "https://dc.lft.to/lastmile_qr_scan", "android": "https://dc.lft.to/lastmile_qr_scan"}, "lon": -77.0395635, "bike_id": "c3e3c89d10779c2a8b14ed0910041d73", "type": "electric_scooter", "name": "c3e3c89d10779c2a8b14ed0910041d73"}, {"is_disabled": 0, "is_reserved": 0, "fusion_lat": 0.0, "lat": 38.90496816666667, "fusion_lon": 0.0, "rental_uris": {"ios": "https://dc.lft.to/lastmile_qr_scan", "android": "https://dc.lft.to/lastmile_qr_scan"}, "lon": -77.06277616666667, "bike_id": "4354ad21b4df1677dc4370d419c26458", "type": "electric_scooter", "name": "4354ad21b4df1677dc4370d419c26458"}, {"is_disabled": 0, "is_reserved": 0, "fusion_lat": 0.0, "lat": 38.93993533333333, "fusion_lon": 0.0, "rental_uris": {"ios": "https://dc.lft.to/lastmile_qr_scan", "android": "https://dc.lft.to/lastmile_qr_scan"}, "lon": -77.0288825, "bike_id": "c1419be9e888ce8004f6c2f6c9ac2b51", "type": "electric_scooter", "name": "c1419be9e888ce8004f6c2f6c9ac2b51"}, {"is_disabled": 0, "is_reserved": 0, "fusion_lat": 0.0, "lat": 38.902277166666664, "fusion_lon": 0.0, "rental_uris": {"ios": "https://dc.lft.to/lastmile_qr_scan", "android": "https://dc.lft.to/lastmile_qr_scan"}, "lon": -77.0607875, "bike_id": "a10dabede563de39d0c2b48e21da7413", "type": "electric_scooter", "name": "a10dabede563de39d0c2b48e21da7413"}, {"is_disabled": 0, "is_reserved": 0, "fusion_lat": 0.0, "lat": 38.917827, "fusion_lon": 0.0, "rental_uris": {"ios": "https://dc.lft.to/lastmile_qr_scan", "android": "https://dc.lft.to/lastmile_qr_scan"}, "lon": -77.031822, "bike_id": "d2e180f73efdc53a6d16064352349fb1", "type": "electric_scooter", "name": "d2e180f73efdc53a6d16064352349fb1"}, {"is_disabled": 0, "is_reserved": 0, "fusion_lat": 0.0, "lat": 38.930768, "fusion_lon": 0.0, "rental_uris": {"ios": "https://dc.lft.to/lastmile_qr_scan", "android": "https://dc.lft.to/lastmile_qr_scan"}, "lon": -77.032073, "bike_id": "b46317a670d5060c9139407c68747785", "type": "electric_scooter", "name": "b46317a670d5060c9139407c68747785"}, {"is_disabled": 0, "is_reserved": 0, "fusion_lat": 0.0, "lat": 38.901702666666665, "fusion_lon": 0.0, "rental_uris": {"ios": "https://dc.lft.to/lastmile_qr_scan", "android": "https://dc.lft.to/lastmile_qr_scan"}, "lon": -76.987344, "bike_id": "0b33a7ee0ff98928c778eafab22f7cd7", "type": "electric_scooter", "name": "0b33a7ee0ff98928c778eafab22f7cd7"}, {"is_disabled": 0, "is_reserved": 0, "fusion_lat": 0.0, "lat": 38.917876166666666, "fusion_lon": 0.0, "rental_uris": {"ios": "https://dc.lft.to/lastmile_qr_scan", "android": "https://dc.lft.to/lastmile_qr_scan"}, "lon": -77.03172033333334, "bike_id": "21c48ee88de4a7640e86284bcf4e1fbe", "type": "electric_scooter", "name": "21c48ee88de4a7640e86284bcf4e1fbe"}, {"is_disabled": 0, "is_reserved": 0, "fusion_lat": 0.0, "lat": 38.904792, "fusion_lon": 0.0, "rental_uris": {"ios": "https://dc.lft.to/lastmile_qr_scan", "android": "https://dc.lft.to/lastmile_qr_scan"}, "lon": -76.95070966666667, "bike_id": "5d7538b0f1a8c6c3a24f89f9c7c42f2e", "type": "electric_scooter", "name": "5d7538b0f1a8c6c3a24f89f9c7c42f2e"}, {"is_disabled": 0, "is_reserved": 0, "fusion_lat": 0.0, "lat": 38.90204583333333, "fusion_lon": 0.0, "rental_uris": {"ios": "https://dc.lft.to/lastmile_qr_scan", "android": "https://dc.lft.to/lastmile_qr_scan"}, "lon": -76.99255633333334, "bike_id": "b1f0f857963d74d9185c17e9b1f9f86c", "type": "electric_scooter", "name": "b1f0f857963d74d9185c17e9b1f9f86c"}, {"is_disabled": 0, "is_reserved": 0, "fusion_lat": 0.0, "lat": 38.894676833333335, "fusion_lon": 0.0, "rental_uris": {"ios": "https://dc.lft.to/lastmile_qr_scan", "android": "https://dc.lft.to/lastmile_qr_scan"}, "lon": -77.0226165, "bike_id": "65bc1f23306100e4baa8ebd54681fd43", "type": "electric_scooter", "name": "65bc1f23306100e4baa8ebd54681fd43"}, {"is_disabled": 0, "is_reserved": 0, "fusion_lat": 0.0, "lat": 38.914602, "fusion_lon": 0.0, "rental_uris": {"ios": "https://dc.lft.to/lastmile_qr_scan", "android": "https://dc.lft.to/lastmile_qr_scan"}, "lon": -77.02208766666666, "bike_id": "2ed5faec4b8e1fc8257847f00c0cb926", "type": "electric_scooter", "name": "2ed5faec4b8e1fc8257847f00c0cb926"}, {"is_disabled": 0, "is_reserved": 0, "fusion_lat": 0.0, "lat": 38.906089, "fusion_lon": 0.0, "rental_uris": {"ios": "https://dc.lft.to/lastmile_qr_scan", "android": "https://dc.lft.to/lastmile_qr_scan"}, "lon": -77.02105466666667, "bike_id": "841aafb38f26d41f4504feeb7f6b77e5", "type": "electric_scooter", "name": "841aafb38f26d41f4504feeb7f6b77e5"}, {"is_disabled": 0, "is_reserved": 0, "fusion_lat": 0.0, "lat": 38.855147333333335, "fusion_lon": 0.0, "rental_uris": {"ios": "https://dc.lft.to/lastmile_qr_scan", "android": "https://dc.lft.to/lastmile_qr_scan"}, "lon": -76.99130933333333, "bike_id": "6ed7399203fc259b93ccfdf4d0f2c0d6", "type": "electric_scooter", "name": "6ed7399203fc259b93ccfdf4d0f2c0d6"}, {"is_disabled": 0, "is_reserved": 0, "fusion_lat": 0.0, "lat": 38.922314166666666, "fusion_lon": 0.0, "rental_uris": {"ios": "https://dc.lft.to/lastmile_qr_scan", "android": "https://dc.lft.to/lastmile_qr_scan"}, "lon": -77.03288483333333, "bike_id": "5b726ef5265d485dcd0ca9431f175d54", "type": "electric_scooter", "name": "5b726ef5265d485dcd0ca9431f175d54"}, {"is_disabled": 0, "is_reserved": 0, "fusion_lat": 0.0, "lat": 38.92241533333333, "fusion_lon": 0.0, "rental_uris": {"ios": "https://dc.lft.to/lastmile_qr_scan", "android": "https://dc.lft.to/lastmile_qr_scan"}, "lon": -77.04020483333333, "bike_id": "3abd357194a0aa6de838ea8bf2b9c757", "type": "electric_scooter", "name": "3abd357194a0aa6de838ea8bf2b9c757"}, {"is_disabled": 0, "is_reserved": 0, "fusion_lat": 0.0, "lat": 38.90013916666667, "fusion_lon": 0.0, "rental_uris": {"ios": "https://dc.lft.to/lastmile_qr_scan", "android": "https://dc.lft.to/lastmile_qr_scan"}, "lon": -76.97981633333333, "bike_id": "9d39a691c5d777705728db7d084758ce", "type": "electric_scooter", "name": "9d39a691c5d777705728db7d084758ce"}, {"is_disabled": 0, "is_reserved": 0, "fusion_lat": 0.0, "lat": 38.900063333333335, "fusion_lon": 0.0, "rental_uris": {"ios": "https://dc.lft.to/lastmile_qr_scan", "android": "https://dc.lft.to/lastmile_qr_scan"}, "lon": -76.9821485, "bike_id": "01abaf925ce844f523e82f433444e146", "type": "electric_scooter", "name": "01abaf925ce844f523e82f433444e146"}, {"is_disabled": 0, "is_reserved": 0, "fusion_lat": 0.0, "lat": 38.9381075, "fusion_lon": 0.0, "rental_uris": {"ios": "https://dc.lft.to/lastmile_qr_scan", "android": "https://dc.lft.to/lastmile_qr_scan"}, "lon": -77.02448833333334, "bike_id": "36e3b17510f6163df4abbba6e18d5148", "type": "electric_scooter", "name": "36e3b17510f6163df4abbba6e18d5148"}, {"is_disabled": 0, "is_reserved": 0, "fusion_lat": 0.0, "lat": 38.920564, "fusion_lon": 0.0, "rental_uris": {"ios": "https://dc.lft.to/lastmile_qr_scan", "android": "https://dc.lft.to/lastmile_qr_scan"}, "lon": -77.02298566666667, "bike_id": "65c3879dcc77fc4a67ce06d67544b860", "type": "electric_scooter", "name": "65c3879dcc77fc4a67ce06d67544b860"}, {"is_disabled": 0, "is_reserved": 0, "fusion_lat": 0.0, "lat": 38.90066066666667, "fusion_lon": 0.0, "rental_uris": {"ios": "https://dc.lft.to/lastmile_qr_scan", "android": "https://dc.lft.to/lastmile_qr_scan"}, "lon": -77.0067615, "bike_id": "e8d8a312b013d0fc671cd2006833064b", "type": "electric_scooter", "name": "e8d8a312b013d0fc671cd2006833064b"}, {"is_disabled": 0, "is_reserved": 0, "fusion_lat": 0.0, "lat": 38.91638116666667, "fusion_lon": 0.0, "rental_uris": {"ios": "https://dc.lft.to/lastmile_qr_scan", "android": "https://dc.lft.to/lastmile_qr_scan"}, "lon": -77.0269285, "bike_id": "2526161dc6bc9a73bbd7da98d3f537bc", "type": "electric_scooter", "name": "2526161dc6bc9a73bbd7da98d3f537bc"}, {"is_disabled": 0, "is_reserved": 0, "fusion_lat": 0.0, "lat": 38.87085733333333, "fusion_lon": 0.0, "rental_uris": {"ios": "https://dc.lft.to/lastmile_qr_scan", "android": "https://dc.lft.to/lastmile_qr_scan"}, "lon": -77.01207383333333, "bike_id": "ebdb35ea73a50d6293c565ece2d5c8b7", "type": "electric_scooter", "name": "ebdb35ea73a50d6293c565ece2d5c8b7"}, {"is_disabled": 0, "is_reserved": 0, "fusion_lat": 0.0, "lat": 38.920762, "fusion_lon": 0.0, "rental_uris": {"ios": "https://dc.lft.to/lastmile_qr_scan", "android": "https://dc.lft.to/lastmile_qr_scan"}, "lon": -77.02513083333334, "bike_id": "d2f58b95e58755d230ff8d7a1a78e20d", "type": "electric_scooter", "name": "d2f58b95e58755d230ff8d7a1a78e20d"}, {"is_disabled": 0, "is_reserved": 0, "fusion_lat": 0.0, "lat": 38.920428, "fusion_lon": 0.0, "rental_uris": {"ios": "https://dc.lft.to/lastmile_qr_scan", "android": "https://dc.lft.to/lastmile_qr_scan"}, "lon": -77.033743, "bike_id": "cfe8c1b85e77430593a57336e39812ef", "type": "electric_scooter", "name": "cfe8c1b85e77430593a57336e39812ef"}, {"is_disabled": 0, "is_reserved": 0, "fusion_lat": 0.0, "lat": 38.90627933333333, "fusion_lon": 0.0, "rental_uris": {"ios": "https://dc.lft.to/lastmile_qr_scan", "android": "https://dc.lft.to/lastmile_qr_scan"}, "lon": -77.027081, "bike_id": "24eea47c1855cec87d12812c00b780d1", "type": "electric_scooter", "name": "24eea47c1855cec87d12812c00b780d1"}, {"is_disabled": 0, "is_reserved": 0, "fusion_lat": 0.0, "lat": 38.9087865, "fusion_lon": 0.0, "rental_uris": {"ios": "https://dc.lft.to/lastmile_qr_scan", "android": "https://dc.lft.to/lastmile_qr_scan"}, "lon": -77.02286283333333, "bike_id": "fbdaf5d704a04cfbad950673b893a344", "type": "electric_scooter", "name": "fbdaf5d704a04cfbad950673b893a344"}, {"is_disabled": 0, "is_reserved": 0, "fusion_lat": 0.0, "lat": 38.92275216666667, "fusion_lon": 0.0, "rental_uris": {"ios": "https://dc.lft.to/lastmile_qr_scan", "android": "https://dc.lft.to/lastmile_qr_scan"}, "lon": -77.04239933333334, "bike_id": "5ce20094270a417b892483ef0f2c3712", "type": "electric_scooter", "name": "5ce20094270a417b892483ef0f2c3712"}, {"is_disabled": 0, "is_reserved": 0, "fusion_lat": 0.0, "lat": 38.924104666666665, "fusion_lon": 0.0, "rental_uris": {"ios": "https://dc.lft.to/lastmile_qr_scan", "android": "https://dc.lft.to/lastmile_qr_scan"}, "lon": -77.020364, "bike_id": "7ffbaf218a56579f42fd0b931e00434d", "type": "electric_scooter", "name": "7ffbaf218a56579f42fd0b931e00434d"}, {"is_disabled": 0, "is_reserved": 0, "fusion_lat": 0.0, "lat": 38.91723283333333, "fusion_lon": 0.0, "rental_uris": {"ios": "https://dc.lft.to/lastmile_qr_scan", "android": "https://dc.lft.to/lastmile_qr_scan"}, "lon": -77.02748416666667, "bike_id": "b04eaa1c888690626fb037d1f430f525", "type": "electric_scooter", "name": "b04eaa1c888690626fb037d1f430f525"}, {"is_disabled": 0, "is_reserved": 0, "fusion_lat": 0.0, "lat": 38.9214165, "fusion_lon": 0.0, "rental_uris": {"ios": "https://dc.lft.to/lastmile_qr_scan", "android": "https://dc.lft.to/lastmile_qr_scan"}, "lon": -77.031865, "bike_id": "eeccef73598b4bd2f37f5c399f6bfc84", "type": "electric_scooter", "name": "eeccef73598b4bd2f37f5c399f6bfc84"}, {"is_disabled": 0, "is_reserved": 0, "fusion_lat": 0.0, "lat": 38.926531833333335, "fusion_lon": 0.0, "rental_uris": {"ios": "https://dc.lft.to/lastmile_qr_scan", "android": "https://dc.lft.to/lastmile_qr_scan"}, "lon": -77.02434383333333, "bike_id": "5b9c0e3374a38633da79bc05b490bc14", "type": "electric_scooter", "name": "5b9c0e3374a38633da79bc05b490bc14"}, {"is_disabled": 0, "is_reserved": 0, "fusion_lat": 0.0, "lat": 38.923978166666664, "fusion_lon": 0.0, "rental_uris": {"ios": "https://dc.lft.to/lastmile_qr_scan", "android": "https://dc.lft.to/lastmile_qr_scan"}, "lon": -77.04069166666666, "bike_id": "630e9885e7da3e826049abf190103ffb", "type": "electric_scooter", "name": "630e9885e7da3e826049abf190103ffb"}, {"is_disabled": 0, "is_reserved": 0, "fusion_lat": 0.0, "lat": 38.91330133333334, "fusion_lon": 0.0, "rental_uris": {"ios": "https://dc.lft.to/lastmile_qr_scan", "android": "https://dc.lft.to/lastmile_qr_scan"}, "lon": -77.03044233333334, "bike_id": "c0572a8a8962dc1b7854ff5af6a90d96", "type": "electric_scooter", "name": "c0572a8a8962dc1b7854ff5af6a90d96"}, {"is_disabled": 0, "is_reserved": 0, "fusion_lat": 0.0, "lat": 38.8973235, "fusion_lon": 0.0, "rental_uris": {"ios": "https://dc.lft.to/lastmile_qr_scan", "android": "https://dc.lft.to/lastmile_qr_scan"}, "lon": -77.043694, "bike_id": "4c7491cb612e0660cadd951526a190e6", "type": "electric_scooter", "name": "4c7491cb612e0660cadd951526a190e6"}, {"is_disabled": 0, "is_reserved": 0, "fusion_lat": 0.0, "lat": 38.92284333333333, "fusion_lon": 0.0, "rental_uris": {"ios": "https://dc.lft.to/lastmile_qr_scan", "android": "https://dc.lft.to/lastmile_qr_scan"}, "lon": -77.03657433333333, "bike_id": "63321fdf8b792eeb28660148b9369972", "type": "electric_scooter", "name": "63321fdf8b792eeb28660148b9369972"}, {"is_disabled": 0, "is_reserved": 0, "fusion_lat": 0.0, "lat": 38.939734333333334, "fusion_lon": 0.0, "rental_uris": {"ios": "https://dc.lft.to/lastmile_qr_scan", "android": "https://dc.lft.to/lastmile_qr_scan"}, "lon": -77.03429933333334, "bike_id": "d72f375dc2a491344d341a786d2eaf7b", "type": "electric_scooter", "name": "d72f375dc2a491344d341a786d2eaf7b"}, {"is_disabled": 0, "is_reserved": 0, "fusion_lat": 0.0, "lat": 38.931066666666666, "fusion_lon": 0.0, "rental_uris": {"ios": "https://dc.lft.to/lastmile_qr_scan", "android": "https://dc.lft.to/lastmile_qr_scan"}, "lon": -77.03024716666667, "bike_id": "443629131d4a7bc95ce6b9f009efdd2f", "type": "electric_scooter", "name": "443629131d4a7bc95ce6b9f009efdd2f"}, {"is_disabled": 0, "is_reserved": 0, "fusion_lat": 0.0, "lat": 38.91467183333334, "fusion_lon": 0.0, "rental_uris": {"ios": "https://dc.lft.to/lastmile_qr_scan", "android": "https://dc.lft.to/lastmile_qr_scan"}, "lon": -77.03207566666667, "bike_id": "4c7add5d4cccbe5b970cb26cf1a00762", "type": "electric_scooter", "name": "4c7add5d4cccbe5b970cb26cf1a00762"}, {"is_disabled": 0, "is_reserved": 0, "fusion_lat": 0.0, "lat": 39.00373883333334, "fusion_lon": 0.0, "rental_uris": {"ios": "https://dc.lft.to/lastmile_qr_scan", "android": "https://dc.lft.to/lastmile_qr_scan"}, "lon": -77.0128945, "bike_id": "2f765cfec1f52ae7cb1cde98ae905c0e", "type": "electric_bike", "name": "2f765cfec1f52ae7cb1cde98ae905c0e"}, {"is_disabled": 0, "is_reserved": 0, "fusion_lat": 0.0, "lat": 38.9207395, "fusion_lon": 0.0, "rental_uris": {"ios": "https://dc.lft.to/lastmile_qr_scan", "android": "https://dc.lft.to/lastmile_qr_scan"}, "lon": -77.02510016666666, "bike_id": "60c8a1dc7ac20b5e52c4fe848b4fb2df", "type": "electric_scooter", "name": "60c8a1dc7ac20b5e52c4fe848b4fb2df"}, {"is_disabled": 0, "is_reserved": 0, "fusion_lat": 0.0, "lat": 38.91709816666667, "fusion_lon": 0.0, "rental_uris": {"ios": "https://dc.lft.to/lastmile_qr_scan", "android": "https://dc.lft.to/lastmile_qr_scan"}, "lon": -77.09204866666667, "bike_id": "7c280e1d764ac80f1ea3fbb9d9ca28cc", "type": "electric_scooter", "name": "7c280e1d764ac80f1ea3fbb9d9ca28cc"}, {"is_disabled": 0, "is_reserved": 0, "fusion_lat": 0.0, "lat": 38.920971333333334, "fusion_lon": 0.0, "rental_uris": {"ios": "https://dc.lft.to/lastmile_qr_scan", "android": "https://dc.lft.to/lastmile_qr_scan"}, "lon": -77.02510466666666, "bike_id": "df9e64179414282443752af3e1d377a6", "type": "electric_scooter", "name": "df9e64179414282443752af3e1d377a6"}, {"is_disabled": 0, "is_reserved": 0, "fusion_lat": 0.0, "lat": 38.901795666666665, "fusion_lon": 0.0, "rental_uris": {"ios": "https://dc.lft.to/lastmile_qr_scan", "android": "https://dc.lft.to/lastmile_qr_scan"}, "lon": -77.00201383333334, "bike_id": "42cad9d48c422b0ccc3a2c3fcde63a32", "type": "electric_scooter", "name": "42cad9d48c422b0ccc3a2c3fcde63a32"}, {"is_disabled": 0, "is_reserved": 0, "fusion_lat": 0.0, "lat": 38.90093133333333, "fusion_lon": 0.0, "rental_uris": {"ios": "https://dc.lft.to/lastmile_qr_scan", "android": "https://dc.lft.to/lastmile_qr_scan"}, "lon": -77.017593, "bike_id": "3ed3aa85064dd7a99d879287556ff1e4", "type": "electric_scooter", "name": "3ed3aa85064dd7a99d879287556ff1e4"}, {"is_disabled": 0, "is_reserved": 0, "fusion_lat": 0.0, "lat": 38.927535, "fusion_lon": 0.0, "rental_uris": {"ios": "https://dc.lft.to/lastmile_qr_scan", "android": "https://dc.lft.to/lastmile_qr_scan"}, "lon": -77.03263933333334, "bike_id": "16320f72f9d6c182c1bdd408657e1867", "type": "electric_scooter", "name": "16320f72f9d6c182c1bdd408657e1867"}, {"is_disabled": 0, "is_reserved": 0, "fusion_lat": 0.0, "lat": 38.907822, "fusion_lon": 0.0, "rental_uris": {"ios": "https://dc.lft.to/lastmile_qr_scan", "android": "https://dc.lft.to/lastmile_qr_scan"}, "lon": -77.06837616666667, "bike_id": "8d132ee4086167c5eae0043a2b630398", "type": "electric_scooter", "name": "8d132ee4086167c5eae0043a2b630398"}, {"is_disabled": 0, "is_reserved": 0, "fusion_lat": 0.0, "lat": 38.9135085, "fusion_lon": 0.0, "rental_uris": {"ios": "https://dc.lft.to/lastmile_qr_scan", "android": "https://dc.lft.to/lastmile_qr_scan"}, "lon": -77.04421233333333, "bike_id": "bea537c88d4cbe2b4ad4e3ab0d18dfa1", "type": "electric_scooter", "name": "bea537c88d4cbe2b4ad4e3ab0d18dfa1"}, {"is_disabled": 0, "is_reserved": 0, "fusion_lat": 0.0, "lat": 38.89371116666667, "fusion_lon": 0.0, "rental_uris": {"ios": "https://dc.lft.to/lastmile_qr_scan", "android": "https://dc.lft.to/lastmile_qr_scan"}, "lon": -77.0115845, "bike_id": "492f52ac4f2d1b846322a222e4d1cc84", "type": "electric_scooter", "name": "492f52ac4f2d1b846322a222e4d1cc84"}, {"is_disabled": 0, "is_reserved": 0, "fusion_lat": 0.0, "lat": 38.923779833333334, "fusion_lon": 0.0, "rental_uris": {"ios": "https://dc.lft.to/lastmile_qr_scan", "android": "https://dc.lft.to/lastmile_qr_scan"}, "lon": -77.02029616666667, "bike_id": "5335e6aff005b699eb56bbc03b1a23ae", "type": "electric_scooter", "name": "5335e6aff005b699eb56bbc03b1a23ae"}, {"is_disabled": 0, "is_reserved": 0, "fusion_lat": 0.0, "lat": 38.94312566666667, "fusion_lon": 0.0, "rental_uris": {"ios": "https://dc.lft.to/lastmile_qr_scan", "android": "https://dc.lft.to/lastmile_qr_scan"}, "lon": -77.01728983333334, "bike_id": "b4f92d30c18314146b26c19b2beaa984", "type": "electric_scooter", "name": "b4f92d30c18314146b26c19b2beaa984"}, {"is_disabled": 0, "is_reserved": 0, "fusion_lat": 0.0, "lat": 38.907315833333335, "fusion_lon": 0.0, "rental_uris": {"ios": "https://dc.lft.to/lastmile_qr_scan", "android": "https://dc.lft.to/lastmile_qr_scan"}, "lon": -77.003603, "bike_id": "39d93a973a920e4b8cbba7194f4147af", "type": "electric_scooter", "name": "39d93a973a920e4b8cbba7194f4147af"}, {"is_disabled": 0, "is_reserved": 0, "fusion_lat": 0.0, "lat": 38.9054255, "fusion_lon": 0.0, "rental_uris": {"ios": "https://dc.lft.to/lastmile_qr_scan", "android": "https://dc.lft.to/lastmile_qr_scan"}, "lon": -77.05697016666667, "bike_id": "6322a522226c1e6375ee717aca932006", "type": "electric_scooter", "name": "6322a522226c1e6375ee717aca932006"}, {"is_disabled": 0, "is_reserved": 0, "fusion_lat": 0.0, "lat": 38.91560333333334, "fusion_lon": 0.0, "rental_uris": {"ios": "https://dc.lft.to/lastmile_qr_scan", "android": "https://dc.lft.to/lastmile_qr_scan"}, "lon": -77.03138466666667, "bike_id": "3128b2288343143a83139988974d9e5e", "type": "electric_scooter", "name": "3128b2288343143a83139988974d9e5e"}, {"is_disabled": 0, "is_reserved": 0, "fusion_lat": 0.0, "lat": 38.9221535, "fusion_lon": 0.0, "rental_uris": {"ios": "https://dc.lft.to/lastmile_qr_scan", "android": "https://dc.lft.to/lastmile_qr_scan"}, "lon": -77.04262733333333, "bike_id": "bc13093060ebcd3ee1d855479b879fca", "type": "electric_scooter", "name": "bc13093060ebcd3ee1d855479b879fca"}, {"is_disabled": 0, "is_reserved": 0, "fusion_lat": 0.0, "lat": 38.89551683333333, "fusion_lon": 0.0, "rental_uris": {"ios": "https://dc.lft.to/lastmile_qr_scan", "android": "https://dc.lft.to/lastmile_qr_scan"}, "lon": -77.03981666666667, "bike_id": "b1989162b43813ea0abf605f4542036c", "type": "electric_scooter", "name": "b1989162b43813ea0abf605f4542036c"}, {"is_disabled": 0, "is_reserved": 0, "fusion_lat": 0.0, "lat": 38.919247166666665, "fusion_lon": 0.0, "rental_uris": {"ios": "https://dc.lft.to/lastmile_qr_scan", "android": "https://dc.lft.to/lastmile_qr_scan"}, "lon": -77.009766, "bike_id": "10bbfd679f8e295223059da9c4b2c1cf", "type": "electric_scooter", "name": "10bbfd679f8e295223059da9c4b2c1cf"}, {"is_disabled": 0, "is_reserved": 0, "fusion_lat": 0.0, "lat": 38.91550483333333, "fusion_lon": 0.0, "rental_uris": {"ios": "https://dc.lft.to/lastmile_qr_scan", "android": "https://dc.lft.to/lastmile_qr_scan"}, "lon": -77.02138866666667, "bike_id": "ade9a999a8c6253ddedfb634f6f5987d", "type": "electric_scooter", "name": "ade9a999a8c6253ddedfb634f6f5987d"}, {"is_disabled": 0, "is_reserved": 0, "fusion_lat": 0.0, "lat": 38.875793, "fusion_lon": 0.0, "rental_uris": {"ios": "https://dc.lft.to/lastmile_qr_scan", "android": "https://dc.lft.to/lastmile_qr_scan"}, "lon": -77.2340965, "bike_id": "d9975ff40a6557c5de4a7d2d7a6e09d2", "type": "electric_bike", "name": "d9975ff40a6557c5de4a7d2d7a6e09d2"}, {"is_disabled": 0, "is_reserved": 0, "fusion_lat": 0.0, "lat": 38.880404166666665, "fusion_lon": 0.0, "rental_uris": {"ios": "https://dc.lft.to/lastmile_qr_scan", "android": "https://dc.lft.to/lastmile_qr_scan"}, "lon": -76.92723016666666, "bike_id": "3111c3a1575dfcbbfeb36b5e6c611322", "type": "electric_scooter", "name": "3111c3a1575dfcbbfeb36b5e6c611322"}, {"is_disabled": 0, "is_reserved": 0, "fusion_lat": 0.0, "lat": 38.931904, "fusion_lon": 0.0, "rental_uris": {"ios": "https://dc.lft.to/lastmile_qr_scan", "android": "https://dc.lft.to/lastmile_qr_scan"}, "lon": -77.03265833333333, "bike_id": "0d1c5d2fc0d8a7dcdb8751356fca7791", "type": "electric_scooter", "name": "0d1c5d2fc0d8a7dcdb8751356fca7791"}, {"is_disabled": 0, "is_reserved": 0, "fusion_lat": 0.0, "lat": 38.870721833333334, "fusion_lon": 0.0, "rental_uris": {"ios": "https://dc.lft.to/lastmile_qr_scan", "android": "https://dc.lft.to/lastmile_qr_scan"}, "lon": -76.9813035, "bike_id": "8864ec85a912fb42064677f6ac27fb22", "type": "electric_scooter", "name": "8864ec85a912fb42064677f6ac27fb22"}, {"is_disabled": 0, "is_reserved": 0, "fusion_lat": 0.0, "lat": 38.881642, "fusion_lon": 0.0, "rental_uris": {"ios": "https://dc.lft.to/lastmile_qr_scan", "android": "https://dc.lft.to/lastmile_qr_scan"}, "lon": -77.02767183333333, "bike_id": "ba352b004ea369d135a6c9121433df21", "type": "electric_scooter", "name": "ba352b004ea369d135a6c9121433df21"}, {"is_disabled": 0, "is_reserved": 0, "fusion_lat": 0.0, "lat": 38.91682133333333, "fusion_lon": 0.0, "rental_uris": {"ios": "https://dc.lft.to/lastmile_qr_scan", "android": "https://dc.lft.to/lastmile_qr_scan"}, "lon": -77.0255995, "bike_id": "77f38658e4026db4000d4fb80d180988", "type": "electric_scooter", "name": "77f38658e4026db4000d4fb80d180988"}, {"is_disabled": 0, "is_reserved": 0, "fusion_lat": 0.0, "lat": 38.8806665, "fusion_lon": 0.0, "rental_uris": {"ios": "https://dc.lft.to/lastmile_qr_scan", "android": "https://dc.lft.to/lastmile_qr_scan"}, "lon": -77.025915, "bike_id": "380d0ddc56611b2db09e86ac66504080", "type": "electric_scooter", "name": "380d0ddc56611b2db09e86ac66504080"}, {"is_disabled": 0, "is_reserved": 0, "fusion_lat": 0.0, "lat": 38.941007, "fusion_lon": 0.0, "rental_uris": {"ios": "https://dc.lft.to/lastmile_qr_scan", "android": "https://dc.lft.to/lastmile_qr_scan"}, "lon": -76.956238, "bike_id": "581f8b792f86688a19245633f7172b5d", "type": "electric_bike", "name": "581f8b792f86688a19245633f7172b5d"}, {"is_disabled": 0, "is_reserved": 0, "fusion_lat": 0.0, "lat": 38.886622, "fusion_lon": 0.0, "rental_uris": {"ios": "https://dc.lft.to/lastmile_qr_scan", "android": "https://dc.lft.to/lastmile_qr_scan"}, "lon": -77.16232616666667, "bike_id": "00c5a28eee7f2232c6e90092561685f3", "type": "electric_bike", "name": "00c5a28eee7f2232c6e90092561685f3"}, {"is_disabled": 0, "is_reserved": 0, "fusion_lat": 0.0, "lat": 38.900841166666666, "fusion_lon": 0.0, "rental_uris": {"ios": "https://dc.lft.to/lastmile_qr_scan", "android": "https://dc.lft.to/lastmile_qr_scan"}, "lon": -77.05059666666666, "bike_id": "34283bd7e25f41076c789aee82fb2992", "type": "electric_scooter", "name": "34283bd7e25f41076c789aee82fb2992"}, {"is_disabled": 0, "is_reserved": 0, "fusion_lat": 0.0, "lat": 38.90366266666667, "fusion_lon": 0.0, "rental_uris": {"ios": "https://dc.lft.to/lastmile_qr_scan", "android": "https://dc.lft.to/lastmile_qr_scan"}, "lon": -77.03207766666667, "bike_id": "5ff1afe1b17e03314a5228ac21e90478", "type": "electric_scooter", "name": "5ff1afe1b17e03314a5228ac21e90478"}, {"is_disabled": 0, "is_reserved": 0, "fusion_lat": 0.0, "lat": 38.922485333333334, "fusion_lon": 0.0, "rental_uris": {"ios": "https://dc.lft.to/lastmile_qr_scan", "android": "https://dc.lft.to/lastmile_qr_scan"}, "lon": -77.04250966666666, "bike_id": "db5391ea149d29bf134b4d1337890331", "type": "electric_scooter", "name": "db5391ea149d29bf134b4d1337890331"}, {"is_disabled": 0, "is_reserved": 0, "fusion_lat": 0.0, "lat": 38.90511333333333, "fusion_lon": 0.0, "rental_uris": {"ios": "https://dc.lft.to/lastmile_qr_scan", "android": "https://dc.lft.to/lastmile_qr_scan"}, "lon": -76.99039183333333, "bike_id": "47da7e544847f285f82c828e8fb03122", "type": "electric_scooter", "name": "47da7e544847f285f82c828e8fb03122"}, {"is_disabled": 0, "is_reserved": 0, "fusion_lat": 0.0, "lat": 38.916836, "fusion_lon": 0.0, "rental_uris": {"ios": "https://dc.lft.to/lastmile_qr_scan", "android": "https://dc.lft.to/lastmile_qr_scan"}, "lon": -77.029683, "bike_id": "3df1fccc2908cbdceb494b82c639ed65", "type": "electric_scooter", "name": "3df1fccc2908cbdceb494b82c639ed65"}, {"is_disabled": 0, "is_reserved": 0, "fusion_lat": 0.0, "lat": 38.967605, "fusion_lon": 0.0, "rental_uris": {"ios": "https://dc.lft.to/lastmile_qr_scan", "android": "https://dc.lft.to/lastmile_qr_scan"}, "lon": -77.0342275, "bike_id": "253a1f4b5ea7f400240fc81d8ed2ffa7", "type": "electric_scooter", "name": "253a1f4b5ea7f400240fc81d8ed2ffa7"}, {"is_disabled": 0, "is_reserved": 0, "fusion_lat": 0.0, "lat": 38.92747966666667, "fusion_lon": 0.0, "rental_uris": {"ios": "https://dc.lft.to/lastmile_qr_scan", "android": "https://dc.lft.to/lastmile_qr_scan"}, "lon": -77.02371766666667, "bike_id": "b5059fdb9f171109e46c1602268db3b3", "type": "electric_scooter", "name": "b5059fdb9f171109e46c1602268db3b3"}, {"is_disabled": 0, "is_reserved": 0, "fusion_lat": 0.0, "lat": 38.90712633333333, "fusion_lon": 0.0, "rental_uris": {"ios": "https://dc.lft.to/lastmile_qr_scan", "android": "https://dc.lft.to/lastmile_qr_scan"}, "lon": -77.013499, "bike_id": "3c0746843ecf32c59e65c1e7cf1dd37e", "type": "electric_scooter", "name": "3c0746843ecf32c59e65c1e7cf1dd37e"}, {"is_disabled": 0, "is_reserved": 0, "fusion_lat": 0.0, "lat": 38.922004666666666, "fusion_lon": 0.0, "rental_uris": {"ios": "https://dc.lft.to/lastmile_qr_scan", "android": "https://dc.lft.to/lastmile_qr_scan"}, "lon": -77.02043516666667, "bike_id": "06cbdaa775f733aff912b2ab719fe320", "type": "electric_scooter", "name": "06cbdaa775f733aff912b2ab719fe320"}, {"is_disabled": 0, "is_reserved": 0, "fusion_lat": 0.0, "lat": 38.908616333333335, "fusion_lon": 0.0, "rental_uris": {"ios": "https://dc.lft.to/lastmile_qr_scan", "android": "https://dc.lft.to/lastmile_qr_scan"}, "lon": -77.0235345, "bike_id": "3ca2d1d7b703a8ae17e560d26b994043", "type": "electric_scooter", "name": "3ca2d1d7b703a8ae17e560d26b994043"}, {"is_disabled": 0, "is_reserved": 0, "fusion_lat": 0.0, "lat": 38.905108166666665, "fusion_lon": 0.0, "rental_uris": {"ios": "https://dc.lft.to/lastmile_qr_scan", "android": "https://dc.lft.to/lastmile_qr_scan"}, "lon": -76.95198883333333, "bike_id": "0aaec1f2c2c4bd19d6c7033660fa0b80", "type": "electric_scooter", "name": "0aaec1f2c2c4bd19d6c7033660fa0b80"}, {"is_disabled": 0, "is_reserved": 0, "fusion_lat": 0.0, "lat": 38.927544166666664, "fusion_lon": 0.0, "rental_uris": {"ios": "https://dc.lft.to/lastmile_qr_scan", "android": "https://dc.lft.to/lastmile_qr_scan"}, "lon": -77.05262883333333, "bike_id": "7997cb1c8fcc76111113434f098f86ff", "type": "electric_scooter", "name": "7997cb1c8fcc76111113434f098f86ff"}, {"is_disabled": 0, "is_reserved": 0, "fusion_lat": 0.0, "lat": 38.91413816666667, "fusion_lon": 0.0, "rental_uris": {"ios": "https://dc.lft.to/lastmile_qr_scan", "android": "https://dc.lft.to/lastmile_qr_scan"}, "lon": -77.05209383333333, "bike_id": "14e4311cb51662e715445f862c664a24", "type": "electric_scooter", "name": "14e4311cb51662e715445f862c664a24"}, {"is_disabled": 0, "is_reserved": 0, "fusion_lat": 0.0, "lat": 38.89835133333333, "fusion_lon": 0.0, "rental_uris": {"ios": "https://dc.lft.to/lastmile_qr_scan", "android": "https://dc.lft.to/lastmile_qr_scan"}, "lon": -76.99621216666667, "bike_id": "3e49b36ad1f292b177a127b471d6c71d", "type": "electric_scooter", "name": "3e49b36ad1f292b177a127b471d6c71d"}, {"is_disabled": 0, "is_reserved": 0, "fusion_lat": 0.0, "lat": 38.916445333333336, "fusion_lon": 0.0, "rental_uris": {"ios": "https://dc.lft.to/lastmile_qr_scan", "android": "https://dc.lft.to/lastmile_qr_scan"}, "lon": -77.0230085, "bike_id": "76be0566d9a16e4e27b1ad81e3ac2495", "type": "electric_scooter", "name": "76be0566d9a16e4e27b1ad81e3ac2495"}, {"is_disabled": 0, "is_reserved": 0, "fusion_lat": 0.0, "lat": 38.88055166666667, "fusion_lon": 0.0, "rental_uris": {"ios": "https://dc.lft.to/lastmile_qr_scan", "android": "https://dc.lft.to/lastmile_qr_scan"}, "lon": -77.02570783333333, "bike_id": "1177ade1bc36096adeaaa386425ea1c0", "type": "electric_scooter", "name": "1177ade1bc36096adeaaa386425ea1c0"}, {"is_disabled": 0, "is_reserved": 0, "fusion_lat": 0.0, "lat": 39.026477, "fusion_lon": 0.0, "rental_uris": {"ios": "https://dc.lft.to/lastmile_qr_scan", "android": "https://dc.lft.to/lastmile_qr_scan"}, "lon": -77.03685283333333, "bike_id": "db2fd534c176475a5e8ddf33af8d0a0f", "type": "electric_bike", "name": "db2fd534c176475a5e8ddf33af8d0a0f"}, {"is_disabled": 0, "is_reserved": 0, "fusion_lat": 0.0, "lat": 38.915357166666666, "fusion_lon": 0.0, "rental_uris": {"ios": "https://dc.lft.to/lastmile_qr_scan", "android": "https://dc.lft.to/lastmile_qr_scan"}, "lon": -77.0263375, "bike_id": "e85c35bc856d0a3cd5252bc9ba0d2646", "type": "electric_scooter", "name": "e85c35bc856d0a3cd5252bc9ba0d2646"}, {"is_disabled": 0, "is_reserved": 0, "fusion_lat": 0.0, "lat": 38.955883, "fusion_lon": 0.0, "rental_uris": {"ios": "https://dc.lft.to/lastmile_qr_scan", "android": "https://dc.lft.to/lastmile_qr_scan"}, "lon": -77.01780016666666, "bike_id": "c82382a56ce96c20a569a2a8e09558d2", "type": "electric_scooter", "name": "c82382a56ce96c20a569a2a8e09558d2"}, {"is_disabled": 0, "is_reserved": 0, "fusion_lat": 0.0, "lat": 38.88618616666667, "fusion_lon": 0.0, "rental_uris": {"ios": "https://dc.lft.to/lastmile_qr_scan", "android": "https://dc.lft.to/lastmile_qr_scan"}, "lon": -76.92636283333333, "bike_id": "eb9743c24d6ff740d9b6b8992507ba84", "type": "electric_scooter", "name": "eb9743c24d6ff740d9b6b8992507ba84"}, {"is_disabled": 0, "is_reserved": 0, "fusion_lat": 0.0, "lat": 38.886324, "fusion_lon": 0.0, "rental_uris": {"ios": "https://dc.lft.to/lastmile_qr_scan", "android": "https://dc.lft.to/lastmile_qr_scan"}, "lon": -77.02218916666666, "bike_id": "3a146088bcc9f10474abaea45b342598", "type": "electric_scooter", "name": "3a146088bcc9f10474abaea45b342598"}, {"is_disabled": 0, "is_reserved": 0, "fusion_lat": 0.0, "lat": 38.929976833333335, "fusion_lon": 0.0, "rental_uris": {"ios": "https://dc.lft.to/lastmile_qr_scan", "android": "https://dc.lft.to/lastmile_qr_scan"}, "lon": -77.0379845, "bike_id": "b0911f04a44dd3a984c16db0771a3d7e", "type": "electric_scooter", "name": "b0911f04a44dd3a984c16db0771a3d7e"}, {"is_disabled": 0, "is_reserved": 0, "fusion_lat": 0.0, "lat": 38.89968183333333, "fusion_lon": 0.0, "rental_uris": {"ios": "https://dc.lft.to/lastmile_qr_scan", "android": "https://dc.lft.to/lastmile_qr_scan"}, "lon": -76.92622, "bike_id": "6b90149b491d6347d34d4ddc4668c6d3", "type": "electric_scooter", "name": "6b90149b491d6347d34d4ddc4668c6d3"}, {"is_disabled": 0, "is_reserved": 0, "fusion_lat": 0.0, "lat": 38.91552333333333, "fusion_lon": 0.0, "rental_uris": {"ios": "https://dc.lft.to/lastmile_qr_scan", "android": "https://dc.lft.to/lastmile_qr_scan"}, "lon": -77.02139083333333, "bike_id": "403c45a1a9593f494617c329c5609cbb", "type": "electric_scooter", "name": "403c45a1a9593f494617c329c5609cbb"}, {"is_disabled": 0, "is_reserved": 0, "fusion_lat": 0.0, "lat": 38.940843666666666, "fusion_lon": 0.0, "rental_uris": {"ios": "https://dc.lft.to/lastmile_qr_scan", "android": "https://dc.lft.to/lastmile_qr_scan"}, "lon": -77.02723666666667, "bike_id": "41e7416895e14df610583990e56fe187", "type": "electric_scooter", "name": "41e7416895e14df610583990e56fe187"}, {"is_disabled": 0, "is_reserved": 0, "fusion_lat": 0.0, "lat": 39.025189833333336, "fusion_lon": 0.0, "rental_uris": {"ios": "https://dc.lft.to/lastmile_qr_scan", "android": "https://dc.lft.to/lastmile_qr_scan"}, "lon": -77.0196455, "bike_id": "8e92fb80fa54046496152e57ab01de08", "type": "electric_bike", "name": "8e92fb80fa54046496152e57ab01de08"}, {"is_disabled": 0, "is_reserved": 0, "fusion_lat": 0.0, "lat": 38.93007333333333, "fusion_lon": 0.0, "rental_uris": {"ios": "https://dc.lft.to/lastmile_qr_scan", "android": "https://dc.lft.to/lastmile_qr_scan"}, "lon": -77.03281516666667, "bike_id": "74be402a3f8e418013033fbdecab73de", "type": "electric_scooter", "name": "74be402a3f8e418013033fbdecab73de"}, {"is_disabled": 0, "is_reserved": 0, "fusion_lat": 0.0, "lat": 38.92054233333333, "fusion_lon": 0.0, "rental_uris": {"ios": "https://dc.lft.to/lastmile_qr_scan", "android": "https://dc.lft.to/lastmile_qr_scan"}, "lon": -77.02296983333333, "bike_id": "881897b464aa6ca00a8b2ac8d454e32c", "type": "electric_scooter", "name": "881897b464aa6ca00a8b2ac8d454e32c"}, {"is_disabled": 0, "is_reserved": 0, "fusion_lat": 0.0, "lat": 38.952753333333334, "fusion_lon": 0.0, "rental_uris": {"ios": "https://dc.lft.to/lastmile_qr_scan", "android": "https://dc.lft.to/lastmile_qr_scan"}, "lon": -77.06879, "bike_id": "8d35d0da9eb8ac06f39d303dafec653d", "type": "electric_scooter", "name": "8d35d0da9eb8ac06f39d303dafec653d"}, {"is_disabled": 0, "is_reserved": 0, "fusion_lat": 0.0, "lat": 39.08475, "fusion_lon": 0.0, "rental_uris": {"ios": "https://dc.lft.to/lastmile_qr_scan", "android": "https://dc.lft.to/lastmile_qr_scan"}, "lon": -76.95068316666666, "bike_id": "ba297b0b458553e1e34bc8b84fabb547", "type": "electric_bike", "name": "ba297b0b458553e1e34bc8b84fabb547"}, {"is_disabled": 0, "is_reserved": 0, "fusion_lat": 0.0, "lat": 38.88882533333334, "fusion_lon": 0.0, "rental_uris": {"ios": "https://dc.lft.to/lastmile_qr_scan", "android": "https://dc.lft.to/lastmile_qr_scan"}, "lon": -76.99029316666666, "bike_id": "9040873548058ba057c4b5401a459f8f", "type": "electric_scooter", "name": "9040873548058ba057c4b5401a459f8f"}, {"is_disabled": 0, "is_reserved": 0, "fusion_lat": 0.0, "lat": 38.898141333333335, "fusion_lon": 0.0, "rental_uris": {"ios": "https://dc.lft.to/lastmile_qr_scan", "android": "https://dc.lft.to/lastmile_qr_scan"}, "lon": -77.028023, "bike_id": "c6328444aad2c7f67ce5860a22cf9956", "type": "electric_scooter", "name": "c6328444aad2c7f67ce5860a22cf9956"}, {"is_disabled": 0, "is_reserved": 0, "fusion_lat": 0.0, "lat": 38.90164333333333, "fusion_lon": 0.0, "rental_uris": {"ios": "https://dc.lft.to/lastmile_qr_scan", "android": "https://dc.lft.to/lastmile_qr_scan"}, "lon": -77.0307115, "bike_id": "c3f0e1abd3bc1fefddf6a8733ff2fef5", "type": "electric_scooter", "name": "c3f0e1abd3bc1fefddf6a8733ff2fef5"}, {"is_disabled": 0, "is_reserved": 0, "fusion_lat": 0.0, "lat": 38.916122333333334, "fusion_lon": 0.0, "rental_uris": {"ios": "https://dc.lft.to/lastmile_qr_scan", "android": "https://dc.lft.to/lastmile_qr_scan"}, "lon": -77.02125583333333, "bike_id": "e7c18a333916897a53af2e4c89b6db8a", "type": "electric_scooter", "name": "e7c18a333916897a53af2e4c89b6db8a"}, {"is_disabled": 0, "is_reserved": 0, "fusion_lat": 0.0, "lat": 38.923500833333335, "fusion_lon": 0.0, "rental_uris": {"ios": "https://dc.lft.to/lastmile_qr_scan", "android": "https://dc.lft.to/lastmile_qr_scan"}, "lon": -76.97205333333333, "bike_id": "590ddffe65965877b65709993c8fba39", "type": "electric_scooter", "name": "590ddffe65965877b65709993c8fba39"}, {"is_disabled": 0, "is_reserved": 0, "fusion_lat": 0.0, "lat": 38.90438916666667, "fusion_lon": 0.0, "rental_uris": {"ios": "https://dc.lft.to/lastmile_qr_scan", "android": "https://dc.lft.to/lastmile_qr_scan"}, "lon": -76.97223416666667, "bike_id": "74e4e34ad76f91b7812a7b773638c097", "type": "electric_bike", "name": "74e4e34ad76f91b7812a7b773638c097"}, {"is_disabled": 0, "is_reserved": 0, "fusion_lat": 0.0, "lat": 38.898462, "fusion_lon": 0.0, "rental_uris": {"ios": "https://dc.lft.to/lastmile_qr_scan", "android": "https://dc.lft.to/lastmile_qr_scan"}, "lon": -76.927483, "bike_id": "5fe6e4b1c9c8666552e7087d9b7cb98e", "type": "electric_scooter", "name": "5fe6e4b1c9c8666552e7087d9b7cb98e"}, {"is_disabled": 0, "is_reserved": 0, "fusion_lat": 0.0, "lat": 38.907212666666666, "fusion_lon": 0.0, "rental_uris": {"ios": "https://dc.lft.to/lastmile_qr_scan", "android": "https://dc.lft.to/lastmile_qr_scan"}, "lon": -77.046437, "bike_id": "53088600808fb4e1fedebe8a0bbd20d9", "type": "electric_scooter", "name": "53088600808fb4e1fedebe8a0bbd20d9"}, {"is_disabled": 0, "is_reserved": 0, "fusion_lat": 0.0, "lat": 38.83302283333333, "fusion_lon": 0.0, "rental_uris": {"ios": "https://dc.lft.to/lastmile_qr_scan", "android": "https://dc.lft.to/lastmile_qr_scan"}, "lon": -77.08401833333333, "bike_id": "21ad1a99fe7066bc6ae7d7e764f079a8", "type": "electric_bike", "name": "21ad1a99fe7066bc6ae7d7e764f079a8"}, {"is_disabled": 0, "is_reserved": 0, "fusion_lat": 0.0, "lat": 38.9181855, "fusion_lon": 0.0, "rental_uris": {"ios": "https://dc.lft.to/lastmile_qr_scan", "android": "https://dc.lft.to/lastmile_qr_scan"}, "lon": -77.03890416666667, "bike_id": "0a31ddbfbac3835f023343275d166595", "type": "electric_scooter", "name": "0a31ddbfbac3835f023343275d166595"}, {"is_disabled": 0, "is_reserved": 0, "fusion_lat": 0.0, "lat": 38.92832683333334, "fusion_lon": 0.0, "rental_uris": {"ios": "https://dc.lft.to/lastmile_qr_scan", "android": "https://dc.lft.to/lastmile_qr_scan"}, "lon": -77.03701466666666, "bike_id": "19e2c5692a0ee07e306740db48fa50ae", "type": "electric_scooter", "name": "19e2c5692a0ee07e306740db48fa50ae"}, {"is_disabled": 0, "is_reserved": 0, "fusion_lat": 0.0, "lat": 38.90815533333333, "fusion_lon": 0.0, "rental_uris": {"ios": "https://dc.lft.to/lastmile_qr_scan", "android": "https://dc.lft.to/lastmile_qr_scan"}, "lon": -76.98826483333333, "bike_id": "b1b19c3edbc742a95029b49a28cc1ae7", "type": "electric_scooter", "name": "b1b19c3edbc742a95029b49a28cc1ae7"}, {"is_disabled": 0, "is_reserved": 0, "fusion_lat": 0.0, "lat": 38.91341966666667, "fusion_lon": 0.0, "rental_uris": {"ios": "https://dc.lft.to/lastmile_qr_scan", "android": "https://dc.lft.to/lastmile_qr_scan"}, "lon": -77.04232033333334, "bike_id": "7515e6e2cbf43128a36a2b79a430f2b1", "type": "electric_scooter", "name": "7515e6e2cbf43128a36a2b79a430f2b1"}, {"is_disabled": 0, "is_reserved": 0, "fusion_lat": 0.0, "lat": 38.9564715, "fusion_lon": 0.0, "rental_uris": {"ios": "https://dc.lft.to/lastmile_qr_scan", "android": "https://dc.lft.to/lastmile_qr_scan"}, "lon": -77.02815483333333, "bike_id": "402c68647a75d966b8c02fc2f48f2b9f", "type": "electric_scooter", "name": "402c68647a75d966b8c02fc2f48f2b9f"}, {"is_disabled": 0, "is_reserved": 0, "fusion_lat": 0.0, "lat": 38.87647283333333, "fusion_lon": 0.0, "rental_uris": {"ios": "https://dc.lft.to/lastmile_qr_scan", "android": "https://dc.lft.to/lastmile_qr_scan"}, "lon": -77.0083725, "bike_id": "ebb99be6a9f8614da6505cee739240f5", "type": "electric_scooter", "name": "ebb99be6a9f8614da6505cee739240f5"}, {"is_disabled": 0, "is_reserved": 0, "fusion_lat": 0.0, "lat": 38.897883666666665, "fusion_lon": 0.0, "rental_uris": {"ios": "https://dc.lft.to/lastmile_qr_scan", "android": "https://dc.lft.to/lastmile_qr_scan"}, "lon": -77.04664633333333, "bike_id": "2110515763299803509f4c51c630c144", "type": "electric_scooter", "name": "2110515763299803509f4c51c630c144"}, {"is_disabled": 0, "is_reserved": 0, "fusion_lat": 0.0, "lat": 38.922911666666664, "fusion_lon": 0.0, "rental_uris": {"ios": "https://dc.lft.to/lastmile_qr_scan", "android": "https://dc.lft.to/lastmile_qr_scan"}, "lon": -77.02971266666667, "bike_id": "ff3ab57930c102bebd8372d6ca528baf", "type": "electric_scooter", "name": "ff3ab57930c102bebd8372d6ca528baf"}, {"is_disabled": 0, "is_reserved": 0, "fusion_lat": 0.0, "lat": 38.904438666666664, "fusion_lon": 0.0, "rental_uris": {"ios": "https://dc.lft.to/lastmile_qr_scan", "android": "https://dc.lft.to/lastmile_qr_scan"}, "lon": -76.97303766666667, "bike_id": "636669ce627891d2fd93732a7a80ca29", "type": "electric_scooter", "name": "636669ce627891d2fd93732a7a80ca29"}, {"is_disabled": 0, "is_reserved": 0, "fusion_lat": 0.0, "lat": 38.8427365, "fusion_lon": 0.0, "rental_uris": {"ios": "https://dc.lft.to/lastmile_qr_scan", "android": "https://dc.lft.to/lastmile_qr_scan"}, "lon": -76.98839433333333, "bike_id": "706e40a6666879bd307e36f19d0601b9", "type": "electric_scooter", "name": "706e40a6666879bd307e36f19d0601b9"}, {"is_disabled": 0, "is_reserved": 0, "fusion_lat": 0.0, "lat": 38.92412866666667, "fusion_lon": 0.0, "rental_uris": {"ios": "https://dc.lft.to/lastmile_qr_scan", "android": "https://dc.lft.to/lastmile_qr_scan"}, "lon": -77.020304, "bike_id": "f1ce3c4f74e2b82528b3726d8596f3dd", "type": "electric_scooter", "name": "f1ce3c4f74e2b82528b3726d8596f3dd"}, {"is_disabled": 0, "is_reserved": 0, "fusion_lat": 0.0, "lat": 38.914187, "fusion_lon": 0.0, "rental_uris": {"ios": "https://dc.lft.to/lastmile_qr_scan", "android": "https://dc.lft.to/lastmile_qr_scan"}, "lon": -77.03168583333333, "bike_id": "e1cf23a4d104b1dd37f10fa8e81543b7", "type": "electric_scooter", "name": "e1cf23a4d104b1dd37f10fa8e81543b7"}, {"is_disabled": 0, "is_reserved": 0, "fusion_lat": 0.0, "lat": 38.895336666666665, "fusion_lon": 0.0, "rental_uris": {"ios": "https://dc.lft.to/lastmile_qr_scan", "android": "https://dc.lft.to/lastmile_qr_scan"}, "lon": -77.028129, "bike_id": "357da1ccb0ea89f2826965c09916bca5", "type": "electric_scooter", "name": "357da1ccb0ea89f2826965c09916bca5"}, {"is_disabled": 0, "is_reserved": 0, "fusion_lat": 0.0, "lat": 38.94214983333333, "fusion_lon": 0.0, "rental_uris": {"ios": "https://dc.lft.to/lastmile_qr_scan", "android": "https://dc.lft.to/lastmile_qr_scan"}, "lon": -76.9612585, "bike_id": "41bcdb7aec270e5182a31324202a221a", "type": "electric_bike", "name": "41bcdb7aec270e5182a31324202a221a"}, {"is_disabled": 0, "is_reserved": 0, "fusion_lat": 0.0, "lat": 38.916530333333334, "fusion_lon": 0.0, "rental_uris": {"ios": "https://dc.lft.to/lastmile_qr_scan", "android": "https://dc.lft.to/lastmile_qr_scan"}, "lon": -77.0101535, "bike_id": "981c20c2c1adfc08df1092820da083c0", "type": "electric_scooter", "name": "981c20c2c1adfc08df1092820da083c0"}, {"is_disabled": 0, "is_reserved": 0, "fusion_lat": 0.0, "lat": 38.928633166666664, "fusion_lon": 0.0, "rental_uris": {"ios": "https://dc.lft.to/lastmile_qr_scan", "android": "https://dc.lft.to/lastmile_qr_scan"}, "lon": -77.03720133333333, "bike_id": "c6f953fa0fcab3e2b0323e7fd132e66e", "type": "electric_scooter", "name": "c6f953fa0fcab3e2b0323e7fd132e66e"}, {"is_disabled": 0, "is_reserved": 0, "fusion_lat": 0.0, "lat": 38.89824683333333, "fusion_lon": 0.0, "rental_uris": {"ios": "https://dc.lft.to/lastmile_qr_scan", "android": "https://dc.lft.to/lastmile_qr_scan"}, "lon": -76.93000983333333, "bike_id": "0556b629feee1cdd53b80602df2596a6", "type": "electric_scooter", "name": "0556b629feee1cdd53b80602df2596a6"}, {"is_disabled": 0, "is_reserved": 0, "fusion_lat": 0.0, "lat": 38.897734, "fusion_lon": 0.0, "rental_uris": {"ios": "https://dc.lft.to/lastmile_qr_scan", "android": "https://dc.lft.to/lastmile_qr_scan"}, "lon": -77.04783333333333, "bike_id": "c558a45e21f058a264adf2aa2910310e", "type": "electric_scooter", "name": "c558a45e21f058a264adf2aa2910310e"}, {"is_disabled": 0, "is_reserved": 0, "fusion_lat": 0.0, "lat": 38.92663266666667, "fusion_lon": 0.0, "rental_uris": {"ios": "https://dc.lft.to/lastmile_qr_scan", "android": "https://dc.lft.to/lastmile_qr_scan"}, "lon": -76.99557583333333, "bike_id": "a052ab2c2cd2645f44436daf03c97f63", "type": "electric_scooter", "name": "a052ab2c2cd2645f44436daf03c97f63"}, {"is_disabled": 0, "is_reserved": 0, "fusion_lat": 0.0, "lat": 38.901276833333334, "fusion_lon": 0.0, "rental_uris": {"ios": "https://dc.lft.to/lastmile_qr_scan", "android": "https://dc.lft.to/lastmile_qr_scan"}, "lon": -77.044608, "bike_id": "8688af2c2f2e3136d1fe914dd47f9732", "type": "electric_scooter", "name": "8688af2c2f2e3136d1fe914dd47f9732"}, {"is_disabled": 0, "is_reserved": 0, "fusion_lat": 0.0, "lat": 38.809808833333335, "fusion_lon": 0.0, "rental_uris": {"ios": "https://dc.lft.to/lastmile_qr_scan", "android": "https://dc.lft.to/lastmile_qr_scan"}, "lon": -77.07659733333334, "bike_id": "129e78a18e750b56d0ae33d74c075e75", "type": "electric_bike", "name": "129e78a18e750b56d0ae33d74c075e75"}, {"is_disabled": 0, "is_reserved": 0, "fusion_lat": 0.0, "lat": 38.9276105, "fusion_lon": 0.0, "rental_uris": {"ios": "https://dc.lft.to/lastmile_qr_scan", "android": "https://dc.lft.to/lastmile_qr_scan"}, "lon": -77.0705, "bike_id": "0fefb93bdde596db23a234866957193d", "type": "electric_scooter", "name": "0fefb93bdde596db23a234866957193d"}, {"is_disabled": 0, "is_reserved": 0, "fusion_lat": 0.0, "lat": 38.894494333333334, "fusion_lon": 0.0, "rental_uris": {"ios": "https://dc.lft.to/lastmile_qr_scan", "android": "https://dc.lft.to/lastmile_qr_scan"}, "lon": -76.97731816666666, "bike_id": "85cc7a130474afc888caf243e325c5d1", "type": "electric_scooter", "name": "85cc7a130474afc888caf243e325c5d1"}, {"is_disabled": 0, "is_reserved": 0, "fusion_lat": 0.0, "lat": 38.904463, "fusion_lon": 0.0, "rental_uris": {"ios": "https://dc.lft.to/lastmile_qr_scan", "android": "https://dc.lft.to/lastmile_qr_scan"}, "lon": -77.0651795, "bike_id": "b77448baf6b6f03bf8cb99861c3ed0fa", "type": "electric_scooter", "name": "b77448baf6b6f03bf8cb99861c3ed0fa"}, {"is_disabled": 0, "is_reserved": 0, "fusion_lat": 0.0, "lat": 38.906993166666666, "fusion_lon": 0.0, "rental_uris": {"ios": "https://dc.lft.to/lastmile_qr_scan", "android": "https://dc.lft.to/lastmile_qr_scan"}, "lon": -76.99943116666667, "bike_id": "b4c0b054cc8cb8925cb38aa950b5c0c6", "type": "electric_scooter", "name": "b4c0b054cc8cb8925cb38aa950b5c0c6"}, {"is_disabled": 0, "is_reserved": 0, "fusion_lat": 0.0, "lat": 38.9018735, "fusion_lon": 0.0, "rental_uris": {"ios": "https://dc.lft.to/lastmile_qr_scan", "android": "https://dc.lft.to/lastmile_qr_scan"}, "lon": -76.9995555, "bike_id": "c5343186a3b6e95fef9d5335faeb2580", "type": "electric_scooter", "name": "c5343186a3b6e95fef9d5335faeb2580"}, {"is_disabled": 0, "is_reserved": 0, "fusion_lat": 0.0, "lat": 38.93810766666667, "fusion_lon": 0.0, "rental_uris": {"ios": "https://dc.lft.to/lastmile_qr_scan", "android": "https://dc.lft.to/lastmile_qr_scan"}, "lon": -77.02452466666666, "bike_id": "8bae074ddb52e1393066791402dc5692", "type": "electric_scooter", "name": "8bae074ddb52e1393066791402dc5692"}, {"is_disabled": 0, "is_reserved": 0, "fusion_lat": 0.0, "lat": 38.89969466666667, "fusion_lon": 0.0, "rental_uris": {"ios": "https://dc.lft.to/lastmile_qr_scan", "android": "https://dc.lft.to/lastmile_qr_scan"}, "lon": -77.01954733333334, "bike_id": "215d449e222d1fcb1a1cc0d354e55a78", "type": "electric_scooter", "name": "215d449e222d1fcb1a1cc0d354e55a78"}, {"is_disabled": 0, "is_reserved": 0, "fusion_lat": 0.0, "lat": 38.900663, "fusion_lon": 0.0, "rental_uris": {"ios": "https://dc.lft.to/lastmile_qr_scan", "android": "https://dc.lft.to/lastmile_qr_scan"}, "lon": -77.04924583333333, "bike_id": "2b72409226a680593834d1a4717db353", "type": "electric_scooter", "name": "2b72409226a680593834d1a4717db353"}, {"is_disabled": 0, "is_reserved": 0, "fusion_lat": 0.0, "lat": 38.89400666666667, "fusion_lon": 0.0, "rental_uris": {"ios": "https://dc.lft.to/lastmile_qr_scan", "android": "https://dc.lft.to/lastmile_qr_scan"}, "lon": -77.02365066666667, "bike_id": "d76299f0ada34d2ca089869856a82851", "type": "electric_scooter", "name": "d76299f0ada34d2ca089869856a82851"}, {"is_disabled": 0, "is_reserved": 0, "fusion_lat": 0.0, "lat": 38.900314, "fusion_lon": 0.0, "rental_uris": {"ios": "https://dc.lft.to/lastmile_qr_scan", "android": "https://dc.lft.to/lastmile_qr_scan"}, "lon": -77.02401466666667, "bike_id": "fe60c289a45149be89a0d76bdb766de5", "type": "electric_bike", "name": "fe60c289a45149be89a0d76bdb766de5"}, {"is_disabled": 0, "is_reserved": 0, "fusion_lat": 0.0, "lat": 38.930592833333336, "fusion_lon": 0.0, "rental_uris": {"ios": "https://dc.lft.to/lastmile_qr_scan", "android": "https://dc.lft.to/lastmile_qr_scan"}, "lon": -77.03940666666666, "bike_id": "f5414adade9691e4a4e520838763c3ce", "type": "electric_scooter", "name": "f5414adade9691e4a4e520838763c3ce"}, {"is_disabled": 0, "is_reserved": 0, "fusion_lat": 0.0, "lat": 38.8920495, "fusion_lon": 0.0, "rental_uris": {"ios": "https://dc.lft.to/lastmile_qr_scan", "android": "https://dc.lft.to/lastmile_qr_scan"}, "lon": -76.92918083333333, "bike_id": "89433023f4e2a6e690e9e1a45d6b9e66", "type": "electric_scooter", "name": "89433023f4e2a6e690e9e1a45d6b9e66"}, {"is_disabled": 0, "is_reserved": 0, "fusion_lat": 0.0, "lat": 38.9484045, "fusion_lon": 0.0, "rental_uris": {"ios": "https://dc.lft.to/lastmile_qr_scan", "android": "https://dc.lft.to/lastmile_qr_scan"}, "lon": -77.05430466666667, "bike_id": "d6eae9131de7320933ef94e3ba6cd812", "type": "electric_bike", "name": "d6eae9131de7320933ef94e3ba6cd812"}, {"is_disabled": 0, "is_reserved": 0, "fusion_lat": 0.0, "lat": 38.926027, "fusion_lon": 0.0, "rental_uris": {"ios": "https://dc.lft.to/lastmile_qr_scan", "android": "https://dc.lft.to/lastmile_qr_scan"}, "lon": -77.02155133333333, "bike_id": "c7f4f6579f8faa167b76fe9eab8ade69", "type": "electric_scooter", "name": "c7f4f6579f8faa167b76fe9eab8ade69"}, {"is_disabled": 0, "is_reserved": 0, "fusion_lat": 0.0, "lat": 38.92140933333334, "fusion_lon": 0.0, "rental_uris": {"ios": "https://dc.lft.to/lastmile_qr_scan", "android": "https://dc.lft.to/lastmile_qr_scan"}, "lon": -77.035119, "bike_id": "04a73a5e8083e431436c787550a5a02c", "type": "electric_scooter", "name": "04a73a5e8083e431436c787550a5a02c"}, {"is_disabled": 0, "is_reserved": 0, "fusion_lat": 0.0, "lat": 38.887116666666664, "fusion_lon": 0.0, "rental_uris": {"ios": "https://dc.lft.to/lastmile_qr_scan", "android": "https://dc.lft.to/lastmile_qr_scan"}, "lon": -76.98382233333334, "bike_id": "ed2321862592bc7c9cc70345b25d5e78", "type": "electric_scooter", "name": "ed2321862592bc7c9cc70345b25d5e78"}, {"is_disabled": 0, "is_reserved": 0, "fusion_lat": 0.0, "lat": 38.90181833333333, "fusion_lon": 0.0, "rental_uris": {"ios": "https://dc.lft.to/lastmile_qr_scan", "android": "https://dc.lft.to/lastmile_qr_scan"}, "lon": -76.9766935, "bike_id": "ac1b854938db282bc3f18769acd03d54", "type": "electric_scooter", "name": "ac1b854938db282bc3f18769acd03d54"}, {"is_disabled": 0, "is_reserved": 0, "fusion_lat": 0.0, "lat": 38.89730983333333, "fusion_lon": 0.0, "rental_uris": {"ios": "https://dc.lft.to/lastmile_qr_scan", "android": "https://dc.lft.to/lastmile_qr_scan"}, "lon": -77.0077, "bike_id": "9a5d59c75ea905aab3d6a259b07b7408", "type": "electric_scooter", "name": "9a5d59c75ea905aab3d6a259b07b7408"}, {"is_disabled": 0, "is_reserved": 0, "fusion_lat": 0.0, "lat": 38.901449166666666, "fusion_lon": 0.0, "rental_uris": {"ios": "https://dc.lft.to/lastmile_qr_scan", "android": "https://dc.lft.to/lastmile_qr_scan"}, "lon": -77.01507133333334, "bike_id": "a59a86768832d6dcd54570ccf38b51a9", "type": "electric_scooter", "name": "a59a86768832d6dcd54570ccf38b51a9"}, {"is_disabled": 0, "is_reserved": 0, "fusion_lat": 0.0, "lat": 38.925050666666664, "fusion_lon": 0.0, "rental_uris": {"ios": "https://dc.lft.to/lastmile_qr_scan", "android": "https://dc.lft.to/lastmile_qr_scan"}, "lon": -77.02441316666666, "bike_id": "f7145127306bfe9a1bdf8cbc13e06b2c", "type": "electric_scooter", "name": "f7145127306bfe9a1bdf8cbc13e06b2c"}, {"is_disabled": 0, "is_reserved": 0, "fusion_lat": 0.0, "lat": 38.92813733333333, "fusion_lon": 0.0, "rental_uris": {"ios": "https://dc.lft.to/lastmile_qr_scan", "android": "https://dc.lft.to/lastmile_qr_scan"}, "lon": -77.04333383333334, "bike_id": "4234ba313dd03e84e43ef2992b4cf559", "type": "electric_scooter", "name": "4234ba313dd03e84e43ef2992b4cf559"}, {"is_disabled": 0, "is_reserved": 0, "fusion_lat": 0.0, "lat": 38.90652033333333, "fusion_lon": 0.0, "rental_uris": {"ios": "https://dc.lft.to/lastmile_qr_scan", "android": "https://dc.lft.to/lastmile_qr_scan"}, "lon": -77.02481316666666, "bike_id": "d711957c53cdeee5b66c52205d5e11ec", "type": "electric_scooter", "name": "d711957c53cdeee5b66c52205d5e11ec"}, {"is_disabled": 0, "is_reserved": 0, "fusion_lat": 0.0, "lat": 38.903982666666664, "fusion_lon": 0.0, "rental_uris": {"ios": "https://dc.lft.to/lastmile_qr_scan", "android": "https://dc.lft.to/lastmile_qr_scan"}, "lon": -77.06515183333333, "bike_id": "16c7b8a84b70d92033ceb896f0d9ec57", "type": "electric_scooter", "name": "16c7b8a84b70d92033ceb896f0d9ec57"}, {"is_disabled": 0, "is_reserved": 0, "fusion_lat": 0.0, "lat": 38.92740083333333, "fusion_lon": 0.0, "rental_uris": {"ios": "https://dc.lft.to/lastmile_qr_scan", "android": "https://dc.lft.to/lastmile_qr_scan"}, "lon": -77.02276533333334, "bike_id": "e926ff4a7d812af024a847531197cbba", "type": "electric_scooter", "name": "e926ff4a7d812af024a847531197cbba"}, {"is_disabled": 0, "is_reserved": 0, "fusion_lat": 0.0, "lat": 38.91155966666667, "fusion_lon": 0.0, "rental_uris": {"ios": "https://dc.lft.to/lastmile_qr_scan", "android": "https://dc.lft.to/lastmile_qr_scan"}, "lon": -77.019993, "bike_id": "9c8d5383ead4409d6f56fac2df68714e", "type": "electric_scooter", "name": "9c8d5383ead4409d6f56fac2df68714e"}, {"is_disabled": 0, "is_reserved": 0, "fusion_lat": 0.0, "lat": 38.921354666666666, "fusion_lon": 0.0, "rental_uris": {"ios": "https://dc.lft.to/lastmile_qr_scan", "android": "https://dc.lft.to/lastmile_qr_scan"}, "lon": -77.00398216666666, "bike_id": "bbd6690a41c88d163fb2ad2bf46ccb59", "type": "electric_scooter", "name": "bbd6690a41c88d163fb2ad2bf46ccb59"}, {"is_disabled": 0, "is_reserved": 0, "fusion_lat": 0.0, "lat": 38.95244816666667, "fusion_lon": 0.0, "rental_uris": {"ios": "https://dc.lft.to/lastmile_qr_scan", "android": "https://dc.lft.to/lastmile_qr_scan"}, "lon": -76.98247983333333, "bike_id": "34249727a9080466f9956d82576de303", "type": "electric_bike", "name": "34249727a9080466f9956d82576de303"}, {"is_disabled": 0, "is_reserved": 0, "fusion_lat": 0.0, "lat": 38.927983, "fusion_lon": 0.0, "rental_uris": {"ios": "https://dc.lft.to/lastmile_qr_scan", "android": "https://dc.lft.to/lastmile_qr_scan"}, "lon": -77.02134366666667, "bike_id": "9fb0948e3a80ae8511516059b0b8bb2c", "type": "electric_scooter", "name": "9fb0948e3a80ae8511516059b0b8bb2c"}, {"is_disabled": 0, "is_reserved": 0, "fusion_lat": 0.0, "lat": 38.98148416666667, "fusion_lon": 0.0, "rental_uris": {"ios": "https://dc.lft.to/lastmile_qr_scan", "android": "https://dc.lft.to/lastmile_qr_scan"}, "lon": -77.00770733333333, "bike_id": "af8aa91d43564cedb3bf015c62062659", "type": "electric_bike", "name": "af8aa91d43564cedb3bf015c62062659"}, {"is_disabled": 0, "is_reserved": 0, "fusion_lat": 0.0, "lat": 39.010682333333335, "fusion_lon": 0.0, "rental_uris": {"ios": "https://dc.lft.to/lastmile_qr_scan", "android": "https://dc.lft.to/lastmile_qr_scan"}, "lon": -76.92240083333333, "bike_id": "721d3cd21e037e978bee3d92edf2113f", "type": "electric_bike", "name": "721d3cd21e037e978bee3d92edf2113f"}, {"is_disabled": 0, "is_reserved": 0, "fusion_lat": 0.0, "lat": 38.901467, "fusion_lon": 0.0, "rental_uris": {"ios": "https://dc.lft.to/lastmile_qr_scan", "android": "https://dc.lft.to/lastmile_qr_scan"}, "lon": -76.98554166666666, "bike_id": "6d5c1c2fe877cc9c06a02181f5220812", "type": "electric_scooter", "name": "6d5c1c2fe877cc9c06a02181f5220812"}, {"is_disabled": 0, "is_reserved": 0, "fusion_lat": 0.0, "lat": 38.91806716666667, "fusion_lon": 0.0, "rental_uris": {"ios": "https://dc.lft.to/lastmile_qr_scan", "android": "https://dc.lft.to/lastmile_qr_scan"}, "lon": -77.02491083333334, "bike_id": "329c7cd8f48f3d0c9f47fe129bff3d83", "type": "electric_scooter", "name": "329c7cd8f48f3d0c9f47fe129bff3d83"}, {"is_disabled": 0, "is_reserved": 0, "fusion_lat": 0.0, "lat": 38.91928, "fusion_lon": 0.0, "rental_uris": {"ios": "https://dc.lft.to/lastmile_qr_scan", "android": "https://dc.lft.to/lastmile_qr_scan"}, "lon": -77.03440766666667, "bike_id": "b249c658f0eacfcd6fda370b746310a1", "type": "electric_scooter", "name": "b249c658f0eacfcd6fda370b746310a1"}, {"is_disabled": 0, "is_reserved": 0, "fusion_lat": 0.0, "lat": 38.874487, "fusion_lon": 0.0, "rental_uris": {"ios": "https://dc.lft.to/lastmile_qr_scan", "android": "https://dc.lft.to/lastmile_qr_scan"}, "lon": -77.009205, "bike_id": "776d6e1b0254252db647cc42ff32415b", "type": "electric_scooter", "name": "776d6e1b0254252db647cc42ff32415b"}, {"is_disabled": 0, "is_reserved": 0, "fusion_lat": 0.0, "lat": 38.878432833333335, "fusion_lon": 0.0, "rental_uris": {"ios": "https://dc.lft.to/lastmile_qr_scan", "android": "https://dc.lft.to/lastmile_qr_scan"}, "lon": -76.93127383333334, "bike_id": "49707e8c2b51e73271f8b1272f6b3407", "type": "electric_scooter", "name": "49707e8c2b51e73271f8b1272f6b3407"}, {"is_disabled": 0, "is_reserved": 0, "fusion_lat": 0.0, "lat": 38.90553216666667, "fusion_lon": 0.0, "rental_uris": {"ios": "https://dc.lft.to/lastmile_qr_scan", "android": "https://dc.lft.to/lastmile_qr_scan"}, "lon": -77.00311416666666, "bike_id": "d78d9b8e64a3994c928391a7aabe948c", "type": "electric_scooter", "name": "d78d9b8e64a3994c928391a7aabe948c"}, {"is_disabled": 0, "is_reserved": 0, "fusion_lat": 0.0, "lat": 38.907216166666664, "fusion_lon": 0.0, "rental_uris": {"ios": "https://dc.lft.to/lastmile_qr_scan", "android": "https://dc.lft.to/lastmile_qr_scan"}, "lon": -77.0504715, "bike_id": "293ad3356dd1b3f9c931d94b12865766", "type": "electric_scooter", "name": "293ad3356dd1b3f9c931d94b12865766"}, {"is_disabled": 0, "is_reserved": 0, "fusion_lat": 0.0, "lat": 38.90130683333334, "fusion_lon": 0.0, "rental_uris": {"ios": "https://dc.lft.to/lastmile_qr_scan", "android": "https://dc.lft.to/lastmile_qr_scan"}, "lon": -77.003636, "bike_id": "0c1ba7d1ab39f4de7527dca651f23d59", "type": "electric_scooter", "name": "0c1ba7d1ab39f4de7527dca651f23d59"}, {"is_disabled": 0, "is_reserved": 0, "fusion_lat": 0.0, "lat": 38.92553516666667, "fusion_lon": 0.0, "rental_uris": {"ios": "https://dc.lft.to/lastmile_qr_scan", "android": "https://dc.lft.to/lastmile_qr_scan"}, "lon": -77.0032295, "bike_id": "530dc92d1805a38e2b0401e00c78a621", "type": "electric_scooter", "name": "530dc92d1805a38e2b0401e00c78a621"}, {"is_disabled": 0, "is_reserved": 0, "fusion_lat": 0.0, "lat": 38.936610333333334, "fusion_lon": 0.0, "rental_uris": {"ios": "https://dc.lft.to/lastmile_qr_scan", "android": "https://dc.lft.to/lastmile_qr_scan"}, "lon": -77.06606433333333, "bike_id": "1062eca33fca854d276716098edbdf36", "type": "electric_scooter", "name": "1062eca33fca854d276716098edbdf36"}, {"is_disabled": 0, "is_reserved": 0, "fusion_lat": 0.0, "lat": 38.909207, "fusion_lon": 0.0, "rental_uris": {"ios": "https://dc.lft.to/lastmile_qr_scan", "android": "https://dc.lft.to/lastmile_qr_scan"}, "lon": -77.04400033333333, "bike_id": "855d1e3a9d9cc27a1705cc5d46445301", "type": "electric_scooter", "name": "855d1e3a9d9cc27a1705cc5d46445301"}, {"is_disabled": 0, "is_reserved": 0, "fusion_lat": 0.0, "lat": 38.87786083333334, "fusion_lon": 0.0, "rental_uris": {"ios": "https://dc.lft.to/lastmile_qr_scan", "android": "https://dc.lft.to/lastmile_qr_scan"}, "lon": -77.00130416666667, "bike_id": "a974a46ca40608022886fac4dd9a3eb9", "type": "electric_scooter", "name": "a974a46ca40608022886fac4dd9a3eb9"}, {"is_disabled": 0, "is_reserved": 0, "fusion_lat": 0.0, "lat": 38.902551, "fusion_lon": 0.0, "rental_uris": {"ios": "https://dc.lft.to/lastmile_qr_scan", "android": "https://dc.lft.to/lastmile_qr_scan"}, "lon": -77.0345335, "bike_id": "4fb7dc0aa5a3deec8baeccd1ff014906", "type": "electric_scooter", "name": "4fb7dc0aa5a3deec8baeccd1ff014906"}, {"is_disabled": 0, "is_reserved": 0, "fusion_lat": 0.0, "lat": 38.89107883333333, "fusion_lon": 0.0, "rental_uris": {"ios": "https://dc.lft.to/lastmile_qr_scan", "android": "https://dc.lft.to/lastmile_qr_scan"}, "lon": -77.00196983333333, "bike_id": "ddde6ed99e34f2d8e991076be66297bd", "type": "electric_scooter", "name": "ddde6ed99e34f2d8e991076be66297bd"}, {"is_disabled": 0, "is_reserved": 0, "fusion_lat": 0.0, "lat": 38.9300785, "fusion_lon": 0.0, "rental_uris": {"ios": "https://dc.lft.to/lastmile_qr_scan", "android": "https://dc.lft.to/lastmile_qr_scan"}, "lon": -77.0378095, "bike_id": "ced831f839c65fbd8f57e44f9ef751d2", "type": "electric_scooter", "name": "ced831f839c65fbd8f57e44f9ef751d2"}, {"is_disabled": 0, "is_reserved": 0, "fusion_lat": 0.0, "lat": 38.9060905, "fusion_lon": 0.0, "rental_uris": {"ios": "https://dc.lft.to/lastmile_qr_scan", "android": "https://dc.lft.to/lastmile_qr_scan"}, "lon": -77.01618933333333, "bike_id": "89c4cb3b080867c658cbf3980c73822e", "type": "electric_scooter", "name": "89c4cb3b080867c658cbf3980c73822e"}, {"is_disabled": 0, "is_reserved": 0, "fusion_lat": 0.0, "lat": 38.9292495, "fusion_lon": 0.0, "rental_uris": {"ios": "https://dc.lft.to/lastmile_qr_scan", "android": "https://dc.lft.to/lastmile_qr_scan"}, "lon": -77.03293516666666, "bike_id": "464c81e46730793b224bb3e038af4535", "type": "electric_scooter", "name": "464c81e46730793b224bb3e038af4535"}, {"is_disabled": 0, "is_reserved": 0, "fusion_lat": 0.0, "lat": 38.913620333333334, "fusion_lon": 0.0, "rental_uris": {"ios": "https://dc.lft.to/lastmile_qr_scan", "android": "https://dc.lft.to/lastmile_qr_scan"}, "lon": -77.04654616666667, "bike_id": "99e6519cd3f64bded48cafe8f014f7b6", "type": "electric_scooter", "name": "99e6519cd3f64bded48cafe8f014f7b6"}, {"is_disabled": 0, "is_reserved": 0, "fusion_lat": 0.0, "lat": 38.894595333333335, "fusion_lon": 0.0, "rental_uris": {"ios": "https://dc.lft.to/lastmile_qr_scan", "android": "https://dc.lft.to/lastmile_qr_scan"}, "lon": -77.01096683333333, "bike_id": "0d9eceab708c15f1915cc88dfdc9c9ac", "type": "electric_scooter", "name": "0d9eceab708c15f1915cc88dfdc9c9ac"}, {"is_disabled": 0, "is_reserved": 0, "fusion_lat": 0.0, "lat": 38.9352895, "fusion_lon": 0.0, "rental_uris": {"ios": "https://dc.lft.to/lastmile_qr_scan", "android": "https://dc.lft.to/lastmile_qr_scan"}, "lon": -77.0541705, "bike_id": "5ad82b28e558d9f515f31acc250ce1d4", "type": "electric_scooter", "name": "5ad82b28e558d9f515f31acc250ce1d4"}, {"is_disabled": 0, "is_reserved": 0, "fusion_lat": 0.0, "lat": 38.89819933333333, "fusion_lon": 0.0, "rental_uris": {"ios": "https://dc.lft.to/lastmile_qr_scan", "android": "https://dc.lft.to/lastmile_qr_scan"}, "lon": -77.02866183333333, "bike_id": "f79cf99c1232bcadab8a7d9dd88473d5", "type": "electric_scooter", "name": "f79cf99c1232bcadab8a7d9dd88473d5"}, {"is_disabled": 0, "is_reserved": 0, "fusion_lat": 0.0, "lat": 38.892233833333336, "fusion_lon": 0.0, "rental_uris": {"ios": "https://dc.lft.to/lastmile_qr_scan", "android": "https://dc.lft.to/lastmile_qr_scan"}, "lon": -77.04459483333333, "bike_id": "2c76b8ee67a0981b11f7c85ee685e087", "type": "electric_scooter", "name": "2c76b8ee67a0981b11f7c85ee685e087"}, {"is_disabled": 0, "is_reserved": 0, "fusion_lat": 0.0, "lat": 38.8844995, "fusion_lon": 0.0, "rental_uris": {"ios": "https://dc.lft.to/lastmile_qr_scan", "android": "https://dc.lft.to/lastmile_qr_scan"}, "lon": -76.95094683333333, "bike_id": "937879c97a8f40f4eb4bf7c3d0082612", "type": "electric_scooter", "name": "937879c97a8f40f4eb4bf7c3d0082612"},