{"data": {"bikes": [{"type": "electric_bike", "name": "dd3f643f657bdfa573376b5f6c588c3e", "lat": 38.955433166666666, "fusion_lat": 0.0, "bike_id": "dd3f643f657bdfa573376b5f6c588c3e", "is_reserved": 0, "lon": -77.06935666666666, "is_disabled": 0, "fusion_lon": 0.0, "rental_uris": {"android": "https://dc.lft.to/lastmile_qr_scan", "ios": "https://dc.lft.to/lastmile_qr_scan"}}, {"type": "electric_scooter", "name": "cd484a8e68df06701e6caebee5ee2bc7", "lat": 38.93425666666667, "fusion_lat": 0.0, "bike_id": "cd484a8e68df06701e6caebee5ee2bc7", "is_reserved": 0, "lon": -77.040006, "is_disabled": 0, "fusion_lon": 0.0, "rental_uris": {"android": "https://dc.lft.to/lastmile_qr_scan", "ios": "https://dc.lft.to/lastmile_qr_scan"}}, {"type": "electric_scooter", "name": "0c6fd46504457e80cda528a875ccc6d9", "lat": 38.822185166666664, "fusion_lat": 0.0, "bike_id": "0c6fd46504457e80cda528a875ccc6d9", "is_reserved": 0, "lon": -77.001859, "is_disabled": 0, "fusion_lon": 0.0, "rental_uris": {"android": "https://dc.lft.to/lastmile_qr_scan", "ios": "https://dc.lft.to/lastmile_qr_scan"}}, {"type": "electric_scooter", "name": "2a419090b59d3b42dc2382221aa2de52", "lat": 38.91621966666666, "fusion_lat": 0.0, "bike_id": "2a419090b59d3b42dc2382221aa2de52", "is_reserved": 0, "lon": -77.0318355, "is_disabled": 0, "fusion_lon": 0.0, "rental_uris": {"android": "https://dc.lft.to/lastmile_qr_scan", "ios": "https://dc.lft.to/lastmile_qr_scan"}}, {"type": "electric_scooter", "name": "a9400da0765b9aa04bd6ca3c675defa1", "lat": 38.89985933333333, "fusion_lat": 0.0, "bike_id": "a9400da0765b9aa04bd6ca3c675defa1", "is_reserved": 0, "lon": -76.98437766666666, "is_disabled": 0, "fusion_lon": 0.0, "rental_uris": {"android": "https://dc.lft.to/lastmile_qr_scan", "ios": "https://dc.lft.to/lastmile_qr_scan"}}, {"type": "electric_scooter", "name": "8e4fd97cfde4888b73d7a2151336666b", "lat": 38.924196, "fusion_lat": 0.0, "bike_id": "8e4fd97cfde4888b73d7a2151336666b", "is_reserved": 0, "lon": -77.02238633333333, "is_disabled": 0, "fusion_lon": 0.0, "rental_uris": {"android": "https://dc.lft.to/lastmile_qr_scan", "ios": "https://dc.lft.to/lastmile_qr_scan"}}, {"type": "electric_scooter", "name": "d015c942770a84dd886a1ed0bcc2b379", "lat": 38.924403833333336, "fusion_lat": 0.0, "bike_id": "d015c942770a84dd886a1ed0bcc2b379", "is_reserved": 0, "lon": -77.03372116666667, "is_disabled": 0, "fusion_lon": 0.0, "rental_uris": {"android": "https://dc.lft.to/lastmile_qr_scan", "ios": "https://dc.lft.to/lastmile_qr_scan"}}, {"type": "electric_scooter", "name": "51f8dcfe556677511afc83f63c620f1a", "lat": 38.89661666666667, "fusion_lat": 0.0, "bike_id": "51f8dcfe556677511afc83f63c620f1a", "is_reserved": 0, "lon": -77.02987933333333, "is_disabled": 0, "fusion_lon": 0.0, "rental_uris": {"android": "https://dc.lft.to/lastmile_qr_scan", "ios": "https://dc.lft.to/lastmile_qr_scan"}}, {"type": "electric_scooter", "name": "e46c6c4df8c6e425a4304f6e89d4be6e", "lat": 38.92829666666667, "fusion_lat": 0.0, "bike_id": "e46c6c4df8c6e425a4304f6e89d4be6e", "is_reserved": 0, "lon": -77.05967916666667, "is_disabled": 0, "fusion_lon": 0.0, "rental_uris": {"android": "https://dc.lft.to/lastmile_qr_scan", "ios": "https://dc.lft.to/lastmile_qr_scan"}}, {"type": "electric_scooter", "name": "1e0841af5cbc38a5e0306178b74bff65", "lat": 38.8989285, "fusion_lat": 0.0, "bike_id": "1e0841af5cbc38a5e0306178b74bff65", "is_reserved": 0, "lon": -77.02973233333333, "is_disabled": 0, "fusion_lon": 0.0, "rental_uris": {"android": "https://dc.lft.to/lastmile_qr_scan", "ios": "https://dc.lft.to/lastmile_qr_scan"}}, {"type": "electric_scooter", "name": "d5bf03b799565867c2e0e2dd7f3bb13e", "lat": 38.92472333333333, "fusion_lat": 0.0, "bike_id": "d5bf03b799565867c2e0e2dd7f3bb13e", "is_reserved": 0, "lon": -77.02221933333334, "is_disabled": 0, "fusion_lon": 0.0, "rental_uris": {"android": "https://dc.lft.to/lastmile_qr_scan", "ios": "https://dc.lft.to/lastmile_qr_scan"}}, {"type": "electric_scooter", "name": "b762982e5fb01c9180fe45692b5fe9d9", "lat": 38.884716833333336, "fusion_lat": 0.0, "bike_id": "b762982e5fb01c9180fe45692b5fe9d9", "is_reserved": 0, "lon": -77.02023583333333, "is_disabled": 0, "fusion_lon": 0.0, "rental_uris": {"android": "https://dc.lft.to/lastmile_qr_scan", "ios": "https://dc.lft.to/lastmile_qr_scan"}}, {"type": "electric_scooter", "name": "b0f6f6f1a98ac0d200629b2bf0a2695c", "lat": 38.8918415, "fusion_lat": 0.0, "bike_id": "b0f6f6f1a98ac0d200629b2bf0a2695c", "is_reserved": 0, "lon": -76.93754433333334, "is_disabled": 0, "fusion_lon": 0.0, "rental_uris": {"android": "https://dc.lft.to/lastmile_qr_scan", "ios": "https://dc.lft.to/lastmile_qr_scan"}}, {"type": "electric_bike", "name": "3b9f9325d991f5508b7686bf04b99412", "lat": 38.994163666666665, "fusion_lat": 0.0, "bike_id": "3b9f9325d991f5508b7686bf04b99412", "is_reserved": 0, "lon": -77.07699666666667, "is_disabled": 0, "fusion_lon": 0.0, "rental_uris": {"android": "https://dc.lft.to/lastmile_qr_scan", "ios": "https://dc.lft.to/lastmile_qr_scan"}}, {"type": "electric_scooter", "name": "78dbbf16ee37858e5b3f71458d966f7d", "lat": 38.91723016666667, "fusion_lat": 0.0, "bike_id": "78dbbf16ee37858e5b3f71458d966f7d", "is_reserved": 0, "lon": -77.02961416666666, "is_disabled": 0, "fusion_lon": 0.0, "rental_uris": {"android": "https://dc.lft.to/lastmile_qr_scan", "ios": "https://dc.lft.to/lastmile_qr_scan"}}, {"type": "electric_scooter", "name": "93fe31ca4f12c0147c71e44fa68b7b96", "lat": 38.9027955, "fusion_lat": 0.0, "bike_id": "93fe31ca4f12c0147c71e44fa68b7b96", "is_reserved": 0, "lon": -77.02308483333333, "is_disabled": 0, "fusion_lon": 0.0, "rental_uris": {"android": "https://dc.lft.to/lastmile_qr_scan", "ios": "https://dc.lft.to/lastmile_qr_scan"}}, {"type": "electric_scooter", "name": "2b7ecbf28d60b0ca2f85d24e8aee24dc", "lat": 38.887051, "fusion_lat": 0.0, "bike_id": "2b7ecbf28d60b0ca2f85d24e8aee24dc", "is_reserved": 0, "lon": -77.0137395, "is_disabled": 0, "fusion_lon": 0.0, "rental_uris": {"android": "https://dc.lft.to/lastmile_qr_scan", "ios": "https://dc.lft.to/lastmile_qr_scan"}}, {"type": "electric_scooter", "name": "a74d13ff50b4ddb2f93d472f5bc00361", "lat": 38.89890116666667, "fusion_lat": 0.0, "bike_id": "a74d13ff50b4ddb2f93d472f5bc00361", "is_reserved": 0, "lon": -77.04046183333334, "is_disabled": 0, "fusion_lon": 0.0, "rental_uris": {"android": "https://dc.lft.to/lastmile_qr_scan", "ios": "https://dc.lft.to/lastmile_qr_scan"}}, {"type": "electric_scooter", "name": "6e93b7305972074f0a9b1760a9d7e19e", "lat": 38.91186583333333, "fusion_lat": 0.0, "bike_id": "6e93b7305972074f0a9b1760a9d7e19e", "is_reserved": 0, "lon": -77.00231733333334, "is_disabled": 0, "fusion_lon": 0.0, "rental_uris": {"android": "https://dc.lft.to/lastmile_qr_scan", "ios": "https://dc.lft.to/lastmile_qr_scan"}}, {"type": "electric_scooter", "name": "4e712456f7390f3b939b9caed815e7d5", "lat": 38.8935385, "fusion_lat": 0.0, "bike_id": "4e712456f7390f3b939b9caed815e7d5", "is_reserved": 0, "lon": -77.0033345, "is_disabled": 0, "fusion_lon": 0.0, "rental_uris": {"android": "https://dc.lft.to/lastmile_qr_scan", "ios": "https://dc.lft.to/lastmile_qr_scan"}}, {"type": "electric_scooter", "name": "6372181b3ed422950bdcd48dddf91569", "lat": 38.91705966666667, "fusion_lat": 0.0, "bike_id": "6372181b3ed422950bdcd48dddf91569", "is_reserved": 0, "lon": -77.03862966666667, "is_disabled": 0, "fusion_lon": 0.0, "rental_uris": {"android": "https://dc.lft.to/lastmile_qr_scan", "ios": "https://dc.lft.to/lastmile_qr_scan"}}, {"type": "electric_scooter", "name": "ec14d8d6d1b6316158a2a37db8bbe960", "lat": 38.917052166666664, "fusion_lat": 0.0, "bike_id": "ec14d8d6d1b6316158a2a37db8bbe960", "is_reserved": 0, "lon": -77.03862183333334, "is_disabled": 0, "fusion_lon": 0.0, "rental_uris": {"android": "https://dc.lft.to/lastmile_qr_scan", "ios": "https://dc.lft.to/lastmile_qr_scan"}}, {"type": "electric_scooter", "name": "0b212bcc2484766b0d30ea83d962542b", "lat": 38.9200645, "fusion_lat": 0.0, "bike_id": "0b212bcc2484766b0d30ea83d962542b", "is_reserved": 0, "lon": -77.0322835, "is_disabled": 0, "fusion_lon": 0.0, "rental_uris": {"android": "https://dc.lft.to/lastmile_qr_scan", "ios": "https://dc.lft.to/lastmile_qr_scan"}}, {"type": "electric_scooter", "name": "6f1aa1d148a96799a3e8603e99f90edf", "lat": 38.9278885, "fusion_lat": 0.0, "bike_id": "6f1aa1d148a96799a3e8603e99f90edf", "is_reserved": 0, "lon": -77.02315266666666, "is_disabled": 0, "fusion_lon": 0.0, "rental_uris": {"android": "https://dc.lft.to/lastmile_qr_scan", "ios": "https://dc.lft.to/lastmile_qr_scan"}}, {"type": "electric_scooter", "name": "2d10c484d98d7baca2f2351ad85e1e76", "lat": 38.915770333333334, "fusion_lat": 0.0, "bike_id": "2d10c484d98d7baca2f2351ad85e1e76", "is_reserved": 0, "lon": -77.031794, "is_disabled": 0, "fusion_lon": 0.0, "rental_uris": {"android": "https://dc.lft.to/lastmile_qr_scan", "ios": "https://dc.lft.to/lastmile_qr_scan"}}, {"type": "electric_scooter", "name": "9e655310dfcf0f5391dc026a9d467808", "lat": 38.8559185, "fusion_lat": 0.0, "bike_id": "9e655310dfcf0f5391dc026a9d467808", "is_reserved": 0, "lon": -76.98726916666666, "is_disabled": 0, "fusion_lon": 0.0, "rental_uris": {"android": "https://dc.lft.to/lastmile_qr_scan", "ios": "https://dc.lft.to/lastmile_qr_scan"}}, {"type": "electric_scooter", "name": "74593dd56f7bc24de5ffcc90a7be06b4", "lat": 38.931036, "fusion_lat": 0.0, "bike_id": "74593dd56f7bc24de5ffcc90a7be06b4", "is_reserved": 0, "lon": -77.02119233333333, "is_disabled": 0, "fusion_lon": 0.0, "rental_uris": {"android": "https://dc.lft.to/lastmile_qr_scan", "ios": "https://dc.lft.to/lastmile_qr_scan"}}, {"type": "electric_scooter", "name": "c8471f451140cfd9c79fddd3bde25d7c", "lat": 38.920442666666666, "fusion_lat": 0.0, "bike_id": "c8471f451140cfd9c79fddd3bde25d7c", "is_reserved": 0, "lon": -77.02573716666667, "is_disabled": 0, "fusion_lon": 0.0, "rental_uris": {"android": "https://dc.lft.to/lastmile_qr_scan", "ios": "https://dc.lft.to/lastmile_qr_scan"}}, {"type": "electric_scooter", "name": "e82f116268c42efe8b32373ba5d25ab3", "lat": 38.9042005, "fusion_lat": 0.0, "bike_id": "e82f116268c42efe8b32373ba5d25ab3", "is_reserved": 0, "lon": -77.04349933333333, "is_disabled": 0, "fusion_lon": 0.0, "rental_uris": {"android": "https://dc.lft.to/lastmile_qr_scan", "ios": "https://dc.lft.to/lastmile_qr_scan"}}, {"type": "electric_scooter", "name": "b8d1f0df5846ec33b20d5b99b2d71df5", "lat": 38.93083016666667, "fusion_lat": 0.0, "bike_id": "b8d1f0df5846ec33b20d5b99b2d71df5", "is_reserved": 0, "lon": -77.027931, "is_disabled": 0, "fusion_lon": 0.0, "rental_uris": {"android": "https://dc.lft.to/lastmile_qr_scan", "ios": "https://dc.lft.to/lastmile_qr_scan"}}, {"type": "electric_scooter", "name": "bcfabc75767557f640a545d0dfb384a9", "lat": 38.902354333333335, "fusion_lat": 0.0, "bike_id": "bcfabc75767557f640a545d0dfb384a9", "is_reserved": 0, "lon": -77.00194116666667, "is_disabled": 0, "fusion_lon": 0.0, "rental_uris": {"android": "https://dc.lft.to/lastmile_qr_scan", "ios": "https://dc.lft.to/lastmile_qr_scan"}}, {"type": "electric_scooter", "name": "f23f65a4d2f779dbaff29cfcb074ec23", "lat": 38.9083155, "fusion_lat": 0.0, "bike_id": "f23f65a4d2f779dbaff29cfcb074ec23", "is_reserved": 0, "lon": -77.035484, "is_disabled": 0, "fusion_lon": 0.0, "rental_uris": {"android": "https://dc.lft.to/lastmile_qr_scan", "ios": "https://dc.lft.to/lastmile_qr_scan"}}, {"type": "electric_scooter", "name": "d53295f35b493bb7c329325ab5469eb1", "lat": 38.881182333333335, "fusion_lat": 0.0, "bike_id": "d53295f35b493bb7c329325ab5469eb1", "is_reserved": 0, "lon": -77.01662133333333, "is_disabled": 0, "fusion_lon": 0.0, "rental_uris": {"android": "https://dc.lft.to/lastmile_qr_scan", "ios": "https://dc.lft.to/lastmile_qr_scan"}}, {"type": "electric_scooter", "name": "aa7d34c1dd3837e9dd6027b016834b48", "lat": 38.90738183333333, "fusion_lat": 0.0, "bike_id": "aa7d34c1dd3837e9dd6027b016834b48", "is_reserved": 0, "lon": -77.0427575, "is_disabled": 0, "fusion_lon": 0.0, "rental_uris": {"android": "https://dc.lft.to/lastmile_qr_scan", "ios": "https://dc.lft.to/lastmile_qr_scan"}}, {"type": "electric_scooter", "name": "52127620d57b67bbfee0c29ae5134257", "lat": 38.9215755, "fusion_lat": 0.0, "bike_id": "52127620d57b67bbfee0c29ae5134257", "is_reserved": 0, "lon": -77.03507766666667, "is_disabled": 0, "fusion_lon": 0.0, "rental_uris": {"android": "https://dc.lft.to/lastmile_qr_scan", "ios": "https://dc.lft.to/lastmile_qr_scan"}}, {"type": "electric_scooter", "name": "ec8e58b0a8bb3c2ac09ec22b67a97512", "lat": 38.928538833333334, "fusion_lat": 0.0, "bike_id": "ec8e58b0a8bb3c2ac09ec22b67a97512", "is_reserved": 0, "lon": -77.03336116666667, "is_disabled": 0, "fusion_lon": 0.0, "rental_uris": {"android": "https://dc.lft.to/lastmile_qr_scan", "ios": "https://dc.lft.to/lastmile_qr_scan"}}, {"type": "electric_scooter", "name": "d925815a1e4d8cac057c5c725f1e0008", "lat": 38.927164833333336, "fusion_lat": 0.0, "bike_id": "d925815a1e4d8cac057c5c725f1e0008", "is_reserved": 0, "lon": -77.02316316666666, "is_disabled": 0, "fusion_lon": 0.0, "rental_uris": {"android": "https://dc.lft.to/lastmile_qr_scan", "ios": "https://dc.lft.to/lastmile_qr_scan"}}, {"type": "electric_scooter", "name": "242414756e5e7d975ce71bccd8341f6e", "lat": 38.9033915, "fusion_lat": 0.0, "bike_id": "242414756e5e7d975ce71bccd8341f6e", "is_reserved": 0, "lon": -77.02010566666667, "is_disabled": 0, "fusion_lon": 0.0, "rental_uris": {"android": "https://dc.lft.to/lastmile_qr_scan", "ios": "https://dc.lft.to/lastmile_qr_scan"}}, {"type": "electric_scooter", "name": "c400799279f1e453f27daf0a23c74dd1", "lat": 38.858062, "fusion_lat": 0.0, "bike_id": "c400799279f1e453f27daf0a23c74dd1", "is_reserved": 0, "lon": -76.98655866666667, "is_disabled": 0, "fusion_lon": 0.0, "rental_uris": {"android": "https://dc.lft.to/lastmile_qr_scan", "ios": "https://dc.lft.to/lastmile_qr_scan"}}, {"type": "electric_scooter", "name": "f0c7e44024a7ff7875f4c267d3d1fd62", "lat": 38.925991833333335, "fusion_lat": 0.0, "bike_id": "f0c7e44024a7ff7875f4c267d3d1fd62", "is_reserved": 0, "lon": -77.025866, "is_disabled": 0, "fusion_lon": 0.0, "rental_uris": {"android": "https://dc.lft.to/lastmile_qr_scan", "ios": "https://dc.lft.to/lastmile_qr_scan"}}, {"type": "electric_scooter", "name": "53e94b8f4761491a1ab778fa851305ea", "lat": 38.8923015, "fusion_lat": 0.0, "bike_id": "53e94b8f4761491a1ab778fa851305ea", "is_reserved": 0, "lon": -77.02206966666667, "is_disabled": 0, "fusion_lon": 0.0, "rental_uris": {"android": "https://dc.lft.to/lastmile_qr_scan", "ios": "https://dc.lft.to/lastmile_qr_scan"}}, {"type": "electric_bike", "name": "68fb32a88060f67737d721393974d291", "lat": 38.94151683333333, "fusion_lat": 0.0, "bike_id": "68fb32a88060f67737d721393974d291", "is_reserved": 0, "lon": -77.00199516666666, "is_disabled": 0, "fusion_lon": 0.0, "rental_uris": {"android": "https://dc.lft.to/lastmile_qr_scan", "ios": "https://dc.lft.to/lastmile_qr_scan"}}, {"type": "electric_scooter", "name": "70a112ed01ef036b30e825aad86acb40", "lat": 38.9208435, "fusion_lat": 0.0, "bike_id": "70a112ed01ef036b30e825aad86acb40", "is_reserved": 0, "lon": -77.0203785, "is_disabled": 0, "fusion_lon": 0.0, "rental_uris": {"android": "https://dc.lft.to/lastmile_qr_scan", "ios": "https://dc.lft.to/lastmile_qr_scan"}}, {"type": "electric_scooter", "name": "d63e8e8a89f0ab422147979267ab54a1", "lat": 38.8668975, "fusion_lat": 0.0, "bike_id": "d63e8e8a89f0ab422147979267ab54a1", "is_reserved": 0, "lon": -76.98544633333333, "is_disabled": 0, "fusion_lon": 0.0, "rental_uris": {"android": "https://dc.lft.to/lastmile_qr_scan", "ios": "https://dc.lft.to/lastmile_qr_scan"}}, {"type": "electric_scooter", "name": "7bb12755fa0c2d2f88c609578059e94f", "lat": 38.97368066666667, "fusion_lat": 0.0, "bike_id": "7bb12755fa0c2d2f88c609578059e94f", "is_reserved": 0, "lon": -77.01852066666666, "is_disabled": 0, "fusion_lon": 0.0, "rental_uris": {"android": "https://dc.lft.to/lastmile_qr_scan", "ios": "https://dc.lft.to/lastmile_qr_scan"}}, {"type": "electric_scooter", "name": "ca70dae0442c0c22101bdf0ebdcfa7bf", "lat": 38.93270116666667, "fusion_lat": 0.0, "bike_id": "ca70dae0442c0c22101bdf0ebdcfa7bf", "is_reserved": 0, "lon": -77.045364, "is_disabled": 0, "fusion_lon": 0.0, "rental_uris": {"android": "https://dc.lft.to/lastmile_qr_scan", "ios": "https://dc.lft.to/lastmile_qr_scan"}}, {"type": "electric_scooter", "name": "6e13a577bbe188d47ae57039233b4475", "lat": 38.877016833333336, "fusion_lat": 0.0, "bike_id": "6e13a577bbe188d47ae57039233b4475", "is_reserved": 0, "lon": -77.0176675, "is_disabled": 0, "fusion_lon": 0.0, "rental_uris": {"android": "https://dc.lft.to/lastmile_qr_scan", "ios": "https://dc.lft.to/lastmile_qr_scan"}}, {"type": "electric_scooter", "name": "1ed25831e331854a759039e0a0ebbb31", "lat": 38.9170635, "fusion_lat": 0.0, "bike_id": "1ed25831e331854a759039e0a0ebbb31", "is_reserved": 0, "lon": -77.03864816666666, "is_disabled": 0, "fusion_lon": 0.0, "rental_uris": {"android": "https://dc.lft.to/lastmile_qr_scan", "ios": "https://dc.lft.to/lastmile_qr_scan"}}, {"type": "electric_scooter", "name": "14040d0608dc8070f6c05af0b765a78e", "lat": 38.91193766666667, "fusion_lat": 0.0, "bike_id": "14040d0608dc8070f6c05af0b765a78e", "is_reserved": 0, "lon": -77.07309966666666, "is_disabled": 0, "fusion_lon": 0.0, "rental_uris": {"android": "https://dc.lft.to/lastmile_qr_scan", "ios": "https://dc.lft.to/lastmile_qr_scan"}}, {"type": "electric_scooter", "name": "7bb44e4d83cd66ea81eb2b4e0b5dcbbe", "lat": 38.91850183333333, "fusion_lat": 0.0, "bike_id": "7bb44e4d83cd66ea81eb2b4e0b5dcbbe", "is_reserved": 0, "lon": -77.061959, "is_disabled": 0, "fusion_lon": 0.0, "rental_uris": {"android": "https://dc.lft.to/lastmile_qr_scan", "ios": "https://dc.lft.to/lastmile_qr_scan"}}, {"type": "electric_scooter", "name": "8f28cb0ad29e2d73319b9684d9dd5ade", "lat": 38.944512333333336, "fusion_lat": 0.0, "bike_id": "8f28cb0ad29e2d73319b9684d9dd5ade", "is_reserved": 0, "lon": -77.02343716666667, "is_disabled": 0, "fusion_lon": 0.0, "rental_uris": {"android": "https://dc.lft.to/lastmile_qr_scan", "ios": "https://dc.lft.to/lastmile_qr_scan"}}, {"type": "electric_scooter", "name": "56c663c482b57b0755751584111b21b8", "lat": 38.90399016666667, "fusion_lat": 0.0, "bike_id": "56c663c482b57b0755751584111b21b8", "is_reserved": 0, "lon": -77.04348333333333, "is_disabled": 0, "fusion_lon": 0.0, "rental_uris": {"android": "https://dc.lft.to/lastmile_qr_scan", "ios": "https://dc.lft.to/lastmile_qr_scan"}}, {"type": "electric_scooter", "name": "8dd8d3856df1d6ca7f0bcc085ebab4fc", "lat": 38.899368333333335, "fusion_lat": 0.0, "bike_id": "8dd8d3856df1d6ca7f0bcc085ebab4fc", "is_reserved": 0, "lon": -77.03189516666667, "is_disabled": 0, "fusion_lon": 0.0, "rental_uris": {"android": "https://dc.lft.to/lastmile_qr_scan", "ios": "https://dc.lft.to/lastmile_qr_scan"}}, {"type": "electric_scooter", "name": "f9b6af86b907f45915562e5ff2a56a06", "lat": 38.918261, "fusion_lat": 0.0, "bike_id": "f9b6af86b907f45915562e5ff2a56a06", "is_reserved": 0, "lon": -77.0269285, "is_disabled": 0, "fusion_lon": 0.0, "rental_uris": {"android": "https://dc.lft.to/lastmile_qr_scan", "ios": "https://dc.lft.to/lastmile_qr_scan"}}, {"type": "electric_scooter", "name": "d97a2b25ea07473a7a28434c88f3584c", "lat": 38.91112733333333, "fusion_lat": 0.0, "bike_id": "d97a2b25ea07473a7a28434c88f3584c", "is_reserved": 0, "lon": -77.0450215, "is_disabled": 0, "fusion_lon": 0.0, "rental_uris": {"android": "https://dc.lft.to/lastmile_qr_scan", "ios": "https://dc.lft.to/lastmile_qr_scan"}}, {"type": "electric_scooter", "name": "7062b7730e354654debabbcd6230a16b", "lat": 38.938821833333336, "fusion_lat": 0.0, "bike_id": "7062b7730e354654debabbcd6230a16b", "is_reserved": 0, "lon": -77.03261266666667, "is_disabled": 0, "fusion_lon": 0.0, "rental_uris": {"android": "https://dc.lft.to/lastmile_qr_scan", "ios": "https://dc.lft.to/lastmile_qr_scan"}}, {"type": "electric_scooter", "name": "1c42edb7831a39fd4865b5d3c70b31dd", "lat": 38.918681, "fusion_lat": 0.0, "bike_id": "1c42edb7831a39fd4865b5d3c70b31dd", "is_reserved": 0, "lon": -77.03662666666666, "is_disabled": 0, "fusion_lon": 0.0, "rental_uris": {"android": "https://dc.lft.to/lastmile_qr_scan", "ios": "https://dc.lft.to/lastmile_qr_scan"}}, {"type": "electric_scooter", "name": "753724fecf837a96bc78bf0d3a234112", "lat": 38.917166, "fusion_lat": 0.0, "bike_id": "753724fecf837a96bc78bf0d3a234112", "is_reserved": 0, "lon": -77.068372, "is_disabled": 0, "fusion_lon": 0.0, "rental_uris": {"android": "https://dc.lft.to/lastmile_qr_scan", "ios": "https://dc.lft.to/lastmile_qr_scan"}}, {"type": "electric_scooter", "name": "10027e551aa613801980ecaf1ef702bc", "lat": 38.912539333333335, "fusion_lat": 0.0, "bike_id": "10027e551aa613801980ecaf1ef702bc", "is_reserved": 0, "lon": -77.03932083333333, "is_disabled": 0, "fusion_lon": 0.0, "rental_uris": {"android": "https://dc.lft.to/lastmile_qr_scan", "ios": "https://dc.lft.to/lastmile_qr_scan"}}, {"type": "electric_scooter", "name": "84cc63fb4c39add6037e4e71800fc4f0", "lat": 38.8757115, "fusion_lat": 0.0, "bike_id": "84cc63fb4c39add6037e4e71800fc4f0", "is_reserved": 0, "lon": -77.0057625, "is_disabled": 0, "fusion_lon": 0.0, "rental_uris": {"android": "https://dc.lft.to/lastmile_qr_scan", "ios": "https://dc.lft.to/lastmile_qr_scan"}}, {"type": "electric_scooter", "name": "7a3ff9c94b527f69c4b966cec6ce6e98", "lat": 38.89628033333334, "fusion_lat": 0.0, "bike_id": "7a3ff9c94b527f69c4b966cec6ce6e98", "is_reserved": 0, "lon": -77.02690283333334, "is_disabled": 0, "fusion_lon": 0.0, "rental_uris": {"android": "https://dc.lft.to/lastmile_qr_scan", "ios": "https://dc.lft.to/lastmile_qr_scan"}}, {"type": "electric_scooter", "name": "d638143b906a6dee8e467f24863063f9", "lat": 38.9002825, "fusion_lat": 0.0, "bike_id": "d638143b906a6dee8e467f24863063f9", "is_reserved": 0, "lon": -77.01213233333333, "is_disabled": 0, "fusion_lon": 0.0, "rental_uris": {"android": "https://dc.lft.to/lastmile_qr_scan", "ios": "https://dc.lft.to/lastmile_qr_scan"}}, {"type": "electric_scooter", "name": "653f575902bc5ad6fb2e08d45704a125", "lat": 38.924187833333335, "fusion_lat": 0.0, "bike_id": "653f575902bc5ad6fb2e08d45704a125", "is_reserved": 0, "lon": -77.05755733333334, "is_disabled": 0, "fusion_lon": 0.0, "rental_uris": {"android": "https://dc.lft.to/lastmile_qr_scan", "ios": "https://dc.lft.to/lastmile_qr_scan"}}, {"type": "electric_scooter", "name": "aeb4ab76980c875aae3db0d740fc4ada", "lat": 38.923623, "fusion_lat": 0.0, "bike_id": "aeb4ab76980c875aae3db0d740fc4ada", "is_reserved": 0, "lon": -77.050328, "is_disabled": 0, "fusion_lon": 0.0, "rental_uris": {"android": "https://dc.lft.to/lastmile_qr_scan", "ios": "https://dc.lft.to/lastmile_qr_scan"}}, {"type": "electric_scooter", "name": "44def10e4f23925d2a29d434d38f8523", "lat": 38.9273905, "fusion_lat": 0.0, "bike_id": "44def10e4f23925d2a29d434d38f8523", "is_reserved": 0, "lon": -77.03633516666666, "is_disabled": 0, "fusion_lon": 0.0, "rental_uris": {"android": "https://dc.lft.to/lastmile_qr_scan", "ios": "https://dc.lft.to/lastmile_qr_scan"}}, {"type": "electric_scooter", "name": "0b828bb5ef1525629c97e2823c764686", "lat": 38.952446, "fusion_lat": 0.0, "bike_id": "0b828bb5ef1525629c97e2823c764686", "is_reserved": 0, "lon": -77.00185416666666, "is_disabled": 0, "fusion_lon": 0.0, "rental_uris": {"android": "https://dc.lft.to/lastmile_qr_scan", "ios": "https://dc.lft.to/lastmile_qr_scan"}}, {"type": "electric_scooter", "name": "d7d7eca2cc1dd5a40bdabfd8f03d9edf", "lat": 38.9066715, "fusion_lat": 0.0, "bike_id": "d7d7eca2cc1dd5a40bdabfd8f03d9edf", "is_reserved": 0, "lon": -77.02694166666667, "is_disabled": 0, "fusion_lon": 0.0, "rental_uris": {"android": "https://dc.lft.to/lastmile_qr_scan", "ios": "https://dc.lft.to/lastmile_qr_scan"}}, {"type": "electric_scooter", "name": "34a8ebfba8667d0502f204ba77cb1c2b", "lat": 38.896495, "fusion_lat": 0.0, "bike_id": "34a8ebfba8667d0502f204ba77cb1c2b", "is_reserved": 0, "lon": -77.02611516666667, "is_disabled": 0, "fusion_lon": 0.0, "rental_uris": {"android": "https://dc.lft.to/lastmile_qr_scan", "ios": "https://dc.lft.to/lastmile_qr_scan"}}, {"type": "electric_scooter", "name": "6817b17b8834d1fde7a3e51f78dc31e9", "lat": 38.878830666666666, "fusion_lat": 0.0, "bike_id": "6817b17b8834d1fde7a3e51f78dc31e9", "is_reserved": 0, "lon": -77.02204383333333, "is_disabled": 0, "fusion_lon": 0.0, "rental_uris": {"android": "https://dc.lft.to/lastmile_qr_scan", "ios": "https://dc.lft.to/lastmile_qr_scan"}}, {"type": "electric_scooter", "name": "e2b3c89defe3c1867849483f35368add", "lat": 38.90110216666667, "fusion_lat": 0.0, "bike_id": "e2b3c89defe3c1867849483f35368add", "is_reserved": 0, "lon": -77.016767, "is_disabled": 0, "fusion_lon": 0.0, "rental_uris": {"android": "https://dc.lft.to/lastmile_qr_scan", "ios": "https://dc.lft.to/lastmile_qr_scan"}}, {"type": "electric_scooter", "name": "6f7558505476e6403739a0f0171e6267", "lat": 38.88647066666667, "fusion_lat": 0.0, "bike_id": "6f7558505476e6403739a0f0171e6267", "is_reserved": 0, "lon": -77.01544466666667, "is_disabled": 0, "fusion_lon": 0.0, "rental_uris": {"android": "https://dc.lft.to/lastmile_qr_scan", "ios": "https://dc.lft.to/lastmile_qr_scan"}}, {"type": "electric_scooter", "name": "3bd99139f938e12386c5ef412e6286e2", "lat": 38.919105, "fusion_lat": 0.0, "bike_id": "3bd99139f938e12386c5ef412e6286e2", "is_reserved": 0, "lon": -77.02947383333333, "is_disabled": 0, "fusion_lon": 0.0, "rental_uris": {"android": "https://dc.lft.to/lastmile_qr_scan", "ios": "https://dc.lft.to/lastmile_qr_scan"}}, {"type": "electric_scooter", "name": "b0b6f132a205b82eac8eadecdc21ca40", "lat": 38.900382, "fusion_lat": 0.0, "bike_id": "b0b6f132a205b82eac8eadecdc21ca40", "is_reserved": 0, "lon": -76.98830283333334, "is_disabled": 0, "fusion_lon": 0.0, "rental_uris": {"android": "https://dc.lft.to/lastmile_qr_scan", "ios": "https://dc.lft.to/lastmile_qr_scan"}}, {"type": "electric_scooter", "name": "7adb2ed36725c3c1650c824c7a4b8cc1", "lat": 38.92424616666667, "fusion_lat": 0.0, "bike_id": "7adb2ed36725c3c1650c824c7a4b8cc1", "is_reserved": 0, "lon": -77.02135116666666, "is_disabled": 0, "fusion_lon": 0.0, "rental_uris": {"android": "https://dc.lft.to/lastmile_qr_scan", "ios": "https://dc.lft.to/lastmile_qr_scan"}}, {"type": "electric_scooter", "name": "a1f57dc24386778e65c316ed152c566b", "lat": 38.842917166666666, "fusion_lat": 0.0, "bike_id": "a1f57dc24386778e65c316ed152c566b", "is_reserved": 0, "lon": -76.99946816666667, "is_disabled": 0, "fusion_lon": 0.0, "rental_uris": {"android": "https://dc.lft.to/lastmile_qr_scan", "ios": "https://dc.lft.to/lastmile_qr_scan"}}, {"type": "electric_scooter", "name": "30dc99bfe541e6d8007166c5ecbbf790", "lat": 38.921459666666664, "fusion_lat": 0.0, "bike_id": "30dc99bfe541e6d8007166c5ecbbf790", "is_reserved": 0, "lon": -77.0423125, "is_disabled": 0, "fusion_lon": 0.0, "rental_uris": {"android": "https://dc.lft.to/lastmile_qr_scan", "ios": "https://dc.lft.to/lastmile_qr_scan"}}, {"type": "electric_scooter", "name": "9cd4d965284d4e5797d2169f5f83c982", "lat": 38.903692166666666, "fusion_lat": 0.0, "bike_id": "9cd4d965284d4e5797d2169f5f83c982", "is_reserved": 0, "lon": -77.0434435, "is_disabled": 0, "fusion_lon": 0.0, "rental_uris": {"android": "https://dc.lft.to/lastmile_qr_scan", "ios": "https://dc.lft.to/lastmile_qr_scan"}}, {"type": "electric_scooter", "name": "a9175e8574449c970ca5c96ca992dc62", "lat": 38.8954805, "fusion_lat": 0.0, "bike_id": "a9175e8574449c970ca5c96ca992dc62", "is_reserved": 0, "lon": -77.01101216666666, "is_disabled": 0, "fusion_lon": 0.0, "rental_uris": {"android": "https://dc.lft.to/lastmile_qr_scan", "ios": "https://dc.lft.to/lastmile_qr_scan"}}, {"type": "electric_scooter", "name": "3e0fb34edd3bfa048f3e57dba92f7792", "lat": 38.900376, "fusion_lat": 0.0, "bike_id": "3e0fb34edd3bfa048f3e57dba92f7792", "is_reserved": 0, "lon": -77.00195616666667, "is_disabled": 0, "fusion_lon": 0.0, "rental_uris": {"android": "https://dc.lft.to/lastmile_qr_scan", "ios": "https://dc.lft.to/lastmile_qr_scan"}}, {"type": "electric_scooter", "name": "f8a10f71c97fc4b67f14345264643ee0", "lat": 38.92548133333333, "fusion_lat": 0.0, "bike_id": "f8a10f71c97fc4b67f14345264643ee0", "is_reserved": 0, "lon": -77.00066766666667, "is_disabled": 0, "fusion_lon": 0.0, "rental_uris": {"android": "https://dc.lft.to/lastmile_qr_scan", "ios": "https://dc.lft.to/lastmile_qr_scan"}}, {"type": "electric_scooter", "name": "45c3cb334c69f411d1e4a3f76b9d854a", "lat": 38.908581833333336, "fusion_lat": 0.0, "bike_id": "45c3cb334c69f411d1e4a3f76b9d854a", "is_reserved": 0, "lon": -77.04264633333334, "is_disabled": 0, "fusion_lon": 0.0, "rental_uris": {"android": "https://dc.lft.to/lastmile_qr_scan", "ios": "https://dc.lft.to/lastmile_qr_scan"}}, {"type": "electric_scooter", "name": "01d6b355cdf3bb49ee39ee1168e7bed4", "lat": 38.90033, "fusion_lat": 0.0, "bike_id": "01d6b355cdf3bb49ee39ee1168e7bed4", "is_reserved": 0, "lon": -76.99608583333334, "is_disabled": 0, "fusion_lon": 0.0, "rental_uris": {"android": "https://dc.lft.to/lastmile_qr_scan", "ios": "https://dc.lft.to/lastmile_qr_scan"}}, {"type": "electric_scooter", "name": "ad5f15d7f0481048a08f0448856fb906", "lat": 38.91708033333333, "fusion_lat": 0.0, "bike_id": "ad5f15d7f0481048a08f0448856fb906", "is_reserved": 0, "lon": -77.04124066666667, "is_disabled": 0, "fusion_lon": 0.0, "rental_uris": {"android": "https://dc.lft.to/lastmile_qr_scan", "ios": "https://dc.lft.to/lastmile_qr_scan"}}, {"type": "electric_scooter", "name": "79f66aa599b3fd15ac81f163b26fcef5", "lat": 38.896882833333336, "fusion_lat": 0.0, "bike_id": "79f66aa599b3fd15ac81f163b26fcef5", "is_reserved": 0, "lon": -77.048971, "is_disabled": 0, "fusion_lon": 0.0, "rental_uris": {"android": "https://dc.lft.to/lastmile_qr_scan", "ios": "https://dc.lft.to/lastmile_qr_scan"}}, {"type": "electric_scooter", "name": "cbd9ed72d59053f5022db57df5a30eb2", "lat": 38.8874765, "fusion_lat": 0.0, "bike_id": "cbd9ed72d59053f5022db57df5a30eb2", "is_reserved": 0, "lon": -77.028462, "is_disabled": 0, "fusion_lon": 0.0, "rental_uris": {"android": "https://dc.lft.to/lastmile_qr_scan", "ios": "https://dc.lft.to/lastmile_qr_scan"}}, {"type": "electric_scooter", "name": "ccbfeb889b4326ac9f4696b447cb04c3", "lat": 38.920429166666665, "fusion_lat": 0.0, "bike_id": "ccbfeb889b4326ac9f4696b447cb04c3", "is_reserved": 0, "lon": -77.01675983333334, "is_disabled": 0, "fusion_lon": 0.0, "rental_uris": {"android": "https://dc.lft.to/lastmile_qr_scan", "ios": "https://dc.lft.to/lastmile_qr_scan"}}, {"type": "electric_scooter", "name": "7e5daa1b67696a322f622c65bd51612d", "lat": 38.8859965, "fusion_lat": 0.0, "bike_id": "7e5daa1b67696a322f622c65bd51612d", "is_reserved": 0, "lon": -76.99014633333333, "is_disabled": 0, "fusion_lon": 0.0, "rental_uris": {"android": "https://dc.lft.to/lastmile_qr_scan", "ios": "https://dc.lft.to/lastmile_qr_scan"}}, {"type": "electric_bike", "name": "1014c797ef5845959259f2af7d5809b2", "lat": 38.845069333333335, "fusion_lat": 0.0, "bike_id": "1014c797ef5845959259f2af7d5809b2", "is_reserved": 0, "lon": -76.99351283333333, "is_disabled": 0, "fusion_lon": 0.0, "rental_uris": {"android": "https://dc.lft.to/lastmile_qr_scan", "ios": "https://dc.lft.to/lastmile_qr_scan"}}, {"type": "electric_scooter", "name": "99ddeaa2674b7cb737834231644bc994", "lat": 38.925988333333336, "fusion_lat": 0.0, "bike_id": "99ddeaa2674b7cb737834231644bc994", "is_reserved": 0, "lon": -77.021578, "is_disabled": 0, "fusion_lon": 0.0, "rental_uris": {"android": "https://dc.lft.to/lastmile_qr_scan", "ios": "https://dc.lft.to/lastmile_qr_scan"}}, {"type": "electric_scooter", "name": "b81124df092efb2e6f4cd40c776767a1", "lat": 38.9045015, "fusion_lat": 0.0, "bike_id": "b81124df092efb2e6f4cd40c776767a1", "is_reserved": 0, "lon": -77.03232, "is_disabled": 0, "fusion_lon": 0.0, "rental_uris": {"android": "https://dc.lft.to/lastmile_qr_scan", "ios": "https://dc.lft.to/lastmile_qr_scan"}}, {"type": "electric_scooter", "name": "d7b0e111e96832a73a1f47b85ec3a96b", "lat": 38.9210365, "fusion_lat": 0.0, "bike_id": "d7b0e111e96832a73a1f47b85ec3a96b", "is_reserved": 0, "lon": -77.02544233333333, "is_disabled": 0, "fusion_lon": 0.0, "rental_uris": {"android": "https://dc.lft.to/lastmile_qr_scan", "ios": "https://dc.lft.to/lastmile_qr_scan"}}, {"type": "electric_scooter", "name": "f6eedb679d53ef010dad6581c9c0fc08", "lat": 38.9096255, "fusion_lat": 0.0, "bike_id": "f6eedb679d53ef010dad6581c9c0fc08", "is_reserved": 0, "lon": -77.045462, "is_disabled": 0, "fusion_lon": 0.0, "rental_uris": {"android": "https://dc.lft.to/lastmile_qr_scan", "ios": "https://dc.lft.to/lastmile_qr_scan"}}, {"type": "electric_scooter", "name": "f0046ece0d21d326a8d1987b754fddf3", "lat": 38.90998116666667, "fusion_lat": 0.0, "bike_id": "f0046ece0d21d326a8d1987b754fddf3", "is_reserved": 0, "lon": -77.04653483333334, "is_disabled": 0, "fusion_lon": 0.0, "rental_uris": {"android": "https://dc.lft.to/lastmile_qr_scan", "ios": "https://dc.lft.to/lastmile_qr_scan"}}, {"type": "electric_scooter", "name": "1fc1f3bceda03f2035383c7499384ae6", "lat": 38.9012605, "fusion_lat": 0.0, "bike_id": "1fc1f3bceda03f2035383c7499384ae6", "is_reserved": 0, "lon": -77.03269583333334, "is_disabled": 0, "fusion_lon": 0.0, "rental_uris": {"android": "https://dc.lft.to/lastmile_qr_scan", "ios": "https://dc.lft.to/lastmile_qr_scan"}}, {"type": "electric_scooter", "name": "e2006b4e3e9bf6066b8ae4ed64691eb1", "lat": 38.9593435, "fusion_lat": 0.0, "bike_id": "e2006b4e3e9bf6066b8ae4ed64691eb1", "is_reserved": 0, "lon": -77.03118133333334, "is_disabled": 0, "fusion_lon": 0.0, "rental_uris": {"android": "https://dc.lft.to/lastmile_qr_scan", "ios": "https://dc.lft.to/lastmile_qr_scan"}}, {"type": "electric_scooter", "name": "e7d6881c0dcfe3908376238630de87c6", "lat": 38.900322, "fusion_lat": 0.0, "bike_id": "e7d6881c0dcfe3908376238630de87c6", "is_reserved": 0, "lon": -76.99604883333333, "is_disabled": 0, "fusion_lon": 0.0, "rental_uris": {"android": "https://dc.lft.to/lastmile_qr_scan", "ios": "https://dc.lft.to/lastmile_qr_scan"}}, {"type": "electric_scooter", "name": "0bb62e7e979644eb3c21cadfee762535", "lat": 38.92060033333333, "fusion_lat": 0.0, "bike_id": "0bb62e7e979644eb3c21cadfee762535", "is_reserved": 0, "lon": -77.02300666666666, "is_disabled": 0, "fusion_lon": 0.0, "rental_uris": {"android": "https://dc.lft.to/lastmile_qr_scan", "ios": "https://dc.lft.to/lastmile_qr_scan"}}, {"type": "electric_scooter", "name": "c5a304bd0c83ef7a2faab3c053f3f630", "lat": 38.919109, "fusion_lat": 0.0, "bike_id": "c5a304bd0c83ef7a2faab3c053f3f630", "is_reserved": 0, "lon": -77.02138116666667, "is_disabled": 0, "fusion_lon": 0.0, "rental_uris": {"android": "https://dc.lft.to/lastmile_qr_scan", "ios": "https://dc.lft.to/lastmile_qr_scan"}}, {"type": "electric_scooter", "name": "713147a1defcc3fd0aac5cd2b89f3c71", "lat": 38.91556116666667, "fusion_lat": 0.0, "bike_id": "713147a1defcc3fd0aac5cd2b89f3c71", "is_reserved": 0, "lon": -77.03173416666667, "is_disabled": 0, "fusion_lon": 0.0, "rental_uris": {"android": "https://dc.lft.to/lastmile_qr_scan", "ios": "https://dc.lft.to/lastmile_qr_scan"}}, {"type": "electric_scooter", "name": "c6c13361958cdeb3fbbd061a4fd9bd0d", "lat": 38.898316, "fusion_lat": 0.0, "bike_id": "c6c13361958cdeb3fbbd061a4fd9bd0d", "is_reserved": 0, "lon": -77.02819083333333, "is_disabled": 0, "fusion_lon": 0.0, "rental_uris": {"android": "https://dc.lft.to/lastmile_qr_scan", "ios": "https://dc.lft.to/lastmile_qr_scan"}}, {"type": "electric_scooter", "name": "0128126b43fc9c39233a7661225f62e5", "lat": 38.921572166666664, "fusion_lat": 0.0, "bike_id": "0128126b43fc9c39233a7661225f62e5", "is_reserved": 0, "lon": -77.03387166666667, "is_disabled": 0, "fusion_lon": 0.0, "rental_uris": {"android": "https://dc.lft.to/lastmile_qr_scan", "ios": "https://dc.lft.to/lastmile_qr_scan"}}, {"type": "electric_scooter", "name": "dc070ad7230b2539e7ae23c441be40a4", "lat": 38.91097583333333, "fusion_lat": 0.0, "bike_id": "dc070ad7230b2539e7ae23c441be40a4", "is_reserved": 0, "lon": -77.03854283333334, "is_disabled": 0, "fusion_lon": 0.0, "rental_uris": {"android": "https://dc.lft.to/lastmile_qr_scan", "ios": "https://dc.lft.to/lastmile_qr_scan"}}, {"type": "electric_scooter", "name": "fdf8ade80fe2f3fc2aa9be4362736a2e", "lat": 38.8865435, "fusion_lat": 0.0, "bike_id": "fdf8ade80fe2f3fc2aa9be4362736a2e", "is_reserved": 0, "lon": -77.02151333333333, "is_disabled": 0, "fusion_lon": 0.0, "rental_uris": {"android": "https://dc.lft.to/lastmile_qr_scan", "ios": "https://dc.lft.to/lastmile_qr_scan"}}, {"type": "electric_scooter", "name": "b8fa8200eab35993048356ebcb604e69", "lat": 38.908294166666664, "fusion_lat": 0.0, "bike_id": "b8fa8200eab35993048356ebcb604e69", "is_reserved": 0, "lon": -77.0339375, "is_disabled": 0, "fusion_lon": 0.0, "rental_uris": {"android": "https://dc.lft.to/lastmile_qr_scan", "ios": "https://dc.lft.to/lastmile_qr_scan"}}, {"type": "electric_scooter", "name": "5e9e5ab2c93df08639a504883f604882", "lat": 38.92868133333333, "fusion_lat": 0.0, "bike_id": "5e9e5ab2c93df08639a504883f604882", "is_reserved": 0, "lon": -77.03352, "is_disabled": 0, "fusion_lon": 0.0, "rental_uris": {"android": "https://dc.lft.to/lastmile_qr_scan", "ios": "https://dc.lft.to/lastmile_qr_scan"}}, {"type": "electric_scooter", "name": "b4a0857c4b2b7983f87ebfda858c5aae", "lat": 38.91410333333334, "fusion_lat": 0.0, "bike_id": "b4a0857c4b2b7983f87ebfda858c5aae", "is_reserved": 0, "lon": -77.02336416666667, "is_disabled": 0, "fusion_lon": 0.0, "rental_uris": {"android": "https://dc.lft.to/lastmile_qr_scan", "ios": "https://dc.lft.to/lastmile_qr_scan"}}, {"type": "electric_scooter", "name": "51007e6b314084f1792ac0e8e02fbf40", "lat": 38.920813333333335, "fusion_lat": 0.0, "bike_id": "51007e6b314084f1792ac0e8e02fbf40", "is_reserved": 0, "lon": -77.02326666666667, "is_disabled": 0, "fusion_lon": 0.0, "rental_uris": {"android": "https://dc.lft.to/lastmile_qr_scan", "ios": "https://dc.lft.to/lastmile_qr_scan"}}, {"type": "electric_scooter", "name": "6d43bc3e6529c80080cf9519137ca83f", "lat": 38.923657, "fusion_lat": 0.0, "bike_id": "6d43bc3e6529c80080cf9519137ca83f", "is_reserved": 0, "lon": -77.02117116666666, "is_disabled": 0, "fusion_lon": 0.0, "rental_uris": {"android": "https://dc.lft.to/lastmile_qr_scan", "ios": "https://dc.lft.to/lastmile_qr_scan"}}, {"type": "electric_bike", "name": "0fcbccae9cc9440b5e57fd1ec485ac6b", "lat": 38.95626216666667, "fusion_lat": 0.0, "bike_id": "0fcbccae9cc9440b5e57fd1ec485ac6b", "is_reserved": 0, "lon": -76.93872833333333, "is_disabled": 0, "fusion_lon": 0.0, "rental_uris": {"android": "https://dc.lft.to/lastmile_qr_scan", "ios": "https://dc.lft.to/lastmile_qr_scan"}}, {"type": "electric_scooter", "name": "14d5e60e3faee781ae0d80df2eae5b5e", "lat": 38.8972245, "fusion_lat": 0.0, "bike_id": "14d5e60e3faee781ae0d80df2eae5b5e", "is_reserved": 0, "lon": -77.00986133333333, "is_disabled": 0, "fusion_lon": 0.0, "rental_uris": {"android": "https://dc.lft.to/lastmile_qr_scan", "ios": "https://dc.lft.to/lastmile_qr_scan"}}, {"type": "electric_scooter", "name": "58c652f8f600c9671fdcf2d1cc9e048c", "lat": 38.919805833333335, "fusion_lat": 0.0, "bike_id": "58c652f8f600c9671fdcf2d1cc9e048c", "is_reserved": 0, "lon": -77.02355516666667, "is_disabled": 0, "fusion_lon": 0.0, "rental_uris": {"android": "https://dc.lft.to/lastmile_qr_scan", "ios": "https://dc.lft.to/lastmile_qr_scan"}}, {"type": "electric_scooter", "name": "aded5a617d21f8faaea9a00eb063ebb3", "lat": 38.89450316666667, "fusion_lat": 0.0, "bike_id": "aded5a617d21f8faaea9a00eb063ebb3", "is_reserved": 0, "lon": -77.01877033333334, "is_disabled": 0, "fusion_lon": 0.0, "rental_uris": {"android": "https://dc.lft.to/lastmile_qr_scan", "ios": "https://dc.lft.to/lastmile_qr_scan"}}, {"type": "electric_scooter", "name": "93e2d33fd294bb0a50e670077fc58b26", "lat": 38.90984016666667, "fusion_lat": 0.0, "bike_id": "93e2d33fd294bb0a50e670077fc58b26", "is_reserved": 0, "lon": -77.03188083333333, "is_disabled": 0, "fusion_lon": 0.0, "rental_uris": {"android": "https://dc.lft.to/lastmile_qr_scan", "ios": "https://dc.lft.to/lastmile_qr_scan"}}, {"type": "electric_scooter", "name": "3a5ea5d5797e82fa76caceb2e45d05ec", "lat": 38.90567733333334, "fusion_lat": 0.0, "bike_id": "3a5ea5d5797e82fa76caceb2e45d05ec", "is_reserved": 0, "lon": -77.03474283333334, "is_disabled": 0, "fusion_lon": 0.0, "rental_uris": {"android": "https://dc.lft.to/lastmile_qr_scan", "ios": "https://dc.lft.to/lastmile_qr_scan"}}, {"type": "electric_scooter", "name": "7a1dddd198b0f770da18c91131d71871", "lat": 38.9087725, "fusion_lat": 0.0, "bike_id": "7a1dddd198b0f770da18c91131d71871", "is_reserved": 0, "lon": -77.0200285, "is_disabled": 0, "fusion_lon": 0.0, "rental_uris": {"android": "https://dc.lft.to/lastmile_qr_scan", "ios": "https://dc.lft.to/lastmile_qr_scan"}}, {"type": "electric_bike", "name": "435ada90ef335c0d41b6e9e5755c1abd", "lat": 38.844615166666664, "fusion_lat": 0.0, "bike_id": "435ada90ef335c0d41b6e9e5755c1abd", "is_reserved": 0, "lon": -76.99885766666667, "is_disabled": 0, "fusion_lon": 0.0, "rental_uris": {"android": "https://dc.lft.to/lastmile_qr_scan", "ios": "https://dc.lft.to/lastmile_qr_scan"}}, {"type": "electric_scooter", "name": "068136ef55c11a2c45873269952a7a6e", "lat": 38.897276, "fusion_lat": 0.0, "bike_id": "068136ef55c11a2c45873269952a7a6e", "is_reserved": 0, "lon": -76.9946755, "is_disabled": 0, "fusion_lon": 0.0, "rental_uris": {"android": "https://dc.lft.to/lastmile_qr_scan", "ios": "https://dc.lft.to/lastmile_qr_scan"}}, {"type": "electric_scooter", "name": "9a02d8bf55a171320a146574249c9f5b", "lat": 38.925708666666665, "fusion_lat": 0.0, "bike_id": "9a02d8bf55a171320a146574249c9f5b", "is_reserved": 0, "lon": -77.02691916666667, "is_disabled": 0, "fusion_lon": 0.0, "rental_uris": {"android": "https://dc.lft.to/lastmile_qr_scan", "ios": "https://dc.lft.to/lastmile_qr_scan"}}, {"type": "electric_scooter", "name": "8a26e0f8a7ec94e7079390c815b257c4", "lat": 38.9026695, "fusion_lat": 0.0, "bike_id": "8a26e0f8a7ec94e7079390c815b257c4", "is_reserved": 0, "lon": -77.01765166666667, "is_disabled": 0, "fusion_lon": 0.0, "rental_uris": {"android": "https://dc.lft.to/lastmile_qr_scan", "ios": "https://dc.lft.to/lastmile_qr_scan"}}, {"type": "electric_scooter", "name": "94664a683de50fc8f37e85fa12426815", "lat": 38.923345833333336, "fusion_lat": 0.0, "bike_id": "94664a683de50fc8f37e85fa12426815", "is_reserved": 0, "lon": -77.05350783333333, "is_disabled": 0, "fusion_lon": 0.0, "rental_uris": {"android": "https://dc.lft.to/lastmile_qr_scan", "ios": "https://dc.lft.to/lastmile_qr_scan"}}, {"type": "electric_scooter", "name": "c0790abc870b026b7627c5b97ac60f72", "lat": 38.900054, "fusion_lat": 0.0, "bike_id": "c0790abc870b026b7627c5b97ac60f72", "is_reserved": 0, "lon": -76.98834133333334, "is_disabled": 0, "fusion_lon": 0.0, "rental_uris": {"android": "https://dc.lft.to/lastmile_qr_scan", "ios": "https://dc.lft.to/lastmile_qr_scan"}}, {"type": "electric_scooter", "name": "4035ab60feaaf151f3e14ee73aad1ca6", "lat": 38.89624383333334, "fusion_lat": 0.0, "bike_id": "4035ab60feaaf151f3e14ee73aad1ca6", "is_reserved": 0, "lon": -77.03220283333333, "is_disabled": 0, "fusion_lon": 0.0, "rental_uris": {"android": "https://dc.lft.to/lastmile_qr_scan", "ios": "https://dc.lft.to/lastmile_qr_scan"}}, {"type": "electric_bike", "name": "38de780a83e96f10272c5c1ff6ac8795", "lat": 38.96311733333334, "fusion_lat": 0.0, "bike_id": "38de780a83e96f10272c5c1ff6ac8795", "is_reserved": 0, "lon": -77.01129683333333, "is_disabled": 0, "fusion_lon": 0.0, "rental_uris": {"android": "https://dc.lft.to/lastmile_qr_scan", "ios": "https://dc.lft.to/lastmile_qr_scan"}}, {"type": "electric_scooter", "name": "dac16a0fae33b6b524a1dfd6c9708354", "lat": 38.883777333333335, "fusion_lat": 0.0, "bike_id": "dac16a0fae33b6b524a1dfd6c9708354", "is_reserved": 0, "lon": -76.99523433333333, "is_disabled": 0, "fusion_lon": 0.0, "rental_uris": {"android": "https://dc.lft.to/lastmile_qr_scan", "ios": "https://dc.lft.to/lastmile_qr_scan"}}, {"type": "electric_scooter", "name": "8d2f06833554e7dc7ab4a8b75c081882", "lat": 38.876026, "fusion_lat": 0.0, "bike_id": "8d2f06833554e7dc7ab4a8b75c081882", "is_reserved": 0, "lon": -77.00937616666667, "is_disabled": 0, "fusion_lon": 0.0, "rental_uris": {"android": "https://dc.lft.to/lastmile_qr_scan", "ios": "https://dc.lft.to/lastmile_qr_scan"}}, {"type": "electric_scooter", "name": "155d77f652d6a745a1b5d7058d38bd66", "lat": 38.897292166666666, "fusion_lat": 0.0, "bike_id": "155d77f652d6a745a1b5d7058d38bd66", "is_reserved": 0, "lon": -77.02662283333333, "is_disabled": 0, "fusion_lon": 0.0, "rental_uris": {"android": "https://dc.lft.to/lastmile_qr_scan", "ios": "https://dc.lft.to/lastmile_qr_scan"}}, {"type": "electric_scooter", "name": "dbea1333a4f5afcb461d2fbd37816dfb", "lat": 38.90391733333333, "fusion_lat": 0.0, "bike_id": "dbea1333a4f5afcb461d2fbd37816dfb", "is_reserved": 0, "lon": -77.06395016666667, "is_disabled": 0, "fusion_lon": 0.0, "rental_uris": {"android": "https://dc.lft.to/lastmile_qr_scan", "ios": "https://dc.lft.to/lastmile_qr_scan"}}, {"type": "electric_scooter", "name": "253a5f10774d9e4072f02724f8306bc1", "lat": 38.928771166666664, "fusion_lat": 0.0, "bike_id": "253a5f10774d9e4072f02724f8306bc1", "is_reserved": 0, "lon": -77.013688, "is_disabled": 0, "fusion_lon": 0.0, "rental_uris": {"android": "https://dc.lft.to/lastmile_qr_scan", "ios": "https://dc.lft.to/lastmile_qr_scan"}}, {"type": "electric_scooter", "name": "d5d464396b832ca6e809672b31ce8cd6", "lat": 38.92777816666667, "fusion_lat": 0.0, "bike_id": "d5d464396b832ca6e809672b31ce8cd6", "is_reserved": 0, "lon": -77.00560266666666, "is_disabled": 0, "fusion_lon": 0.0, "rental_uris": {"android": "https://dc.lft.to/lastmile_qr_scan", "ios": "https://dc.lft.to/lastmile_qr_scan"}}, {"type": "electric_scooter", "name": "e6232b0ab7eb9058e77a64b98a61efaf", "lat": 38.9112475, "fusion_lat": 0.0, "bike_id": "e6232b0ab7eb9058e77a64b98a61efaf", "is_reserved": 0, "lon": -77.04422566666666, "is_disabled": 0, "fusion_lon": 0.0, "rental_uris": {"android": "https://dc.lft.to/lastmile_qr_scan", "ios": "https://dc.lft.to/lastmile_qr_scan"}}, {"type": "electric_scooter", "name": "0ffc56c34a9f1415cb9b37517999b9d6", "lat": 38.865082, "fusion_lat": 0.0, "bike_id": "0ffc56c34a9f1415cb9b37517999b9d6", "is_reserved": 0, "lon": -76.99005533333333, "is_disabled": 0, "fusion_lon": 0.0, "rental_uris": {"android": "https://dc.lft.to/lastmile_qr_scan", "ios": "https://dc.lft.to/lastmile_qr_scan"}}, {"type": "electric_scooter", "name": "9baf93fbfabbb1ffe72d1777c2f30833", "lat": 38.9315655, "fusion_lat": 0.0, "bike_id": "9baf93fbfabbb1ffe72d1777c2f30833", "is_reserved": 0, "lon": -77.036088, "is_disabled": 0, "fusion_lon": 0.0, "rental_uris": {"android": "https://dc.lft.to/lastmile_qr_scan", "ios": "https://dc.lft.to/lastmile_qr_scan"}}, {"type": "electric_scooter", "name": "6ebdb69e8325cc5497cacf724d1d5cf4", "lat": 38.92642283333333, "fusion_lat": 0.0, "bike_id": "6ebdb69e8325cc5497cacf724d1d5cf4", "is_reserved": 0, "lon": -77.0347085, "is_disabled": 0, "fusion_lon": 0.0, "rental_uris": {"android": "https://dc.lft.to/lastmile_qr_scan", "ios": "https://dc.lft.to/lastmile_qr_scan"}}, {"type": "electric_bike", "name": "d4babe8a29409e274ab267e4436e9a3e", "lat": 38.893474499999996, "fusion_lat": 0.0, "bike_id": "d4babe8a29409e274ab267e4436e9a3e", "is_reserved": 0, "lon": -77.18745833333334, "is_disabled": 0, "fusion_lon": 0.0, "rental_uris": {"android": "https://dc.lft.to/lastmile_qr_scan", "ios": "https://dc.lft.to/lastmile_qr_scan"}}, {"type": "electric_scooter", "name": "3c9b9eb9a6873113caadbcc3a858258f", "lat": 38.92108533333333, "fusion_lat": 0.0, "bike_id": "3c9b9eb9a6873113caadbcc3a858258f", "is_reserved": 0, "lon": -77.02133916666666, "is_disabled": 0, "fusion_lon": 0.0, "rental_uris": {"android": "https://dc.lft.to/lastmile_qr_scan", "ios": "https://dc.lft.to/lastmile_qr_scan"}}, {"type": "electric_scooter", "name": "2d88ca81cc1a220ce253128dff0e226d", "lat": 38.9004035, "fusion_lat": 0.0, "bike_id": "2d88ca81cc1a220ce253128dff0e226d", "is_reserved": 0, "lon": -77.043314, "is_disabled": 0, "fusion_lon": 0.0, "rental_uris": {"android": "https://dc.lft.to/lastmile_qr_scan", "ios": "https://dc.lft.to/lastmile_qr_scan"}}, {"type": "electric_scooter", "name": "76e0ccb4151721ce5e302ace7d152dfd", "lat": 38.916991, "fusion_lat": 0.0, "bike_id": "76e0ccb4151721ce5e302ace7d152dfd", "is_reserved": 0, "lon": -77.029295, "is_disabled": 0, "fusion_lon": 0.0, "rental_uris": {"android": "https://dc.lft.to/lastmile_qr_scan", "ios": "https://dc.lft.to/lastmile_qr_scan"}}, {"type": "electric_scooter", "name": "f2dcbcd961c333de0cd810247b3c96f2", "lat": 38.905337333333335, "fusion_lat": 0.0, "bike_id": "f2dcbcd961c333de0cd810247b3c96f2", "is_reserved": 0, "lon": -77.05598316666666, "is_disabled": 0, "fusion_lon": 0.0, "rental_uris": {"android": "https://dc.lft.to/lastmile_qr_scan", "ios": "https://dc.lft.to/lastmile_qr_scan"}}, {"type": "electric_scooter", "name": "aaeb531f10cf3225f27190746e6056dc", "lat": 38.905254666666664, "fusion_lat": 0.0, "bike_id": "aaeb531f10cf3225f27190746e6056dc", "is_reserved": 0, "lon": -77.06042933333333, "is_disabled": 0, "fusion_lon": 0.0, "rental_uris": {"android": "https://dc.lft.to/lastmile_qr_scan", "ios": "https://dc.lft.to/lastmile_qr_scan"}}, {"type": "electric_scooter", "name": "08df0d563df5e369db4f898d1fcda1f0", "lat": 38.91782083333333, "fusion_lat": 0.0, "bike_id": "08df0d563df5e369db4f898d1fcda1f0", "is_reserved": 0, "lon": -77.02310383333334, "is_disabled": 0, "fusion_lon": 0.0, "rental_uris": {"android": "https://dc.lft.to/lastmile_qr_scan", "ios": "https://dc.lft.to/lastmile_qr_scan"}}, {"type": "electric_scooter", "name": "61e8f19c4d363362a0bed5782dc7850e", "lat": 38.903659833333336, "fusion_lat": 0.0, "bike_id": "61e8f19c4d363362a0bed5782dc7850e", "is_reserved": 0, "lon": -77.03712733333333, "is_disabled": 0, "fusion_lon": 0.0, "rental_uris": {"android": "https://dc.lft.to/lastmile_qr_scan", "ios": "https://dc.lft.to/lastmile_qr_scan"}}, {"type": "electric_scooter", "name": "2ca8b2523bf6df4349bd4e113aa22001", "lat": 38.90393133333333, "fusion_lat": 0.0, "bike_id": "2ca8b2523bf6df4349bd4e113aa22001", "is_reserved": 0, "lon": -77.06327166666667, "is_disabled": 0, "fusion_lon": 0.0, "rental_uris": {"android": "https://dc.lft.to/lastmile_qr_scan", "ios": "https://dc.lft.to/lastmile_qr_scan"}}, {"type": "electric_scooter", "name": "bc24b777c176343667f470b13df9cc2d", "lat": 38.911087, "fusion_lat": 0.0, "bike_id": "bc24b777c176343667f470b13df9cc2d", "is_reserved": 0, "lon": -77.043545, "is_disabled": 0, "fusion_lon": 0.0, "rental_uris": {"android": "https://dc.lft.to/lastmile_qr_scan", "ios": "https://dc.lft.to/lastmile_qr_scan"}}, {"type": "electric_bike", "name": "5cd9a2ae5798a75745c719babe8f7315", "lat": 38.83360316666667, "fusion_lat": 0.0, "bike_id": "5cd9a2ae5798a75745c719babe8f7315", "is_reserved": 0, "lon": -77.002933, "is_disabled": 0, "fusion_lon": 0.0, "rental_uris": {"android": "https://dc.lft.to/lastmile_qr_scan", "ios": "https://dc.lft.to/lastmile_qr_scan"}}, {"type": "electric_scooter", "name": "74450da1fd0b82f0cc0b1e97332e4b55", "lat": 38.921779666666666, "fusion_lat": 0.0, "bike_id": "74450da1fd0b82f0cc0b1e97332e4b55", "is_reserved": 0, "lon": -77.04696066666666, "is_disabled": 0, "fusion_lon": 0.0, "rental_uris": {"android": "https://dc.lft.to/lastmile_qr_scan", "ios": "https://dc.lft.to/lastmile_qr_scan"}}, {"type": "electric_scooter", "name": "fe6255db91e27da0c66d7944532c38fa", "lat": 38.92528633333333, "fusion_lat": 0.0, "bike_id": "fe6255db91e27da0c66d7944532c38fa", "is_reserved": 0, "lon": -77.03526783333334, "is_disabled": 0, "fusion_lon": 0.0, "rental_uris": {"android": "https://dc.lft.to/lastmile_qr_scan", "ios": "https://dc.lft.to/lastmile_qr_scan"}}, {"type": "electric_scooter", "name": "348f349936022a7bb668d94b6732be9a", "lat": 38.922473833333335, "fusion_lat": 0.0, "bike_id": "348f349936022a7bb668d94b6732be9a", "is_reserved": 0, "lon": -77.01949183333333, "is_disabled": 0, "fusion_lon": 0.0, "rental_uris": {"android": "https://dc.lft.to/lastmile_qr_scan", "ios": "https://dc.lft.to/lastmile_qr_scan"}}, {"type": "electric_scooter", "name": "e779e05cfb772ae023dce66704c618ea", "lat": 38.9077385, "fusion_lat": 0.0, "bike_id": "e779e05cfb772ae023dce66704c618ea", "is_reserved": 0, "lon": -77.07166733333334, "is_disabled": 0, "fusion_lon": 0.0, "rental_uris": {"android": "https://dc.lft.to/lastmile_qr_scan", "ios": "https://dc.lft.to/lastmile_qr_scan"}}, {"type": "electric_scooter", "name": "728b81e08da0b96297a268aabed19474", "lat": 38.9159155, "fusion_lat": 0.0, "bike_id": "728b81e08da0b96297a268aabed19474", "is_reserved": 0, "lon": -76.98376016666667, "is_disabled": 0, "fusion_lon": 0.0, "rental_uris": {"android": "https://dc.lft.to/lastmile_qr_scan", "ios": "https://dc.lft.to/lastmile_qr_scan"}}, {"type": "electric_scooter", "name": "cf6b8336b4ab139136cfc0ab9ad4f61e", "lat": 38.906355, "fusion_lat": 0.0, "bike_id": "cf6b8336b4ab139136cfc0ab9ad4f61e", "is_reserved": 0, "lon": -77.0427005, "is_disabled": 0, "fusion_lon": 0.0, "rental_uris": {"android": "https://dc.lft.to/lastmile_qr_scan", "ios": "https://dc.lft.to/lastmile_qr_scan"}}, {"type": "electric_scooter", "name": "8036f16591f0f9ebcbb3786434308ad5", "lat": 38.908502, "fusion_lat": 0.0, "bike_id": "8036f16591f0f9ebcbb3786434308ad5", "is_reserved": 0, "lon": -77.0298775, "is_disabled": 0, "fusion_lon": 0.0, "rental_uris": {"android": "https://dc.lft.to/lastmile_qr_scan", "ios": "https://dc.lft.to/lastmile_qr_scan"}}, {"type": "electric_scooter", "name": "1f7425fddc2b644bb4a63120cc8df545", "lat": 38.90019916666667, "fusion_lat": 0.0, "bike_id": "1f7425fddc2b644bb4a63120cc8df545", "is_reserved": 0, "lon": -76.99559733333334, "is_disabled": 0, "fusion_lon": 0.0, "rental_uris": {"android": "https://dc.lft.to/lastmile_qr_scan", "ios": "https://dc.lft.to/lastmile_qr_scan"}}, {"type": "electric_scooter", "name": "570184d8b1e179010f8ce8546ba49a92", "lat": 38.89742, "fusion_lat": 0.0, "bike_id": "570184d8b1e179010f8ce8546ba49a92", "is_reserved": 0, "lon": -77.04739883333333, "is_disabled": 0, "fusion_lon": 0.0, "rental_uris": {"android": "https://dc.lft.to/lastmile_qr_scan", "ios": "https://dc.lft.to/lastmile_qr_scan"}}, {"type": "electric_scooter", "name": "0d761a6b6a41e7e9737b3493bf356774", "lat": 38.894337666666665, "fusion_lat": 0.0, "bike_id": "0d761a6b6a41e7e9737b3493bf356774", "is_reserved": 0, "lon": -76.98356666666666, "is_disabled": 0, "fusion_lon": 0.0, "rental_uris": {"android": "https://dc.lft.to/lastmile_qr_scan", "ios": "https://dc.lft.to/lastmile_qr_scan"}}, {"type": "electric_bike", "name": "d66ccda256d3aedd121eb6d446729e29", "lat": 38.855146166666664, "fusion_lat": 0.0, "bike_id": "d66ccda256d3aedd121eb6d446729e29", "is_reserved": 0, "lon": -76.98424816666666, "is_disabled": 0, "fusion_lon": 0.0, "rental_uris": {"android": "https://dc.lft.to/lastmile_qr_scan", "ios": "https://dc.lft.to/lastmile_qr_scan"}}, {"type": "electric_scooter", "name": "7f0d52ff2df47e5cdad81c1d42dbe395", "lat": 38.892494666666664, "fusion_lat": 0.0, "bike_id": "7f0d52ff2df47e5cdad81c1d42dbe395", "is_reserved": 0, "lon": -77.01961266666666, "is_disabled": 0, "fusion_lon": 0.0, "rental_uris": {"android": "https://dc.lft.to/lastmile_qr_scan", "ios": "https://dc.lft.to/lastmile_qr_scan"}}, {"type": "electric_scooter", "name": "7409935a0ab6590791ab4c0b699f944b", "lat": 38.923451166666666, "fusion_lat": 0.0, "bike_id": "7409935a0ab6590791ab4c0b699f944b", "is_reserved": 0, "lon": -77.03522333333333, "is_disabled": 0, "fusion_lon": 0.0, "rental_uris": {"android": "https://dc.lft.to/lastmile_qr_scan", "ios": "https://dc.lft.to/lastmile_qr_scan"}}, {"type": "electric_scooter", "name": "a37aed8cb282f1ca3de5b6fed04ba9fb", "lat": 38.90113866666667, "fusion_lat": 0.0, "bike_id": "a37aed8cb282f1ca3de5b6fed04ba9fb", "is_reserved": 0, "lon": -77.04991666666666, "is_disabled": 0, "fusion_lon": 0.0, "rental_uris": {"android": "https://dc.lft.to/lastmile_qr_scan", "ios": "https://dc.lft.to/lastmile_qr_scan"}}, {"type": "electric_scooter", "name": "d4cc105a5b8b2da0f8eda6530365f101", "lat": 38.88522316666667, "fusion_lat": 0.0, "bike_id": "d4cc105a5b8b2da0f8eda6530365f101", "is_reserved": 0, "lon": -76.97709916666666, "is_disabled": 0, "fusion_lon": 0.0, "rental_uris": {"android": "https://dc.lft.to/lastmile_qr_scan", "ios": "https://dc.lft.to/lastmile_qr_scan"}}, {"type": "electric_scooter", "name": "d4d47b43c9c0346484a89d70def1e6ba", "lat": 38.92655633333333, "fusion_lat": 0.0, "bike_id": "d4d47b43c9c0346484a89d70def1e6ba", "is_reserved": 0, "lon": -77.02426333333334, "is_disabled": 0, "fusion_lon": 0.0, "rental_uris": {"android": "https://dc.lft.to/lastmile_qr_scan", "ios": "https://dc.lft.to/lastmile_qr_scan"}}, {"type": "electric_scooter", "name": "5769541f6b5a70f6757477fcd4e6d1e6", "lat": 38.90859483333333, "fusion_lat": 0.0, "bike_id": "5769541f6b5a70f6757477fcd4e6d1e6", "is_reserved": 0, "lon": -77.02247066666666, "is_disabled": 0, "fusion_lon": 0.0, "rental_uris": {"android": "https://dc.lft.to/lastmile_qr_scan", "ios": "https://dc.lft.to/lastmile_qr_scan"}}, {"type": "electric_scooter", "name": "80804a31e6b64f33b51992b46acb4457", "lat": 38.90727316666667, "fusion_lat": 0.0, "bike_id": "80804a31e6b64f33b51992b46acb4457", "is_reserved": 0, "lon": -77.02378266666666, "is_disabled": 0, "fusion_lon": 0.0, "rental_uris": {"android": "https://dc.lft.to/lastmile_qr_scan", "ios": "https://dc.lft.to/lastmile_qr_scan"}}, {"type": "electric_scooter", "name": "56a15e2853b98deadecffae9976557be", "lat": 38.8946575, "fusion_lat": 0.0, "bike_id": "56a15e2853b98deadecffae9976557be", "is_reserved": 0, "lon": -77.02680866666667, "is_disabled": 0, "fusion_lon": 0.0, "rental_uris": {"android": "https://dc.lft.to/lastmile_qr_scan", "ios": "https://dc.lft.to/lastmile_qr_scan"}}, {"type": "electric_scooter", "name": "39a8f7f6f07c3ecfd4772a7821638d86", "lat": 38.9110715, "fusion_lat": 0.0, "bike_id": "39a8f7f6f07c3ecfd4772a7821638d86", "is_reserved": 0, "lon": -77.03832866666667, "is_disabled": 0, "fusion_lon": 0.0, "rental_uris": {"android": "https://dc.lft.to/lastmile_qr_scan", "ios": "https://dc.lft.to/lastmile_qr_scan"}}, {"type": "electric_bike", "name": "278239217707b29274db77ceeeb433ec", "lat": 38.9533155, "fusion_lat": 0.0, "bike_id": "278239217707b29274db77ceeeb433ec", "is_reserved": 0, "lon": -76.98246733333333, "is_disabled": 0, "fusion_lon": 0.0, "rental_uris": {"android": "https://dc.lft.to/lastmile_qr_scan", "ios": "https://dc.lft.to/lastmile_qr_scan"}}, {"type": "electric_scooter", "name": "df2d0a674f2a68de7dbd566f5e8f4a26", "lat": 38.91135083333333, "fusion_lat": 0.0, "bike_id": "df2d0a674f2a68de7dbd566f5e8f4a26", "is_reserved": 0, "lon": -77.02190516666667, "is_disabled": 0, "fusion_lon": 0.0, "rental_uris": {"android": "https://dc.lft.to/lastmile_qr_scan", "ios": "https://dc.lft.to/lastmile_qr_scan"}}, {"type": "electric_scooter", "name": "107b06f1386d94030c43f7d5af7dd275", "lat": 38.893269833333335, "fusion_lat": 0.0, "bike_id": "107b06f1386d94030c43f7d5af7dd275", "is_reserved": 0, "lon": -76.93929366666667, "is_disabled": 0, "fusion_lon": 0.0, "rental_uris": {"android": "https://dc.lft.to/lastmile_qr_scan", "ios": "https://dc.lft.to/lastmile_qr_scan"}}, {"type": "electric_scooter", "name": "5c5c8d9d986fe394a1d3b7cfdd8bae32", "lat": 38.903592, "fusion_lat": 0.0, "bike_id": "5c5c8d9d986fe394a1d3b7cfdd8bae32", "is_reserved": 0, "lon": -77.02560333333334, "is_disabled": 0, "fusion_lon": 0.0, "rental_uris": {"android": "https://dc.lft.to/lastmile_qr_scan", "ios": "https://dc.lft.to/lastmile_qr_scan"}}, {"type": "electric_scooter", "name": "704b400e94e894491cafc153824c26cd", "lat": 38.90289716666667, "fusion_lat": 0.0, "bike_id": "704b400e94e894491cafc153824c26cd", "is_reserved": 0, "lon": -77.0466805, "is_disabled": 0, "fusion_lon": 0.0, "rental_uris": {"android": "https://dc.lft.to/lastmile_qr_scan", "ios": "https://dc.lft.to/lastmile_qr_scan"}}, {"type": "electric_scooter", "name": "55036e99ffd1738bb0c96668028b475f", "lat": 38.902256333333334, "fusion_lat": 0.0, "bike_id": "55036e99ffd1738bb0c96668028b475f", "is_reserved": 0, "lon": -77.017423, "is_disabled": 0, "fusion_lon": 0.0, "rental_uris": {"android": "https://dc.lft.to/lastmile_qr_scan", "ios": "https://dc.lft.to/lastmile_qr_scan"}}, {"type": "electric_scooter", "name": "f7c09c7954582aa3d4e1068f09da9545", "lat": 38.9141695, "fusion_lat": 0.0, "bike_id": "f7c09c7954582aa3d4e1068f09da9545", "is_reserved": 0, "lon": -77.031753, "is_disabled": 0, "fusion_lon": 0.0, "rental_uris": {"android": "https://dc.lft.to/lastmile_qr_scan", "ios": "https://dc.lft.to/lastmile_qr_scan"}}, {"type": "electric_scooter", "name": "cb6d93e9ed76c0a0bef1b241005c2564", "lat": 38.8747505, "fusion_lat": 0.0, "bike_id": "cb6d93e9ed76c0a0bef1b241005c2564", "is_reserved": 0, "lon": -77.0083785, "is_disabled": 0, "fusion_lon": 0.0, "rental_uris": {"android": "https://dc.lft.to/lastmile_qr_scan", "ios": "https://dc.lft.to/lastmile_qr_scan"}}, {"type": "electric_scooter", "name": "d6c73728684c426ca0113e9ce566fc3a", "lat": 38.901226333333334, "fusion_lat": 0.0, "bike_id": "d6c73728684c426ca0113e9ce566fc3a", "is_reserved": 0, "lon": -77.03880316666667, "is_disabled": 0, "fusion_lon": 0.0, "rental_uris": {"android": "https://dc.lft.to/lastmile_qr_scan", "ios": "https://dc.lft.to/lastmile_qr_scan"}}, {"type": "electric_scooter", "name": "ceb717c2a848cd38a64031fbd2423870", "lat": 38.901300166666665, "fusion_lat": 0.0, "bike_id": "ceb717c2a848cd38a64031fbd2423870", "is_reserved": 0, "lon": -77.03825233333333, "is_disabled": 0, "fusion_lon": 0.0, "rental_uris": {"android": "https://dc.lft.to/lastmile_qr_scan", "ios": "https://dc.lft.to/lastmile_qr_scan"}}, {"type": "electric_scooter", "name": "dfd3bd4bce96523f9d03a00694494d88", "lat": 38.896983666666664, "fusion_lat": 0.0, "bike_id": "dfd3bd4bce96523f9d03a00694494d88", "is_reserved": 0, "lon": -77.01612983333334, "is_disabled": 0, "fusion_lon": 0.0, "rental_uris": {"android": "https://dc.lft.to/lastmile_qr_scan", "ios": "https://dc.lft.to/lastmile_qr_scan"}}, {"type": "electric_scooter", "name": "368be1e9c9542b464537b08023433bf7", "lat": 38.89984916666667, "fusion_lat": 0.0, "bike_id": "368be1e9c9542b464537b08023433bf7", "is_reserved": 0, "lon": -76.98239516666666, "is_disabled": 0, "fusion_lon": 0.0, "rental_uris": {"android": "https://dc.lft.to/lastmile_qr_scan", "ios": "https://dc.lft.to/lastmile_qr_scan"}}, {"type": "electric_scooter", "name": "0c8f0034d5e16c2cf913b2cbbff77476", "lat": 38.91593133333333, "fusion_lat": 0.0, "bike_id": "0c8f0034d5e16c2cf913b2cbbff77476", "is_reserved": 0, "lon": -76.98370233333333, "is_disabled": 0, "fusion_lon": 0.0, "rental_uris": {"android": "https://dc.lft.to/lastmile_qr_scan", "ios": "https://dc.lft.to/lastmile_qr_scan"}}, {"type": "electric_scooter", "name": "10f6e366a3894d75dd4ef7756993598f", "lat": 38.927639166666665, "fusion_lat": 0.0, "bike_id": "10f6e366a3894d75dd4ef7756993598f", "is_reserved": 0, "lon": -77.027378, "is_disabled": 0, "fusion_lon": 0.0, "rental_uris": {"android": "https://dc.lft.to/lastmile_qr_scan", "ios": "https://dc.lft.to/lastmile_qr_scan"}}, {"type": "electric_scooter", "name": "2183ad2a98d293c8d0e6b6a2505b36fd", "lat": 38.92294166666667, "fusion_lat": 0.0, "bike_id": "2183ad2a98d293c8d0e6b6a2505b36fd", "is_reserved": 0, "lon": -77.0270495, "is_disabled": 0, "fusion_lon": 0.0, "rental_uris": {"android": "https://dc.lft.to/lastmile_qr_scan", "ios": "https://dc.lft.to/lastmile_qr_scan"}}, {"type": "electric_scooter", "name": "7922eec20148cd6e49ebe23df29889b5", "lat": 38.8925725, "fusion_lat": 0.0, "bike_id": "7922eec20148cd6e49ebe23df29889b5", "is_reserved": 0, "lon": -77.00355566666667, "is_disabled": 0, "fusion_lon": 0.0, "rental_uris": {"android": "https://dc.lft.to/lastmile_qr_scan", "ios": "https://dc.lft.to/lastmile_qr_scan"}}, {"type": "electric_bike", "name": "7c7f8760451e7f897f9fc54b757c7b76", "lat": 38.84333983333333, "fusion_lat": 0.0, "bike_id": "7c7f8760451e7f897f9fc54b757c7b76", "is_reserved": 0, "lon": -77.063982, "is_disabled": 0, "fusion_lon": 0.0, "rental_uris": {"android": "https://dc.lft.to/lastmile_qr_scan", "ios": "https://dc.lft.to/lastmile_qr_scan"}}, {"type": "electric_bike", "name": "4772bb31e0dffd42d9d1114961c2d1a5", "lat": 38.88713216666667, "fusion_lat": 0.0, "bike_id": "4772bb31e0dffd42d9d1114961c2d1a5", "is_reserved": 0, "lon": -77.13306133333333, "is_disabled": 0, "fusion_lon": 0.0, "rental_uris": {"android": "https://dc.lft.to/lastmile_qr_scan", "ios": "https://dc.lft.to/lastmile_qr_scan"}}, {"type": "electric_scooter", "name": "acf6c707f3f994df7a436b9b78fd1dea", "lat": 38.92157133333333, "fusion_lat": 0.0, "bike_id": "acf6c707f3f994df7a436b9b78fd1dea", "is_reserved": 0, "lon": -77.0209185, "is_disabled": 0, "fusion_lon": 0.0, "rental_uris": {"android": "https://dc.lft.to/lastmile_qr_scan", "ios": "https://dc.lft.to/lastmile_qr_scan"}}, {"type": "electric_scooter", "name": "2cc2a7b3a46b5accf999fb2164c56b1f", "lat": 38.93567316666667, "fusion_lat": 0.0, "bike_id": "2cc2a7b3a46b5accf999fb2164c56b1f", "is_reserved": 0, "lon": -77.0325995, "is_disabled": 0, "fusion_lon": 0.0, "rental_uris": {"android": "https://dc.lft.to/lastmile_qr_scan", "ios": "https://dc.lft.to/lastmile_qr_scan"}}, {"type": "electric_bike", "name": "6c1b195e95ba8972cf28421f46d7cbf4", "lat": 38.9387945, "fusion_lat": 0.0, "bike_id": "6c1b195e95ba8972cf28421f46d7cbf4", "is_reserved": 0, "lon": -76.99028983333334, "is_disabled": 0, "fusion_lon": 0.0, "rental_uris": {"android": "https://dc.lft.to/lastmile_qr_scan", "ios": "https://dc.lft.to/lastmile_qr_scan"}}, {"type": "electric_scooter", "name": "a9b189fcda420b6b4d343bdb0434b013", "lat": 38.872954666666665, "fusion_lat": 0.0, "bike_id": "a9b189fcda420b6b4d343bdb0434b013", "is_reserved": 0, "lon": -77.009811, "is_disabled": 0, "fusion_lon": 0.0, "rental_uris": {"android": "https://dc.lft.to/lastmile_qr_scan", "ios": "https://dc.lft.to/lastmile_qr_scan"}}, {"type": "electric_scooter", "name": "d1503ec3b590ad57f7a40232dcb8bb46", "lat": 38.8983815, "fusion_lat": 0.0, "bike_id": "d1503ec3b590ad57f7a40232dcb8bb46", "is_reserved": 0, "lon": -77.03179833333333, "is_disabled": 0, "fusion_lon": 0.0, "rental_uris": {"android": "https://dc.lft.to/lastmile_qr_scan", "ios": "https://dc.lft.to/lastmile_qr_scan"}}, {"type": "electric_scooter", "name": "ba4c13514dbd54788e80e2ea0e49b53a", "lat": 38.931252, "fusion_lat": 0.0, "bike_id": "ba4c13514dbd54788e80e2ea0e49b53a", "is_reserved": 0, "lon": -77.043492, "is_disabled": 0, "fusion_lon": 0.0, "rental_uris": {"android": "https://dc.lft.to/lastmile_qr_scan", "ios": "https://dc.lft.to/lastmile_qr_scan"}}, {"type": "electric_scooter", "name": "edf4e3a7f542a5abe11195733db2f442", "lat": 38.883670333333335, "fusion_lat": 0.0, "bike_id": "edf4e3a7f542a5abe11195733db2f442", "is_reserved": 0, "lon": -76.92890566666667, "is_disabled": 0, "fusion_lon": 0.0, "rental_uris": {"android": "https://dc.lft.to/lastmile_qr_scan", "ios": "https://dc.lft.to/lastmile_qr_scan"}}, {"type": "electric_scooter", "name": "df733a74b00cd3cf6ccc6b3a93a3998b", "lat": 38.95778466666667, "fusion_lat": 0.0, "bike_id": "df733a74b00cd3cf6ccc6b3a93a3998b", "is_reserved": 0, "lon": -77.027519, "is_disabled": 0, "fusion_lon": 0.0, "rental_uris": {"android": "https://dc.lft.to/lastmile_qr_scan", "ios": "https://dc.lft.to/lastmile_qr_scan"}}, {"type": "electric_scooter", "name": "0f98962b009e03ab3b1e503801f81404", "lat": 38.8922205, "fusion_lat": 0.0, "bike_id": "0f98962b009e03ab3b1e503801f81404", "is_reserved": 0, "lon": -77.043782, "is_disabled": 0, "fusion_lon": 0.0, "rental_uris": {"android": "https://dc.lft.to/lastmile_qr_scan", "ios": "https://dc.lft.to/lastmile_qr_scan"}}, {"type": "electric_scooter", "name": "c69e56f05077d5a1fda9fa07f3b450d1", "lat": 38.91117283333333, "fusion_lat": 0.0, "bike_id": "c69e56f05077d5a1fda9fa07f3b450d1", "is_reserved": 0, "lon": -77.03830633333334, "is_disabled": 0, "fusion_lon": 0.0, "rental_uris": {"android": "https://dc.lft.to/lastmile_qr_scan", "ios": "https://dc.lft.to/lastmile_qr_scan"}}, {"type": "electric_scooter", "name": "0f60a46a41212c44e5c9b1427d074841", "lat": 38.925137166666666, "fusion_lat": 0.0, "bike_id": "0f60a46a41212c44e5c9b1427d074841", "is_reserved": 0, "lon": -77.05116316666667, "is_disabled": 0, "fusion_lon": 0.0, "rental_uris": {"android": "https://dc.lft.to/lastmile_qr_scan", "ios": "https://dc.lft.to/lastmile_qr_scan"}}, {"type": "electric_scooter", "name": "f697e5b281aa4aab78cfc63f6885a5c5", "lat": 38.9231055, "fusion_lat": 0.0, "bike_id": "f697e5b281aa4aab78cfc63f6885a5c5", "is_reserved": 0, "lon": -77.02128516666667, "is_disabled": 0, "fusion_lon": 0.0, "rental_uris": {"android": "https://dc.lft.to/lastmile_qr_scan", "ios": "https://dc.lft.to/lastmile_qr_scan"}}, {"type": "electric_scooter", "name": "f55edb2a0a53b5a4c2c72f0d515f900e", "lat": 38.8986755, "fusion_lat": 0.0, "bike_id": "f55edb2a0a53b5a4c2c72f0d515f900e", "is_reserved": 0, "lon": -76.94634416666666, "is_disabled": 0, "fusion_lon": 0.0, "rental_uris": {"android": "https://dc.lft.to/lastmile_qr_scan", "ios": "https://dc.lft.to/lastmile_qr_scan"}}, {"type": "electric_scooter", "name": "fcd0778a951d930dc89097361053a231", "lat": 38.89606533333333, "fusion_lat": 0.0, "bike_id": "fcd0778a951d930dc89097361053a231", "is_reserved": 0, "lon": -77.02685083333333, "is_disabled": 0, "fusion_lon": 0.0, "rental_uris": {"android": "https://dc.lft.to/lastmile_qr_scan", "ios": "https://dc.lft.to/lastmile_qr_scan"}}, {"type": "electric_scooter", "name": "f33b7ee9aec0a73dd444a71f299a50a9", "lat": 38.8983115, "fusion_lat": 0.0, "bike_id": "f33b7ee9aec0a73dd444a71f299a50a9", "is_reserved": 0, "lon": -77.04697266666666, "is_disabled": 0, "fusion_lon": 0.0, "rental_uris": {"android": "https://dc.lft.to/lastmile_qr_scan", "ios": "https://dc.lft.to/lastmile_qr_scan"}}, {"type": "electric_scooter", "name": "942a8cd1b5bbd978853e246208a01edd", "lat": 38.92959183333333, "fusion_lat": 0.0, "bike_id": "942a8cd1b5bbd978853e246208a01edd", "is_reserved": 0, "lon": -77.011458, "is_disabled": 0, "fusion_lon": 0.0, "rental_uris": {"android": "https://dc.lft.to/lastmile_qr_scan", "ios": "https://dc.lft.to/lastmile_qr_scan"}}, {"type": "electric_scooter", "name": "4957e52a977b18a7bd487ff1ac2e048a", "lat": 38.909134, "fusion_lat": 0.0, "bike_id": "4957e52a977b18a7bd487ff1ac2e048a", "is_reserved": 0, "lon": -77.04168733333333, "is_disabled": 0, "fusion_lon": 0.0, "rental_uris": {"android": "https://dc.lft.to/lastmile_qr_scan", "ios": "https://dc.lft.to/lastmile_qr_scan"}}, {"type": "electric_scooter", "name": "6ce550f56d37f082f7186fdf3d0cd82b", "lat": 38.878877333333335, "fusion_lat": 0.0, "bike_id": "6ce550f56d37f082f7186fdf3d0cd82b", "is_reserved": 0, "lon": -77.02181816666666, "is_disabled": 0, "fusion_lon": 0.0, "rental_uris": {"android": "https://dc.lft.to/lastmile_qr_scan", "ios": "https://dc.lft.to/lastmile_qr_scan"}}, {"type": "electric_scooter", "name": "e934312562206d46730f3f6d8b83a269", "lat": 38.90759116666667, "fusion_lat": 0.0, "bike_id": "e934312562206d46730f3f6d8b83a269", "is_reserved": 0, "lon": -77.0321765, "is_disabled": 0, "fusion_lon": 0.0, "rental_uris": {"android": "https://dc.lft.to/lastmile_qr_scan", "ios": "https://dc.lft.to/lastmile_qr_scan"}}, {"type": "electric_scooter", "name": "6749978db98b3f6e96431417f21fc113", "lat": 38.844884666666665, "fusion_lat": 0.0, "bike_id": "6749978db98b3f6e96431417f21fc113", "is_reserved": 0, "lon": -76.987907, "is_disabled": 0, "fusion_lon": 0.0, "rental_uris": {"android": "https://dc.lft.to/lastmile_qr_scan", "ios": "https://dc.lft.to/lastmile_qr_scan"}}, {"type": "electric_bike", "name": "7072f37fdd516a8c55338e79b9213479", "lat": 38.9905105, "fusion_lat": 0.0, "bike_id": "7072f37fdd516a8c55338e79b9213479", "is_reserved": 0, "lon": -77.0386895, "is_disabled": 0, "fusion_lon": 0.0, "rental_uris": {"android": "https://dc.lft.to/lastmile_qr_scan", "ios": "https://dc.lft.to/lastmile_qr_scan"}}, {"type": "electric_scooter", "name": "8b0776f8b1c0519e3252989a71442458", "lat": 38.90257883333334, "fusion_lat": 0.0, "bike_id": "8b0776f8b1c0519e3252989a71442458", "is_reserved": 0, "lon": -77.04230383333334, "is_disabled": 0, "fusion_lon": 0.0, "rental_uris": {"android": "https://dc.lft.to/lastmile_qr_scan", "ios": "https://dc.lft.to/lastmile_qr_scan"}}, {"type": "electric_scooter", "name": "bcd9c95122e8079797336a5a3744db6e", "lat": 38.923202833333335, "fusion_lat": 0.0, "bike_id": "bcd9c95122e8079797336a5a3744db6e", "is_reserved": 0, "lon": -77.0195765, "is_disabled": 0, "fusion_lon": 0.0, "rental_uris": {"android": "https://dc.lft.to/lastmile_qr_scan", "ios": "https://dc.lft.to/lastmile_qr_scan"}}, {"type": "electric_scooter", "name": "7d1372f14d84fc831bf07c5269404746", "lat": 38.89224866666667, "fusion_lat": 0.0, "bike_id": "7d1372f14d84fc831bf07c5269404746", "is_reserved": 0, "lon": -77.04774516666667, "is_disabled": 0, "fusion_lon": 0.0, "rental_uris": {"android": "https://dc.lft.to/lastmile_qr_scan", "ios": "https://dc.lft.to/lastmile_qr_scan"}}, {"type": "electric_scooter", "name": "595f21a119a460e744924b56f1b838ee", "lat": 38.90767983333333, "fusion_lat": 0.0, "bike_id": "595f21a119a460e744924b56f1b838ee", "is_reserved": 0, "lon": -77.04268783333333, "is_disabled": 0, "fusion_lon": 0.0, "rental_uris": {"android": "https://dc.lft.to/lastmile_qr_scan", "ios": "https://dc.lft.to/lastmile_qr_scan"}}, {"type": "electric_scooter", "name": "354a5c1dc68c18044db8ef4b90f6d344", "lat": 38.91731716666666, "fusion_lat": 0.0, "bike_id": "354a5c1dc68c18044db8ef4b90f6d344", "is_reserved": 0, "lon": -77.03446416666667, "is_disabled": 0, "fusion_lon": 0.0, "rental_uris": {"android": "https://dc.lft.to/lastmile_qr_scan", "ios": "https://dc.lft.to/lastmile_qr_scan"}}, {"type": "electric_scooter", "name": "09ba06a6b06d4d6c9aa1a2e9d971ca38", "lat": 38.88631, "fusion_lat": 0.0, "bike_id": "09ba06a6b06d4d6c9aa1a2e9d971ca38", "is_reserved": 0, "lon": -77.015404, "is_disabled": 0, "fusion_lon": 0.0, "rental_uris": {"android": "https://dc.lft.to/lastmile_qr_scan", "ios": "https://dc.lft.to/lastmile_qr_scan"}}, {"type": "electric_bike", "name": "e2a84024a8a75f9c71f81e94a8fca661", "lat": 38.83544466666667, "fusion_lat": 0.0, "bike_id": "e2a84024a8a75f9c71f81e94a8fca661", "is_reserved": 0, "lon": -76.987316, "is_disabled": 0, "fusion_lon": 0.0, "rental_uris": {"android": "https://dc.lft.to/lastmile_qr_scan", "ios": "https://dc.lft.to/lastmile_qr_scan"}}, {"type": "electric_scooter", "name": "83f8709c688039443a79e8ca238d5a82", "lat": 38.89353, "fusion_lat": 0.0, "bike_id": "83f8709c688039443a79e8ca238d5a82", "is_reserved": 0, "lon": -77.00337466666667, "is_disabled": 0, "fusion_lon": 0.0, "rental_uris": {"android": "https://dc.lft.to/lastmile_qr_scan", "ios": "https://dc.lft.to/lastmile_qr_scan"}}, {"type": "electric_scooter", "name": "fe6bf9076bb1615227da07a1765b5795", "lat": 38.895313, "fusion_lat": 0.0, "bike_id": "fe6bf9076bb1615227da07a1765b5795", "is_reserved": 0, "lon": -77.03165866666667, "is_disabled": 0, "fusion_lon": 0.0, "rental_uris": {"android": "https://dc.lft.to/lastmile_qr_scan", "ios": "https://dc.lft.to/lastmile_qr_scan"}}, {"type": "electric_scooter", "name": "7e487d0ab22390e6eb23242589aa45aa", "lat": 38.88704716666667, "fusion_lat": 0.0, "bike_id": "7e487d0ab22390e6eb23242589aa45aa", "is_reserved": 0, "lon": -77.00348966666667, "is_disabled": 0, "fusion_lon": 0.0, "rental_uris": {"android": "https://dc.lft.to/lastmile_qr_scan", "ios": "https://dc.lft.to/lastmile_qr_scan"}}, {"type": "electric_scooter", "name": "c791794e304e5e695a281c91d8a5740b", "lat": 38.920005, "fusion_lat": 0.0, "bike_id": "c791794e304e5e695a281c91d8a5740b", "is_reserved": 0, "lon": -77.024613, "is_disabled": 0, "fusion_lon": 0.0, "rental_uris": {"android": "https://dc.lft.to/lastmile_qr_scan", "ios": "https://dc.lft.to/lastmile_qr_scan"}}, {"type": "electric_scooter", "name": "7a77a2e656f15851bd3ecc95abb20c98", "lat": 38.908491, "fusion_lat": 0.0, "bike_id": "7a77a2e656f15851bd3ecc95abb20c98", "is_reserved": 0, "lon": -77.00214733333334, "is_disabled": 0, "fusion_lon": 0.0, "rental_uris": {"android": "https://dc.lft.to/lastmile_qr_scan", "ios": "https://dc.lft.to/lastmile_qr_scan"}}, {"type": "electric_scooter", "name": "22c792f80b51fac901223450f6123fc8", "lat": 38.92110066666667, "fusion_lat": 0.0, "bike_id": "22c792f80b51fac901223450f6123fc8", "is_reserved": 0, "lon": -77.00921633333333, "is_disabled": 0, "fusion_lon": 0.0, "rental_uris": {"android": "https://dc.lft.to/lastmile_qr_scan", "ios": "https://dc.lft.to/lastmile_qr_scan"}}, {"type": "electric_bike", "name": "4a64ed201f7a0d2870101ee4f6d55b1d", "lat": 38.909555, "fusion_lat": 0.0, "bike_id": "4a64ed201f7a0d2870101ee4f6d55b1d", "is_reserved": 0, "lon": -77.22883983333334, "is_disabled": 0, "fusion_lon": 0.0, "rental_uris": {"android": "https://dc.lft.to/lastmile_qr_scan", "ios": "https://dc.lft.to/lastmile_qr_scan"}}, {"type": "electric_scooter", "name": "47021b802b74730e2073d8feb54b1f7e", "lat": 38.924515666666665, "fusion_lat": 0.0, "bike_id": "47021b802b74730e2073d8feb54b1f7e", "is_reserved": 0, "lon": -77.02152783333334, "is_disabled": 0, "fusion_lon": 0.0, "rental_uris": {"android": "https://dc.lft.to/lastmile_qr_scan", "ios": "https://dc.lft.to/lastmile_qr_scan"}}, {"type": "electric_scooter", "name": "765ba09e24bc0ec42e67c41f8e7e21f1", "lat": 38.90541916666667, "fusion_lat": 0.0, "bike_id": "765ba09e24bc0ec42e67c41f8e7e21f1", "is_reserved": 0, "lon": -77.05133383333333, "is_disabled": 0, "fusion_lon": 0.0, "rental_uris": {"android": "https://dc.lft.to/lastmile_qr_scan", "ios": "https://dc.lft.to/lastmile_qr_scan"}}, {"type": "electric_scooter", "name": "d6589c23373150ef2e8678ec7ce180ed", "lat": 38.934189833333335, "fusion_lat": 0.0, "bike_id": "d6589c23373150ef2e8678ec7ce180ed", "is_reserved": 0, "lon": -77.044067, "is_disabled": 0, "fusion_lon": 0.0, "rental_uris": {"android": "https://dc.lft.to/lastmile_qr_scan", "ios": "https://dc.lft.to/lastmile_qr_scan"}}, {"type": "electric_scooter", "name": "1c60db81dac9f1a94ea7d9a1ce60974c", "lat": 38.87673183333333, "fusion_lat": 0.0, "bike_id": "1c60db81dac9f1a94ea7d9a1ce60974c", "is_reserved": 0, "lon": -77.01763383333333, "is_disabled": 0, "fusion_lon": 0.0, "rental_uris": {"android": "https://dc.lft.to/lastmile_qr_scan", "ios": "https://dc.lft.to/lastmile_qr_scan"}}, {"type": "electric_scooter", "name": "c741ec5ffc37cb0919dbeeadb4540c36", "lat": 38.89818116666667, "fusion_lat": 0.0, "bike_id": "c741ec5ffc37cb0919dbeeadb4540c36", "is_reserved": 0, "lon": -77.0332335, "is_disabled": 0, "fusion_lon": 0.0, "rental_uris": {"android": "https://dc.lft.to/lastmile_qr_scan", "ios": "https://dc.lft.to/lastmile_qr_scan"}}, {"type": "electric_scooter", "name": "03cb34a183bf43dbee5b3c1b8bbce461", "lat": 38.902282666666665, "fusion_lat": 0.0, "bike_id": "03cb34a183bf43dbee5b3c1b8bbce461", "is_reserved": 0, "lon": -77.05992816666667, "is_disabled": 0, "fusion_lon": 0.0, "rental_uris": {"android": "https://dc.lft.to/lastmile_qr_scan", "ios": "https://dc.lft.to/lastmile_qr_scan"}}, {"type": "electric_scooter", "name": "49f883be34450ce6a6c044d1fe579f85", "lat": 38.90151266666667, "fusion_lat": 0.0, "bike_id": "49f883be34450ce6a6c044d1fe579f85", "is_reserved": 0, "lon": -76.9902685, "is_disabled": 0, "fusion_lon": 0.0, "rental_uris": {"android": "https://dc.lft.to/lastmile_qr_scan", "ios": "https://dc.lft.to/lastmile_qr_scan"}}, {"type": "electric_scooter", "name": "fef094c36a329bd76954c738183b5f3d", "lat": 38.8665495, "fusion_lat": 0.0, "bike_id": "fef094c36a329bd76954c738183b5f3d", "is_reserved": 0, "lon": -76.98883916666666, "is_disabled": 0, "fusion_lon": 0.0, "rental_uris": {"android": "https://dc.lft.to/lastmile_qr_scan", "ios": "https://dc.lft.to/lastmile_qr_scan"}}, {"type": "electric_scooter", "name": "45e1109cd0a8ea01c958c505d8571e9d", "lat": 38.942963666666664, "fusion_lat": 0.0, "bike_id": "45e1109cd0a8ea01c958c505d8571e9d", "is_reserved": 0, "lon": -77.0295125, "is_disabled": 0, "fusion_lon": 0.0, "rental_uris": {"android": "https://dc.lft.to/lastmile_qr_scan", "ios": "https://dc.lft.to/lastmile_qr_scan"}}, {"type": "electric_scooter", "name": "b911c46fae64ff98e387c75fe998d439", "lat": 38.916159, "fusion_lat": 0.0, "bike_id": "b911c46fae64ff98e387c75fe998d439", "is_reserved": 0, "lon": -77.0415815, "is_disabled": 0, "fusion_lon": 0.0, "rental_uris": {"android": "https://dc.lft.to/lastmile_qr_scan", "ios": "https://dc.lft.to/lastmile_qr_scan"}}, {"type": "electric_scooter", "name": "46566c8feaaa63fab39fcbcbd7753dd7", "lat": 38.890771666666666, "fusion_lat": 0.0, "bike_id": "46566c8feaaa63fab39fcbcbd7753dd7", "is_reserved": 0, "lon": -76.98826533333333, "is_disabled": 0, "fusion_lon": 0.0, "rental_uris": {"android": "https://dc.lft.to/lastmile_qr_scan", "ios": "https://dc.lft.to/lastmile_qr_scan"}}, {"type": "electric_scooter", "name": "a613c329531bd8d3a535804d4ebfcff5", "lat": 38.884495, "fusion_lat": 0.0, "bike_id": "a613c329531bd8d3a535804d4ebfcff5", "is_reserved": 0, "lon": -76.95099883333333, "is_disabled": 0, "fusion_lon": 0.0, "rental_uris": {"android": "https://dc.lft.to/lastmile_qr_scan", "ios": "https://dc.lft.to/lastmile_qr_scan"}}, {"type": "electric_scooter", "name": "f4e33a72d898932df57420bb9a97e503", "lat": 38.909605, "fusion_lat": 0.0, "bike_id": "f4e33a72d898932df57420bb9a97e503", "is_reserved": 0, "lon": -77.0230355, "is_disabled": 0, "fusion_lon": 0.0, "rental_uris": {"android": "https://dc.lft.to/lastmile_qr_scan", "ios": "https://dc.lft.to/lastmile_qr_scan"}}, {"type": "electric_scooter", "name": "148f47a776a6a34af0ebb19cf41f6b94", "lat": 38.918035833333334, "fusion_lat": 0.0, "bike_id": "148f47a776a6a34af0ebb19cf41f6b94", "is_reserved": 0, "lon": -77.03439016666667, "is_disabled": 0, "fusion_lon": 0.0, "rental_uris": {"android": "https://dc.lft.to/lastmile_qr_scan", "ios": "https://dc.lft.to/lastmile_qr_scan"}}, {"type": "electric_scooter", "name": "3b9436ab142007cec60122d2396df689", "lat": 38.916993833333336, "fusion_lat": 0.0, "bike_id": "3b9436ab142007cec60122d2396df689", "is_reserved": 0, "lon": -77.04348616666667, "is_disabled": 0, "fusion_lon": 0.0, "rental_uris": {"android": "https://dc.lft.to/lastmile_qr_scan", "ios": "https://dc.lft.to/lastmile_qr_scan"}}, {"type": "electric_scooter", "name": "f1732c7963c434b308ecf541e35b3d3d", "lat": 38.8664735, "fusion_lat": 0.0, "bike_id": "f1732c7963c434b308ecf541e35b3d3d", "is_reserved": 0, "lon": -76.98504533333333, "is_disabled": 0, "fusion_lon": 0.0, "rental_uris": {"android": "https://dc.lft.to/lastmile_qr_scan", "ios": "https://dc.lft.to/lastmile_qr_scan"}}, {"type": "electric_scooter", "name": "656495ef1dc7c3944c8b7ef54190f6b5", "lat": 38.904623666666666, "fusion_lat": 0.0, "bike_id": "656495ef1dc7c3944c8b7ef54190f6b5", "is_reserved": 0, "lon": -77.01932666666667, "is_disabled": 0, "fusion_lon": 0.0, "rental_uris": {"android": "https://dc.lft.to/lastmile_qr_scan", "ios": "https://dc.lft.to/lastmile_qr_scan"}}, {"type": "electric_scooter", "name": "9c483642f567db2c3edadb1b28206d9b", "lat": 38.899029166666665, "fusion_lat": 0.0, "bike_id": "9c483642f567db2c3edadb1b28206d9b", "is_reserved": 0, "lon": -77.0327595, "is_disabled": 0, "fusion_lon": 0.0, "rental_uris": {"android": "https://dc.lft.to/lastmile_qr_scan", "ios": "https://dc.lft.to/lastmile_qr_scan"}}, {"type": "electric_scooter", "name": "6af541d76ced12c8906c011fbfadc4bd", "lat": 38.90195516666667, "fusion_lat": 0.0, "bike_id": "6af541d76ced12c8906c011fbfadc4bd", "is_reserved": 0, "lon": -76.98199783333334, "is_disabled": 0, "fusion_lon": 0.0, "rental_uris": {"android": "https://dc.lft.to/lastmile_qr_scan", "ios": "https://dc.lft.to/lastmile_qr_scan"}}, {"type": "electric_scooter", "name": "0916560fd3a703c20688df6a05cd9271", "lat": 38.9318245, "fusion_lat": 0.0, "bike_id": "0916560fd3a703c20688df6a05cd9271", "is_reserved": 0, "lon": -77.04305533333333, "is_disabled": 0, "fusion_lon": 0.0, "rental_uris": {"android": "https://dc.lft.to/lastmile_qr_scan", "ios": "https://dc.lft.to/lastmile_qr_scan"}}, {"type": "electric_scooter", "name": "f7ef4df60bee2b3f838e0c77ca5d799e", "lat": 38.94103283333333, "fusion_lat": 0.0, "bike_id": "f7ef4df60bee2b3f838e0c77ca5d799e", "is_reserved": 0, "lon": -77.075961, "is_disabled": 0, "fusion_lon": 0.0, "rental_uris": {"android": "https://dc.lft.to/lastmile_qr_scan", "ios": "https://dc.lft.to/lastmile_qr_scan"}}, {"type": "electric_scooter", "name": "8ebf097f2408a2619e1c3d62da547161", "lat": 38.94125116666667, "fusion_lat": 0.0, "bike_id": "8ebf097f2408a2619e1c3d62da547161", "is_reserved": 0, "lon": -77.01538716666667, "is_disabled": 0, "fusion_lon": 0.0, "rental_uris": {"android": "https://dc.lft.to/lastmile_qr_scan", "ios": "https://dc.lft.to/lastmile_qr_scan"}}, {"type": "electric_scooter", "name": "aee9df2624115df8c627d0151c98c298", "lat": 38.9140165, "fusion_lat": 0.0, "bike_id": "aee9df2624115df8c627d0151c98c298", "is_reserved": 0, "lon": -77.015553, "is_disabled": 0, "fusion_lon": 0.0, "rental_uris": {"android": "https://dc.lft.to/lastmile_qr_scan", "ios": "https://dc.lft.to/lastmile_qr_scan"}}, {"type": "electric_scooter", "name": "3e390adf13732daeaf4f4e56dadd3051", "lat": 38.91299683333333, "fusion_lat": 0.0, "bike_id": "3e390adf13732daeaf4f4e56dadd3051", "is_reserved": 0, "lon": -77.04867966666667, "is_disabled": 0, "fusion_lon": 0.0, "rental_uris": {"android": "https://dc.lft.to/lastmile_qr_scan", "ios": "https://dc.lft.to/lastmile_qr_scan"}}, {"type": "electric_scooter", "name": "fe4cde60c56aba166096a681b37e9f34", "lat": 38.89650116666667, "fusion_lat": 0.0, "bike_id": "fe4cde60c56aba166096a681b37e9f34", "is_reserved": 0, "lon": -77.01873583333334, "is_disabled": 0, "fusion_lon": 0.0, "rental_uris": {"android": "https://dc.lft.to/lastmile_qr_scan", "ios": "https://dc.lft.to/lastmile_qr_scan"}}, {"type": "electric_scooter", "name": "d73bac9f18c3347657d2b4cef9507e51", "lat": 38.90419983333334, "fusion_lat": 0.0, "bike_id": "d73bac9f18c3347657d2b4cef9507e51", "is_reserved": 0, "lon": -77.0059405, "is_disabled": 0, "fusion_lon": 0.0, "rental_uris": {"android": "https://dc.lft.to/lastmile_qr_scan", "ios": "https://dc.lft.to/lastmile_qr_scan"}}, {"type": "electric_scooter", "name": "b5949beb919df8d2264b5a639fedcdb1", "lat": 38.894905666666666, "fusion_lat": 0.0, "bike_id": "b5949beb919df8d2264b5a639fedcdb1", "is_reserved": 0, "lon": -77.01788483333333, "is_disabled": 0, "fusion_lon": 0.0, "rental_uris": {"android": "https://dc.lft.to/lastmile_qr_scan", "ios": "https://dc.lft.to/lastmile_qr_scan"}}, {"type": "electric_scooter", "name": "f82f78c13d2c55ea2659c0e18a6330c4", "lat": 38.91645333333334, "fusion_lat": 0.0, "bike_id": "f82f78c13d2c55ea2659c0e18a6330c4", "is_reserved": 0, "lon": -77.04169916666666, "is_disabled": 0, "fusion_lon": 0.0, "rental_uris": {"android": "https://dc.lft.to/lastmile_qr_scan", "ios": "https://dc.lft.to/lastmile_qr_scan"}}, {"type": "electric_scooter", "name": "dcf28d31fee79a760243821e862cc637", "lat": 38.90930483333333, "fusion_lat": 0.0, "bike_id": "dcf28d31fee79a760243821e862cc637", "is_reserved": 0, "lon": -77.02696316666666, "is_disabled": 0, "fusion_lon": 0.0, "rental_uris": {"android": "https://dc.lft.to/lastmile_qr_scan", "ios": "https://dc.lft.to/lastmile_qr_scan"}}, {"type": "electric_bike", "name": "c649a57164c1e1ac0a6c272c45afb3ed", "lat": 38.864473833333335, "fusion_lat": 0.0, "bike_id": "c649a57164c1e1ac0a6c272c45afb3ed", "is_reserved": 0, "lon": -77.10683366666666, "is_disabled": 0, "fusion_lon": 0.0, "rental_uris": {"android": "https://dc.lft.to/lastmile_qr_scan", "ios": "https://dc.lft.to/lastmile_qr_scan"}}, {"type": "electric_scooter", "name": "78664cd934b7be5c4b1956eee22ec7e0", "lat": 38.89525116666667, "fusion_lat": 0.0, "bike_id": "78664cd934b7be5c4b1956eee22ec7e0", "is_reserved": 0, "lon": -77.04850066666667, "is_disabled": 0, "fusion_lon": 0.0, "rental_uris": {"android": "https://dc.lft.to/lastmile_qr_scan", "ios": "https://dc.lft.to/lastmile_qr_scan"}}, {"type": "electric_scooter", "name": "f2127301d801d8614e0e3432379dc4b5", "lat": 38.90866116666667, "fusion_lat": 0.0, "bike_id": "f2127301d801d8614e0e3432379dc4b5", "is_reserved": 0, "lon": -77.07164466666667, "is_disabled": 0, "fusion_lon": 0.0, "rental_uris": {"android": "https://dc.lft.to/lastmile_qr_scan", "ios": "https://dc.lft.to/lastmile_qr_scan"}}, {"type": "electric_scooter", "name": "417a7a2d979e90c6bae91f422911571f", "lat": 38.93427333333333, "fusion_lat": 0.0, "bike_id": "417a7a2d979e90c6bae91f422911571f", "is_reserved": 0, "lon": -77.055845, "is_disabled": 0, "fusion_lon": 0.0, "rental_uris": {"android": "https://dc.lft.to/lastmile_qr_scan", "ios": "https://dc.lft.to/lastmile_qr_scan"}}, {"type": "electric_scooter", "name": "b31dae31639b604865493edf1c2f251f", "lat": 38.939272333333335, "fusion_lat": 0.0, "bike_id": "b31dae31639b604865493edf1c2f251f", "is_reserved": 0, "lon": -77.02792083333334, "is_disabled": 0, "fusion_lon": 0.0, "rental_uris": {"android": "https://dc.lft.to/lastmile_qr_scan", "ios": "https://dc.lft.to/lastmile_qr_scan"}}, {"type": "electric_scooter", "name": "4d052cb0ae3f777d4c50100ecc7b108c", "lat": 38.902732666666665, "fusion_lat": 0.0, "bike_id": "4d052cb0ae3f777d4c50100ecc7b108c", "is_reserved": 0, "lon": -77.02999516666667, "is_disabled": 0, "fusion_lon": 0.0, "rental_uris": {"android": "https://dc.lft.to/lastmile_qr_scan", "ios": "https://dc.lft.to/lastmile_qr_scan"}}, {"type": "electric_scooter", "name": "933dcae63fb6e8b5c78976d82d68ef99", "lat": 38.877044166666664, "fusion_lat": 0.0, "bike_id": "933dcae63fb6e8b5c78976d82d68ef99", "is_reserved": 0, "lon": -77.0043215, "is_disabled": 0, "fusion_lon": 0.0, "rental_uris": {"android": "https://dc.lft.to/lastmile_qr_scan", "ios": "https://dc.lft.to/lastmile_qr_scan"}}, {"type": "electric_scooter", "name": "d7d78672ef0086b32545b92f1634a24c", "lat": 38.8769615, "fusion_lat": 0.0, "bike_id": "d7d78672ef0086b32545b92f1634a24c", "is_reserved": 0, "lon": -77.00428433333333, "is_disabled": 0, "fusion_lon": 0.0, "rental_uris": {"android": "https://dc.lft.to/lastmile_qr_scan", "ios": "https://dc.lft.to/lastmile_qr_scan"}}, {"type": "electric_scooter", "name": "ef5e629e954e12d829b3ee022624f9f5", "lat": 38.887459, "fusion_lat": 0.0, "bike_id": "ef5e629e954e12d829b3ee022624f9f5", "is_reserved": 0, "lon": -77.02842383333333, "is_disabled": 0, "fusion_lon": 0.0, "rental_uris": {"android": "https://dc.lft.to/lastmile_qr_scan", "ios": "https://dc.lft.to/lastmile_qr_scan"}}, {"type": "electric_scooter", "name": "ab91de0150d36d5404005866a34f48ba", "lat": 38.904748166666664, "fusion_lat": 0.0, "bike_id": "ab91de0150d36d5404005866a34f48ba", "is_reserved": 0, "lon": -77.039337, "is_disabled": 0, "fusion_lon": 0.0, "rental_uris": {"android": "https://dc.lft.to/lastmile_qr_scan", "ios": "https://dc.lft.to/lastmile_qr_scan"}}, {"type": "electric_scooter", "name": "b519176611b934326f530c67b27495b7", "lat": 38.934729, "fusion_lat": 0.0, "bike_id": "b519176611b934326f530c67b27495b7", "is_reserved": 0, "lon": -77.0866395, "is_disabled": 0, "fusion_lon": 0.0, "rental_uris": {"android": "https://dc.lft.to/lastmile_qr_scan", "ios": "https://dc.lft.to/lastmile_qr_scan"}}, {"type": "electric_scooter", "name": "58b63f00ff040c613bc301d9b173e8ef", "lat": 38.9062565, "fusion_lat": 0.0, "bike_id": "58b63f00ff040c613bc301d9b173e8ef", "is_reserved": 0, "lon": -77.009975, "is_disabled": 0, "fusion_lon": 0.0, "rental_uris": {"android": "https://dc.lft.to/lastmile_qr_scan", "ios": "https://dc.lft.to/lastmile_qr_scan"}}, {"type": "electric_scooter", "name": "7feeaf57e34e503f0bf2fbba989b1eff", "lat": 38.884096166666666, "fusion_lat": 0.0, "bike_id": "7feeaf57e34e503f0bf2fbba989b1eff", "is_reserved": 0, "lon": -77.01519433333333, "is_disabled": 0, "fusion_lon": 0.0, "rental_uris": {"android": "https://dc.lft.to/lastmile_qr_scan", "ios": "https://dc.lft.to/lastmile_qr_scan"}}, {"type": "electric_scooter", "name": "82ec6c7eeb084aa06c8c30b2bf6c7691", "lat": 38.86683583333333, "fusion_lat": 0.0, "bike_id": "82ec6c7eeb084aa06c8c30b2bf6c7691", "is_reserved": 0, "lon": -76.985694, "is_disabled": 0, "fusion_lon": 0.0, "rental_uris": {"android": "https://dc.lft.to/lastmile_qr_scan", "ios": "https://dc.lft.to/lastmile_qr_scan"}}, {"type": "electric_bike", "name": "9891043f7f27cc9259a3d663ded4c30e", "lat": 38.90958583333333, "fusion_lat": 0.0, "bike_id": "9891043f7f27cc9259a3d663ded4c30e", "is_reserved": 0, "lon": -76.98439883333333, "is_disabled": 0, "fusion_lon": 0.0, "rental_uris": {"android": "https://dc.lft.to/lastmile_qr_scan", "ios": "https://dc.lft.to/lastmile_qr_scan"}}, {"type": "electric_scooter", "name": "ddbdd476a828722305cbd5cedd6b4da3", "lat": 38.902878, "fusion_lat": 0.0, "bike_id": "ddbdd476a828722305cbd5cedd6b4da3", "is_reserved": 0, "lon": -77.038629, "is_disabled": 0, "fusion_lon": 0.0, "rental_uris": {"android": "https://dc.lft.to/lastmile_qr_scan", "ios": "https://dc.lft.to/lastmile_qr_scan"}}, {"type": "electric_scooter", "name": "29d1e861ab30316b6f205d21261458b6", "lat": 38.902669, "fusion_lat": 0.0, "bike_id": "29d1e861ab30316b6f205d21261458b6", "is_reserved": 0, "lon": -77.003284, "is_disabled": 0, "fusion_lon": 0.0, "rental_uris": {"android": "https://dc.lft.to/lastmile_qr_scan", "ios": "https://dc.lft.to/lastmile_qr_scan"}}, {"type": "electric_scooter", "name": "b35c94a6d83f6759223345b9ed28131e", "lat": 38.89849316666667, "fusion_lat": 0.0, "bike_id": "b35c94a6d83f6759223345b9ed28131e", "is_reserved": 0, "lon": -77.03330433333333, "is_disabled": 0, "fusion_lon": 0.0, "rental_uris": {"android": "https://dc.lft.to/lastmile_qr_scan", "ios": "https://dc.lft.to/lastmile_qr_scan"}}, {"type": "electric_scooter", "name": "a593f2a9692af90f47e35e550428d225", "lat": 38.90151066666667, "fusion_lat": 0.0, "bike_id": "a593f2a9692af90f47e35e550428d225", "is_reserved": 0, "lon": -77.02301233333333, "is_disabled": 0, "fusion_lon": 0.0, "rental_uris": {"android": "https://dc.lft.to/lastmile_qr_scan", "ios": "https://dc.lft.to/lastmile_qr_scan"}}, {"type": "electric_scooter", "name": "4e2a3c750c42c99f3d6b8719e8cfebcb", "lat": 38.899373833333335, "fusion_lat": 0.0, "bike_id": "4e2a3c750c42c99f3d6b8719e8cfebcb", "is_reserved": 0, "lon": -77.0239575, "is_disabled": 0, "fusion_lon": 0.0, "rental_uris": {"android": "https://dc.lft.to/lastmile_qr_scan", "ios": "https://dc.lft.to/lastmile_qr_scan"}}, {"type": "electric_scooter", "name": "f3326d1b98731c3c4a2003e2413aa20a", "lat": 38.9060155, "fusion_lat": 0.0, "bike_id": "f3326d1b98731c3c4a2003e2413aa20a", "is_reserved": 0, "lon": -77.00170683333333, "is_disabled": 0, "fusion_lon": 0.0, "rental_uris": {"android": "https://dc.lft.to/lastmile_qr_scan", "ios": "https://dc.lft.to/lastmile_qr_scan"}}, {"type": "electric_scooter", "name": "6a0fac333fc36b5b974b1810b54476f3", "lat": 38.923897, "fusion_lat": 0.0, "bike_id": "6a0fac333fc36b5b974b1810b54476f3", "is_reserved": 0, "lon": -77.02967083333333, "is_disabled": 0, "fusion_lon": 0.0, "rental_uris": {"android": "https://dc.lft.to/lastmile_qr_scan", "ios": "https://dc.lft.to/lastmile_qr_scan"}}, {"type": "electric_scooter", "name": "8b12e1e0e5c614f69422b27ddd4180fa", "lat": 38.92726366666667, "fusion_lat": 0.0, "bike_id": "8b12e1e0e5c614f69422b27ddd4180fa", "is_reserved": 0, "lon": -77.03239283333333, "is_disabled": 0, "fusion_lon": 0.0, "rental_uris": {"android": "https://dc.lft.to/lastmile_qr_scan", "ios": "https://dc.lft.to/lastmile_qr_scan"}}, {"type": "electric_scooter", "name": "1b408d9e9553a77f7666732f424a53fc", "lat": 38.88748233333333, "fusion_lat": 0.0, "bike_id": "1b408d9e9553a77f7666732f424a53fc", "is_reserved": 0, "lon": -77.01730816666667, "is_disabled": 0, "fusion_lon": 0.0, "rental_uris": {"android": "https://dc.lft.to/lastmile_qr_scan", "ios": "https://dc.lft.to/lastmile_qr_scan"}}, {"type": "electric_scooter", "name": "3345a65d799592f9b2412fd2acd6ffd2", "lat": 38.85805783333333, "fusion_lat": 0.0, "bike_id": "3345a65d799592f9b2412fd2acd6ffd2", "is_reserved": 0, "lon": -76.98653633333333, "is_disabled": 0, "fusion_lon": 0.0, "rental_uris": {"android": "https://dc.lft.to/lastmile_qr_scan", "ios": "https://dc.lft.to/lastmile_qr_scan"}}, {"type": "electric_scooter", "name": "aa9c8d9d32cd2104f5a785373ee3a445", "lat": 38.911140333333336, "fusion_lat": 0.0, "bike_id": "aa9c8d9d32cd2104f5a785373ee3a445", "is_reserved": 0, "lon": -77.0445345, "is_disabled": 0, "fusion_lon": 0.0, "rental_uris": {"android": "https://dc.lft.to/lastmile_qr_scan", "ios": "https://dc.lft.to/lastmile_qr_scan"}}, {"type": "electric_bike", "name": "2a5a7f87ca3e7a6e777d4e83b2e5fda3", "lat": 38.865156999999996, "fusion_lat": 0.0, "bike_id": "2a5a7f87ca3e7a6e777d4e83b2e5fda3", "is_reserved": 0, "lon": -76.973305, "is_disabled": 0, "fusion_lon": 0.0, "rental_uris": {"android": "https://dc.lft.to/lastmile_qr_scan", "ios": "https://dc.lft.to/lastmile_qr_scan"}}, {"type": "electric_scooter", "name": "85244a5f90d7ae61b3888818dde860ef", "lat": 38.92112366666667, "fusion_lat": 0.0, "bike_id": "85244a5f90d7ae61b3888818dde860ef", "is_reserved": 0, "lon": -76.99716183333334, "is_disabled": 0, "fusion_lon": 0.0, "rental_uris": {"android": "https://dc.lft.to/lastmile_qr_scan", "ios": "https://dc.lft.to/lastmile_qr_scan"}}, {"type": "electric_scooter", "name": "0680383775802131e4ac8de05935796f", "lat": 38.90013316666667, "fusion_lat": 0.0, "bike_id": "0680383775802131e4ac8de05935796f", "is_reserved": 0, "lon": -77.00701, "is_disabled": 0, "fusion_lon": 0.0, "rental_uris": {"android": "https://dc.lft.to/lastmile_qr_scan", "ios": "https://dc.lft.to/lastmile_qr_scan"}}, {"type": "electric_scooter", "name": "9df46209758c08b1056ca8f234cb0898", "lat": 38.893981333333336, "fusion_lat": 0.0, "bike_id": "9df46209758c08b1056ca8f234cb0898", "is_reserved": 0, "lon": -77.02173416666666, "is_disabled": 0, "fusion_lon": 0.0, "rental_uris": {"android": "https://dc.lft.to/lastmile_qr_scan", "ios": "https://dc.lft.to/lastmile_qr_scan"}}, {"type": "electric_bike", "name": "03ece90ff27694182bbbe93971dac0e1", "lat": 38.827872166666666, "fusion_lat": 0.0, "bike_id": "03ece90ff27694182bbbe93971dac0e1", "is_reserved": 0, "lon": -77.12488833333333, "is_disabled": 0, "fusion_lon": 0.0, "rental_uris": {"android": "https://dc.lft.to/lastmile_qr_scan", "ios": "https://dc.lft.to/lastmile_qr_scan"}}, {"type": "electric_scooter", "name": "61905309e5bb7fafc7115d62ddc1f0c3", "lat": 38.866283333333335, "fusion_lat": 0.0, "bike_id": "61905309e5bb7fafc7115d62ddc1f0c3", "is_reserved": 0, "lon": -76.987151, "is_disabled": 0, "fusion_lon": 0.0, "rental_uris": {"android": "https://dc.lft.to/lastmile_qr_scan", "ios": "https://dc.lft.to/lastmile_qr_scan"}}, {"type": "electric_scooter", "name": "b74d5bae128edb94807a0bcbad1691aa", "lat": 38.901081833333336, "fusion_lat": 0.0, "bike_id": "b74d5bae128edb94807a0bcbad1691aa", "is_reserved": 0, "lon": -77.031593, "is_disabled": 0, "fusion_lon": 0.0, "rental_uris": {"android": "https://dc.lft.to/lastmile_qr_scan", "ios": "https://dc.lft.to/lastmile_qr_scan"}}, {"type": "electric_bike", "name": "c0f335119098ce87690c45870f2e8514", "lat": 38.900993166666666, "fusion_lat": 0.0, "bike_id": "c0f335119098ce87690c45870f2e8514", "is_reserved": 0, "lon": -77.0484905, "is_disabled": 0, "fusion_lon": 0.0, "rental_uris": {"android": "https://dc.lft.to/lastmile_qr_scan", "ios": "https://dc.lft.to/lastmile_qr_scan"}}, {"type": "electric_scooter", "name": "bd7b7d0627d827a3fb9e4b0e929b4aaa", "lat": 38.89831133333333, "fusion_lat": 0.0, "bike_id": "bd7b7d0627d827a3fb9e4b0e929b4aaa", "is_reserved": 0, "lon": -77.04567266666666, "is_disabled": 0, "fusion_lon": 0.0, "rental_uris": {"android": "https://dc.lft.to/lastmile_qr_scan", "ios": "https://dc.lft.to/lastmile_qr_scan"}}, {"type": "electric_scooter", "name": "7fad6ad169a3054756eeb9126a91977c", "lat": 38.9306845, "fusion_lat": 0.0, "bike_id": "7fad6ad169a3054756eeb9126a91977c", "is_reserved": 0, "lon": -77.01981533333333, "is_disabled": 0, "fusion_lon": 0.0, "rental_uris": {"android": "https://dc.lft.to/lastmile_qr_scan", "ios": "https://dc.lft.to/lastmile_qr_scan"}},