{"data": {"bikes": [{"fusion_lon": 0.0, "lat": 38.934063, "lon": -77.0326315, "bike_id": "17c84c0d7ab85833db3b4cd95c01c7ea", "rental_uris": {"android": "https://dc.lft.to/lastmile_qr_scan", "ios": "https://dc.lft.to/lastmile_qr_scan"}, "fusion_lat": 0.0, "name": "17c84c0d7ab85833db3b4cd95c01c7ea", "is_reserved": 0, "is_disabled": 0, "type": "electric_scooter"}, {"fusion_lon": 0.0, "lat": 38.91580283333333, "lon": -77.03663533333334, "bike_id": "bfec87eaa92f8a283d96c30e6d7a0eb7", "rental_uris": {"android": "https://dc.lft.to/lastmile_qr_scan", "ios": "https://dc.lft.to/lastmile_qr_scan"}, "fusion_lat": 0.0, "name": "bfec87eaa92f8a283d96c30e6d7a0eb7", "is_reserved": 0, "is_disabled": 0, "type": "electric_scooter"}, {"fusion_lon": 0.0, "lat": 38.918086333333335, "lon": -77.03452766666666, "bike_id": "166aedc1ef5f26c927454e7c2fb4ff06", "rental_uris": {"android": "https://dc.lft.to/lastmile_qr_scan", "ios": "https://dc.lft.to/lastmile_qr_scan"}, "fusion_lat": 0.0, "name": "166aedc1ef5f26c927454e7c2fb4ff06", "is_reserved": 0, "is_disabled": 0, "type": "electric_scooter"}, {"fusion_lon": 0.0, "lat": 38.872869666666666, "lon": -77.01584783333334, "bike_id": "ef323a06871bf43b35ed7f659ddf0dd7", "rental_uris": {"android": "https://dc.lft.to/lastmile_qr_scan", "ios": "https://dc.lft.to/lastmile_qr_scan"}, "fusion_lat": 0.0, "name": "ef323a06871bf43b35ed7f659ddf0dd7", "is_reserved": 0, "is_disabled": 0, "type": "electric_scooter"}, {"fusion_lon": 0.0, "lat": 38.8651855, "lon": -76.969076, "bike_id": "fad4a14eebd1d19467bf39300f291641", "rental_uris": {"android": "https://dc.lft.to/lastmile_qr_scan", "ios": "https://dc.lft.to/lastmile_qr_scan"}, "fusion_lat": 0.0, "name": "fad4a14eebd1d19467bf39300f291641", "is_reserved": 0, "is_disabled": 0, "type": "electric_scooter"}, {"fusion_lon": 0.0, "lat": 38.88437666666667, "lon": -76.95771133333334, "bike_id": "a4f329cba4afe9a8194c8991fe543335", "rental_uris": {"android": "https://dc.lft.to/lastmile_qr_scan", "ios": "https://dc.lft.to/lastmile_qr_scan"}, "fusion_lat": 0.0, "name": "a4f329cba4afe9a8194c8991fe543335", "is_reserved": 0, "is_disabled": 0, "type": "electric_scooter"}, {"fusion_lon": 0.0, "lat": 38.90893466666667, "lon": -77.04333016666666, "bike_id": "3117cc758749b65a0acbc915cd1611fe", "rental_uris": {"android": "https://dc.lft.to/lastmile_qr_scan", "ios": "https://dc.lft.to/lastmile_qr_scan"}, "fusion_lat": 0.0, "name": "3117cc758749b65a0acbc915cd1611fe", "is_reserved": 0, "is_disabled": 0, "type": "electric_scooter"}, {"fusion_lon": 0.0, "lat": 38.9157445, "lon": -77.06776683333334, "bike_id": "d1aacff5d17c83801ee26c2944fc6abf", "rental_uris": {"android": "https://dc.lft.to/lastmile_qr_scan", "ios": "https://dc.lft.to/lastmile_qr_scan"}, "fusion_lat": 0.0, "name": "d1aacff5d17c83801ee26c2944fc6abf", "is_reserved": 0, "is_disabled": 0, "type": "electric_scooter"}, {"fusion_lon": 0.0, "lat": 38.924408166666666, "lon": -77.02154766666666, "bike_id": "b777681f7534f65f19d571f583f0b6a7", "rental_uris": {"android": "https://dc.lft.to/lastmile_qr_scan", "ios": "https://dc.lft.to/lastmile_qr_scan"}, "fusion_lat": 0.0, "name": "b777681f7534f65f19d571f583f0b6a7", "is_reserved": 0, "is_disabled": 0, "type": "electric_scooter"}, {"fusion_lon": 0.0, "lat": 38.9211945, "lon": -77.0366485, "bike_id": "c058f90aae2ded089b0e1b0bd721e4ec", "rental_uris": {"android": "https://dc.lft.to/lastmile_qr_scan", "ios": "https://dc.lft.to/lastmile_qr_scan"}, "fusion_lat": 0.0, "name": "c058f90aae2ded089b0e1b0bd721e4ec", "is_reserved": 0, "is_disabled": 0, "type": "electric_scooter"}, {"fusion_lon": 0.0, "lat": 38.903054166666664, "lon": -76.97500766666667, "bike_id": "5431148e476c6731638a5d2df2968bcc", "rental_uris": {"android": "https://dc.lft.to/lastmile_qr_scan", "ios": "https://dc.lft.to/lastmile_qr_scan"}, "fusion_lat": 0.0, "name": "5431148e476c6731638a5d2df2968bcc", "is_reserved": 0, "is_disabled": 0, "type": "electric_scooter"}, {"fusion_lon": 0.0, "lat": 38.89914133333333, "lon": -77.04497683333334, "bike_id": "eaee5446201b823dd5450873554ad634", "rental_uris": {"android": "https://dc.lft.to/lastmile_qr_scan", "ios": "https://dc.lft.to/lastmile_qr_scan"}, "fusion_lat": 0.0, "name": "eaee5446201b823dd5450873554ad634", "is_reserved": 0, "is_disabled": 0, "type": "electric_scooter"}, {"fusion_lon": 0.0, "lat": 38.9518215, "lon": -77.0126645, "bike_id": "fc46a259822df2b8efe1706311986b44", "rental_uris": {"android": "https://dc.lft.to/lastmile_qr_scan", "ios": "https://dc.lft.to/lastmile_qr_scan"}, "fusion_lat": 0.0, "name": "fc46a259822df2b8efe1706311986b44", "is_reserved": 0, "is_disabled": 0, "type": "electric_scooter"}, {"fusion_lon": 0.0, "lat": 38.89992133333333, "lon": -77.01611116666666, "bike_id": "42f69b0390a4056d9a40a92257069983", "rental_uris": {"android": "https://dc.lft.to/lastmile_qr_scan", "ios": "https://dc.lft.to/lastmile_qr_scan"}, "fusion_lat": 0.0, "name": "42f69b0390a4056d9a40a92257069983", "is_reserved": 0, "is_disabled": 0, "type": "electric_scooter"}, {"fusion_lon": 0.0, "lat": 38.88428066666667, "lon": -76.9972815, "bike_id": "a911b6f51ce05b30557bbb809e8bd7c5", "rental_uris": {"android": "https://dc.lft.to/lastmile_qr_scan", "ios": "https://dc.lft.to/lastmile_qr_scan"}, "fusion_lat": 0.0, "name": "a911b6f51ce05b30557bbb809e8bd7c5", "is_reserved": 0, "is_disabled": 0, "type": "electric_scooter"}, {"fusion_lon": 0.0, "lat": 38.92442966666667, "lon": -76.96829783333334, "bike_id": "7004e315c23715d3352578895a42ac65", "rental_uris": {"android": "https://dc.lft.to/lastmile_qr_scan", "ios": "https://dc.lft.to/lastmile_qr_scan"}, "fusion_lat": 0.0, "name": "7004e315c23715d3352578895a42ac65", "is_reserved": 0, "is_disabled": 0, "type": "electric_scooter"}, {"fusion_lon": 0.0, "lat": 38.898815666666664, "lon": -76.93179433333333, "bike_id": "4ec5dca4486b210b62c5047bfc0ba12a", "rental_uris": {"android": "https://dc.lft.to/lastmile_qr_scan", "ios": "https://dc.lft.to/lastmile_qr_scan"}, "fusion_lat": 0.0, "name": "4ec5dca4486b210b62c5047bfc0ba12a", "is_reserved": 0, "is_disabled": 0, "type": "electric_scooter"}, {"fusion_lon": 0.0, "lat": 38.907728166666665, "lon": -77.0376395, "bike_id": "6a2b14b98a31eaf7d7f3378aa51d7b14", "rental_uris": {"android": "https://dc.lft.to/lastmile_qr_scan", "ios": "https://dc.lft.to/lastmile_qr_scan"}, "fusion_lat": 0.0, "name": "6a2b14b98a31eaf7d7f3378aa51d7b14", "is_reserved": 0, "is_disabled": 0, "type": "electric_scooter"}, {"fusion_lon": 0.0, "lat": 38.92478766666667, "lon": -77.039389, "bike_id": "1cb379ab84e1febd76fc3bf988f8c901", "rental_uris": {"android": "https://dc.lft.to/lastmile_qr_scan", "ios": "https://dc.lft.to/lastmile_qr_scan"}, "fusion_lat": 0.0, "name": "1cb379ab84e1febd76fc3bf988f8c901", "is_reserved": 0, "is_disabled": 0, "type": "electric_scooter"}, {"fusion_lon": 0.0, "lat": 38.92361733333333, "lon": -77.05426366666667, "bike_id": "c07ece7dd46f4cbee6040f6114a83121", "rental_uris": {"android": "https://dc.lft.to/lastmile_qr_scan", "ios": "https://dc.lft.to/lastmile_qr_scan"}, "fusion_lat": 0.0, "name": "c07ece7dd46f4cbee6040f6114a83121", "is_reserved": 0, "is_disabled": 0, "type": "electric_scooter"}, {"fusion_lon": 0.0, "lat": 38.898670833333334, "lon": -77.02954516666667, "bike_id": "2b2644c768144d98fdbc3a6413f399e5", "rental_uris": {"android": "https://dc.lft.to/lastmile_qr_scan", "ios": "https://dc.lft.to/lastmile_qr_scan"}, "fusion_lat": 0.0, "name": "2b2644c768144d98fdbc3a6413f399e5", "is_reserved": 0, "is_disabled": 0, "type": "electric_scooter"}, {"fusion_lon": 0.0, "lat": 38.907237, "lon": -77.03362416666667, "bike_id": "e81b70a718bbb2c53a0422b91a7230a3", "rental_uris": {"android": "https://dc.lft.to/lastmile_qr_scan", "ios": "https://dc.lft.to/lastmile_qr_scan"}, "fusion_lat": 0.0, "name": "e81b70a718bbb2c53a0422b91a7230a3", "is_reserved": 0, "is_disabled": 0, "type": "electric_scooter"}, {"fusion_lon": 0.0, "lat": 38.908801833333335, "lon": -77.075381, "bike_id": "e4745487d87dd3b743b5dcb29f8d3ac9", "rental_uris": {"android": "https://dc.lft.to/lastmile_qr_scan", "ios": "https://dc.lft.to/lastmile_qr_scan"}, "fusion_lat": 0.0, "name": "e4745487d87dd3b743b5dcb29f8d3ac9", "is_reserved": 0, "is_disabled": 0, "type": "electric_scooter"}, {"fusion_lon": 0.0, "lat": 38.912573333333334, "lon": -77.03336366666667, "bike_id": "b358bce8697235d1f105b0552b88ebde", "rental_uris": {"android": "https://dc.lft.to/lastmile_qr_scan", "ios": "https://dc.lft.to/lastmile_qr_scan"}, "fusion_lat": 0.0, "name": "b358bce8697235d1f105b0552b88ebde", "is_reserved": 0, "is_disabled": 0, "type": "electric_scooter"}, {"fusion_lon": 0.0, "lat": 38.91095466666667, "lon": -77.003695, "bike_id": "73365ada50b3ef0ce80b12fa1dd6734f", "rental_uris": {"android": "https://dc.lft.to/lastmile_qr_scan", "ios": "https://dc.lft.to/lastmile_qr_scan"}, "fusion_lat": 0.0, "name": "73365ada50b3ef0ce80b12fa1dd6734f", "is_reserved": 0, "is_disabled": 0, "type": "electric_scooter"}, {"fusion_lon": 0.0, "lat": 38.92272416666667, "lon": -77.04224366666666, "bike_id": "3070afa4e4ac7f8c050b9027fd8abbcf", "rental_uris": {"android": "https://dc.lft.to/lastmile_qr_scan", "ios": "https://dc.lft.to/lastmile_qr_scan"}, "fusion_lat": 0.0, "name": "3070afa4e4ac7f8c050b9027fd8abbcf", "is_reserved": 0, "is_disabled": 0, "type": "electric_scooter"}, {"fusion_lon": 0.0, "lat": 38.902919, "lon": -77.03210716666666, "bike_id": "3424d6e97a6091e1a8b10444fbbf619e", "rental_uris": {"android": "https://dc.lft.to/lastmile_qr_scan", "ios": "https://dc.lft.to/lastmile_qr_scan"}, "fusion_lat": 0.0, "name": "3424d6e97a6091e1a8b10444fbbf619e", "is_reserved": 0, "is_disabled": 0, "type": "electric_scooter"}, {"fusion_lon": 0.0, "lat": 38.9267925, "lon": -77.02787033333334, "bike_id": "6c6fac06fd2203f83603a40c78c089e7", "rental_uris": {"android": "https://dc.lft.to/lastmile_qr_scan", "ios": "https://dc.lft.to/lastmile_qr_scan"}, "fusion_lat": 0.0, "name": "6c6fac06fd2203f83603a40c78c089e7", "is_reserved": 0, "is_disabled": 0, "type": "electric_scooter"}, {"fusion_lon": 0.0, "lat": 38.928917, "lon": -77.0326685, "bike_id": "fba1fc14d1b3c308428c5b3cf93971dc", "rental_uris": {"android": "https://dc.lft.to/lastmile_qr_scan", "ios": "https://dc.lft.to/lastmile_qr_scan"}, "fusion_lat": 0.0, "name": "fba1fc14d1b3c308428c5b3cf93971dc", "is_reserved": 0, "is_disabled": 0, "type": "electric_scooter"}, {"fusion_lon": 0.0, "lat": 38.897730833333334, "lon": -77.01227633333333, "bike_id": "11714dd0dbeeb5edf21393c3bf15805a", "rental_uris": {"android": "https://dc.lft.to/lastmile_qr_scan", "ios": "https://dc.lft.to/lastmile_qr_scan"}, "fusion_lat": 0.0, "name": "11714dd0dbeeb5edf21393c3bf15805a", "is_reserved": 0, "is_disabled": 0, "type": "electric_scooter"}, {"fusion_lon": 0.0, "lat": 38.92398583333333, "lon": -77.04068916666667, "bike_id": "99b369f70797665f3d23a80360798f14", "rental_uris": {"android": "https://dc.lft.to/lastmile_qr_scan", "ios": "https://dc.lft.to/lastmile_qr_scan"}, "fusion_lat": 0.0, "name": "99b369f70797665f3d23a80360798f14", "is_reserved": 0, "is_disabled": 0, "type": "electric_scooter"}, {"fusion_lon": 0.0, "lat": 38.99805683333334, "lon": -77.02896366666667, "bike_id": "e7b798dcf3eb940e845c6d707625f424", "rental_uris": {"android": "https://dc.lft.to/lastmile_qr_scan", "ios": "https://dc.lft.to/lastmile_qr_scan"}, "fusion_lat": 0.0, "name": "e7b798dcf3eb940e845c6d707625f424", "is_reserved": 0, "is_disabled": 0, "type": "electric_bike"}, {"fusion_lon": 0.0, "lat": 38.927249, "lon": -77.0353835, "bike_id": "31ddf4f2aa6f759cd72baa77148ce996", "rental_uris": {"android": "https://dc.lft.to/lastmile_qr_scan", "ios": "https://dc.lft.to/lastmile_qr_scan"}, "fusion_lat": 0.0, "name": "31ddf4f2aa6f759cd72baa77148ce996", "is_reserved": 0, "is_disabled": 0, "type": "electric_scooter"}, {"fusion_lon": 0.0, "lat": 38.880186, "lon": -77.00523983333333, "bike_id": "faabab9e554c05a07aa9ef11942e7a3b", "rental_uris": {"android": "https://dc.lft.to/lastmile_qr_scan", "ios": "https://dc.lft.to/lastmile_qr_scan"}, "fusion_lat": 0.0, "name": "faabab9e554c05a07aa9ef11942e7a3b", "is_reserved": 0, "is_disabled": 0, "type": "electric_scooter"}, {"fusion_lon": 0.0, "lat": 38.877022333333336, "lon": -77.017679, "bike_id": "bfe68a8df3ddb6a947a823ee702da978", "rental_uris": {"android": "https://dc.lft.to/lastmile_qr_scan", "ios": "https://dc.lft.to/lastmile_qr_scan"}, "fusion_lat": 0.0, "name": "bfe68a8df3ddb6a947a823ee702da978", "is_reserved": 0, "is_disabled": 0, "type": "electric_scooter"}, {"fusion_lon": 0.0, "lat": 38.9000925, "lon": -76.99350983333333, "bike_id": "a8f216c673cc7efc5168a40cec5a5933", "rental_uris": {"android": "https://dc.lft.to/lastmile_qr_scan", "ios": "https://dc.lft.to/lastmile_qr_scan"}, "fusion_lat": 0.0, "name": "a8f216c673cc7efc5168a40cec5a5933", "is_reserved": 0, "is_disabled": 0, "type": "electric_scooter"}, {"fusion_lon": 0.0, "lat": 38.916587666666665, "lon": -77.038555, "bike_id": "0f97670c8b6e344ac7bfe519a3f31e87", "rental_uris": {"android": "https://dc.lft.to/lastmile_qr_scan", "ios": "https://dc.lft.to/lastmile_qr_scan"}, "fusion_lat": 0.0, "name": "0f97670c8b6e344ac7bfe519a3f31e87", "is_reserved": 0, "is_disabled": 0, "type": "electric_scooter"}, {"fusion_lon": 0.0, "lat": 38.90693866666667, "lon": -76.9525415, "bike_id": "6cc22832853b0c87b89d2fe59886cdc9", "rental_uris": {"android": "https://dc.lft.to/lastmile_qr_scan", "ios": "https://dc.lft.to/lastmile_qr_scan"}, "fusion_lat": 0.0, "name": "6cc22832853b0c87b89d2fe59886cdc9", "is_reserved": 0, "is_disabled": 0, "type": "electric_bike"}, {"fusion_lon": 0.0, "lat": 38.927577166666666, "lon": -77.0321425, "bike_id": "d2d48a7389e2a62a82bda1d526021ced", "rental_uris": {"android": "https://dc.lft.to/lastmile_qr_scan", "ios": "https://dc.lft.to/lastmile_qr_scan"}, "fusion_lat": 0.0, "name": "d2d48a7389e2a62a82bda1d526021ced", "is_reserved": 0, "is_disabled": 0, "type": "electric_scooter"}, {"fusion_lon": 0.0, "lat": 38.926807, "lon": -77.0274475, "bike_id": "b126d5258a3cca5fee1f03ce646d3fc9", "rental_uris": {"android": "https://dc.lft.to/lastmile_qr_scan", "ios": "https://dc.lft.to/lastmile_qr_scan"}, "fusion_lat": 0.0, "name": "b126d5258a3cca5fee1f03ce646d3fc9", "is_reserved": 0, "is_disabled": 0, "type": "electric_scooter"}, {"fusion_lon": 0.0, "lat": 38.9004075, "lon": -76.98558383333334, "bike_id": "71edbcd907a2f939a319f2bf02c2ab10", "rental_uris": {"android": "https://dc.lft.to/lastmile_qr_scan", "ios": "https://dc.lft.to/lastmile_qr_scan"}, "fusion_lat": 0.0, "name": "71edbcd907a2f939a319f2bf02c2ab10", "is_reserved": 0, "is_disabled": 0, "type": "electric_scooter"}, {"fusion_lon": 0.0, "lat": 38.90706733333333, "lon": -77.00319366666666, "bike_id": "8f8781af8a15e7950b450ba6c5b37882", "rental_uris": {"android": "https://dc.lft.to/lastmile_qr_scan", "ios": "https://dc.lft.to/lastmile_qr_scan"}, "fusion_lat": 0.0, "name": "8f8781af8a15e7950b450ba6c5b37882", "is_reserved": 0, "is_disabled": 0, "type": "electric_scooter"}, {"fusion_lon": 0.0, "lat": 38.894267166666666, "lon": -76.99778366666666, "bike_id": "5b4d4199ad04d14ff27b15180e9d4f9f", "rental_uris": {"android": "https://dc.lft.to/lastmile_qr_scan", "ios": "https://dc.lft.to/lastmile_qr_scan"}, "fusion_lat": 0.0, "name": "5b4d4199ad04d14ff27b15180e9d4f9f", "is_reserved": 0, "is_disabled": 0, "type": "electric_scooter"}, {"fusion_lon": 0.0, "lat": 38.92467466666667, "lon": -77.022074, "bike_id": "bdc1b420c4a5934239c05f2c091321ca", "rental_uris": {"android": "https://dc.lft.to/lastmile_qr_scan", "ios": "https://dc.lft.to/lastmile_qr_scan"}, "fusion_lat": 0.0, "name": "bdc1b420c4a5934239c05f2c091321ca", "is_reserved": 0, "is_disabled": 0, "type": "electric_scooter"}, {"fusion_lon": 0.0, "lat": 38.92178833333333, "lon": -77.04618116666667, "bike_id": "1bf364402f48279ad3ab05573f3065c0", "rental_uris": {"android": "https://dc.lft.to/lastmile_qr_scan", "ios": "https://dc.lft.to/lastmile_qr_scan"}, "fusion_lat": 0.0, "name": "1bf364402f48279ad3ab05573f3065c0", "is_reserved": 0, "is_disabled": 0, "type": "electric_scooter"}, {"fusion_lon": 0.0, "lat": 38.921496166666664, "lon": -77.0353835, "bike_id": "674a30bb8d432d40f1796fd088b93139", "rental_uris": {"android": "https://dc.lft.to/lastmile_qr_scan", "ios": "https://dc.lft.to/lastmile_qr_scan"}, "fusion_lat": 0.0, "name": "674a30bb8d432d40f1796fd088b93139", "is_reserved": 0, "is_disabled": 0, "type": "electric_scooter"}, {"fusion_lon": 0.0, "lat": 38.901608833333334, "lon": -76.98068566666667, "bike_id": "a748e4ccaeb257ff85629d107d0c4be2", "rental_uris": {"android": "https://dc.lft.to/lastmile_qr_scan", "ios": "https://dc.lft.to/lastmile_qr_scan"}, "fusion_lat": 0.0, "name": "a748e4ccaeb257ff85629d107d0c4be2", "is_reserved": 0, "is_disabled": 0, "type": "electric_scooter"}, {"fusion_lon": 0.0, "lat": 38.92469583333333, "lon": -77.05205216666667, "bike_id": "b424c4d0673cb15f7e05a62edf476d91", "rental_uris": {"android": "https://dc.lft.to/lastmile_qr_scan", "ios": "https://dc.lft.to/lastmile_qr_scan"}, "fusion_lat": 0.0, "name": "b424c4d0673cb15f7e05a62edf476d91", "is_reserved": 0, "is_disabled": 0, "type": "electric_scooter"}, {"fusion_lon": 0.0, "lat": 38.892214833333334, "lon": -77.048656, "bike_id": "203f89a305b7b4e02e5cd7666be221ba", "rental_uris": {"android": "https://dc.lft.to/lastmile_qr_scan", "ios": "https://dc.lft.to/lastmile_qr_scan"}, "fusion_lat": 0.0, "name": "203f89a305b7b4e02e5cd7666be221ba", "is_reserved": 0, "is_disabled": 0, "type": "electric_scooter"}, {"fusion_lon": 0.0, "lat": 38.942009, "lon": -77.0285765, "bike_id": "28629dde5b9a1d23977364a5056bed56", "rental_uris": {"android": "https://dc.lft.to/lastmile_qr_scan", "ios": "https://dc.lft.to/lastmile_qr_scan"}, "fusion_lat": 0.0, "name": "28629dde5b9a1d23977364a5056bed56", "is_reserved": 0, "is_disabled": 0, "type": "electric_scooter"}, {"fusion_lon": 0.0, "lat": 38.88377583333333, "lon": -77.00887616666667, "bike_id": "bdca0560e3412816a4bc304ab3ece3c1", "rental_uris": {"android": "https://dc.lft.to/lastmile_qr_scan", "ios": "https://dc.lft.to/lastmile_qr_scan"}, "fusion_lat": 0.0, "name": "bdca0560e3412816a4bc304ab3ece3c1", "is_reserved": 0, "is_disabled": 0, "type": "electric_scooter"}, {"fusion_lon": 0.0, "lat": 38.921612333333336, "lon": -77.03377216666667, "bike_id": "42629983691af987d57ef1c9b83f09eb", "rental_uris": {"android": "https://dc.lft.to/lastmile_qr_scan", "ios": "https://dc.lft.to/lastmile_qr_scan"}, "fusion_lat": 0.0, "name": "42629983691af987d57ef1c9b83f09eb", "is_reserved": 0, "is_disabled": 0, "type": "electric_scooter"}, {"fusion_lon": 0.0, "lat": 38.88219383333333, "lon": -76.93924583333333, "bike_id": "11e4aa88c10348498f28a3d7bb6bb69e", "rental_uris": {"android": "https://dc.lft.to/lastmile_qr_scan", "ios": "https://dc.lft.to/lastmile_qr_scan"}, "fusion_lat": 0.0, "name": "11e4aa88c10348498f28a3d7bb6bb69e", "is_reserved": 0, "is_disabled": 0, "type": "electric_scooter"}, {"fusion_lon": 0.0, "lat": 38.8922005, "lon": -77.04469083333333, "bike_id": "7bce111b258cc3eb91a0496ae6bdd11a", "rental_uris": {"android": "https://dc.lft.to/lastmile_qr_scan", "ios": "https://dc.lft.to/lastmile_qr_scan"}, "fusion_lat": 0.0, "name": "7bce111b258cc3eb91a0496ae6bdd11a", "is_reserved": 0, "is_disabled": 0, "type": "electric_scooter"}, {"fusion_lon": 0.0, "lat": 39.03905133333333, "lon": -77.0504145, "bike_id": "79475b5363d0d401839bbd7b22cb48c2", "rental_uris": {"android": "https://dc.lft.to/lastmile_qr_scan", "ios": "https://dc.lft.to/lastmile_qr_scan"}, "fusion_lat": 0.0, "name": "79475b5363d0d401839bbd7b22cb48c2", "is_reserved": 0, "is_disabled": 0, "type": "electric_bike"}, {"fusion_lon": 0.0, "lat": 38.8992025, "lon": -77.04147566666667, "bike_id": "b503abd0719ac98d5b29cd28c4087231", "rental_uris": {"android": "https://dc.lft.to/lastmile_qr_scan", "ios": "https://dc.lft.to/lastmile_qr_scan"}, "fusion_lat": 0.0, "name": "b503abd0719ac98d5b29cd28c4087231", "is_reserved": 0, "is_disabled": 0, "type": "electric_scooter"}, {"fusion_lon": 0.0, "lat": 38.9149075, "lon": -77.04492483333334, "bike_id": "63e3e5f94a13dec686df66468685249e", "rental_uris": {"android": "https://dc.lft.to/lastmile_qr_scan", "ios": "https://dc.lft.to/lastmile_qr_scan"}, "fusion_lat": 0.0, "name": "63e3e5f94a13dec686df66468685249e", "is_reserved": 0, "is_disabled": 0, "type": "electric_scooter"}, {"fusion_lon": 0.0, "lat": 38.904280166666666, "lon": -77.04336716666667, "bike_id": "9145b1fe0d76b1b47f9845d5fcc2a8d1", "rental_uris": {"android": "https://dc.lft.to/lastmile_qr_scan", "ios": "https://dc.lft.to/lastmile_qr_scan"}, "fusion_lat": 0.0, "name": "9145b1fe0d76b1b47f9845d5fcc2a8d1", "is_reserved": 0, "is_disabled": 0, "type": "electric_scooter"}, {"fusion_lon": 0.0, "lat": 38.90126433333333, "lon": -76.99047033333333, "bike_id": "65c3d3963e7f715a1bf22f0943eb5920", "rental_uris": {"android": "https://dc.lft.to/lastmile_qr_scan", "ios": "https://dc.lft.to/lastmile_qr_scan"}, "fusion_lat": 0.0, "name": "65c3d3963e7f715a1bf22f0943eb5920", "is_reserved": 0, "is_disabled": 0, "type": "electric_scooter"}, {"fusion_lon": 0.0, "lat": 38.857891, "lon": -77.09966133333333, "bike_id": "0399998ecf96d184a716a435b9f7df09", "rental_uris": {"android": "https://dc.lft.to/lastmile_qr_scan", "ios": "https://dc.lft.to/lastmile_qr_scan"}, "fusion_lat": 0.0, "name": "0399998ecf96d184a716a435b9f7df09", "is_reserved": 0, "is_disabled": 0, "type": "electric_bike"}, {"fusion_lon": 0.0, "lat": 38.92478583333333, "lon": -77.037852, "bike_id": "3763ea9c470d8e5f1ded77402b562d49", "rental_uris": {"android": "https://dc.lft.to/lastmile_qr_scan", "ios": "https://dc.lft.to/lastmile_qr_scan"}, "fusion_lat": 0.0, "name": "3763ea9c470d8e5f1ded77402b562d49", "is_reserved": 0, "is_disabled": 0, "type": "electric_scooter"}, {"fusion_lon": 0.0, "lat": 38.94437666666666, "lon": -77.06408766666667, "bike_id": "5f2475fc011566e55b8415e8f671c554", "rental_uris": {"android": "https://dc.lft.to/lastmile_qr_scan", "ios": "https://dc.lft.to/lastmile_qr_scan"}, "fusion_lat": 0.0, "name": "5f2475fc011566e55b8415e8f671c554", "is_reserved": 0, "is_disabled": 0, "type": "electric_scooter"}, {"fusion_lon": 0.0, "lat": 38.95063666666667, "lon": -76.97087266666666, "bike_id": "e4930418e5e6980bb6c9a6d1bff819ac", "rental_uris": {"android": "https://dc.lft.to/lastmile_qr_scan", "ios": "https://dc.lft.to/lastmile_qr_scan"}, "fusion_lat": 0.0, "name": "e4930418e5e6980bb6c9a6d1bff819ac", "is_reserved": 0, "is_disabled": 0, "type": "electric_bike"}, {"fusion_lon": 0.0, "lat": 38.9081765, "lon": -77.03634516666666, "bike_id": "a1fe571ec9edac9ba70ab8fabba65dbe", "rental_uris": {"android": "https://dc.lft.to/lastmile_qr_scan", "ios": "https://dc.lft.to/lastmile_qr_scan"}, "fusion_lat": 0.0, "name": "a1fe571ec9edac9ba70ab8fabba65dbe", "is_reserved": 0, "is_disabled": 0, "type": "electric_scooter"}, {"fusion_lon": 0.0, "lat": 38.835816, "lon": -76.99032933333334, "bike_id": "e4f8db4a8cb9025e2b1cba2bcdff842a", "rental_uris": {"android": "https://dc.lft.to/lastmile_qr_scan", "ios": "https://dc.lft.to/lastmile_qr_scan"}, "fusion_lat": 0.0, "name": "e4f8db4a8cb9025e2b1cba2bcdff842a", "is_reserved": 0, "is_disabled": 0, "type": "electric_bike"}, {"fusion_lon": 0.0, "lat": 38.90339133333333, "lon": -76.9761485, "bike_id": "5f2412cf6196da44dd19880406efb3f3", "rental_uris": {"android": "https://dc.lft.to/lastmile_qr_scan", "ios": "https://dc.lft.to/lastmile_qr_scan"}, "fusion_lat": 0.0, "name": "5f2412cf6196da44dd19880406efb3f3", "is_reserved": 0, "is_disabled": 0, "type": "electric_scooter"}, {"fusion_lon": 0.0, "lat": 38.9224945, "lon": -77.019516, "bike_id": "5c1fb199ffe3f4ba7673447907d0dbfb", "rental_uris": {"android": "https://dc.lft.to/lastmile_qr_scan", "ios": "https://dc.lft.to/lastmile_qr_scan"}, "fusion_lat": 0.0, "name": "5c1fb199ffe3f4ba7673447907d0dbfb", "is_reserved": 0, "is_disabled": 0, "type": "electric_scooter"}, {"fusion_lon": 0.0, "lat": 38.915894, "lon": -77.04623316666667, "bike_id": "00aed23f105f73670a66f11eb6a31f09", "rental_uris": {"android": "https://dc.lft.to/lastmile_qr_scan", "ios": "https://dc.lft.to/lastmile_qr_scan"}, "fusion_lat": 0.0, "name": "00aed23f105f73670a66f11eb6a31f09", "is_reserved": 0, "is_disabled": 0, "type": "electric_scooter"}, {"fusion_lon": 0.0, "lat": 38.963957666666666, "lon": -77.02591733333334, "bike_id": "099334c62c49ae6a83ff102d2de104d4", "rental_uris": {"android": "https://dc.lft.to/lastmile_qr_scan", "ios": "https://dc.lft.to/lastmile_qr_scan"}, "fusion_lat": 0.0, "name": "099334c62c49ae6a83ff102d2de104d4", "is_reserved": 0, "is_disabled": 0, "type": "electric_scooter"}, {"fusion_lon": 0.0, "lat": 38.9189375, "lon": -77.10178833333333, "bike_id": "3760bf94d437a764a8c247a13fc0897b", "rental_uris": {"android": "https://dc.lft.to/lastmile_qr_scan", "ios": "https://dc.lft.to/lastmile_qr_scan"}, "fusion_lat": 0.0, "name": "3760bf94d437a764a8c247a13fc0897b", "is_reserved": 0, "is_disabled": 0, "type": "electric_bike"}, {"fusion_lon": 0.0, "lat": 38.8986595, "lon": -77.01380666666667, "bike_id": "69d2a72424b156cf583679f2cd25b719", "rental_uris": {"android": "https://dc.lft.to/lastmile_qr_scan", "ios": "https://dc.lft.to/lastmile_qr_scan"}, "fusion_lat": 0.0, "name": "69d2a72424b156cf583679f2cd25b719", "is_reserved": 0, "is_disabled": 0, "type": "electric_scooter"}, {"fusion_lon": 0.0, "lat": 38.913579666666664, "lon": -77.06475183333333, "bike_id": "6384267bc98286696db07c488abfb654", "rental_uris": {"android": "https://dc.lft.to/lastmile_qr_scan", "ios": "https://dc.lft.to/lastmile_qr_scan"}, "fusion_lat": 0.0, "name": "6384267bc98286696db07c488abfb654", "is_reserved": 0, "is_disabled": 0, "type": "electric_scooter"}, {"fusion_lon": 0.0, "lat": 38.83931316666666, "lon": -77.0790075, "bike_id": "3f0ca06f2edeb7c615d0840c8f60fce9", "rental_uris": {"android": "https://dc.lft.to/lastmile_qr_scan", "ios": "https://dc.lft.to/lastmile_qr_scan"}, "fusion_lat": 0.0, "name": "3f0ca06f2edeb7c615d0840c8f60fce9", "is_reserved": 0, "is_disabled": 0, "type": "electric_bike"}, {"fusion_lon": 0.0, "lat": 38.9214625, "lon": -77.03535816666667, "bike_id": "cd17a674a9d5ebb5c7e5a048a699a5e6", "rental_uris": {"android": "https://dc.lft.to/lastmile_qr_scan", "ios": "https://dc.lft.to/lastmile_qr_scan"}, "fusion_lat": 0.0, "name": "cd17a674a9d5ebb5c7e5a048a699a5e6", "is_reserved": 0, "is_disabled": 0, "type": "electric_scooter"}, {"fusion_lon": 0.0, "lat": 38.892316666666666, "lon": -77.00322383333334, "bike_id": "52a837c35ae9b7cb1f31f613aa1cf3b8", "rental_uris": {"android": "https://dc.lft.to/lastmile_qr_scan", "ios": "https://dc.lft.to/lastmile_qr_scan"}, "fusion_lat": 0.0, "name": "52a837c35ae9b7cb1f31f613aa1cf3b8", "is_reserved": 0, "is_disabled": 0, "type": "electric_scooter"}, {"fusion_lon": 0.0, "lat": 38.89101, "lon": -77.00214566666666, "bike_id": "226a2c502e928d6cadb0e3618c202fd0", "rental_uris": {"android": "https://dc.lft.to/lastmile_qr_scan", "ios": "https://dc.lft.to/lastmile_qr_scan"}, "fusion_lat": 0.0, "name": "226a2c502e928d6cadb0e3618c202fd0", "is_reserved": 0, "is_disabled": 0, "type": "electric_scooter"}, {"fusion_lon": 0.0, "lat": 38.898876333333334, "lon": -77.0405845, "bike_id": "d0bb1b65154d7daac44bd287108eb6d9", "rental_uris": {"android": "https://dc.lft.to/lastmile_qr_scan", "ios": "https://dc.lft.to/lastmile_qr_scan"}, "fusion_lat": 0.0, "name": "d0bb1b65154d7daac44bd287108eb6d9", "is_reserved": 0, "is_disabled": 0, "type": "electric_scooter"}, {"fusion_lon": 0.0, "lat": 38.9269465, "lon": -77.022776, "bike_id": "7e54fa72466a802533901a9ecbf4f3db", "rental_uris": {"android": "https://dc.lft.to/lastmile_qr_scan", "ios": "https://dc.lft.to/lastmile_qr_scan"}, "fusion_lat": 0.0, "name": "7e54fa72466a802533901a9ecbf4f3db", "is_reserved": 0, "is_disabled": 0, "type": "electric_scooter"}, {"fusion_lon": 0.0, "lat": 38.9036405, "lon": -77.04527183333333, "bike_id": "ffe61342945d07992243314f7d68f96c", "rental_uris": {"android": "https://dc.lft.to/lastmile_qr_scan", "ios": "https://dc.lft.to/lastmile_qr_scan"}, "fusion_lat": 0.0, "name": "ffe61342945d07992243314f7d68f96c", "is_reserved": 0, "is_disabled": 0, "type": "electric_scooter"}, {"fusion_lon": 0.0, "lat": 38.98908566666667, "lon": -77.10106133333333, "bike_id": "097d224cdd91a2f998b3e64278bf638e", "rental_uris": {"android": "https://dc.lft.to/lastmile_qr_scan", "ios": "https://dc.lft.to/lastmile_qr_scan"}, "fusion_lat": 0.0, "name": "097d224cdd91a2f998b3e64278bf638e", "is_reserved": 0, "is_disabled": 0, "type": "electric_bike"}, {"fusion_lon": 0.0, "lat": 38.90188633333333, "lon": -77.05900883333334, "bike_id": "63af6221dd823ef7f04a04cefcbcf19d", "rental_uris": {"android": "https://dc.lft.to/lastmile_qr_scan", "ios": "https://dc.lft.to/lastmile_qr_scan"}, "fusion_lat": 0.0, "name": "63af6221dd823ef7f04a04cefcbcf19d", "is_reserved": 0, "is_disabled": 0, "type": "electric_scooter"}, {"fusion_lon": 0.0, "lat": 38.93424516666666, "lon": -77.03451233333334, "bike_id": "2a1032ad4a6effa037d91095e3334776", "rental_uris": {"android": "https://dc.lft.to/lastmile_qr_scan", "ios": "https://dc.lft.to/lastmile_qr_scan"}, "fusion_lat": 0.0, "name": "2a1032ad4a6effa037d91095e3334776", "is_reserved": 0, "is_disabled": 0, "type": "electric_scooter"}, {"fusion_lon": 0.0, "lat": 38.89361783333333, "lon": -77.02809, "bike_id": "f4f50c113a81f09b48468061205924ed", "rental_uris": {"android": "https://dc.lft.to/lastmile_qr_scan", "ios": "https://dc.lft.to/lastmile_qr_scan"}, "fusion_lat": 0.0, "name": "f4f50c113a81f09b48468061205924ed", "is_reserved": 0, "is_disabled": 0, "type": "electric_scooter"}, {"fusion_lon": 0.0, "lat": 38.90358033333333, "lon": -77.0194865, "bike_id": "353d60b3ebb348e8fcb613f3c04326f2", "rental_uris": {"android": "https://dc.lft.to/lastmile_qr_scan", "ios": "https://dc.lft.to/lastmile_qr_scan"}, "fusion_lat": 0.0, "name": "353d60b3ebb348e8fcb613f3c04326f2", "is_reserved": 0, "is_disabled": 0, "type": "electric_scooter"}, {"fusion_lon": 0.0, "lat": 38.90159033333333, "lon": -77.05061583333334, "bike_id": "74a6e9d14ea6ae344b60538be2225c2f", "rental_uris": {"android": "https://dc.lft.to/lastmile_qr_scan", "ios": "https://dc.lft.to/lastmile_qr_scan"}, "fusion_lat": 0.0, "name": "74a6e9d14ea6ae344b60538be2225c2f", "is_reserved": 0, "is_disabled": 0, "type": "electric_scooter"}, {"fusion_lon": 0.0, "lat": 38.922626, "lon": -77.03684416666667, "bike_id": "b5d9db8519ab92b5a8335db4542ad59b", "rental_uris": {"android": "https://dc.lft.to/lastmile_qr_scan", "ios": "https://dc.lft.to/lastmile_qr_scan"}, "fusion_lat": 0.0, "name": "b5d9db8519ab92b5a8335db4542ad59b", "is_reserved": 0, "is_disabled": 0, "type": "electric_scooter"}, {"fusion_lon": 0.0, "lat": 38.94415883333333, "lon": -77.05522866666666, "bike_id": "846831bea49b907dd81655af122f2fd9", "rental_uris": {"android": "https://dc.lft.to/lastmile_qr_scan", "ios": "https://dc.lft.to/lastmile_qr_scan"}, "fusion_lat": 0.0, "name": "846831bea49b907dd81655af122f2fd9", "is_reserved": 0, "is_disabled": 0, "type": "electric_scooter"}, {"fusion_lon": 0.0, "lat": 38.896245666666665, "lon": -77.03178083333333, "bike_id": "60975fa983952c5aec084e2480b399da", "rental_uris": {"android": "https://dc.lft.to/lastmile_qr_scan", "ios": "https://dc.lft.to/lastmile_qr_scan"}, "fusion_lat": 0.0, "name": "60975fa983952c5aec084e2480b399da", "is_reserved": 0, "is_disabled": 0, "type": "electric_scooter"}, {"fusion_lon": 0.0, "lat": 38.975202, "lon": -77.01691166666667, "bike_id": "aeafd9ff9c220c7867dcd2440f072dc2", "rental_uris": {"android": "https://dc.lft.to/lastmile_qr_scan", "ios": "https://dc.lft.to/lastmile_qr_scan"}, "fusion_lat": 0.0, "name": "aeafd9ff9c220c7867dcd2440f072dc2", "is_reserved": 0, "is_disabled": 0, "type": "electric_scooter"}, {"fusion_lon": 0.0, "lat": 38.90215883333333, "lon": -77.02371383333333, "bike_id": "57895d9a8692d22137476402c690703a", "rental_uris": {"android": "https://dc.lft.to/lastmile_qr_scan", "ios": "https://dc.lft.to/lastmile_qr_scan"}, "fusion_lat": 0.0, "name": "57895d9a8692d22137476402c690703a", "is_reserved": 0, "is_disabled": 0, "type": "electric_scooter"}, {"fusion_lon": 0.0, "lat": 38.88604183333333, "lon": -77.00284583333334, "bike_id": "d50bd6c1334a34c560bc06792da5b5c9", "rental_uris": {"android": "https://dc.lft.to/lastmile_qr_scan", "ios": "https://dc.lft.to/lastmile_qr_scan"}, "fusion_lat": 0.0, "name": "d50bd6c1334a34c560bc06792da5b5c9", "is_reserved": 0, "is_disabled": 0, "type": "electric_scooter"}, {"fusion_lon": 0.0, "lat": 38.895588333333336, "lon": -77.04678733333333, "bike_id": "acb81946bc0e8cee496850eb0e36cc24", "rental_uris": {"android": "https://dc.lft.to/lastmile_qr_scan", "ios": "https://dc.lft.to/lastmile_qr_scan"}, "fusion_lat": 0.0, "name": "acb81946bc0e8cee496850eb0e36cc24", "is_reserved": 0, "is_disabled": 0, "type": "electric_scooter"}, {"fusion_lon": 0.0, "lat": 38.92483216666667, "lon": -77.021635, "bike_id": "19fb2c86c0891677b7a172e6eb7ffd6d", "rental_uris": {"android": "https://dc.lft.to/lastmile_qr_scan", "ios": "https://dc.lft.to/lastmile_qr_scan"}, "fusion_lat": 0.0, "name": "19fb2c86c0891677b7a172e6eb7ffd6d", "is_reserved": 0, "is_disabled": 0, "type": "electric_scooter"}, {"fusion_lon": 0.0, "lat": 38.905601, "lon": -77.01575266666667, "bike_id": "f6ea3852af7ac6c7c859a5c2cdd79147", "rental_uris": {"android": "https://dc.lft.to/lastmile_qr_scan", "ios": "https://dc.lft.to/lastmile_qr_scan"}, "fusion_lat": 0.0, "name": "f6ea3852af7ac6c7c859a5c2cdd79147", "is_reserved": 0, "is_disabled": 0, "type": "electric_scooter"}, {"fusion_lon": 0.0, "lat": 39.08487616666667, "lon": -76.95046333333333, "bike_id": "b51c6ed979f4e709dbcb3f7c54beac3e", "rental_uris": {"android": "https://dc.lft.to/lastmile_qr_scan", "ios": "https://dc.lft.to/lastmile_qr_scan"}, "fusion_lat": 0.0, "name": "b51c6ed979f4e709dbcb3f7c54beac3e", "is_reserved": 0, "is_disabled": 0, "type": "electric_bike"}, {"fusion_lon": 0.0, "lat": 38.9006075, "lon": -77.0318005, "bike_id": "b8cf0b649418a97a2b4b0cc877dc4e31", "rental_uris": {"android": "https://dc.lft.to/lastmile_qr_scan", "ios": "https://dc.lft.to/lastmile_qr_scan"}, "fusion_lat": 0.0, "name": "b8cf0b649418a97a2b4b0cc877dc4e31", "is_reserved": 0, "is_disabled": 0, "type": "electric_scooter"}, {"fusion_lon": 0.0, "lat": 38.91296333333333, "lon": -77.04517033333333, "bike_id": "f4ad3a67795a9e30d4157de77a2fe37b", "rental_uris": {"android": "https://dc.lft.to/lastmile_qr_scan", "ios": "https://dc.lft.to/lastmile_qr_scan"}, "fusion_lat": 0.0, "name": "f4ad3a67795a9e30d4157de77a2fe37b", "is_reserved": 0, "is_disabled": 0, "type": "electric_scooter"}, {"fusion_lon": 0.0, "lat": 38.895931, "lon": -77.04809416666667, "bike_id": "a9f0a9e65b0ebf8d4a0c5a2ab1c9a770", "rental_uris": {"android": "https://dc.lft.to/lastmile_qr_scan", "ios": "https://dc.lft.to/lastmile_qr_scan"}, "fusion_lat": 0.0, "name": "a9f0a9e65b0ebf8d4a0c5a2ab1c9a770", "is_reserved": 0, "is_disabled": 0, "type": "electric_scooter"}, {"fusion_lon": 0.0, "lat": 38.8921415, "lon": -77.0464695, "bike_id": "365f200b100f1e638b86791c4477dc5c", "rental_uris": {"android": "https://dc.lft.to/lastmile_qr_scan", "ios": "https://dc.lft.to/lastmile_qr_scan"}, "fusion_lat": 0.0, "name": "365f200b100f1e638b86791c4477dc5c", "is_reserved": 0, "is_disabled": 0, "type": "electric_scooter"}, {"fusion_lon": 0.0, "lat": 38.89666283333333, "lon": -77.054722, "bike_id": "d9ae5ede23c0bd943d7a5be5a0425053", "rental_uris": {"android": "https://dc.lft.to/lastmile_qr_scan", "ios": "https://dc.lft.to/lastmile_qr_scan"}, "fusion_lat": 0.0, "name": "d9ae5ede23c0bd943d7a5be5a0425053", "is_reserved": 0, "is_disabled": 0, "type": "electric_scooter"}, {"fusion_lon": 0.0, "lat": 38.92886416666666, "lon": -77.03229883333333, "bike_id": "0c6a686ab51b5c8d80b20e440ed84b3e", "rental_uris": {"android": "https://dc.lft.to/lastmile_qr_scan", "ios": "https://dc.lft.to/lastmile_qr_scan"}, "fusion_lat": 0.0, "name": "0c6a686ab51b5c8d80b20e440ed84b3e", "is_reserved": 0, "is_disabled": 0, "type": "electric_scooter"}, {"fusion_lon": 0.0, "lat": 38.8870655, "lon": -77.02171983333334, "bike_id": "c31809de34b3d9230469f6e4b2c2b23f", "rental_uris": {"android": "https://dc.lft.to/lastmile_qr_scan", "ios": "https://dc.lft.to/lastmile_qr_scan"}, "fusion_lat": 0.0, "name": "c31809de34b3d9230469f6e4b2c2b23f", "is_reserved": 0, "is_disabled": 0, "type": "electric_scooter"}, {"fusion_lon": 0.0, "lat": 38.897086, "lon": -77.02446933333333, "bike_id": "33645442e2c857d5e2c85d884fbf1573", "rental_uris": {"android": "https://dc.lft.to/lastmile_qr_scan", "ios": "https://dc.lft.to/lastmile_qr_scan"}, "fusion_lat": 0.0, "name": "33645442e2c857d5e2c85d884fbf1573", "is_reserved": 0, "is_disabled": 0, "type": "electric_scooter"}, {"fusion_lon": 0.0, "lat": 38.91987966666667, "lon": -77.03264066666667, "bike_id": "60f1230dd31efa532d69a4b340272e01", "rental_uris": {"android": "https://dc.lft.to/lastmile_qr_scan", "ios": "https://dc.lft.to/lastmile_qr_scan"}, "fusion_lat": 0.0, "name": "60f1230dd31efa532d69a4b340272e01", "is_reserved": 0, "is_disabled": 0, "type": "electric_scooter"}, {"fusion_lon": 0.0, "lat": 38.913276833333335, "lon": -77.04536866666666, "bike_id": "8d90bc4ca6e36e7762c02ea3dc4904f6", "rental_uris": {"android": "https://dc.lft.to/lastmile_qr_scan", "ios": "https://dc.lft.to/lastmile_qr_scan"}, "fusion_lat": 0.0, "name": "8d90bc4ca6e36e7762c02ea3dc4904f6", "is_reserved": 0, "is_disabled": 0, "type": "electric_scooter"}, {"fusion_lon": 0.0, "lat": 38.916593166666665, "lon": -77.02813233333333, "bike_id": "66ba8db0fb0724242acf75adb89baa73", "rental_uris": {"android": "https://dc.lft.to/lastmile_qr_scan", "ios": "https://dc.lft.to/lastmile_qr_scan"}, "fusion_lat": 0.0, "name": "66ba8db0fb0724242acf75adb89baa73", "is_reserved": 0, "is_disabled": 0, "type": "electric_scooter"}, {"fusion_lon": 0.0, "lat": 38.90782866666667, "lon": -77.00972183333333, "bike_id": "9b46510415f487d0721cc8ccd6badddb", "rental_uris": {"android": "https://dc.lft.to/lastmile_qr_scan", "ios": "https://dc.lft.to/lastmile_qr_scan"}, "fusion_lat": 0.0, "name": "9b46510415f487d0721cc8ccd6badddb", "is_reserved": 0, "is_disabled": 0, "type": "electric_scooter"}, {"fusion_lon": 0.0, "lat": 38.92474283333333, "lon": -77.02278116666666, "bike_id": "cfcf3954f7b7633903ab1c7407ac28bc", "rental_uris": {"android": "https://dc.lft.to/lastmile_qr_scan", "ios": "https://dc.lft.to/lastmile_qr_scan"}, "fusion_lat": 0.0, "name": "cfcf3954f7b7633903ab1c7407ac28bc", "is_reserved": 0, "is_disabled": 0, "type": "electric_scooter"}, {"fusion_lon": 0.0, "lat": 38.90862516666667, "lon": -77.08601916666667, "bike_id": "4207579f931b43b805dda45059fc3b4a", "rental_uris": {"android": "https://dc.lft.to/lastmile_qr_scan", "ios": "https://dc.lft.to/lastmile_qr_scan"}, "fusion_lat": 0.0, "name": "4207579f931b43b805dda45059fc3b4a", "is_reserved": 0, "is_disabled": 0, "type": "electric_scooter"}, {"fusion_lon": 0.0, "lat": 38.896186, "lon": -76.90755616666667, "bike_id": "3686f75a03cdf42b1c1bcacec98a097b", "rental_uris": {"android": "https://dc.lft.to/lastmile_qr_scan", "ios": "https://dc.lft.to/lastmile_qr_scan"}, "fusion_lat": 0.0, "name": "3686f75a03cdf42b1c1bcacec98a097b", "is_reserved": 0, "is_disabled": 0, "type": "electric_bike"}, {"fusion_lon": 0.0, "lat": 38.917209666666665, "lon": -77.04162866666667, "bike_id": "f728a0136ce740a0680940c6be1a08c2", "rental_uris": {"android": "https://dc.lft.to/lastmile_qr_scan", "ios": "https://dc.lft.to/lastmile_qr_scan"}, "fusion_lat": 0.0, "name": "f728a0136ce740a0680940c6be1a08c2", "is_reserved": 0, "is_disabled": 0, "type": "electric_scooter"}, {"fusion_lon": 0.0, "lat": 38.92109516666667, "lon": -76.9857535, "bike_id": "a56d53874a86cbd2914c325ef84ad6da", "rental_uris": {"android": "https://dc.lft.to/lastmile_qr_scan", "ios": "https://dc.lft.to/lastmile_qr_scan"}, "fusion_lat": 0.0, "name": "a56d53874a86cbd2914c325ef84ad6da", "is_reserved": 0, "is_disabled": 0, "type": "electric_scooter"}, {"fusion_lon": 0.0, "lat": 38.89908783333333, "lon": -77.03338866666667, "bike_id": "0b5374b91a5aee392ccae14ec192f828", "rental_uris": {"android": "https://dc.lft.to/lastmile_qr_scan", "ios": "https://dc.lft.to/lastmile_qr_scan"}, "fusion_lat": 0.0, "name": "0b5374b91a5aee392ccae14ec192f828", "is_reserved": 0, "is_disabled": 0, "type": "electric_scooter"}, {"fusion_lon": 0.0, "lat": 38.9180385, "lon": -77.03444983333333, "bike_id": "6e534a80e1c5469d0e429b109e4a2b3b", "rental_uris": {"android": "https://dc.lft.to/lastmile_qr_scan", "ios": "https://dc.lft.to/lastmile_qr_scan"}, "fusion_lat": 0.0, "name": "6e534a80e1c5469d0e429b109e4a2b3b", "is_reserved": 0, "is_disabled": 0, "type": "electric_scooter"}, {"fusion_lon": 0.0, "lat": 38.905822666666666, "lon": -77.002658, "bike_id": "175f03520d582843ccb5dfead0c78435", "rental_uris": {"android": "https://dc.lft.to/lastmile_qr_scan", "ios": "https://dc.lft.to/lastmile_qr_scan"}, "fusion_lat": 0.0, "name": "175f03520d582843ccb5dfead0c78435", "is_reserved": 0, "is_disabled": 0, "type": "electric_scooter"}, {"fusion_lon": 0.0, "lat": 38.90036966666667, "lon": -76.98836783333333, "bike_id": "47e2fc175d4699c8781af214b8ff7078", "rental_uris": {"android": "https://dc.lft.to/lastmile_qr_scan", "ios": "https://dc.lft.to/lastmile_qr_scan"}, "fusion_lat": 0.0, "name": "47e2fc175d4699c8781af214b8ff7078", "is_reserved": 0, "is_disabled": 0, "type": "electric_scooter"}, {"fusion_lon": 0.0, "lat": 38.92932183333333, "lon": -77.0067735, "bike_id": "7ffed7bd28b3b14f6521118ad0f0135c", "rental_uris": {"android": "https://dc.lft.to/lastmile_qr_scan", "ios": "https://dc.lft.to/lastmile_qr_scan"}, "fusion_lat": 0.0, "name": "7ffed7bd28b3b14f6521118ad0f0135c", "is_reserved": 0, "is_disabled": 0, "type": "electric_scooter"}, {"fusion_lon": 0.0, "lat": 38.89740833333333, "lon": -77.0127445, "bike_id": "329327cfb9ef57be6276ecb9c7570490", "rental_uris": {"android": "https://dc.lft.to/lastmile_qr_scan", "ios": "https://dc.lft.to/lastmile_qr_scan"}, "fusion_lat": 0.0, "name": "329327cfb9ef57be6276ecb9c7570490", "is_reserved": 0, "is_disabled": 0, "type": "electric_scooter"}, {"fusion_lon": 0.0, "lat": 38.907825, "lon": -77.00209166666667, "bike_id": "6f3a8881f7bf6c5c0e52d0b33f3427b5", "rental_uris": {"android": "https://dc.lft.to/lastmile_qr_scan", "ios": "https://dc.lft.to/lastmile_qr_scan"}, "fusion_lat": 0.0, "name": "6f3a8881f7bf6c5c0e52d0b33f3427b5", "is_reserved": 0, "is_disabled": 0, "type": "electric_scooter"}, {"fusion_lon": 0.0, "lat": 38.92859933333333, "lon": -77.03720616666666, "bike_id": "820fce9c015088c72191f3c090469a13", "rental_uris": {"android": "https://dc.lft.to/lastmile_qr_scan", "ios": "https://dc.lft.to/lastmile_qr_scan"}, "fusion_lat": 0.0, "name": "820fce9c015088c72191f3c090469a13", "is_reserved": 0, "is_disabled": 0, "type": "electric_scooter"}, {"fusion_lon": 0.0, "lat": 38.9111165, "lon": -77.03296366666666, "bike_id": "1db48ec83062e8dabb4dbe509df4ddac", "rental_uris": {"android": "https://dc.lft.to/lastmile_qr_scan", "ios": "https://dc.lft.to/lastmile_qr_scan"}, "fusion_lat": 0.0, "name": "1db48ec83062e8dabb4dbe509df4ddac", "is_reserved": 0, "is_disabled": 0, "type": "electric_scooter"}, {"fusion_lon": 0.0, "lat": 38.934568166666665, "lon": -77.0581475, "bike_id": "5fec1d9727a17980aacd80769a00320f", "rental_uris": {"android": "https://dc.lft.to/lastmile_qr_scan", "ios": "https://dc.lft.to/lastmile_qr_scan"}, "fusion_lat": 0.0, "name": "5fec1d9727a17980aacd80769a00320f", "is_reserved": 0, "is_disabled": 0, "type": "electric_scooter"}, {"fusion_lon": 0.0, "lat": 38.89223283333333, "lon": -77.04504816666666, "bike_id": "66986abe4c2eb4e8e56895868f714a4f", "rental_uris": {"android": "https://dc.lft.to/lastmile_qr_scan", "ios": "https://dc.lft.to/lastmile_qr_scan"}, "fusion_lat": 0.0, "name": "66986abe4c2eb4e8e56895868f714a4f", "is_reserved": 0, "is_disabled": 0, "type": "electric_scooter"}, {"fusion_lon": 0.0, "lat": 38.88011083333333, "lon": -77.00581033333333, "bike_id": "08171961deb31ebc027854628ec3a728", "rental_uris": {"android": "https://dc.lft.to/lastmile_qr_scan", "ios": "https://dc.lft.to/lastmile_qr_scan"}, "fusion_lat": 0.0, "name": "08171961deb31ebc027854628ec3a728", "is_reserved": 0, "is_disabled": 0, "type": "electric_scooter"}, {"fusion_lon": 0.0, "lat": 38.915116, "lon": -77.04502966666666, "bike_id": "f7785592074c4d76b8850e6590f3bc9b", "rental_uris": {"android": "https://dc.lft.to/lastmile_qr_scan", "ios": "https://dc.lft.to/lastmile_qr_scan"}, "fusion_lat": 0.0, "name": "f7785592074c4d76b8850e6590f3bc9b", "is_reserved": 0, "is_disabled": 0, "type": "electric_scooter"}, {"fusion_lon": 0.0, "lat": 38.897428, "lon": -77.02686483333333, "bike_id": "e0fd43fa0a4ed61e39f29207dc1f01ad", "rental_uris": {"android": "https://dc.lft.to/lastmile_qr_scan", "ios": "https://dc.lft.to/lastmile_qr_scan"}, "fusion_lat": 0.0, "name": "e0fd43fa0a4ed61e39f29207dc1f01ad", "is_reserved": 0, "is_disabled": 0, "type": "electric_scooter"}, {"fusion_lon": 0.0, "lat": 38.9093435, "lon": -77.0331395, "bike_id": "c14b35eceef0ec8fcce312ff21232fd7", "rental_uris": {"android": "https://dc.lft.to/lastmile_qr_scan", "ios": "https://dc.lft.to/lastmile_qr_scan"}, "fusion_lat": 0.0, "name": "c14b35eceef0ec8fcce312ff21232fd7", "is_reserved": 0, "is_disabled": 0, "type": "electric_scooter"}, {"fusion_lon": 0.0, "lat": 38.923323833333335, "lon": -77.04417533333333, "bike_id": "0403105c5ac11be37160156c4e4ff321", "rental_uris": {"android": "https://dc.lft.to/lastmile_qr_scan", "ios": "https://dc.lft.to/lastmile_qr_scan"}, "fusion_lat": 0.0, "name": "0403105c5ac11be37160156c4e4ff321", "is_reserved": 0, "is_disabled": 0, "type": "electric_scooter"}, {"fusion_lon": 0.0, "lat": 38.88773233333333, "lon": -77.00197966666667, "bike_id": "f8b1d78bf616e1fd2dd38c92f9a041ec", "rental_uris": {"android": "https://dc.lft.to/lastmile_qr_scan", "ios": "https://dc.lft.to/lastmile_qr_scan"}, "fusion_lat": 0.0, "name": "f8b1d78bf616e1fd2dd38c92f9a041ec", "is_reserved": 0, "is_disabled": 0, "type": "electric_scooter"}, {"fusion_lon": 0.0, "lat": 38.89899166666667, "lon": -76.98833283333333, "bike_id": "dbf2dfc9c01917606fa42ca8728346c2", "rental_uris": {"android": "https://dc.lft.to/lastmile_qr_scan", "ios": "https://dc.lft.to/lastmile_qr_scan"}, "fusion_lat": 0.0, "name": "dbf2dfc9c01917606fa42ca8728346c2", "is_reserved": 0, "is_disabled": 0, "type": "electric_scooter"}, {"fusion_lon": 0.0, "lat": 38.91242366666667, "lon": -77.0012225, "bike_id": "d5e5b8bc8a7c1d8203ceb15e990b1732", "rental_uris": {"android": "https://dc.lft.to/lastmile_qr_scan", "ios": "https://dc.lft.to/lastmile_qr_scan"}, "fusion_lat": 0.0, "name": "d5e5b8bc8a7c1d8203ceb15e990b1732", "is_reserved": 0, "is_disabled": 0, "type": "electric_scooter"}, {"fusion_lon": 0.0, "lat": 38.8997265, "lon": -77.04200783333333, "bike_id": "87d5963b452b5f968bb8160acce9675d", "rental_uris": {"android": "https://dc.lft.to/lastmile_qr_scan", "ios": "https://dc.lft.to/lastmile_qr_scan"}, "fusion_lat": 0.0, "name": "87d5963b452b5f968bb8160acce9675d", "is_reserved": 0, "is_disabled": 0, "type": "electric_scooter"}, {"fusion_lon": 0.0, "lat": 38.892178333333334, "lon": -77.0413615, "bike_id": "49f960e5937bf83872728b4a04f450d6", "rental_uris": {"android": "https://dc.lft.to/lastmile_qr_scan", "ios": "https://dc.lft.to/lastmile_qr_scan"}, "fusion_lat": 0.0, "name": "49f960e5937bf83872728b4a04f450d6", "is_reserved": 0, "is_disabled": 0, "type": "electric_scooter"}, {"fusion_lon": 0.0, "lat": 38.909444, "lon": -77.0240085, "bike_id": "8ce7e22921255ae1469ec2c64907eafc", "rental_uris": {"android": "https://dc.lft.to/lastmile_qr_scan", "ios": "https://dc.lft.to/lastmile_qr_scan"}, "fusion_lat": 0.0, "name": "8ce7e22921255ae1469ec2c64907eafc", "is_reserved": 0, "is_disabled": 0, "type": "electric_scooter"}, {"fusion_lon": 0.0, "lat": 38.901805833333334, "lon": -77.036413, "bike_id": "c13ab27383989fd6aba2537fdbca9ef3", "rental_uris": {"android": "https://dc.lft.to/lastmile_qr_scan", "ios": "https://dc.lft.to/lastmile_qr_scan"}, "fusion_lat": 0.0, "name": "c13ab27383989fd6aba2537fdbca9ef3", "is_reserved": 0, "is_disabled": 0, "type": "electric_scooter"}, {"fusion_lon": 0.0, "lat": 38.900219666666665, "lon": -77.043744, "bike_id": "e42e42d8fa9ae12cda5fc32fc286f058", "rental_uris": {"android": "https://dc.lft.to/lastmile_qr_scan", "ios": "https://dc.lft.to/lastmile_qr_scan"}, "fusion_lat": 0.0, "name": "e42e42d8fa9ae12cda5fc32fc286f058", "is_reserved": 0, "is_disabled": 0, "type": "electric_scooter"}, {"fusion_lon": 0.0, "lat": 38.919753, "lon": -77.02761766666667, "bike_id": "2394022fa999838ffe601570cc297de4", "rental_uris": {"android": "https://dc.lft.to/lastmile_qr_scan", "ios": "https://dc.lft.to/lastmile_qr_scan"}, "fusion_lat": 0.0, "name": "2394022fa999838ffe601570cc297de4", "is_reserved": 0, "is_disabled": 0, "type": "electric_scooter"}, {"fusion_lon": 0.0, "lat": 38.907835166666665, "lon": -77.01083033333333, "bike_id": "3bf80ba2958d44cf971e083cf87a8163", "rental_uris": {"android": "https://dc.lft.to/lastmile_qr_scan", "ios": "https://dc.lft.to/lastmile_qr_scan"}, "fusion_lat": 0.0, "name": "3bf80ba2958d44cf971e083cf87a8163", "is_reserved": 0, "is_disabled": 0, "type": "electric_scooter"}, {"fusion_lon": 0.0, "lat": 38.854352, "lon": -76.97163233333333, "bike_id": "828cc3fa6a493335a2b3c0c511ccd71b", "rental_uris": {"android": "https://dc.lft.to/lastmile_qr_scan", "ios": "https://dc.lft.to/lastmile_qr_scan"}, "fusion_lat": 0.0, "name": "828cc3fa6a493335a2b3c0c511ccd71b", "is_reserved": 0, "is_disabled": 0, "type": "electric_scooter"}, {"fusion_lon": 0.0, "lat": 38.91941, "lon": -77.03201183333333, "bike_id": "f2ecc03468099046b7ab5fcd34e87f5f", "rental_uris": {"android": "https://dc.lft.to/lastmile_qr_scan", "ios": "https://dc.lft.to/lastmile_qr_scan"}, "fusion_lat": 0.0, "name": "f2ecc03468099046b7ab5fcd34e87f5f", "is_reserved": 0, "is_disabled": 0, "type": "electric_scooter"}, {"fusion_lon": 0.0, "lat": 38.91686, "lon": -77.03195433333333, "bike_id": "2cf3b3e0e66feab464b62f669edb9269", "rental_uris": {"android": "https://dc.lft.to/lastmile_qr_scan", "ios": "https://dc.lft.to/lastmile_qr_scan"}, "fusion_lat": 0.0, "name": "2cf3b3e0e66feab464b62f669edb9269", "is_reserved": 0, "is_disabled": 0, "type": "electric_scooter"}, {"fusion_lon": 0.0, "lat": 38.90168416666667, "lon": -76.97692966666666, "bike_id": "b17a48d96184de71d237ec9abd9705fb", "rental_uris": {"android": "https://dc.lft.to/lastmile_qr_scan", "ios": "https://dc.lft.to/lastmile_qr_scan"}, "fusion_lat": 0.0, "name": "b17a48d96184de71d237ec9abd9705fb", "is_reserved": 0, "is_disabled": 0, "type": "electric_bike"}, {"fusion_lon": 0.0, "lat": 38.899866833333334, "lon": -77.02098683333334, "bike_id": "d2f2e269151d8c3daef5f20e4683073d", "rental_uris": {"android": "https://dc.lft.to/lastmile_qr_scan", "ios": "https://dc.lft.to/lastmile_qr_scan"}, "fusion_lat": 0.0, "name": "d2f2e269151d8c3daef5f20e4683073d", "is_reserved": 0, "is_disabled": 0, "type": "electric_scooter"}, {"fusion_lon": 0.0, "lat": 38.905632833333335, "lon": -77.0059175, "bike_id": "2c1befd1f73887afadad697abd2daf7c", "rental_uris": {"android": "https://dc.lft.to/lastmile_qr_scan", "ios": "https://dc.lft.to/lastmile_qr_scan"}, "fusion_lat": 0.0, "name": "2c1befd1f73887afadad697abd2daf7c", "is_reserved": 0, "is_disabled": 0, "type": "electric_scooter"}, {"fusion_lon": 0.0, "lat": 38.90379383333333, "lon": -77.04221666666666, "bike_id": "ca568e9cd83ca6e3ef83b3bda0425751", "rental_uris": {"android": "https://dc.lft.to/lastmile_qr_scan", "ios": "https://dc.lft.to/lastmile_qr_scan"}, "fusion_lat": 0.0, "name": "ca568e9cd83ca6e3ef83b3bda0425751", "is_reserved": 0, "is_disabled": 0, "type": "electric_scooter"}, {"fusion_lon": 0.0, "lat": 38.903868333333335, "lon": -77.0630385, "bike_id": "8fb72df3cbceabb7d68112786796ae1a", "rental_uris": {"android": "https://dc.lft.to/lastmile_qr_scan", "ios": "https://dc.lft.to/lastmile_qr_scan"}, "fusion_lat": 0.0, "name": "8fb72df3cbceabb7d68112786796ae1a", "is_reserved": 0, "is_disabled": 0, "type": "electric_scooter"}, {"fusion_lon": 0.0, "lat": 38.89218966666667, "lon": -77.04366683333333, "bike_id": "c94b5ff01529f1fb3c0562e40200d1cf", "rental_uris": {"android": "https://dc.lft.to/lastmile_qr_scan", "ios": "https://dc.lft.to/lastmile_qr_scan"}, "fusion_lat": 0.0, "name": "c94b5ff01529f1fb3c0562e40200d1cf", "is_reserved": 0, "is_disabled": 0, "type": "electric_scooter"}, {"fusion_lon": 0.0, "lat": 38.915654, "lon": -77.03186183333334, "bike_id": "a04d4d9e901347f4ee23a5c4c4fbd4a7", "rental_uris": {"android": "https://dc.lft.to/lastmile_qr_scan", "ios": "https://dc.lft.to/lastmile_qr_scan"}, "fusion_lat": 0.0, "name": "a04d4d9e901347f4ee23a5c4c4fbd4a7", "is_reserved": 0, "is_disabled": 0, "type": "electric_scooter"}, {"fusion_lon": 0.0, "lat": 38.9199445, "lon": -76.9839775, "bike_id": "cc877be03cd18504796a9c83f8d6e7b4", "rental_uris": {"android": "https://dc.lft.to/lastmile_qr_scan", "ios": "https://dc.lft.to/lastmile_qr_scan"}, "fusion_lat": 0.0, "name": "cc877be03cd18504796a9c83f8d6e7b4", "is_reserved": 0, "is_disabled": 0, "type": "electric_scooter"}, {"fusion_lon": 0.0, "lat": 38.90389016666666, "lon": -76.98099383333333, "bike_id": "fe554cdf64bdc7f9198cd62cf97577ac", "rental_uris": {"android": "https://dc.lft.to/lastmile_qr_scan", "ios": "https://dc.lft.to/lastmile_qr_scan"}, "fusion_lat": 0.0, "name": "fe554cdf64bdc7f9198cd62cf97577ac", "is_reserved": 0, "is_disabled": 0, "type": "electric_scooter"}, {"fusion_lon": 0.0, "lat": 38.880003, "lon": -76.98547866666667, "bike_id": "e2edcc6544b85814928b9dd775fe795a", "rental_uris": {"android": "https://dc.lft.to/lastmile_qr_scan", "ios": "https://dc.lft.to/lastmile_qr_scan"}, "fusion_lat": 0.0, "name": "e2edcc6544b85814928b9dd775fe795a", "is_reserved": 0, "is_disabled": 0, "type": "electric_scooter"}, {"fusion_lon": 0.0, "lat": 38.89218016666667, "lon": -77.032251, "bike_id": "3ae545bac84daa5b148abd6843167454", "rental_uris": {"android": "https://dc.lft.to/lastmile_qr_scan", "ios": "https://dc.lft.to/lastmile_qr_scan"}, "fusion_lat": 0.0, "name": "3ae545bac84daa5b148abd6843167454", "is_reserved": 0, "is_disabled": 0, "type": "electric_scooter"}, {"fusion_lon": 0.0, "lat": 38.91127766666666, "lon": -77.04419733333333, "bike_id": "cbae0721ac704775671ce929d7970201", "rental_uris": {"android": "https://dc.lft.to/lastmile_qr_scan", "ios": "https://dc.lft.to/lastmile_qr_scan"}, "fusion_lat": 0.0, "name": "cbae0721ac704775671ce929d7970201", "is_reserved": 0, "is_disabled": 0, "type": "electric_scooter"}, {"fusion_lon": 0.0, "lat": 38.899215833333336, "lon": -77.02942, "bike_id": "d052eba530d63a1d638fdec13375a961", "rental_uris": {"android": "https://dc.lft.to/lastmile_qr_scan", "ios": "https://dc.lft.to/lastmile_qr_scan"}, "fusion_lat": 0.0, "name": "d052eba530d63a1d638fdec13375a961", "is_reserved": 0, "is_disabled": 0, "type": "electric_scooter"}, {"fusion_lon": 0.0, "lat": 38.93539633333333, "lon": -77.0730655, "bike_id": "50da3a686805b29a59223fb22bc7e42e", "rental_uris": {"android": "https://dc.lft.to/lastmile_qr_scan", "ios": "https://dc.lft.to/lastmile_qr_scan"}, "fusion_lat": 0.0, "name": "50da3a686805b29a59223fb22bc7e42e", "is_reserved": 0, "is_disabled": 0, "type": "electric_scooter"}, {"fusion_lon": 0.0, "lat": 38.92501983333333, "lon": -77.0258145, "bike_id": "a95ad5d7277b3f36a7330ff4dcf1d513", "rental_uris": {"android": "https://dc.lft.to/lastmile_qr_scan", "ios": "https://dc.lft.to/lastmile_qr_scan"}, "fusion_lat": 0.0, "name": "a95ad5d7277b3f36a7330ff4dcf1d513", "is_reserved": 0, "is_disabled": 0, "type": "electric_scooter"}, {"fusion_lon": 0.0, "lat": 38.95598183333333, "lon": -76.96479283333333, "bike_id": "01c03a8c9bc4654af92b1aec82ee6cb3", "rental_uris": {"android": "https://dc.lft.to/lastmile_qr_scan", "ios": "https://dc.lft.to/lastmile_qr_scan"}, "fusion_lat": 0.0, "name": "01c03a8c9bc4654af92b1aec82ee6cb3", "is_reserved": 0, "is_disabled": 0, "type": "electric_bike"}, {"fusion_lon": 0.0, "lat": 38.924423166666664, "lon": -77.04032166666667, "bike_id": "1120e374c820919b156776ecabe5250a", "rental_uris": {"android": "https://dc.lft.to/lastmile_qr_scan", "ios": "https://dc.lft.to/lastmile_qr_scan"}, "fusion_lat": 0.0, "name": "1120e374c820919b156776ecabe5250a", "is_reserved": 0, "is_disabled": 0, "type": "electric_scooter"}, {"fusion_lon": 0.0, "lat": 38.887931, "lon": -76.95339583333333, "bike_id": "0a15724f8fa7a508830edb17c20162f3", "rental_uris": {"android": "https://dc.lft.to/lastmile_qr_scan", "ios": "https://dc.lft.to/lastmile_qr_scan"}, "fusion_lat": 0.0, "name": "0a15724f8fa7a508830edb17c20162f3", "is_reserved": 0, "is_disabled": 0, "type": "electric_scooter"}, {"fusion_lon": 0.0, "lat": 38.89741166666667, "lon": -77.0250025, "bike_id": "c7d968bdadd7c7928a508412a95cdd49", "rental_uris": {"android": "https://dc.lft.to/lastmile_qr_scan", "ios": "https://dc.lft.to/lastmile_qr_scan"}, "fusion_lat": 0.0, "name": "c7d968bdadd7c7928a508412a95cdd49", "is_reserved": 0, "is_disabled": 0, "type": "electric_scooter"}, {"fusion_lon": 0.0, "lat": 38.905221833333336, "lon": -77.0610175, "bike_id": "f8ad9cebe5ceadd5527722e76bd6e555", "rental_uris": {"android": "https://dc.lft.to/lastmile_qr_scan", "ios": "https://dc.lft.to/lastmile_qr_scan"}, "fusion_lat": 0.0, "name": "f8ad9cebe5ceadd5527722e76bd6e555", "is_reserved": 0, "is_disabled": 0, "type": "electric_scooter"}, {"fusion_lon": 0.0, "lat": 38.9092175, "lon": -77.02306816666666, "bike_id": "e957a7d21ba4d77048cb0f863ad2c8e6", "rental_uris": {"android": "https://dc.lft.to/lastmile_qr_scan", "ios": "https://dc.lft.to/lastmile_qr_scan"}, "fusion_lat": 0.0, "name": "e957a7d21ba4d77048cb0f863ad2c8e6", "is_reserved": 0, "is_disabled": 0, "type": "electric_scooter"}, {"fusion_lon": 0.0, "lat": 38.9001255, "lon": -76.99175366666667, "bike_id": "9217fbc5a73dee61bca07d496b0b4c42", "rental_uris": {"android": "https://dc.lft.to/lastmile_qr_scan", "ios": "https://dc.lft.to/lastmile_qr_scan"}, "fusion_lat": 0.0, "name": "9217fbc5a73dee61bca07d496b0b4c42", "is_reserved": 0, "is_disabled": 0, "type": "electric_scooter"}, {"fusion_lon": 0.0, "lat": 38.901398, "lon": -76.98960416666667, "bike_id": "48b715d57acb218542c063aa46edb8b6", "rental_uris": {"android": "https://dc.lft.to/lastmile_qr_scan", "ios": "https://dc.lft.to/lastmile_qr_scan"}, "fusion_lat": 0.0, "name": "48b715d57acb218542c063aa46edb8b6", "is_reserved": 0, "is_disabled": 0, "type": "electric_scooter"}, {"fusion_lon": 0.0, "lat": 38.9042875, "lon": -77.03437433333333, "bike_id": "1287bffc3109d972edd68e5e33b34959", "rental_uris": {"android": "https://dc.lft.to/lastmile_qr_scan", "ios": "https://dc.lft.to/lastmile_qr_scan"}, "fusion_lat": 0.0, "name": "1287bffc3109d972edd68e5e33b34959", "is_reserved": 0, "is_disabled": 0, "type": "electric_scooter"}, {"fusion_lon": 0.0, "lat": 38.89949716666667, "lon": -77.03357283333334, "bike_id": "5d0d58a217b80f825447369b967b343d", "rental_uris": {"android": "https://dc.lft.to/lastmile_qr_scan", "ios": "https://dc.lft.to/lastmile_qr_scan"}, "fusion_lat": 0.0, "name": "5d0d58a217b80f825447369b967b343d", "is_reserved": 0, "is_disabled": 0, "type": "electric_scooter"}, {"fusion_lon": 0.0, "lat": 38.900411, "lon": -77.050079, "bike_id": "a2dfedec33882ef1ab3fdf59a09e4f45", "rental_uris": {"android": "https://dc.lft.to/lastmile_qr_scan", "ios": "https://dc.lft.to/lastmile_qr_scan"}, "fusion_lat": 0.0, "name": "a2dfedec33882ef1ab3fdf59a09e4f45", "is_reserved": 0, "is_disabled": 0, "type": "electric_scooter"}, {"fusion_lon": 0.0, "lat": 38.877948333333336, "lon": -77.019621, "bike_id": "968382bbc40e7639b7b5ceec32df987b", "rental_uris": {"android": "https://dc.lft.to/lastmile_qr_scan", "ios": "https://dc.lft.to/lastmile_qr_scan"}, "fusion_lat": 0.0, "name": "968382bbc40e7639b7b5ceec32df987b", "is_reserved": 0, "is_disabled": 0, "type": "electric_bike"}, {"fusion_lon": 0.0, "lat": 38.911090333333334, "lon": -77.0452225, "bike_id": "e7a093c151add181a7ea074abd5e60af", "rental_uris": {"android": "https://dc.lft.to/lastmile_qr_scan", "ios": "https://dc.lft.to/lastmile_qr_scan"}, "fusion_lat": 0.0, "name": "e7a093c151add181a7ea074abd5e60af", "is_reserved": 0, "is_disabled": 0, "type": "electric_scooter"}, {"fusion_lon": 0.0, "lat": 38.88492983333333, "lon": -77.00711716666666, "bike_id": "5e8a361235a6d84dc419e6a433979ea3", "rental_uris": {"android": "https://dc.lft.to/lastmile_qr_scan", "ios": "https://dc.lft.to/lastmile_qr_scan"}, "fusion_lat": 0.0, "name": "5e8a361235a6d84dc419e6a433979ea3", "is_reserved": 0, "is_disabled": 0, "type": "electric_scooter"}, {"fusion_lon": 0.0, "lat": 38.903746166666664, "lon": -77.06862833333334, "bike_id": "ab1ead56ce39cd350802803216ecc74e", "rental_uris": {"android": "https://dc.lft.to/lastmile_qr_scan", "ios": "https://dc.lft.to/lastmile_qr_scan"}, "fusion_lat": 0.0, "name": "ab1ead56ce39cd350802803216ecc74e", "is_reserved": 0, "is_disabled": 0, "type": "electric_scooter"}, {"fusion_lon": 0.0, "lat": 38.938134166666664, "lon": -77.0599235, "bike_id": "65f12a56b83ed03e6c95a30a0fced95d", "rental_uris": {"android": "https://dc.lft.to/lastmile_qr_scan", "ios": "https://dc.lft.to/lastmile_qr_scan"}, "fusion_lat": 0.0, "name": "65f12a56b83ed03e6c95a30a0fced95d", "is_reserved": 0, "is_disabled": 0, "type": "electric_scooter"}, {"fusion_lon": 0.0, "lat": 38.927575, "lon": -77.032075, "bike_id": "e7ac065acd7bd881e78535b8d7a5ef28", "rental_uris": {"android": "https://dc.lft.to/lastmile_qr_scan", "ios": "https://dc.lft.to/lastmile_qr_scan"}, "fusion_lat": 0.0, "name": "e7ac065acd7bd881e78535b8d7a5ef28", "is_reserved": 0, "is_disabled": 0, "type": "electric_scooter"}, {"fusion_lon": 0.0, "lat": 38.90338333333333, "lon": -76.9827295, "bike_id": "042e7ea1f1448fbe368523a2cacc9845", "rental_uris": {"android": "https://dc.lft.to/lastmile_qr_scan", "ios": "https://dc.lft.to/lastmile_qr_scan"}, "fusion_lat": 0.0, "name": "042e7ea1f1448fbe368523a2cacc9845", "is_reserved": 0, "is_disabled": 0, "type": "electric_scooter"}, {"fusion_lon": 0.0, "lat": 38.88739916666667, "lon": -77.02576416666666, "bike_id": "b63e3ff3700b71ceee6a97db0bbfafb1", "rental_uris": {"android": "https://dc.lft.to/lastmile_qr_scan", "ios": "https://dc.lft.to/lastmile_qr_scan"}, "fusion_lat": 0.0, "name": "b63e3ff3700b71ceee6a97db0bbfafb1", "is_reserved": 0, "is_disabled": 0, "type": "electric_scooter"}, {"fusion_lon": 0.0, "lat": 38.89253016666667, "lon": -77.002209, "bike_id": "91fe2323e9b6e5d27b29500f349ca2e5", "rental_uris": {"android": "https://dc.lft.to/lastmile_qr_scan", "ios": "https://dc.lft.to/lastmile_qr_scan"}, "fusion_lat": 0.0, "name": "91fe2323e9b6e5d27b29500f349ca2e5", "is_reserved": 0, "is_disabled": 0, "type": "electric_scooter"}, {"fusion_lon": 0.0, "lat": 38.900415333333335, "lon": -77.04331783333333, "bike_id": "77003f95b65cd40c80d77741e5ac6cbc", "rental_uris": {"android": "https://dc.lft.to/lastmile_qr_scan", "ios": "https://dc.lft.to/lastmile_qr_scan"}, "fusion_lat": 0.0, "name": "77003f95b65cd40c80d77741e5ac6cbc", "is_reserved": 0, "is_disabled": 0, "type": "electric_scooter"}, {"fusion_lon": 0.0, "lat": 38.89719516666667, "lon": -77.0321485, "bike_id": "955a02a43f1d6ccdb844100ffa2949c6", "rental_uris": {"android": "https://dc.lft.to/lastmile_qr_scan", "ios": "https://dc.lft.to/lastmile_qr_scan"}, "fusion_lat": 0.0, "name": "955a02a43f1d6ccdb844100ffa2949c6", "is_reserved": 0, "is_disabled": 0, "type": "electric_scooter"}, {"fusion_lon": 0.0, "lat": 38.89214883333333, "lon": -77.04370266666666, "bike_id": "5b0fffdd9c9dabaf822e9d4f50a671c3", "rental_uris": {"android": "https://dc.lft.to/lastmile_qr_scan", "ios": "https://dc.lft.to/lastmile_qr_scan"}, "fusion_lat": 0.0, "name": "5b0fffdd9c9dabaf822e9d4f50a671c3", "is_reserved": 0, "is_disabled": 0, "type": "electric_scooter"}, {"fusion_lon": 0.0, "lat": 38.887495, "lon": -77.00265183333333, "bike_id": "7822b45aa66065efbcb4d38d122756be", "rental_uris": {"android": "https://dc.lft.to/lastmile_qr_scan", "ios": "https://dc.lft.to/lastmile_qr_scan"}, "fusion_lat": 0.0, "name": "7822b45aa66065efbcb4d38d122756be", "is_reserved": 0, "is_disabled": 0, "type": "electric_scooter"}, {"fusion_lon": 0.0, "lat": 38.92369716666666, "lon": -77.01964966666667, "bike_id": "0c0e7df7f315c8bc25c0b6186b3abda5", "rental_uris": {"android": "https://dc.lft.to/lastmile_qr_scan", "ios": "https://dc.lft.to/lastmile_qr_scan"}, "fusion_lat": 0.0, "name": "0c0e7df7f315c8bc25c0b6186b3abda5", "is_reserved": 0, "is_disabled": 0, "type": "electric_scooter"}, {"fusion_lon": 0.0, "lat": 38.915079666666664, "lon": -77.00623933333334, "bike_id": "cdf298452e8e13cd4558ae7a09ed6f4e", "rental_uris": {"android": "https://dc.lft.to/lastmile_qr_scan", "ios": "https://dc.lft.to/lastmile_qr_scan"}, "fusion_lat": 0.0, "name": "cdf298452e8e13cd4558ae7a09ed6f4e", "is_reserved": 0, "is_disabled": 0, "type": "electric_scooter"}, {"fusion_lon": 0.0, "lat": 38.92610583333333, "lon": -77.02165666666667, "bike_id": "0fb46db4a67d23f056c1f44e2df51c84", "rental_uris": {"android": "https://dc.lft.to/lastmile_qr_scan", "ios": "https://dc.lft.to/lastmile_qr_scan"}, "fusion_lat": 0.0, "name": "0fb46db4a67d23f056c1f44e2df51c84", "is_reserved": 0, "is_disabled": 0, "type": "electric_scooter"}, {"fusion_lon": 0.0, "lat": 38.905239, "lon": -77.02205916666666, "bike_id": "8cb3459b6b7db534f26e1b065e7d7b26", "rental_uris": {"android": "https://dc.lft.to/lastmile_qr_scan", "ios": "https://dc.lft.to/lastmile_qr_scan"}, "fusion_lat": 0.0, "name": "8cb3459b6b7db534f26e1b065e7d7b26", "is_reserved": 0, "is_disabled": 0, "type": "electric_scooter"}, {"fusion_lon": 0.0, "lat": 38.89220266666667, "lon": -77.04276216666666, "bike_id": "7f3c647163ae650d8a7252e99c95e3f5", "rental_uris": {"android": "https://dc.lft.to/lastmile_qr_scan", "ios": "https://dc.lft.to/lastmile_qr_scan"}, "fusion_lat": 0.0, "name": "7f3c647163ae650d8a7252e99c95e3f5", "is_reserved": 0, "is_disabled": 0, "type": "electric_scooter"}, {"fusion_lon": 0.0, "lat": 38.95762666666667, "lon": -77.00917283333334, "bike_id": "a266887285c65e6d0d6c325c1ac58ffb", "rental_uris": {"android": "https://dc.lft.to/lastmile_qr_scan", "ios": "https://dc.lft.to/lastmile_qr_scan"}, "fusion_lat": 0.0, "name": "a266887285c65e6d0d6c325c1ac58ffb", "is_reserved": 0, "is_disabled": 0, "type": "electric_scooter"}, {"fusion_lon": 0.0, "lat": 38.924076666666664, "lon": -77.0203685, "bike_id": "ff11e9dec18140131db07803d2be1122", "rental_uris": {"android": "https://dc.lft.to/lastmile_qr_scan", "ios": "https://dc.lft.to/lastmile_qr_scan"}, "fusion_lat": 0.0, "name": "ff11e9dec18140131db07803d2be1122", "is_reserved": 0, "is_disabled": 0, "type": "electric_scooter"}, {"fusion_lon": 0.0, "lat": 38.915861, "lon": -77.0452635, "bike_id": "24be31f218037f0cb0735ebf09c09eb2", "rental_uris": {"android": "https://dc.lft.to/lastmile_qr_scan", "ios": "https://dc.lft.to/lastmile_qr_scan"}, "fusion_lat": 0.0, "name": "24be31f218037f0cb0735ebf09c09eb2", "is_reserved": 0, "is_disabled": 0, "type": "electric_scooter"}, {"fusion_lon": 0.0, "lat": 38.892912833333334, "lon": -76.97617583333333, "bike_id": "5f6abe744de79ad2db7505a94c1b0054", "rental_uris": {"android": "https://dc.lft.to/lastmile_qr_scan", "ios": "https://dc.lft.to/lastmile_qr_scan"}, "fusion_lat": 0.0, "name": "5f6abe744de79ad2db7505a94c1b0054", "is_reserved": 0, "is_disabled": 0, "type": "electric_bike"}, {"fusion_lon": 0.0, "lat": 38.92507916666667, "lon": -77.00224666666666, "bike_id": "579e50a97a632cc042c9b7b97c16b3f5", "rental_uris": {"android": "https://dc.lft.to/lastmile_qr_scan", "ios": "https://dc.lft.to/lastmile_qr_scan"}, "fusion_lat": 0.0, "name": "579e50a97a632cc042c9b7b97c16b3f5", "is_reserved": 0, "is_disabled": 0, "type": "electric_scooter"}, {"fusion_lon": 0.0, "lat": 38.955154666666665, "lon": -77.0104625, "bike_id": "f86bb58c55e07c38734bcc1e638cdd05", "rental_uris": {"android": "https://dc.lft.to/lastmile_qr_scan", "ios": "https://dc.lft.to/lastmile_qr_scan"}, "fusion_lat": 0.0, "name": "f86bb58c55e07c38734bcc1e638cdd05", "is_reserved": 0, "is_disabled": 0, "type": "electric_scooter"}, {"fusion_lon": 0.0, "lat": 38.91933083333333, "lon": -77.045617, "bike_id": "c6046acbc6510af73e75eb0523ca01ea", "rental_uris": {"android": "https://dc.lft.to/lastmile_qr_scan", "ios": "https://dc.lft.to/lastmile_qr_scan"}, "fusion_lat": 0.0, "name": "c6046acbc6510af73e75eb0523ca01ea", "is_reserved": 0, "is_disabled": 0, "type": "electric_scooter"}, {"fusion_lon": 0.0, "lat": 38.91973866666667, "lon": -77.02202766666667, "bike_id": "afe7a6513b6895ff07127d1717fd02a1", "rental_uris": {"android": "https://dc.lft.to/lastmile_qr_scan", "ios": "https://dc.lft.to/lastmile_qr_scan"}, "fusion_lat": 0.0, "name": "afe7a6513b6895ff07127d1717fd02a1", "is_reserved": 0, "is_disabled": 0, "type": "electric_scooter"}, {"fusion_lon": 0.0, "lat": 38.89497733333333, "lon": -77.04645483333333, "bike_id": "b04c78460317a68a2a7cfe9e2012d1ff", "rental_uris": {"android": "https://dc.lft.to/lastmile_qr_scan", "ios": "https://dc.lft.to/lastmile_qr_scan"}, "fusion_lat": 0.0, "name": "b04c78460317a68a2a7cfe9e2012d1ff", "is_reserved": 0, "is_disabled": 0, "type": "electric_scooter"}, {"fusion_lon": 0.0, "lat": 38.896040666666664, "lon": -77.02985433333333, "bike_id": "969bc2d7832302cc2fd34bebc3daef74", "rental_uris": {"android": "https://dc.lft.to/lastmile_qr_scan", "ios": "https://dc.lft.to/lastmile_qr_scan"}, "fusion_lat": 0.0, "name": "969bc2d7832302cc2fd34bebc3daef74", "is_reserved": 0, "is_disabled": 0, "type": "electric_scooter"}, {"fusion_lon": 0.0, "lat": 38.90262466666667, "lon": -77.03177116666667, "bike_id": "69843a46ece9fe90d63c17c38a70657a", "rental_uris": {"android": "https://dc.lft.to/lastmile_qr_scan", "ios": "https://dc.lft.to/lastmile_qr_scan"}, "fusion_lat": 0.0, "name": "69843a46ece9fe90d63c17c38a70657a", "is_reserved": 0, "is_disabled": 0, "type": "electric_scooter"}, {"fusion_lon": 0.0, "lat": 38.88743816666667, "lon": -77.025755, "bike_id": "9a59351af6acd054e2cadaec401e6b44", "rental_uris": {"android": "https://dc.lft.to/lastmile_qr_scan", "ios": "https://dc.lft.to/lastmile_qr_scan"}, "fusion_lat": 0.0, "name": "9a59351af6acd054e2cadaec401e6b44", "is_reserved": 0, "is_disabled": 0, "type": "electric_scooter"}, {"fusion_lon": 0.0, "lat": 38.91621883333333, "lon": -77.03506966666667, "bike_id": "9a347154677db0a313889bd9bd18bad8", "rental_uris": {"android": "https://dc.lft.to/lastmile_qr_scan", "ios": "https://dc.lft.to/lastmile_qr_scan"}, "fusion_lat": 0.0, "name": "9a347154677db0a313889bd9bd18bad8", "is_reserved": 0, "is_disabled": 0, "type": "electric_scooter"}, {"fusion_lon": 0.0, "lat": 38.89992566666667, "lon": -77.0334265, "bike_id": "43f03c59490269664250eae73756dc16", "rental_uris": {"android": "https://dc.lft.to/lastmile_qr_scan", "ios": "https://dc.lft.to/lastmile_qr_scan"}, "fusion_lat": 0.0, "name": "43f03c59490269664250eae73756dc16", "is_reserved": 0, "is_disabled": 0, "type": "electric_scooter"}, {"fusion_lon": 0.0, "lat": 38.87084, "lon": -77.01380116666667, "bike_id": "4121570ec6e7b3aa4b2ac3bafe3a06e4", "rental_uris": {"android": "https://dc.lft.to/lastmile_qr_scan", "ios": "https://dc.lft.to/lastmile_qr_scan"}, "fusion_lat": 0.0, "name": "4121570ec6e7b3aa4b2ac3bafe3a06e4", "is_reserved": 0, "is_disabled": 0, "type": "electric_scooter"}, {"fusion_lon": 0.0, "lat": 38.908440166666665, "lon": -77.04179983333333, "bike_id": "c4d5e19cd19128c255e7164b203c3af2", "rental_uris": {"android": "https://dc.lft.to/lastmile_qr_scan", "ios": "https://dc.lft.to/lastmile_qr_scan"}, "fusion_lat": 0.0, "name": "c4d5e19cd19128c255e7164b203c3af2", "is_reserved": 0, "is_disabled": 0, "type": "electric_scooter"}, {"fusion_lon": 0.0, "lat": 38.898762833333336, "lon": -77.02969166666666, "bike_id": "e09301a2f609f180377940b14aac0347", "rental_uris": {"android": "https://dc.lft.to/lastmile_qr_scan", "ios": "https://dc.lft.to/lastmile_qr_scan"}, "fusion_lat": 0.0, "name": "e09301a2f609f180377940b14aac0347", "is_reserved": 0, "is_disabled": 0, "type": "electric_scooter"}, {"fusion_lon": 0.0, "lat": 38.8923425, "lon": -77.04885516666667, "bike_id": "7419459a23dce63f99669fa54d0bc6f8", "rental_uris": {"android": "https://dc.lft.to/lastmile_qr_scan", "ios": "https://dc.lft.to/lastmile_qr_scan"}, "fusion_lat": 0.0, "name": "7419459a23dce63f99669fa54d0bc6f8", "is_reserved": 0, "is_disabled": 0, "type": "electric_scooter"}, {"fusion_lon": 0.0, "lat": 38.87995733333333, "lon": -76.9855285, "bike_id": "8224ea51f3fa149d789c4b699516277d", "rental_uris": {"android": "https://dc.lft.to/lastmile_qr_scan", "ios": "https://dc.lft.to/lastmile_qr_scan"}, "fusion_lat": 0.0, "name": "8224ea51f3fa149d789c4b699516277d", "is_reserved": 0, "is_disabled": 0, "type": "electric_scooter"}, {"fusion_lon": 0.0, "lat": 38.928011, "lon": -77.01952316666667, "bike_id": "6b28df8b4d739e5867a858e7ff9d9337", "rental_uris": {"android": "https://dc.lft.to/lastmile_qr_scan", "ios": "https://dc.lft.to/lastmile_qr_scan"}, "fusion_lat": 0.0, "name": "6b28df8b4d739e5867a858e7ff9d9337", "is_reserved": 0, "is_disabled": 0, "type": "electric_scooter"}, {"fusion_lon": 0.0, "lat": 38.90243316666667, "lon": -77.02930516666666, "bike_id": "2c33f1283a382f9f058bbe60aaaa7a23", "rental_uris": {"android": "https://dc.lft.to/lastmile_qr_scan", "ios": "https://dc.lft.to/lastmile_qr_scan"}, "fusion_lat": 0.0, "name": "2c33f1283a382f9f058bbe60aaaa7a23", "is_reserved": 0, "is_disabled": 0, "type": "electric_scooter"}, {"fusion_lon": 0.0, "lat": 38.89884683333333, "lon": -76.93181566666667, "bike_id": "3668187cd1b2fac7f4443bed0bda6eb3", "rental_uris": {"android": "https://dc.lft.to/lastmile_qr_scan", "ios": "https://dc.lft.to/lastmile_qr_scan"}, "fusion_lat": 0.0, "name": "3668187cd1b2fac7f4443bed0bda6eb3", "is_reserved": 0, "is_disabled": 0, "type": "electric_scooter"}, {"fusion_lon": 0.0, "lat": 38.905422, "lon": -77.0324835, "bike_id": "2e990a3bbe11e92afef513a1f3774b03", "rental_uris": {"android": "https://dc.lft.to/lastmile_qr_scan", "ios": "https://dc.lft.to/lastmile_qr_scan"}, "fusion_lat": 0.0, "name": "2e990a3bbe11e92afef513a1f3774b03", "is_reserved": 0, "is_disabled": 0, "type": "electric_scooter"}, {"fusion_lon": 0.0, "lat": 38.89558016666667, "lon": -77.12738366666666, "bike_id": "f5bf0da392ee619f864c0454129501e2", "rental_uris": {"android": "https://dc.lft.to/lastmile_qr_scan", "ios": "https://dc.lft.to/lastmile_qr_scan"}, "fusion_lat": 0.0, "name": "f5bf0da392ee619f864c0454129501e2", "is_reserved": 0, "is_disabled": 0, "type": "electric_bike"}, {"fusion_lon": 0.0, "lat": 38.8898175, "lon": -76.92116683333333, "bike_id": "8345115a2024de7c64893430888e852e", "rental_uris": {"android": "https://dc.lft.to/lastmile_qr_scan", "ios": "https://dc.lft.to/lastmile_qr_scan"}, "fusion_lat": 0.0, "name": "8345115a2024de7c64893430888e852e", "is_reserved": 0, "is_disabled": 0, "type": "electric_scooter"}, {"fusion_lon": 0.0, "lat": 38.90123066666666, "lon": -76.99366883333333, "bike_id": "cb9bb96414b1639792cb6289e719f698", "rental_uris": {"android": "https://dc.lft.to/lastmile_qr_scan", "ios": "https://dc.lft.to/lastmile_qr_scan"}, "fusion_lat": 0.0, "name": "cb9bb96414b1639792cb6289e719f698", "is_reserved": 0, "is_disabled": 0, "type": "electric_scooter"}, {"fusion_lon": 0.0, "lat": 38.896192166666665, "lon": -77.0219635, "bike_id": "f56c4ed62097fc6b3b6602304dfcc483", "rental_uris": {"android": "https://dc.lft.to/lastmile_qr_scan", "ios": "https://dc.lft.to/lastmile_qr_scan"}, "fusion_lat": 0.0, "name": "f56c4ed62097fc6b3b6602304dfcc483", "is_reserved": 0, "is_disabled": 0, "type": "electric_scooter"}, {"fusion_lon": 0.0, "lat": 38.90011633333334, "lon": -77.022022, "bike_id": "929932f91b5c28033a5ad6efb508b3c0", "rental_uris": {"android": "https://dc.lft.to/lastmile_qr_scan", "ios": "https://dc.lft.to/lastmile_qr_scan"}, "fusion_lat": 0.0, "name": "929932f91b5c28033a5ad6efb508b3c0", "is_reserved": 0, "is_disabled": 0, "type": "electric_scooter"}, {"fusion_lon": 0.0, "lat": 38.877627333333336, "lon": -76.99512433333334, "bike_id": "a6f26b3bbe1a79353ade14c1f1be9d45", "rental_uris": {"android": "https://dc.lft.to/lastmile_qr_scan", "ios": "https://dc.lft.to/lastmile_qr_scan"}, "fusion_lat": 0.0, "name": "a6f26b3bbe1a79353ade14c1f1be9d45", "is_reserved": 0, "is_disabled": 0, "type": "electric_scooter"}, {"fusion_lon": 0.0, "lat": 38.898943, "lon": -77.0396165, "bike_id": "6e58a640dce4e9b3374b14134de27c26", "rental_uris": {"android": "https://dc.lft.to/lastmile_qr_scan", "ios": "https://dc.lft.to/lastmile_qr_scan"}, "fusion_lat": 0.0, "name": "6e58a640dce4e9b3374b14134de27c26", "is_reserved": 0, "is_disabled": 0, "type": "electric_scooter"}, {"fusion_lon": 0.0, "lat": 38.9036215, "lon": -77.02630683333334, "bike_id": "4b2c372ea2d2825e935bd4fcca0a9a5a", "rental_uris": {"android": "https://dc.lft.to/lastmile_qr_scan", "ios": "https://dc.lft.to/lastmile_qr_scan"}, "fusion_lat": 0.0, "name": "4b2c372ea2d2825e935bd4fcca0a9a5a", "is_reserved": 0, "is_disabled": 0, "type": "electric_scooter"}, {"fusion_lon": 0.0, "lat": 38.92677833333333, "lon": -77.02582633333333, "bike_id": "9ef1b2f7453d8a00c4d9bad9334ed415", "rental_uris": {"android": "https://dc.lft.to/lastmile_qr_scan", "ios": "https://dc.lft.to/lastmile_qr_scan"}, "fusion_lat": 0.0, "name": "9ef1b2f7453d8a00c4d9bad9334ed415", "is_reserved": 0, "is_disabled": 0, "type": "electric_scooter"}, {"fusion_lon": 0.0, "lat": 38.91006016666667, "lon": -76.99399116666666, "bike_id": "6a8e0a6ecbb45d4d91e2cc846697e263", "rental_uris": {"android": "https://dc.lft.to/lastmile_qr_scan", "ios": "https://dc.lft.to/lastmile_qr_scan"}, "fusion_lat": 0.0, "name": "6a8e0a6ecbb45d4d91e2cc846697e263", "is_reserved": 0, "is_disabled": 0, "type": "electric_scooter"}, {"fusion_lon": 0.0, "lat": 38.90514133333333, "lon": -77.06105783333334, "bike_id": "6225f092a92e71eb861636cd25edb4ab", "rental_uris": {"android": "https://dc.lft.to/lastmile_qr_scan", "ios": "https://dc.lft.to/lastmile_qr_scan"}, "fusion_lat": 0.0, "name": "6225f092a92e71eb861636cd25edb4ab", "is_reserved": 0, "is_disabled": 0, "type": "electric_scooter"}, {"fusion_lon": 0.0, "lat": 38.92643, "lon": -77.03734483333334, "bike_id": "0b724b863d3380bb62ba5a08af2daa6d", "rental_uris": {"android": "https://dc.lft.to/lastmile_qr_scan", "ios": "https://dc.lft.to/lastmile_qr_scan"}, "fusion_lat": 0.0, "name": "0b724b863d3380bb62ba5a08af2daa6d", "is_reserved": 0, "is_disabled": 0, "type": "electric_scooter"}, {"fusion_lon": 0.0, "lat": 38.917169666666666, "lon": -77.02730683333333, "bike_id": "f2cb15f125f72f7b8744112882af8f03", "rental_uris": {"android": "https://dc.lft.to/lastmile_qr_scan", "ios": "https://dc.lft.to/lastmile_qr_scan"}, "fusion_lat": 0.0, "name": "f2cb15f125f72f7b8744112882af8f03", "is_reserved": 0, "is_disabled": 0, "type": "electric_scooter"}, {"fusion_lon": 0.0, "lat": 38.8921295, "lon": -77.04278866666667, "bike_id": "9b00b88d6302498e0074290dc621ea42", "rental_uris": {"android": "https://dc.lft.to/lastmile_qr_scan", "ios": "https://dc.lft.to/lastmile_qr_scan"}, "fusion_lat": 0.0, "name": "9b00b88d6302498e0074290dc621ea42", "is_reserved": 0, "is_disabled": 0, "type": "electric_scooter"}, {"fusion_lon": 0.0, "lat": 38.930998, "lon": -77.03095933333333, "bike_id": "6b0b6972696a71a691c49b5767c0e180", "rental_uris": {"android": "https://dc.lft.to/lastmile_qr_scan", "ios": "https://dc.lft.to/lastmile_qr_scan"}, "fusion_lat": 0.0, "name": "6b0b6972696a71a691c49b5767c0e180", "is_reserved": 0, "is_disabled": 0, "type": "electric_scooter"}, {"fusion_lon": 0.0, "lat": 38.892213166666664, "lon": -77.04369866666667, "bike_id": "1a568dee97a5a14cfb1be3100ede811b", "rental_uris": {"android": "https://dc.lft.to/lastmile_qr_scan", "ios": "https://dc.lft.to/lastmile_qr_scan"}, "fusion_lat": 0.0, "name": "1a568dee97a5a14cfb1be3100ede811b", "is_reserved": 0, "is_disabled": 0, "type": "electric_scooter"}, {"fusion_lon": 0.0, "lat": 38.9210485, "lon": -77.02133183333333, "bike_id": "714fc29be21537a1ac97cdb17a657284", "rental_uris": {"android": "https://dc.lft.to/lastmile_qr_scan", "ios": "https://dc.lft.to/lastmile_qr_scan"}, "fusion_lat": 0.0, "name": "714fc29be21537a1ac97cdb17a657284", "is_reserved": 0, "is_disabled": 0, "type": "electric_scooter"}, {"fusion_lon": 0.0, "lat": 38.90041933333333, "lon": -77.05004766666667, "bike_id": "21da3093e7f1335737bfe527f11a18bc", "rental_uris": {"android": "https://dc.lft.to/lastmile_qr_scan", "ios": "https://dc.lft.to/lastmile_qr_scan"}, "fusion_lat": 0.0, "name": "21da3093e7f1335737bfe527f11a18bc", "is_reserved": 0, "is_disabled": 0, "type": "electric_scooter"}, {"fusion_lon": 0.0, "lat": 38.926092833333335, "lon": -77.02163466666667, "bike_id": "ca5f7309764ab03f7f64d9e32663192d", "rental_uris": {"android": "https://dc.lft.to/lastmile_qr_scan", "ios": "https://dc.lft.to/lastmile_qr_scan"}, "fusion_lat": 0.0, "name": "ca5f7309764ab03f7f64d9e32663192d", "is_reserved": 0, "is_disabled": 0, "type": "electric_scooter"}, {"fusion_lon": 0.0, "lat": 38.926851, "lon": -77.0296425, "bike_id": "1e0393908955d15a320c2b8f41fc3031", "rental_uris": {"android": "https://dc.lft.to/lastmile_qr_scan", "ios": "https://dc.lft.to/lastmile_qr_scan"}, "fusion_lat": 0.0, "name": "1e0393908955d15a320c2b8f41fc3031", "is_reserved": 0, "is_disabled": 0, "type": "electric_scooter"}, {"fusion_lon": 0.0, "lat": 38.9025985, "lon": -77.03130433333334, "bike_id": "06989518da8827d2bbab9049526e9215", "rental_uris": {"android": "https://dc.lft.to/lastmile_qr_scan", "ios": "https://dc.lft.to/lastmile_qr_scan"}, "fusion_lat": 0.0, "name": "06989518da8827d2bbab9049526e9215", "is_reserved": 0, "is_disabled": 0, "type": "electric_scooter"}, {"fusion_lon": 0.0, "lat": 38.9389255, "lon": -77.03265733333333, "bike_id": "b294534cedcbc0164adfd8797d173759", "rental_uris": {"android": "https://dc.lft.to/lastmile_qr_scan", "ios": "https://dc.lft.to/lastmile_qr_scan"}, "fusion_lat": 0.0, "name": "b294534cedcbc0164adfd8797d173759", "is_reserved": 0, "is_disabled": 0, "type": "electric_scooter"}, {"fusion_lon": 0.0, "lat": 38.899609833333336, "lon": -77.04718766666667, "bike_id": "0beec81017b15909e3ff5448a87447d4", "rental_uris": {"android": "https://dc.lft.to/lastmile_qr_scan", "ios": "https://dc.lft.to/lastmile_qr_scan"}, "fusion_lat": 0.0, "name": "0beec81017b15909e3ff5448a87447d4", "is_reserved": 0, "is_disabled": 0, "type": "electric_scooter"}, {"fusion_lon": 0.0, "lat": 38.91700183333333, "lon": -77.0421875, "bike_id": "5ec6ba2d2af0129a0bc68dbd98dca5fc", "rental_uris": {"android": "https://dc.lft.to/lastmile_qr_scan", "ios": "https://dc.lft.to/lastmile_qr_scan"}, "fusion_lat": 0.0, "name": "5ec6ba2d2af0129a0bc68dbd98dca5fc", "is_reserved": 0, "is_disabled": 0, "type": "electric_scooter"}, {"fusion_lon": 0.0, "lat": 38.8843355, "lon": -76.95748783333333, "bike_id": "77893f62b98f2bb81b6af7e613c00e3f", "rental_uris": {"android": "https://dc.lft.to/lastmile_qr_scan", "ios": "https://dc.lft.to/lastmile_qr_scan"}, "fusion_lat": 0.0, "name": "77893f62b98f2bb81b6af7e613c00e3f", "is_reserved": 0, "is_disabled": 0, "type": "electric_scooter"}, {"fusion_lon": 0.0, "lat": 38.95081716666667, "lon": -76.998032, "bike_id": "2cc82f12780080bfffdb7d2f3ee7e038", "rental_uris": {"android": "https://dc.lft.to/lastmile_qr_scan", "ios": "https://dc.lft.to/lastmile_qr_scan"}, "fusion_lat": 0.0, "name": "2cc82f12780080bfffdb7d2f3ee7e038", "is_reserved": 0, "is_disabled": 0, "type": "electric_scooter"}, {"fusion_lon": 0.0, "lat": 38.807306, "lon": -76.9925885, "bike_id": "16369665f135d8f97f2ebbfb8120dc95", "rental_uris": {"android": "https://dc.lft.to/lastmile_qr_scan", "ios": "https://dc.lft.to/lastmile_qr_scan"}, "fusion_lat": 0.0, "name": "16369665f135d8f97f2ebbfb8120dc95", "is_reserved": 0, "is_disabled": 0, "type": "electric_bike"}, {"fusion_lon": 0.0, "lat": 38.91808966666667, "lon": -77.04028766666667, "bike_id": "f1c18a2c1043071acba78f32e803da5d", "rental_uris": {"android": "https://dc.lft.to/lastmile_qr_scan", "ios": "https://dc.lft.to/lastmile_qr_scan"}, "fusion_lat": 0.0, "name": "f1c18a2c1043071acba78f32e803da5d", "is_reserved": 0, "is_disabled": 0, "type": "electric_scooter"}, {"fusion_lon": 0.0, "lat": 38.897672166666666, "lon": -77.03168633333334, "bike_id": "0864f0c1148f87f78e9757841982af21", "rental_uris": {"android": "https://dc.lft.to/lastmile_qr_scan", "ios": "https://dc.lft.to/lastmile_qr_scan"}, "fusion_lat": 0.0, "name": "0864f0c1148f87f78e9757841982af21", "is_reserved": 0, "is_disabled": 0, "type": "electric_scooter"}, {"fusion_lon": 0.0, "lat": 38.89897083333334, "lon": -77.021748, "bike_id": "3764a14e9d42d2e97b246f22439a72e5", "rental_uris": {"android": "https://dc.lft.to/lastmile_qr_scan", "ios": "https://dc.lft.to/lastmile_qr_scan"}, "fusion_lat": 0.0, "name": "3764a14e9d42d2e97b246f22439a72e5", "is_reserved": 0, "is_disabled": 0, "type": "electric_scooter"}, {"fusion_lon": 0.0, "lat": 38.84754266666667, "lon": -77.053786, "bike_id": "12fdeec08b6309e999871008c9ccaead", "rental_uris": {"android": "https://dc.lft.to/lastmile_qr_scan", "ios": "https://dc.lft.to/lastmile_qr_scan"}, "fusion_lat": 0.0, "name": "12fdeec08b6309e999871008c9ccaead", "is_reserved": 0, "is_disabled": 0, "type": "electric_bike"}, {"fusion_lon": 0.0, "lat": 38.893199, "lon": -76.9395945, "bike_id": "7d43a4b721dbb0702fdb7565d4021240", "rental_uris": {"android": "https://dc.lft.to/lastmile_qr_scan", "ios": "https://dc.lft.to/lastmile_qr_scan"}, "fusion_lat": 0.0, "name": "7d43a4b721dbb0702fdb7565d4021240", "is_reserved": 0, "is_disabled": 0, "type": "electric_scooter"}, {"fusion_lon": 0.0, "lat": 38.900376666666666, "lon": -76.9883825, "bike_id": "f25c9a99f04d083b211a034fdd9d5830", "rental_uris": {"android": "https://dc.lft.to/lastmile_qr_scan", "ios": "https://dc.lft.to/lastmile_qr_scan"}, "fusion_lat": 0.0, "name": "f25c9a99f04d083b211a034fdd9d5830", "is_reserved": 0, "is_disabled": 0, "type": "electric_scooter"}, {"fusion_lon": 0.0, "lat": 38.92398883333333, "lon": -77.0224505, "bike_id": "1b6d7dbf98facf1b3f708951fbdda418", "rental_uris": {"android": "https://dc.lft.to/lastmile_qr_scan", "ios": "https://dc.lft.to/lastmile_qr_scan"}, "fusion_lat": 0.0, "name": "1b6d7dbf98facf1b3f708951fbdda418", "is_reserved": 0, "is_disabled": 0, "type": "electric_scooter"}, {"fusion_lon": 0.0, "lat": 38.899979, "lon": -77.04110133333333, "bike_id": "e1f0ce32f721ab76be3cf7bd7a7e45bd", "rental_uris": {"android": "https://dc.lft.to/lastmile_qr_scan", "ios": "https://dc.lft.to/lastmile_qr_scan"}, "fusion_lat": 0.0, "name": "e1f0ce32f721ab76be3cf7bd7a7e45bd", "is_reserved": 0, "is_disabled": 0, "type": "electric_scooter"}, {"fusion_lon": 0.0, "lat": 38.894877, "lon": -76.94893583333334, "bike_id": "9e08af9fbb370ae251e93a1cd98e8937", "rental_uris": {"android": "https://dc.lft.to/lastmile_qr_scan", "ios": "https://dc.lft.to/lastmile_qr_scan"}, "fusion_lat": 0.0, "name": "9e08af9fbb370ae251e93a1cd98e8937", "is_reserved": 0, "is_disabled": 0, "type": "electric_scooter"}, {"fusion_lon": 0.0, "lat": 38.89195633333333, "lon": -76.99382416666667, "bike_id": "4ef71c913530e03602a9090f10512372", "rental_uris": {"android": "https://dc.lft.to/lastmile_qr_scan", "ios": "https://dc.lft.to/lastmile_qr_scan"}, "fusion_lat": 0.0, "name": "4ef71c913530e03602a9090f10512372", "is_reserved": 0, "is_disabled": 0, "type": "electric_scooter"}, {"fusion_lon": 0.0, "lat": 38.913638166666665, "lon": -77.0449825, "bike_id": "b20f58318ae4f76df53209d69eb77438", "rental_uris": {"android": "https://dc.lft.to/lastmile_qr_scan", "ios": "https://dc.lft.to/lastmile_qr_scan"}, "fusion_lat": 0.0, "name": "b20f58318ae4f76df53209d69eb77438", "is_reserved": 0, "is_disabled": 0, "type": "electric_scooter"}, {"fusion_lon": 0.0, "lat": 38.915565, "lon": -77.04448266666667, "bike_id": "f10f4d8fc94f8ed369d10af403376958", "rental_uris": {"android": "https://dc.lft.to/lastmile_qr_scan", "ios": "https://dc.lft.to/lastmile_qr_scan"}, "fusion_lat": 0.0, "name": "f10f4d8fc94f8ed369d10af403376958", "is_reserved": 0, "is_disabled": 0, "type": "electric_scooter"}, {"fusion_lon": 0.0, "lat": 38.88711683333333, "lon": -76.99608033333334, "bike_id": "534be3e444488ea14e2f9ae40ddde0d6", "rental_uris": {"android": "https://dc.lft.to/lastmile_qr_scan", "ios": "https://dc.lft.to/lastmile_qr_scan"}, "fusion_lat": 0.0, "name": "534be3e444488ea14e2f9ae40ddde0d6", "is_reserved": 0, "is_disabled": 0, "type": "electric_scooter"}, {"fusion_lon": 0.0, "lat": 38.939764, "lon": -77.02841433333333, "bike_id": "fe665f5b2d148c85f0edfeb8286a3c98", "rental_uris": {"android": "https://dc.lft.to/lastmile_qr_scan", "ios": "https://dc.lft.to/lastmile_qr_scan"}, "fusion_lat": 0.0, "name": "fe665f5b2d148c85f0edfeb8286a3c98", "is_reserved": 0, "is_disabled": 0, "type": "electric_scooter"}, {"fusion_lon": 0.0, "lat": 38.8770195, "lon": -77.01768883333334, "bike_id": "ccd6f36e1b064e3a5e5c9fd30e5a4881", "rental_uris": {"android": "https://dc.lft.to/lastmile_qr_scan", "ios": "https://dc.lft.to/lastmile_qr_scan"}, "fusion_lat": 0.0, "name": "ccd6f36e1b064e3a5e5c9fd30e5a4881", "is_reserved": 0, "is_disabled": 0, "type": "electric_scooter"}, {"fusion_lon": 0.0, "lat": 38.924155, "lon": -77.01949566666667, "bike_id": "de1a8a706b9356be014d7bf5c0a629dc", "rental_uris": {"android": "https://dc.lft.to/lastmile_qr_scan", "ios": "https://dc.lft.to/lastmile_qr_scan"}, "fusion_lat": 0.0, "name": "de1a8a706b9356be014d7bf5c0a629dc", "is_reserved": 0, "is_disabled": 0, "type": "electric_scooter"}, {"fusion_lon": 0.0, "lat": 38.92493616666667, "lon": -77.03933833333333, "bike_id": "ad8034b915ab7a6fd496b96e92b21a27", "rental_uris": {"android": "https://dc.lft.to/lastmile_qr_scan", "ios": "https://dc.lft.to/lastmile_qr_scan"}, "fusion_lat": 0.0, "name": "ad8034b915ab7a6fd496b96e92b21a27", "is_reserved": 0, "is_disabled": 0, "type": "electric_scooter"}, {"fusion_lon": 0.0, "lat": 38.90544, "lon": -77.04775283333333, "bike_id": "9d9d8d811bd729191f484191afd3a9ea", "rental_uris": {"android": "https://dc.lft.to/lastmile_qr_scan", "ios": "https://dc.lft.to/lastmile_qr_scan"}, "fusion_lat": 0.0, "name": "9d9d8d811bd729191f484191afd3a9ea", "is_reserved": 0, "is_disabled": 0, "type": "electric_scooter"}, {"fusion_lon": 0.0, "lat": 38.894510333333336, "lon": -77.02031816666667, "bike_id": "4c9e19c27693e03d934048eac63e95d8", "rental_uris": {"android": "https://dc.lft.to/lastmile_qr_scan", "ios": "https://dc.lft.to/lastmile_qr_scan"}, "fusion_lat": 0.0, "name": "4c9e19c27693e03d934048eac63e95d8", "is_reserved": 0, "is_disabled": 0, "type": "electric_scooter"}, {"fusion_lon": 0.0, "lat": 38.917088, "lon": -77.02515266666667, "bike_id": "58a59c8b3e418270954a822662ed1fb1", "rental_uris": {"android": "https://dc.lft.to/lastmile_qr_scan", "ios": "https://dc.lft.to/lastmile_qr_scan"}, "fusion_lat": 0.0, "name": "58a59c8b3e418270954a822662ed1fb1", "is_reserved": 0, "is_disabled": 0, "type": "electric_scooter"}, {"fusion_lon": 0.0, "lat": 38.907084166666664, "lon": -77.04092816666666, "bike_id": "c48a33e717231807e8ba7701047c1b09", "rental_uris": {"android": "https://dc.lft.to/lastmile_qr_scan", "ios": "https://dc.lft.to/lastmile_qr_scan"}, "fusion_lat": 0.0, "name": "c48a33e717231807e8ba7701047c1b09", "is_reserved": 0, "is_disabled": 0, "type": "electric_scooter"}, {"fusion_lon": 0.0, "lat": 38.895692333333336, "lon": -76.99409533333333, "bike_id": "0c3cddfd3a9547222065a5833472d526", "rental_uris": {"android": "https://dc.lft.to/lastmile_qr_scan", "ios": "https://dc.lft.to/lastmile_qr_scan"}, "fusion_lat": 0.0, "name": "0c3cddfd3a9547222065a5833472d526", "is_reserved": 0, "is_disabled": 0, "type": "electric_scooter"}, {"fusion_lon": 0.0, "lat": 38.928904833333334, "lon": -77.0325315, "bike_id": "4f1c2879d19cf2df3a30b138541f6334", "rental_uris": {"android": "https://dc.lft.to/lastmile_qr_scan", "ios": "https://dc.lft.to/lastmile_qr_scan"}, "fusion_lat": 0.0, "name": "4f1c2879d19cf2df3a30b138541f6334", "is_reserved": 0, "is_disabled": 0, "type": "electric_scooter"}, {"fusion_lon": 0.0, "lat": 38.90041466666667, "lon": -76.99844083333333, "bike_id": "f9b147634ec1203474948b1442d164ab", "rental_uris": {"android": "https://dc.lft.to/lastmile_qr_scan", "ios": "https://dc.lft.to/lastmile_qr_scan"}, "fusion_lat": 0.0, "name": "f9b147634ec1203474948b1442d164ab", "is_reserved": 0, "is_disabled": 0, "type": "electric_scooter"}, {"fusion_lon": 0.0, "lat": 38.9131925, "lon": -77.016354, "bike_id": "d4860b3f6ca5374127a95a370194a3f0", "rental_uris": {"android": "https://dc.lft.to/lastmile_qr_scan", "ios": "https://dc.lft.to/lastmile_qr_scan"}, "fusion_lat": 0.0, "name": "d4860b3f6ca5374127a95a370194a3f0", "is_reserved": 0, "is_disabled": 0, "type": "electric_scooter"}, {"fusion_lon": 0.0, "lat": 38.944076, "lon": -77.06336316666666, "bike_id": "22b3b785c2c8e928b0894bfeedc364e6", "rental_uris": {"android": "https://dc.lft.to/lastmile_qr_scan", "ios": "https://dc.lft.to/lastmile_qr_scan"}, "fusion_lat": 0.0, "name": "22b3b785c2c8e928b0894bfeedc364e6", "is_reserved": 0, "is_disabled": 0, "type": "electric_scooter"}, {"fusion_lon": 0.0, "lat": 38.893713, "lon": -77.003503, "bike_id": "59f99fe7c13b08deda5bed8925e10640", "rental_uris": {"android": "https://dc.lft.to/lastmile_qr_scan", "ios": "https://dc.lft.to/lastmile_qr_scan"}, "fusion_lat": 0.0, "name": "59f99fe7c13b08deda5bed8925e10640", "is_reserved": 0, "is_disabled": 0, "type": "electric_scooter"}, {"fusion_lon": 0.0, "lat": 38.92561116666667, "lon": -77.02146233333333, "bike_id": "77564da1b7208c2d1c5cae2268d5a735", "rental_uris": {"android": "https://dc.lft.to/lastmile_qr_scan", "ios": "https://dc.lft.to/lastmile_qr_scan"}, "fusion_lat": 0.0, "name": "77564da1b7208c2d1c5cae2268d5a735", "is_reserved": 0, "is_disabled": 0, "type": "electric_scooter"}, {"fusion_lon": 0.0, "lat": 38.912913833333334, "lon": -76.98540383333334, "bike_id": "bdca6e278364542245b283c630381a69", "rental_uris": {"android": "https://dc.lft.to/lastmile_qr_scan", "ios": "https://dc.lft.to/lastmile_qr_scan"}, "fusion_lat": 0.0, "name": "bdca6e278364542245b283c630381a69", "is_reserved": 0, "is_disabled": 0, "type": "electric_scooter"}, {"fusion_lon": 0.0, "lat": 38.90367333333333, "lon": -77.046894, "bike_id": "744950da6fb22c69157db878eeb037a2", "rental_uris": {"android": "https://dc.lft.to/lastmile_qr_scan", "ios": "https://dc.lft.to/lastmile_qr_scan"}, "fusion_lat": 0.0, "name": "744950da6fb22c69157db878eeb037a2", "is_reserved": 0, "is_disabled": 0, "type": "electric_scooter"}, {"fusion_lon": 0.0, "lat": 38.887016333333335, "lon": -77.02827516666666, "bike_id": "f407db84055511cd0a0bf10bee1e0a04", "rental_uris": {"android": "https://dc.lft.to/lastmile_qr_scan", "ios": "https://dc.lft.to/lastmile_qr_scan"}, "fusion_lat": 0.0, "name": "f407db84055511cd0a0bf10bee1e0a04", "is_reserved": 0, "is_disabled": 0, "type": "electric_scooter"}, {"fusion_lon": 0.0, "lat": 38.92469616666666, "lon": -77.02222, "bike_id": "735dfd70159009d2043168f05e0041ab", "rental_uris": {"android": "https://dc.lft.to/lastmile_qr_scan", "ios": "https://dc.lft.to/lastmile_qr_scan"}, "fusion_lat": 0.0, "name": "735dfd70159009d2043168f05e0041ab", "is_reserved": 0, "is_disabled": 0, "type": "electric_scooter"}, {"fusion_lon": 0.0, "lat": 38.9557025, "lon": -77.0701375, "bike_id": "4533c1644eca3c8504d62e2d9d10849b", "rental_uris": {"android": "https://dc.lft.to/lastmile_qr_scan", "ios": "https://dc.lft.to/lastmile_qr_scan"}, "fusion_lat": 0.0, "name": "4533c1644eca3c8504d62e2d9d10849b", "is_reserved": 0, "is_disabled": 0, "type": "electric_scooter"}, {"fusion_lon": 0.0, "lat": 38.924810666666666, "lon": -77.02229016666666, "bike_id": "803af7516ee100828fdcd56d9c7a21d9", "rental_uris": {"android": "https://dc.lft.to/lastmile_qr_scan", "ios": "https://dc.lft.to/lastmile_qr_scan"}, "fusion_lat": 0.0, "name": "803af7516ee100828fdcd56d9c7a21d9", "is_reserved": 0, "is_disabled": 0, "type": "electric_scooter"}, {"fusion_lon": 0.0, "lat": 38.932114, "lon": -77.038559, "bike_id": "e45b7bacbce7f25a9e38c4dcbee04851", "rental_uris": {"android": "https://dc.lft.to/lastmile_qr_scan", "ios": "https://dc.lft.to/lastmile_qr_scan"}, "fusion_lat": 0.0, "name": "e45b7bacbce7f25a9e38c4dcbee04851", "is_reserved": 0, "is_disabled": 0, "type": "electric_scooter"}, {"fusion_lon": 0.0, "lat": 38.936940166666666, "lon": -77.05601316666667, "bike_id": "b356a5106b5714e5610e983221cbbb90", "rental_uris": {"android": "https://dc.lft.to/lastmile_qr_scan", "ios": "https://dc.lft.to/lastmile_qr_scan"}, "fusion_lat": 0.0, "name": "b356a5106b5714e5610e983221cbbb90", "is_reserved": 0, "is_disabled": 0, "type": "electric_scooter"}, {"fusion_lon": 0.0, "lat": 38.927551333333334, "lon": -77.032144, "bike_id": "8ff6e7e825bd0791f924084a374f0460", "rental_uris": {"android": "https://dc.lft.to/lastmile_qr_scan", "ios": "https://dc.lft.to/lastmile_qr_scan"}, "fusion_lat": 0.0, "name": "8ff6e7e825bd0791f924084a374f0460", "is_reserved": 0, "is_disabled": 0, "type": "electric_scooter"}, {"fusion_lon": 0.0, "lat": 38.920959833333335, "lon": -77.03657933333334, "bike_id": "d5a4f2c5b184e8e691f02a2b1749c8e9", "rental_uris": {"android": "https://dc.lft.to/lastmile_qr_scan", "ios": "https://dc.lft.to/lastmile_qr_scan"}, "fusion_lat": 0.0, "name": "d5a4f2c5b184e8e691f02a2b1749c8e9", "is_reserved": 0, "is_disabled": 0, "type": "electric_scooter"}, {"fusion_lon": 0.0, "lat": 38.879219166666665, "lon": -77.0238145, "bike_id": "b3b15abdeac16292f1fde3a283fc9226", "rental_uris": {"android": "https://dc.lft.to/lastmile_qr_scan", "ios": "https://dc.lft.to/lastmile_qr_scan"}, "fusion_lat": 0.0, "name": "b3b15abdeac16292f1fde3a283fc9226", "is_reserved": 0, "is_disabled": 0, "type": "electric_scooter"}, {"fusion_lon": 0.0, "lat": 38.88771233333333, "lon": -76.9326605, "bike_id": "f00cfa019a3063b78f6bb67a1002b2f9", "rental_uris": {"android": "https://dc.lft.to/lastmile_qr_scan", "ios": "https://dc.lft.to/lastmile_qr_scan"}, "fusion_lat": 0.0, "name": "f00cfa019a3063b78f6bb67a1002b2f9", "is_reserved": 0, "is_disabled": 0, "type": "electric_scooter"}, {"fusion_lon": 0.0, "lat": 38.900165666666666, "lon": -77.01193916666666, "bike_id": "a5d23da4a8a080c60e36dfae28333db3", "rental_uris": {"android": "https://dc.lft.to/lastmile_qr_scan", "ios": "https://dc.lft.to/lastmile_qr_scan"}, "fusion_lat": 0.0, "name": "a5d23da4a8a080c60e36dfae28333db3", "is_reserved": 0, "is_disabled": 0, "type": "electric_scooter"}, {"fusion_lon": 0.0, "lat": 38.92166816666666, "lon": -77.0208425, "bike_id": "7fcee617e59108e5472f469214235c59", "rental_uris": {"android": "https://dc.lft.to/lastmile_qr_scan", "ios": "https://dc.lft.to/lastmile_qr_scan"}, "fusion_lat": 0.0, "name": "7fcee617e59108e5472f469214235c59", "is_reserved": 0, "is_disabled": 0, "type": "electric_scooter"}, {"fusion_lon": 0.0, "lat": 38.896316166666665, "lon": -76.92963366666666, "bike_id": "2b5497302d92ddd90e6cdf934d585153", "rental_uris": {"android": "https://dc.lft.to/lastmile_qr_scan", "ios": "https://dc.lft.to/lastmile_qr_scan"}, "fusion_lat": 0.0, "name": "2b5497302d92ddd90e6cdf934d585153", "is_reserved": 0, "is_disabled": 0, "type": "electric_scooter"}, {"fusion_lon": 0.0, "lat": 38.95736866666667, "lon": -77.02749583333333, "bike_id": "73d63de14d1c7e579c15d62ac68a7227", "rental_uris": {"android": "https://dc.lft.to/lastmile_qr_scan", "ios": "https://dc.lft.to/lastmile_qr_scan"}, "fusion_lat": 0.0, "name": "73d63de14d1c7e579c15d62ac68a7227", "is_reserved": 0, "is_disabled": 0, "type": "electric_scooter"}, {"fusion_lon": 0.0, "lat": 38.925005, "lon": -77.02157833333334, "bike_id": "13f2e6387c3d57e9643cc3924a768512", "rental_uris": {"android": "https://dc.lft.to/lastmile_qr_scan", "ios": "https://dc.lft.to/lastmile_qr_scan"}, "fusion_lat": 0.0, "name": "13f2e6387c3d57e9643cc3924a768512", "is_reserved": 0, "is_disabled": 0, "type": "electric_scooter"}, {"fusion_lon": 0.0, "lat": 38.9029895, "lon": -77.02367133333334, "bike_id": "9b61a0f24f56261ef70dc31206845e43", "rental_uris": {"android": "https://dc.lft.to/lastmile_qr_scan", "ios": "https://dc.lft.to/lastmile_qr_scan"}, "fusion_lat": 0.0, "name": "9b61a0f24f56261ef70dc31206845e43", "is_reserved": 0, "is_disabled": 0, "type": "electric_scooter"}, {"fusion_lon": 0.0, "lat": 38.919948, "lon": -77.03892016666667, "bike_id": "8690336b441b365a25f415b27ca507d1", "rental_uris": {"android": "https://dc.lft.to/lastmile_qr_scan", "ios": "https://dc.lft.to/lastmile_qr_scan"}, "fusion_lat": 0.0, "name": "8690336b441b365a25f415b27ca507d1", "is_reserved": 0, "is_disabled": 0, "type": "electric_scooter"},