{"data": {"bikes": [{"lon": -77.03212133333334, "name": "054e15a132623e612756ca890d35dc5b", "is_disabled": 0, "type": "electric_scooter", "is_reserved": 0, "fusion_lon": 0.0, "lat": 38.916111666666666, "rental_uris": {"ios": "https://dc.lft.to/lastmile_qr_scan", "android": "https://dc.lft.to/lastmile_qr_scan"}, "bike_id": "054e15a132623e612756ca890d35dc5b", "fusion_lat": 0.0}, {"lon": -77.02309466666667, "name": "15b337b3337b3e6057cc4041c5bd489f", "is_disabled": 0, "type": "electric_scooter", "is_reserved": 0, "fusion_lon": 0.0, "lat": 38.9207155, "rental_uris": {"ios": "https://dc.lft.to/lastmile_qr_scan", "android": "https://dc.lft.to/lastmile_qr_scan"}, "bike_id": "15b337b3337b3e6057cc4041c5bd489f", "fusion_lat": 0.0}, {"lon": -77.00222466666666, "name": "590a96e544cc8f10dead9caea7495e3c", "is_disabled": 0, "type": "electric_scooter", "is_reserved": 0, "fusion_lon": 0.0, "lat": 38.9574175, "rental_uris": {"ios": "https://dc.lft.to/lastmile_qr_scan", "android": "https://dc.lft.to/lastmile_qr_scan"}, "bike_id": "590a96e544cc8f10dead9caea7495e3c", "fusion_lat": 0.0}, {"lon": -77.06400483333333, "name": "69bb1b6d65667f9c88d4769e40d0b33c", "is_disabled": 0, "type": "electric_scooter", "is_reserved": 0, "fusion_lon": 0.0, "lat": 38.94447733333333, "rental_uris": {"ios": "https://dc.lft.to/lastmile_qr_scan", "android": "https://dc.lft.to/lastmile_qr_scan"}, "bike_id": "69bb1b6d65667f9c88d4769e40d0b33c", "fusion_lat": 0.0}, {"lon": -77.03288466666666, "name": "61807d08209390c24d52ed41579d1203", "is_disabled": 0, "type": "electric_scooter", "is_reserved": 0, "fusion_lon": 0.0, "lat": 38.935772, "rental_uris": {"ios": "https://dc.lft.to/lastmile_qr_scan", "android": "https://dc.lft.to/lastmile_qr_scan"}, "bike_id": "61807d08209390c24d52ed41579d1203", "fusion_lat": 0.0}, {"lon": -77.01223116666667, "name": "bfce061a3e8d9533dd2b0e1179013483", "is_disabled": 0, "type": "electric_scooter", "is_reserved": 0, "fusion_lon": 0.0, "lat": 38.92516583333333, "rental_uris": {"ios": "https://dc.lft.to/lastmile_qr_scan", "android": "https://dc.lft.to/lastmile_qr_scan"}, "bike_id": "bfce061a3e8d9533dd2b0e1179013483", "fusion_lat": 0.0}, {"lon": -76.96542916666667, "name": "929fc9a036521d967245e2c77de7ced5", "is_disabled": 0, "type": "electric_scooter", "is_reserved": 0, "fusion_lon": 0.0, "lat": 38.87893433333333, "rental_uris": {"ios": "https://dc.lft.to/lastmile_qr_scan", "android": "https://dc.lft.to/lastmile_qr_scan"}, "bike_id": "929fc9a036521d967245e2c77de7ced5", "fusion_lat": 0.0}, {"lon": -77.00536033333333, "name": "e3f3b8a70fd7084cef3c7d74e5f9c9f2", "is_disabled": 0, "type": "electric_scooter", "is_reserved": 0, "fusion_lon": 0.0, "lat": 38.875493166666665, "rental_uris": {"ios": "https://dc.lft.to/lastmile_qr_scan", "android": "https://dc.lft.to/lastmile_qr_scan"}, "bike_id": "e3f3b8a70fd7084cef3c7d74e5f9c9f2", "fusion_lat": 0.0}, {"lon": -77.044057, "name": "7b8ce015af871dc6c518fe8b47df09e1", "is_disabled": 0, "type": "electric_scooter", "is_reserved": 0, "fusion_lon": 0.0, "lat": 38.929557833333334, "rental_uris": {"ios": "https://dc.lft.to/lastmile_qr_scan", "android": "https://dc.lft.to/lastmile_qr_scan"}, "bike_id": "7b8ce015af871dc6c518fe8b47df09e1", "fusion_lat": 0.0}, {"lon": -77.02815216666667, "name": "cfd4a77f252a379bdc54a106dbe41e33", "is_disabled": 0, "type": "electric_scooter", "is_reserved": 0, "fusion_lon": 0.0, "lat": 38.92244216666667, "rental_uris": {"ios": "https://dc.lft.to/lastmile_qr_scan", "android": "https://dc.lft.to/lastmile_qr_scan"}, "bike_id": "cfd4a77f252a379bdc54a106dbe41e33", "fusion_lat": 0.0}, {"lon": -77.018967, "name": "03395dfa1dbbe4177342c9c48c2da20d", "is_disabled": 0, "type": "electric_scooter", "is_reserved": 0, "fusion_lon": 0.0, "lat": 38.92342633333333, "rental_uris": {"ios": "https://dc.lft.to/lastmile_qr_scan", "android": "https://dc.lft.to/lastmile_qr_scan"}, "bike_id": "03395dfa1dbbe4177342c9c48c2da20d", "fusion_lat": 0.0}, {"lon": -77.04008733333333, "name": "750912b0a44aa7cda473eda3dab69d39", "is_disabled": 0, "type": "electric_bike", "is_reserved": 0, "fusion_lon": 0.0, "lat": 38.900106666666666, "rental_uris": {"ios": "https://dc.lft.to/lastmile_qr_scan", "android": "https://dc.lft.to/lastmile_qr_scan"}, "bike_id": "750912b0a44aa7cda473eda3dab69d39", "fusion_lat": 0.0}, {"lon": -77.0316615, "name": "1122cedf076f09d22f011ef89e3764cc", "is_disabled": 0, "type": "electric_scooter", "is_reserved": 0, "fusion_lon": 0.0, "lat": 38.892268, "rental_uris": {"ios": "https://dc.lft.to/lastmile_qr_scan", "android": "https://dc.lft.to/lastmile_qr_scan"}, "bike_id": "1122cedf076f09d22f011ef89e3764cc", "fusion_lat": 0.0}, {"lon": -76.9983975, "name": "ea1a56786d0da6c083b561ee525ee955", "is_disabled": 0, "type": "electric_bike", "is_reserved": 0, "fusion_lon": 0.0, "lat": 38.8391635, "rental_uris": {"ios": "https://dc.lft.to/lastmile_qr_scan", "android": "https://dc.lft.to/lastmile_qr_scan"}, "bike_id": "ea1a56786d0da6c083b561ee525ee955", "fusion_lat": 0.0}, {"lon": -77.07825533333333, "name": "80e19d78fe543f2ba072396ce413dec9", "is_disabled": 0, "type": "electric_scooter", "is_reserved": 0, "fusion_lon": 0.0, "lat": 38.946279833333335, "rental_uris": {"ios": "https://dc.lft.to/lastmile_qr_scan", "android": "https://dc.lft.to/lastmile_qr_scan"}, "bike_id": "80e19d78fe543f2ba072396ce413dec9", "fusion_lat": 0.0}, {"lon": -77.01496733333333, "name": "f740029230de2af03296f7f87a1b2620", "is_disabled": 0, "type": "electric_scooter", "is_reserved": 0, "fusion_lon": 0.0, "lat": 38.926725833333336, "rental_uris": {"ios": "https://dc.lft.to/lastmile_qr_scan", "android": "https://dc.lft.to/lastmile_qr_scan"}, "bike_id": "f740029230de2af03296f7f87a1b2620", "fusion_lat": 0.0}, {"lon": -77.0091505, "name": "400f22b6e716cc265c558c76fe448816", "is_disabled": 0, "type": "electric_scooter", "is_reserved": 0, "fusion_lon": 0.0, "lat": 38.9234095, "rental_uris": {"ios": "https://dc.lft.to/lastmile_qr_scan", "android": "https://dc.lft.to/lastmile_qr_scan"}, "bike_id": "400f22b6e716cc265c558c76fe448816", "fusion_lat": 0.0}, {"lon": -77.04260883333333, "name": "0bd1af5915a72753e2e75ba9df858ae9", "is_disabled": 0, "type": "electric_scooter", "is_reserved": 0, "fusion_lon": 0.0, "lat": 38.898524333333334, "rental_uris": {"ios": "https://dc.lft.to/lastmile_qr_scan", "android": "https://dc.lft.to/lastmile_qr_scan"}, "bike_id": "0bd1af5915a72753e2e75ba9df858ae9", "fusion_lat": 0.0}, {"lon": -77.03147683333333, "name": "fdf4344666196f81ae3d615aa36fef00", "is_disabled": 0, "type": "electric_scooter", "is_reserved": 0, "fusion_lon": 0.0, "lat": 38.94186466666667, "rental_uris": {"ios": "https://dc.lft.to/lastmile_qr_scan", "android": "https://dc.lft.to/lastmile_qr_scan"}, "bike_id": "fdf4344666196f81ae3d615aa36fef00", "fusion_lat": 0.0}, {"lon": -77.00369366666666, "name": "7c081d8f7a9ec10b7fac2bc8be016692", "is_disabled": 0, "type": "electric_scooter", "is_reserved": 0, "fusion_lon": 0.0, "lat": 38.9073405, "rental_uris": {"ios": "https://dc.lft.to/lastmile_qr_scan", "android": "https://dc.lft.to/lastmile_qr_scan"}, "bike_id": "7c081d8f7a9ec10b7fac2bc8be016692", "fusion_lat": 0.0}, {"lon": -77.0458505, "name": "bce312584a3b602d933cd5da2bc43110", "is_disabled": 0, "type": "electric_scooter", "is_reserved": 0, "fusion_lon": 0.0, "lat": 38.902823166666664, "rental_uris": {"ios": "https://dc.lft.to/lastmile_qr_scan", "android": "https://dc.lft.to/lastmile_qr_scan"}, "bike_id": "bce312584a3b602d933cd5da2bc43110", "fusion_lat": 0.0}, {"lon": -77.04323116666667, "name": "570a4b6c7f8a8bd6c300e35b5681adb2", "is_disabled": 0, "type": "electric_scooter", "is_reserved": 0, "fusion_lon": 0.0, "lat": 38.9188565, "rental_uris": {"ios": "https://dc.lft.to/lastmile_qr_scan", "android": "https://dc.lft.to/lastmile_qr_scan"}, "bike_id": "570a4b6c7f8a8bd6c300e35b5681adb2", "fusion_lat": 0.0}, {"lon": -77.03942583333334, "name": "723d2bc912a46be8211797d428da0384", "is_disabled": 0, "type": "electric_scooter", "is_reserved": 0, "fusion_lon": 0.0, "lat": 38.9083015, "rental_uris": {"ios": "https://dc.lft.to/lastmile_qr_scan", "android": "https://dc.lft.to/lastmile_qr_scan"}, "bike_id": "723d2bc912a46be8211797d428da0384", "fusion_lat": 0.0}, {"lon": -77.00178016666666, "name": "2a0990a378690cec6b441495c3e315e0", "is_disabled": 0, "type": "electric_scooter", "is_reserved": 0, "fusion_lon": 0.0, "lat": 38.90619483333333, "rental_uris": {"ios": "https://dc.lft.to/lastmile_qr_scan", "android": "https://dc.lft.to/lastmile_qr_scan"}, "bike_id": "2a0990a378690cec6b441495c3e315e0", "fusion_lat": 0.0}, {"lon": -77.04251, "name": "33679da3da416507c22140b9154012f9", "is_disabled": 0, "type": "electric_scooter", "is_reserved": 0, "fusion_lon": 0.0, "lat": 38.924383, "rental_uris": {"ios": "https://dc.lft.to/lastmile_qr_scan", "android": "https://dc.lft.to/lastmile_qr_scan"}, "bike_id": "33679da3da416507c22140b9154012f9", "fusion_lat": 0.0}, {"lon": -77.0178155, "name": "76ce3e8327e69e8dc12269ead5010b68", "is_disabled": 0, "type": "electric_scooter", "is_reserved": 0, "fusion_lon": 0.0, "lat": 38.88440516666667, "rental_uris": {"ios": "https://dc.lft.to/lastmile_qr_scan", "android": "https://dc.lft.to/lastmile_qr_scan"}, "bike_id": "76ce3e8327e69e8dc12269ead5010b68", "fusion_lat": 0.0}, {"lon": -77.03642216666667, "name": "2a4823183c409d6d53f87d74198fd10f", "is_disabled": 0, "type": "electric_scooter", "is_reserved": 0, "fusion_lon": 0.0, "lat": 38.90316283333333, "rental_uris": {"ios": "https://dc.lft.to/lastmile_qr_scan", "android": "https://dc.lft.to/lastmile_qr_scan"}, "bike_id": "2a4823183c409d6d53f87d74198fd10f", "fusion_lat": 0.0}, {"lon": -76.98495333333334, "name": "e642c19c6d25117040081170e31e2883", "is_disabled": 0, "type": "electric_scooter", "is_reserved": 0, "fusion_lon": 0.0, "lat": 38.8802375, "rental_uris": {"ios": "https://dc.lft.to/lastmile_qr_scan", "android": "https://dc.lft.to/lastmile_qr_scan"}, "bike_id": "e642c19c6d25117040081170e31e2883", "fusion_lat": 0.0}, {"lon": -77.022445, "name": "f937f41cbcbecc756250034f10b09bef", "is_disabled": 0, "type": "electric_scooter", "is_reserved": 0, "fusion_lon": 0.0, "lat": 38.924571, "rental_uris": {"ios": "https://dc.lft.to/lastmile_qr_scan", "android": "https://dc.lft.to/lastmile_qr_scan"}, "bike_id": "f937f41cbcbecc756250034f10b09bef", "fusion_lat": 0.0}, {"lon": -77.0092465, "name": "4af96c24dc632676818f18701031058e", "is_disabled": 0, "type": "electric_scooter", "is_reserved": 0, "fusion_lon": 0.0, "lat": 38.9134975, "rental_uris": {"ios": "https://dc.lft.to/lastmile_qr_scan", "android": "https://dc.lft.to/lastmile_qr_scan"}, "bike_id": "4af96c24dc632676818f18701031058e", "fusion_lat": 0.0}, {"lon": -76.98057616666667, "name": "fb1e412ad8b85d179834f54942872153", "is_disabled": 0, "type": "electric_scooter", "is_reserved": 0, "fusion_lon": 0.0, "lat": 38.8853785, "rental_uris": {"ios": "https://dc.lft.to/lastmile_qr_scan", "android": "https://dc.lft.to/lastmile_qr_scan"}, "bike_id": "fb1e412ad8b85d179834f54942872153", "fusion_lat": 0.0}, {"lon": -77.0250235, "name": "2e1b36009b3c25c6eab7e71b9d22b537", "is_disabled": 0, "type": "electric_scooter", "is_reserved": 0, "fusion_lon": 0.0, "lat": 38.92084416666667, "rental_uris": {"ios": "https://dc.lft.to/lastmile_qr_scan", "android": "https://dc.lft.to/lastmile_qr_scan"}, "bike_id": "2e1b36009b3c25c6eab7e71b9d22b537", "fusion_lat": 0.0}, {"lon": -77.04676483333333, "name": "0885ffb2580bb3af9785c2d3ec1fb53d", "is_disabled": 0, "type": "electric_scooter", "is_reserved": 0, "fusion_lon": 0.0, "lat": 38.895639, "rental_uris": {"ios": "https://dc.lft.to/lastmile_qr_scan", "android": "https://dc.lft.to/lastmile_qr_scan"}, "bike_id": "0885ffb2580bb3af9785c2d3ec1fb53d", "fusion_lat": 0.0}, {"lon": -76.90183766666667, "name": "801ccc52e7920b3c20b8e6fc3003d7a2", "is_disabled": 0, "type": "electric_bike", "is_reserved": 0, "fusion_lon": 0.0, "lat": 39.00194783333333, "rental_uris": {"ios": "https://dc.lft.to/lastmile_qr_scan", "android": "https://dc.lft.to/lastmile_qr_scan"}, "bike_id": "801ccc52e7920b3c20b8e6fc3003d7a2", "fusion_lat": 0.0}, {"lon": -77.02949483333333, "name": "6d14312b17f91f1b19d5771c7c596bf2", "is_disabled": 0, "type": "electric_scooter", "is_reserved": 0, "fusion_lon": 0.0, "lat": 38.905063166666665, "rental_uris": {"ios": "https://dc.lft.to/lastmile_qr_scan", "android": "https://dc.lft.to/lastmile_qr_scan"}, "bike_id": "6d14312b17f91f1b19d5771c7c596bf2", "fusion_lat": 0.0}, {"lon": -76.93395583333333, "name": "f7d6eb3ce37f750e2abb860ab04cb8fc", "is_disabled": 0, "type": "electric_scooter", "is_reserved": 0, "fusion_lon": 0.0, "lat": 38.899120833333335, "rental_uris": {"ios": "https://dc.lft.to/lastmile_qr_scan", "android": "https://dc.lft.to/lastmile_qr_scan"}, "bike_id": "f7d6eb3ce37f750e2abb860ab04cb8fc", "fusion_lat": 0.0}, {"lon": -77.1171595, "name": "93519852bafc223309bb766fc3b26bbd", "is_disabled": 0, "type": "electric_bike", "is_reserved": 0, "fusion_lon": 0.0, "lat": 38.88230683333333, "rental_uris": {"ios": "https://dc.lft.to/lastmile_qr_scan", "android": "https://dc.lft.to/lastmile_qr_scan"}, "bike_id": "93519852bafc223309bb766fc3b26bbd", "fusion_lat": 0.0}, {"lon": -77.00676316666667, "name": "e32cb4b32bc64acbb6e2603c86ba3d04", "is_disabled": 0, "type": "electric_scooter", "is_reserved": 0, "fusion_lon": 0.0, "lat": 38.876580833333335, "rental_uris": {"ios": "https://dc.lft.to/lastmile_qr_scan", "android": "https://dc.lft.to/lastmile_qr_scan"}, "bike_id": "e32cb4b32bc64acbb6e2603c86ba3d04", "fusion_lat": 0.0}, {"lon": -77.04787416666667, "name": "9c1c6de1a01e548adfcd835541160346", "is_disabled": 0, "type": "electric_scooter", "is_reserved": 0, "fusion_lon": 0.0, "lat": 38.89920333333333, "rental_uris": {"ios": "https://dc.lft.to/lastmile_qr_scan", "android": "https://dc.lft.to/lastmile_qr_scan"}, "bike_id": "9c1c6de1a01e548adfcd835541160346", "fusion_lat": 0.0}, {"lon": -77.02136566666667, "name": "b39d36df7f98019451deea012d081a82", "is_disabled": 0, "type": "electric_scooter", "is_reserved": 0, "fusion_lon": 0.0, "lat": 38.92404166666667, "rental_uris": {"ios": "https://dc.lft.to/lastmile_qr_scan", "android": "https://dc.lft.to/lastmile_qr_scan"}, "bike_id": "b39d36df7f98019451deea012d081a82", "fusion_lat": 0.0}, {"lon": -77.07661833333333, "name": "2b8950fcdb70202425158e4561a42c81", "is_disabled": 0, "type": "electric_bike", "is_reserved": 0, "fusion_lon": 0.0, "lat": 38.80982216666666, "rental_uris": {"ios": "https://dc.lft.to/lastmile_qr_scan", "android": "https://dc.lft.to/lastmile_qr_scan"}, "bike_id": "2b8950fcdb70202425158e4561a42c81", "fusion_lat": 0.0}, {"lon": -77.00934066666667, "name": "7c718acefd1197660adfb530ed47462d", "is_disabled": 0, "type": "electric_scooter", "is_reserved": 0, "fusion_lon": 0.0, "lat": 38.89984116666667, "rental_uris": {"ios": "https://dc.lft.to/lastmile_qr_scan", "android": "https://dc.lft.to/lastmile_qr_scan"}, "bike_id": "7c718acefd1197660adfb530ed47462d", "fusion_lat": 0.0}, {"lon": -76.97823416666667, "name": "758e7b6c06a0ffd9824059b7b5c3c5df", "is_disabled": 0, "type": "electric_scooter", "is_reserved": 0, "fusion_lon": 0.0, "lat": 38.893963166666666, "rental_uris": {"ios": "https://dc.lft.to/lastmile_qr_scan", "android": "https://dc.lft.to/lastmile_qr_scan"}, "bike_id": "758e7b6c06a0ffd9824059b7b5c3c5df", "fusion_lat": 0.0}, {"lon": -77.043105, "name": "6a32038edb3400b6ab1b588e7bae4f70", "is_disabled": 0, "type": "electric_scooter", "is_reserved": 0, "fusion_lon": 0.0, "lat": 38.92360466666667, "rental_uris": {"ios": "https://dc.lft.to/lastmile_qr_scan", "android": "https://dc.lft.to/lastmile_qr_scan"}, "bike_id": "6a32038edb3400b6ab1b588e7bae4f70", "fusion_lat": 0.0}, {"lon": -77.0282935, "name": "4222fa02d9e307bbc17dcffd839e9a5a", "is_disabled": 0, "type": "electric_scooter", "is_reserved": 0, "fusion_lon": 0.0, "lat": 38.89612066666667, "rental_uris": {"ios": "https://dc.lft.to/lastmile_qr_scan", "android": "https://dc.lft.to/lastmile_qr_scan"}, "bike_id": "4222fa02d9e307bbc17dcffd839e9a5a", "fusion_lat": 0.0}, {"lon": -77.0404505, "name": "711c6daa913fce5ffc3f4990276968e2", "is_disabled": 0, "type": "electric_scooter", "is_reserved": 0, "fusion_lon": 0.0, "lat": 38.90869033333333, "rental_uris": {"ios": "https://dc.lft.to/lastmile_qr_scan", "android": "https://dc.lft.to/lastmile_qr_scan"}, "bike_id": "711c6daa913fce5ffc3f4990276968e2", "fusion_lat": 0.0}, {"lon": -77.03921633333333, "name": "af23fba2809e8449ed5242048503c213", "is_disabled": 0, "type": "electric_scooter", "is_reserved": 0, "fusion_lon": 0.0, "lat": 38.89860433333333, "rental_uris": {"ios": "https://dc.lft.to/lastmile_qr_scan", "android": "https://dc.lft.to/lastmile_qr_scan"}, "bike_id": "af23fba2809e8449ed5242048503c213", "fusion_lat": 0.0}, {"lon": -77.01272466666667, "name": "e98b2937eedf01a8e63341ed5311ee56", "is_disabled": 0, "type": "electric_scooter", "is_reserved": 0, "fusion_lon": 0.0, "lat": 38.898276833333334, "rental_uris": {"ios": "https://dc.lft.to/lastmile_qr_scan", "android": "https://dc.lft.to/lastmile_qr_scan"}, "bike_id": "e98b2937eedf01a8e63341ed5311ee56", "fusion_lat": 0.0}, {"lon": -77.01180516666666, "name": "da1043fbb90fc6c070b35fe28605520d", "is_disabled": 0, "type": "electric_scooter", "is_reserved": 0, "fusion_lon": 0.0, "lat": 38.900438, "rental_uris": {"ios": "https://dc.lft.to/lastmile_qr_scan", "android": "https://dc.lft.to/lastmile_qr_scan"}, "bike_id": "da1043fbb90fc6c070b35fe28605520d", "fusion_lat": 0.0}, {"lon": -77.06081933333333, "name": "c6ee8034bd8126120c1803663287c168", "is_disabled": 0, "type": "electric_bike", "is_reserved": 0, "fusion_lon": 0.0, "lat": 38.804532333333334, "rental_uris": {"ios": "https://dc.lft.to/lastmile_qr_scan", "android": "https://dc.lft.to/lastmile_qr_scan"}, "bike_id": "c6ee8034bd8126120c1803663287c168", "fusion_lat": 0.0}, {"lon": -77.041872, "name": "e682d8028cdfc96f55b33be49546c624", "is_disabled": 0, "type": "electric_scooter", "is_reserved": 0, "fusion_lon": 0.0, "lat": 38.9205275, "rental_uris": {"ios": "https://dc.lft.to/lastmile_qr_scan", "android": "https://dc.lft.to/lastmile_qr_scan"}, "bike_id": "e682d8028cdfc96f55b33be49546c624", "fusion_lat": 0.0}, {"lon": -76.993094, "name": "8c1653703ad76c6e5a895512cc97e60d", "is_disabled": 0, "type": "electric_bike", "is_reserved": 0, "fusion_lon": 0.0, "lat": 38.94631183333333, "rental_uris": {"ios": "https://dc.lft.to/lastmile_qr_scan", "android": "https://dc.lft.to/lastmile_qr_scan"}, "bike_id": "8c1653703ad76c6e5a895512cc97e60d", "fusion_lat": 0.0}, {"lon": -77.01986016666666, "name": "04bd5c4d809cfcd7da0b909cafa313af", "is_disabled": 0, "type": "electric_scooter", "is_reserved": 0, "fusion_lon": 0.0, "lat": 38.91564483333333, "rental_uris": {"ios": "https://dc.lft.to/lastmile_qr_scan", "android": "https://dc.lft.to/lastmile_qr_scan"}, "bike_id": "04bd5c4d809cfcd7da0b909cafa313af", "fusion_lat": 0.0}, {"lon": -77.0325835, "name": "44640c5deb3eac0f134018593bb1d952", "is_disabled": 0, "type": "electric_scooter", "is_reserved": 0, "fusion_lon": 0.0, "lat": 38.935748, "rental_uris": {"ios": "https://dc.lft.to/lastmile_qr_scan", "android": "https://dc.lft.to/lastmile_qr_scan"}, "bike_id": "44640c5deb3eac0f134018593bb1d952", "fusion_lat": 0.0}, {"lon": -77.02372533333333, "name": "f77bf158bfad84ba0e25435792924e95", "is_disabled": 0, "type": "electric_scooter", "is_reserved": 0, "fusion_lon": 0.0, "lat": 38.90035533333333, "rental_uris": {"ios": "https://dc.lft.to/lastmile_qr_scan", "android": "https://dc.lft.to/lastmile_qr_scan"}, "bike_id": "f77bf158bfad84ba0e25435792924e95", "fusion_lat": 0.0}, {"lon": -77.05522416666666, "name": "c3c0334b4ec8d54fc937cd8a57c9f5a4", "is_disabled": 0, "type": "electric_scooter", "is_reserved": 0, "fusion_lon": 0.0, "lat": 38.897362666666666, "rental_uris": {"ios": "https://dc.lft.to/lastmile_qr_scan", "android": "https://dc.lft.to/lastmile_qr_scan"}, "bike_id": "c3c0334b4ec8d54fc937cd8a57c9f5a4", "fusion_lat": 0.0}, {"lon": -77.01807516666666, "name": "e477d8d76ecd9ea3f7edcfa85dd5d7a9", "is_disabled": 0, "type": "electric_scooter", "is_reserved": 0, "fusion_lon": 0.0, "lat": 38.92147516666667, "rental_uris": {"ios": "https://dc.lft.to/lastmile_qr_scan", "android": "https://dc.lft.to/lastmile_qr_scan"}, "bike_id": "e477d8d76ecd9ea3f7edcfa85dd5d7a9", "fusion_lat": 0.0}, {"lon": -77.02122333333334, "name": "d86f5352df875b2b5f0270003e6e8be8", "is_disabled": 0, "type": "electric_scooter", "is_reserved": 0, "fusion_lon": 0.0, "lat": 38.93113016666667, "rental_uris": {"ios": "https://dc.lft.to/lastmile_qr_scan", "android": "https://dc.lft.to/lastmile_qr_scan"}, "bike_id": "d86f5352df875b2b5f0270003e6e8be8", "fusion_lat": 0.0}, {"lon": -77.02442733333334, "name": "554209c95cb5e7fe3b24126f67e1930e", "is_disabled": 0, "type": "electric_scooter", "is_reserved": 0, "fusion_lon": 0.0, "lat": 38.920449833333336, "rental_uris": {"ios": "https://dc.lft.to/lastmile_qr_scan", "android": "https://dc.lft.to/lastmile_qr_scan"}, "bike_id": "554209c95cb5e7fe3b24126f67e1930e", "fusion_lat": 0.0}, {"lon": -77.04355616666666, "name": "07d721ffe3dc9127a5afd55666119286", "is_disabled": 0, "type": "electric_scooter", "is_reserved": 0, "fusion_lon": 0.0, "lat": 38.905527666666664, "rental_uris": {"ios": "https://dc.lft.to/lastmile_qr_scan", "android": "https://dc.lft.to/lastmile_qr_scan"}, "bike_id": "07d721ffe3dc9127a5afd55666119286", "fusion_lat": 0.0}, {"lon": -77.04871, "name": "11c74425aefb651bb0090131ef7ea92a", "is_disabled": 0, "type": "electric_scooter", "is_reserved": 0, "fusion_lon": 0.0, "lat": 38.896549666666665, "rental_uris": {"ios": "https://dc.lft.to/lastmile_qr_scan", "android": "https://dc.lft.to/lastmile_qr_scan"}, "bike_id": "11c74425aefb651bb0090131ef7ea92a", "fusion_lat": 0.0}, {"lon": -77.01794416666667, "name": "a4d0ede21bc76054d06d9a321187209f", "is_disabled": 0, "type": "electric_scooter", "is_reserved": 0, "fusion_lon": 0.0, "lat": 38.919489666666664, "rental_uris": {"ios": "https://dc.lft.to/lastmile_qr_scan", "android": "https://dc.lft.to/lastmile_qr_scan"}, "bike_id": "a4d0ede21bc76054d06d9a321187209f", "fusion_lat": 0.0}, {"lon": -76.9320805, "name": "eb6f14f5245347ec6446cfd0115bda54", "is_disabled": 0, "type": "electric_scooter", "is_reserved": 0, "fusion_lon": 0.0, "lat": 38.896717333333335, "rental_uris": {"ios": "https://dc.lft.to/lastmile_qr_scan", "android": "https://dc.lft.to/lastmile_qr_scan"}, "bike_id": "eb6f14f5245347ec6446cfd0115bda54", "fusion_lat": 0.0}, {"lon": -77.02213033333334, "name": "df64f9eedc55eae635667f9e8fa556b7", "is_disabled": 0, "type": "electric_scooter", "is_reserved": 0, "fusion_lon": 0.0, "lat": 38.899969, "rental_uris": {"ios": "https://dc.lft.to/lastmile_qr_scan", "android": "https://dc.lft.to/lastmile_qr_scan"}, "bike_id": "df64f9eedc55eae635667f9e8fa556b7", "fusion_lat": 0.0}, {"lon": -77.00414266666667, "name": "dbdc4861633f34149b42a2d459f50d78", "is_disabled": 0, "type": "electric_bike", "is_reserved": 0, "fusion_lon": 0.0, "lat": 38.98537433333333, "rental_uris": {"ios": "https://dc.lft.to/lastmile_qr_scan", "android": "https://dc.lft.to/lastmile_qr_scan"}, "bike_id": "dbdc4861633f34149b42a2d459f50d78", "fusion_lat": 0.0}, {"lon": -77.048983, "name": "a3d0cb9620b7044ed741c9eda977bd45", "is_disabled": 0, "type": "electric_scooter", "is_reserved": 0, "fusion_lon": 0.0, "lat": 38.916082833333334, "rental_uris": {"ios": "https://dc.lft.to/lastmile_qr_scan", "android": "https://dc.lft.to/lastmile_qr_scan"}, "bike_id": "a3d0cb9620b7044ed741c9eda977bd45", "fusion_lat": 0.0}, {"lon": -77.04167416666667, "name": "4e541b0809c4df2f0e95d7baf0c916cf", "is_disabled": 0, "type": "electric_scooter", "is_reserved": 0, "fusion_lon": 0.0, "lat": 38.916538833333334, "rental_uris": {"ios": "https://dc.lft.to/lastmile_qr_scan", "android": "https://dc.lft.to/lastmile_qr_scan"}, "bike_id": "4e541b0809c4df2f0e95d7baf0c916cf", "fusion_lat": 0.0}, {"lon": -77.0044325, "name": "6985c5b0a4b41bd8b3163c80a6a611a5", "is_disabled": 0, "type": "electric_scooter", "is_reserved": 0, "fusion_lon": 0.0, "lat": 38.87836, "rental_uris": {"ios": "https://dc.lft.to/lastmile_qr_scan", "android": "https://dc.lft.to/lastmile_qr_scan"}, "bike_id": "6985c5b0a4b41bd8b3163c80a6a611a5", "fusion_lat": 0.0}, {"lon": -77.002191, "name": "41a2bddb6081b5f985e57de6c6d44bd6", "is_disabled": 0, "type": "electric_scooter", "is_reserved": 0, "fusion_lon": 0.0, "lat": 38.89813483333333, "rental_uris": {"ios": "https://dc.lft.to/lastmile_qr_scan", "android": "https://dc.lft.to/lastmile_qr_scan"}, "bike_id": "41a2bddb6081b5f985e57de6c6d44bd6", "fusion_lat": 0.0}, {"lon": -76.98489633333334, "name": "b62c6a72b098c408aabe5a20b696c5ff", "is_disabled": 0, "type": "electric_scooter", "is_reserved": 0, "fusion_lon": 0.0, "lat": 38.92034983333333, "rental_uris": {"ios": "https://dc.lft.to/lastmile_qr_scan", "android": "https://dc.lft.to/lastmile_qr_scan"}, "bike_id": "b62c6a72b098c408aabe5a20b696c5ff", "fusion_lat": 0.0}, {"lon": -77.03269483333334, "name": "75f8ca2e43ce1da9b672c7f122c837cd", "is_disabled": 0, "type": "electric_scooter", "is_reserved": 0, "fusion_lon": 0.0, "lat": 38.93257166666667, "rental_uris": {"ios": "https://dc.lft.to/lastmile_qr_scan", "android": "https://dc.lft.to/lastmile_qr_scan"}, "bike_id": "75f8ca2e43ce1da9b672c7f122c837cd", "fusion_lat": 0.0}, {"lon": -77.02128266666666, "name": "9f557461b3eb6dca43718734e2a5da93", "is_disabled": 0, "type": "electric_scooter", "is_reserved": 0, "fusion_lon": 0.0, "lat": 38.924245666666664, "rental_uris": {"ios": "https://dc.lft.to/lastmile_qr_scan", "android": "https://dc.lft.to/lastmile_qr_scan"}, "bike_id": "9f557461b3eb6dca43718734e2a5da93", "fusion_lat": 0.0}, {"lon": -77.01365766666666, "name": "91377bf4a698624ff7b35b2e11326727", "is_disabled": 0, "type": "electric_scooter", "is_reserved": 0, "fusion_lon": 0.0, "lat": 38.91333683333333, "rental_uris": {"ios": "https://dc.lft.to/lastmile_qr_scan", "android": "https://dc.lft.to/lastmile_qr_scan"}, "bike_id": "91377bf4a698624ff7b35b2e11326727", "fusion_lat": 0.0}, {"lon": -77.02181866666666, "name": "a47994960fbcb0dbae13101a65347781", "is_disabled": 0, "type": "electric_scooter", "is_reserved": 0, "fusion_lon": 0.0, "lat": 38.943109666666665, "rental_uris": {"ios": "https://dc.lft.to/lastmile_qr_scan", "android": "https://dc.lft.to/lastmile_qr_scan"}, "bike_id": "a47994960fbcb0dbae13101a65347781", "fusion_lat": 0.0}, {"lon": -77.03504116666667, "name": "0dbeede7dce19e7bcc7874c5e338a1dc", "is_disabled": 0, "type": "electric_scooter", "is_reserved": 0, "fusion_lon": 0.0, "lat": 38.901424, "rental_uris": {"ios": "https://dc.lft.to/lastmile_qr_scan", "android": "https://dc.lft.to/lastmile_qr_scan"}, "bike_id": "0dbeede7dce19e7bcc7874c5e338a1dc", "fusion_lat": 0.0}, {"lon": -77.04322866666666, "name": "26cd7829bc7587d792d1de81c7838079", "is_disabled": 0, "type": "electric_scooter", "is_reserved": 0, "fusion_lon": 0.0, "lat": 38.9066785, "rental_uris": {"ios": "https://dc.lft.to/lastmile_qr_scan", "android": "https://dc.lft.to/lastmile_qr_scan"}, "bike_id": "26cd7829bc7587d792d1de81c7838079", "fusion_lat": 0.0}, {"lon": -77.00881183333334, "name": "d939d6d6115b9358efb7a20992de41bd", "is_disabled": 0, "type": "electric_scooter", "is_reserved": 0, "fusion_lon": 0.0, "lat": 38.9007745, "rental_uris": {"ios": "https://dc.lft.to/lastmile_qr_scan", "android": "https://dc.lft.to/lastmile_qr_scan"}, "bike_id": "d939d6d6115b9358efb7a20992de41bd", "fusion_lat": 0.0}, {"lon": -77.041511, "name": "d205717bce3fbeb5d186a67a8313cb1c", "is_disabled": 0, "type": "electric_scooter", "is_reserved": 0, "fusion_lon": 0.0, "lat": 38.90152416666667, "rental_uris": {"ios": "https://dc.lft.to/lastmile_qr_scan", "android": "https://dc.lft.to/lastmile_qr_scan"}, "bike_id": "d205717bce3fbeb5d186a67a8313cb1c", "fusion_lat": 0.0}, {"lon": -77.02487016666667, "name": "0dcae30c082bd025499f9507a06a1610", "is_disabled": 0, "type": "electric_scooter", "is_reserved": 0, "fusion_lon": 0.0, "lat": 38.918187, "rental_uris": {"ios": "https://dc.lft.to/lastmile_qr_scan", "android": "https://dc.lft.to/lastmile_qr_scan"}, "bike_id": "0dcae30c082bd025499f9507a06a1610", "fusion_lat": 0.0}, {"lon": -77.04003616666667, "name": "bf91e8893c6e4558d1c6ffb0885a4ec8", "is_disabled": 0, "type": "electric_scooter", "is_reserved": 0, "fusion_lon": 0.0, "lat": 38.9170345, "rental_uris": {"ios": "https://dc.lft.to/lastmile_qr_scan", "android": "https://dc.lft.to/lastmile_qr_scan"}, "bike_id": "bf91e8893c6e4558d1c6ffb0885a4ec8", "fusion_lat": 0.0}, {"lon": -77.02982283333333, "name": "ebcbc84344b16b52299e7a82ec6e0bfc", "is_disabled": 0, "type": "electric_scooter", "is_reserved": 0, "fusion_lon": 0.0, "lat": 38.94353533333334, "rental_uris": {"ios": "https://dc.lft.to/lastmile_qr_scan", "android": "https://dc.lft.to/lastmile_qr_scan"}, "bike_id": "ebcbc84344b16b52299e7a82ec6e0bfc", "fusion_lat": 0.0}, {"lon": -77.00289616666667, "name": "79e27a43f3a5f701fb2eb11180d722cb", "is_disabled": 0, "type": "electric_scooter", "is_reserved": 0, "fusion_lon": 0.0, "lat": 38.892363833333334, "rental_uris": {"ios": "https://dc.lft.to/lastmile_qr_scan", "android": "https://dc.lft.to/lastmile_qr_scan"}, "bike_id": "79e27a43f3a5f701fb2eb11180d722cb", "fusion_lat": 0.0}, {"lon": -76.995749, "name": "9159aed99f2c529ac2ce71ebb114195a", "is_disabled": 0, "type": "electric_bike", "is_reserved": 0, "fusion_lon": 0.0, "lat": 38.831612166666666, "rental_uris": {"ios": "https://dc.lft.to/lastmile_qr_scan", "android": "https://dc.lft.to/lastmile_qr_scan"}, "bike_id": "9159aed99f2c529ac2ce71ebb114195a", "fusion_lat": 0.0}, {"lon": -77.04724116666667, "name": "6dfa7a38047005edef361a8a304c0fff", "is_disabled": 0, "type": "electric_scooter", "is_reserved": 0, "fusion_lon": 0.0, "lat": 38.899768333333334, "rental_uris": {"ios": "https://dc.lft.to/lastmile_qr_scan", "android": "https://dc.lft.to/lastmile_qr_scan"}, "bike_id": "6dfa7a38047005edef361a8a304c0fff", "fusion_lat": 0.0}, {"lon": -77.0694345, "name": "954b1adbace325337054a627be0244ec", "is_disabled": 0, "type": "electric_bike", "is_reserved": 0, "fusion_lon": 0.0, "lat": 38.847709, "rental_uris": {"ios": "https://dc.lft.to/lastmile_qr_scan", "android": "https://dc.lft.to/lastmile_qr_scan"}, "bike_id": "954b1adbace325337054a627be0244ec", "fusion_lat": 0.0}, {"lon": -76.98787833333333, "name": "00c157b5c718733a370e2008550e63dd", "is_disabled": 0, "type": "electric_scooter", "is_reserved": 0, "fusion_lon": 0.0, "lat": 38.8785015, "rental_uris": {"ios": "https://dc.lft.to/lastmile_qr_scan", "android": "https://dc.lft.to/lastmile_qr_scan"}, "bike_id": "00c157b5c718733a370e2008550e63dd", "fusion_lat": 0.0}, {"lon": -77.04500916666667, "name": "983c8378d0e646c8254ccf5aa2d17e09", "is_disabled": 0, "type": "electric_scooter", "is_reserved": 0, "fusion_lon": 0.0, "lat": 38.9111795, "rental_uris": {"ios": "https://dc.lft.to/lastmile_qr_scan", "android": "https://dc.lft.to/lastmile_qr_scan"}, "bike_id": "983c8378d0e646c8254ccf5aa2d17e09", "fusion_lat": 0.0}, {"lon": -77.02009916666667, "name": "7e616ee2e535554b9b3ccdc25fd33a99", "is_disabled": 0, "type": "electric_scooter", "is_reserved": 0, "fusion_lon": 0.0, "lat": 38.92419966666667, "rental_uris": {"ios": "https://dc.lft.to/lastmile_qr_scan", "android": "https://dc.lft.to/lastmile_qr_scan"}, "bike_id": "7e616ee2e535554b9b3ccdc25fd33a99", "fusion_lat": 0.0}, {"lon": -76.97351183333333, "name": "65da00afa18b59165e1b044952eb050c", "is_disabled": 0, "type": "electric_bike", "is_reserved": 0, "fusion_lon": 0.0, "lat": 38.86565433333333, "rental_uris": {"ios": "https://dc.lft.to/lastmile_qr_scan", "android": "https://dc.lft.to/lastmile_qr_scan"}, "bike_id": "65da00afa18b59165e1b044952eb050c", "fusion_lat": 0.0}, {"lon": -77.0414585, "name": "0fd1c545541d06f14cfafad23f277de3", "is_disabled": 0, "type": "electric_scooter", "is_reserved": 0, "fusion_lon": 0.0, "lat": 38.905182, "rental_uris": {"ios": "https://dc.lft.to/lastmile_qr_scan", "android": "https://dc.lft.to/lastmile_qr_scan"}, "bike_id": "0fd1c545541d06f14cfafad23f277de3", "fusion_lat": 0.0}, {"lon": -77.01910133333334, "name": "8cd1c63a36ee52ecc80c908d77d9b5f2", "is_disabled": 0, "type": "electric_scooter", "is_reserved": 0, "fusion_lon": 0.0, "lat": 38.92939066666667, "rental_uris": {"ios": "https://dc.lft.to/lastmile_qr_scan", "android": "https://dc.lft.to/lastmile_qr_scan"}, "bike_id": "8cd1c63a36ee52ecc80c908d77d9b5f2", "fusion_lat": 0.0}, {"lon": -77.04121466666666, "name": "40946662361400a02a64544a1d04fb1c", "is_disabled": 0, "type": "electric_scooter", "is_reserved": 0, "fusion_lon": 0.0, "lat": 38.9212445, "rental_uris": {"ios": "https://dc.lft.to/lastmile_qr_scan", "android": "https://dc.lft.to/lastmile_qr_scan"}, "bike_id": "40946662361400a02a64544a1d04fb1c", "fusion_lat": 0.0}, {"lon": -77.015573, "name": "6e89a2131430c7c9b2d1d737a1e679d9", "is_disabled": 0, "type": "electric_scooter", "is_reserved": 0, "fusion_lon": 0.0, "lat": 38.928048, "rental_uris": {"ios": "https://dc.lft.to/lastmile_qr_scan", "android": "https://dc.lft.to/lastmile_qr_scan"}, "bike_id": "6e89a2131430c7c9b2d1d737a1e679d9", "fusion_lat": 0.0}, {"lon": -77.03660533333333, "name": "5ecff6a62348ec8c536d4daea94d551d", "is_disabled": 0, "type": "electric_scooter", "is_reserved": 0, "fusion_lon": 0.0, "lat": 38.9316, "rental_uris": {"ios": "https://dc.lft.to/lastmile_qr_scan", "android": "https://dc.lft.to/lastmile_qr_scan"}, "bike_id": "5ecff6a62348ec8c536d4daea94d551d", "fusion_lat": 0.0}, {"lon": -77.02699083333333, "name": "e1d5acfbdb5813295892291f58be1f43", "is_disabled": 0, "type": "electric_scooter", "is_reserved": 0, "fusion_lon": 0.0, "lat": 38.949385166666666, "rental_uris": {"ios": "https://dc.lft.to/lastmile_qr_scan", "android": "https://dc.lft.to/lastmile_qr_scan"}, "bike_id": "e1d5acfbdb5813295892291f58be1f43", "fusion_lat": 0.0}, {"lon": -77.04619266666667, "name": "78a9cdf7d2fc241396ed913bbc2940ad", "is_disabled": 0, "type": "electric_scooter", "is_reserved": 0, "fusion_lon": 0.0, "lat": 38.9162055, "rental_uris": {"ios": "https://dc.lft.to/lastmile_qr_scan", "android": "https://dc.lft.to/lastmile_qr_scan"}, "bike_id": "78a9cdf7d2fc241396ed913bbc2940ad", "fusion_lat": 0.0}, {"lon": -77.02199416666667, "name": "4eb998a05abc02435094a7b5de23584e", "is_disabled": 0, "type": "electric_scooter", "is_reserved": 0, "fusion_lon": 0.0, "lat": 38.87897516666666, "rental_uris": {"ios": "https://dc.lft.to/lastmile_qr_scan", "android": "https://dc.lft.to/lastmile_qr_scan"}, "bike_id": "4eb998a05abc02435094a7b5de23584e", "fusion_lat": 0.0}, {"lon": -77.0542945, "name": "94cd4c67db265ae0e735a3ed4e0ebd43", "is_disabled": 0, "type": "electric_scooter", "is_reserved": 0, "fusion_lon": 0.0, "lat": 38.9234495, "rental_uris": {"ios": "https://dc.lft.to/lastmile_qr_scan", "android": "https://dc.lft.to/lastmile_qr_scan"}, "bike_id": "94cd4c67db265ae0e735a3ed4e0ebd43", "fusion_lat": 0.0}, {"lon": -77.02179616666666, "name": "4eea9e4dded9303c2f1e8aa987443c7c", "is_disabled": 0, "type": "electric_scooter", "is_reserved": 0, "fusion_lon": 0.0, "lat": 38.943102333333336, "rental_uris": {"ios": "https://dc.lft.to/lastmile_qr_scan", "android": "https://dc.lft.to/lastmile_qr_scan"}, "bike_id": "4eea9e4dded9303c2f1e8aa987443c7c", "fusion_lat": 0.0}, {"lon": -76.99805933333333, "name": "42699e3044b52fb9e92a9dcc261e5574", "is_disabled": 0, "type": "electric_scooter", "is_reserved": 0, "fusion_lon": 0.0, "lat": 38.89607683333333, "rental_uris": {"ios": "https://dc.lft.to/lastmile_qr_scan", "android": "https://dc.lft.to/lastmile_qr_scan"}, "bike_id": "42699e3044b52fb9e92a9dcc261e5574", "fusion_lat": 0.0}, {"lon": -77.04654816666667, "name": "2adccf39b0c1e1a24a8d19add7617db4", "is_disabled": 0, "type": "electric_scooter", "is_reserved": 0, "fusion_lon": 0.0, "lat": 38.90422683333333, "rental_uris": {"ios": "https://dc.lft.to/lastmile_qr_scan", "android": "https://dc.lft.to/lastmile_qr_scan"}, "bike_id": "2adccf39b0c1e1a24a8d19add7617db4", "fusion_lat": 0.0}, {"lon": -77.0223135, "name": "c6428a13e51758e79c6c67710b741bdb", "is_disabled": 0, "type": "electric_scooter", "is_reserved": 0, "fusion_lon": 0.0, "lat": 38.923599333333335, "rental_uris": {"ios": "https://dc.lft.to/lastmile_qr_scan", "android": "https://dc.lft.to/lastmile_qr_scan"}, "bike_id": "c6428a13e51758e79c6c67710b741bdb", "fusion_lat": 0.0}, {"lon": -76.9853975, "name": "5caea92d0040d6265c73c34ebf489474", "is_disabled": 0, "type": "electric_scooter", "is_reserved": 0, "fusion_lon": 0.0, "lat": 38.879706666666664, "rental_uris": {"ios": "https://dc.lft.to/lastmile_qr_scan", "android": "https://dc.lft.to/lastmile_qr_scan"}, "bike_id": "5caea92d0040d6265c73c34ebf489474", "fusion_lat": 0.0}, {"lon": -77.02854633333334, "name": "4f158d797ad8bd349106b6fc1e4d1e5e", "is_disabled": 0, "type": "electric_scooter", "is_reserved": 0, "fusion_lon": 0.0, "lat": 38.9224775, "rental_uris": {"ios": "https://dc.lft.to/lastmile_qr_scan", "android": "https://dc.lft.to/lastmile_qr_scan"}, "bike_id": "4f158d797ad8bd349106b6fc1e4d1e5e", "fusion_lat": 0.0}, {"lon": -77.039358, "name": "f4290efa94ae9d55993f93ee26de6175", "is_disabled": 0, "type": "electric_scooter", "is_reserved": 0, "fusion_lon": 0.0, "lat": 38.92469166666667, "rental_uris": {"ios": "https://dc.lft.to/lastmile_qr_scan", "android": "https://dc.lft.to/lastmile_qr_scan"}, "bike_id": "f4290efa94ae9d55993f93ee26de6175", "fusion_lat": 0.0}, {"lon": -77.00068166666667, "name": "f9f16e73763f95b38fd24b4c2c3508cf", "is_disabled": 0, "type": "electric_scooter", "is_reserved": 0, "fusion_lon": 0.0, "lat": 38.876658166666665, "rental_uris": {"ios": "https://dc.lft.to/lastmile_qr_scan", "android": "https://dc.lft.to/lastmile_qr_scan"}, "bike_id": "f9f16e73763f95b38fd24b4c2c3508cf", "fusion_lat": 0.0}, {"lon": -77.0037005, "name": "e4b61ee5632cd2f9a4bc640973b81b6b", "is_disabled": 0, "type": "electric_scooter", "is_reserved": 0, "fusion_lon": 0.0, "lat": 38.8973735, "rental_uris": {"ios": "https://dc.lft.to/lastmile_qr_scan", "android": "https://dc.lft.to/lastmile_qr_scan"}, "bike_id": "e4b61ee5632cd2f9a4bc640973b81b6b", "fusion_lat": 0.0}, {"lon": -76.9955945, "name": "c7fe163a6f58ad66c3d30648a5792f5d", "is_disabled": 0, "type": "electric_scooter", "is_reserved": 0, "fusion_lon": 0.0, "lat": 38.90015483333333, "rental_uris": {"ios": "https://dc.lft.to/lastmile_qr_scan", "android": "https://dc.lft.to/lastmile_qr_scan"}, "bike_id": "c7fe163a6f58ad66c3d30648a5792f5d", "fusion_lat": 0.0}, {"lon": -76.97329816666667, "name": "e4590555972e8dd4768d317298ca2746", "is_disabled": 0, "type": "electric_scooter", "is_reserved": 0, "fusion_lon": 0.0, "lat": 38.9041195, "rental_uris": {"ios": "https://dc.lft.to/lastmile_qr_scan", "android": "https://dc.lft.to/lastmile_qr_scan"}, "bike_id": "e4590555972e8dd4768d317298ca2746", "fusion_lat": 0.0}, {"lon": -77.01512133333334, "name": "07415a08a750879a484d9dc9fa4dfc25", "is_disabled": 0, "type": "electric_scooter", "is_reserved": 0, "fusion_lon": 0.0, "lat": 38.913253, "rental_uris": {"ios": "https://dc.lft.to/lastmile_qr_scan", "android": "https://dc.lft.to/lastmile_qr_scan"}, "bike_id": "07415a08a750879a484d9dc9fa4dfc25", "fusion_lat": 0.0}, {"lon": -77.0994555, "name": "17661f6afec562a517431f6a9e25f2d5", "is_disabled": 0, "type": "electric_scooter", "is_reserved": 0, "fusion_lon": 0.0, "lat": 38.92194683333334, "rental_uris": {"ios": "https://dc.lft.to/lastmile_qr_scan", "android": "https://dc.lft.to/lastmile_qr_scan"}, "bike_id": "17661f6afec562a517431f6a9e25f2d5", "fusion_lat": 0.0}, {"lon": -77.0241025, "name": "de9f8ef5266e9a2e4c45c0e6b298fd1c", "is_disabled": 0, "type": "electric_scooter", "is_reserved": 0, "fusion_lon": 0.0, "lat": 38.896301333333334, "rental_uris": {"ios": "https://dc.lft.to/lastmile_qr_scan", "android": "https://dc.lft.to/lastmile_qr_scan"}, "bike_id": "de9f8ef5266e9a2e4c45c0e6b298fd1c", "fusion_lat": 0.0}, {"lon": -77.00509333333333, "name": "16469daec39b4fcdf99ee53fedf5ffa1", "is_disabled": 0, "type": "electric_scooter", "is_reserved": 0, "fusion_lon": 0.0, "lat": 38.8753915, "rental_uris": {"ios": "https://dc.lft.to/lastmile_qr_scan", "android": "https://dc.lft.to/lastmile_qr_scan"}, "bike_id": "16469daec39b4fcdf99ee53fedf5ffa1", "fusion_lat": 0.0}, {"lon": -77.03208183333334, "name": "3806ba3c9be6d2bf0075a71dda2f1c85", "is_disabled": 0, "type": "electric_scooter", "is_reserved": 0, "fusion_lon": 0.0, "lat": 38.903793, "rental_uris": {"ios": "https://dc.lft.to/lastmile_qr_scan", "android": "https://dc.lft.to/lastmile_qr_scan"}, "bike_id": "3806ba3c9be6d2bf0075a71dda2f1c85", "fusion_lat": 0.0}, {"lon": -77.02811, "name": "9c2d083f8dbb55aa86583308e3d4a778", "is_disabled": 0, "type": "electric_scooter", "is_reserved": 0, "fusion_lon": 0.0, "lat": 38.90266716666667, "rental_uris": {"ios": "https://dc.lft.to/lastmile_qr_scan", "android": "https://dc.lft.to/lastmile_qr_scan"}, "bike_id": "9c2d083f8dbb55aa86583308e3d4a778", "fusion_lat": 0.0}, {"lon": -77.01613533333334, "name": "b8b62d7275990a0f247608a4ac493b57", "is_disabled": 0, "type": "electric_scooter", "is_reserved": 0, "fusion_lon": 0.0, "lat": 38.910754, "rental_uris": {"ios": "https://dc.lft.to/lastmile_qr_scan", "android": "https://dc.lft.to/lastmile_qr_scan"}, "bike_id": "b8b62d7275990a0f247608a4ac493b57", "fusion_lat": 0.0}, {"lon": -77.02157783333334, "name": "11df78cbf0d15e3ce85d325c96f641ca", "is_disabled": 0, "type": "electric_scooter", "is_reserved": 0, "fusion_lon": 0.0, "lat": 38.92616066666667, "rental_uris": {"ios": "https://dc.lft.to/lastmile_qr_scan", "android": "https://dc.lft.to/lastmile_qr_scan"}, "bike_id": "11df78cbf0d15e3ce85d325c96f641ca", "fusion_lat": 0.0}, {"lon": -77.08487183333334, "name": "bf87808246ddf522fe76e2c0eb3eb597", "is_disabled": 0, "type": "electric_scooter", "is_reserved": 0, "fusion_lon": 0.0, "lat": 38.958944, "rental_uris": {"ios": "https://dc.lft.to/lastmile_qr_scan", "android": "https://dc.lft.to/lastmile_qr_scan"}, "bike_id": "bf87808246ddf522fe76e2c0eb3eb597", "fusion_lat": 0.0}, {"lon": -76.941614, "name": "e55ee5b8d3296bab35079c33861afc39", "is_disabled": 0, "type": "electric_bike", "is_reserved": 0, "fusion_lon": 0.0, "lat": 38.865571, "rental_uris": {"ios": "https://dc.lft.to/lastmile_qr_scan", "android": "https://dc.lft.to/lastmile_qr_scan"}, "bike_id": "e55ee5b8d3296bab35079c33861afc39", "fusion_lat": 0.0}, {"lon": -77.02052316666666, "name": "e37798cfa4c3cc3bd656dabed73bcec3", "is_disabled": 0, "type": "electric_scooter", "is_reserved": 0, "fusion_lon": 0.0, "lat": 38.921822166666665, "rental_uris": {"ios": "https://dc.lft.to/lastmile_qr_scan", "android": "https://dc.lft.to/lastmile_qr_scan"}, "bike_id": "e37798cfa4c3cc3bd656dabed73bcec3", "fusion_lat": 0.0}, {"lon": -77.0222685, "name": "3c452725772067a9641453d377b96def", "is_disabled": 0, "type": "electric_scooter", "is_reserved": 0, "fusion_lon": 0.0, "lat": 38.92479983333333, "rental_uris": {"ios": "https://dc.lft.to/lastmile_qr_scan", "android": "https://dc.lft.to/lastmile_qr_scan"}, "bike_id": "3c452725772067a9641453d377b96def", "fusion_lat": 0.0}, {"lon": -77.032611, "name": "ad791e4dff65f022c138380709617b40", "is_disabled": 0, "type": "electric_scooter", "is_reserved": 0, "fusion_lon": 0.0, "lat": 38.930604833333334, "rental_uris": {"ios": "https://dc.lft.to/lastmile_qr_scan", "android": "https://dc.lft.to/lastmile_qr_scan"}, "bike_id": "ad791e4dff65f022c138380709617b40", "fusion_lat": 0.0}, {"lon": -77.042092, "name": "a1e8fdb9f33d3db412b4495c64a77c46", "is_disabled": 0, "type": "electric_scooter", "is_reserved": 0, "fusion_lon": 0.0, "lat": 38.90915616666667, "rental_uris": {"ios": "https://dc.lft.to/lastmile_qr_scan", "android": "https://dc.lft.to/lastmile_qr_scan"}, "bike_id": "a1e8fdb9f33d3db412b4495c64a77c46", "fusion_lat": 0.0}, {"lon": -76.97157633333333, "name": "1c8ed118cf51b3b862b1ad1270324f9a", "is_disabled": 0, "type": "electric_bike", "is_reserved": 0, "fusion_lon": 0.0, "lat": 38.924366, "rental_uris": {"ios": "https://dc.lft.to/lastmile_qr_scan", "android": "https://dc.lft.to/lastmile_qr_scan"}, "bike_id": "1c8ed118cf51b3b862b1ad1270324f9a", "fusion_lat": 0.0}, {"lon": -77.05085783333334, "name": "bed8da93b890b7ba1fb9e5766c903f63", "is_disabled": 0, "type": "electric_bike", "is_reserved": 0, "fusion_lon": 0.0, "lat": 38.813349333333335, "rental_uris": {"ios": "https://dc.lft.to/lastmile_qr_scan", "android": "https://dc.lft.to/lastmile_qr_scan"}, "bike_id": "bed8da93b890b7ba1fb9e5766c903f63", "fusion_lat": 0.0}, {"lon": -77.02306833333333, "name": "1ae023d729271451976b91a6389ec201", "is_disabled": 0, "type": "electric_scooter", "is_reserved": 0, "fusion_lon": 0.0, "lat": 38.917806, "rental_uris": {"ios": "https://dc.lft.to/lastmile_qr_scan", "android": "https://dc.lft.to/lastmile_qr_scan"}, "bike_id": "1ae023d729271451976b91a6389ec201", "fusion_lat": 0.0}, {"lon": -77.04129116666667, "name": "756733855603cbe94a4a223eda6a24a1", "is_disabled": 0, "type": "electric_scooter", "is_reserved": 0, "fusion_lon": 0.0, "lat": 38.9189195, "rental_uris": {"ios": "https://dc.lft.to/lastmile_qr_scan", "android": "https://dc.lft.to/lastmile_qr_scan"}, "bike_id": "756733855603cbe94a4a223eda6a24a1", "fusion_lat": 0.0}, {"lon": -77.0294165, "name": "2d0d9a1c592660a967b47592b9207c5f", "is_disabled": 0, "type": "electric_scooter", "is_reserved": 0, "fusion_lon": 0.0, "lat": 38.90508966666667, "rental_uris": {"ios": "https://dc.lft.to/lastmile_qr_scan", "android": "https://dc.lft.to/lastmile_qr_scan"}, "bike_id": "2d0d9a1c592660a967b47592b9207c5f", "fusion_lat": 0.0}, {"lon": -77.008005, "name": "8600bf692ece221b9420ac775f5ce966", "is_disabled": 0, "type": "electric_scooter", "is_reserved": 0, "fusion_lon": 0.0, "lat": 38.8972055, "rental_uris": {"ios": "https://dc.lft.to/lastmile_qr_scan", "android": "https://dc.lft.to/lastmile_qr_scan"}, "bike_id": "8600bf692ece221b9420ac775f5ce966", "fusion_lat": 0.0}, {"lon": -77.0463445, "name": "13f569f4bc73fbf32aa13a1eca7517de", "is_disabled": 0, "type": "electric_scooter", "is_reserved": 0, "fusion_lon": 0.0, "lat": 38.909579666666666, "rental_uris": {"ios": "https://dc.lft.to/lastmile_qr_scan", "android": "https://dc.lft.to/lastmile_qr_scan"}, "bike_id": "13f569f4bc73fbf32aa13a1eca7517de", "fusion_lat": 0.0}, {"lon": -76.98272433333334, "name": "75237747350996f23dc71c498d07dffd", "is_disabled": 0, "type": "electric_scooter", "is_reserved": 0, "fusion_lon": 0.0, "lat": 38.903515666666664, "rental_uris": {"ios": "https://dc.lft.to/lastmile_qr_scan", "android": "https://dc.lft.to/lastmile_qr_scan"}, "bike_id": "75237747350996f23dc71c498d07dffd", "fusion_lat": 0.0}, {"lon": -76.93061716666666, "name": "048d73e0c2a94c8b6458b5b695695a5d", "is_disabled": 0, "type": "electric_scooter", "is_reserved": 0, "fusion_lon": 0.0, "lat": 38.89558983333333, "rental_uris": {"ios": "https://dc.lft.to/lastmile_qr_scan", "android": "https://dc.lft.to/lastmile_qr_scan"}, "bike_id": "048d73e0c2a94c8b6458b5b695695a5d", "fusion_lat": 0.0}, {"lon": -77.0153785, "name": "69db891d6447f7cc690d74ceb4a4c8fe", "is_disabled": 0, "type": "electric_scooter", "is_reserved": 0, "fusion_lon": 0.0, "lat": 38.902653666666666, "rental_uris": {"ios": "https://dc.lft.to/lastmile_qr_scan", "android": "https://dc.lft.to/lastmile_qr_scan"}, "bike_id": "69db891d6447f7cc690d74ceb4a4c8fe", "fusion_lat": 0.0}, {"lon": -77.00673833333333, "name": "5210a3f18229ac0c05f0755f7880b9ec", "is_disabled": 0, "type": "electric_scooter", "is_reserved": 0, "fusion_lon": 0.0, "lat": 38.90011116666667, "rental_uris": {"ios": "https://dc.lft.to/lastmile_qr_scan", "android": "https://dc.lft.to/lastmile_qr_scan"}, "bike_id": "5210a3f18229ac0c05f0755f7880b9ec", "fusion_lat": 0.0}, {"lon": -77.0033915, "name": "9e7c65f21c151ed0a68bbe3f945c4b11", "is_disabled": 0, "type": "electric_scooter", "is_reserved": 0, "fusion_lon": 0.0, "lat": 38.89754116666667, "rental_uris": {"ios": "https://dc.lft.to/lastmile_qr_scan", "android": "https://dc.lft.to/lastmile_qr_scan"}, "bike_id": "9e7c65f21c151ed0a68bbe3f945c4b11", "fusion_lat": 0.0}, {"lon": -77.05030616666667, "name": "e4c6b465c8918a4f39e4da7819bcf18a", "is_disabled": 0, "type": "electric_scooter", "is_reserved": 0, "fusion_lon": 0.0, "lat": 38.902111, "rental_uris": {"ios": "https://dc.lft.to/lastmile_qr_scan", "android": "https://dc.lft.to/lastmile_qr_scan"}, "bike_id": "e4c6b465c8918a4f39e4da7819bcf18a", "fusion_lat": 0.0}, {"lon": -77.025068, "name": "ab5d6a470215f73163a6a139f9c05244", "is_disabled": 0, "type": "electric_scooter", "is_reserved": 0, "fusion_lon": 0.0, "lat": 38.920632833333336, "rental_uris": {"ios": "https://dc.lft.to/lastmile_qr_scan", "android": "https://dc.lft.to/lastmile_qr_scan"}, "bike_id": "ab5d6a470215f73163a6a139f9c05244", "fusion_lat": 0.0}, {"lon": -77.02572433333333, "name": "dd34976e69ad8524cc68ced572298874", "is_disabled": 0, "type": "electric_scooter", "is_reserved": 0, "fusion_lon": 0.0, "lat": 38.88744633333334, "rental_uris": {"ios": "https://dc.lft.to/lastmile_qr_scan", "android": "https://dc.lft.to/lastmile_qr_scan"}, "bike_id": "dd34976e69ad8524cc68ced572298874", "fusion_lat": 0.0}, {"lon": -76.93927183333334, "name": "78b0f172c0cfeac11d272f6d98e9d61c", "is_disabled": 0, "type": "electric_scooter", "is_reserved": 0, "fusion_lon": 0.0, "lat": 38.89330733333333, "rental_uris": {"ios": "https://dc.lft.to/lastmile_qr_scan", "android": "https://dc.lft.to/lastmile_qr_scan"}, "bike_id": "78b0f172c0cfeac11d272f6d98e9d61c", "fusion_lat": 0.0}, {"lon": -77.043012, "name": "ef2a8dcfbbbec51f7e9101a40237fc55", "is_disabled": 0, "type": "electric_scooter", "is_reserved": 0, "fusion_lon": 0.0, "lat": 38.923995833333336, "rental_uris": {"ios": "https://dc.lft.to/lastmile_qr_scan", "android": "https://dc.lft.to/lastmile_qr_scan"}, "bike_id": "ef2a8dcfbbbec51f7e9101a40237fc55", "fusion_lat": 0.0}, {"lon": -77.234071, "name": "828461f9621775fe86cf378d03d40666", "is_disabled": 0, "type": "electric_bike", "is_reserved": 0, "fusion_lon": 0.0, "lat": 38.875753333333336, "rental_uris": {"ios": "https://dc.lft.to/lastmile_qr_scan", "android": "https://dc.lft.to/lastmile_qr_scan"}, "bike_id": "828461f9621775fe86cf378d03d40666", "fusion_lat": 0.0}, {"lon": -77.00600483333334, "name": "0a6a3f665bc510e663d330ff28db2d52", "is_disabled": 0, "type": "electric_scooter", "is_reserved": 0, "fusion_lon": 0.0, "lat": 38.9023555, "rental_uris": {"ios": "https://dc.lft.to/lastmile_qr_scan", "android": "https://dc.lft.to/lastmile_qr_scan"}, "bike_id": "0a6a3f665bc510e663d330ff28db2d52", "fusion_lat": 0.0}, {"lon": -77.00550666666666, "name": "126fc8acaec72d1c316fd8ae73b0ef1f", "is_disabled": 0, "type": "electric_bike", "is_reserved": 0, "fusion_lon": 0.0, "lat": 38.927476666666664, "rental_uris": {"ios": "https://dc.lft.to/lastmile_qr_scan", "android": "https://dc.lft.to/lastmile_qr_scan"}, "bike_id": "126fc8acaec72d1c316fd8ae73b0ef1f", "fusion_lat": 0.0}, {"lon": -77.0770265, "name": "03771d64dbc712e5c4f53fd5c5ec94d4", "is_disabled": 0, "type": "electric_scooter", "is_reserved": 0, "fusion_lon": 0.0, "lat": 38.92250816666667, "rental_uris": {"ios": "https://dc.lft.to/lastmile_qr_scan", "android": "https://dc.lft.to/lastmile_qr_scan"}, "bike_id": "03771d64dbc712e5c4f53fd5c5ec94d4", "fusion_lat": 0.0}, {"lon": -77.0056935, "name": "2d4770a8dc09c8da2a74434a4355e771", "is_disabled": 0, "type": "electric_scooter", "is_reserved": 0, "fusion_lon": 0.0, "lat": 38.885089666666666, "rental_uris": {"ios": "https://dc.lft.to/lastmile_qr_scan", "android": "https://dc.lft.to/lastmile_qr_scan"}, "bike_id": "2d4770a8dc09c8da2a74434a4355e771", "fusion_lat": 0.0}, {"lon": -77.0238735, "name": "2cf03099f1cf637ff656c1c87309e745", "is_disabled": 0, "type": "electric_scooter", "is_reserved": 0, "fusion_lon": 0.0, "lat": 38.90843133333333, "rental_uris": {"ios": "https://dc.lft.to/lastmile_qr_scan", "android": "https://dc.lft.to/lastmile_qr_scan"}, "bike_id": "2cf03099f1cf637ff656c1c87309e745", "fusion_lat": 0.0}, {"lon": -77.07184983333333, "name": "47e77b148e2c9f412fd123fd97dfc484", "is_disabled": 0, "type": "electric_scooter", "is_reserved": 0, "fusion_lon": 0.0, "lat": 38.906907333333336, "rental_uris": {"ios": "https://dc.lft.to/lastmile_qr_scan", "android": "https://dc.lft.to/lastmile_qr_scan"}, "bike_id": "47e77b148e2c9f412fd123fd97dfc484", "fusion_lat": 0.0}, {"lon": -77.02173366666666, "name": "c65e9203353178ae122dee85accfed8c", "is_disabled": 0, "type": "electric_scooter", "is_reserved": 0, "fusion_lon": 0.0, "lat": 38.89999616666667, "rental_uris": {"ios": "https://dc.lft.to/lastmile_qr_scan", "android": "https://dc.lft.to/lastmile_qr_scan"}, "bike_id": "c65e9203353178ae122dee85accfed8c", "fusion_lat": 0.0}, {"lon": -77.03182016666666, "name": "9e11a18bb91071707d9d5e9bfce1c5aa", "is_disabled": 0, "type": "electric_scooter", "is_reserved": 0, "fusion_lon": 0.0, "lat": 38.918001, "rental_uris": {"ios": "https://dc.lft.to/lastmile_qr_scan", "android": "https://dc.lft.to/lastmile_qr_scan"}, "bike_id": "9e11a18bb91071707d9d5e9bfce1c5aa", "fusion_lat": 0.0}, {"lon": -77.04946833333334, "name": "56fe8a988aad922112e7e3c9b30802c2", "is_disabled": 0, "type": "electric_scooter", "is_reserved": 0, "fusion_lon": 0.0, "lat": 38.905426, "rental_uris": {"ios": "https://dc.lft.to/lastmile_qr_scan", "android": "https://dc.lft.to/lastmile_qr_scan"}, "bike_id": "56fe8a988aad922112e7e3c9b30802c2", "fusion_lat": 0.0}, {"lon": -77.03440283333333, "name": "2558ab7838a31f31272c05b0f1760039", "is_disabled": 0, "type": "electric_scooter", "is_reserved": 0, "fusion_lon": 0.0, "lat": 38.9286755, "rental_uris": {"ios": "https://dc.lft.to/lastmile_qr_scan", "android": "https://dc.lft.to/lastmile_qr_scan"}, "bike_id": "2558ab7838a31f31272c05b0f1760039", "fusion_lat": 0.0}, {"lon": -77.02507183333333, "name": "86cca6124e62b88660ba3eb825f2a623", "is_disabled": 0, "type": "electric_scooter", "is_reserved": 0, "fusion_lon": 0.0, "lat": 38.9206175, "rental_uris": {"ios": "https://dc.lft.to/lastmile_qr_scan", "android": "https://dc.lft.to/lastmile_qr_scan"}, "bike_id": "86cca6124e62b88660ba3eb825f2a623", "fusion_lat": 0.0}, {"lon": -76.98613566666667, "name": "997449bc3d0411c31d99c98c98cf5e32", "is_disabled": 0, "type": "electric_scooter", "is_reserved": 0, "fusion_lon": 0.0, "lat": 38.882847, "rental_uris": {"ios": "https://dc.lft.to/lastmile_qr_scan", "android": "https://dc.lft.to/lastmile_qr_scan"}, "bike_id": "997449bc3d0411c31d99c98c98cf5e32", "fusion_lat": 0.0}, {"lon": -76.9841515, "name": "0109fe639cbe62d008de11e032f21776", "is_disabled": 0, "type": "electric_scooter", "is_reserved": 0, "fusion_lon": 0.0, "lat": 38.91391483333334, "rental_uris": {"ios": "https://dc.lft.to/lastmile_qr_scan", "android": "https://dc.lft.to/lastmile_qr_scan"}, "bike_id": "0109fe639cbe62d008de11e032f21776", "fusion_lat": 0.0}, {"lon": -77.0447435, "name": "296bcb40c1d27895766efb3e7a6d20f9", "is_disabled": 0, "type": "electric_scooter", "is_reserved": 0, "fusion_lon": 0.0, "lat": 38.9153745, "rental_uris": {"ios": "https://dc.lft.to/lastmile_qr_scan", "android": "https://dc.lft.to/lastmile_qr_scan"}, "bike_id": "296bcb40c1d27895766efb3e7a6d20f9", "fusion_lat": 0.0}, {"lon": -77.06354266666666, "name": "83487c8cfecd4808925e949994edab0e", "is_disabled": 0, "type": "electric_scooter", "is_reserved": 0, "fusion_lon": 0.0, "lat": 38.906887833333336, "rental_uris": {"ios": "https://dc.lft.to/lastmile_qr_scan", "android": "https://dc.lft.to/lastmile_qr_scan"}, "bike_id": "83487c8cfecd4808925e949994edab0e", "fusion_lat": 0.0}, {"lon": -77.021956, "name": "c113ced8744a17ee4b2bda19363910a1", "is_disabled": 0, "type": "electric_scooter", "is_reserved": 0, "fusion_lon": 0.0, "lat": 38.87779466666667, "rental_uris": {"ios": "https://dc.lft.to/lastmile_qr_scan", "android": "https://dc.lft.to/lastmile_qr_scan"}, "bike_id": "c113ced8744a17ee4b2bda19363910a1", "fusion_lat": 0.0}, {"lon": -77.052149, "name": "ae0c9258576fda81ba84acca7d501eb8", "is_disabled": 0, "type": "electric_scooter", "is_reserved": 0, "fusion_lon": 0.0, "lat": 38.92448616666667, "rental_uris": {"ios": "https://dc.lft.to/lastmile_qr_scan", "android": "https://dc.lft.to/lastmile_qr_scan"}, "bike_id": "ae0c9258576fda81ba84acca7d501eb8", "fusion_lat": 0.0}, {"lon": -77.05501983333333, "name": "7ce4d0f0ee690a506a46fa14f113876b", "is_disabled": 0, "type": "electric_scooter", "is_reserved": 0, "fusion_lon": 0.0, "lat": 38.897690833333336, "rental_uris": {"ios": "https://dc.lft.to/lastmile_qr_scan", "android": "https://dc.lft.to/lastmile_qr_scan"}, "bike_id": "7ce4d0f0ee690a506a46fa14f113876b", "fusion_lat": 0.0}, {"lon": -77.016097, "name": "203508671e5ed0dffcb28bf416d8e8a6", "is_disabled": 0, "type": "electric_scooter", "is_reserved": 0, "fusion_lon": 0.0, "lat": 38.90593966666667, "rental_uris": {"ios": "https://dc.lft.to/lastmile_qr_scan", "android": "https://dc.lft.to/lastmile_qr_scan"}, "bike_id": "203508671e5ed0dffcb28bf416d8e8a6", "fusion_lat": 0.0}, {"lon": -77.02590866666667, "name": "dd546293a2bdb17cfaf9a96f1b28575e", "is_disabled": 0, "type": "electric_scooter", "is_reserved": 0, "fusion_lon": 0.0, "lat": 38.92026216666667, "rental_uris": {"ios": "https://dc.lft.to/lastmile_qr_scan", "android": "https://dc.lft.to/lastmile_qr_scan"}, "bike_id": "dd546293a2bdb17cfaf9a96f1b28575e", "fusion_lat": 0.0}, {"lon": -77.02372433333333, "name": "b0192e18679bd9a8311a8bccf0eb7cea", "is_disabled": 0, "type": "electric_scooter", "is_reserved": 0, "fusion_lon": 0.0, "lat": 38.917863, "rental_uris": {"ios": "https://dc.lft.to/lastmile_qr_scan", "android": "https://dc.lft.to/lastmile_qr_scan"}, "bike_id": "b0192e18679bd9a8311a8bccf0eb7cea", "fusion_lat": 0.0}, {"lon": -77.0325205, "name": "d0bb6c19a7242ac0d4f28f63931b870d", "is_disabled": 0, "type": "electric_scooter", "is_reserved": 0, "fusion_lon": 0.0, "lat": 38.902677833333335, "rental_uris": {"ios": "https://dc.lft.to/lastmile_qr_scan", "android": "https://dc.lft.to/lastmile_qr_scan"}, "bike_id": "d0bb6c19a7242ac0d4f28f63931b870d", "fusion_lat": 0.0}, {"lon": -77.01804616666666, "name": "e83bb637302b43c4375453c5346c2011", "is_disabled": 0, "type": "electric_scooter", "is_reserved": 0, "fusion_lon": 0.0, "lat": 38.921322333333336, "rental_uris": {"ios": "https://dc.lft.to/lastmile_qr_scan", "android": "https://dc.lft.to/lastmile_qr_scan"}, "bike_id": "e83bb637302b43c4375453c5346c2011", "fusion_lat": 0.0}, {"lon": -76.98839583333333, "name": "032d3c217458447583657c5b76651fa6", "is_disabled": 0, "type": "electric_scooter", "is_reserved": 0, "fusion_lon": 0.0, "lat": 38.9003905, "rental_uris": {"ios": "https://dc.lft.to/lastmile_qr_scan", "android": "https://dc.lft.to/lastmile_qr_scan"}, "bike_id": "032d3c217458447583657c5b76651fa6", "fusion_lat": 0.0}, {"lon": -77.01995616666666, "name": "46424a32d20cc5b6ba38b1b5679e55ab", "is_disabled": 0, "type": "electric_scooter", "is_reserved": 0, "fusion_lon": 0.0, "lat": 38.885638666666665, "rental_uris": {"ios": "https://dc.lft.to/lastmile_qr_scan", "android": "https://dc.lft.to/lastmile_qr_scan"}, "bike_id": "46424a32d20cc5b6ba38b1b5679e55ab", "fusion_lat": 0.0}, {"lon": -77.07543066666666, "name": "d8a7c7c9d378e2d21e931401440af537", "is_disabled": 0, "type": "electric_scooter", "is_reserved": 0, "fusion_lon": 0.0, "lat": 38.915341, "rental_uris": {"ios": "https://dc.lft.to/lastmile_qr_scan", "android": "https://dc.lft.to/lastmile_qr_scan"}, "bike_id": "d8a7c7c9d378e2d21e931401440af537", "fusion_lat": 0.0}, {"lon": -76.918025, "name": "e6255420f0c60534fcaf73905a7429b5", "is_disabled": 0, "type": "electric_bike", "is_reserved": 0, "fusion_lon": 0.0, "lat": 39.0000525, "rental_uris": {"ios": "https://dc.lft.to/lastmile_qr_scan", "android": "https://dc.lft.to/lastmile_qr_scan"}, "bike_id": "e6255420f0c60534fcaf73905a7429b5", "fusion_lat": 0.0}, {"lon": -77.017787, "name": "17d9cc20822a6da970c20b23b7a88628", "is_disabled": 0, "type": "electric_scooter", "is_reserved": 0, "fusion_lon": 0.0, "lat": 38.920430333333336, "rental_uris": {"ios": "https://dc.lft.to/lastmile_qr_scan", "android": "https://dc.lft.to/lastmile_qr_scan"}, "bike_id": "17d9cc20822a6da970c20b23b7a88628", "fusion_lat": 0.0}, {"lon": -77.06604166666666, "name": "27aeae1b3883c2b42ce471b074f48d9c", "is_disabled": 0, "type": "electric_scooter", "is_reserved": 0, "fusion_lon": 0.0, "lat": 38.912266, "rental_uris": {"ios": "https://dc.lft.to/lastmile_qr_scan", "android": "https://dc.lft.to/lastmile_qr_scan"}, "bike_id": "27aeae1b3883c2b42ce471b074f48d9c", "fusion_lat": 0.0}, {"lon": -76.99116633333334, "name": "f6a2090e3a00a5650eaf52c6babd616e", "is_disabled": 0, "type": "electric_scooter", "is_reserved": 0, "fusion_lon": 0.0, "lat": 38.9002895, "rental_uris": {"ios": "https://dc.lft.to/lastmile_qr_scan", "android": "https://dc.lft.to/lastmile_qr_scan"}, "bike_id": "f6a2090e3a00a5650eaf52c6babd616e", "fusion_lat": 0.0}, {"lon": -77.0464385, "name": "27fd97f4d5401fb86eb2b529a7c49443", "is_disabled": 0, "type": "electric_scooter", "is_reserved": 0, "fusion_lon": 0.0, "lat": 38.904606, "rental_uris": {"ios": "https://dc.lft.to/lastmile_qr_scan", "android": "https://dc.lft.to/lastmile_qr_scan"}, "bike_id": "27fd97f4d5401fb86eb2b529a7c49443", "fusion_lat": 0.0}, {"lon": -77.01609283333333, "name": "0748a89a9df87d4095db0e3d96a280ef", "is_disabled": 0, "type": "electric_scooter", "is_reserved": 0, "fusion_lon": 0.0, "lat": 38.89966866666666, "rental_uris": {"ios": "https://dc.lft.to/lastmile_qr_scan", "android": "https://dc.lft.to/lastmile_qr_scan"}, "bike_id": "0748a89a9df87d4095db0e3d96a280ef", "fusion_lat": 0.0}, {"lon": -77.066959, "name": "481497774c80627ecac162cfeadde042", "is_disabled": 0, "type": "electric_scooter", "is_reserved": 0, "fusion_lon": 0.0, "lat": 38.914205333333335, "rental_uris": {"ios": "https://dc.lft.to/lastmile_qr_scan", "android": "https://dc.lft.to/lastmile_qr_scan"}, "bike_id": "481497774c80627ecac162cfeadde042", "fusion_lat": 0.0}, {"lon": -77.03379383333333, "name": "dc321a009619c2d783d5f7e309a2d31a", "is_disabled": 0, "type": "electric_scooter", "is_reserved": 0, "fusion_lon": 0.0, "lat": 38.92472816666667, "rental_uris": {"ios": "https://dc.lft.to/lastmile_qr_scan", "android": "https://dc.lft.to/lastmile_qr_scan"}, "bike_id": "dc321a009619c2d783d5f7e309a2d31a", "fusion_lat": 0.0}, {"lon": -77.04191283333333, "name": "e5b40f50a47fdd582e39191132b93d31", "is_disabled": 0, "type": "electric_scooter", "is_reserved": 0, "fusion_lon": 0.0, "lat": 38.9206585, "rental_uris": {"ios": "https://dc.lft.to/lastmile_qr_scan", "android": "https://dc.lft.to/lastmile_qr_scan"}, "bike_id": "e5b40f50a47fdd582e39191132b93d31", "fusion_lat": 0.0}, {"lon": -77.02002316666666, "name": "dc788a06a557b266b99def1bafb41321", "is_disabled": 0, "type": "electric_scooter", "is_reserved": 0, "fusion_lon": 0.0, "lat": 38.913689833333336, "rental_uris": {"ios": "https://dc.lft.to/lastmile_qr_scan", "android": "https://dc.lft.to/lastmile_qr_scan"}, "bike_id": "dc788a06a557b266b99def1bafb41321", "fusion_lat": 0.0}, {"lon": -76.97382983333333, "name": "0fb9459e6e6adc6ebdffd913f0a53893", "is_disabled": 0, "type": "electric_scooter", "is_reserved": 0, "fusion_lon": 0.0, "lat": 38.87188733333333, "rental_uris": {"ios": "https://dc.lft.to/lastmile_qr_scan", "android": "https://dc.lft.to/lastmile_qr_scan"}, "bike_id": "0fb9459e6e6adc6ebdffd913f0a53893", "fusion_lat": 0.0}, {"lon": -77.00918866666666, "name": "47b92eeb3ecf3fe056fb56eaba077baf", "is_disabled": 0, "type": "electric_scooter", "is_reserved": 0, "fusion_lon": 0.0, "lat": 38.91877366666667, "rental_uris": {"ios": "https://dc.lft.to/lastmile_qr_scan", "android": "https://dc.lft.to/lastmile_qr_scan"}, "bike_id": "47b92eeb3ecf3fe056fb56eaba077baf", "fusion_lat": 0.0}, {"lon": -76.93912283333333, "name": "a9811175aeeaea7d98162675ab1495a9", "is_disabled": 0, "type": "electric_scooter", "is_reserved": 0, "fusion_lon": 0.0, "lat": 38.891675166666666, "rental_uris": {"ios": "https://dc.lft.to/lastmile_qr_scan", "android": "https://dc.lft.to/lastmile_qr_scan"}, "bike_id": "a9811175aeeaea7d98162675ab1495a9", "fusion_lat": 0.0}, {"lon": -77.04932016666666, "name": "a4794e5250fe3997a2829eaf8597e4a8", "is_disabled": 0, "type": "electric_scooter", "is_reserved": 0, "fusion_lon": 0.0, "lat": 38.906599166666666, "rental_uris": {"ios": "https://dc.lft.to/lastmile_qr_scan", "android": "https://dc.lft.to/lastmile_qr_scan"}, "bike_id": "a4794e5250fe3997a2829eaf8597e4a8", "fusion_lat": 0.0}, {"lon": -77.041291, "name": "2f1ced8bb8c5a751d1b1ef87febb86a3", "is_disabled": 0, "type": "electric_scooter", "is_reserved": 0, "fusion_lon": 0.0, "lat": 38.9038515, "rental_uris": {"ios": "https://dc.lft.to/lastmile_qr_scan", "android": "https://dc.lft.to/lastmile_qr_scan"}, "bike_id": "2f1ced8bb8c5a751d1b1ef87febb86a3", "fusion_lat": 0.0}, {"lon": -77.03992533333333, "name": "15fab5fef732fff291f5f222f8af889b", "is_disabled": 0, "type": "electric_scooter", "is_reserved": 0, "fusion_lon": 0.0, "lat": 38.9342795, "rental_uris": {"ios": "https://dc.lft.to/lastmile_qr_scan", "android": "https://dc.lft.to/lastmile_qr_scan"}, "bike_id": "15fab5fef732fff291f5f222f8af889b", "fusion_lat": 0.0}, {"lon": -77.02346333333334, "name": "4c890ae955e6016f45084b0b4488630b", "is_disabled": 0, "type": "electric_scooter", "is_reserved": 0, "fusion_lon": 0.0, "lat": 38.91782216666667, "rental_uris": {"ios": "https://dc.lft.to/lastmile_qr_scan", "android": "https://dc.lft.to/lastmile_qr_scan"}, "bike_id": "4c890ae955e6016f45084b0b4488630b", "fusion_lat": 0.0}, {"lon": -77.096149, "name": "027385dc120bafac5f86c65c04803831", "is_disabled": 0, "type": "electric_bike", "is_reserved": 0, "fusion_lon": 0.0, "lat": 38.974457, "rental_uris": {"ios": "https://dc.lft.to/lastmile_qr_scan", "android": "https://dc.lft.to/lastmile_qr_scan"}, "bike_id": "027385dc120bafac5f86c65c04803831", "fusion_lat": 0.0}, {"lon": -77.02780216666666, "name": "ce119f8f0019b0fa0e691c3909ec71df", "is_disabled": 0, "type": "electric_scooter", "is_reserved": 0, "fusion_lon": 0.0, "lat": 38.929532333333334, "rental_uris": {"ios": "https://dc.lft.to/lastmile_qr_scan", "android": "https://dc.lft.to/lastmile_qr_scan"}, "bike_id": "ce119f8f0019b0fa0e691c3909ec71df", "fusion_lat": 0.0}, {"lon": -77.054408, "name": "1cd8985d725fc65c26a4074903da1be4", "is_disabled": 0, "type": "electric_scooter", "is_reserved": 0, "fusion_lon": 0.0, "lat": 38.914877833333335, "rental_uris": {"ios": "https://dc.lft.to/lastmile_qr_scan", "android": "https://dc.lft.to/lastmile_qr_scan"}, "bike_id": "1cd8985d725fc65c26a4074903da1be4", "fusion_lat": 0.0}, {"lon": -77.03645733333333, "name": "9ae196f6fde58e4b4e78131912ab6b92", "is_disabled": 0, "type": "electric_scooter", "is_reserved": 0, "fusion_lon": 0.0, "lat": 38.90318166666667, "rental_uris": {"ios": "https://dc.lft.to/lastmile_qr_scan", "android": "https://dc.lft.to/lastmile_qr_scan"}, "bike_id": "9ae196f6fde58e4b4e78131912ab6b92", "fusion_lat": 0.0}, {"lon": -77.00286666666666, "name": "df7a6841087a4218d8c0a84b56555fc6", "is_disabled": 0, "type": "electric_scooter", "is_reserved": 0, "fusion_lon": 0.0, "lat": 38.89365133333333, "rental_uris": {"ios": "https://dc.lft.to/lastmile_qr_scan", "android": "https://dc.lft.to/lastmile_qr_scan"}, "bike_id": "df7a6841087a4218d8c0a84b56555fc6", "fusion_lat": 0.0}, {"lon": -77.0355085, "name": "d1e37826a3282e35dfcf9e4f2baa185b", "is_disabled": 0, "type": "electric_scooter", "is_reserved": 0, "fusion_lon": 0.0, "lat": 38.90471316666667, "rental_uris": {"ios": "https://dc.lft.to/lastmile_qr_scan", "android": "https://dc.lft.to/lastmile_qr_scan"}, "bike_id": "d1e37826a3282e35dfcf9e4f2baa185b", "fusion_lat": 0.0}, {"lon": -76.991682, "name": "add78de5941e058611ec288f442d0a42", "is_disabled": 0, "type": "electric_scooter", "is_reserved": 0, "fusion_lon": 0.0, "lat": 38.90140183333333, "rental_uris": {"ios": "https://dc.lft.to/lastmile_qr_scan", "android": "https://dc.lft.to/lastmile_qr_scan"}, "bike_id": "add78de5941e058611ec288f442d0a42", "fusion_lat": 0.0}, {"lon": -77.0388205, "name": "b5f3eb8860af88ac39d976aa428d6d3c", "is_disabled": 0, "type": "electric_scooter", "is_reserved": 0, "fusion_lon": 0.0, "lat": 38.918502, "rental_uris": {"ios": "https://dc.lft.to/lastmile_qr_scan", "android": "https://dc.lft.to/lastmile_qr_scan"}, "bike_id": "b5f3eb8860af88ac39d976aa428d6d3c", "fusion_lat": 0.0}, {"lon": -77.02497766666667, "name": "496d71437921a77b89fd65c73007edf8", "is_disabled": 0, "type": "electric_scooter", "is_reserved": 0, "fusion_lon": 0.0, "lat": 38.8802545, "rental_uris": {"ios": "https://dc.lft.to/lastmile_qr_scan", "android": "https://dc.lft.to/lastmile_qr_scan"}, "bike_id": "496d71437921a77b89fd65c73007edf8", "fusion_lat": 0.0}, {"lon": -77.01027416666666, "name": "8af18e9a8cb730d58635cafa15452dc5", "is_disabled": 0, "type": "electric_scooter", "is_reserved": 0, "fusion_lon": 0.0, "lat": 38.917069166666664, "rental_uris": {"ios": "https://dc.lft.to/lastmile_qr_scan", "android": "https://dc.lft.to/lastmile_qr_scan"}, "bike_id": "8af18e9a8cb730d58635cafa15452dc5", "fusion_lat": 0.0}, {"lon": -77.03188666666667, "name": "c4c38a7b590f65abb1fc7f0fde813bec", "is_disabled": 0, "type": "electric_scooter", "is_reserved": 0, "fusion_lon": 0.0, "lat": 38.91631616666667, "rental_uris": {"ios": "https://dc.lft.to/lastmile_qr_scan", "android": "https://dc.lft.to/lastmile_qr_scan"}, "bike_id": "c4c38a7b590f65abb1fc7f0fde813bec", "fusion_lat": 0.0}, {"lon": -77.01157516666666, "name": "6b9b4c32b939775df6c47a7c886e8b19", "is_disabled": 0, "type": "electric_scooter", "is_reserved": 0, "fusion_lon": 0.0, "lat": 38.917118333333335, "rental_uris": {"ios": "https://dc.lft.to/lastmile_qr_scan", "android": "https://dc.lft.to/lastmile_qr_scan"}, "bike_id": "6b9b4c32b939775df6c47a7c886e8b19", "fusion_lat": 0.0}, {"lon": -77.01118016666666, "name": "0e5dd930ff22cbbc71c31ce60a0a6ae4", "is_disabled": 0, "type": "electric_scooter", "is_reserved": 0, "fusion_lon": 0.0, "lat": 38.89475766666666, "rental_uris": {"ios": "https://dc.lft.to/lastmile_qr_scan", "android": "https://dc.lft.to/lastmile_qr_scan"}, "bike_id": "0e5dd930ff22cbbc71c31ce60a0a6ae4", "fusion_lat": 0.0}, {"lon": -76.92952216666667, "name": "cb7680363fa9d66a51b8df54f837e212", "is_disabled": 0, "type": "electric_scooter", "is_reserved": 0, "fusion_lon": 0.0, "lat": 38.90179716666667, "rental_uris": {"ios": "https://dc.lft.to/lastmile_qr_scan", "android": "https://dc.lft.to/lastmile_qr_scan"}, "bike_id": "cb7680363fa9d66a51b8df54f837e212", "fusion_lat": 0.0}, {"lon": -77.02006516666667, "name": "2333d48b7ae3019959c5c44dd1d6d7f9", "is_disabled": 0, "type": "electric_scooter", "is_reserved": 0, "fusion_lon": 0.0, "lat": 38.8856065, "rental_uris": {"ios": "https://dc.lft.to/lastmile_qr_scan", "android": "https://dc.lft.to/lastmile_qr_scan"}, "bike_id": "2333d48b7ae3019959c5c44dd1d6d7f9", "fusion_lat": 0.0}, {"lon": -77.03416816666666, "name": "a5e76dc17c77f4fefface219531e85cd", "is_disabled": 0, "type": "electric_scooter", "is_reserved": 0, "fusion_lon": 0.0, "lat": 38.920602, "rental_uris": {"ios": "https://dc.lft.to/lastmile_qr_scan", "android": "https://dc.lft.to/lastmile_qr_scan"}, "bike_id": "a5e76dc17c77f4fefface219531e85cd", "fusion_lat": 0.0}, {"lon": -77.2257535, "name": "faf3bd7085fea603758ac56317b4c48a", "is_disabled": 0, "type": "electric_bike", "is_reserved": 0, "fusion_lon": 0.0, "lat": 38.929643166666665, "rental_uris": {"ios": "https://dc.lft.to/lastmile_qr_scan", "android": "https://dc.lft.to/lastmile_qr_scan"}, "bike_id": "faf3bd7085fea603758ac56317b4c48a", "fusion_lat": 0.0}, {"lon": -77.021535, "name": "a50a4e05b6d9b2755414c0f677972ce4", "is_disabled": 0, "type": "electric_scooter", "is_reserved": 0, "fusion_lon": 0.0, "lat": 38.9246065, "rental_uris": {"ios": "https://dc.lft.to/lastmile_qr_scan", "android": "https://dc.lft.to/lastmile_qr_scan"}, "bike_id": "a50a4e05b6d9b2755414c0f677972ce4", "fusion_lat": 0.0}, {"lon": -77.02455133333333, "name": "87f6f08b748b9036cc3fe4db306cb397", "is_disabled": 0, "type": "electric_scooter", "is_reserved": 0, "fusion_lon": 0.0, "lat": 38.923904666666665, "rental_uris": {"ios": "https://dc.lft.to/lastmile_qr_scan", "android": "https://dc.lft.to/lastmile_qr_scan"}, "bike_id": "87f6f08b748b9036cc3fe4db306cb397", "fusion_lat": 0.0}, {"lon": -77.0097945, "name": "b4fcaf6cef4e77b45c47c31dd32a3e86", "is_disabled": 0, "type": "electric_scooter", "is_reserved": 0, "fusion_lon": 0.0, "lat": 38.909740666666664, "rental_uris": {"ios": "https://dc.lft.to/lastmile_qr_scan", "android": "https://dc.lft.to/lastmile_qr_scan"}, "bike_id": "b4fcaf6cef4e77b45c47c31dd32a3e86", "fusion_lat": 0.0}, {"lon": -77.022727, "name": "625808b3a11ce057cdedcadb32ccb6da", "is_disabled": 0, "type": "electric_scooter", "is_reserved": 0, "fusion_lon": 0.0, "lat": 38.91674116666667, "rental_uris": {"ios": "https://dc.lft.to/lastmile_qr_scan", "android": "https://dc.lft.to/lastmile_qr_scan"}, "bike_id": "625808b3a11ce057cdedcadb32ccb6da", "fusion_lat": 0.0}, {"lon": -76.9854685, "name": "1dcaafe91b247d25df86eb5a85000b9b", "is_disabled": 0, "type": "electric_scooter", "is_reserved": 0, "fusion_lon": 0.0, "lat": 38.9059305, "rental_uris": {"ios": "https://dc.lft.to/lastmile_qr_scan", "android": "https://dc.lft.to/lastmile_qr_scan"}, "bike_id": "1dcaafe91b247d25df86eb5a85000b9b", "fusion_lat": 0.0}, {"lon": -76.977015, "name": "9dd45a9b05b5d74be470f4d006f9f764", "is_disabled": 0, "type": "electric_bike", "is_reserved": 0, "fusion_lon": 0.0, "lat": 38.8221275, "rental_uris": {"ios": "https://dc.lft.to/lastmile_qr_scan", "android": "https://dc.lft.to/lastmile_qr_scan"}, "bike_id": "9dd45a9b05b5d74be470f4d006f9f764", "fusion_lat": 0.0}, {"lon": -77.0260785, "name": "9c345febf806d535d36b0c376069b363", "is_disabled": 0, "type": "electric_scooter", "is_reserved": 0, "fusion_lon": 0.0, "lat": 38.906057, "rental_uris": {"ios": "https://dc.lft.to/lastmile_qr_scan", "android": "https://dc.lft.to/lastmile_qr_scan"}, "bike_id": "9c345febf806d535d36b0c376069b363", "fusion_lat": 0.0}, {"lon": -77.0222705, "name": "d554c7c7b4c8bb344ea589304dd53d14", "is_disabled": 0, "type": "electric_bike", "is_reserved": 0, "fusion_lon": 0.0, "lat": 38.956916, "rental_uris": {"ios": "https://dc.lft.to/lastmile_qr_scan", "android": "https://dc.lft.to/lastmile_qr_scan"}, "bike_id": "d554c7c7b4c8bb344ea589304dd53d14", "fusion_lat": 0.0}, {"lon": -77.0265665, "name": "59ecae1d04a49cd800943b7020fb0cf9", "is_disabled": 0, "type": "electric_scooter", "is_reserved": 0, "fusion_lon": 0.0, "lat": 38.8948975, "rental_uris": {"ios": "https://dc.lft.to/lastmile_qr_scan", "android": "https://dc.lft.to/lastmile_qr_scan"}, "bike_id": "59ecae1d04a49cd800943b7020fb0cf9", "fusion_lat": 0.0}, {"lon": -77.01046966666667, "name": "907537307dc66487c74d4b20e4e3254b", "is_disabled": 0, "type": "electric_scooter", "is_reserved": 0, "fusion_lon": 0.0, "lat": 38.89782833333334, "rental_uris": {"ios": "https://dc.lft.to/lastmile_qr_scan", "android": "https://dc.lft.to/lastmile_qr_scan"}, "bike_id": "907537307dc66487c74d4b20e4e3254b", "fusion_lat": 0.0}, {"lon": -77.03585616666666, "name": "1c3c6b1448ae921c8b8044e2d61eb56f", "is_disabled": 0, "type": "electric_scooter", "is_reserved": 0, "fusion_lon": 0.0, "lat": 38.908278, "rental_uris": {"ios": "https://dc.lft.to/lastmile_qr_scan", "android": "https://dc.lft.to/lastmile_qr_scan"}, "bike_id": "1c3c6b1448ae921c8b8044e2d61eb56f", "fusion_lat": 0.0}, {"lon": -77.04470683333334, "name": "c6e79442f53e6fe1c73b6ec7c6c9f0e7", "is_disabled": 0, "type": "electric_scooter", "is_reserved": 0, "fusion_lon": 0.0, "lat": 38.918985666666664, "rental_uris": {"ios": "https://dc.lft.to/lastmile_qr_scan", "android": "https://dc.lft.to/lastmile_qr_scan"}, "bike_id": "c6e79442f53e6fe1c73b6ec7c6c9f0e7", "fusion_lat": 0.0}, {"lon": -76.93528766666667, "name": "39a16cb45ffc726eeb3eec8973213344", "is_disabled": 0, "type": "electric_scooter", "is_reserved": 0, "fusion_lon": 0.0, "lat": 38.878996666666666, "rental_uris": {"ios": "https://dc.lft.to/lastmile_qr_scan", "android": "https://dc.lft.to/lastmile_qr_scan"}, "bike_id": "39a16cb45ffc726eeb3eec8973213344", "fusion_lat": 0.0}, {"lon": -77.0347535, "name": "8f8667204c8db88b31541a616123e03f", "is_disabled": 0, "type": "electric_scooter", "is_reserved": 0, "fusion_lon": 0.0, "lat": 38.9292125, "rental_uris": {"ios": "https://dc.lft.to/lastmile_qr_scan", "android": "https://dc.lft.to/lastmile_qr_scan"}, "bike_id": "8f8667204c8db88b31541a616123e03f", "fusion_lat": 0.0}, {"lon": -77.07231183333333, "name": "3a5233189bd5f7ba386dbbc1e761da00", "is_disabled": 0, "type": "electric_scooter", "is_reserved": 0, "fusion_lon": 0.0, "lat": 38.9236555, "rental_uris": {"ios": "https://dc.lft.to/lastmile_qr_scan", "android": "https://dc.lft.to/lastmile_qr_scan"}, "bike_id": "3a5233189bd5f7ba386dbbc1e761da00", "fusion_lat": 0.0}, {"lon": -77.02532133333334, "name": "d06603d10c3aa013152b3138e059ff7e", "is_disabled": 0, "type": "electric_scooter", "is_reserved": 0, "fusion_lon": 0.0, "lat": 38.96737133333333, "rental_uris": {"ios": "https://dc.lft.to/lastmile_qr_scan", "android": "https://dc.lft.to/lastmile_qr_scan"}, "bike_id": "d06603d10c3aa013152b3138e059ff7e", "fusion_lat": 0.0}, {"lon": -77.0222085, "name": "463f33390390717ece84c98905621c0a", "is_disabled": 0, "type": "electric_scooter", "is_reserved": 0, "fusion_lon": 0.0, "lat": 38.899833, "rental_uris": {"ios": "https://dc.lft.to/lastmile_qr_scan", "android": "https://dc.lft.to/lastmile_qr_scan"}, "bike_id": "463f33390390717ece84c98905621c0a", "fusion_lat": 0.0}, {"lon": -77.02485533333333, "name": "6994ab3e6345d941a1650c777be53c85", "is_disabled": 0, "type": "electric_scooter", "is_reserved": 0, "fusion_lon": 0.0, "lat": 38.88018733333333, "rental_uris": {"ios": "https://dc.lft.to/lastmile_qr_scan", "android": "https://dc.lft.to/lastmile_qr_scan"}, "bike_id": "6994ab3e6345d941a1650c777be53c85", "fusion_lat": 0.0}, {"lon": -77.02782666666667, "name": "39a9753f3d7173b5aead8d8eefcddb7c", "is_disabled": 0, "type": "electric_scooter", "is_reserved": 0, "fusion_lon": 0.0, "lat": 38.927742, "rental_uris": {"ios": "https://dc.lft.to/lastmile_qr_scan", "android": "https://dc.lft.to/lastmile_qr_scan"}, "bike_id": "39a9753f3d7173b5aead8d8eefcddb7c", "fusion_lat": 0.0}, {"lon": -77.01205133333333, "name": "009772831a1712c241e984b4a10b8409", "is_disabled": 0, "type": "electric_scooter", "is_reserved": 0, "fusion_lon": 0.0, "lat": 38.927421833333334, "rental_uris": {"ios": "https://dc.lft.to/lastmile_qr_scan", "android": "https://dc.lft.to/lastmile_qr_scan"}, "bike_id": "009772831a1712c241e984b4a10b8409", "fusion_lat": 0.0}, {"lon": -77.00224066666667, "name": "59e9de0c97659cf0419c32ca072b573e", "is_disabled": 0, "type": "electric_scooter", "is_reserved": 0, "fusion_lon": 0.0, "lat": 38.907860666666664, "rental_uris": {"ios": "https://dc.lft.to/lastmile_qr_scan", "android": "https://dc.lft.to/lastmile_qr_scan"}, "bike_id": "59e9de0c97659cf0419c32ca072b573e", "fusion_lat": 0.0}, {"lon": -77.02550466666666, "name": "996d61403fb78e79812e0a90a885682f", "is_disabled": 0, "type": "electric_scooter", "is_reserved": 0, "fusion_lon": 0.0, "lat": 38.916388, "rental_uris": {"ios": "https://dc.lft.to/lastmile_qr_scan", "android": "https://dc.lft.to/lastmile_qr_scan"}, "bike_id": "996d61403fb78e79812e0a90a885682f", "fusion_lat": 0.0}, {"lon": -77.00146066666667, "name": "22e25038a19de1c0605efe5223a991e9", "is_disabled": 0, "type": "electric_scooter", "is_reserved": 0, "fusion_lon": 0.0, "lat": 38.89473366666667, "rental_uris": {"ios": "https://dc.lft.to/lastmile_qr_scan", "android": "https://dc.lft.to/lastmile_qr_scan"}, "bike_id": "22e25038a19de1c0605efe5223a991e9", "fusion_lat": 0.0}, {"lon": -76.992206, "name": "7b56e28d08a8b0e04cf29bd99f1c0383", "is_disabled": 0, "type": "electric_scooter", "is_reserved": 0, "fusion_lon": 0.0, "lat": 38.897434833333335, "rental_uris": {"ios": "https://dc.lft.to/lastmile_qr_scan", "android": "https://dc.lft.to/lastmile_qr_scan"}, "bike_id": "7b56e28d08a8b0e04cf29bd99f1c0383", "fusion_lat": 0.0}, {"lon": -77.04156916666666, "name": "d5a71684701356c79f28a222ff4ec1aa", "is_disabled": 0, "type": "electric_scooter", "is_reserved": 0, "fusion_lon": 0.0, "lat": 38.91595183333333, "rental_uris": {"ios": "https://dc.lft.to/lastmile_qr_scan", "android": "https://dc.lft.to/lastmile_qr_scan"}, "bike_id": "d5a71684701356c79f28a222ff4ec1aa", "fusion_lat": 0.0}, {"lon": -77.0220965, "name": "d69d52cdfc755c93c8adf59a8e3a540a", "is_disabled": 0, "type": "electric_scooter", "is_reserved": 0, "fusion_lon": 0.0, "lat": 38.90590133333333, "rental_uris": {"ios": "https://dc.lft.to/lastmile_qr_scan", "android": "https://dc.lft.to/lastmile_qr_scan"}, "bike_id": "d69d52cdfc755c93c8adf59a8e3a540a", "fusion_lat": 0.0}, {"lon": -77.03422166666667, "name": "4725315efe9e3bf7ad9c1cc98782cbdd", "is_disabled": 0, "type": "electric_scooter", "is_reserved": 0, "fusion_lon": 0.0, "lat": 38.904266, "rental_uris": {"ios": "https://dc.lft.to/lastmile_qr_scan", "android": "https://dc.lft.to/lastmile_qr_scan"}, "bike_id": "4725315efe9e3bf7ad9c1cc98782cbdd", "fusion_lat": 0.0}, {"lon": -77.0230165, "name": "f19bc174907cc1f1ca6ea31f00beb793", "is_disabled": 0, "type": "electric_scooter", "is_reserved": 0, "fusion_lon": 0.0, "lat": 38.917808, "rental_uris": {"ios": "https://dc.lft.to/lastmile_qr_scan", "android": "https://dc.lft.to/lastmile_qr_scan"}, "bike_id": "f19bc174907cc1f1ca6ea31f00beb793", "fusion_lat": 0.0}, {"lon": -77.0345965, "name": "d5eb6234da0b4b58a922e8580ac7d1f4", "is_disabled": 0, "type": "electric_scooter", "is_reserved": 0, "fusion_lon": 0.0, "lat": 38.92160633333334, "rental_uris": {"ios": "https://dc.lft.to/lastmile_qr_scan", "android": "https://dc.lft.to/lastmile_qr_scan"}, "bike_id": "d5eb6234da0b4b58a922e8580ac7d1f4", "fusion_lat": 0.0}, {"lon": -77.02840933333333, "name": "18452ba0f82c9f829966b540edd32c59", "is_disabled": 0, "type": "electric_bike", "is_reserved": 0, "fusion_lon": 0.0, "lat": 38.92644833333333, "rental_uris": {"ios": "https://dc.lft.to/lastmile_qr_scan", "android": "https://dc.lft.to/lastmile_qr_scan"}, "bike_id": "18452ba0f82c9f829966b540edd32c59", "fusion_lat": 0.0}, {"lon": -77.02347766666666, "name": "3352629e698b344da572120dc779b7fc", "is_disabled": 0, "type": "electric_scooter", "is_reserved": 0, "fusion_lon": 0.0, "lat": 38.943122833333334, "rental_uris": {"ios": "https://dc.lft.to/lastmile_qr_scan", "android": "https://dc.lft.to/lastmile_qr_scan"}, "bike_id": "3352629e698b344da572120dc779b7fc", "fusion_lat": 0.0}, {"lon": -77.0879975, "name": "e1c1983f724b926e36aaa43d1224465d", "is_disabled": 0, "type": "electric_scooter", "is_reserved": 0, "fusion_lon": 0.0, "lat": 38.93537666666667, "rental_uris": {"ios": "https://dc.lft.to/lastmile_qr_scan", "android": "https://dc.lft.to/lastmile_qr_scan"}, "bike_id": "e1c1983f724b926e36aaa43d1224465d", "fusion_lat": 0.0}, {"lon": -77.03210283333334, "name": "654c8ab8ec7d8a96c8aca0ab9040ab05", "is_disabled": 0, "type": "electric_scooter", "is_reserved": 0, "fusion_lon": 0.0, "lat": 38.91915616666667, "rental_uris": {"ios": "https://dc.lft.to/lastmile_qr_scan", "android": "https://dc.lft.to/lastmile_qr_scan"}, "bike_id": "654c8ab8ec7d8a96c8aca0ab9040ab05", "fusion_lat": 0.0}, {"lon": -77.03090916666666, "name": "9ca47161fa5ea962e76e0647e4b42532", "is_disabled": 0, "type": "electric_scooter", "is_reserved": 0, "fusion_lon": 0.0, "lat": 38.935446, "rental_uris": {"ios": "https://dc.lft.to/lastmile_qr_scan", "android": "https://dc.lft.to/lastmile_qr_scan"}, "bike_id": "9ca47161fa5ea962e76e0647e4b42532", "fusion_lat": 0.0}, {"lon": -77.01957933333334, "name": "c3ea1414011b8b9dc4d49882e8894193", "is_disabled": 0, "type": "electric_scooter", "is_reserved": 0, "fusion_lon": 0.0, "lat": 38.923708500000004, "rental_uris": {"ios": "https://dc.lft.to/lastmile_qr_scan", "android": "https://dc.lft.to/lastmile_qr_scan"}, "bike_id": "c3ea1414011b8b9dc4d49882e8894193", "fusion_lat": 0.0}, {"lon": -77.05991016666667, "name": "eeec81d7c9d155f1925e286c7906f34f", "is_disabled": 0, "type": "electric_scooter", "is_reserved": 0, "fusion_lon": 0.0, "lat": 38.927192833333336, "rental_uris": {"ios": "https://dc.lft.to/lastmile_qr_scan", "android": "https://dc.lft.to/lastmile_qr_scan"}, "bike_id": "eeec81d7c9d155f1925e286c7906f34f", "fusion_lat": 0.0}, {"lon": -77.03276416666667, "name": "674952aff8c4c9d4bc4236445d47f224", "is_disabled": 0, "type": "electric_scooter", "is_reserved": 0, "fusion_lon": 0.0, "lat": 38.932131166666665, "rental_uris": {"ios": "https://dc.lft.to/lastmile_qr_scan", "android": "https://dc.lft.to/lastmile_qr_scan"}, "bike_id": "674952aff8c4c9d4bc4236445d47f224", "fusion_lat": 0.0}, {"lon": -77.05341816666666, "name": "089c3b8addaebc8c67abfb2af3aef9e5", "is_disabled": 0, "type": "electric_scooter", "is_reserved": 0, "fusion_lon": 0.0, "lat": 38.9043755, "rental_uris": {"ios": "https://dc.lft.to/lastmile_qr_scan", "android": "https://dc.lft.to/lastmile_qr_scan"}, "bike_id": "089c3b8addaebc8c67abfb2af3aef9e5", "fusion_lat": 0.0}, {"lon": -77.0261695, "name": "174255adad59a1bee2fb73731da98b6e", "is_disabled": 0, "type": "electric_bike", "is_reserved": 0, "fusion_lon": 0.0, "lat": 38.96935116666667, "rental_uris": {"ios": "https://dc.lft.to/lastmile_qr_scan", "android": "https://dc.lft.to/lastmile_qr_scan"}, "bike_id": "174255adad59a1bee2fb73731da98b6e", "fusion_lat": 0.0}, {"lon": -77.06221466666666, "name": "5df66d70a2708d079eaadae60452a687", "is_disabled": 0, "type": "electric_scooter", "is_reserved": 0, "fusion_lon": 0.0, "lat": 38.91320366666667, "rental_uris": {"ios": "https://dc.lft.to/lastmile_qr_scan", "android": "https://dc.lft.to/lastmile_qr_scan"}, "bike_id": "5df66d70a2708d079eaadae60452a687", "fusion_lat": 0.0}, {"lon": -77.04106983333334, "name": "1934a85d755f49e1c5d063617ad7e46c", "is_disabled": 0, "type": "electric_scooter", "is_reserved": 0, "fusion_lon": 0.0, "lat": 38.89225583333333, "rental_uris": {"ios": "https://dc.lft.to/lastmile_qr_scan", "android": "https://dc.lft.to/lastmile_qr_scan"}, "bike_id": "1934a85d755f49e1c5d063617ad7e46c", "fusion_lat": 0.0}, {"lon": -76.97592583333333, "name": "edbc9b62b04ee756c9494feb8d723453", "is_disabled": 0, "type": "electric_scooter", "is_reserved": 0, "fusion_lon": 0.0, "lat": 38.90335066666667, "rental_uris": {"ios": "https://dc.lft.to/lastmile_qr_scan", "android": "https://dc.lft.to/lastmile_qr_scan"}, "bike_id": "edbc9b62b04ee756c9494feb8d723453", "fusion_lat": 0.0}, {"lon": -76.9722375, "name": "8d818fc5c31c4750e91d8b6c242fcc46", "is_disabled": 0, "type": "electric_bike", "is_reserved": 0, "fusion_lon": 0.0, "lat": 38.90035666666667, "rental_uris": {"ios": "https://dc.lft.to/lastmile_qr_scan", "android": "https://dc.lft.to/lastmile_qr_scan"}, "bike_id": "8d818fc5c31c4750e91d8b6c242fcc46", "fusion_lat": 0.0}, {"lon": -77.0224165, "name": "0d815377ddf1732549e57f162d61f5d5", "is_disabled": 0, "type": "electric_scooter", "is_reserved": 0, "fusion_lon": 0.0, "lat": 38.92433, "rental_uris": {"ios": "https://dc.lft.to/lastmile_qr_scan", "android": "https://dc.lft.to/lastmile_qr_scan"}, "bike_id": "0d815377ddf1732549e57f162d61f5d5", "fusion_lat": 0.0}, {"lon": -77.02796916666667, "name": "3def85760d8cd1f79c7eea88ff435164", "is_disabled": 0, "type": "electric_scooter", "is_reserved": 0, "fusion_lon": 0.0, "lat": 38.93086866666667, "rental_uris": {"ios": "https://dc.lft.to/lastmile_qr_scan", "android": "https://dc.lft.to/lastmile_qr_scan"}, "bike_id": "3def85760d8cd1f79c7eea88ff435164", "fusion_lat": 0.0}, {"lon": -76.991214, "name": "f80d0402d79f052454c186e1f159f864", "is_disabled": 0, "type": "electric_scooter", "is_reserved": 0, "fusion_lon": 0.0, "lat": 38.90026483333333, "rental_uris": {"ios": "https://dc.lft.to/lastmile_qr_scan", "android": "https://dc.lft.to/lastmile_qr_scan"}, "bike_id": "f80d0402d79f052454c186e1f159f864", "fusion_lat": 0.0}, {"lon": -77.032249, "name": "feeacc5c39542b273bbf17e4761d3aac", "is_disabled": 0, "type": "electric_scooter", "is_reserved": 0, "fusion_lon": 0.0, "lat": 38.91829666666667, "rental_uris": {"ios": "https://dc.lft.to/lastmile_qr_scan", "android": "https://dc.lft.to/lastmile_qr_scan"}, "bike_id": "feeacc5c39542b273bbf17e4761d3aac", "fusion_lat": 0.0}, {"lon": -76.90749783333334, "name": "4bab604267c64ea23931a8d5d3748b63", "is_disabled": 0, "type": "electric_bike", "is_reserved": 0, "fusion_lon": 0.0, "lat": 38.89621133333333, "rental_uris": {"ios": "https://dc.lft.to/lastmile_qr_scan", "android": "https://dc.lft.to/lastmile_qr_scan"}, "bike_id": "4bab604267c64ea23931a8d5d3748b63", "fusion_lat": 0.0}, {"lon": -76.92441383333333, "name": "4926c1b1090e32bf176d2662cc5b9bdd", "is_disabled": 0, "type": "electric_scooter", "is_reserved": 0, "fusion_lon": 0.0, "lat": 38.885181, "rental_uris": {"ios": "https://dc.lft.to/lastmile_qr_scan", "android": "https://dc.lft.to/lastmile_qr_scan"}, "bike_id": "4926c1b1090e32bf176d2662cc5b9bdd", "fusion_lat": 0.0}, {"lon": -77.02219483333333, "name": "d759471d3de60d2baacab4ac9c00c204", "is_disabled": 0, "type": "electric_scooter", "is_reserved": 0, "fusion_lon": 0.0, "lat": 38.901817666666666, "rental_uris": {"ios": "https://dc.lft.to/lastmile_qr_scan", "android": "https://dc.lft.to/lastmile_qr_scan"}, "bike_id": "d759471d3de60d2baacab4ac9c00c204", "fusion_lat": 0.0}, {"lon": -76.9883855, "name": "4e4fd30c27274dcd0507da87ffd9ac98", "is_disabled": 0, "type": "electric_scooter", "is_reserved": 0, "fusion_lon": 0.0, "lat": 38.900395, "rental_uris": {"ios": "https://dc.lft.to/lastmile_qr_scan", "android": "https://dc.lft.to/lastmile_qr_scan"}, "bike_id": "4e4fd30c27274dcd0507da87ffd9ac98", "fusion_lat": 0.0}, {"lon": -77.032152, "name": "5b91acc3837dc61d91fa7beb21f42ad3", "is_disabled": 0, "type": "electric_scooter", "is_reserved": 0, "fusion_lon": 0.0, "lat": 38.9147885, "rental_uris": {"ios": "https://dc.lft.to/lastmile_qr_scan", "android": "https://dc.lft.to/lastmile_qr_scan"}, "bike_id": "5b91acc3837dc61d91fa7beb21f42ad3", "fusion_lat": 0.0}, {"lon": -77.03225183333333, "name": "2e98f877cedeccd520004fbc96ff2cd5", "is_disabled": 0, "type": "electric_scooter", "is_reserved": 0, "fusion_lon": 0.0, "lat": 38.916481833333336, "rental_uris": {"ios": "https://dc.lft.to/lastmile_qr_scan", "android": "https://dc.lft.to/lastmile_qr_scan"}, "bike_id": "2e98f877cedeccd520004fbc96ff2cd5", "fusion_lat": 0.0}, {"lon": -77.01086766666667, "name": "f279351f8732d4298bcaf367c4719e9a", "is_disabled": 0, "type": "electric_scooter", "is_reserved": 0, "fusion_lon": 0.0, "lat": 38.903307166666664, "rental_uris": {"ios": "https://dc.lft.to/lastmile_qr_scan", "android": "https://dc.lft.to/lastmile_qr_scan"}, "bike_id": "f279351f8732d4298bcaf367c4719e9a", "fusion_lat": 0.0}, {"lon": -77.023883, "name": "96088e33b80631183508cc03ba4cbc5c", "is_disabled": 0, "type": "electric_scooter", "is_reserved": 0, "fusion_lon": 0.0, "lat": 38.9270745, "rental_uris": {"ios": "https://dc.lft.to/lastmile_qr_scan", "android": "https://dc.lft.to/lastmile_qr_scan"}, "bike_id": "96088e33b80631183508cc03ba4cbc5c", "fusion_lat": 0.0}, {"lon": -77.08167516666667, "name": "0443d13fb06fdfc8c81709a5fceda790", "is_disabled": 0, "type": "electric_bike", "is_reserved": 0, "fusion_lon": 0.0, "lat": 38.907836333333336, "rental_uris": {"ios": "https://dc.lft.to/lastmile_qr_scan", "android": "https://dc.lft.to/lastmile_qr_scan"}, "bike_id": "0443d13fb06fdfc8c81709a5fceda790", "fusion_lat": 0.0}, {"lon": -77.00495283333333, "name": "5b210f8a5b8c4baf34fa6d06da1601cd", "is_disabled": 0, "type": "electric_scooter", "is_reserved": 0, "fusion_lon": 0.0, "lat": 38.905629166666664, "rental_uris": {"ios": "https://dc.lft.to/lastmile_qr_scan", "android": "https://dc.lft.to/lastmile_qr_scan"}, "bike_id": "5b210f8a5b8c4baf34fa6d06da1601cd", "fusion_lat": 0.0}, {"lon": -77.03620766666667, "name": "39befcdd20f9307400985e5d4dad37b8", "is_disabled": 0, "type": "electric_bike", "is_reserved": 0, "fusion_lon": 0.0, "lat": 38.929491166666665, "rental_uris": {"ios": "https://dc.lft.to/lastmile_qr_scan", "android": "https://dc.lft.to/lastmile_qr_scan"}, "bike_id": "39befcdd20f9307400985e5d4dad37b8", "fusion_lat": 0.0}, {"lon": -77.02761683333334, "name": "1be9d12918d2da70bc4a882d93e9635b", "is_disabled": 0, "type": "electric_scooter", "is_reserved": 0, "fusion_lon": 0.0, "lat": 38.898717166666664, "rental_uris": {"ios": "https://dc.lft.to/lastmile_qr_scan", "android": "https://dc.lft.to/lastmile_qr_scan"}, "bike_id": "1be9d12918d2da70bc4a882d93e9635b", "fusion_lat": 0.0}, {"lon": -76.99021183333333, "name": "13844a4a7e6db9f011eabf89a6cd4f89", "is_disabled": 0, "type": "electric_bike", "is_reserved": 0, "fusion_lon": 0.0, "lat": 38.835868833333336, "rental_uris": {"ios": "https://dc.lft.to/lastmile_qr_scan", "android": "https://dc.lft.to/lastmile_qr_scan"}, "bike_id": "13844a4a7e6db9f011eabf89a6cd4f89", "fusion_lat": 0.0}, {"lon": -77.02159716666667, "name": "37e24ed157fc00895b9a2e20fb7c4ef1", "is_disabled": 0, "type": "electric_scooter", "is_reserved": 0, "fusion_lon": 0.0, "lat": 38.92616816666666, "rental_uris": {"ios": "https://dc.lft.to/lastmile_qr_scan", "android": "https://dc.lft.to/lastmile_qr_scan"}, "bike_id": "37e24ed157fc00895b9a2e20fb7c4ef1", "fusion_lat": 0.0}, {"lon": -77.0891, "name": "72a8a08682d8eb14f39b4eecd0e95580", "is_disabled": 0, "type": "electric_bike", "is_reserved": 0, "fusion_lon": 0.0, "lat": 38.96733366666667, "rental_uris": {"ios": "https://dc.lft.to/lastmile_qr_scan", "android": "https://dc.lft.to/lastmile_qr_scan"}, "bike_id": "72a8a08682d8eb14f39b4eecd0e95580", "fusion_lat": 0.0}, {"lon": -77.00595133333333, "name": "684df24b203751967d9c062abe6451dd", "is_disabled": 0, "type": "electric_bike", "is_reserved": 0, "fusion_lon": 0.0, "lat": 38.89815566666667, "rental_uris": {"ios": "https://dc.lft.to/lastmile_qr_scan", "android": "https://dc.lft.to/lastmile_qr_scan"}, "bike_id": "684df24b203751967d9c062abe6451dd", "fusion_lat": 0.0}, {"lon": -77.06623783333333, "name": "c27368e840f6fb98e77d3ac639f26215", "is_disabled": 0, "type": "electric_scooter", "is_reserved": 0, "fusion_lon": 0.0, "lat": 38.93684583333334, "rental_uris": {"ios": "https://dc.lft.to/lastmile_qr_scan", "android": "https://dc.lft.to/lastmile_qr_scan"}, "bike_id": "c27368e840f6fb98e77d3ac639f26215", "fusion_lat": 0.0}, {"lon": -77.00730333333334, "name": "0b8124e5ea3dd55cac4864fb68e550eb", "is_disabled": 0, "type": "electric_bike", "is_reserved": 0, "fusion_lon": 0.0, "lat": 38.878526666666666, "rental_uris": {"ios": "https://dc.lft.to/lastmile_qr_scan", "android": "https://dc.lft.to/lastmile_qr_scan"}, "bike_id": "0b8124e5ea3dd55cac4864fb68e550eb", "fusion_lat": 0.0}, {"lon": -77.0004455, "name": "101b93a269f0df2b191091166a127e99", "is_disabled": 0, "type": "electric_scooter", "is_reserved": 0, "fusion_lon": 0.0, "lat": 38.88772183333333, "rental_uris": {"ios": "https://dc.lft.to/lastmile_qr_scan", "android": "https://dc.lft.to/lastmile_qr_scan"}, "bike_id": "101b93a269f0df2b191091166a127e99", "fusion_lat": 0.0}, {"lon": -77.04192016666667, "name": "94a7abbbdf5861e2ce08a574f48bc411", "is_disabled": 0, "type": "electric_scooter", "is_reserved": 0, "fusion_lon": 0.0, "lat": 38.92630666666667, "rental_uris": {"ios": "https://dc.lft.to/lastmile_qr_scan", "android": "https://dc.lft.to/lastmile_qr_scan"}, "bike_id": "94a7abbbdf5861e2ce08a574f48bc411", "fusion_lat": 0.0}, {"lon": -77.0298205, "name": "a931c2031ed2eb057399a71b84eea44a", "is_disabled": 0, "type": "electric_scooter", "is_reserved": 0, "fusion_lon": 0.0, "lat": 38.9216065, "rental_uris": {"ios": "https://dc.lft.to/lastmile_qr_scan", "android": "https://dc.lft.to/lastmile_qr_scan"}, "bike_id": "a931c2031ed2eb057399a71b84eea44a", "fusion_lat": 0.0}, {"lon": -77.02822433333333, "name": "6a49af7b7612a9a0f7ae9b9dbc0e3588", "is_disabled": 0, "type": "electric_scooter", "is_reserved": 0, "fusion_lon": 0.0, "lat": 38.88657216666667, "rental_uris": {"ios": "https://dc.lft.to/lastmile_qr_scan", "android": "https://dc.lft.to/lastmile_qr_scan"}, "bike_id": "6a49af7b7612a9a0f7ae9b9dbc0e3588", "fusion_lat": 0.0}, {"lon": -77.040886, "name": "c2d66b6b2510ed0635ee574f177d88ba", "is_disabled": 0, "type": "electric_scooter", "is_reserved": 0, "fusion_lon": 0.0, "lat": 38.892329, "rental_uris": {"ios": "https://dc.lft.to/lastmile_qr_scan", "android": "https://dc.lft.to/lastmile_qr_scan"}, "bike_id": "c2d66b6b2510ed0635ee574f177d88ba", "fusion_lat": 0.0}, {"lon": -76.99056566666667, "name": "c4b93dbb8eb03e0d98c57c765ea1b738", "is_disabled": 0, "type": "electric_bike", "is_reserved": 0, "fusion_lon": 0.0, "lat": 38.936926, "rental_uris": {"ios": "https://dc.lft.to/lastmile_qr_scan", "android": "https://dc.lft.to/lastmile_qr_scan"}, "bike_id": "c4b93dbb8eb03e0d98c57c765ea1b738", "fusion_lat": 0.0}, {"lon": -77.05479366666667, "name": "e5a5b2715416fdd11556676b02d6ff31", "is_disabled": 0, "type": "electric_scooter", "is_reserved": 0, "fusion_lon": 0.0, "lat": 38.90308616666667, "rental_uris": {"ios": "https://dc.lft.to/lastmile_qr_scan", "android": "https://dc.lft.to/lastmile_qr_scan"}, "bike_id": "e5a5b2715416fdd11556676b02d6ff31", "fusion_lat": 0.0}, {"lon": -77.01954133333334, "name": "a075e4eea753c88784d28e21af722d2b", "is_disabled": 0, "type": "electric_scooter", "is_reserved": 0, "fusion_lon": 0.0, "lat": 38.92252583333333, "rental_uris": {"ios": "https://dc.lft.to/lastmile_qr_scan", "android": "https://dc.lft.to/lastmile_qr_scan"}, "bike_id": "a075e4eea753c88784d28e21af722d2b", "fusion_lat": 0.0}, {"lon": -76.96437216666666, "name": "1b4673fbb3c1f372cc954b47267144e5", "is_disabled": 0, "type": "electric_bike", "is_reserved": 0, "fusion_lon": 0.0, "lat": 38.918794166666665, "rental_uris": {"ios": "https://dc.lft.to/lastmile_qr_scan", "android": "https://dc.lft.to/lastmile_qr_scan"}, "bike_id": "1b4673fbb3c1f372cc954b47267144e5", "fusion_lat": 0.0}, {"lon": -77.01802783333333, "name": "2569b7df45848244209e656e6127c4ff", "is_disabled": 0, "type": "electric_scooter", "is_reserved": 0, "fusion_lon": 0.0, "lat": 38.92134883333333, "rental_uris": {"ios": "https://dc.lft.to/lastmile_qr_scan", "android": "https://dc.lft.to/lastmile_qr_scan"}, "bike_id": "2569b7df45848244209e656e6127c4ff", "fusion_lat": 0.0}, {"lon": -77.04487, "name": "89e952ecf58dc6d5a378ea53d5190bff", "is_disabled": 0, "type": "electric_scooter", "is_reserved": 0, "fusion_lon": 0.0, "lat": 38.899577666666666, "rental_uris": {"ios": "https://dc.lft.to/lastmile_qr_scan", "android": "https://dc.lft.to/lastmile_qr_scan"}, "bike_id": "89e952ecf58dc6d5a378ea53d5190bff", "fusion_lat": 0.0}, {"lon": -77.00331533333333, "name": "171f7adb7eb4ee2755d6973621856619", "is_disabled": 0, "type": "electric_scooter", "is_reserved": 0, "fusion_lon": 0.0, "lat": 38.89363316666667, "rental_uris": {"ios": "https://dc.lft.to/lastmile_qr_scan", "android": "https://dc.lft.to/lastmile_qr_scan"}, "bike_id": "171f7adb7eb4ee2755d6973621856619", "fusion_lat": 0.0}, {"lon": -77.017962, "name": "1dbde4d5c90db1a4e043e8fd6ef0d875", "is_disabled": 0, "type": "electric_scooter", "is_reserved": 0, "fusion_lon": 0.0, "lat": 38.91946516666667, "rental_uris": {"ios": "https://dc.lft.to/lastmile_qr_scan", "android": "https://dc.lft.to/lastmile_qr_scan"}, "bike_id": "1dbde4d5c90db1a4e043e8fd6ef0d875", "fusion_lat": 0.0}, {"lon": -77.04348866666666, "name": "1c870f569ec0893bfad2b7ded2426824", "is_disabled": 0, "type": "electric_scooter", "is_reserved": 0, "fusion_lon": 0.0, "lat": 38.9135805, "rental_uris": {"ios": "https://dc.lft.to/lastmile_qr_scan", "android": "https://dc.lft.to/lastmile_qr_scan"}, "bike_id": "1c870f569ec0893bfad2b7ded2426824", "fusion_lat": 0.0}, {"lon": -76.929321, "name": "3ceecc9cb694ccc1514e449f095be117", "is_disabled": 0, "type": "electric_scooter", "is_reserved": 0, "fusion_lon": 0.0, "lat": 38.901053833333336, "rental_uris": {"ios": "https://dc.lft.to/lastmile_qr_scan", "android": "https://dc.lft.to/lastmile_qr_scan"}, "bike_id": "3ceecc9cb694ccc1514e449f095be117", "fusion_lat": 0.0}, {"lon": -77.02969366666666, "name": "55426c99a74abd07d9adc332865fbacb", "is_disabled": 0, "type": "electric_scooter", "is_reserved": 0, "fusion_lon": 0.0, "lat": 38.91891483333333, "rental_uris": {"ios": "https://dc.lft.to/lastmile_qr_scan", "android": "https://dc.lft.to/lastmile_qr_scan"}, "bike_id": "55426c99a74abd07d9adc332865fbacb", "fusion_lat": 0.0},