{"data": {"bikes": [{"lat": 38.891914, "is_reserved": 0, "lon": -77.022406, "fusion_lon": 0.0, "fusion_lat": 0.0, "is_disabled": 0, "type": "electric_scooter", "bike_id": "00d5bf0440d2563f08f6ed29f221d845", "rental_uris": {"android": "https://dc.lft.to/lastmile_qr_scan", "ios": "https://dc.lft.to/lastmile_qr_scan"}, "name": "00d5bf0440d2563f08f6ed29f221d845"}, {"lat": 38.9133055, "is_reserved": 0, "lon": -76.98499183333334, "fusion_lon": 0.0, "fusion_lat": 0.0, "is_disabled": 0, "type": "electric_scooter", "bike_id": "371dfac23d3e35d2621d253e14d575a6", "rental_uris": {"android": "https://dc.lft.to/lastmile_qr_scan", "ios": "https://dc.lft.to/lastmile_qr_scan"}, "name": "371dfac23d3e35d2621d253e14d575a6"}, {"lat": 38.905916, "is_reserved": 0, "lon": -77.069874, "fusion_lon": 0.0, "fusion_lat": 0.0, "is_disabled": 0, "type": "electric_scooter", "bike_id": "c214eecea9e09a657efe2dc90ffc6c4d", "rental_uris": {"android": "https://dc.lft.to/lastmile_qr_scan", "ios": "https://dc.lft.to/lastmile_qr_scan"}, "name": "c214eecea9e09a657efe2dc90ffc6c4d"}, {"lat": 38.898280666666665, "is_reserved": 0, "lon": -77.0218925, "fusion_lon": 0.0, "fusion_lat": 0.0, "is_disabled": 0, "type": "electric_scooter", "bike_id": "a381464e09e2aa4c3f52047118067665", "rental_uris": {"android": "https://dc.lft.to/lastmile_qr_scan", "ios": "https://dc.lft.to/lastmile_qr_scan"}, "name": "a381464e09e2aa4c3f52047118067665"}, {"lat": 38.91469216666667, "is_reserved": 0, "lon": -76.98111916666667, "fusion_lon": 0.0, "fusion_lat": 0.0, "is_disabled": 0, "type": "electric_scooter", "bike_id": "00a63bc1bc0322c0bab80e445ed4028c", "rental_uris": {"android": "https://dc.lft.to/lastmile_qr_scan", "ios": "https://dc.lft.to/lastmile_qr_scan"}, "name": "00a63bc1bc0322c0bab80e445ed4028c"}, {"lat": 38.91523083333333, "is_reserved": 0, "lon": -77.02183833333333, "fusion_lon": 0.0, "fusion_lat": 0.0, "is_disabled": 0, "type": "electric_scooter", "bike_id": "f63ef397eab3462d777ca90e3ca1bca5", "rental_uris": {"android": "https://dc.lft.to/lastmile_qr_scan", "ios": "https://dc.lft.to/lastmile_qr_scan"}, "name": "f63ef397eab3462d777ca90e3ca1bca5"}, {"lat": 38.881199333333335, "is_reserved": 0, "lon": -77.02648133333334, "fusion_lon": 0.0, "fusion_lat": 0.0, "is_disabled": 0, "type": "electric_scooter", "bike_id": "f5afaa522e6b6bc891b37ade1848a493", "rental_uris": {"android": "https://dc.lft.to/lastmile_qr_scan", "ios": "https://dc.lft.to/lastmile_qr_scan"}, "name": "f5afaa522e6b6bc891b37ade1848a493"}, {"lat": 38.91913433333333, "is_reserved": 0, "lon": -77.03425833333333, "fusion_lon": 0.0, "fusion_lat": 0.0, "is_disabled": 0, "type": "electric_scooter", "bike_id": "da8bedf24a59754212943a87e465f548", "rental_uris": {"android": "https://dc.lft.to/lastmile_qr_scan", "ios": "https://dc.lft.to/lastmile_qr_scan"}, "name": "da8bedf24a59754212943a87e465f548"}, {"lat": 38.9084135, "is_reserved": 0, "lon": -77.04359783333334, "fusion_lon": 0.0, "fusion_lat": 0.0, "is_disabled": 0, "type": "electric_scooter", "bike_id": "f99c7560e11d7b46c2ae7d4b45e9c27f", "rental_uris": {"android": "https://dc.lft.to/lastmile_qr_scan", "ios": "https://dc.lft.to/lastmile_qr_scan"}, "name": "f99c7560e11d7b46c2ae7d4b45e9c27f"}, {"lat": 38.90861733333333, "is_reserved": 0, "lon": -77.0018935, "fusion_lon": 0.0, "fusion_lat": 0.0, "is_disabled": 0, "type": "electric_scooter", "bike_id": "b9f5abd9524622fc31fa2bdadcb880a7", "rental_uris": {"android": "https://dc.lft.to/lastmile_qr_scan", "ios": "https://dc.lft.to/lastmile_qr_scan"}, "name": "b9f5abd9524622fc31fa2bdadcb880a7"}, {"lat": 38.931625, "is_reserved": 0, "lon": -77.03496516666667, "fusion_lon": 0.0, "fusion_lat": 0.0, "is_disabled": 0, "type": "electric_scooter", "bike_id": "5eb1adc11323fc2ec8824e57ea7f4e8c", "rental_uris": {"android": "https://dc.lft.to/lastmile_qr_scan", "ios": "https://dc.lft.to/lastmile_qr_scan"}, "name": "5eb1adc11323fc2ec8824e57ea7f4e8c"}, {"lat": 38.91717516666667, "is_reserved": 0, "lon": -77.02598116666667, "fusion_lon": 0.0, "fusion_lat": 0.0, "is_disabled": 0, "type": "electric_scooter", "bike_id": "6714e727d990ed516d7d9320838d5a2b", "rental_uris": {"android": "https://dc.lft.to/lastmile_qr_scan", "ios": "https://dc.lft.to/lastmile_qr_scan"}, "name": "6714e727d990ed516d7d9320838d5a2b"}, {"lat": 38.90996, "is_reserved": 0, "lon": -77.04001433333333, "fusion_lon": 0.0, "fusion_lat": 0.0, "is_disabled": 0, "type": "electric_scooter", "bike_id": "b6d9f6473b8f3b64514be53533e6e023", "rental_uris": {"android": "https://dc.lft.to/lastmile_qr_scan", "ios": "https://dc.lft.to/lastmile_qr_scan"}, "name": "b6d9f6473b8f3b64514be53533e6e023"}, {"lat": 38.919110833333335, "is_reserved": 0, "lon": -77.01345033333334, "fusion_lon": 0.0, "fusion_lat": 0.0, "is_disabled": 0, "type": "electric_scooter", "bike_id": "7cc500b4050824d447e0c152e5f08990", "rental_uris": {"android": "https://dc.lft.to/lastmile_qr_scan", "ios": "https://dc.lft.to/lastmile_qr_scan"}, "name": "7cc500b4050824d447e0c152e5f08990"}, {"lat": 38.89624, "is_reserved": 0, "lon": -77.02610566666667, "fusion_lon": 0.0, "fusion_lat": 0.0, "is_disabled": 0, "type": "electric_scooter", "bike_id": "4bda7d6f043a23d4b8308884e3396fee", "rental_uris": {"android": "https://dc.lft.to/lastmile_qr_scan", "ios": "https://dc.lft.to/lastmile_qr_scan"}, "name": "4bda7d6f043a23d4b8308884e3396fee"}, {"lat": 38.93023066666667, "is_reserved": 0, "lon": -77.01986133333334, "fusion_lon": 0.0, "fusion_lat": 0.0, "is_disabled": 0, "type": "electric_scooter", "bike_id": "b72bf3bcdfd15347007018d7c4d09d95", "rental_uris": {"android": "https://dc.lft.to/lastmile_qr_scan", "ios": "https://dc.lft.to/lastmile_qr_scan"}, "name": "b72bf3bcdfd15347007018d7c4d09d95"}, {"lat": 38.862195166666666, "is_reserved": 0, "lon": -76.99458283333334, "fusion_lon": 0.0, "fusion_lat": 0.0, "is_disabled": 0, "type": "electric_scooter", "bike_id": "79dd4bfeac14a1c85ff2c10e3b66ef20", "rental_uris": {"android": "https://dc.lft.to/lastmile_qr_scan", "ios": "https://dc.lft.to/lastmile_qr_scan"}, "name": "79dd4bfeac14a1c85ff2c10e3b66ef20"}, {"lat": 38.916791, "is_reserved": 0, "lon": -77.02383983333333, "fusion_lon": 0.0, "fusion_lat": 0.0, "is_disabled": 0, "type": "electric_scooter", "bike_id": "75bde5e56b429525eabd3e6bebdf99b7", "rental_uris": {"android": "https://dc.lft.to/lastmile_qr_scan", "ios": "https://dc.lft.to/lastmile_qr_scan"}, "name": "75bde5e56b429525eabd3e6bebdf99b7"}, {"lat": 38.902598166666664, "is_reserved": 0, "lon": -77.0172855, "fusion_lon": 0.0, "fusion_lat": 0.0, "is_disabled": 0, "type": "electric_scooter", "bike_id": "7540874e37d9cc77aee211b31f3c23a7", "rental_uris": {"android": "https://dc.lft.to/lastmile_qr_scan", "ios": "https://dc.lft.to/lastmile_qr_scan"}, "name": "7540874e37d9cc77aee211b31f3c23a7"}, {"lat": 38.903620333333336, "is_reserved": 0, "lon": -77.021965, "fusion_lon": 0.0, "fusion_lat": 0.0, "is_disabled": 0, "type": "electric_scooter", "bike_id": "d45790b16b43e019cfff159e58c1d119", "rental_uris": {"android": "https://dc.lft.to/lastmile_qr_scan", "ios": "https://dc.lft.to/lastmile_qr_scan"}, "name": "d45790b16b43e019cfff159e58c1d119"}, {"lat": 38.917575166666666, "is_reserved": 0, "lon": -77.045578, "fusion_lon": 0.0, "fusion_lat": 0.0, "is_disabled": 0, "type": "electric_scooter", "bike_id": "f7afdbf1511b85f16aad20eb306361ed", "rental_uris": {"android": "https://dc.lft.to/lastmile_qr_scan", "ios": "https://dc.lft.to/lastmile_qr_scan"}, "name": "f7afdbf1511b85f16aad20eb306361ed"}, {"lat": 38.93358333333333, "is_reserved": 0, "lon": -77.0412095, "fusion_lon": 0.0, "fusion_lat": 0.0, "is_disabled": 0, "type": "electric_scooter", "bike_id": "abc4f7ad388f7c207594293dca994c3b", "rental_uris": {"android": "https://dc.lft.to/lastmile_qr_scan", "ios": "https://dc.lft.to/lastmile_qr_scan"}, "name": "abc4f7ad388f7c207594293dca994c3b"}, {"lat": 38.930744833333335, "is_reserved": 0, "lon": -77.01995733333334, "fusion_lon": 0.0, "fusion_lat": 0.0, "is_disabled": 0, "type": "electric_scooter", "bike_id": "5fd7b8bba6ace1f9bb74e4282a6e184b", "rental_uris": {"android": "https://dc.lft.to/lastmile_qr_scan", "ios": "https://dc.lft.to/lastmile_qr_scan"}, "name": "5fd7b8bba6ace1f9bb74e4282a6e184b"}, {"lat": 38.94408, "is_reserved": 0, "lon": -77.06387466666666, "fusion_lon": 0.0, "fusion_lat": 0.0, "is_disabled": 0, "type": "electric_scooter", "bike_id": "a610f1e9cf54c7c20e0c31fc0b658b76", "rental_uris": {"android": "https://dc.lft.to/lastmile_qr_scan", "ios": "https://dc.lft.to/lastmile_qr_scan"}, "name": "a610f1e9cf54c7c20e0c31fc0b658b76"}, {"lat": 38.90896733333334, "is_reserved": 0, "lon": -77.0281385, "fusion_lon": 0.0, "fusion_lat": 0.0, "is_disabled": 0, "type": "electric_scooter", "bike_id": "d726b22c30dad469cfa8ec32aeb8e2ba", "rental_uris": {"android": "https://dc.lft.to/lastmile_qr_scan", "ios": "https://dc.lft.to/lastmile_qr_scan"}, "name": "d726b22c30dad469cfa8ec32aeb8e2ba"}, {"lat": 38.9179655, "is_reserved": 0, "lon": -77.03438333333334, "fusion_lon": 0.0, "fusion_lat": 0.0, "is_disabled": 0, "type": "electric_scooter", "bike_id": "f2e95fa6d491162eff644253afb9c180", "rental_uris": {"android": "https://dc.lft.to/lastmile_qr_scan", "ios": "https://dc.lft.to/lastmile_qr_scan"}, "name": "f2e95fa6d491162eff644253afb9c180"}, {"lat": 38.89726116666667, "is_reserved": 0, "lon": -77.0196885, "fusion_lon": 0.0, "fusion_lat": 0.0, "is_disabled": 0, "type": "electric_scooter", "bike_id": "551efdf1bb497359568507585d1bb632", "rental_uris": {"android": "https://dc.lft.to/lastmile_qr_scan", "ios": "https://dc.lft.to/lastmile_qr_scan"}, "name": "551efdf1bb497359568507585d1bb632"}, {"lat": 38.931657666666666, "is_reserved": 0, "lon": -77.05623216666666, "fusion_lon": 0.0, "fusion_lat": 0.0, "is_disabled": 0, "type": "electric_scooter", "bike_id": "1e8e9de78aa379df5fce4c5400a13d5e", "rental_uris": {"android": "https://dc.lft.to/lastmile_qr_scan", "ios": "https://dc.lft.to/lastmile_qr_scan"}, "name": "1e8e9de78aa379df5fce4c5400a13d5e"}, {"lat": 38.911174333333335, "is_reserved": 0, "lon": -77.03148366666667, "fusion_lon": 0.0, "fusion_lat": 0.0, "is_disabled": 0, "type": "electric_scooter", "bike_id": "72d2c287bd9abcc799152c10a7cc6e5b", "rental_uris": {"android": "https://dc.lft.to/lastmile_qr_scan", "ios": "https://dc.lft.to/lastmile_qr_scan"}, "name": "72d2c287bd9abcc799152c10a7cc6e5b"}, {"lat": 38.89669033333333, "is_reserved": 0, "lon": -77.00544366666666, "fusion_lon": 0.0, "fusion_lat": 0.0, "is_disabled": 0, "type": "electric_scooter", "bike_id": "a60c1601d0fefd499d344d1b16a7b367", "rental_uris": {"android": "https://dc.lft.to/lastmile_qr_scan", "ios": "https://dc.lft.to/lastmile_qr_scan"}, "name": "a60c1601d0fefd499d344d1b16a7b367"}, {"lat": 38.898822, "is_reserved": 0, "lon": -77.033221, "fusion_lon": 0.0, "fusion_lat": 0.0, "is_disabled": 0, "type": "electric_scooter", "bike_id": "4148ac9d46bbc6e79e096e74ed99d1bc", "rental_uris": {"android": "https://dc.lft.to/lastmile_qr_scan", "ios": "https://dc.lft.to/lastmile_qr_scan"}, "name": "4148ac9d46bbc6e79e096e74ed99d1bc"}, {"lat": 38.92290716666667, "is_reserved": 0, "lon": -77.0296675, "fusion_lon": 0.0, "fusion_lat": 0.0, "is_disabled": 0, "type": "electric_scooter", "bike_id": "2ea033759cce402386acad73823443b8", "rental_uris": {"android": "https://dc.lft.to/lastmile_qr_scan", "ios": "https://dc.lft.to/lastmile_qr_scan"}, "name": "2ea033759cce402386acad73823443b8"}, {"lat": 38.911849, "is_reserved": 0, "lon": -77.04478233333333, "fusion_lon": 0.0, "fusion_lat": 0.0, "is_disabled": 0, "type": "electric_scooter", "bike_id": "d30dccf1550546cf8e28a5bb209bbe9f", "rental_uris": {"android": "https://dc.lft.to/lastmile_qr_scan", "ios": "https://dc.lft.to/lastmile_qr_scan"}, "name": "d30dccf1550546cf8e28a5bb209bbe9f"}, {"lat": 38.920523, "is_reserved": 0, "lon": -77.04230416666667, "fusion_lon": 0.0, "fusion_lat": 0.0, "is_disabled": 0, "type": "electric_scooter", "bike_id": "084251e4093115164197af5cf49ef5fa", "rental_uris": {"android": "https://dc.lft.to/lastmile_qr_scan", "ios": "https://dc.lft.to/lastmile_qr_scan"}, "name": "084251e4093115164197af5cf49ef5fa"}, {"lat": 38.914552, "is_reserved": 0, "lon": -77.0021245, "fusion_lon": 0.0, "fusion_lat": 0.0, "is_disabled": 0, "type": "electric_scooter", "bike_id": "9ad77cb1eccbfafb2930b4a501440073", "rental_uris": {"android": "https://dc.lft.to/lastmile_qr_scan", "ios": "https://dc.lft.to/lastmile_qr_scan"}, "name": "9ad77cb1eccbfafb2930b4a501440073"}, {"lat": 38.89995066666667, "is_reserved": 0, "lon": -76.98557116666667, "fusion_lon": 0.0, "fusion_lat": 0.0, "is_disabled": 0, "type": "electric_scooter", "bike_id": "889d4c4d31e3c40fe1c3881b75a7d7b3", "rental_uris": {"android": "https://dc.lft.to/lastmile_qr_scan", "ios": "https://dc.lft.to/lastmile_qr_scan"}, "name": "889d4c4d31e3c40fe1c3881b75a7d7b3"}, {"lat": 38.90681283333333, "is_reserved": 0, "lon": -76.979974, "fusion_lon": 0.0, "fusion_lat": 0.0, "is_disabled": 0, "type": "electric_scooter", "bike_id": "89f51d90bc91e67373fbba28f915b07f", "rental_uris": {"android": "https://dc.lft.to/lastmile_qr_scan", "ios": "https://dc.lft.to/lastmile_qr_scan"}, "name": "89f51d90bc91e67373fbba28f915b07f"}, {"lat": 38.87368983333333, "is_reserved": 0, "lon": -77.0011495, "fusion_lon": 0.0, "fusion_lat": 0.0, "is_disabled": 0, "type": "electric_scooter", "bike_id": "8e5fbe7177fb157766d9e747a16610c1", "rental_uris": {"android": "https://dc.lft.to/lastmile_qr_scan", "ios": "https://dc.lft.to/lastmile_qr_scan"}, "name": "8e5fbe7177fb157766d9e747a16610c1"}, {"lat": 38.93226216666667, "is_reserved": 0, "lon": -77.18119616666667, "fusion_lon": 0.0, "fusion_lat": 0.0, "is_disabled": 0, "type": "electric_bike", "bike_id": "12bddcdd465e29fe625f94da4c6813c7", "rental_uris": {"android": "https://dc.lft.to/lastmile_qr_scan", "ios": "https://dc.lft.to/lastmile_qr_scan"}, "name": "12bddcdd465e29fe625f94da4c6813c7"}, {"lat": 38.90516733333333, "is_reserved": 0, "lon": -77.00133916666667, "fusion_lon": 0.0, "fusion_lat": 0.0, "is_disabled": 0, "type": "electric_scooter", "bike_id": "ad7013611d4c63aac4dc55f9877d6c8c", "rental_uris": {"android": "https://dc.lft.to/lastmile_qr_scan", "ios": "https://dc.lft.to/lastmile_qr_scan"}, "name": "ad7013611d4c63aac4dc55f9877d6c8c"}, {"lat": 38.885284, "is_reserved": 0, "lon": -76.95622716666666, "fusion_lon": 0.0, "fusion_lat": 0.0, "is_disabled": 0, "type": "electric_bike", "bike_id": "583ed1d461e739f4781266bdffdc725c", "rental_uris": {"android": "https://dc.lft.to/lastmile_qr_scan", "ios": "https://dc.lft.to/lastmile_qr_scan"}, "name": "583ed1d461e739f4781266bdffdc725c"}, {"lat": 38.929065333333334, "is_reserved": 0, "lon": -77.02364833333333, "fusion_lon": 0.0, "fusion_lat": 0.0, "is_disabled": 0, "type": "electric_scooter", "bike_id": "ed5befc0e7c1936357665949f802d997", "rental_uris": {"android": "https://dc.lft.to/lastmile_qr_scan", "ios": "https://dc.lft.to/lastmile_qr_scan"}, "name": "ed5befc0e7c1936357665949f802d997"}, {"lat": 38.9063265, "is_reserved": 0, "lon": -77.03462316666666, "fusion_lon": 0.0, "fusion_lat": 0.0, "is_disabled": 0, "type": "electric_scooter", "bike_id": "22f2be1c91a30e01173ce8c13a29c347", "rental_uris": {"android": "https://dc.lft.to/lastmile_qr_scan", "ios": "https://dc.lft.to/lastmile_qr_scan"}, "name": "22f2be1c91a30e01173ce8c13a29c347"}, {"lat": 38.88147383333333, "is_reserved": 0, "lon": -77.01656766666666, "fusion_lon": 0.0, "fusion_lat": 0.0, "is_disabled": 0, "type": "electric_scooter", "bike_id": "7ec45b130de976cec7234b8a82f963ca", "rental_uris": {"android": "https://dc.lft.to/lastmile_qr_scan", "ios": "https://dc.lft.to/lastmile_qr_scan"}, "name": "7ec45b130de976cec7234b8a82f963ca"}, {"lat": 38.910403, "is_reserved": 0, "lon": -77.032999, "fusion_lon": 0.0, "fusion_lat": 0.0, "is_disabled": 0, "type": "electric_scooter", "bike_id": "a19e688356f67d2576e0650d446d95d7", "rental_uris": {"android": "https://dc.lft.to/lastmile_qr_scan", "ios": "https://dc.lft.to/lastmile_qr_scan"}, "name": "a19e688356f67d2576e0650d446d95d7"}, {"lat": 38.900165666666666, "is_reserved": 0, "lon": -77.04354783333334, "fusion_lon": 0.0, "fusion_lat": 0.0, "is_disabled": 0, "type": "electric_scooter", "bike_id": "387056b739520135bd4ee050bbfe4273", "rental_uris": {"android": "https://dc.lft.to/lastmile_qr_scan", "ios": "https://dc.lft.to/lastmile_qr_scan"}, "name": "387056b739520135bd4ee050bbfe4273"}, {"lat": 38.924702833333335, "is_reserved": 0, "lon": -77.02202383333334, "fusion_lon": 0.0, "fusion_lat": 0.0, "is_disabled": 0, "type": "electric_scooter", "bike_id": "ef3e85371e73ca01bc286d1a41fef8d1", "rental_uris": {"android": "https://dc.lft.to/lastmile_qr_scan", "ios": "https://dc.lft.to/lastmile_qr_scan"}, "name": "ef3e85371e73ca01bc286d1a41fef8d1"}, {"lat": 38.9086385, "is_reserved": 0, "lon": -77.04681233333334, "fusion_lon": 0.0, "fusion_lat": 0.0, "is_disabled": 0, "type": "electric_scooter", "bike_id": "be687987b7dd29f9d12fc99aaacee136", "rental_uris": {"android": "https://dc.lft.to/lastmile_qr_scan", "ios": "https://dc.lft.to/lastmile_qr_scan"}, "name": "be687987b7dd29f9d12fc99aaacee136"}, {"lat": 38.8939655, "is_reserved": 0, "lon": -77.0442825, "fusion_lon": 0.0, "fusion_lat": 0.0, "is_disabled": 0, "type": "electric_scooter", "bike_id": "8dbad4cb0401c6c8a97ba01b0bca902d", "rental_uris": {"android": "https://dc.lft.to/lastmile_qr_scan", "ios": "https://dc.lft.to/lastmile_qr_scan"}, "name": "8dbad4cb0401c6c8a97ba01b0bca902d"}, {"lat": 38.939923, "is_reserved": 0, "lon": -77.01692466666667, "fusion_lon": 0.0, "fusion_lat": 0.0, "is_disabled": 0, "type": "electric_scooter", "bike_id": "f12b931a9ada7fbf157bf31e0a573dd8", "rental_uris": {"android": "https://dc.lft.to/lastmile_qr_scan", "ios": "https://dc.lft.to/lastmile_qr_scan"}, "name": "f12b931a9ada7fbf157bf31e0a573dd8"}, {"lat": 38.892176, "is_reserved": 0, "lon": -77.0138525, "fusion_lon": 0.0, "fusion_lat": 0.0, "is_disabled": 0, "type": "electric_scooter", "bike_id": "36da846678381fc4798aad911c5fc1c7", "rental_uris": {"android": "https://dc.lft.to/lastmile_qr_scan", "ios": "https://dc.lft.to/lastmile_qr_scan"}, "name": "36da846678381fc4798aad911c5fc1c7"}, {"lat": 38.97499216666667, "is_reserved": 0, "lon": -77.01691133333334, "fusion_lon": 0.0, "fusion_lat": 0.0, "is_disabled": 0, "type": "electric_scooter", "bike_id": "1d58ef78c96a0a04f5823e569930dc19", "rental_uris": {"android": "https://dc.lft.to/lastmile_qr_scan", "ios": "https://dc.lft.to/lastmile_qr_scan"}, "name": "1d58ef78c96a0a04f5823e569930dc19"}, {"lat": 38.89343733333333, "is_reserved": 0, "lon": -77.02860483333333, "fusion_lon": 0.0, "fusion_lat": 0.0, "is_disabled": 0, "type": "electric_scooter", "bike_id": "0bb7a9f094deb60039e6986d5b828830", "rental_uris": {"android": "https://dc.lft.to/lastmile_qr_scan", "ios": "https://dc.lft.to/lastmile_qr_scan"}, "name": "0bb7a9f094deb60039e6986d5b828830"}, {"lat": 38.90368766666667, "is_reserved": 0, "lon": -77.03155216666667, "fusion_lon": 0.0, "fusion_lat": 0.0, "is_disabled": 0, "type": "electric_scooter", "bike_id": "d763854667328d1c96da7ecdb635e2d9", "rental_uris": {"android": "https://dc.lft.to/lastmile_qr_scan", "ios": "https://dc.lft.to/lastmile_qr_scan"}, "name": "d763854667328d1c96da7ecdb635e2d9"}, {"lat": 38.91250016666667, "is_reserved": 0, "lon": -77.02425516666666, "fusion_lon": 0.0, "fusion_lat": 0.0, "is_disabled": 0, "type": "electric_scooter", "bike_id": "0bc717ea14f7245e7f4d4372a7b1875b", "rental_uris": {"android": "https://dc.lft.to/lastmile_qr_scan", "ios": "https://dc.lft.to/lastmile_qr_scan"}, "name": "0bc717ea14f7245e7f4d4372a7b1875b"}, {"lat": 38.871809, "is_reserved": 0, "lon": -77.00609716666666, "fusion_lon": 0.0, "fusion_lat": 0.0, "is_disabled": 0, "type": "electric_scooter", "bike_id": "55415025646a8b24268506ac80d6b8fb", "rental_uris": {"android": "https://dc.lft.to/lastmile_qr_scan", "ios": "https://dc.lft.to/lastmile_qr_scan"}, "name": "55415025646a8b24268506ac80d6b8fb"}, {"lat": 38.90807216666666, "is_reserved": 0, "lon": -77.03059033333334, "fusion_lon": 0.0, "fusion_lat": 0.0, "is_disabled": 0, "type": "electric_scooter", "bike_id": "c737765496568eae51df1d2a8e8cd0ca", "rental_uris": {"android": "https://dc.lft.to/lastmile_qr_scan", "ios": "https://dc.lft.to/lastmile_qr_scan"}, "name": "c737765496568eae51df1d2a8e8cd0ca"}, {"lat": 38.911539, "is_reserved": 0, "lon": -77.03836533333333, "fusion_lon": 0.0, "fusion_lat": 0.0, "is_disabled": 0, "type": "electric_scooter", "bike_id": "1c532414943a2cfc3da32b621f50363f", "rental_uris": {"android": "https://dc.lft.to/lastmile_qr_scan", "ios": "https://dc.lft.to/lastmile_qr_scan"}, "name": "1c532414943a2cfc3da32b621f50363f"}, {"lat": 38.89898516666667, "is_reserved": 0, "lon": -77.02825433333334, "fusion_lon": 0.0, "fusion_lat": 0.0, "is_disabled": 0, "type": "electric_scooter", "bike_id": "b746b6668a5834b6b6d99d8208455eec", "rental_uris": {"android": "https://dc.lft.to/lastmile_qr_scan", "ios": "https://dc.lft.to/lastmile_qr_scan"}, "name": "b746b6668a5834b6b6d99d8208455eec"}, {"lat": 38.909402166666666, "is_reserved": 0, "lon": -77.04463516666667, "fusion_lon": 0.0, "fusion_lat": 0.0, "is_disabled": 0, "type": "electric_scooter", "bike_id": "930852c8f74846f2c21a1a623b515b8c", "rental_uris": {"android": "https://dc.lft.to/lastmile_qr_scan", "ios": "https://dc.lft.to/lastmile_qr_scan"}, "name": "930852c8f74846f2c21a1a623b515b8c"}, {"lat": 38.92153916666667, "is_reserved": 0, "lon": -77.038387, "fusion_lon": 0.0, "fusion_lat": 0.0, "is_disabled": 0, "type": "electric_scooter", "bike_id": "5dc3b9698ad298ec63b00ef53bb68148", "rental_uris": {"android": "https://dc.lft.to/lastmile_qr_scan", "ios": "https://dc.lft.to/lastmile_qr_scan"}, "name": "5dc3b9698ad298ec63b00ef53bb68148"}, {"lat": 38.89506883333333, "is_reserved": 0, "lon": -77.04673016666666, "fusion_lon": 0.0, "fusion_lat": 0.0, "is_disabled": 0, "type": "electric_scooter", "bike_id": "72c7a73c8dc9e9c9b707040b911074b2", "rental_uris": {"android": "https://dc.lft.to/lastmile_qr_scan", "ios": "https://dc.lft.to/lastmile_qr_scan"}, "name": "72c7a73c8dc9e9c9b707040b911074b2"}, {"lat": 38.929010166666664, "is_reserved": 0, "lon": -77.0261455, "fusion_lon": 0.0, "fusion_lat": 0.0, "is_disabled": 0, "type": "electric_scooter", "bike_id": "fc8e941957b186cb2a7e69c8167a5332", "rental_uris": {"android": "https://dc.lft.to/lastmile_qr_scan", "ios": "https://dc.lft.to/lastmile_qr_scan"}, "name": "fc8e941957b186cb2a7e69c8167a5332"}, {"lat": 38.903504833333336, "is_reserved": 0, "lon": -77.0409265, "fusion_lon": 0.0, "fusion_lat": 0.0, "is_disabled": 0, "type": "electric_scooter", "bike_id": "1d4c7075cac3a412b97eb61b4f0bbb26", "rental_uris": {"android": "https://dc.lft.to/lastmile_qr_scan", "ios": "https://dc.lft.to/lastmile_qr_scan"}, "name": "1d4c7075cac3a412b97eb61b4f0bbb26"}, {"lat": 38.96909, "is_reserved": 0, "lon": -76.99493183333334, "fusion_lon": 0.0, "fusion_lat": 0.0, "is_disabled": 0, "type": "electric_bike", "bike_id": "e56977a1d303fd068b930e372244c779", "rental_uris": {"android": "https://dc.lft.to/lastmile_qr_scan", "ios": "https://dc.lft.to/lastmile_qr_scan"}, "name": "e56977a1d303fd068b930e372244c779"}, {"lat": 38.9204395, "is_reserved": 0, "lon": -77.01691783333334, "fusion_lon": 0.0, "fusion_lat": 0.0, "is_disabled": 0, "type": "electric_scooter", "bike_id": "7ddb76a21c0030401d406cd44e4604b2", "rental_uris": {"android": "https://dc.lft.to/lastmile_qr_scan", "ios": "https://dc.lft.to/lastmile_qr_scan"}, "name": "7ddb76a21c0030401d406cd44e4604b2"}, {"lat": 38.96405516666667, "is_reserved": 0, "lon": -76.99992016666667, "fusion_lon": 0.0, "fusion_lat": 0.0, "is_disabled": 0, "type": "electric_bike", "bike_id": "bef8ef0d73b945640613243cdeccdc77", "rental_uris": {"android": "https://dc.lft.to/lastmile_qr_scan", "ios": "https://dc.lft.to/lastmile_qr_scan"}, "name": "bef8ef0d73b945640613243cdeccdc77"}, {"lat": 38.895515, "is_reserved": 0, "lon": -77.04684216666666, "fusion_lon": 0.0, "fusion_lat": 0.0, "is_disabled": 0, "type": "electric_scooter", "bike_id": "ed8c1c4e5f623940e43779b7777780fd", "rental_uris": {"android": "https://dc.lft.to/lastmile_qr_scan", "ios": "https://dc.lft.to/lastmile_qr_scan"}, "name": "ed8c1c4e5f623940e43779b7777780fd"}, {"lat": 38.921312, "is_reserved": 0, "lon": -77.00400983333333, "fusion_lon": 0.0, "fusion_lat": 0.0, "is_disabled": 0, "type": "electric_scooter", "bike_id": "d0f7277111e573c7c288da7e50b1c10e", "rental_uris": {"android": "https://dc.lft.to/lastmile_qr_scan", "ios": "https://dc.lft.to/lastmile_qr_scan"}, "name": "d0f7277111e573c7c288da7e50b1c10e"}, {"lat": 38.90302616666666, "is_reserved": 0, "lon": -77.04009283333333, "fusion_lon": 0.0, "fusion_lat": 0.0, "is_disabled": 0, "type": "electric_scooter", "bike_id": "31f3daa62698bcc8f7ca6e31ee330ecb", "rental_uris": {"android": "https://dc.lft.to/lastmile_qr_scan", "ios": "https://dc.lft.to/lastmile_qr_scan"}, "name": "31f3daa62698bcc8f7ca6e31ee330ecb"}, {"lat": 38.926585333333335, "is_reserved": 0, "lon": -77.02413966666667, "fusion_lon": 0.0, "fusion_lat": 0.0, "is_disabled": 0, "type": "electric_scooter", "bike_id": "e410c906989217f4d70830960d0fcade", "rental_uris": {"android": "https://dc.lft.to/lastmile_qr_scan", "ios": "https://dc.lft.to/lastmile_qr_scan"}, "name": "e410c906989217f4d70830960d0fcade"}, {"lat": 38.914888, "is_reserved": 0, "lon": -77.040873, "fusion_lon": 0.0, "fusion_lat": 0.0, "is_disabled": 0, "type": "electric_scooter", "bike_id": "0a5a5946f1d5ad8cea958691f7c206b3", "rental_uris": {"android": "https://dc.lft.to/lastmile_qr_scan", "ios": "https://dc.lft.to/lastmile_qr_scan"}, "name": "0a5a5946f1d5ad8cea958691f7c206b3"}, {"lat": 38.925388833333336, "is_reserved": 0, "lon": -77.00710016666666, "fusion_lon": 0.0, "fusion_lat": 0.0, "is_disabled": 0, "type": "electric_scooter", "bike_id": "ca851a78b327aa56edbeaeadc93ba4d5", "rental_uris": {"android": "https://dc.lft.to/lastmile_qr_scan", "ios": "https://dc.lft.to/lastmile_qr_scan"}, "name": "ca851a78b327aa56edbeaeadc93ba4d5"}, {"lat": 38.881477, "is_reserved": 0, "lon": -76.9832695, "fusion_lon": 0.0, "fusion_lat": 0.0, "is_disabled": 0, "type": "electric_scooter", "bike_id": "6eec87fb46dfc4d534eb2fc2c6e867a8", "rental_uris": {"android": "https://dc.lft.to/lastmile_qr_scan", "ios": "https://dc.lft.to/lastmile_qr_scan"}, "name": "6eec87fb46dfc4d534eb2fc2c6e867a8"}, {"lat": 38.9164045, "is_reserved": 0, "lon": -77.0886385, "fusion_lon": 0.0, "fusion_lat": 0.0, "is_disabled": 0, "type": "electric_scooter", "bike_id": "f7e2e550893f38c39ec51b790893461a", "rental_uris": {"android": "https://dc.lft.to/lastmile_qr_scan", "ios": "https://dc.lft.to/lastmile_qr_scan"}, "name": "f7e2e550893f38c39ec51b790893461a"}, {"lat": 38.897396666666666, "is_reserved": 0, "lon": -76.9813915, "fusion_lon": 0.0, "fusion_lat": 0.0, "is_disabled": 0, "type": "electric_scooter", "bike_id": "fbacb57d76f8bb74153d4a0edac8a061", "rental_uris": {"android": "https://dc.lft.to/lastmile_qr_scan", "ios": "https://dc.lft.to/lastmile_qr_scan"}, "name": "fbacb57d76f8bb74153d4a0edac8a061"}, {"lat": 38.89605383333333, "is_reserved": 0, "lon": -77.022089, "fusion_lon": 0.0, "fusion_lat": 0.0, "is_disabled": 0, "type": "electric_scooter", "bike_id": "65c0fe7dae978e5a1e4efa1ee3c15279", "rental_uris": {"android": "https://dc.lft.to/lastmile_qr_scan", "ios": "https://dc.lft.to/lastmile_qr_scan"}, "name": "65c0fe7dae978e5a1e4efa1ee3c15279"}, {"lat": 38.91683833333333, "is_reserved": 0, "lon": -77.02974, "fusion_lon": 0.0, "fusion_lat": 0.0, "is_disabled": 0, "type": "electric_scooter", "bike_id": "c7f3d45b9edc03c92d7d9dd360418668", "rental_uris": {"android": "https://dc.lft.to/lastmile_qr_scan", "ios": "https://dc.lft.to/lastmile_qr_scan"}, "name": "c7f3d45b9edc03c92d7d9dd360418668"}, {"lat": 38.9209155, "is_reserved": 0, "lon": -77.023072, "fusion_lon": 0.0, "fusion_lat": 0.0, "is_disabled": 0, "type": "electric_scooter", "bike_id": "85b01f6acc4006ed0f62dc0bad24c26b", "rental_uris": {"android": "https://dc.lft.to/lastmile_qr_scan", "ios": "https://dc.lft.to/lastmile_qr_scan"}, "name": "85b01f6acc4006ed0f62dc0bad24c26b"}, {"lat": 38.914139666666664, "is_reserved": 0, "lon": -77.02810816666667, "fusion_lon": 0.0, "fusion_lat": 0.0, "is_disabled": 0, "type": "electric_scooter", "bike_id": "20d7f0aba3818ac2e121c5a6d94565bd", "rental_uris": {"android": "https://dc.lft.to/lastmile_qr_scan", "ios": "https://dc.lft.to/lastmile_qr_scan"}, "name": "20d7f0aba3818ac2e121c5a6d94565bd"}, {"lat": 38.89593133333333, "is_reserved": 0, "lon": -77.04461133333334, "fusion_lon": 0.0, "fusion_lat": 0.0, "is_disabled": 0, "type": "electric_scooter", "bike_id": "2ffa0ee309f53fb66a63ea3c88815428", "rental_uris": {"android": "https://dc.lft.to/lastmile_qr_scan", "ios": "https://dc.lft.to/lastmile_qr_scan"}, "name": "2ffa0ee309f53fb66a63ea3c88815428"}, {"lat": 38.91995283333333, "is_reserved": 0, "lon": -77.0379325, "fusion_lon": 0.0, "fusion_lat": 0.0, "is_disabled": 0, "type": "electric_scooter", "bike_id": "ead8dbe32504352f7a4c0bba17dade31", "rental_uris": {"android": "https://dc.lft.to/lastmile_qr_scan", "ios": "https://dc.lft.to/lastmile_qr_scan"}, "name": "ead8dbe32504352f7a4c0bba17dade31"}, {"lat": 38.91615733333333, "is_reserved": 0, "lon": -77.04156483333334, "fusion_lon": 0.0, "fusion_lat": 0.0, "is_disabled": 0, "type": "electric_scooter", "bike_id": "696465f48ef8561c4bb43a9102d060e9", "rental_uris": {"android": "https://dc.lft.to/lastmile_qr_scan", "ios": "https://dc.lft.to/lastmile_qr_scan"}, "name": "696465f48ef8561c4bb43a9102d060e9"}, {"lat": 38.899883, "is_reserved": 0, "lon": -77.04585483333334, "fusion_lon": 0.0, "fusion_lat": 0.0, "is_disabled": 0, "type": "electric_scooter", "bike_id": "9229b400606cd734e6a71f048b2eb1b0", "rental_uris": {"android": "https://dc.lft.to/lastmile_qr_scan", "ios": "https://dc.lft.to/lastmile_qr_scan"}, "name": "9229b400606cd734e6a71f048b2eb1b0"}, {"lat": 38.93142133333333, "is_reserved": 0, "lon": -77.03839383333333, "fusion_lon": 0.0, "fusion_lat": 0.0, "is_disabled": 0, "type": "electric_scooter", "bike_id": "b968024b06337b26cc2ff4e85be57cfa", "rental_uris": {"android": "https://dc.lft.to/lastmile_qr_scan", "ios": "https://dc.lft.to/lastmile_qr_scan"}, "name": "b968024b06337b26cc2ff4e85be57cfa"}, {"lat": 38.927479166666664, "is_reserved": 0, "lon": -77.03269383333334, "fusion_lon": 0.0, "fusion_lat": 0.0, "is_disabled": 0, "type": "electric_scooter", "bike_id": "6300dd34b9cbccff29751c9ab15bb221", "rental_uris": {"android": "https://dc.lft.to/lastmile_qr_scan", "ios": "https://dc.lft.to/lastmile_qr_scan"}, "name": "6300dd34b9cbccff29751c9ab15bb221"}, {"lat": 38.91488116666667, "is_reserved": 0, "lon": -77.025857, "fusion_lon": 0.0, "fusion_lat": 0.0, "is_disabled": 0, "type": "electric_scooter", "bike_id": "1a83a55507f06eaeac4bdc720b7a8fa3", "rental_uris": {"android": "https://dc.lft.to/lastmile_qr_scan", "ios": "https://dc.lft.to/lastmile_qr_scan"}, "name": "1a83a55507f06eaeac4bdc720b7a8fa3"}, {"lat": 38.91695333333333, "is_reserved": 0, "lon": -77.03497466666667, "fusion_lon": 0.0, "fusion_lat": 0.0, "is_disabled": 0, "type": "electric_scooter", "bike_id": "045550e1a5e9c6eed12a0ecb2101e2bb", "rental_uris": {"android": "https://dc.lft.to/lastmile_qr_scan", "ios": "https://dc.lft.to/lastmile_qr_scan"}, "name": "045550e1a5e9c6eed12a0ecb2101e2bb"}, {"lat": 38.9220295, "is_reserved": 0, "lon": -77.0209625, "fusion_lon": 0.0, "fusion_lat": 0.0, "is_disabled": 0, "type": "electric_scooter", "bike_id": "f0eecdd76d65f1efeda63ca046e80d6a", "rental_uris": {"android": "https://dc.lft.to/lastmile_qr_scan", "ios": "https://dc.lft.to/lastmile_qr_scan"}, "name": "f0eecdd76d65f1efeda63ca046e80d6a"}, {"lat": 38.95502966666667, "is_reserved": 0, "lon": -77.02673866666666, "fusion_lon": 0.0, "fusion_lat": 0.0, "is_disabled": 0, "type": "electric_scooter", "bike_id": "4aebf0a1c0d5b7bf10661f2a93e5ea66", "rental_uris": {"android": "https://dc.lft.to/lastmile_qr_scan", "ios": "https://dc.lft.to/lastmile_qr_scan"}, "name": "4aebf0a1c0d5b7bf10661f2a93e5ea66"}, {"lat": 38.931917, "is_reserved": 0, "lon": -77.22925983333333, "fusion_lon": 0.0, "fusion_lat": 0.0, "is_disabled": 0, "type": "electric_bike", "bike_id": "97466c753c4c305ed842c15c3bbab95f", "rental_uris": {"android": "https://dc.lft.to/lastmile_qr_scan", "ios": "https://dc.lft.to/lastmile_qr_scan"}, "name": "97466c753c4c305ed842c15c3bbab95f"}, {"lat": 38.90010066666667, "is_reserved": 0, "lon": -77.04475166666667, "fusion_lon": 0.0, "fusion_lat": 0.0, "is_disabled": 0, "type": "electric_scooter", "bike_id": "ed7776f901062095b057486ed9fffa53", "rental_uris": {"android": "https://dc.lft.to/lastmile_qr_scan", "ios": "https://dc.lft.to/lastmile_qr_scan"}, "name": "ed7776f901062095b057486ed9fffa53"}, {"lat": 38.86503116666667, "is_reserved": 0, "lon": -76.99006583333333, "fusion_lon": 0.0, "fusion_lat": 0.0, "is_disabled": 0, "type": "electric_scooter", "bike_id": "d7a2d696e878693e86797ad879f3fcc0", "rental_uris": {"android": "https://dc.lft.to/lastmile_qr_scan", "ios": "https://dc.lft.to/lastmile_qr_scan"}, "name": "d7a2d696e878693e86797ad879f3fcc0"}, {"lat": 38.921444, "is_reserved": 0, "lon": -77.01207116666667, "fusion_lon": 0.0, "fusion_lat": 0.0, "is_disabled": 0, "type": "electric_scooter", "bike_id": "cb54dae70429502fb2cc5e07eecd5aed", "rental_uris": {"android": "https://dc.lft.to/lastmile_qr_scan", "ios": "https://dc.lft.to/lastmile_qr_scan"}, "name": "cb54dae70429502fb2cc5e07eecd5aed"}, {"lat": 38.89847666666667, "is_reserved": 0, "lon": -77.02785533333333, "fusion_lon": 0.0, "fusion_lat": 0.0, "is_disabled": 0, "type": "electric_scooter", "bike_id": "91de898ff7798c94f7dc9f50bd0104a2", "rental_uris": {"android": "https://dc.lft.to/lastmile_qr_scan", "ios": "https://dc.lft.to/lastmile_qr_scan"}, "name": "91de898ff7798c94f7dc9f50bd0104a2"}, {"lat": 38.91415716666667, "is_reserved": 0, "lon": -77.02609933333333, "fusion_lon": 0.0, "fusion_lat": 0.0, "is_disabled": 0, "type": "electric_scooter", "bike_id": "6a1060d2a2cf11e3ae4cd94683566f29", "rental_uris": {"android": "https://dc.lft.to/lastmile_qr_scan", "ios": "https://dc.lft.to/lastmile_qr_scan"}, "name": "6a1060d2a2cf11e3ae4cd94683566f29"}, {"lat": 38.93054383333333, "is_reserved": 0, "lon": -77.03631283333333, "fusion_lon": 0.0, "fusion_lat": 0.0, "is_disabled": 0, "type": "electric_scooter", "bike_id": "15a7684cf9ef82ad36da68db4adb2e6c", "rental_uris": {"android": "https://dc.lft.to/lastmile_qr_scan", "ios": "https://dc.lft.to/lastmile_qr_scan"}, "name": "15a7684cf9ef82ad36da68db4adb2e6c"}, {"lat": 38.91689516666667, "is_reserved": 0, "lon": -77.02202066666666, "fusion_lon": 0.0, "fusion_lat": 0.0, "is_disabled": 0, "type": "electric_scooter", "bike_id": "3538120b02648b599e00cc1a5c21f978", "rental_uris": {"android": "https://dc.lft.to/lastmile_qr_scan", "ios": "https://dc.lft.to/lastmile_qr_scan"}, "name": "3538120b02648b599e00cc1a5c21f978"}, {"lat": 38.899951, "is_reserved": 0, "lon": -77.01128783333333, "fusion_lon": 0.0, "fusion_lat": 0.0, "is_disabled": 0, "type": "electric_scooter", "bike_id": "e50bd948925566e708dabc15f1512b5d", "rental_uris": {"android": "https://dc.lft.to/lastmile_qr_scan", "ios": "https://dc.lft.to/lastmile_qr_scan"}, "name": "e50bd948925566e708dabc15f1512b5d"}, {"lat": 38.90728716666667, "is_reserved": 0, "lon": -77.02616333333333, "fusion_lon": 0.0, "fusion_lat": 0.0, "is_disabled": 0, "type": "electric_scooter", "bike_id": "38b261668c4bc84d39dd1e2ed9179693", "rental_uris": {"android": "https://dc.lft.to/lastmile_qr_scan", "ios": "https://dc.lft.to/lastmile_qr_scan"}, "name": "38b261668c4bc84d39dd1e2ed9179693"}, {"lat": 38.935599333333336, "is_reserved": 0, "lon": -77.0745865, "fusion_lon": 0.0, "fusion_lat": 0.0, "is_disabled": 0, "type": "electric_scooter", "bike_id": "9629aabb6e4935f10097fdc821d1c0f4", "rental_uris": {"android": "https://dc.lft.to/lastmile_qr_scan", "ios": "https://dc.lft.to/lastmile_qr_scan"}, "name": "9629aabb6e4935f10097fdc821d1c0f4"}, {"lat": 38.871742166666664, "is_reserved": 0, "lon": -77.0062565, "fusion_lon": 0.0, "fusion_lat": 0.0, "is_disabled": 0, "type": "electric_scooter", "bike_id": "487a500077163cad71e076529bb8df36", "rental_uris": {"android": "https://dc.lft.to/lastmile_qr_scan", "ios": "https://dc.lft.to/lastmile_qr_scan"}, "name": "487a500077163cad71e076529bb8df36"}, {"lat": 38.908880833333335, "is_reserved": 0, "lon": -76.98236433333334, "fusion_lon": 0.0, "fusion_lat": 0.0, "is_disabled": 0, "type": "electric_scooter", "bike_id": "c1e8fbf5a5bab96608c01d0ba018a300", "rental_uris": {"android": "https://dc.lft.to/lastmile_qr_scan", "ios": "https://dc.lft.to/lastmile_qr_scan"}, "name": "c1e8fbf5a5bab96608c01d0ba018a300"}, {"lat": 38.876736666666666, "is_reserved": 0, "lon": -77.00719583333333, "fusion_lon": 0.0, "fusion_lat": 0.0, "is_disabled": 0, "type": "electric_scooter", "bike_id": "f3ea183726f1787857cd94fdeac224f1", "rental_uris": {"android": "https://dc.lft.to/lastmile_qr_scan", "ios": "https://dc.lft.to/lastmile_qr_scan"}, "name": "f3ea183726f1787857cd94fdeac224f1"}, {"lat": 38.89131833333333, "is_reserved": 0, "lon": -76.9518555, "fusion_lon": 0.0, "fusion_lat": 0.0, "is_disabled": 0, "type": "electric_scooter", "bike_id": "69d856944db7fd6d22263a961ddbd286", "rental_uris": {"android": "https://dc.lft.to/lastmile_qr_scan", "ios": "https://dc.lft.to/lastmile_qr_scan"}, "name": "69d856944db7fd6d22263a961ddbd286"}, {"lat": 38.905674, "is_reserved": 0, "lon": -77.04038433333334, "fusion_lon": 0.0, "fusion_lat": 0.0, "is_disabled": 0, "type": "electric_scooter", "bike_id": "5a09da0c9c1d6a0262ad580a1e99ea8d", "rental_uris": {"android": "https://dc.lft.to/lastmile_qr_scan", "ios": "https://dc.lft.to/lastmile_qr_scan"}, "name": "5a09da0c9c1d6a0262ad580a1e99ea8d"}, {"lat": 38.9055815, "is_reserved": 0, "lon": -77.00534116666667, "fusion_lon": 0.0, "fusion_lat": 0.0, "is_disabled": 0, "type": "electric_scooter", "bike_id": "8f34c92b317e8f0a1de8763661161b50", "rental_uris": {"android": "https://dc.lft.to/lastmile_qr_scan", "ios": "https://dc.lft.to/lastmile_qr_scan"}, "name": "8f34c92b317e8f0a1de8763661161b50"}, {"lat": 38.90368733333333, "is_reserved": 0, "lon": -77.03713116666667, "fusion_lon": 0.0, "fusion_lat": 0.0, "is_disabled": 0, "type": "electric_scooter", "bike_id": "e170e6aab3a4a1eb4f5f92db7a4bf0ef", "rental_uris": {"android": "https://dc.lft.to/lastmile_qr_scan", "ios": "https://dc.lft.to/lastmile_qr_scan"}, "name": "e170e6aab3a4a1eb4f5f92db7a4bf0ef"}, {"lat": 38.906485833333335, "is_reserved": 0, "lon": -77.04289783333333, "fusion_lon": 0.0, "fusion_lat": 0.0, "is_disabled": 0, "type": "electric_scooter", "bike_id": "222682a0849851ee22b8863c2639e741", "rental_uris": {"android": "https://dc.lft.to/lastmile_qr_scan", "ios": "https://dc.lft.to/lastmile_qr_scan"}, "name": "222682a0849851ee22b8863c2639e741"}, {"lat": 38.89351283333333, "is_reserved": 0, "lon": -77.00334416666666, "fusion_lon": 0.0, "fusion_lat": 0.0, "is_disabled": 0, "type": "electric_scooter", "bike_id": "6ee38289fb2dd0eb79d26c4db920e2f5", "rental_uris": {"android": "https://dc.lft.to/lastmile_qr_scan", "ios": "https://dc.lft.to/lastmile_qr_scan"}, "name": "6ee38289fb2dd0eb79d26c4db920e2f5"}, {"lat": 38.92162116666667, "is_reserved": 0, "lon": -77.0337585, "fusion_lon": 0.0, "fusion_lat": 0.0, "is_disabled": 0, "type": "electric_scooter", "bike_id": "49ac990e1285953659a5c8085c25df22", "rental_uris": {"android": "https://dc.lft.to/lastmile_qr_scan", "ios": "https://dc.lft.to/lastmile_qr_scan"}, "name": "49ac990e1285953659a5c8085c25df22"}, {"lat": 38.938605, "is_reserved": 0, "lon": -77.02649266666667, "fusion_lon": 0.0, "fusion_lat": 0.0, "is_disabled": 0, "type": "electric_scooter", "bike_id": "3e4809c483a03b3ebfb9370dda994d25", "rental_uris": {"android": "https://dc.lft.to/lastmile_qr_scan", "ios": "https://dc.lft.to/lastmile_qr_scan"}, "name": "3e4809c483a03b3ebfb9370dda994d25"}, {"lat": 38.876830166666664, "is_reserved": 0, "lon": -77.00064983333333, "fusion_lon": 0.0, "fusion_lat": 0.0, "is_disabled": 0, "type": "electric_scooter", "bike_id": "565142e889335a062f925c6040efa712", "rental_uris": {"android": "https://dc.lft.to/lastmile_qr_scan", "ios": "https://dc.lft.to/lastmile_qr_scan"}, "name": "565142e889335a062f925c6040efa712"}, {"lat": 38.897450166666665, "is_reserved": 0, "lon": -77.0444995, "fusion_lon": 0.0, "fusion_lat": 0.0, "is_disabled": 0, "type": "electric_scooter", "bike_id": "5ea4fcf601c6927d0c4e6c5f05c598cc", "rental_uris": {"android": "https://dc.lft.to/lastmile_qr_scan", "ios": "https://dc.lft.to/lastmile_qr_scan"}, "name": "5ea4fcf601c6927d0c4e6c5f05c598cc"}, {"lat": 38.916904, "is_reserved": 0, "lon": -77.02655633333333, "fusion_lon": 0.0, "fusion_lat": 0.0, "is_disabled": 0, "type": "electric_scooter", "bike_id": "69bb97cf868d64491e9d13b46d3295bf", "rental_uris": {"android": "https://dc.lft.to/lastmile_qr_scan", "ios": "https://dc.lft.to/lastmile_qr_scan"}, "name": "69bb97cf868d64491e9d13b46d3295bf"}, {"lat": 38.89737983333333, "is_reserved": 0, "lon": -77.0237695, "fusion_lon": 0.0, "fusion_lat": 0.0, "is_disabled": 0, "type": "electric_scooter", "bike_id": "f07df314c6c6dbae1530ff4435eda8ec", "rental_uris": {"android": "https://dc.lft.to/lastmile_qr_scan", "ios": "https://dc.lft.to/lastmile_qr_scan"}, "name": "f07df314c6c6dbae1530ff4435eda8ec"}, {"lat": 38.90076666666667, "is_reserved": 0, "lon": -77.04932483333333, "fusion_lon": 0.0, "fusion_lat": 0.0, "is_disabled": 0, "type": "electric_scooter", "bike_id": "04b42dc1b744ab4eb10a6b0eb1d8314f", "rental_uris": {"android": "https://dc.lft.to/lastmile_qr_scan", "ios": "https://dc.lft.to/lastmile_qr_scan"}, "name": "04b42dc1b744ab4eb10a6b0eb1d8314f"}, {"lat": 38.91695766666667, "is_reserved": 0, "lon": -77.027644, "fusion_lon": 0.0, "fusion_lat": 0.0, "is_disabled": 0, "type": "electric_scooter", "bike_id": "651fb4f00cf2e70fd785f1bf0fca156a", "rental_uris": {"android": "https://dc.lft.to/lastmile_qr_scan", "ios": "https://dc.lft.to/lastmile_qr_scan"}, "name": "651fb4f00cf2e70fd785f1bf0fca156a"}, {"lat": 38.924016333333334, "is_reserved": 0, "lon": -77.04036416666666, "fusion_lon": 0.0, "fusion_lat": 0.0, "is_disabled": 0, "type": "electric_scooter", "bike_id": "89b8406a4289110edadc6bf3256869f9", "rental_uris": {"android": "https://dc.lft.to/lastmile_qr_scan", "ios": "https://dc.lft.to/lastmile_qr_scan"}, "name": "89b8406a4289110edadc6bf3256869f9"}, {"lat": 38.91637683333333, "is_reserved": 0, "lon": -77.02813866666666, "fusion_lon": 0.0, "fusion_lat": 0.0, "is_disabled": 0, "type": "electric_scooter", "bike_id": "0af5adc042040f4e5b85b2810749454b", "rental_uris": {"android": "https://dc.lft.to/lastmile_qr_scan", "ios": "https://dc.lft.to/lastmile_qr_scan"}, "name": "0af5adc042040f4e5b85b2810749454b"}, {"lat": 38.910076333333336, "is_reserved": 0, "lon": -77.034505, "fusion_lon": 0.0, "fusion_lat": 0.0, "is_disabled": 0, "type": "electric_scooter", "bike_id": "4cf3c462a04d31a57e9171af94167d4f", "rental_uris": {"android": "https://dc.lft.to/lastmile_qr_scan", "ios": "https://dc.lft.to/lastmile_qr_scan"}, "name": "4cf3c462a04d31a57e9171af94167d4f"}, {"lat": 38.934353, "is_reserved": 0, "lon": -77.03287816666666, "fusion_lon": 0.0, "fusion_lat": 0.0, "is_disabled": 0, "type": "electric_scooter", "bike_id": "131a54afb743f362af44789a921b3f03", "rental_uris": {"android": "https://dc.lft.to/lastmile_qr_scan", "ios": "https://dc.lft.to/lastmile_qr_scan"}, "name": "131a54afb743f362af44789a921b3f03"}, {"lat": 38.90537116666667, "is_reserved": 0, "lon": -77.04101516666667, "fusion_lon": 0.0, "fusion_lat": 0.0, "is_disabled": 0, "type": "electric_scooter", "bike_id": "4e9c05a08086d2f5298de3368de06d5e", "rental_uris": {"android": "https://dc.lft.to/lastmile_qr_scan", "ios": "https://dc.lft.to/lastmile_qr_scan"}, "name": "4e9c05a08086d2f5298de3368de06d5e"}, {"lat": 38.90025116666666, "is_reserved": 0, "lon": -76.99853883333333, "fusion_lon": 0.0, "fusion_lat": 0.0, "is_disabled": 0, "type": "electric_scooter", "bike_id": "724ca1ad5dc732cbabcd86492cea3e6b", "rental_uris": {"android": "https://dc.lft.to/lastmile_qr_scan", "ios": "https://dc.lft.to/lastmile_qr_scan"}, "name": "724ca1ad5dc732cbabcd86492cea3e6b"}, {"lat": 38.881198, "is_reserved": 0, "lon": -77.0166625, "fusion_lon": 0.0, "fusion_lat": 0.0, "is_disabled": 0, "type": "electric_scooter", "bike_id": "9d569a5aa888c18e05aa8456b4ae4117", "rental_uris": {"android": "https://dc.lft.to/lastmile_qr_scan", "ios": "https://dc.lft.to/lastmile_qr_scan"}, "name": "9d569a5aa888c18e05aa8456b4ae4117"}, {"lat": 38.9257375, "is_reserved": 0, "lon": -77.0377675, "fusion_lon": 0.0, "fusion_lat": 0.0, "is_disabled": 0, "type": "electric_scooter", "bike_id": "764e505d333d0bded06e0033c0ba4376", "rental_uris": {"android": "https://dc.lft.to/lastmile_qr_scan", "ios": "https://dc.lft.to/lastmile_qr_scan"}, "name": "764e505d333d0bded06e0033c0ba4376"}, {"lat": 38.90132766666667, "is_reserved": 0, "lon": -77.04586083333334, "fusion_lon": 0.0, "fusion_lat": 0.0, "is_disabled": 0, "type": "electric_scooter", "bike_id": "68dbb81619884f124d9ec1217438c4bb", "rental_uris": {"android": "https://dc.lft.to/lastmile_qr_scan", "ios": "https://dc.lft.to/lastmile_qr_scan"}, "name": "68dbb81619884f124d9ec1217438c4bb"}, {"lat": 38.902855833333334, "is_reserved": 0, "lon": -77.03367333333334, "fusion_lon": 0.0, "fusion_lat": 0.0, "is_disabled": 0, "type": "electric_scooter", "bike_id": "a284ae9961fafc6dc5df22ff374aa9d0", "rental_uris": {"android": "https://dc.lft.to/lastmile_qr_scan", "ios": "https://dc.lft.to/lastmile_qr_scan"}, "name": "a284ae9961fafc6dc5df22ff374aa9d0"}, {"lat": 38.899126333333335, "is_reserved": 0, "lon": -77.04485483333333, "fusion_lon": 0.0, "fusion_lat": 0.0, "is_disabled": 0, "type": "electric_scooter", "bike_id": "7bf10c62272e8bebda68451800e3edba", "rental_uris": {"android": "https://dc.lft.to/lastmile_qr_scan", "ios": "https://dc.lft.to/lastmile_qr_scan"}, "name": "7bf10c62272e8bebda68451800e3edba"}, {"lat": 38.91768016666666, "is_reserved": 0, "lon": -77.0150695, "fusion_lon": 0.0, "fusion_lat": 0.0, "is_disabled": 0, "type": "electric_scooter", "bike_id": "679521592c568d233cf63ff5e76d3f71", "rental_uris": {"android": "https://dc.lft.to/lastmile_qr_scan", "ios": "https://dc.lft.to/lastmile_qr_scan"}, "name": "679521592c568d233cf63ff5e76d3f71"}, {"lat": 38.9169445, "is_reserved": 0, "lon": -77.026509, "fusion_lon": 0.0, "fusion_lat": 0.0, "is_disabled": 0, "type": "electric_scooter", "bike_id": "0406611e1d76de0c6214b34439288589", "rental_uris": {"android": "https://dc.lft.to/lastmile_qr_scan", "ios": "https://dc.lft.to/lastmile_qr_scan"}, "name": "0406611e1d76de0c6214b34439288589"}, {"lat": 38.93667633333333, "is_reserved": 0, "lon": -76.99067866666667, "fusion_lon": 0.0, "fusion_lat": 0.0, "is_disabled": 0, "type": "electric_bike", "bike_id": "eaab68e7ee85ae1485a83f3559c524bd", "rental_uris": {"android": "https://dc.lft.to/lastmile_qr_scan", "ios": "https://dc.lft.to/lastmile_qr_scan"}, "name": "eaab68e7ee85ae1485a83f3559c524bd"}, {"lat": 38.92653266666667, "is_reserved": 0, "lon": -77.03723433333333, "fusion_lon": 0.0, "fusion_lat": 0.0, "is_disabled": 0, "type": "electric_scooter", "bike_id": "07c4d77f70bb6582ca542ddc9f4fdd7b", "rental_uris": {"android": "https://dc.lft.to/lastmile_qr_scan", "ios": "https://dc.lft.to/lastmile_qr_scan"}, "name": "07c4d77f70bb6582ca542ddc9f4fdd7b"}, {"lat": 38.90552616666667, "is_reserved": 0, "lon": -77.02714366666666, "fusion_lon": 0.0, "fusion_lat": 0.0, "is_disabled": 0, "type": "electric_scooter", "bike_id": "04636f6ff34548a2e540b9f8382d586b", "rental_uris": {"android": "https://dc.lft.to/lastmile_qr_scan", "ios": "https://dc.lft.to/lastmile_qr_scan"}, "name": "04636f6ff34548a2e540b9f8382d586b"}, {"lat": 38.89344766666667, "is_reserved": 0, "lon": -76.9915175, "fusion_lon": 0.0, "fusion_lat": 0.0, "is_disabled": 0, "type": "electric_bike", "bike_id": "b674a1d9cdf4e11982609e7d7926de05", "rental_uris": {"android": "https://dc.lft.to/lastmile_qr_scan", "ios": "https://dc.lft.to/lastmile_qr_scan"}, "name": "b674a1d9cdf4e11982609e7d7926de05"}, {"lat": 38.936338666666664, "is_reserved": 0, "lon": -77.05882283333334, "fusion_lon": 0.0, "fusion_lat": 0.0, "is_disabled": 0, "type": "electric_scooter", "bike_id": "b53a1427f271ace0c26ab3c66f5c022e", "rental_uris": {"android": "https://dc.lft.to/lastmile_qr_scan", "ios": "https://dc.lft.to/lastmile_qr_scan"}, "name": "b53a1427f271ace0c26ab3c66f5c022e"}, {"lat": 38.86501166666667, "is_reserved": 0, "lon": -76.99023516666666, "fusion_lon": 0.0, "fusion_lat": 0.0, "is_disabled": 0, "type": "electric_scooter", "bike_id": "0446e76ba2e7845b533923377060ffcb", "rental_uris": {"android": "https://dc.lft.to/lastmile_qr_scan", "ios": "https://dc.lft.to/lastmile_qr_scan"}, "name": "0446e76ba2e7845b533923377060ffcb"}, {"lat": 38.90074666666667, "is_reserved": 0, "lon": -77.04937433333333, "fusion_lon": 0.0, "fusion_lat": 0.0, "is_disabled": 0, "type": "electric_scooter", "bike_id": "a8064f1146484d2ca217cc7058cab0a1", "rental_uris": {"android": "https://dc.lft.to/lastmile_qr_scan", "ios": "https://dc.lft.to/lastmile_qr_scan"}, "name": "a8064f1146484d2ca217cc7058cab0a1"}, {"lat": 38.923342166666664, "is_reserved": 0, "lon": -77.01905233333333, "fusion_lon": 0.0, "fusion_lat": 0.0, "is_disabled": 0, "type": "electric_scooter", "bike_id": "a877da21933f9fe4752e4fbc43834b9b", "rental_uris": {"android": "https://dc.lft.to/lastmile_qr_scan", "ios": "https://dc.lft.to/lastmile_qr_scan"}, "name": "a877da21933f9fe4752e4fbc43834b9b"}, {"lat": 38.900939666666666, "is_reserved": 0, "lon": -76.98339966666667, "fusion_lon": 0.0, "fusion_lat": 0.0, "is_disabled": 0, "type": "electric_scooter", "bike_id": "1264be2a95c40a2b79826a420c5c1db5", "rental_uris": {"android": "https://dc.lft.to/lastmile_qr_scan", "ios": "https://dc.lft.to/lastmile_qr_scan"}, "name": "1264be2a95c40a2b79826a420c5c1db5"}, {"lat": 38.902335, "is_reserved": 0, "lon": -77.04079966666667, "fusion_lon": 0.0, "fusion_lat": 0.0, "is_disabled": 0, "type": "electric_scooter", "bike_id": "f2427caf2d71c78192bbeec51e4714d2", "rental_uris": {"android": "https://dc.lft.to/lastmile_qr_scan", "ios": "https://dc.lft.to/lastmile_qr_scan"}, "name": "f2427caf2d71c78192bbeec51e4714d2"}, {"lat": 38.8715675, "is_reserved": 0, "lon": -77.013212, "fusion_lon": 0.0, "fusion_lat": 0.0, "is_disabled": 0, "type": "electric_scooter", "bike_id": "9c7b326eef3b4027ed039e8aca3d743f", "rental_uris": {"android": "https://dc.lft.to/lastmile_qr_scan", "ios": "https://dc.lft.to/lastmile_qr_scan"}, "name": "9c7b326eef3b4027ed039e8aca3d743f"}, {"lat": 38.8924135, "is_reserved": 0, "lon": -76.953288, "fusion_lon": 0.0, "fusion_lat": 0.0, "is_disabled": 0, "type": "electric_scooter", "bike_id": "616e46bfb4469836f2e2ac80e148e7c3", "rental_uris": {"android": "https://dc.lft.to/lastmile_qr_scan", "ios": "https://dc.lft.to/lastmile_qr_scan"}, "name": "616e46bfb4469836f2e2ac80e148e7c3"}, {"lat": 38.8090515, "is_reserved": 0, "lon": -77.08659316666666, "fusion_lon": 0.0, "fusion_lat": 0.0, "is_disabled": 0, "type": "electric_bike", "bike_id": "1a18a1af5c3e562d9377cd9dcbf3bc54", "rental_uris": {"android": "https://dc.lft.to/lastmile_qr_scan", "ios": "https://dc.lft.to/lastmile_qr_scan"}, "name": "1a18a1af5c3e562d9377cd9dcbf3bc54"}, {"lat": 38.915269333333335, "is_reserved": 0, "lon": -77.0550965, "fusion_lon": 0.0, "fusion_lat": 0.0, "is_disabled": 0, "type": "electric_scooter", "bike_id": "981793975827a9c8f68e1add197ebef8", "rental_uris": {"android": "https://dc.lft.to/lastmile_qr_scan", "ios": "https://dc.lft.to/lastmile_qr_scan"}, "name": "981793975827a9c8f68e1add197ebef8"}, {"lat": 38.89597, "is_reserved": 0, "lon": -77.0277485, "fusion_lon": 0.0, "fusion_lat": 0.0, "is_disabled": 0, "type": "electric_scooter", "bike_id": "a614f38ec9014e6f5096a57451e8d78a", "rental_uris": {"android": "https://dc.lft.to/lastmile_qr_scan", "ios": "https://dc.lft.to/lastmile_qr_scan"}, "name": "a614f38ec9014e6f5096a57451e8d78a"}, {"lat": 38.902561166666665, "is_reserved": 0, "lon": -77.03668, "fusion_lon": 0.0, "fusion_lat": 0.0, "is_disabled": 0, "type": "electric_scooter", "bike_id": "04ceed7f070d413605c0b96f7aee941f", "rental_uris": {"android": "https://dc.lft.to/lastmile_qr_scan", "ios": "https://dc.lft.to/lastmile_qr_scan"}, "name": "04ceed7f070d413605c0b96f7aee941f"}, {"lat": 38.903712166666665, "is_reserved": 0, "lon": -77.03884316666667, "fusion_lon": 0.0, "fusion_lat": 0.0, "is_disabled": 0, "type": "electric_scooter", "bike_id": "047a04494221e927d0d5aa128fb90606", "rental_uris": {"android": "https://dc.lft.to/lastmile_qr_scan", "ios": "https://dc.lft.to/lastmile_qr_scan"}, "name": "047a04494221e927d0d5aa128fb90606"}, {"lat": 38.9096235, "is_reserved": 0, "lon": -77.018496, "fusion_lon": 0.0, "fusion_lat": 0.0, "is_disabled": 0, "type": "electric_scooter", "bike_id": "e95ae1e3106a2fff3b95fcf085cf42b3", "rental_uris": {"android": "https://dc.lft.to/lastmile_qr_scan", "ios": "https://dc.lft.to/lastmile_qr_scan"}, "name": "e95ae1e3106a2fff3b95fcf085cf42b3"}, {"lat": 38.900023833333336, "is_reserved": 0, "lon": -77.05331816666667, "fusion_lon": 0.0, "fusion_lat": 0.0, "is_disabled": 0, "type": "electric_scooter", "bike_id": "c5a45f5ff3338dce7af062562cedad13", "rental_uris": {"android": "https://dc.lft.to/lastmile_qr_scan", "ios": "https://dc.lft.to/lastmile_qr_scan"}, "name": "c5a45f5ff3338dce7af062562cedad13"}, {"lat": 38.942021, "is_reserved": 0, "lon": -77.0258755, "fusion_lon": 0.0, "fusion_lat": 0.0, "is_disabled": 0, "type": "electric_scooter", "bike_id": "a3f4b549b3476b8805f6b2454f673f12", "rental_uris": {"android": "https://dc.lft.to/lastmile_qr_scan", "ios": "https://dc.lft.to/lastmile_qr_scan"}, "name": "a3f4b549b3476b8805f6b2454f673f12"}, {"lat": 38.901634, "is_reserved": 0, "lon": -76.93073, "fusion_lon": 0.0, "fusion_lat": 0.0, "is_disabled": 0, "type": "electric_scooter", "bike_id": "a9d910cd04e67f13d006416686cb3268", "rental_uris": {"android": "https://dc.lft.to/lastmile_qr_scan", "ios": "https://dc.lft.to/lastmile_qr_scan"}, "name": "a9d910cd04e67f13d006416686cb3268"}, {"lat": 38.873031833333336, "is_reserved": 0, "lon": -77.01084733333333, "fusion_lon": 0.0, "fusion_lat": 0.0, "is_disabled": 0, "type": "electric_bike", "bike_id": "b821bd6181b64a64226af31ae59454b2", "rental_uris": {"android": "https://dc.lft.to/lastmile_qr_scan", "ios": "https://dc.lft.to/lastmile_qr_scan"}, "name": "b821bd6181b64a64226af31ae59454b2"}, {"lat": 38.900261666666665, "is_reserved": 0, "lon": -77.01223183333333, "fusion_lon": 0.0, "fusion_lat": 0.0, "is_disabled": 0, "type": "electric_scooter", "bike_id": "d1e2210182b723183c45960e68d54cfb", "rental_uris": {"android": "https://dc.lft.to/lastmile_qr_scan", "ios": "https://dc.lft.to/lastmile_qr_scan"}, "name": "d1e2210182b723183c45960e68d54cfb"}, {"lat": 38.951608, "is_reserved": 0, "lon": -77.05678133333333, "fusion_lon": 0.0, "fusion_lat": 0.0, "is_disabled": 0, "type": "electric_scooter", "bike_id": "aa4bd958f5da1f6b73083ea2a1680b25", "rental_uris": {"android": "https://dc.lft.to/lastmile_qr_scan", "ios": "https://dc.lft.to/lastmile_qr_scan"}, "name": "aa4bd958f5da1f6b73083ea2a1680b25"}, {"lat": 38.901476333333335, "is_reserved": 0, "lon": -77.03457233333333, "fusion_lon": 0.0, "fusion_lat": 0.0, "is_disabled": 0, "type": "electric_scooter", "bike_id": "327eee63963c2cc32e3319dfc5e30fe4", "rental_uris": {"android": "https://dc.lft.to/lastmile_qr_scan", "ios": "https://dc.lft.to/lastmile_qr_scan"}, "name": "327eee63963c2cc32e3319dfc5e30fe4"}, {"lat": 38.9199195, "is_reserved": 0, "lon": -77.02179, "fusion_lon": 0.0, "fusion_lat": 0.0, "is_disabled": 0, "type": "electric_scooter", "bike_id": "59146313c2c89108e06da555b1501d35", "rental_uris": {"android": "https://dc.lft.to/lastmile_qr_scan", "ios": "https://dc.lft.to/lastmile_qr_scan"}, "name": "59146313c2c89108e06da555b1501d35"}, {"lat": 38.94562233333333, "is_reserved": 0, "lon": -77.07956983333334, "fusion_lon": 0.0, "fusion_lat": 0.0, "is_disabled": 0, "type": "electric_scooter", "bike_id": "39e9afcb6849fd0c86ba6818a1dd94ae", "rental_uris": {"android": "https://dc.lft.to/lastmile_qr_scan", "ios": "https://dc.lft.to/lastmile_qr_scan"}, "name": "39e9afcb6849fd0c86ba6818a1dd94ae"}, {"lat": 38.903685333333335, "is_reserved": 0, "lon": -77.035748, "fusion_lon": 0.0, "fusion_lat": 0.0, "is_disabled": 0, "type": "electric_scooter", "bike_id": "6d015d1034c0389059c0677132dd439e", "rental_uris": {"android": "https://dc.lft.to/lastmile_qr_scan", "ios": "https://dc.lft.to/lastmile_qr_scan"}, "name": "6d015d1034c0389059c0677132dd439e"}, {"lat": 38.9106545, "is_reserved": 0, "lon": -77.01996333333334, "fusion_lon": 0.0, "fusion_lat": 0.0, "is_disabled": 0, "type": "electric_bike", "bike_id": "06e31e42ee64fc451f91e499bf4c11b4", "rental_uris": {"android": "https://dc.lft.to/lastmile_qr_scan", "ios": "https://dc.lft.to/lastmile_qr_scan"}, "name": "06e31e42ee64fc451f91e499bf4c11b4"}, {"lat": 38.8986305, "is_reserved": 0, "lon": -76.9463755, "fusion_lon": 0.0, "fusion_lat": 0.0, "is_disabled": 0, "type": "electric_scooter", "bike_id": "898a369596c1a83356834a4d8cdcfcef", "rental_uris": {"android": "https://dc.lft.to/lastmile_qr_scan", "ios": "https://dc.lft.to/lastmile_qr_scan"}, "name": "898a369596c1a83356834a4d8cdcfcef"}, {"lat": 38.88186683333333, "is_reserved": 0, "lon": -77.02090166666666, "fusion_lon": 0.0, "fusion_lat": 0.0, "is_disabled": 0, "type": "electric_scooter", "bike_id": "3ab161f494c1f08963f92fb97286909a", "rental_uris": {"android": "https://dc.lft.to/lastmile_qr_scan", "ios": "https://dc.lft.to/lastmile_qr_scan"}, "name": "3ab161f494c1f08963f92fb97286909a"}, {"lat": 38.90854866666667, "is_reserved": 0, "lon": -77.00367266666667, "fusion_lon": 0.0, "fusion_lat": 0.0, "is_disabled": 0, "type": "electric_scooter", "bike_id": "63ce4138252fed8ac57a76b903219454", "rental_uris": {"android": "https://dc.lft.to/lastmile_qr_scan", "ios": "https://dc.lft.to/lastmile_qr_scan"}, "name": "63ce4138252fed8ac57a76b903219454"}, {"lat": 38.8782705, "is_reserved": 0, "lon": -77.00195166666667, "fusion_lon": 0.0, "fusion_lat": 0.0, "is_disabled": 0, "type": "electric_scooter", "bike_id": "41ee94fa448da88a8108ca68406499b6", "rental_uris": {"android": "https://dc.lft.to/lastmile_qr_scan", "ios": "https://dc.lft.to/lastmile_qr_scan"}, "name": "41ee94fa448da88a8108ca68406499b6"}, {"lat": 38.90262533333333, "is_reserved": 0, "lon": -77.01905683333334, "fusion_lon": 0.0, "fusion_lat": 0.0, "is_disabled": 0, "type": "electric_scooter", "bike_id": "0c5a46caf110f066856c541801bcc1c0", "rental_uris": {"android": "https://dc.lft.to/lastmile_qr_scan", "ios": "https://dc.lft.to/lastmile_qr_scan"}, "name": "0c5a46caf110f066856c541801bcc1c0"}, {"lat": 38.9001465, "is_reserved": 0, "lon": -76.985959, "fusion_lon": 0.0, "fusion_lat": 0.0, "is_disabled": 0, "type": "electric_scooter", "bike_id": "408aadcfe92c397c09cd843986b8995c", "rental_uris": {"android": "https://dc.lft.to/lastmile_qr_scan", "ios": "https://dc.lft.to/lastmile_qr_scan"}, "name": "408aadcfe92c397c09cd843986b8995c"}, {"lat": 38.9030285, "is_reserved": 0, "lon": -77.03836416666667, "fusion_lon": 0.0, "fusion_lat": 0.0, "is_disabled": 0, "type": "electric_scooter", "bike_id": "f9ccff552cf6788817babf67c8a99ef0", "rental_uris": {"android": "https://dc.lft.to/lastmile_qr_scan", "ios": "https://dc.lft.to/lastmile_qr_scan"}, "name": "f9ccff552cf6788817babf67c8a99ef0"}, {"lat": 38.876290166666664, "is_reserved": 0, "lon": -76.96525966666667, "fusion_lon": 0.0, "fusion_lat": 0.0, "is_disabled": 0, "type": "electric_scooter", "bike_id": "cf6ecad88bf576b4b03b8f01a65c9de0", "rental_uris": {"android": "https://dc.lft.to/lastmile_qr_scan", "ios": "https://dc.lft.to/lastmile_qr_scan"}, "name": "cf6ecad88bf576b4b03b8f01a65c9de0"}, {"lat": 38.9229645, "is_reserved": 0, "lon": -77.04141816666667, "fusion_lon": 0.0, "fusion_lat": 0.0, "is_disabled": 0, "type": "electric_scooter", "bike_id": "6304125d21ae5f822a4773007f1e2d49", "rental_uris": {"android": "https://dc.lft.to/lastmile_qr_scan", "ios": "https://dc.lft.to/lastmile_qr_scan"}, "name": "6304125d21ae5f822a4773007f1e2d49"}, {"lat": 38.902723333333334, "is_reserved": 0, "lon": -77.038412, "fusion_lon": 0.0, "fusion_lat": 0.0, "is_disabled": 0, "type": "electric_scooter", "bike_id": "38d61e4e95ea665ac8e153f7bc1e7af7", "rental_uris": {"android": "https://dc.lft.to/lastmile_qr_scan", "ios": "https://dc.lft.to/lastmile_qr_scan"}, "name": "38d61e4e95ea665ac8e153f7bc1e7af7"}, {"lat": 38.87307633333333, "is_reserved": 0, "lon": -77.01100583333333, "fusion_lon": 0.0, "fusion_lat": 0.0, "is_disabled": 0, "type": "electric_bike", "bike_id": "84dfb11d0712c0908d2d3e1f79b861dd", "rental_uris": {"android": "https://dc.lft.to/lastmile_qr_scan", "ios": "https://dc.lft.to/lastmile_qr_scan"}, "name": "84dfb11d0712c0908d2d3e1f79b861dd"}, {"lat": 38.91747216666667, "is_reserved": 0, "lon": -77.0363825, "fusion_lon": 0.0, "fusion_lat": 0.0, "is_disabled": 0, "type": "electric_scooter", "bike_id": "26457efe4788232bb54c358441732cbe", "rental_uris": {"android": "https://dc.lft.to/lastmile_qr_scan", "ios": "https://dc.lft.to/lastmile_qr_scan"}, "name": "26457efe4788232bb54c358441732cbe"}, {"lat": 38.9650365, "is_reserved": 0, "lon": -77.00200183333334, "fusion_lon": 0.0, "fusion_lat": 0.0, "is_disabled": 0, "type": "electric_scooter", "bike_id": "4cc0932dc3426c90deb3b8f26f15d811", "rental_uris": {"android": "https://dc.lft.to/lastmile_qr_scan", "ios": "https://dc.lft.to/lastmile_qr_scan"}, "name": "4cc0932dc3426c90deb3b8f26f15d811"}, {"lat": 38.894826333333334, "is_reserved": 0, "lon": -77.0025945, "fusion_lon": 0.0, "fusion_lat": 0.0, "is_disabled": 0, "type": "electric_scooter", "bike_id": "476488469f54aabe9d669fbe76ccbb12", "rental_uris": {"android": "https://dc.lft.to/lastmile_qr_scan", "ios": "https://dc.lft.to/lastmile_qr_scan"}, "name": "476488469f54aabe9d669fbe76ccbb12"}, {"lat": 38.879613166666665, "is_reserved": 0, "lon": -77.02412316666667, "fusion_lon": 0.0, "fusion_lat": 0.0, "is_disabled": 0, "type": "electric_scooter", "bike_id": "c5472626c7af6078e309b5a9cc081102", "rental_uris": {"android": "https://dc.lft.to/lastmile_qr_scan", "ios": "https://dc.lft.to/lastmile_qr_scan"}, "name": "c5472626c7af6078e309b5a9cc081102"}, {"lat": 38.90581533333334, "is_reserved": 0, "lon": -77.0403465, "fusion_lon": 0.0, "fusion_lat": 0.0, "is_disabled": 0, "type": "electric_scooter", "bike_id": "82751b2bb8396336c309ebf6b4a0a75f", "rental_uris": {"android": "https://dc.lft.to/lastmile_qr_scan", "ios": "https://dc.lft.to/lastmile_qr_scan"}, "name": "82751b2bb8396336c309ebf6b4a0a75f"}, {"lat": 38.92816333333333, "is_reserved": 0, "lon": -77.01409633333333, "fusion_lon": 0.0, "fusion_lat": 0.0, "is_disabled": 0, "type": "electric_scooter", "bike_id": "e3d7054bedbb921f19f317af0e3a1596", "rental_uris": {"android": "https://dc.lft.to/lastmile_qr_scan", "ios": "https://dc.lft.to/lastmile_qr_scan"}, "name": "e3d7054bedbb921f19f317af0e3a1596"}, {"lat": 38.860299499999996, "is_reserved": 0, "lon": -76.9671745, "fusion_lon": 0.0, "fusion_lat": 0.0, "is_disabled": 0, "type": "electric_scooter", "bike_id": "202f510b71ffd0b3cbe9fe894a8be136", "rental_uris": {"android": "https://dc.lft.to/lastmile_qr_scan", "ios": "https://dc.lft.to/lastmile_qr_scan"}, "name": "202f510b71ffd0b3cbe9fe894a8be136"}, {"lat": 38.91754266666667, "is_reserved": 0, "lon": -77.0476315, "fusion_lon": 0.0, "fusion_lat": 0.0, "is_disabled": 0, "type": "electric_scooter", "bike_id": "c102b702bbc4879feb9ef3020025f194", "rental_uris": {"android": "https://dc.lft.to/lastmile_qr_scan", "ios": "https://dc.lft.to/lastmile_qr_scan"}, "name": "c102b702bbc4879feb9ef3020025f194"}, {"lat": 38.90136233333333, "is_reserved": 0, "lon": -77.03358266666666, "fusion_lon": 0.0, "fusion_lat": 0.0, "is_disabled": 0, "type": "electric_scooter", "bike_id": "d0b698a235f77ae8f63af7473d90dcb1", "rental_uris": {"android": "https://dc.lft.to/lastmile_qr_scan", "ios": "https://dc.lft.to/lastmile_qr_scan"}, "name": "d0b698a235f77ae8f63af7473d90dcb1"}, {"lat": 38.918777, "is_reserved": 0, "lon": -77.04176233333334, "fusion_lon": 0.0, "fusion_lat": 0.0, "is_disabled": 0, "type": "electric_scooter", "bike_id": "3047fc0fbb1535cdd182786f15fca4a2", "rental_uris": {"android": "https://dc.lft.to/lastmile_qr_scan", "ios": "https://dc.lft.to/lastmile_qr_scan"}, "name": "3047fc0fbb1535cdd182786f15fca4a2"}, {"lat": 38.8464725, "is_reserved": 0, "lon": -77.00533833333333, "fusion_lon": 0.0, "fusion_lat": 0.0, "is_disabled": 0, "type": "electric_scooter", "bike_id": "23db132e8f6812eb9e0698865350de3e", "rental_uris": {"android": "https://dc.lft.to/lastmile_qr_scan", "ios": "https://dc.lft.to/lastmile_qr_scan"}, "name": "23db132e8f6812eb9e0698865350de3e"}, {"lat": 38.91711216666667, "is_reserved": 0, "lon": -77.02787583333334, "fusion_lon": 0.0, "fusion_lat": 0.0, "is_disabled": 0, "type": "electric_scooter", "bike_id": "c21b9b0e5b46bdeeaff7fde41ee01dd3", "rental_uris": {"android": "https://dc.lft.to/lastmile_qr_scan", "ios": "https://dc.lft.to/lastmile_qr_scan"}, "name": "c21b9b0e5b46bdeeaff7fde41ee01dd3"}, {"lat": 38.87986083333333, "is_reserved": 0, "lon": -76.91593233333333, "fusion_lon": 0.0, "fusion_lat": 0.0, "is_disabled": 0, "type": "electric_bike", "bike_id": "1b439d8b7d81746be384c4ae1a4528f4", "rental_uris": {"android": "https://dc.lft.to/lastmile_qr_scan", "ios": "https://dc.lft.to/lastmile_qr_scan"}, "name": "1b439d8b7d81746be384c4ae1a4528f4"}, {"lat": 38.907759, "is_reserved": 0, "lon": -77.07167066666666, "fusion_lon": 0.0, "fusion_lat": 0.0, "is_disabled": 0, "type": "electric_scooter", "bike_id": "e3db5991dfdc849959284239b1f6e9c9", "rental_uris": {"android": "https://dc.lft.to/lastmile_qr_scan", "ios": "https://dc.lft.to/lastmile_qr_scan"}, "name": "e3db5991dfdc849959284239b1f6e9c9"}, {"lat": 38.89534316666666, "is_reserved": 0, "lon": -76.94893066666667, "fusion_lon": 0.0, "fusion_lat": 0.0, "is_disabled": 0, "type": "electric_scooter", "bike_id": "e4a00d813186fdca136b6d0af8c27cc0", "rental_uris": {"android": "https://dc.lft.to/lastmile_qr_scan", "ios": "https://dc.lft.to/lastmile_qr_scan"}, "name": "e4a00d813186fdca136b6d0af8c27cc0"}, {"lat": 38.892189, "is_reserved": 0, "lon": -77.032152, "fusion_lon": 0.0, "fusion_lat": 0.0, "is_disabled": 0, "type": "electric_scooter", "bike_id": "f7b5762a46e37cff83cd01767b3f3817", "rental_uris": {"android": "https://dc.lft.to/lastmile_qr_scan", "ios": "https://dc.lft.to/lastmile_qr_scan"}, "name": "f7b5762a46e37cff83cd01767b3f3817"}, {"lat": 38.883004, "is_reserved": 0, "lon": -76.94851733333333, "fusion_lon": 0.0, "fusion_lat": 0.0, "is_disabled": 0, "type": "electric_scooter", "bike_id": "cbf294fac4cdc4ee6fdf31bbe9a84bcf", "rental_uris": {"android": "https://dc.lft.to/lastmile_qr_scan", "ios": "https://dc.lft.to/lastmile_qr_scan"}, "name": "cbf294fac4cdc4ee6fdf31bbe9a84bcf"}, {"lat": 38.927846333333335, "is_reserved": 0, "lon": -77.0525715, "fusion_lon": 0.0, "fusion_lat": 0.0, "is_disabled": 0, "type": "electric_scooter", "bike_id": "4e3a2083f976172640fea7f2cbfc96ec", "rental_uris": {"android": "https://dc.lft.to/lastmile_qr_scan", "ios": "https://dc.lft.to/lastmile_qr_scan"}, "name": "4e3a2083f976172640fea7f2cbfc96ec"}, {"lat": 38.9342985, "is_reserved": 0, "lon": -77.04003816666666, "fusion_lon": 0.0, "fusion_lat": 0.0, "is_disabled": 0, "type": "electric_scooter", "bike_id": "64ec2c9365f7840c607d064bfe85836d", "rental_uris": {"android": "https://dc.lft.to/lastmile_qr_scan", "ios": "https://dc.lft.to/lastmile_qr_scan"}, "name": "64ec2c9365f7840c607d064bfe85836d"}, {"lat": 38.89184566666667, "is_reserved": 0, "lon": -76.99476916666667, "fusion_lon": 0.0, "fusion_lat": 0.0, "is_disabled": 0, "type": "electric_scooter", "bike_id": "cf59346fbfada0c719fac7708abc2f96", "rental_uris": {"android": "https://dc.lft.to/lastmile_qr_scan", "ios": "https://dc.lft.to/lastmile_qr_scan"}, "name": "cf59346fbfada0c719fac7708abc2f96"}, {"lat": 38.89234783333333, "is_reserved": 0, "lon": -77.0416135, "fusion_lon": 0.0, "fusion_lat": 0.0, "is_disabled": 0, "type": "electric_scooter", "bike_id": "52cdb35c83d6aefa13f928193884a276", "rental_uris": {"android": "https://dc.lft.to/lastmile_qr_scan", "ios": "https://dc.lft.to/lastmile_qr_scan"}, "name": "52cdb35c83d6aefa13f928193884a276"}, {"lat": 39.060431333333334, "is_reserved": 0, "lon": -77.12213683333333, "fusion_lon": 0.0, "fusion_lat": 0.0, "is_disabled": 0, "type": "electric_bike", "bike_id": "522d864739c8cfbd34d47e75b7a90041", "rental_uris": {"android": "https://dc.lft.to/lastmile_qr_scan", "ios": "https://dc.lft.to/lastmile_qr_scan"}, "name": "522d864739c8cfbd34d47e75b7a90041"}, {"lat": 38.905231, "is_reserved": 0, "lon": -77.064499, "fusion_lon": 0.0, "fusion_lat": 0.0, "is_disabled": 0, "type": "electric_scooter", "bike_id": "79dc70e00d7e8d591460a90dd5143d1f", "rental_uris": {"android": "https://dc.lft.to/lastmile_qr_scan", "ios": "https://dc.lft.to/lastmile_qr_scan"}, "name": "79dc70e00d7e8d591460a90dd5143d1f"}, {"lat": 38.877560833333334, "is_reserved": 0, "lon": -76.98682416666666, "fusion_lon": 0.0, "fusion_lat": 0.0, "is_disabled": 0, "type": "electric_scooter", "bike_id": "018c3a6247d9fdd2b7427b7bfc0e0156", "rental_uris": {"android": "https://dc.lft.to/lastmile_qr_scan", "ios": "https://dc.lft.to/lastmile_qr_scan"}, "name": "018c3a6247d9fdd2b7427b7bfc0e0156"}, {"lat": 38.916950166666666, "is_reserved": 0, "lon": -77.04106266666666, "fusion_lon": 0.0, "fusion_lat": 0.0, "is_disabled": 0, "type": "electric_scooter", "bike_id": "60afb48e9dd3c1be486831c597a7b40d", "rental_uris": {"android": "https://dc.lft.to/lastmile_qr_scan", "ios": "https://dc.lft.to/lastmile_qr_scan"}, "name": "60afb48e9dd3c1be486831c597a7b40d"}, {"lat": 38.88467716666667, "is_reserved": 0, "lon": -76.95660183333334, "fusion_lon": 0.0, "fusion_lat": 0.0, "is_disabled": 0, "type": "electric_bike", "bike_id": "7b25a2ae517fb4e29cfef43a1a0e342a", "rental_uris": {"android": "https://dc.lft.to/lastmile_qr_scan", "ios": "https://dc.lft.to/lastmile_qr_scan"}, "name": "7b25a2ae517fb4e29cfef43a1a0e342a"}, {"lat": 39.034284, "is_reserved": 0, "lon": -77.04307533333333, "fusion_lon": 0.0, "fusion_lat": 0.0, "is_disabled": 0, "type": "electric_bike", "bike_id": "d785b1070805a037758a0f13db905789", "rental_uris": {"android": "https://dc.lft.to/lastmile_qr_scan", "ios": "https://dc.lft.to/lastmile_qr_scan"}, "name": "d785b1070805a037758a0f13db905789"}, {"lat": 38.90218566666667, "is_reserved": 0, "lon": -77.03782466666667, "fusion_lon": 0.0, "fusion_lat": 0.0, "is_disabled": 0, "type": "electric_scooter", "bike_id": "3964bdca83c1aeb7c54f7ff5a19d8719", "rental_uris": {"android": "https://dc.lft.to/lastmile_qr_scan", "ios": "https://dc.lft.to/lastmile_qr_scan"}, "name": "3964bdca83c1aeb7c54f7ff5a19d8719"}, {"lat": 38.9049675, "is_reserved": 0, "lon": -77.04330416666667, "fusion_lon": 0.0, "fusion_lat": 0.0, "is_disabled": 0, "type": "electric_scooter", "bike_id": "2d78d05c5c628432db7a1a72e6d81555", "rental_uris": {"android": "https://dc.lft.to/lastmile_qr_scan", "ios": "https://dc.lft.to/lastmile_qr_scan"}, "name": "2d78d05c5c628432db7a1a72e6d81555"}, {"lat": 38.909831833333335, "is_reserved": 0, "lon": -77.02182, "fusion_lon": 0.0, "fusion_lat": 0.0, "is_disabled": 0, "type": "electric_scooter", "bike_id": "f61190e4ebd5f991ea08801720bce81c", "rental_uris": {"android": "https://dc.lft.to/lastmile_qr_scan", "ios": "https://dc.lft.to/lastmile_qr_scan"}, "name": "f61190e4ebd5f991ea08801720bce81c"}, {"lat": 38.89743816666667, "is_reserved": 0, "lon": -77.03001183333333, "fusion_lon": 0.0, "fusion_lat": 0.0, "is_disabled": 0, "type": "electric_scooter", "bike_id": "4cbe91a841661fa7f64fc4ed24dd736c", "rental_uris": {"android": "https://dc.lft.to/lastmile_qr_scan", "ios": "https://dc.lft.to/lastmile_qr_scan"}, "name": "4cbe91a841661fa7f64fc4ed24dd736c"}, {"lat": 38.9286255, "is_reserved": 0, "lon": -77.02768633333334, "fusion_lon": 0.0, "fusion_lat": 0.0, "is_disabled": 0, "type": "electric_scooter", "bike_id": "0ff0f0ea3b902d02a3e2b77459b1112b", "rental_uris": {"android": "https://dc.lft.to/lastmile_qr_scan", "ios": "https://dc.lft.to/lastmile_qr_scan"}, "name": "0ff0f0ea3b902d02a3e2b77459b1112b"}, {"lat": 38.9231065, "is_reserved": 0, "lon": -77.04618166666667, "fusion_lon": 0.0, "fusion_lat": 0.0, "is_disabled": 0, "type": "electric_scooter", "bike_id": "3d0fa63e488897d8204f74505a7f95c8", "rental_uris": {"android": "https://dc.lft.to/lastmile_qr_scan", "ios": "https://dc.lft.to/lastmile_qr_scan"}, "name": "3d0fa63e488897d8204f74505a7f95c8"}, {"lat": 38.92744733333333, "is_reserved": 0, "lon": -77.02292966666667, "fusion_lon": 0.0, "fusion_lat": 0.0, "is_disabled": 0, "type": "electric_scooter", "bike_id": "9b7423901b7fa9c105aee82d5726b32b", "rental_uris": {"android": "https://dc.lft.to/lastmile_qr_scan", "ios": "https://dc.lft.to/lastmile_qr_scan"}, "name": "9b7423901b7fa9c105aee82d5726b32b"}, {"lat": 38.891635666666666, "is_reserved": 0, "lon": -76.9994745, "fusion_lon": 0.0, "fusion_lat": 0.0, "is_disabled": 0, "type": "electric_scooter", "bike_id": "a89e7c71b41c48dac8332b512c0c9ca7", "rental_uris": {"android": "https://dc.lft.to/lastmile_qr_scan", "ios": "https://dc.lft.to/lastmile_qr_scan"}, "name": "a89e7c71b41c48dac8332b512c0c9ca7"}, {"lat": 38.87685, "is_reserved": 0, "lon": -77.00064366666666, "fusion_lon": 0.0, "fusion_lat": 0.0, "is_disabled": 0, "type": "electric_scooter", "bike_id": "70ff4709bd1dc442e9c9aa8f485015c5", "rental_uris": {"android": "https://dc.lft.to/lastmile_qr_scan", "ios": "https://dc.lft.to/lastmile_qr_scan"}, "name": "70ff4709bd1dc442e9c9aa8f485015c5"}, {"lat": 38.905657833333336, "is_reserved": 0, "lon": -76.97779083333333, "fusion_lon": 0.0, "fusion_lat": 0.0, "is_disabled": 0, "type": "electric_scooter", "bike_id": "a2beea157c4e3035b5843abf8e09f167", "rental_uris": {"android": "https://dc.lft.to/lastmile_qr_scan", "ios": "https://dc.lft.to/lastmile_qr_scan"}, "name": "a2beea157c4e3035b5843abf8e09f167"}, {"lat": 38.92374316666667, "is_reserved": 0, "lon": -77.0514895, "fusion_lon": 0.0, "fusion_lat": 0.0, "is_disabled": 0, "type": "electric_scooter", "bike_id": "ce07c1888f39aeeff746f54515a6a743", "rental_uris": {"android": "https://dc.lft.to/lastmile_qr_scan", "ios": "https://dc.lft.to/lastmile_qr_scan"}, "name": "ce07c1888f39aeeff746f54515a6a743"}, {"lat": 38.92161133333333, "is_reserved": 0, "lon": -77.03381766666666, "fusion_lon": 0.0, "fusion_lat": 0.0, "is_disabled": 0, "type": "electric_scooter", "bike_id": "8681dd29e15e698dae67ba3e780a92a5", "rental_uris": {"android": "https://dc.lft.to/lastmile_qr_scan", "ios": "https://dc.lft.to/lastmile_qr_scan"}, "name": "8681dd29e15e698dae67ba3e780a92a5"}, {"lat": 38.910474, "is_reserved": 0, "lon": -77.04353866666666, "fusion_lon": 0.0, "fusion_lat": 0.0, "is_disabled": 0, "type": "electric_scooter", "bike_id": "a14373f0419d87194dc1e959a179e589", "rental_uris": {"android": "https://dc.lft.to/lastmile_qr_scan", "ios": "https://dc.lft.to/lastmile_qr_scan"}, "name": "a14373f0419d87194dc1e959a179e589"}, {"lat": 38.8323895, "is_reserved": 0, "lon": -76.94622716666666, "fusion_lon": 0.0, "fusion_lat": 0.0, "is_disabled": 0, "type": "electric_bike", "bike_id": "29f868a48aee42516524a2864a3632d6", "rental_uris": {"android": "https://dc.lft.to/lastmile_qr_scan", "ios": "https://dc.lft.to/lastmile_qr_scan"}, "name": "29f868a48aee42516524a2864a3632d6"}, {"lat": 38.927899, "is_reserved": 0, "lon": -77.04301083333333, "fusion_lon": 0.0, "fusion_lat": 0.0, "is_disabled": 0, "type": "electric_scooter", "bike_id": "32e321fe6fe0bd098fef9ad000365f18", "rental_uris": {"android": "https://dc.lft.to/lastmile_qr_scan", "ios": "https://dc.lft.to/lastmile_qr_scan"}, "name": "32e321fe6fe0bd098fef9ad000365f18"}, {"lat": 38.992272166666666, "is_reserved": 0, "lon": -77.035855, "fusion_lon": 0.0, "fusion_lat": 0.0, "is_disabled": 0, "type": "electric_scooter", "bike_id": "93f44d0864ca4c47f9640099ce8382dd", "rental_uris": {"android": "https://dc.lft.to/lastmile_qr_scan", "ios": "https://dc.lft.to/lastmile_qr_scan"}, "name": "93f44d0864ca4c47f9640099ce8382dd"}, {"lat": 38.909128833333334, "is_reserved": 0, "lon": -77.03210583333333, "fusion_lon": 0.0, "fusion_lat": 0.0, "is_disabled": 0, "type": "electric_scooter", "bike_id": "a80acfdfca27415438c3cc31e371bed5", "rental_uris": {"android": "https://dc.lft.to/lastmile_qr_scan", "ios": "https://dc.lft.to/lastmile_qr_scan"}, "name": "a80acfdfca27415438c3cc31e371bed5"}, {"lat": 38.90953716666667, "is_reserved": 0, "lon": -77.0547835, "fusion_lon": 0.0, "fusion_lat": 0.0, "is_disabled": 0, "type": "electric_scooter", "bike_id": "ab6e3a36c02a7f04a55523541724e653", "rental_uris": {"android": "https://dc.lft.to/lastmile_qr_scan", "ios": "https://dc.lft.to/lastmile_qr_scan"}, "name": "ab6e3a36c02a7f04a55523541724e653"}, {"lat": 38.88395416666667, "is_reserved": 0, "lon": -76.9605185, "fusion_lon": 0.0, "fusion_lat": 0.0, "is_disabled": 0, "type": "electric_bike", "bike_id": "802bf6fea9e066e088512c06fcc48439", "rental_uris": {"android": "https://dc.lft.to/lastmile_qr_scan", "ios": "https://dc.lft.to/lastmile_qr_scan"}, "name": "802bf6fea9e066e088512c06fcc48439"}, {"lat": 38.90270733333333, "is_reserved": 0, "lon": -77.03840683333334, "fusion_lon": 0.0, "fusion_lat": 0.0, "is_disabled": 0, "type": "electric_scooter", "bike_id": "c2c14706e84cfc3a2000c26b96c1f785", "rental_uris": {"android": "https://dc.lft.to/lastmile_qr_scan", "ios": "https://dc.lft.to/lastmile_qr_scan"}, "name": "c2c14706e84cfc3a2000c26b96c1f785"}, {"lat": 38.918127166666665, "is_reserved": 0, "lon": -77.0397665, "fusion_lon": 0.0, "fusion_lat": 0.0, "is_disabled": 0, "type": "electric_scooter", "bike_id": "3db3d7d7d5bf5fe240acd9078ea9f44d", "rental_uris": {"android": "https://dc.lft.to/lastmile_qr_scan", "ios": "https://dc.lft.to/lastmile_qr_scan"}, "name": "3db3d7d7d5bf5fe240acd9078ea9f44d"}, {"lat": 38.90138266666666, "is_reserved": 0, "lon": -77.03251033333333, "fusion_lon": 0.0, "fusion_lat": 0.0, "is_disabled": 0, "type": "electric_scooter", "bike_id": "7cda5d276f0782fd33e9690052526502", "rental_uris": {"android": "https://dc.lft.to/lastmile_qr_scan", "ios": "https://dc.lft.to/lastmile_qr_scan"}, "name": "7cda5d276f0782fd33e9690052526502"}, {"lat": 39.0510875, "is_reserved": 0, "lon": -77.11738216666667, "fusion_lon": 0.0, "fusion_lat": 0.0, "is_disabled": 0, "type": "electric_bike", "bike_id": "454f4f062aa473194f98df990671298e", "rental_uris": {"android": "https://dc.lft.to/lastmile_qr_scan", "ios": "https://dc.lft.to/lastmile_qr_scan"}, "name": "454f4f062aa473194f98df990671298e"}, {"lat": 38.890991166666666, "is_reserved": 0, "lon": -77.00203466666666, "fusion_lon": 0.0, "fusion_lat": 0.0, "is_disabled": 0, "type": "electric_scooter", "bike_id": "756eeb43b4e6e1562d6d677a5ed238a5", "rental_uris": {"android": "https://dc.lft.to/lastmile_qr_scan", "ios": "https://dc.lft.to/lastmile_qr_scan"}, "name": "756eeb43b4e6e1562d6d677a5ed238a5"}, {"lat": 38.9094875, "is_reserved": 0, "lon": -77.03436566666667, "fusion_lon": 0.0, "fusion_lat": 0.0, "is_disabled": 0, "type": "electric_scooter", "bike_id": "88f6d56b3c530c17ee67426407f175f2", "rental_uris": {"android": "https://dc.lft.to/lastmile_qr_scan", "ios": "https://dc.lft.to/lastmile_qr_scan"}, "name": "88f6d56b3c530c17ee67426407f175f2"}, {"lat": 38.89981816666667, "is_reserved": 0, "lon": -77.0292565, "fusion_lon": 0.0, "fusion_lat": 0.0, "is_disabled": 0, "type": "electric_scooter", "bike_id": "dba1aaa2f1239d946feed570f6781000", "rental_uris": {"android": "https://dc.lft.to/lastmile_qr_scan", "ios": "https://dc.lft.to/lastmile_qr_scan"}, "name": "dba1aaa2f1239d946feed570f6781000"}, {"lat": 38.8964415, "is_reserved": 0, "lon": -77.0401575, "fusion_lon": 0.0, "fusion_lat": 0.0, "is_disabled": 0, "type": "electric_scooter", "bike_id": "e2d38f8e2d541656fcfb8ca657cc3a3e", "rental_uris": {"android": "https://dc.lft.to/lastmile_qr_scan", "ios": "https://dc.lft.to/lastmile_qr_scan"}, "name": "e2d38f8e2d541656fcfb8ca657cc3a3e"}, {"lat": 38.916998666666665, "is_reserved": 0, "lon": -77.02487583333334, "fusion_lon": 0.0, "fusion_lat": 0.0, "is_disabled": 0, "type": "electric_scooter", "bike_id": "98eb0f78ab3ac7d2e85b2010d892f60e", "rental_uris": {"android": "https://dc.lft.to/lastmile_qr_scan", "ios": "https://dc.lft.to/lastmile_qr_scan"}, "name": "98eb0f78ab3ac7d2e85b2010d892f60e"}, {"lat": 38.90479166666667, "is_reserved": 0, "lon": -77.03895633333333, "fusion_lon": 0.0, "fusion_lat": 0.0, "is_disabled": 0, "type": "electric_scooter", "bike_id": "0953981ca4fafc5b133bc1139e1a6417", "rental_uris": {"android": "https://dc.lft.to/lastmile_qr_scan", "ios": "https://dc.lft.to/lastmile_qr_scan"}, "name": "0953981ca4fafc5b133bc1139e1a6417"}, {"lat": 38.940969833333334, "is_reserved": 0, "lon": -77.024992, "fusion_lon": 0.0, "fusion_lat": 0.0, "is_disabled": 0, "type": "electric_scooter", "bike_id": "6a80973284089077320e1d0430383bc1", "rental_uris": {"android": "https://dc.lft.to/lastmile_qr_scan", "ios": "https://dc.lft.to/lastmile_qr_scan"}, "name": "6a80973284089077320e1d0430383bc1"}, {"lat": 38.878871833333335, "is_reserved": 0, "lon": -77.09608783333333, "fusion_lon": 0.0, "fusion_lat": 0.0, "is_disabled": 0, "type": "electric_bike", "bike_id": "24448463011eb193cc3aece443982f89", "rental_uris": {"android": "https://dc.lft.to/lastmile_qr_scan", "ios": "https://dc.lft.to/lastmile_qr_scan"}, "name": "24448463011eb193cc3aece443982f89"}, {"lat": 38.918168333333334, "is_reserved": 0, "lon": -77.00953966666667, "fusion_lon": 0.0, "fusion_lat": 0.0, "is_disabled": 0, "type": "electric_scooter", "bike_id": "bd1db46fb556a22a965ccec305c0063d", "rental_uris": {"android": "https://dc.lft.to/lastmile_qr_scan", "ios": "https://dc.lft.to/lastmile_qr_scan"}, "name": "bd1db46fb556a22a965ccec305c0063d"}, {"lat": 38.95594, "is_reserved": 0, "lon": -77.02733666666667, "fusion_lon": 0.0, "fusion_lat": 0.0, "is_disabled": 0, "type": "electric_scooter", "bike_id": "668a9624b948150ab31d971a18043363", "rental_uris": {"android": "https://dc.lft.to/lastmile_qr_scan", "ios": "https://dc.lft.to/lastmile_qr_scan"}, "name": "668a9624b948150ab31d971a18043363"}, {"lat": 38.90001633333333, "is_reserved": 0, "lon": -76.98962316666666, "fusion_lon": 0.0, "fusion_lat": 0.0, "is_disabled": 0, "type": "electric_scooter", "bike_id": "55c12dcadc011542d2abec7fc9872c08", "rental_uris": {"android": "https://dc.lft.to/lastmile_qr_scan", "ios": "https://dc.lft.to/lastmile_qr_scan"}, "name": "55c12dcadc011542d2abec7fc9872c08"}, {"lat": 38.91685566666666, "is_reserved": 0, "lon": -77.03217683333334, "fusion_lon": 0.0, "fusion_lat": 0.0, "is_disabled": 0, "type": "electric_scooter", "bike_id": "4406fe6ff300a9111bfb053e5cf6c5d0", "rental_uris": {"android": "https://dc.lft.to/lastmile_qr_scan", "ios": "https://dc.lft.to/lastmile_qr_scan"}, "name": "4406fe6ff300a9111bfb053e5cf6c5d0"}, {"lat": 38.919154666666664, "is_reserved": 0, "lon": -77.02088633333334, "fusion_lon": 0.0, "fusion_lat": 0.0, "is_disabled": 0, "type": "electric_scooter", "bike_id": "f266091c5280f520007cded720c70620", "rental_uris": {"android": "https://dc.lft.to/lastmile_qr_scan", "ios": "https://dc.lft.to/lastmile_qr_scan"}, "name": "f266091c5280f520007cded720c70620"}, {"lat": 38.90335966666667, "is_reserved": 0, "lon": -77.02207883333334, "fusion_lon": 0.0, "fusion_lat": 0.0, "is_disabled": 0, "type": "electric_scooter", "bike_id": "682c43e460d9d88d554f81822c048cef", "rental_uris": {"android": "https://dc.lft.to/lastmile_qr_scan", "ios": "https://dc.lft.to/lastmile_qr_scan"}, "name": "682c43e460d9d88d554f81822c048cef"}, {"lat": 38.898262, "is_reserved": 0, "lon": -77.03338133333334, "fusion_lon": 0.0, "fusion_lat": 0.0, "is_disabled": 0, "type": "electric_scooter", "bike_id": "133054f8adce438a104996c68934f574", "rental_uris": {"android": "https://dc.lft.to/lastmile_qr_scan", "ios": "https://dc.lft.to/lastmile_qr_scan"}, "name": "133054f8adce438a104996c68934f574"}, {"lat": 38.902640166666664, "is_reserved": 0, "lon": -77.04001083333333, "fusion_lon": 0.0, "fusion_lat": 0.0, "is_disabled": 0, "type": "electric_scooter", "bike_id": "320941ef0d279ab020ab0f199b89290d", "rental_uris": {"android": "https://dc.lft.to/lastmile_qr_scan", "ios": "https://dc.lft.to/lastmile_qr_scan"}, "name": "320941ef0d279ab020ab0f199b89290d"}, {"lat": 38.855279833333334, "is_reserved": 0, "lon": -77.11408616666667, "fusion_lon": 0.0, "fusion_lat": 0.0, "is_disabled": 0, "type": "electric_bike", "bike_id": "4ef15f77f3c4d8f16bc4782a17a2ccb1", "rental_uris": {"android": "https://dc.lft.to/lastmile_qr_scan", "ios": "https://dc.lft.to/lastmile_qr_scan"}, "name": "4ef15f77f3c4d8f16bc4782a17a2ccb1"}, {"lat": 38.99225216666667, "is_reserved": 0, "lon": -76.9442755, "fusion_lon": 0.0, "fusion_lat": 0.0, "is_disabled": 0, "type": "electric_bike", "bike_id": "21035f35c238729367fcf6d5a0610af1", "rental_uris": {"android": "https://dc.lft.to/lastmile_qr_scan", "ios": "https://dc.lft.to/lastmile_qr_scan"}, "name": "21035f35c238729367fcf6d5a0610af1"}, {"lat": 38.90564616666666, "is_reserved": 0, "lon": -77.0465895, "fusion_lon": 0.0, "fusion_lat": 0.0, "is_disabled": 0, "type": "electric_scooter", "bike_id": "204417997875c41912d1a8e7f42f2d16", "rental_uris": {"android": "https://dc.lft.to/lastmile_qr_scan", "ios": "https://dc.lft.to/lastmile_qr_scan"}, "name": "204417997875c41912d1a8e7f42f2d16"}, {"lat": 38.8578515, "is_reserved": 0, "lon": -77.12018666666667, "fusion_lon": 0.0, "fusion_lat": 0.0, "is_disabled": 0, "type": "electric_bike", "bike_id": "f16b9f2ed3174870d05ad4ab6ae76877", "rental_uris": {"android": "https://dc.lft.to/lastmile_qr_scan", "ios": "https://dc.lft.to/lastmile_qr_scan"}, "name": "f16b9f2ed3174870d05ad4ab6ae76877"}, {"lat": 38.92448866666667, "is_reserved": 0, "lon": -77.0339855, "fusion_lon": 0.0, "fusion_lat": 0.0, "is_disabled": 0, "type": "electric_scooter", "bike_id": "120830547fad85848e65b9496b08e140", "rental_uris": {"android": "https://dc.lft.to/lastmile_qr_scan", "ios": "https://dc.lft.to/lastmile_qr_scan"}, "name": "120830547fad85848e65b9496b08e140"}, {"lat": 38.9014415, "is_reserved": 0, "lon": -77.031792, "fusion_lon": 0.0, "fusion_lat": 0.0, "is_disabled": 0, "type": "electric_scooter", "bike_id": "b8db5a91ee36a1c2d1d1c7a3719bf402", "rental_uris": {"android": "https://dc.lft.to/lastmile_qr_scan", "ios": "https://dc.lft.to/lastmile_qr_scan"}, "name": "b8db5a91ee36a1c2d1d1c7a3719bf402"}, {"lat": 38.9217415, "is_reserved": 0, "lon": -77.02105066666667, "fusion_lon": 0.0, "fusion_lat": 0.0, "is_disabled": 0, "type": "electric_scooter", "bike_id": "b67ce4f6d33119a0ad3b418c722ece35", "rental_uris": {"android": "https://dc.lft.to/lastmile_qr_scan", "ios": "https://dc.lft.to/lastmile_qr_scan"}, "name": "b67ce4f6d33119a0ad3b418c722ece35"}, {"lat": 38.914051, "is_reserved": 0, "lon": -77.02010516666667, "fusion_lon": 0.0, "fusion_lat": 0.0, "is_disabled": 0, "type": "electric_scooter", "bike_id": "50497a4a6b44b12d1f3d1447eb8fba6a", "rental_uris": {"android": "https://dc.lft.to/lastmile_qr_scan", "ios": "https://dc.lft.to/lastmile_qr_scan"}, "name": "50497a4a6b44b12d1f3d1447eb8fba6a"}, {"lat": 38.89835266666667, "is_reserved": 0, "lon": -77.00749916666666, "fusion_lon": 0.0, "fusion_lat": 0.0, "is_disabled": 0, "type": "electric_scooter", "bike_id": "04a3bd1686ec3fd5e4a9dbf5bd3c4839", "rental_uris": {"android": "https://dc.lft.to/lastmile_qr_scan", "ios": "https://dc.lft.to/lastmile_qr_scan"}, "name": "04a3bd1686ec3fd5e4a9dbf5bd3c4839"}, {"lat": 38.92165766666667, "is_reserved": 0, "lon": -77.03529583333334, "fusion_lon": 0.0, "fusion_lat": 0.0, "is_disabled": 0, "type": "electric_scooter", "bike_id": "1421d4596e3cc14e11f83cfdb28e4cbd", "rental_uris": {"android": "https://dc.lft.to/lastmile_qr_scan", "ios": "https://dc.lft.to/lastmile_qr_scan"}, "name": "1421d4596e3cc14e11f83cfdb28e4cbd"}, {"lat": 38.90060316666667, "is_reserved": 0, "lon": -77.04536416666667, "fusion_lon": 0.0, "fusion_lat": 0.0, "is_disabled": 0, "type": "electric_scooter", "bike_id": "fb8f9370b1ea987fc6f4df1a852a42af", "rental_uris": {"android": "https://dc.lft.to/lastmile_qr_scan", "ios": "https://dc.lft.to/lastmile_qr_scan"}, "name": "fb8f9370b1ea987fc6f4df1a852a42af"}, {"lat": 38.90809733333333, "is_reserved": 0, "lon": -77.03635433333334, "fusion_lon": 0.0, "fusion_lat": 0.0, "is_disabled": 0, "type": "electric_scooter", "bike_id": "79e95bf88dc72c9092c98fc3e37225bb", "rental_uris": {"android": "https://dc.lft.to/lastmile_qr_scan", "ios": "https://dc.lft.to/lastmile_qr_scan"}, "name": "79e95bf88dc72c9092c98fc3e37225bb"}, {"lat": 38.84142883333333, "is_reserved": 0, "lon": -77.11462666666667, "fusion_lon": 0.0, "fusion_lat": 0.0, "is_disabled": 0, "type": "electric_bike", "bike_id": "6de4ae3d655167d39ba2569863670ec2", "rental_uris": {"android": "https://dc.lft.to/lastmile_qr_scan", "ios": "https://dc.lft.to/lastmile_qr_scan"}, "name": "6de4ae3d655167d39ba2569863670ec2"}, {"lat": 38.919753, "is_reserved": 0, "lon": -77.02507283333334, "fusion_lon": 0.0, "fusion_lat": 0.0, "is_disabled": 0, "type": "electric_scooter", "bike_id": "ad43c5eab5cbf9678f8bc4e4048c54cf", "rental_uris": {"android": "https://dc.lft.to/lastmile_qr_scan", "ios": "https://dc.lft.to/lastmile_qr_scan"}, "name": "ad43c5eab5cbf9678f8bc4e4048c54cf"}, {"lat": 38.938527666666666, "is_reserved": 0, "lon": -77.033711, "fusion_lon": 0.0, "fusion_lat": 0.0, "is_disabled": 0, "type": "electric_scooter", "bike_id": "bbfbfc3a5f892e697f59bceeebc3242d", "rental_uris": {"android": "https://dc.lft.to/lastmile_qr_scan", "ios": "https://dc.lft.to/lastmile_qr_scan"}, "name": "bbfbfc3a5f892e697f59bceeebc3242d"}, {"lat": 38.918211166666666, "is_reserved": 0, "lon": -77.03163333333333, "fusion_lon": 0.0, "fusion_lat": 0.0, "is_disabled": 0, "type": "electric_scooter", "bike_id": "3057283d5dace5e5be8135996a8df233", "rental_uris": {"android": "https://dc.lft.to/lastmile_qr_scan", "ios": "https://dc.lft.to/lastmile_qr_scan"}, "name": "3057283d5dace5e5be8135996a8df233"}, {"lat": 38.900363166666665, "is_reserved": 0, "lon": -76.97226383333333, "fusion_lon": 0.0, "fusion_lat": 0.0, "is_disabled": 0, "type": "electric_bike", "bike_id": "ef355514f7672974b71f7eb17dba5de2", "rental_uris": {"android": "https://dc.lft.to/lastmile_qr_scan", "ios": "https://dc.lft.to/lastmile_qr_scan"}, "name": "ef355514f7672974b71f7eb17dba5de2"}, {"lat": 38.8962025, "is_reserved": 0, "lon": -76.94766233333333, "fusion_lon": 0.0, "fusion_lat": 0.0, "is_disabled": 0, "type": "electric_scooter", "bike_id": "95b5de2980d306dce1c18b2df06d848f", "rental_uris": {"android": "https://dc.lft.to/lastmile_qr_scan", "ios": "https://dc.lft.to/lastmile_qr_scan"}, "name": "95b5de2980d306dce1c18b2df06d848f"}, {"lat": 38.9107405, "is_reserved": 0, "lon": -77.03844883333333, "fusion_lon": 0.0, "fusion_lat": 0.0, "is_disabled": 0, "type": "electric_scooter", "bike_id": "382b63792a5641915b8e2d461e8fcf85", "rental_uris": {"android": "https://dc.lft.to/lastmile_qr_scan", "ios": "https://dc.lft.to/lastmile_qr_scan"}, "name": "382b63792a5641915b8e2d461e8fcf85"}, {"lat": 38.89604033333333, "is_reserved": 0, "lon": -77.02767133333333, "fusion_lon": 0.0, "fusion_lat": 0.0, "is_disabled": 0, "type": "electric_scooter", "bike_id": "332c22079ed427ae32c2260e95fd1a88", "rental_uris": {"android": "https://dc.lft.to/lastmile_qr_scan", "ios": "https://dc.lft.to/lastmile_qr_scan"}, "name": "332c22079ed427ae32c2260e95fd1a88"}, {"lat": 38.9533095, "is_reserved": 0, "lon": -76.98254333333334, "fusion_lon": 0.0, "fusion_lat": 0.0, "is_disabled": 0, "type": "electric_bike", "bike_id": "ca9858ba94680094ced36b4a7bed87cf", "rental_uris": {"android": "https://dc.lft.to/lastmile_qr_scan", "ios": "https://dc.lft.to/lastmile_qr_scan"}, "name": "ca9858ba94680094ced36b4a7bed87cf"}, {"lat": 38.88599583333333, "is_reserved": 0, "lon": -76.99792283333333, "fusion_lon": 0.0, "fusion_lat": 0.0, "is_disabled": 0, "type": "electric_scooter", "bike_id": "7bd0fc1810d08c6798696beccb6966d2", "rental_uris": {"android": "https://dc.lft.to/lastmile_qr_scan", "ios": "https://dc.lft.to/lastmile_qr_scan"}, "name": "7bd0fc1810d08c6798696beccb6966d2"}, {"lat": 38.9036135, "is_reserved": 0, "lon": -77.0418935, "fusion_lon": 0.0, "fusion_lat": 0.0, "is_disabled": 0, "type": "electric_scooter", "bike_id": "39e4e5a163d36b88f31fcffa79512483", "rental_uris": {"android": "https://dc.lft.to/lastmile_qr_scan", "ios": "https://dc.lft.to/lastmile_qr_scan"}, "name": "39e4e5a163d36b88f31fcffa79512483"}, {"lat": 38.91188316666667, "is_reserved": 0, "lon": -77.038321, "fusion_lon": 0.0, "fusion_lat": 0.0, "is_disabled": 0, "type": "electric_scooter", "bike_id": "2ebf1089ce9396961f94ba127cc5659f", "rental_uris": {"android": "https://dc.lft.to/lastmile_qr_scan", "ios": "https://dc.lft.to/lastmile_qr_scan"}, "name": "2ebf1089ce9396961f94ba127cc5659f"}, {"lat": 38.920561666666664, "is_reserved": 0, "lon": -77.0419845, "fusion_lon": 0.0, "fusion_lat": 0.0, "is_disabled": 0, "type": "electric_scooter", "bike_id": "7b36cbf861dca1344d5592abcceecb79", "rental_uris": {"android": "https://dc.lft.to/lastmile_qr_scan", "ios": "https://dc.lft.to/lastmile_qr_scan"}, "name": "7b36cbf861dca1344d5592abcceecb79"}, {"lat": 38.922413166666665, "is_reserved": 0, "lon": -77.04195516666667, "fusion_lon": 0.0, "fusion_lat": 0.0, "is_disabled": 0, "type": "electric_scooter", "bike_id": "2ecb886b864ba9a00e299dccc26f5922", "rental_uris": {"android": "https://dc.lft.to/lastmile_qr_scan", "ios": "https://dc.lft.to/lastmile_qr_scan"}, "name": "2ecb886b864ba9a00e299dccc26f5922"}, {"lat": 38.906969, "is_reserved": 0, "lon": -77.02397116666667, "fusion_lon": 0.0, "fusion_lat": 0.0, "is_disabled": 0, "type": "electric_scooter", "bike_id": "5b001c011977f725ed43b77a7e41fe2b", "rental_uris": {"android": "https://dc.lft.to/lastmile_qr_scan", "ios": "https://dc.lft.to/lastmile_qr_scan"}, "name": "5b001c011977f725ed43b77a7e41fe2b"}, {"lat": 38.90241, "is_reserved": 0, "lon": -77.02943116666667, "fusion_lon": 0.0, "fusion_lat": 0.0, "is_disabled": 0, "type": "electric_scooter", "bike_id": "b312ec27a29cd1895c8958141efea245", "rental_uris": {"android": "https://dc.lft.to/lastmile_qr_scan", "ios": "https://dc.lft.to/lastmile_qr_scan"}, "name": "b312ec27a29cd1895c8958141efea245"}, {"lat": 38.9318265, "is_reserved": 0, "lon": -77.00091133333333, "fusion_lon": 0.0, "fusion_lat": 0.0, "is_disabled": 0, "type": "electric_scooter", "bike_id": "4c6980b5d9b309d26f043cad11a38733", "rental_uris": {"android": "https://dc.lft.to/lastmile_qr_scan", "ios": "https://dc.lft.to/lastmile_qr_scan"}, "name": "4c6980b5d9b309d26f043cad11a38733"}, {"lat": 38.92085433333333, "is_reserved": 0, "lon": -77.02386616666666, "fusion_lon": 0.0, "fusion_lat": 0.0, "is_disabled": 0, "type": "electric_scooter", "bike_id": "aa86647ba56f84710f93803fd63f53c9", "rental_uris": {"android": "https://dc.lft.to/lastmile_qr_scan", "ios": "https://dc.lft.to/lastmile_qr_scan"}, "name": "aa86647ba56f84710f93803fd63f53c9"}, {"lat": 38.7947195, "is_reserved": 0, "lon": -76.99243416666667, "fusion_lon": 0.0, "fusion_lat": 0.0, "is_disabled": 0, "type": "electric_bike", "bike_id": "fe68c480f529e83ebe8b3eada4d552ac", "rental_uris": {"android": "https://dc.lft.to/lastmile_qr_scan", "ios": "https://dc.lft.to/lastmile_qr_scan"}, "name": "fe68c480f529e83ebe8b3eada4d552ac"}, {"lat": 38.90016133333334, "is_reserved": 0, "lon": -77.01137416666667, "fusion_lon": 0.0, "fusion_lat": 0.0, "is_disabled": 0, "type": "electric_scooter", "bike_id": "539b3cba929e796c5686263e974ea1c9", "rental_uris": {"android": "https://dc.lft.to/lastmile_qr_scan", "ios": "https://dc.lft.to/lastmile_qr_scan"}, "name": "539b3cba929e796c5686263e974ea1c9"}, {"lat": 38.9012445, "is_reserved": 0, "lon": -77.04009716666667, "fusion_lon": 0.0, "fusion_lat": 0.0, "is_disabled": 0, "type": "electric_scooter", "bike_id": "e382b843ea96e90d56b5a171cb0296eb", "rental_uris": {"android": "https://dc.lft.to/lastmile_qr_scan", "ios": "https://dc.lft.to/lastmile_qr_scan"}, "name": "e382b843ea96e90d56b5a171cb0296eb"}, {"lat": 38.89862383333333, "is_reserved": 0, "lon": -76.94637866666666, "fusion_lon": 0.0, "fusion_lat": 0.0, "is_disabled": 0, "type": "electric_scooter", "bike_id": "ab801daf445e51a7c551f28ea5d8f016", "rental_uris": {"android": "https://dc.lft.to/lastmile_qr_scan", "ios": "https://dc.lft.to/lastmile_qr_scan"}, "name": "ab801daf445e51a7c551f28ea5d8f016"}, {"lat": 38.8958355, "is_reserved": 0, "lon": -76.98180516666666, "fusion_lon": 0.0, "fusion_lat": 0.0, "is_disabled": 0, "type": "electric_scooter", "bike_id": "e123197ee8b7a74f68b32a5437f35afa", "rental_uris": {"android": "https://dc.lft.to/lastmile_qr_scan", "ios": "https://dc.lft.to/lastmile_qr_scan"}, "name": "e123197ee8b7a74f68b32a5437f35afa"}, {"lat": 38.909498666666664, "is_reserved": 0, "lon": -77.04454466666667, "fusion_lon": 0.0, "fusion_lat": 0.0, "is_disabled": 0, "type": "electric_scooter", "bike_id": "969b4315567595a94fc0c1a5899001ba", "rental_uris": {"android": "https://dc.lft.to/lastmile_qr_scan", "ios": "https://dc.lft.to/lastmile_qr_scan"}, "name": "969b4315567595a94fc0c1a5899001ba"}, {"lat": 38.873758, "is_reserved": 0, "lon": -77.00149416666666, "fusion_lon": 0.0, "fusion_lat": 0.0, "is_disabled": 0, "type": "electric_scooter", "bike_id": "aa15e3931091967a3d8900aa8b6a442b", "rental_uris": {"android": "https://dc.lft.to/lastmile_qr_scan", "ios": "https://dc.lft.to/lastmile_qr_scan"}, "name": "aa15e3931091967a3d8900aa8b6a442b"}, {"lat": 38.92468233333334, "is_reserved": 0, "lon": -77.0221875, "fusion_lon": 0.0, "fusion_lat": 0.0, "is_disabled": 0, "type": "electric_scooter", "bike_id": "18e1a9b2586223c385a9eb5212ec5207", "rental_uris": {"android": "https://dc.lft.to/lastmile_qr_scan", "ios": "https://dc.lft.to/lastmile_qr_scan"}, "name": "18e1a9b2586223c385a9eb5212ec5207"}, {"lat": 38.9287645, "is_reserved": 0, "lon": -77.03295, "fusion_lon": 0.0, "fusion_lat": 0.0, "is_disabled": 0, "type": "electric_bike", "bike_id": "5e68f9fcb187c20c16f1f78550e17b29", "rental_uris": {"android": "https://dc.lft.to/lastmile_qr_scan", "ios": "https://dc.lft.to/lastmile_qr_scan"}, "name": "5e68f9fcb187c20c16f1f78550e17b29"}, {"lat": 38.86687033333333, "is_reserved": 0, "lon": -76.98542933333333, "fusion_lon": 0.0, "fusion_lat": 0.0, "is_disabled": 0, "type": "electric_scooter", "bike_id": "f2d0046d25a7a90f1803980b7048ecc7", "rental_uris": {"android": "https://dc.lft.to/lastmile_qr_scan", "ios": "https://dc.lft.to/lastmile_qr_scan"}, "name": "f2d0046d25a7a90f1803980b7048ecc7"}, {"lat": 38.884345333333336, "is_reserved": 0, "lon": -77.003479, "fusion_lon": 0.0, "fusion_lat": 0.0, "is_disabled": 0, "type": "electric_scooter", "bike_id": "7919242e6be819a2666c56840dabd5e2", "rental_uris": {"android": "https://dc.lft.to/lastmile_qr_scan", "ios": "https://dc.lft.to/lastmile_qr_scan"}, "name": "7919242e6be819a2666c56840dabd5e2"}, {"lat": 38.90236183333333, "is_reserved": 0, "lon": -77.002011, "fusion_lon": 0.0, "fusion_lat": 0.0, "is_disabled": 0, "type": "electric_scooter", "bike_id": "5c37ba821a82fbdf42cac50605e67f8b", "rental_uris": {"android": "https://dc.lft.to/lastmile_qr_scan", "ios": "https://dc.lft.to/lastmile_qr_scan"}, "name": "5c37ba821a82fbdf42cac50605e67f8b"}, {"lat": 38.90352766666667, "is_reserved": 0, "lon": -77.0451705, "fusion_lon": 0.0, "fusion_lat": 0.0, "is_disabled": 0, "type": "electric_scooter", "bike_id": "787e0686cdb5a6db0fe9c8b77b4437ac", "rental_uris": {"android": "https://dc.lft.to/lastmile_qr_scan", "ios": "https://dc.lft.to/lastmile_qr_scan"}, "name": "787e0686cdb5a6db0fe9c8b77b4437ac"}, {"lat": 38.9390825, "is_reserved": 0, "lon": -77.0604895, "fusion_lon": 0.0, "fusion_lat": 0.0, "is_disabled": 0, "type": "electric_scooter", "bike_id": "cb605305a05eeab1ebfbce3b73d05781", "rental_uris": {"android": "https://dc.lft.to/lastmile_qr_scan", "ios": "https://dc.lft.to/lastmile_qr_scan"}, "name": "cb605305a05eeab1ebfbce3b73d05781"}, {"lat": 38.908663, "is_reserved": 0, "lon": -77.04073816666667, "fusion_lon": 0.0, "fusion_lat": 0.0, "is_disabled": 0, "type": "electric_scooter", "bike_id": "1993169e2231dbd326c20a0d735c75de", "rental_uris": {"android": "https://dc.lft.to/lastmile_qr_scan", "ios": "https://dc.lft.to/lastmile_qr_scan"}, "name": "1993169e2231dbd326c20a0d735c75de"},