{"data": {"bikes": [{"is_reserved": 0, "type": "electric_scooter", "fusion_lat": 0.0, "is_disabled": 0, "rental_uris": {"ios": "https://dc.lft.to/lastmile_qr_scan", "android": "https://dc.lft.to/lastmile_qr_scan"}, "bike_id": "5d07446091509987fd454b2775e00776", "lat": 38.957557333333334, "name": "5d07446091509987fd454b2775e00776", "lon": -77.02206466666667, "fusion_lon": 0.0}, {"is_reserved": 0, "type": "electric_scooter", "fusion_lat": 0.0, "is_disabled": 0, "rental_uris": {"ios": "https://dc.lft.to/lastmile_qr_scan", "android": "https://dc.lft.to/lastmile_qr_scan"}, "bike_id": "b3214b63d9b85b613a9e0eb3b11cc371", "lat": 38.901174833333336, "name": "b3214b63d9b85b613a9e0eb3b11cc371", "lon": -77.02320216666666, "fusion_lon": 0.0}, {"is_reserved": 0, "type": "electric_bike", "fusion_lat": 0.0, "is_disabled": 0, "rental_uris": {"ios": "https://dc.lft.to/lastmile_qr_scan", "android": "https://dc.lft.to/lastmile_qr_scan"}, "bike_id": "f8b2ab8cfcfa065c553b6b8b98ca77cb", "lat": 38.8962025, "name": "f8b2ab8cfcfa065c553b6b8b98ca77cb", "lon": -76.90742583333333, "fusion_lon": 0.0}, {"is_reserved": 0, "type": "electric_scooter", "fusion_lat": 0.0, "is_disabled": 0, "rental_uris": {"ios": "https://dc.lft.to/lastmile_qr_scan", "android": "https://dc.lft.to/lastmile_qr_scan"}, "bike_id": "0d6e8e5a89e6333dcb8d9af8b9a25b41", "lat": 38.8853355, "name": "0d6e8e5a89e6333dcb8d9af8b9a25b41", "lon": -76.980534, "fusion_lon": 0.0}, {"is_reserved": 0, "type": "electric_scooter", "fusion_lat": 0.0, "is_disabled": 0, "rental_uris": {"ios": "https://dc.lft.to/lastmile_qr_scan", "android": "https://dc.lft.to/lastmile_qr_scan"}, "bike_id": "aa2e359c1d8d9cf67572024a82b0a113", "lat": 38.921784833333334, "name": "aa2e359c1d8d9cf67572024a82b0a113", "lon": -77.040084, "fusion_lon": 0.0}, {"is_reserved": 0, "type": "electric_scooter", "fusion_lat": 0.0, "is_disabled": 0, "rental_uris": {"ios": "https://dc.lft.to/lastmile_qr_scan", "android": "https://dc.lft.to/lastmile_qr_scan"}, "bike_id": "42de2c2e0317baf133ef2e35e277cc1e", "lat": 38.9241375, "name": "42de2c2e0317baf133ef2e35e277cc1e", "lon": -77.0200195, "fusion_lon": 0.0}, {"is_reserved": 0, "type": "electric_scooter", "fusion_lat": 0.0, "is_disabled": 0, "rental_uris": {"ios": "https://dc.lft.to/lastmile_qr_scan", "android": "https://dc.lft.to/lastmile_qr_scan"}, "bike_id": "a4596da73d691709a78dedf3955d555a", "lat": 38.885153, "name": "a4596da73d691709a78dedf3955d555a", "lon": -76.92440166666667, "fusion_lon": 0.0}, {"is_reserved": 0, "type": "electric_scooter", "fusion_lat": 0.0, "is_disabled": 0, "rental_uris": {"ios": "https://dc.lft.to/lastmile_qr_scan", "android": "https://dc.lft.to/lastmile_qr_scan"}, "bike_id": "b23d0da20be7dafa3aaa1f18a72d23b2", "lat": 38.956588333333336, "name": "b23d0da20be7dafa3aaa1f18a72d23b2", "lon": -77.02404883333334, "fusion_lon": 0.0}, {"is_reserved": 0, "type": "electric_scooter", "fusion_lat": 0.0, "is_disabled": 0, "rental_uris": {"ios": "https://dc.lft.to/lastmile_qr_scan", "android": "https://dc.lft.to/lastmile_qr_scan"}, "bike_id": "5ccdea507bded530e9a16d4f5077cc64", "lat": 38.90278133333333, "name": "5ccdea507bded530e9a16d4f5077cc64", "lon": -77.03458183333333, "fusion_lon": 0.0}, {"is_reserved": 0, "type": "electric_scooter", "fusion_lat": 0.0, "is_disabled": 0, "rental_uris": {"ios": "https://dc.lft.to/lastmile_qr_scan", "android": "https://dc.lft.to/lastmile_qr_scan"}, "bike_id": "cfddf51a771274cb09d1b53f6e4ec39d", "lat": 38.904749, "name": "cfddf51a771274cb09d1b53f6e4ec39d", "lon": -77.05329183333333, "fusion_lon": 0.0}, {"is_reserved": 0, "type": "electric_scooter", "fusion_lat": 0.0, "is_disabled": 0, "rental_uris": {"ios": "https://dc.lft.to/lastmile_qr_scan", "android": "https://dc.lft.to/lastmile_qr_scan"}, "bike_id": "3d2965536c4658768a325130494322ad", "lat": 38.898558666666666, "name": "3d2965536c4658768a325130494322ad", "lon": -77.03960166666667, "fusion_lon": 0.0}, {"is_reserved": 0, "type": "electric_scooter", "fusion_lat": 0.0, "is_disabled": 0, "rental_uris": {"ios": "https://dc.lft.to/lastmile_qr_scan", "android": "https://dc.lft.to/lastmile_qr_scan"}, "bike_id": "c6380a1052531d38b659e397aefed90a", "lat": 38.923817666666665, "name": "c6380a1052531d38b659e397aefed90a", "lon": -77.04105616666666, "fusion_lon": 0.0}, {"is_reserved": 0, "type": "electric_scooter", "fusion_lat": 0.0, "is_disabled": 0, "rental_uris": {"ios": "https://dc.lft.to/lastmile_qr_scan", "android": "https://dc.lft.to/lastmile_qr_scan"}, "bike_id": "bf5dfab543519920061ebf7a4befbe45", "lat": 38.914189, "name": "bf5dfab543519920061ebf7a4befbe45", "lon": -77.03255883333334, "fusion_lon": 0.0}, {"is_reserved": 0, "type": "electric_scooter", "fusion_lat": 0.0, "is_disabled": 0, "rental_uris": {"ios": "https://dc.lft.to/lastmile_qr_scan", "android": "https://dc.lft.to/lastmile_qr_scan"}, "bike_id": "505b3d9a0e8f2ca40e9ffa811625121f", "lat": 38.9094675, "name": "505b3d9a0e8f2ca40e9ffa811625121f", "lon": -76.995843, "fusion_lon": 0.0}, {"is_reserved": 0, "type": "electric_scooter", "fusion_lat": 0.0, "is_disabled": 0, "rental_uris": {"ios": "https://dc.lft.to/lastmile_qr_scan", "android": "https://dc.lft.to/lastmile_qr_scan"}, "bike_id": "293e2610973e4bd5d272cbe0f68b884d", "lat": 38.931045, "name": "293e2610973e4bd5d272cbe0f68b884d", "lon": -77.0247255, "fusion_lon": 0.0}, {"is_reserved": 0, "type": "electric_scooter", "fusion_lat": 0.0, "is_disabled": 0, "rental_uris": {"ios": "https://dc.lft.to/lastmile_qr_scan", "android": "https://dc.lft.to/lastmile_qr_scan"}, "bike_id": "d3925f0bbd91c6e2c01fd5d2c4479c5c", "lat": 38.932669, "name": "d3925f0bbd91c6e2c01fd5d2c4479c5c", "lon": -77.03257616666667, "fusion_lon": 0.0}, {"is_reserved": 0, "type": "electric_scooter", "fusion_lat": 0.0, "is_disabled": 0, "rental_uris": {"ios": "https://dc.lft.to/lastmile_qr_scan", "android": "https://dc.lft.to/lastmile_qr_scan"}, "bike_id": "5b5f339fb354624d1c88b46c37cc476d", "lat": 38.9257295, "name": "5b5f339fb354624d1c88b46c37cc476d", "lon": -77.02975733333334, "fusion_lon": 0.0}, {"is_reserved": 0, "type": "electric_scooter", "fusion_lat": 0.0, "is_disabled": 0, "rental_uris": {"ios": "https://dc.lft.to/lastmile_qr_scan", "android": "https://dc.lft.to/lastmile_qr_scan"}, "bike_id": "cf0f188367ed6ed44bad0a9b1c758ebc", "lat": 38.860828166666664, "name": "cf0f188367ed6ed44bad0a9b1c758ebc", "lon": -76.9837405, "fusion_lon": 0.0}, {"is_reserved": 0, "type": "electric_scooter", "fusion_lat": 0.0, "is_disabled": 0, "rental_uris": {"ios": "https://dc.lft.to/lastmile_qr_scan", "android": "https://dc.lft.to/lastmile_qr_scan"}, "bike_id": "05b81b7da88eff5b75098374363c0c24", "lat": 38.904851666666666, "name": "05b81b7da88eff5b75098374363c0c24", "lon": -77.04867083333333, "fusion_lon": 0.0}, {"is_reserved": 0, "type": "electric_scooter", "fusion_lat": 0.0, "is_disabled": 0, "rental_uris": {"ios": "https://dc.lft.to/lastmile_qr_scan", "android": "https://dc.lft.to/lastmile_qr_scan"}, "bike_id": "179701c8baa20fd160725ec39d73819e", "lat": 38.8857615, "name": "179701c8baa20fd160725ec39d73819e", "lon": -77.01212733333334, "fusion_lon": 0.0}, {"is_reserved": 0, "type": "electric_scooter", "fusion_lat": 0.0, "is_disabled": 0, "rental_uris": {"ios": "https://dc.lft.to/lastmile_qr_scan", "android": "https://dc.lft.to/lastmile_qr_scan"}, "bike_id": "5c4976ba604f98ebe02e9979f99777f3", "lat": 38.904414, "name": "5c4976ba604f98ebe02e9979f99777f3", "lon": -76.997297, "fusion_lon": 0.0}, {"is_reserved": 0, "type": "electric_bike", "fusion_lat": 0.0, "is_disabled": 0, "rental_uris": {"ios": "https://dc.lft.to/lastmile_qr_scan", "android": "https://dc.lft.to/lastmile_qr_scan"}, "bike_id": "74b3323543ae0edf4243c41e0fbd5015", "lat": 38.850606, "name": "74b3323543ae0edf4243c41e0fbd5015", "lon": -76.958284, "fusion_lon": 0.0}, {"is_reserved": 0, "type": "electric_scooter", "fusion_lat": 0.0, "is_disabled": 0, "rental_uris": {"ios": "https://dc.lft.to/lastmile_qr_scan", "android": "https://dc.lft.to/lastmile_qr_scan"}, "bike_id": "3cf18eb0cb509c4b4f2ff31214d67f5b", "lat": 38.91928633333333, "name": "3cf18eb0cb509c4b4f2ff31214d67f5b", "lon": -77.03108216666666, "fusion_lon": 0.0}, {"is_reserved": 0, "type": "electric_scooter", "fusion_lat": 0.0, "is_disabled": 0, "rental_uris": {"ios": "https://dc.lft.to/lastmile_qr_scan", "android": "https://dc.lft.to/lastmile_qr_scan"}, "bike_id": "a8db4cc022a885bc0da6ffb04a2229b3", "lat": 38.90009666666667, "name": "a8db4cc022a885bc0da6ffb04a2229b3", "lon": -77.003594, "fusion_lon": 0.0}, {"is_reserved": 0, "type": "electric_scooter", "fusion_lat": 0.0, "is_disabled": 0, "rental_uris": {"ios": "https://dc.lft.to/lastmile_qr_scan", "android": "https://dc.lft.to/lastmile_qr_scan"}, "bike_id": "a2e74392df8565a94346eb530ec74f9f", "lat": 38.908381, "name": "a2e74392df8565a94346eb530ec74f9f", "lon": -77.043598, "fusion_lon": 0.0}, {"is_reserved": 0, "type": "electric_scooter", "fusion_lat": 0.0, "is_disabled": 0, "rental_uris": {"ios": "https://dc.lft.to/lastmile_qr_scan", "android": "https://dc.lft.to/lastmile_qr_scan"}, "bike_id": "b8eb863b3c75e07a669ec1d5f76476c3", "lat": 38.91253, "name": "b8eb863b3c75e07a669ec1d5f76476c3", "lon": -77.03870733333333, "fusion_lon": 0.0}, {"is_reserved": 0, "type": "electric_bike", "fusion_lat": 0.0, "is_disabled": 0, "rental_uris": {"ios": "https://dc.lft.to/lastmile_qr_scan", "android": "https://dc.lft.to/lastmile_qr_scan"}, "bike_id": "c009019d443670cb4ee01bf97e8f8b6f", "lat": 38.88282916666667, "name": "c009019d443670cb4ee01bf97e8f8b6f", "lon": -76.9324095, "fusion_lon": 0.0}, {"is_reserved": 0, "type": "electric_scooter", "fusion_lat": 0.0, "is_disabled": 0, "rental_uris": {"ios": "https://dc.lft.to/lastmile_qr_scan", "android": "https://dc.lft.to/lastmile_qr_scan"}, "bike_id": "03273ed87ff7752f4330e1ac78081e19", "lat": 38.92829533333333, "name": "03273ed87ff7752f4330e1ac78081e19", "lon": -77.02162383333334, "fusion_lon": 0.0}, {"is_reserved": 0, "type": "electric_scooter", "fusion_lat": 0.0, "is_disabled": 0, "rental_uris": {"ios": "https://dc.lft.to/lastmile_qr_scan", "android": "https://dc.lft.to/lastmile_qr_scan"}, "bike_id": "bb61243e92611277436203dac8a7837a", "lat": 38.9196945, "name": "bb61243e92611277436203dac8a7837a", "lon": -77.07124066666667, "fusion_lon": 0.0}, {"is_reserved": 0, "type": "electric_scooter", "fusion_lat": 0.0, "is_disabled": 0, "rental_uris": {"ios": "https://dc.lft.to/lastmile_qr_scan", "android": "https://dc.lft.to/lastmile_qr_scan"}, "bike_id": "09dfce3eaf63fed83090d798eccf52bd", "lat": 38.907303, "name": "09dfce3eaf63fed83090d798eccf52bd", "lon": -77.02418133333333, "fusion_lon": 0.0}, {"is_reserved": 0, "type": "electric_scooter", "fusion_lat": 0.0, "is_disabled": 0, "rental_uris": {"ios": "https://dc.lft.to/lastmile_qr_scan", "android": "https://dc.lft.to/lastmile_qr_scan"}, "bike_id": "e8512d2ac5448868a7ad86b4cfdc1b3d", "lat": 38.930848, "name": "e8512d2ac5448868a7ad86b4cfdc1b3d", "lon": -77.032195, "fusion_lon": 0.0}, {"is_reserved": 0, "type": "electric_scooter", "fusion_lat": 0.0, "is_disabled": 0, "rental_uris": {"ios": "https://dc.lft.to/lastmile_qr_scan", "android": "https://dc.lft.to/lastmile_qr_scan"}, "bike_id": "d3c89ecf683d6d50f7e54ccc23a11971", "lat": 38.93991616666667, "name": "d3c89ecf683d6d50f7e54ccc23a11971", "lon": -77.02889983333333, "fusion_lon": 0.0}, {"is_reserved": 0, "type": "electric_scooter", "fusion_lat": 0.0, "is_disabled": 0, "rental_uris": {"ios": "https://dc.lft.to/lastmile_qr_scan", "android": "https://dc.lft.to/lastmile_qr_scan"}, "bike_id": "a931c8837d364d44fd84b2ae7396f5aa", "lat": 38.8946255, "name": "a931c8837d364d44fd84b2ae7396f5aa", "lon": -77.02731783333333, "fusion_lon": 0.0}, {"is_reserved": 0, "type": "electric_scooter", "fusion_lat": 0.0, "is_disabled": 0, "rental_uris": {"ios": "https://dc.lft.to/lastmile_qr_scan", "android": "https://dc.lft.to/lastmile_qr_scan"}, "bike_id": "bc34528b12b8ba43fb069ff0a8542cc7", "lat": 38.90568783333333, "name": "bc34528b12b8ba43fb069ff0a8542cc7", "lon": -77.0055545, "fusion_lon": 0.0}, {"is_reserved": 0, "type": "electric_scooter", "fusion_lat": 0.0, "is_disabled": 0, "rental_uris": {"ios": "https://dc.lft.to/lastmile_qr_scan", "android": "https://dc.lft.to/lastmile_qr_scan"}, "bike_id": "b23d05aa7eed1c8ad2fbc9bd6af6401b", "lat": 38.93873216666667, "name": "b23d05aa7eed1c8ad2fbc9bd6af6401b", "lon": -77.0295325, "fusion_lon": 0.0}, {"is_reserved": 0, "type": "electric_scooter", "fusion_lat": 0.0, "is_disabled": 0, "rental_uris": {"ios": "https://dc.lft.to/lastmile_qr_scan", "android": "https://dc.lft.to/lastmile_qr_scan"}, "bike_id": "045ece2755bee05664c0d7a1435d9635", "lat": 38.93101516666667, "name": "045ece2755bee05664c0d7a1435d9635", "lon": -77.02473066666667, "fusion_lon": 0.0}, {"is_reserved": 0, "type": "electric_scooter", "fusion_lat": 0.0, "is_disabled": 0, "rental_uris": {"ios": "https://dc.lft.to/lastmile_qr_scan", "android": "https://dc.lft.to/lastmile_qr_scan"}, "bike_id": "e94790aa138f04bf9b76f44696516201", "lat": 38.881845, "name": "e94790aa138f04bf9b76f44696516201", "lon": -76.9254575, "fusion_lon": 0.0}, {"is_reserved": 0, "type": "electric_scooter", "fusion_lat": 0.0, "is_disabled": 0, "rental_uris": {"ios": "https://dc.lft.to/lastmile_qr_scan", "android": "https://dc.lft.to/lastmile_qr_scan"}, "bike_id": "bcfb4ac8be03af6b79edbb53c6038ed6", "lat": 38.905437666666664, "name": "bcfb4ac8be03af6b79edbb53c6038ed6", "lon": -77.0569185, "fusion_lon": 0.0}, {"is_reserved": 0, "type": "electric_scooter", "fusion_lat": 0.0, "is_disabled": 0, "rental_uris": {"ios": "https://dc.lft.to/lastmile_qr_scan", "android": "https://dc.lft.to/lastmile_qr_scan"}, "bike_id": "19d6b6dafc3db577bae40c53d47a1e58", "lat": 38.876995666666666, "name": "19d6b6dafc3db577bae40c53d47a1e58", "lon": -76.9962165, "fusion_lon": 0.0}, {"is_reserved": 0, "type": "electric_bike", "fusion_lat": 0.0, "is_disabled": 0, "rental_uris": {"ios": "https://dc.lft.to/lastmile_qr_scan", "android": "https://dc.lft.to/lastmile_qr_scan"}, "bike_id": "3db0f54c65a483aa82097ec9dbf739b8", "lat": 38.84479433333333, "name": "3db0f54c65a483aa82097ec9dbf739b8", "lon": -76.99595983333333, "fusion_lon": 0.0}, {"is_reserved": 0, "type": "electric_scooter", "fusion_lat": 0.0, "is_disabled": 0, "rental_uris": {"ios": "https://dc.lft.to/lastmile_qr_scan", "android": "https://dc.lft.to/lastmile_qr_scan"}, "bike_id": "fc20301b7750b6af78aa8ca3cf92cc2c", "lat": 38.9211435, "name": "fc20301b7750b6af78aa8ca3cf92cc2c", "lon": -77.04575733333333, "fusion_lon": 0.0}, {"is_reserved": 0, "type": "electric_scooter", "fusion_lat": 0.0, "is_disabled": 0, "rental_uris": {"ios": "https://dc.lft.to/lastmile_qr_scan", "android": "https://dc.lft.to/lastmile_qr_scan"}, "bike_id": "70c5a4847c14ab46f76e09ae9e598b6c", "lat": 38.9056965, "name": "70c5a4847c14ab46f76e09ae9e598b6c", "lon": -77.02501633333334, "fusion_lon": 0.0}, {"is_reserved": 0, "type": "electric_scooter", "fusion_lat": 0.0, "is_disabled": 0, "rental_uris": {"ios": "https://dc.lft.to/lastmile_qr_scan", "android": "https://dc.lft.to/lastmile_qr_scan"}, "bike_id": "65af2fa8485ccdacf56fee36c707fa9e", "lat": 38.91818766666667, "name": "65af2fa8485ccdacf56fee36c707fa9e", "lon": -77.0248375, "fusion_lon": 0.0}, {"is_reserved": 0, "type": "electric_scooter", "fusion_lat": 0.0, "is_disabled": 0, "rental_uris": {"ios": "https://dc.lft.to/lastmile_qr_scan", "android": "https://dc.lft.to/lastmile_qr_scan"}, "bike_id": "c5fb5f5e07571bfaae0f7283e892f5d9", "lat": 38.90180816666667, "name": "c5fb5f5e07571bfaae0f7283e892f5d9", "lon": -77.05099933333334, "fusion_lon": 0.0}, {"is_reserved": 0, "type": "electric_bike", "fusion_lat": 0.0, "is_disabled": 0, "rental_uris": {"ios": "https://dc.lft.to/lastmile_qr_scan", "android": "https://dc.lft.to/lastmile_qr_scan"}, "bike_id": "09a83c5f4ff5c78ffa5aa80d974c28cd", "lat": 38.881272833333334, "name": "09a83c5f4ff5c78ffa5aa80d974c28cd", "lon": -77.01663833333333, "fusion_lon": 0.0}, {"is_reserved": 0, "type": "electric_scooter", "fusion_lat": 0.0, "is_disabled": 0, "rental_uris": {"ios": "https://dc.lft.to/lastmile_qr_scan", "android": "https://dc.lft.to/lastmile_qr_scan"}, "bike_id": "58b9e8d5e74d5ad10bb64ec75f2c47ee", "lat": 38.9229025, "name": "58b9e8d5e74d5ad10bb64ec75f2c47ee", "lon": -77.03664883333333, "fusion_lon": 0.0}, {"is_reserved": 0, "type": "electric_scooter", "fusion_lat": 0.0, "is_disabled": 0, "rental_uris": {"ios": "https://dc.lft.to/lastmile_qr_scan", "android": "https://dc.lft.to/lastmile_qr_scan"}, "bike_id": "ead9320812a08408fbdb0e9953d78cfd", "lat": 38.8836655, "name": "ead9320812a08408fbdb0e9953d78cfd", "lon": -76.99517533333334, "fusion_lon": 0.0}, {"is_reserved": 0, "type": "electric_scooter", "fusion_lat": 0.0, "is_disabled": 0, "rental_uris": {"ios": "https://dc.lft.to/lastmile_qr_scan", "android": "https://dc.lft.to/lastmile_qr_scan"}, "bike_id": "5fa849870925a84872888ae683edfc60", "lat": 38.902539, "name": "5fa849870925a84872888ae683edfc60", "lon": -77.04679116666667, "fusion_lon": 0.0}, {"is_reserved": 0, "type": "electric_scooter", "fusion_lat": 0.0, "is_disabled": 0, "rental_uris": {"ios": "https://dc.lft.to/lastmile_qr_scan", "android": "https://dc.lft.to/lastmile_qr_scan"}, "bike_id": "03f87e5d966cc5d3897fff2941f6730e", "lat": 38.93099633333333, "name": "03f87e5d966cc5d3897fff2941f6730e", "lon": -77.02479833333334, "fusion_lon": 0.0}, {"is_reserved": 0, "type": "electric_scooter", "fusion_lat": 0.0, "is_disabled": 0, "rental_uris": {"ios": "https://dc.lft.to/lastmile_qr_scan", "android": "https://dc.lft.to/lastmile_qr_scan"}, "bike_id": "8c6720ef741b5e70969a6725ad970057", "lat": 38.9217075, "name": "8c6720ef741b5e70969a6725ad970057", "lon": -77.04126183333334, "fusion_lon": 0.0}, {"is_reserved": 0, "type": "electric_scooter", "fusion_lat": 0.0, "is_disabled": 0, "rental_uris": {"ios": "https://dc.lft.to/lastmile_qr_scan", "android": "https://dc.lft.to/lastmile_qr_scan"}, "bike_id": "15da31ed7cfb1f7e4bc6ff8ff7d59bf1", "lat": 38.899858333333334, "name": "15da31ed7cfb1f7e4bc6ff8ff7d59bf1", "lon": -77.04179283333333, "fusion_lon": 0.0}, {"is_reserved": 0, "type": "electric_scooter", "fusion_lat": 0.0, "is_disabled": 0, "rental_uris": {"ios": "https://dc.lft.to/lastmile_qr_scan", "android": "https://dc.lft.to/lastmile_qr_scan"}, "bike_id": "c460244688c615742d746e10b731880b", "lat": 38.91970083333333, "name": "c460244688c615742d746e10b731880b", "lon": -77.03963483333334, "fusion_lon": 0.0}, {"is_reserved": 0, "type": "electric_scooter", "fusion_lat": 0.0, "is_disabled": 0, "rental_uris": {"ios": "https://dc.lft.to/lastmile_qr_scan", "android": "https://dc.lft.to/lastmile_qr_scan"}, "bike_id": "c22cc22219478fcfa871bdb95a2e9eea", "lat": 38.943115666666664, "name": "c22cc22219478fcfa871bdb95a2e9eea", "lon": -77.076361, "fusion_lon": 0.0}, {"is_reserved": 0, "type": "electric_scooter", "fusion_lat": 0.0, "is_disabled": 0, "rental_uris": {"ios": "https://dc.lft.to/lastmile_qr_scan", "android": "https://dc.lft.to/lastmile_qr_scan"}, "bike_id": "d140026667d051d50516b6db6bdea133", "lat": 38.892329833333335, "name": "d140026667d051d50516b6db6bdea133", "lon": -77.0238295, "fusion_lon": 0.0}, {"is_reserved": 0, "type": "electric_scooter", "fusion_lat": 0.0, "is_disabled": 0, "rental_uris": {"ios": "https://dc.lft.to/lastmile_qr_scan", "android": "https://dc.lft.to/lastmile_qr_scan"}, "bike_id": "5214465300a944e11e604fbb07090026", "lat": 38.92009783333334, "name": "5214465300a944e11e604fbb07090026", "lon": -77.041762, "fusion_lon": 0.0}, {"is_reserved": 0, "type": "electric_scooter", "fusion_lat": 0.0, "is_disabled": 0, "rental_uris": {"ios": "https://dc.lft.to/lastmile_qr_scan", "android": "https://dc.lft.to/lastmile_qr_scan"}, "bike_id": "4aaabafb8ae9cfcfcc6b314c0ede00e9", "lat": 38.91536883333333, "name": "4aaabafb8ae9cfcfcc6b314c0ede00e9", "lon": -77.04435733333334, "fusion_lon": 0.0}, {"is_reserved": 0, "type": "electric_scooter", "fusion_lat": 0.0, "is_disabled": 0, "rental_uris": {"ios": "https://dc.lft.to/lastmile_qr_scan", "android": "https://dc.lft.to/lastmile_qr_scan"}, "bike_id": "bd15e1e35e0e6073a6ff8190bf302acb", "lat": 38.909492, "name": "bd15e1e35e0e6073a6ff8190bf302acb", "lon": -77.04658433333333, "fusion_lon": 0.0}, {"is_reserved": 0, "type": "electric_scooter", "fusion_lat": 0.0, "is_disabled": 0, "rental_uris": {"ios": "https://dc.lft.to/lastmile_qr_scan", "android": "https://dc.lft.to/lastmile_qr_scan"}, "bike_id": "976e094296765d7e0e47fff1e8bd42a6", "lat": 38.885765666666664, "name": "976e094296765d7e0e47fff1e8bd42a6", "lon": -77.012092, "fusion_lon": 0.0}, {"is_reserved": 0, "type": "electric_scooter", "fusion_lat": 0.0, "is_disabled": 0, "rental_uris": {"ios": "https://dc.lft.to/lastmile_qr_scan", "android": "https://dc.lft.to/lastmile_qr_scan"}, "bike_id": "fbcaef52ca17214f33c6c67a7ffe5cfb", "lat": 38.91707366666667, "name": "fbcaef52ca17214f33c6c67a7ffe5cfb", "lon": -77.0228035, "fusion_lon": 0.0}, {"is_reserved": 0, "type": "electric_scooter", "fusion_lat": 0.0, "is_disabled": 0, "rental_uris": {"ios": "https://dc.lft.to/lastmile_qr_scan", "android": "https://dc.lft.to/lastmile_qr_scan"}, "bike_id": "e7f1a8aadae2d087540f382b42264e7b", "lat": 38.91784583333333, "name": "e7f1a8aadae2d087540f382b42264e7b", "lon": -77.02393616666667, "fusion_lon": 0.0}, {"is_reserved": 0, "type": "electric_scooter", "fusion_lat": 0.0, "is_disabled": 0, "rental_uris": {"ios": "https://dc.lft.to/lastmile_qr_scan", "android": "https://dc.lft.to/lastmile_qr_scan"}, "bike_id": "3b8ecefa9f092df091dc8577176f0e3c", "lat": 38.9137625, "name": "3b8ecefa9f092df091dc8577176f0e3c", "lon": -77.06432316666667, "fusion_lon": 0.0}, {"is_reserved": 0, "type": "electric_scooter", "fusion_lat": 0.0, "is_disabled": 0, "rental_uris": {"ios": "https://dc.lft.to/lastmile_qr_scan", "android": "https://dc.lft.to/lastmile_qr_scan"}, "bike_id": "3340421d9e61882ba316a4182ac024ce", "lat": 38.903751, "name": "3340421d9e61882ba316a4182ac024ce", "lon": -77.04024133333333, "fusion_lon": 0.0}, {"is_reserved": 0, "type": "electric_scooter", "fusion_lat": 0.0, "is_disabled": 0, "rental_uris": {"ios": "https://dc.lft.to/lastmile_qr_scan", "android": "https://dc.lft.to/lastmile_qr_scan"}, "bike_id": "9c06cda00ce52387b3fdf632a309e92e", "lat": 38.9010955, "name": "9c06cda00ce52387b3fdf632a309e92e", "lon": -77.02312133333334, "fusion_lon": 0.0}, {"is_reserved": 0, "type": "electric_scooter", "fusion_lat": 0.0, "is_disabled": 0, "rental_uris": {"ios": "https://dc.lft.to/lastmile_qr_scan", "android": "https://dc.lft.to/lastmile_qr_scan"}, "bike_id": "72beb8674e4ecd0fe3cca114b33cd5e0", "lat": 38.915602, "name": "72beb8674e4ecd0fe3cca114b33cd5e0", "lon": -76.985038, "fusion_lon": 0.0}, {"is_reserved": 0, "type": "electric_scooter", "fusion_lat": 0.0, "is_disabled": 0, "rental_uris": {"ios": "https://dc.lft.to/lastmile_qr_scan", "android": "https://dc.lft.to/lastmile_qr_scan"}, "bike_id": "4950e198f360998eb72e67797bb8a393", "lat": 38.908178, "name": "4950e198f360998eb72e67797bb8a393", "lon": -77.08421966666667, "fusion_lon": 0.0}, {"is_reserved": 0, "type": "electric_bike", "fusion_lat": 0.0, "is_disabled": 0, "rental_uris": {"ios": "https://dc.lft.to/lastmile_qr_scan", "android": "https://dc.lft.to/lastmile_qr_scan"}, "bike_id": "19e00c96f7d1947aa673849a3d4f1457", "lat": 38.84617683333333, "name": "19e00c96f7d1947aa673849a3d4f1457", "lon": -76.97839016666667, "fusion_lon": 0.0}, {"is_reserved": 0, "type": "electric_scooter", "fusion_lat": 0.0, "is_disabled": 0, "rental_uris": {"ios": "https://dc.lft.to/lastmile_qr_scan", "android": "https://dc.lft.to/lastmile_qr_scan"}, "bike_id": "8b6e875389d8b724277271b73e52db8c", "lat": 38.9085905, "name": "8b6e875389d8b724277271b73e52db8c", "lon": -77.026599, "fusion_lon": 0.0}, {"is_reserved": 0, "type": "electric_scooter", "fusion_lat": 0.0, "is_disabled": 0, "rental_uris": {"ios": "https://dc.lft.to/lastmile_qr_scan", "android": "https://dc.lft.to/lastmile_qr_scan"}, "bike_id": "66fe2e091c07c5ee46939864875449cb", "lat": 38.904335333333336, "name": "66fe2e091c07c5ee46939864875449cb", "lon": -76.9794915, "fusion_lon": 0.0}, {"is_reserved": 0, "type": "electric_scooter", "fusion_lat": 0.0, "is_disabled": 0, "rental_uris": {"ios": "https://dc.lft.to/lastmile_qr_scan", "android": "https://dc.lft.to/lastmile_qr_scan"}, "bike_id": "8072c655253d9cf5fda53d31b6b4774d", "lat": 38.924724499999996, "name": "8072c655253d9cf5fda53d31b6b4774d", "lon": -77.02219633333333, "fusion_lon": 0.0}, {"is_reserved": 0, "type": "electric_scooter", "fusion_lat": 0.0, "is_disabled": 0, "rental_uris": {"ios": "https://dc.lft.to/lastmile_qr_scan", "android": "https://dc.lft.to/lastmile_qr_scan"}, "bike_id": "42caf7c7b9d0bce8f4b6dba25283ce53", "lat": 38.88709716666666, "name": "42caf7c7b9d0bce8f4b6dba25283ce53", "lon": -76.98340266666666, "fusion_lon": 0.0}, {"is_reserved": 0, "type": "electric_scooter", "fusion_lat": 0.0, "is_disabled": 0, "rental_uris": {"ios": "https://dc.lft.to/lastmile_qr_scan", "android": "https://dc.lft.to/lastmile_qr_scan"}, "bike_id": "23df9d0b2fd19c6c8003964737e6eda2", "lat": 38.935117, "name": "23df9d0b2fd19c6c8003964737e6eda2", "lon": -77.0367025, "fusion_lon": 0.0}, {"is_reserved": 0, "type": "electric_scooter", "fusion_lat": 0.0, "is_disabled": 0, "rental_uris": {"ios": "https://dc.lft.to/lastmile_qr_scan", "android": "https://dc.lft.to/lastmile_qr_scan"}, "bike_id": "4c8f2942bbf3d6fdfc16398afc57bc35", "lat": 38.916828, "name": "4c8f2942bbf3d6fdfc16398afc57bc35", "lon": -77.02283083333333, "fusion_lon": 0.0}, {"is_reserved": 0, "type": "electric_scooter", "fusion_lat": 0.0, "is_disabled": 0, "rental_uris": {"ios": "https://dc.lft.to/lastmile_qr_scan", "android": "https://dc.lft.to/lastmile_qr_scan"}, "bike_id": "db9a40909509846ec04385b99c80eb49", "lat": 38.89954866666667, "name": "db9a40909509846ec04385b99c80eb49", "lon": -77.0323965, "fusion_lon": 0.0}, {"is_reserved": 0, "type": "electric_scooter", "fusion_lat": 0.0, "is_disabled": 0, "rental_uris": {"ios": "https://dc.lft.to/lastmile_qr_scan", "android": "https://dc.lft.to/lastmile_qr_scan"}, "bike_id": "3a7f15d666c172eac04483d10b2122e6", "lat": 38.85565283333333, "name": "3a7f15d666c172eac04483d10b2122e6", "lon": -76.9908025, "fusion_lon": 0.0}, {"is_reserved": 0, "type": "electric_scooter", "fusion_lat": 0.0, "is_disabled": 0, "rental_uris": {"ios": "https://dc.lft.to/lastmile_qr_scan", "android": "https://dc.lft.to/lastmile_qr_scan"}, "bike_id": "10bdb3f4c818345ab462c8b4ec36669d", "lat": 38.89363066666667, "name": "10bdb3f4c818345ab462c8b4ec36669d", "lon": -77.0204815, "fusion_lon": 0.0}, {"is_reserved": 0, "type": "electric_scooter", "fusion_lat": 0.0, "is_disabled": 0, "rental_uris": {"ios": "https://dc.lft.to/lastmile_qr_scan", "android": "https://dc.lft.to/lastmile_qr_scan"}, "bike_id": "0ebbd5a75281e267fe882d147e776759", "lat": 38.929150666666665, "name": "0ebbd5a75281e267fe882d147e776759", "lon": -77.02089416666666, "fusion_lon": 0.0}, {"is_reserved": 0, "type": "electric_scooter", "fusion_lat": 0.0, "is_disabled": 0, "rental_uris": {"ios": "https://dc.lft.to/lastmile_qr_scan", "android": "https://dc.lft.to/lastmile_qr_scan"}, "bike_id": "0e78329c28367a3b7c3161f5e90c589e", "lat": 38.93112716666667, "name": "0e78329c28367a3b7c3161f5e90c589e", "lon": -77.02095416666667, "fusion_lon": 0.0}, {"is_reserved": 0, "type": "electric_scooter", "fusion_lat": 0.0, "is_disabled": 0, "rental_uris": {"ios": "https://dc.lft.to/lastmile_qr_scan", "android": "https://dc.lft.to/lastmile_qr_scan"}, "bike_id": "f286d660efb5609831a484398f064332", "lat": 38.917891833333336, "name": "f286d660efb5609831a484398f064332", "lon": -77.02307766666667, "fusion_lon": 0.0}, {"is_reserved": 0, "type": "electric_scooter", "fusion_lat": 0.0, "is_disabled": 0, "rental_uris": {"ios": "https://dc.lft.to/lastmile_qr_scan", "android": "https://dc.lft.to/lastmile_qr_scan"}, "bike_id": "081342933e59f1ad466db62996bd4ceb", "lat": 38.903457, "name": "081342933e59f1ad466db62996bd4ceb", "lon": -77.026008, "fusion_lon": 0.0}, {"is_reserved": 0, "type": "electric_scooter", "fusion_lat": 0.0, "is_disabled": 0, "rental_uris": {"ios": "https://dc.lft.to/lastmile_qr_scan", "android": "https://dc.lft.to/lastmile_qr_scan"}, "bike_id": "cfd34970e49dfc2f41fdfea8521b0acf", "lat": 38.875651833333336, "name": "cfd34970e49dfc2f41fdfea8521b0acf", "lon": -77.00624233333333, "fusion_lon": 0.0}, {"is_reserved": 0, "type": "electric_scooter", "fusion_lat": 0.0, "is_disabled": 0, "rental_uris": {"ios": "https://dc.lft.to/lastmile_qr_scan", "android": "https://dc.lft.to/lastmile_qr_scan"}, "bike_id": "de46e7a5af18f2864f8b8be2b70572a0", "lat": 38.93606833333333, "name": "de46e7a5af18f2864f8b8be2b70572a0", "lon": -77.0241365, "fusion_lon": 0.0}, {"is_reserved": 0, "type": "electric_scooter", "fusion_lat": 0.0, "is_disabled": 0, "rental_uris": {"ios": "https://dc.lft.to/lastmile_qr_scan", "android": "https://dc.lft.to/lastmile_qr_scan"}, "bike_id": "f1fed3acea4e8a1effc58316515e99b3", "lat": 38.882418333333334, "name": "f1fed3acea4e8a1effc58316515e99b3", "lon": -76.93328216666667, "fusion_lon": 0.0}, {"is_reserved": 0, "type": "electric_scooter", "fusion_lat": 0.0, "is_disabled": 0, "rental_uris": {"ios": "https://dc.lft.to/lastmile_qr_scan", "android": "https://dc.lft.to/lastmile_qr_scan"}, "bike_id": "ccd75f175bbf0449f004b5c651f4a9d6", "lat": 38.9427615, "name": "ccd75f175bbf0449f004b5c651f4a9d6", "lon": -77.02930566666667, "fusion_lon": 0.0}, {"is_reserved": 0, "type": "electric_scooter", "fusion_lat": 0.0, "is_disabled": 0, "rental_uris": {"ios": "https://dc.lft.to/lastmile_qr_scan", "android": "https://dc.lft.to/lastmile_qr_scan"}, "bike_id": "ff2f40a6b5a3ae33f824a5961e95bff0", "lat": 38.9286575, "name": "ff2f40a6b5a3ae33f824a5961e95bff0", "lon": -77.03282416666667, "fusion_lon": 0.0}, {"is_reserved": 0, "type": "electric_scooter", "fusion_lat": 0.0, "is_disabled": 0, "rental_uris": {"ios": "https://dc.lft.to/lastmile_qr_scan", "android": "https://dc.lft.to/lastmile_qr_scan"}, "bike_id": "cc86c032d5b3a175c726553816a604fc", "lat": 38.905955166666665, "name": "cc86c032d5b3a175c726553816a604fc", "lon": -77.06658733333333, "fusion_lon": 0.0}, {"is_reserved": 0, "type": "electric_scooter", "fusion_lat": 0.0, "is_disabled": 0, "rental_uris": {"ios": "https://dc.lft.to/lastmile_qr_scan", "android": "https://dc.lft.to/lastmile_qr_scan"}, "bike_id": "4b340ddf114b9b91f0710847fabc9027", "lat": 38.94644366666667, "name": "4b340ddf114b9b91f0710847fabc9027", "lon": -77.01745216666667, "fusion_lon": 0.0}, {"is_reserved": 0, "type": "electric_scooter", "fusion_lat": 0.0, "is_disabled": 0, "rental_uris": {"ios": "https://dc.lft.to/lastmile_qr_scan", "android": "https://dc.lft.to/lastmile_qr_scan"}, "bike_id": "79e53232eb625490ae5728c564ae4553", "lat": 38.90733783333334, "name": "79e53232eb625490ae5728c564ae4553", "lon": -77.03861216666667, "fusion_lon": 0.0}, {"is_reserved": 0, "type": "electric_scooter", "fusion_lat": 0.0, "is_disabled": 0, "rental_uris": {"ios": "https://dc.lft.to/lastmile_qr_scan", "android": "https://dc.lft.to/lastmile_qr_scan"}, "bike_id": "98a5677c073d3639274058ed26a38a2d", "lat": 38.92712683333333, "name": "98a5677c073d3639274058ed26a38a2d", "lon": -77.0209365, "fusion_lon": 0.0}, {"is_reserved": 0, "type": "electric_scooter", "fusion_lat": 0.0, "is_disabled": 0, "rental_uris": {"ios": "https://dc.lft.to/lastmile_qr_scan", "android": "https://dc.lft.to/lastmile_qr_scan"}, "bike_id": "c023901a6b9cc92b69b0f796e59d0166", "lat": 38.905423166666665, "name": "c023901a6b9cc92b69b0f796e59d0166", "lon": -77.05801866666667, "fusion_lon": 0.0}, {"is_reserved": 0, "type": "electric_scooter", "fusion_lat": 0.0, "is_disabled": 0, "rental_uris": {"ios": "https://dc.lft.to/lastmile_qr_scan", "android": "https://dc.lft.to/lastmile_qr_scan"}, "bike_id": "29b0e945e542cdbc37511ee7de109724", "lat": 38.898548, "name": "29b0e945e542cdbc37511ee7de109724", "lon": -77.03964733333333, "fusion_lon": 0.0}, {"is_reserved": 0, "type": "electric_scooter", "fusion_lat": 0.0, "is_disabled": 0, "rental_uris": {"ios": "https://dc.lft.to/lastmile_qr_scan", "android": "https://dc.lft.to/lastmile_qr_scan"}, "bike_id": "fe6503c902dd055f86d2070dd6fae810", "lat": 38.93321266666667, "name": "fe6503c902dd055f86d2070dd6fae810", "lon": -77.02389866666667, "fusion_lon": 0.0}, {"is_reserved": 0, "type": "electric_scooter", "fusion_lat": 0.0, "is_disabled": 0, "rental_uris": {"ios": "https://dc.lft.to/lastmile_qr_scan", "android": "https://dc.lft.to/lastmile_qr_scan"}, "bike_id": "21a9987e7ddae2e72ccdd895d2c252e3", "lat": 38.9017565, "name": "21a9987e7ddae2e72ccdd895d2c252e3", "lon": -76.92947216666667, "fusion_lon": 0.0}, {"is_reserved": 0, "type": "electric_scooter", "fusion_lat": 0.0, "is_disabled": 0, "rental_uris": {"ios": "https://dc.lft.to/lastmile_qr_scan", "android": "https://dc.lft.to/lastmile_qr_scan"}, "bike_id": "16f315970c71d9f83b0556aa28a26424", "lat": 38.899600666666664, "name": "16f315970c71d9f83b0556aa28a26424", "lon": -77.01602266666667, "fusion_lon": 0.0}, {"is_reserved": 0, "type": "electric_scooter", "fusion_lat": 0.0, "is_disabled": 0, "rental_uris": {"ios": "https://dc.lft.to/lastmile_qr_scan", "android": "https://dc.lft.to/lastmile_qr_scan"}, "bike_id": "d295828c1fd4706882ea27596f462204", "lat": 38.922104833333336, "name": "d295828c1fd4706882ea27596f462204", "lon": -77.0184655, "fusion_lon": 0.0}, {"is_reserved": 0, "type": "electric_scooter", "fusion_lat": 0.0, "is_disabled": 0, "rental_uris": {"ios": "https://dc.lft.to/lastmile_qr_scan", "android": "https://dc.lft.to/lastmile_qr_scan"}, "bike_id": "508d5f1b5937677462343143b1bee7f3", "lat": 38.89965733333333, "name": "508d5f1b5937677462343143b1bee7f3", "lon": -77.016148, "fusion_lon": 0.0}, {"is_reserved": 0, "type": "electric_scooter", "fusion_lat": 0.0, "is_disabled": 0, "rental_uris": {"ios": "https://dc.lft.to/lastmile_qr_scan", "android": "https://dc.lft.to/lastmile_qr_scan"}, "bike_id": "44a00e06927bf1df3e6362f31d6c5a5f", "lat": 38.90084183333333, "name": "44a00e06927bf1df3e6362f31d6c5a5f", "lon": -77.04879966666667, "fusion_lon": 0.0}, {"is_reserved": 0, "type": "electric_scooter", "fusion_lat": 0.0, "is_disabled": 0, "rental_uris": {"ios": "https://dc.lft.to/lastmile_qr_scan", "android": "https://dc.lft.to/lastmile_qr_scan"}, "bike_id": "ee75ea5bbcf93dd791b81e54be13c2da", "lat": 38.9449175, "name": "ee75ea5bbcf93dd791b81e54be13c2da", "lon": -77.00737583333333, "fusion_lon": 0.0}, {"is_reserved": 0, "type": "electric_scooter", "fusion_lat": 0.0, "is_disabled": 0, "rental_uris": {"ios": "https://dc.lft.to/lastmile_qr_scan", "android": "https://dc.lft.to/lastmile_qr_scan"}, "bike_id": "0f0181ceffe477388ba6fb8784b5044b", "lat": 38.90116233333333, "name": "0f0181ceffe477388ba6fb8784b5044b", "lon": -77.03446466666666, "fusion_lon": 0.0}, {"is_reserved": 0, "type": "electric_scooter", "fusion_lat": 0.0, "is_disabled": 0, "rental_uris": {"ios": "https://dc.lft.to/lastmile_qr_scan", "android": "https://dc.lft.to/lastmile_qr_scan"}, "bike_id": "47098b485da6bd2d57ab1f54fa17b2cb", "lat": 38.90751816666667, "name": "47098b485da6bd2d57ab1f54fa17b2cb", "lon": -77.0449565, "fusion_lon": 0.0}, {"is_reserved": 0, "type": "electric_scooter", "fusion_lat": 0.0, "is_disabled": 0, "rental_uris": {"ios": "https://dc.lft.to/lastmile_qr_scan", "android": "https://dc.lft.to/lastmile_qr_scan"}, "bike_id": "2dd93f683b423b1de488ed24ca71d735", "lat": 38.93164566666667, "name": "2dd93f683b423b1de488ed24ca71d735", "lon": -77.05607866666666, "fusion_lon": 0.0}, {"is_reserved": 0, "type": "electric_scooter", "fusion_lat": 0.0, "is_disabled": 0, "rental_uris": {"ios": "https://dc.lft.to/lastmile_qr_scan", "android": "https://dc.lft.to/lastmile_qr_scan"}, "bike_id": "b64c014bc884c112e34e44093e0c0b4e", "lat": 38.92419316666667, "name": "b64c014bc884c112e34e44093e0c0b4e", "lon": -77.01944283333333, "fusion_lon": 0.0}, {"is_reserved": 0, "type": "electric_bike", "fusion_lat": 0.0, "is_disabled": 0, "rental_uris": {"ios": "https://dc.lft.to/lastmile_qr_scan", "android": "https://dc.lft.to/lastmile_qr_scan"}, "bike_id": "daefbf1e07055b20f7dcdbb2e36bfae5", "lat": 39.08434316666666, "name": "daefbf1e07055b20f7dcdbb2e36bfae5", "lon": -76.95139533333334, "fusion_lon": 0.0}, {"is_reserved": 0, "type": "electric_scooter", "fusion_lat": 0.0, "is_disabled": 0, "rental_uris": {"ios": "https://dc.lft.to/lastmile_qr_scan", "android": "https://dc.lft.to/lastmile_qr_scan"}, "bike_id": "8e883ff56eca7155b5548dbea40f9703", "lat": 38.903866666666666, "name": "8e883ff56eca7155b5548dbea40f9703", "lon": -77.05075383333333, "fusion_lon": 0.0}, {"is_reserved": 0, "type": "electric_scooter", "fusion_lat": 0.0, "is_disabled": 0, "rental_uris": {"ios": "https://dc.lft.to/lastmile_qr_scan", "android": "https://dc.lft.to/lastmile_qr_scan"}, "bike_id": "e6552294bf49ffcc0cbd0305945e53af", "lat": 38.883894833333336, "name": "e6552294bf49ffcc0cbd0305945e53af", "lon": -76.93038366666667, "fusion_lon": 0.0}, {"is_reserved": 0, "type": "electric_scooter", "fusion_lat": 0.0, "is_disabled": 0, "rental_uris": {"ios": "https://dc.lft.to/lastmile_qr_scan", "android": "https://dc.lft.to/lastmile_qr_scan"}, "bike_id": "c30a14692d7974ed643a3fd2bacb5af8", "lat": 38.92361866666667, "name": "c30a14692d7974ed643a3fd2bacb5af8", "lon": -77.02980266666667, "fusion_lon": 0.0}, {"is_reserved": 0, "type": "electric_scooter", "fusion_lat": 0.0, "is_disabled": 0, "rental_uris": {"ios": "https://dc.lft.to/lastmile_qr_scan", "android": "https://dc.lft.to/lastmile_qr_scan"}, "bike_id": "a848bfd5030a2dad18cd66f454b3e40f", "lat": 38.9067135, "name": "a848bfd5030a2dad18cd66f454b3e40f", "lon": -77.0271445, "fusion_lon": 0.0}, {"is_reserved": 0, "type": "electric_scooter", "fusion_lat": 0.0, "is_disabled": 0, "rental_uris": {"ios": "https://dc.lft.to/lastmile_qr_scan", "android": "https://dc.lft.to/lastmile_qr_scan"}, "bike_id": "0ab0ec18cc4a2dda58859f843cf6371b", "lat": 38.8943175, "name": "0ab0ec18cc4a2dda58859f843cf6371b", "lon": -77.00103133333333, "fusion_lon": 0.0}, {"is_reserved": 0, "type": "electric_bike", "fusion_lat": 0.0, "is_disabled": 0, "rental_uris": {"ios": "https://dc.lft.to/lastmile_qr_scan", "android": "https://dc.lft.to/lastmile_qr_scan"}, "bike_id": "bd4c92095714497a47a42cd5bee0237d", "lat": 38.85793183333333, "name": "bd4c92095714497a47a42cd5bee0237d", "lon": -77.09960933333333, "fusion_lon": 0.0}, {"is_reserved": 0, "type": "electric_scooter", "fusion_lat": 0.0, "is_disabled": 0, "rental_uris": {"ios": "https://dc.lft.to/lastmile_qr_scan", "android": "https://dc.lft.to/lastmile_qr_scan"}, "bike_id": "355c34125e62c9a43c8df451bad9d85e", "lat": 38.92803116666666, "name": "355c34125e62c9a43c8df451bad9d85e", "lon": -77.0239065, "fusion_lon": 0.0}, {"is_reserved": 0, "type": "electric_scooter", "fusion_lat": 0.0, "is_disabled": 0, "rental_uris": {"ios": "https://dc.lft.to/lastmile_qr_scan", "android": "https://dc.lft.to/lastmile_qr_scan"}, "bike_id": "6ab0d1c8b4852e19926e13af93cdf7df", "lat": 38.90118833333333, "name": "6ab0d1c8b4852e19926e13af93cdf7df", "lon": -77.05144366666667, "fusion_lon": 0.0}, {"is_reserved": 0, "type": "electric_scooter", "fusion_lat": 0.0, "is_disabled": 0, "rental_uris": {"ios": "https://dc.lft.to/lastmile_qr_scan", "android": "https://dc.lft.to/lastmile_qr_scan"}, "bike_id": "1f2a6d16ceee66a1552dc06909825b01", "lat": 38.926852, "name": "1f2a6d16ceee66a1552dc06909825b01", "lon": -77.0087665, "fusion_lon": 0.0}, {"is_reserved": 0, "type": "electric_scooter", "fusion_lat": 0.0, "is_disabled": 0, "rental_uris": {"ios": "https://dc.lft.to/lastmile_qr_scan", "android": "https://dc.lft.to/lastmile_qr_scan"}, "bike_id": "ed9f7e0d7a3bae3bd479ce121c378d1f", "lat": 38.94730533333333, "name": "ed9f7e0d7a3bae3bd479ce121c378d1f", "lon": -77.02670433333333, "fusion_lon": 0.0}, {"is_reserved": 0, "type": "electric_scooter", "fusion_lat": 0.0, "is_disabled": 0, "rental_uris": {"ios": "https://dc.lft.to/lastmile_qr_scan", "android": "https://dc.lft.to/lastmile_qr_scan"}, "bike_id": "d6d13bac13fa9beb183f23375c023077", "lat": 38.91700683333333, "name": "d6d13bac13fa9beb183f23375c023077", "lon": -77.05298866666666, "fusion_lon": 0.0}, {"is_reserved": 0, "type": "electric_bike", "fusion_lat": 0.0, "is_disabled": 0, "rental_uris": {"ios": "https://dc.lft.to/lastmile_qr_scan", "android": "https://dc.lft.to/lastmile_qr_scan"}, "bike_id": "857c1de040ac0cc4af8daca49641ec83", "lat": 38.834111666666665, "name": "857c1de040ac0cc4af8daca49641ec83", "lon": -77.0500015, "fusion_lon": 0.0}, {"is_reserved": 0, "type": "electric_scooter", "fusion_lat": 0.0, "is_disabled": 0, "rental_uris": {"ios": "https://dc.lft.to/lastmile_qr_scan", "android": "https://dc.lft.to/lastmile_qr_scan"}, "bike_id": "db190c059be65f70d47d57df5c09f0f1", "lat": 38.885488, "name": "db190c059be65f70d47d57df5c09f0f1", "lon": -76.98534466666666, "fusion_lon": 0.0}, {"is_reserved": 0, "type": "electric_scooter", "fusion_lat": 0.0, "is_disabled": 0, "rental_uris": {"ios": "https://dc.lft.to/lastmile_qr_scan", "android": "https://dc.lft.to/lastmile_qr_scan"}, "bike_id": "01021b129f9ecba2a69a215e44c92450", "lat": 38.8972525, "name": "01021b129f9ecba2a69a215e44c92450", "lon": -77.0264485, "fusion_lon": 0.0}, {"is_reserved": 0, "type": "electric_scooter", "fusion_lat": 0.0, "is_disabled": 0, "rental_uris": {"ios": "https://dc.lft.to/lastmile_qr_scan", "android": "https://dc.lft.to/lastmile_qr_scan"}, "bike_id": "c9f373b0e91a55d44b202f869291d493", "lat": 38.901956, "name": "c9f373b0e91a55d44b202f869291d493", "lon": -77.022036, "fusion_lon": 0.0}, {"is_reserved": 0, "type": "electric_bike", "fusion_lat": 0.0, "is_disabled": 0, "rental_uris": {"ios": "https://dc.lft.to/lastmile_qr_scan", "android": "https://dc.lft.to/lastmile_qr_scan"}, "bike_id": "88e006b0e6a7c18d020a66cd695a2511", "lat": 38.92806566666667, "name": "88e006b0e6a7c18d020a66cd695a2511", "lon": -77.22942366666666, "fusion_lon": 0.0}, {"is_reserved": 0, "type": "electric_scooter", "fusion_lat": 0.0, "is_disabled": 0, "rental_uris": {"ios": "https://dc.lft.to/lastmile_qr_scan", "android": "https://dc.lft.to/lastmile_qr_scan"}, "bike_id": "a78cd1eb4a95478c46b8c69abf317023", "lat": 38.90038333333333, "name": "a78cd1eb4a95478c46b8c69abf317023", "lon": -77.04340833333333, "fusion_lon": 0.0}, {"is_reserved": 0, "type": "electric_scooter", "fusion_lat": 0.0, "is_disabled": 0, "rental_uris": {"ios": "https://dc.lft.to/lastmile_qr_scan", "android": "https://dc.lft.to/lastmile_qr_scan"}, "bike_id": "81fc729afd3ec814dd4db19c917fe0d7", "lat": 38.921736333333335, "name": "81fc729afd3ec814dd4db19c917fe0d7", "lon": -77.02116583333333, "fusion_lon": 0.0}, {"is_reserved": 0, "type": "electric_scooter", "fusion_lat": 0.0, "is_disabled": 0, "rental_uris": {"ios": "https://dc.lft.to/lastmile_qr_scan", "android": "https://dc.lft.to/lastmile_qr_scan"}, "bike_id": "07b7ecb0348385eb2e17623afa91e44b", "lat": 38.89882433333333, "name": "07b7ecb0348385eb2e17623afa91e44b", "lon": -76.93171516666666, "fusion_lon": 0.0}, {"is_reserved": 0, "type": "electric_scooter", "fusion_lat": 0.0, "is_disabled": 0, "rental_uris": {"ios": "https://dc.lft.to/lastmile_qr_scan", "android": "https://dc.lft.to/lastmile_qr_scan"}, "bike_id": "dab05c4ae989b36df74928906d3018d8", "lat": 38.923743, "name": "dab05c4ae989b36df74928906d3018d8", "lon": -77.019109, "fusion_lon": 0.0}, {"is_reserved": 0, "type": "electric_scooter", "fusion_lat": 0.0, "is_disabled": 0, "rental_uris": {"ios": "https://dc.lft.to/lastmile_qr_scan", "android": "https://dc.lft.to/lastmile_qr_scan"}, "bike_id": "80dd36a302a97b85bb7639fa2839c16f", "lat": 38.9643095, "name": "80dd36a302a97b85bb7639fa2839c16f", "lon": -77.07424433333334, "fusion_lon": 0.0}, {"is_reserved": 0, "type": "electric_scooter", "fusion_lat": 0.0, "is_disabled": 0, "rental_uris": {"ios": "https://dc.lft.to/lastmile_qr_scan", "android": "https://dc.lft.to/lastmile_qr_scan"}, "bike_id": "47f4908c4bed40cf9f374623a4bb27f2", "lat": 38.903164, "name": "47f4908c4bed40cf9f374623a4bb27f2", "lon": -76.9913205, "fusion_lon": 0.0}, {"is_reserved": 0, "type": "electric_scooter", "fusion_lat": 0.0, "is_disabled": 0, "rental_uris": {"ios": "https://dc.lft.to/lastmile_qr_scan", "android": "https://dc.lft.to/lastmile_qr_scan"}, "bike_id": "2a11303579e8579449eae1803047290d", "lat": 38.9364335, "name": "2a11303579e8579449eae1803047290d", "lon": -77.03644366666667, "fusion_lon": 0.0}, {"is_reserved": 0, "type": "electric_scooter", "fusion_lat": 0.0, "is_disabled": 0, "rental_uris": {"ios": "https://dc.lft.to/lastmile_qr_scan", "android": "https://dc.lft.to/lastmile_qr_scan"}, "bike_id": "aa21ebef1a1688013fa765488c823f00", "lat": 38.910176, "name": "aa21ebef1a1688013fa765488c823f00", "lon": -77.01992716666666, "fusion_lon": 0.0}, {"is_reserved": 0, "type": "electric_scooter", "fusion_lat": 0.0, "is_disabled": 0, "rental_uris": {"ios": "https://dc.lft.to/lastmile_qr_scan", "android": "https://dc.lft.to/lastmile_qr_scan"}, "bike_id": "cedb8b6cd6d19329548614339ac125fb", "lat": 38.92080516666667, "name": "cedb8b6cd6d19329548614339ac125fb", "lon": -77.0251385, "fusion_lon": 0.0}, {"is_reserved": 0, "type": "electric_scooter", "fusion_lat": 0.0, "is_disabled": 0, "rental_uris": {"ios": "https://dc.lft.to/lastmile_qr_scan", "android": "https://dc.lft.to/lastmile_qr_scan"}, "bike_id": "24cbb865203e595e9f4535b3254c709d", "lat": 38.93561566666666, "name": "24cbb865203e595e9f4535b3254c709d", "lon": -77.07362083333334, "fusion_lon": 0.0}, {"is_reserved": 0, "type": "electric_scooter", "fusion_lat": 0.0, "is_disabled": 0, "rental_uris": {"ios": "https://dc.lft.to/lastmile_qr_scan", "android": "https://dc.lft.to/lastmile_qr_scan"}, "bike_id": "719d64232c9c728909dae3555c89639f", "lat": 38.85717366666667, "name": "719d64232c9c728909dae3555c89639f", "lon": -76.9809535, "fusion_lon": 0.0}, {"is_reserved": 0, "type": "electric_scooter", "fusion_lat": 0.0, "is_disabled": 0, "rental_uris": {"ios": "https://dc.lft.to/lastmile_qr_scan", "android": "https://dc.lft.to/lastmile_qr_scan"}, "bike_id": "5083a1daf0b014e30f2e041ded497bad", "lat": 38.93630983333333, "name": "5083a1daf0b014e30f2e041ded497bad", "lon": -77.0366125, "fusion_lon": 0.0}, {"is_reserved": 0, "type": "electric_scooter", "fusion_lat": 0.0, "is_disabled": 0, "rental_uris": {"ios": "https://dc.lft.to/lastmile_qr_scan", "android": "https://dc.lft.to/lastmile_qr_scan"}, "bike_id": "2dc0fbe3b07e517a7046334954dccd44", "lat": 38.90180983333333, "name": "2dc0fbe3b07e517a7046334954dccd44", "lon": -76.98842633333334, "fusion_lon": 0.0}, {"is_reserved": 0, "type": "electric_scooter", "fusion_lat": 0.0, "is_disabled": 0, "rental_uris": {"ios": "https://dc.lft.to/lastmile_qr_scan", "android": "https://dc.lft.to/lastmile_qr_scan"}, "bike_id": "e00c8a158fec6be09fb61a6d0bd7b829", "lat": 38.93137733333333, "name": "e00c8a158fec6be09fb61a6d0bd7b829", "lon": -77.0220515, "fusion_lon": 0.0}, {"is_reserved": 0, "type": "electric_bike", "fusion_lat": 0.0, "is_disabled": 0, "rental_uris": {"ios": "https://dc.lft.to/lastmile_qr_scan", "android": "https://dc.lft.to/lastmile_qr_scan"}, "bike_id": "b41c5f85c6edd88a29d1ddcb7c6eab6a", "lat": 39.010659, "name": "b41c5f85c6edd88a29d1ddcb7c6eab6a", "lon": -76.92243266666667, "fusion_lon": 0.0}, {"is_reserved": 0, "type": "electric_scooter", "fusion_lat": 0.0, "is_disabled": 0, "rental_uris": {"ios": "https://dc.lft.to/lastmile_qr_scan", "android": "https://dc.lft.to/lastmile_qr_scan"}, "bike_id": "06a8d161277b44ef8b73998bddf28372", "lat": 38.92241466666667, "name": "06a8d161277b44ef8b73998bddf28372", "lon": -77.03661683333333, "fusion_lon": 0.0}, {"is_reserved": 0, "type": "electric_scooter", "fusion_lat": 0.0, "is_disabled": 0, "rental_uris": {"ios": "https://dc.lft.to/lastmile_qr_scan", "android": "https://dc.lft.to/lastmile_qr_scan"}, "bike_id": "611a7fa90f94ff12793d1b94934d4c58", "lat": 38.873747, "name": "611a7fa90f94ff12793d1b94934d4c58", "lon": -77.0018405, "fusion_lon": 0.0}, {"is_reserved": 0, "type": "electric_scooter", "fusion_lat": 0.0, "is_disabled": 0, "rental_uris": {"ios": "https://dc.lft.to/lastmile_qr_scan", "android": "https://dc.lft.to/lastmile_qr_scan"}, "bike_id": "9a5a0aed9503ac01eddfa22d79f82f77", "lat": 38.878472333333335, "name": "9a5a0aed9503ac01eddfa22d79f82f77", "lon": -76.93118283333334, "fusion_lon": 0.0}, {"is_reserved": 0, "type": "electric_scooter", "fusion_lat": 0.0, "is_disabled": 0, "rental_uris": {"ios": "https://dc.lft.to/lastmile_qr_scan", "android": "https://dc.lft.to/lastmile_qr_scan"}, "bike_id": "4b64c0f616970b67b901f818e4c83447", "lat": 38.9186475, "name": "4b64c0f616970b67b901f818e4c83447", "lon": -77.01526883333334, "fusion_lon": 0.0}, {"is_reserved": 0, "type": "electric_scooter", "fusion_lat": 0.0, "is_disabled": 0, "rental_uris": {"ios": "https://dc.lft.to/lastmile_qr_scan", "android": "https://dc.lft.to/lastmile_qr_scan"}, "bike_id": "c8500d97cff2f839e014cb26b75b2a58", "lat": 38.898414333333335, "name": "c8500d97cff2f839e014cb26b75b2a58", "lon": -77.00738916666667, "fusion_lon": 0.0}, {"is_reserved": 0, "type": "electric_scooter", "fusion_lat": 0.0, "is_disabled": 0, "rental_uris": {"ios": "https://dc.lft.to/lastmile_qr_scan", "android": "https://dc.lft.to/lastmile_qr_scan"}, "bike_id": "816e83379426a3ca673bffca90c45a55", "lat": 38.894718833333336, "name": "816e83379426a3ca673bffca90c45a55", "lon": -77.02171066666666, "fusion_lon": 0.0}, {"is_reserved": 0, "type": "electric_scooter", "fusion_lat": 0.0, "is_disabled": 0, "rental_uris": {"ios": "https://dc.lft.to/lastmile_qr_scan", "android": "https://dc.lft.to/lastmile_qr_scan"}, "bike_id": "78ab3578aabb60f27f190345111d3e19", "lat": 38.905566666666665, "name": "78ab3578aabb60f27f190345111d3e19", "lon": -77.02595433333333, "fusion_lon": 0.0}, {"is_reserved": 0, "type": "electric_bike", "fusion_lat": 0.0, "is_disabled": 0, "rental_uris": {"ios": "https://dc.lft.to/lastmile_qr_scan", "android": "https://dc.lft.to/lastmile_qr_scan"}, "bike_id": "13bbd1bea13185b70bb4977b49abcb52", "lat": 38.92230416666666, "name": "13bbd1bea13185b70bb4977b49abcb52", "lon": -77.0233465, "fusion_lon": 0.0}, {"is_reserved": 0, "type": "electric_scooter", "fusion_lat": 0.0, "is_disabled": 0, "rental_uris": {"ios": "https://dc.lft.to/lastmile_qr_scan", "android": "https://dc.lft.to/lastmile_qr_scan"}, "bike_id": "61d66ae21eac0a4511eeaa4bc36e286f", "lat": 38.88236216666667, "name": "61d66ae21eac0a4511eeaa4bc36e286f", "lon": -76.99091833333334, "fusion_lon": 0.0}, {"is_reserved": 0, "type": "electric_scooter", "fusion_lat": 0.0, "is_disabled": 0, "rental_uris": {"ios": "https://dc.lft.to/lastmile_qr_scan", "android": "https://dc.lft.to/lastmile_qr_scan"}, "bike_id": "1292067f119a05589b0bfd0da2ea6e69", "lat": 38.89552333333334, "name": "1292067f119a05589b0bfd0da2ea6e69", "lon": -77.02673616666667, "fusion_lon": 0.0}, {"is_reserved": 0, "type": "electric_scooter", "fusion_lat": 0.0, "is_disabled": 0, "rental_uris": {"ios": "https://dc.lft.to/lastmile_qr_scan", "android": "https://dc.lft.to/lastmile_qr_scan"}, "bike_id": "990fb4921c0eccdbe6b38a46f9be2243", "lat": 38.924166666666665, "name": "990fb4921c0eccdbe6b38a46f9be2243", "lon": -77.020059, "fusion_lon": 0.0}, {"is_reserved": 0, "type": "electric_bike", "fusion_lat": 0.0, "is_disabled": 0, "rental_uris": {"ios": "https://dc.lft.to/lastmile_qr_scan", "android": "https://dc.lft.to/lastmile_qr_scan"}, "bike_id": "78c710972cff9463953445ec45db9e98", "lat": 38.85782833333333, "name": "78c710972cff9463953445ec45db9e98", "lon": -76.98761266666666, "fusion_lon": 0.0}, {"is_reserved": 0, "type": "electric_scooter", "fusion_lat": 0.0, "is_disabled": 0, "rental_uris": {"ios": "https://dc.lft.to/lastmile_qr_scan", "android": "https://dc.lft.to/lastmile_qr_scan"}, "bike_id": "8f3c36d7b693ca374e4e74449240aefc", "lat": 38.83382066666667, "name": "8f3c36d7b693ca374e4e74449240aefc", "lon": -77.00299783333334, "fusion_lon": 0.0}, {"is_reserved": 0, "type": "electric_scooter", "fusion_lat": 0.0, "is_disabled": 0, "rental_uris": {"ios": "https://dc.lft.to/lastmile_qr_scan", "android": "https://dc.lft.to/lastmile_qr_scan"}, "bike_id": "1d6e5d1cecd7f34fd948cbf04d693811", "lat": 38.9313225, "name": "1d6e5d1cecd7f34fd948cbf04d693811", "lon": -77.02178083333334, "fusion_lon": 0.0}, {"is_reserved": 0, "type": "electric_scooter", "fusion_lat": 0.0, "is_disabled": 0, "rental_uris": {"ios": "https://dc.lft.to/lastmile_qr_scan", "android": "https://dc.lft.to/lastmile_qr_scan"}, "bike_id": "135382f782547b2d9f16a0af56a818dc", "lat": 38.93322216666667, "name": "135382f782547b2d9f16a0af56a818dc", "lon": -77.03250933333334, "fusion_lon": 0.0}, {"is_reserved": 0, "type": "electric_scooter", "fusion_lat": 0.0, "is_disabled": 0, "rental_uris": {"ios": "https://dc.lft.to/lastmile_qr_scan", "android": "https://dc.lft.to/lastmile_qr_scan"}, "bike_id": "e3e8741b5e586a17233edccf7d1c18cf", "lat": 38.901969, "name": "e3e8741b5e586a17233edccf7d1c18cf", "lon": -77.03492933333334, "fusion_lon": 0.0}, {"is_reserved": 0, "type": "electric_bike", "fusion_lat": 0.0, "is_disabled": 0, "rental_uris": {"ios": "https://dc.lft.to/lastmile_qr_scan", "android": "https://dc.lft.to/lastmile_qr_scan"}, "bike_id": "d762deaf84ebb07b8856bd7057e413dd", "lat": 38.926432, "name": "d762deaf84ebb07b8856bd7057e413dd", "lon": -77.028387, "fusion_lon": 0.0}, {"is_reserved": 0, "type": "electric_scooter", "fusion_lat": 0.0, "is_disabled": 0, "rental_uris": {"ios": "https://dc.lft.to/lastmile_qr_scan", "android": "https://dc.lft.to/lastmile_qr_scan"}, "bike_id": "f352f1f47c279605649a98a2b745a662", "lat": 38.90427183333333, "name": "f352f1f47c279605649a98a2b745a662", "lon": -77.05152466666667, "fusion_lon": 0.0}, {"is_reserved": 0, "type": "electric_scooter", "fusion_lat": 0.0, "is_disabled": 0, "rental_uris": {"ios": "https://dc.lft.to/lastmile_qr_scan", "android": "https://dc.lft.to/lastmile_qr_scan"}, "bike_id": "9a0de84f05211d6ccb2102aa75755881", "lat": 38.92136283333333, "name": "9a0de84f05211d6ccb2102aa75755881", "lon": -77.00398083333333, "fusion_lon": 0.0}, {"is_reserved": 0, "type": "electric_bike", "fusion_lat": 0.0, "is_disabled": 0, "rental_uris": {"ios": "https://dc.lft.to/lastmile_qr_scan", "android": "https://dc.lft.to/lastmile_qr_scan"}, "bike_id": "8f5268f470c093c4a724f532bab51c58", "lat": 38.83609516666667, "name": "8f5268f470c093c4a724f532bab51c58", "lon": -77.00376783333333, "fusion_lon": 0.0}, {"is_reserved": 0, "type": "electric_scooter", "fusion_lat": 0.0, "is_disabled": 0, "rental_uris": {"ios": "https://dc.lft.to/lastmile_qr_scan", "android": "https://dc.lft.to/lastmile_qr_scan"}, "bike_id": "03ee9a760277bf51f8848c861b20a22f", "lat": 38.89502933333333, "name": "03ee9a760277bf51f8848c861b20a22f", "lon": -77.022819, "fusion_lon": 0.0}, {"is_reserved": 0, "type": "electric_scooter", "fusion_lat": 0.0, "is_disabled": 0, "rental_uris": {"ios": "https://dc.lft.to/lastmile_qr_scan", "android": "https://dc.lft.to/lastmile_qr_scan"}, "bike_id": "7d97b8f690a2f91755307a4932d0a061", "lat": 38.9366265, "name": "7d97b8f690a2f91755307a4932d0a061", "lon": -77.06603633333333, "fusion_lon": 0.0}, {"is_reserved": 0, "type": "electric_scooter", "fusion_lat": 0.0, "is_disabled": 0, "rental_uris": {"ios": "https://dc.lft.to/lastmile_qr_scan", "android": "https://dc.lft.to/lastmile_qr_scan"}, "bike_id": "6e0d6c62b16f687df4c8cbe55aec286d", "lat": 38.892199, "name": "6e0d6c62b16f687df4c8cbe55aec286d", "lon": -77.020311, "fusion_lon": 0.0}, {"is_reserved": 0, "type": "electric_scooter", "fusion_lat": 0.0, "is_disabled": 0, "rental_uris": {"ios": "https://dc.lft.to/lastmile_qr_scan", "android": "https://dc.lft.to/lastmile_qr_scan"}, "bike_id": "87efdba26dbe6c28cd720716ac6f45a5", "lat": 38.902593333333336, "name": "87efdba26dbe6c28cd720716ac6f45a5", "lon": -77.01752166666667, "fusion_lon": 0.0}, {"is_reserved": 0, "type": "electric_scooter", "fusion_lat": 0.0, "is_disabled": 0, "rental_uris": {"ios": "https://dc.lft.to/lastmile_qr_scan", "android": "https://dc.lft.to/lastmile_qr_scan"}, "bike_id": "2d621fe448fd78adf6ea1a13860358b7", "lat": 38.899066166666664, "name": "2d621fe448fd78adf6ea1a13860358b7", "lon": -77.0317525, "fusion_lon": 0.0}, {"is_reserved": 0, "type": "electric_scooter", "fusion_lat": 0.0, "is_disabled": 0, "rental_uris": {"ios": "https://dc.lft.to/lastmile_qr_scan", "android": "https://dc.lft.to/lastmile_qr_scan"}, "bike_id": "2f87f3e21f92ccb363035a78155e5645", "lat": 38.91811533333333, "name": "2f87f3e21f92ccb363035a78155e5645", "lon": -77.03121166666666, "fusion_lon": 0.0}, {"is_reserved": 0, "type": "electric_scooter", "fusion_lat": 0.0, "is_disabled": 0, "rental_uris": {"ios": "https://dc.lft.to/lastmile_qr_scan", "android": "https://dc.lft.to/lastmile_qr_scan"}, "bike_id": "7ba4c9d64b2cbd9eb70f1ac3291a604d", "lat": 38.92326166666667, "name": "7ba4c9d64b2cbd9eb70f1ac3291a604d", "lon": -76.999042, "fusion_lon": 0.0}, {"is_reserved": 0, "type": "electric_scooter", "fusion_lat": 0.0, "is_disabled": 0, "rental_uris": {"ios": "https://dc.lft.to/lastmile_qr_scan", "android": "https://dc.lft.to/lastmile_qr_scan"}, "bike_id": "99b8eaa8c5dfff7bedfcf74163f86a3c", "lat": 38.926581666666664, "name": "99b8eaa8c5dfff7bedfcf74163f86a3c", "lon": -77.024295, "fusion_lon": 0.0}, {"is_reserved": 0, "type": "electric_scooter", "fusion_lat": 0.0, "is_disabled": 0, "rental_uris": {"ios": "https://dc.lft.to/lastmile_qr_scan", "android": "https://dc.lft.to/lastmile_qr_scan"}, "bike_id": "9e9edc7634dba717305bc512c4615fb8", "lat": 38.9026895, "name": "9e9edc7634dba717305bc512c4615fb8", "lon": -77.0271655, "fusion_lon": 0.0}, {"is_reserved": 0, "type": "electric_bike", "fusion_lat": 0.0, "is_disabled": 0, "rental_uris": {"ios": "https://dc.lft.to/lastmile_qr_scan", "android": "https://dc.lft.to/lastmile_qr_scan"}, "bike_id": "ef3477949385e29394a0c773789b378d", "lat": 38.9643495, "name": "ef3477949385e29394a0c773789b378d", "lon": -77.0318585, "fusion_lon": 0.0}, {"is_reserved": 0, "type": "electric_scooter", "fusion_lat": 0.0, "is_disabled": 0, "rental_uris": {"ios": "https://dc.lft.to/lastmile_qr_scan", "android": "https://dc.lft.to/lastmile_qr_scan"}, "bike_id": "829934a8db0f78bcafad3640d8fe41be", "lat": 38.89977233333333, "name": "829934a8db0f78bcafad3640d8fe41be", "lon": -77.01606616666666, "fusion_lon": 0.0}, {"is_reserved": 0, "type": "electric_scooter", "fusion_lat": 0.0, "is_disabled": 0, "rental_uris": {"ios": "https://dc.lft.to/lastmile_qr_scan", "android": "https://dc.lft.to/lastmile_qr_scan"}, "bike_id": "42beab1cea88aa04ce6418cc78e59dc6", "lat": 38.91566666666667, "name": "42beab1cea88aa04ce6418cc78e59dc6", "lon": -77.03675983333333, "fusion_lon": 0.0}, {"is_reserved": 0, "type": "electric_scooter", "fusion_lat": 0.0, "is_disabled": 0, "rental_uris": {"ios": "https://dc.lft.to/lastmile_qr_scan", "android": "https://dc.lft.to/lastmile_qr_scan"}, "bike_id": "811f9fc7ea966355708d669db884d692", "lat": 38.899952666666664, "name": "811f9fc7ea966355708d669db884d692", "lon": -77.0270745, "fusion_lon": 0.0}, {"is_reserved": 0, "type": "electric_scooter", "fusion_lat": 0.0, "is_disabled": 0, "rental_uris": {"ios": "https://dc.lft.to/lastmile_qr_scan", "android": "https://dc.lft.to/lastmile_qr_scan"}, "bike_id": "62f475cf6437e71143d1ed1cb95cb181", "lat": 38.937102333333335, "name": "62f475cf6437e71143d1ed1cb95cb181", "lon": -77.0362835, "fusion_lon": 0.0}, {"is_reserved": 0, "type": "electric_scooter", "fusion_lat": 0.0, "is_disabled": 0, "rental_uris": {"ios": "https://dc.lft.to/lastmile_qr_scan", "android": "https://dc.lft.to/lastmile_qr_scan"}, "bike_id": "39b540dc072bbaae9589c5d6b38c8482", "lat": 38.91725866666667, "name": "39b540dc072bbaae9589c5d6b38c8482", "lon": -77.02610916666667, "fusion_lon": 0.0}, {"is_reserved": 0, "type": "electric_scooter", "fusion_lat": 0.0, "is_disabled": 0, "rental_uris": {"ios": "https://dc.lft.to/lastmile_qr_scan", "android": "https://dc.lft.to/lastmile_qr_scan"}, "bike_id": "c09608549ec6e7aed7369149a501fa21", "lat": 38.928724, "name": "c09608549ec6e7aed7369149a501fa21", "lon": -77.03477716666667, "fusion_lon": 0.0}, {"is_reserved": 0, "type": "electric_scooter", "fusion_lat": 0.0, "is_disabled": 0, "rental_uris": {"ios": "https://dc.lft.to/lastmile_qr_scan", "android": "https://dc.lft.to/lastmile_qr_scan"}, "bike_id": "4a5573ff4906688ace67d5d2c5daf40b", "lat": 38.9240635, "name": "4a5573ff4906688ace67d5d2c5daf40b", "lon": -77.03529033333334, "fusion_lon": 0.0}, {"is_reserved": 0, "type": "electric_scooter", "fusion_lat": 0.0, "is_disabled": 0, "rental_uris": {"ios": "https://dc.lft.to/lastmile_qr_scan", "android": "https://dc.lft.to/lastmile_qr_scan"}, "bike_id": "b9a5ccfd25c81bc3331ce9391654a223", "lat": 38.9212195, "name": "b9a5ccfd25c81bc3331ce9391654a223", "lon": -77.01209616666667, "fusion_lon": 0.0}, {"is_reserved": 0, "type": "electric_scooter", "fusion_lat": 0.0, "is_disabled": 0, "rental_uris": {"ios": "https://dc.lft.to/lastmile_qr_scan", "android": "https://dc.lft.to/lastmile_qr_scan"}, "bike_id": "7fc374c2e2b8b94d52b9427aadfdbc5a", "lat": 38.95639166666667, "name": "7fc374c2e2b8b94d52b9427aadfdbc5a", "lon": -77.03629683333334, "fusion_lon": 0.0}, {"is_reserved": 0, "type": "electric_scooter", "fusion_lat": 0.0, "is_disabled": 0, "rental_uris": {"ios": "https://dc.lft.to/lastmile_qr_scan", "android": "https://dc.lft.to/lastmile_qr_scan"}, "bike_id": "a09e217b75424257625dae3abbe72404", "lat": 38.92704166666667, "name": "a09e217b75424257625dae3abbe72404", "lon": -77.02092116666667, "fusion_lon": 0.0}, {"is_reserved": 0, "type": "electric_scooter", "fusion_lat": 0.0, "is_disabled": 0, "rental_uris": {"ios": "https://dc.lft.to/lastmile_qr_scan", "android": "https://dc.lft.to/lastmile_qr_scan"}, "bike_id": "1408668129bca4418be001d9143ead0d", "lat": 38.92999116666667, "name": "1408668129bca4418be001d9143ead0d", "lon": -77.02170716666667, "fusion_lon": 0.0}, {"is_reserved": 0, "type": "electric_scooter", "fusion_lat": 0.0, "is_disabled": 0, "rental_uris": {"ios": "https://dc.lft.to/lastmile_qr_scan", "android": "https://dc.lft.to/lastmile_qr_scan"}, "bike_id": "08b2dfd04cf14dfb20e10399506a4376", "lat": 38.9119075, "name": "08b2dfd04cf14dfb20e10399506a4376", "lon": -77.01769516666667, "fusion_lon": 0.0}, {"is_reserved": 0, "type": "electric_bike", "fusion_lat": 0.0, "is_disabled": 0, "rental_uris": {"ios": "https://dc.lft.to/lastmile_qr_scan", "android": "https://dc.lft.to/lastmile_qr_scan"}, "bike_id": "898dfdc506928e9221173fe7ab9d551a", "lat": 38.99829283333333, "name": "898dfdc506928e9221173fe7ab9d551a", "lon": -76.99727066666667, "fusion_lon": 0.0}, {"is_reserved": 0, "type": "electric_scooter", "fusion_lat": 0.0, "is_disabled": 0, "rental_uris": {"ios": "https://dc.lft.to/lastmile_qr_scan", "android": "https://dc.lft.to/lastmile_qr_scan"}, "bike_id": "18dd3fc659e25d137941bfd4f1587fb1", "lat": 38.928880666666664, "name": "18dd3fc659e25d137941bfd4f1587fb1", "lon": -77.03872366666667, "fusion_lon": 0.0}, {"is_reserved": 0, "type": "electric_scooter", "fusion_lat": 0.0, "is_disabled": 0, "rental_uris": {"ios": "https://dc.lft.to/lastmile_qr_scan", "android": "https://dc.lft.to/lastmile_qr_scan"}, "bike_id": "2d570a9738ed2a5983cf294b6bae949d", "lat": 38.92161083333333, "name": "2d570a9738ed2a5983cf294b6bae949d", "lon": -77.03381366666666, "fusion_lon": 0.0}, {"is_reserved": 0, "type": "electric_scooter", "fusion_lat": 0.0, "is_disabled": 0, "rental_uris": {"ios": "https://dc.lft.to/lastmile_qr_scan", "android": "https://dc.lft.to/lastmile_qr_scan"}, "bike_id": "be46bc190ae547acf3a515226bdba8bd", "lat": 38.90270183333333, "name": "be46bc190ae547acf3a515226bdba8bd", "lon": -77.03392766666667, "fusion_lon": 0.0}, {"is_reserved": 0, "type": "electric_bike", "fusion_lat": 0.0, "is_disabled": 0, "rental_uris": {"ios": "https://dc.lft.to/lastmile_qr_scan", "android": "https://dc.lft.to/lastmile_qr_scan"}, "bike_id": "4cc8010ee9f8cc8f1fb81b9203cb306f", "lat": 38.87571233333333, "name": "4cc8010ee9f8cc8f1fb81b9203cb306f", "lon": -77.04705083333333, "fusion_lon": 0.0}, {"is_reserved": 0, "type": "electric_scooter", "fusion_lat": 0.0, "is_disabled": 0, "rental_uris": {"ios": "https://dc.lft.to/lastmile_qr_scan", "android": "https://dc.lft.to/lastmile_qr_scan"}, "bike_id": "3c0de03d780855278ae25f72f6650c03", "lat": 38.88383983333333, "name": "3c0de03d780855278ae25f72f6650c03", "lon": -77.0460485, "fusion_lon": 0.0}, {"is_reserved": 0, "type": "electric_scooter", "fusion_lat": 0.0, "is_disabled": 0, "rental_uris": {"ios": "https://dc.lft.to/lastmile_qr_scan", "android": "https://dc.lft.to/lastmile_qr_scan"}, "bike_id": "d01d671046dc996c8df7d36d84b1cca1", "lat": 38.959605833333335, "name": "d01d671046dc996c8df7d36d84b1cca1", "lon": -77.03318733333333, "fusion_lon": 0.0}, {"is_reserved": 0, "type": "electric_scooter", "fusion_lat": 0.0, "is_disabled": 0, "rental_uris": {"ios": "https://dc.lft.to/lastmile_qr_scan", "android": "https://dc.lft.to/lastmile_qr_scan"}, "bike_id": "9ac8bc9b3edbd212eeac04f4ffac02e0", "lat": 38.912715, "name": "9ac8bc9b3edbd212eeac04f4ffac02e0", "lon": -77.04662333333333, "fusion_lon": 0.0}, {"is_reserved": 0, "type": "electric_scooter", "fusion_lat": 0.0, "is_disabled": 0, "rental_uris": {"ios": "https://dc.lft.to/lastmile_qr_scan", "android": "https://dc.lft.to/lastmile_qr_scan"}, "bike_id": "4c7ee72a251015a7e3ba20bdecce309d", "lat": 38.892100166666665, "name": "4c7ee72a251015a7e3ba20bdecce309d", "lon": -76.96116416666666, "fusion_lon": 0.0}, {"is_reserved": 0, "type": "electric_scooter", "fusion_lat": 0.0, "is_disabled": 0, "rental_uris": {"ios": "https://dc.lft.to/lastmile_qr_scan", "android": "https://dc.lft.to/lastmile_qr_scan"}, "bike_id": "84cd025809cebb8188d95ce4f76f9bb8", "lat": 38.90513283333333, "name": "84cd025809cebb8188d95ce4f76f9bb8", "lon": -77.03092416666667, "fusion_lon": 0.0}, {"is_reserved": 0, "type": "electric_scooter", "fusion_lat": 0.0, "is_disabled": 0, "rental_uris": {"ios": "https://dc.lft.to/lastmile_qr_scan", "android": "https://dc.lft.to/lastmile_qr_scan"}, "bike_id": "b088a75283c87498b5ddcda07aa50837", "lat": 38.89723133333333, "name": "b088a75283c87498b5ddcda07aa50837", "lon": -77.02648016666667, "fusion_lon": 0.0}, {"is_reserved": 0, "type": "electric_scooter", "fusion_lat": 0.0, "is_disabled": 0, "rental_uris": {"ios": "https://dc.lft.to/lastmile_qr_scan", "android": "https://dc.lft.to/lastmile_qr_scan"}, "bike_id": "b8bc17ed5a5e722a6551b298de533e3a", "lat": 38.9229265, "name": "b8bc17ed5a5e722a6551b298de533e3a", "lon": -77.0207, "fusion_lon": 0.0}, {"is_reserved": 0, "type": "electric_bike", "fusion_lat": 0.0, "is_disabled": 0, "rental_uris": {"ios": "https://dc.lft.to/lastmile_qr_scan", "android": "https://dc.lft.to/lastmile_qr_scan"}, "bike_id": "9b0c5e7a1583491f6990eebeb037b2e4", "lat": 38.961274, "name": "9b0c5e7a1583491f6990eebeb037b2e4", "lon": -77.0327325, "fusion_lon": 0.0}, {"is_reserved": 0, "type": "electric_scooter", "fusion_lat": 0.0, "is_disabled": 0, "rental_uris": {"ios": "https://dc.lft.to/lastmile_qr_scan", "android": "https://dc.lft.to/lastmile_qr_scan"}, "bike_id": "a10162d197fa468f400eab7f2469d1da", "lat": 38.88137066666667, "name": "a10162d197fa468f400eab7f2469d1da", "lon": -77.02266366666667, "fusion_lon": 0.0}, {"is_reserved": 0, "type": "electric_scooter", "fusion_lat": 0.0, "is_disabled": 0, "rental_uris": {"ios": "https://dc.lft.to/lastmile_qr_scan", "android": "https://dc.lft.to/lastmile_qr_scan"}, "bike_id": "d2c418dbe7113b609bb4427bb687605e", "lat": 38.884505, "name": "d2c418dbe7113b609bb4427bb687605e", "lon": -76.95094666666667, "fusion_lon": 0.0}, {"is_reserved": 0, "type": "electric_bike", "fusion_lat": 0.0, "is_disabled": 0, "rental_uris": {"ios": "https://dc.lft.to/lastmile_qr_scan", "android": "https://dc.lft.to/lastmile_qr_scan"}, "bike_id": "08a6c32cd385c4ce4fb115427f3f7924", "lat": 38.81332783333333, "name": "08a6c32cd385c4ce4fb115427f3f7924", "lon": -77.05092283333333, "fusion_lon": 0.0}, {"is_reserved": 0, "type": "electric_scooter", "fusion_lat": 0.0, "is_disabled": 0, "rental_uris": {"ios": "https://dc.lft.to/lastmile_qr_scan", "android": "https://dc.lft.to/lastmile_qr_scan"}, "bike_id": "554dbafe3508749e48f3c56e68cb40c6", "lat": 38.931966, "name": "554dbafe3508749e48f3c56e68cb40c6", "lon": -77.03262533333333, "fusion_lon": 0.0}, {"is_reserved": 0, "type": "electric_scooter", "fusion_lat": 0.0, "is_disabled": 0, "rental_uris": {"ios": "https://dc.lft.to/lastmile_qr_scan", "android": "https://dc.lft.to/lastmile_qr_scan"}, "bike_id": "ed59733fd29db34295cbfff1c44515fb", "lat": 38.946814833333335, "name": "ed59733fd29db34295cbfff1c44515fb", "lon": -77.0328255, "fusion_lon": 0.0}, {"is_reserved": 0, "type": "electric_scooter", "fusion_lat": 0.0, "is_disabled": 0, "rental_uris": {"ios": "https://dc.lft.to/lastmile_qr_scan", "android": "https://dc.lft.to/lastmile_qr_scan"}, "bike_id": "bdd9c5a86a2da6e50e937ce4236e4e60", "lat": 38.938598999999996, "name": "bdd9c5a86a2da6e50e937ce4236e4e60", "lon": -77.0246135, "fusion_lon": 0.0}, {"is_reserved": 0, "type": "electric_bike", "fusion_lat": 0.0, "is_disabled": 0, "rental_uris": {"ios": "https://dc.lft.to/lastmile_qr_scan", "android": "https://dc.lft.to/lastmile_qr_scan"}, "bike_id": "b47abf432995678355b69efa92fd949c", "lat": 38.908455833333335, "name": "b47abf432995678355b69efa92fd949c", "lon": -77.06369466666666, "fusion_lon": 0.0}, {"is_reserved": 0, "type": "electric_scooter", "fusion_lat": 0.0, "is_disabled": 0, "rental_uris": {"ios": "https://dc.lft.to/lastmile_qr_scan", "android": "https://dc.lft.to/lastmile_qr_scan"}, "bike_id": "a0ea826782bc18f22ad81fb1f849897c", "lat": 38.8826765, "name": "a0ea826782bc18f22ad81fb1f849897c", "lon": -76.99521816666666, "fusion_lon": 0.0}, {"is_reserved": 0, "type": "electric_scooter", "fusion_lat": 0.0, "is_disabled": 0, "rental_uris": {"ios": "https://dc.lft.to/lastmile_qr_scan", "android": "https://dc.lft.to/lastmile_qr_scan"}, "bike_id": "5191a6aca39d17dba1d82e8e52b5622d", "lat": 38.909561833333335, "name": "5191a6aca39d17dba1d82e8e52b5622d", "lon": -77.02378233333333, "fusion_lon": 0.0}, {"is_reserved": 0, "type": "electric_scooter", "fusion_lat": 0.0, "is_disabled": 0, "rental_uris": {"ios": "https://dc.lft.to/lastmile_qr_scan", "android": "https://dc.lft.to/lastmile_qr_scan"}, "bike_id": "2ded9b531f080d89e1656bf4b9c87042", "lat": 38.90333616666667, "name": "2ded9b531f080d89e1656bf4b9c87042", "lon": -76.97588616666667, "fusion_lon": 0.0}, {"is_reserved": 0, "type": "electric_scooter", "fusion_lat": 0.0, "is_disabled": 0, "rental_uris": {"ios": "https://dc.lft.to/lastmile_qr_scan", "android": "https://dc.lft.to/lastmile_qr_scan"}, "bike_id": "a1ab9c11fb7f0a9ca99c69f04c6a63ff", "lat": 38.920727, "name": "a1ab9c11fb7f0a9ca99c69f04c6a63ff", "lon": -77.02509566666667, "fusion_lon": 0.0}, {"is_reserved": 0, "type": "electric_scooter", "fusion_lat": 0.0, "is_disabled": 0, "rental_uris": {"ios": "https://dc.lft.to/lastmile_qr_scan", "android": "https://dc.lft.to/lastmile_qr_scan"}, "bike_id": "f28b79b946ce14c54745b0f22e611148", "lat": 38.909599, "name": "f28b79b946ce14c54745b0f22e611148", "lon": -77.01387216666667, "fusion_lon": 0.0}, {"is_reserved": 0, "type": "electric_scooter", "fusion_lat": 0.0, "is_disabled": 0, "rental_uris": {"ios": "https://dc.lft.to/lastmile_qr_scan", "android": "https://dc.lft.to/lastmile_qr_scan"}, "bike_id": "4dc2edbba52dd91bfff1fab3de66354b", "lat": 38.899242666666666, "name": "4dc2edbba52dd91bfff1fab3de66354b", "lon": -77.03998216666666, "fusion_lon": 0.0}, {"is_reserved": 0, "type": "electric_scooter", "fusion_lat": 0.0, "is_disabled": 0, "rental_uris": {"ios": "https://dc.lft.to/lastmile_qr_scan", "android": "https://dc.lft.to/lastmile_qr_scan"}, "bike_id": "7ff225882c375e8a38d8804b2b739a10", "lat": 38.93350133333333, "name": "7ff225882c375e8a38d8804b2b739a10", "lon": -76.99436666666666, "fusion_lon": 0.0}, {"is_reserved": 0, "type": "electric_scooter", "fusion_lat": 0.0, "is_disabled": 0, "rental_uris": {"ios": "https://dc.lft.to/lastmile_qr_scan", "android": "https://dc.lft.to/lastmile_qr_scan"}, "bike_id": "bfee1322b00b6e1bafedc9ec227ecdf3", "lat": 38.902541666666664, "name": "bfee1322b00b6e1bafedc9ec227ecdf3", "lon": -77.01674666666666, "fusion_lon": 0.0}, {"is_reserved": 0, "type": "electric_scooter", "fusion_lat": 0.0, "is_disabled": 0, "rental_uris": {"ios": "https://dc.lft.to/lastmile_qr_scan", "android": "https://dc.lft.to/lastmile_qr_scan"}, "bike_id": "c56c829f835af819d2b7e020dcc21eaa", "lat": 38.920667333333334, "name": "c56c829f835af819d2b7e020dcc21eaa", "lon": -77.02818516666666, "fusion_lon": 0.0}, {"is_reserved": 0, "type": "electric_scooter", "fusion_lat": 0.0, "is_disabled": 0, "rental_uris": {"ios": "https://dc.lft.to/lastmile_qr_scan", "android": "https://dc.lft.to/lastmile_qr_scan"}, "bike_id": "da922ec37d0dd730df76c29ef4f2da2a", "lat": 38.89923133333333, "name": "da922ec37d0dd730df76c29ef4f2da2a", "lon": -77.0322, "fusion_lon": 0.0}, {"is_reserved": 0, "type": "electric_scooter", "fusion_lat": 0.0, "is_disabled": 0, "rental_uris": {"ios": "https://dc.lft.to/lastmile_qr_scan", "android": "https://dc.lft.to/lastmile_qr_scan"}, "bike_id": "912524fdc4eef54055c4ea0fd7e6905b", "lat": 38.9245075, "name": "912524fdc4eef54055c4ea0fd7e6905b", "lon": -77.02037816666666, "fusion_lon": 0.0}, {"is_reserved": 0, "type": "electric_scooter", "fusion_lat": 0.0, "is_disabled": 0, "rental_uris": {"ios": "https://dc.lft.to/lastmile_qr_scan", "android": "https://dc.lft.to/lastmile_qr_scan"}, "bike_id": "962ee516a6c9007512d5dec0d60904fd", "lat": 38.932299, "name": "962ee516a6c9007512d5dec0d60904fd", "lon": -77.02961966666666, "fusion_lon": 0.0}, {"is_reserved": 0, "type": "electric_scooter", "fusion_lat": 0.0, "is_disabled": 0, "rental_uris": {"ios": "https://dc.lft.to/lastmile_qr_scan", "android": "https://dc.lft.to/lastmile_qr_scan"}, "bike_id": "037f2df301c7673b84004034ad147e4c", "lat": 38.944649166666665, "name": "037f2df301c7673b84004034ad147e4c", "lon": -77.0065545, "fusion_lon": 0.0}, {"is_reserved": 0, "type": "electric_scooter", "fusion_lat": 0.0, "is_disabled": 0, "rental_uris": {"ios": "https://dc.lft.to/lastmile_qr_scan", "android": "https://dc.lft.to/lastmile_qr_scan"}, "bike_id": "d692e077a3f7b657ead8346cd2104884", "lat": 38.92064233333333, "name": "d692e077a3f7b657ead8346cd2104884", "lon": -77.00051383333333, "fusion_lon": 0.0}, {"is_reserved": 0, "type": "electric_scooter", "fusion_lat": 0.0, "is_disabled": 0, "rental_uris": {"ios": "https://dc.lft.to/lastmile_qr_scan", "android": "https://dc.lft.to/lastmile_qr_scan"}, "bike_id": "ef059e851d4233d3da844b92732b4de8", "lat": 38.881411666666665, "name": "ef059e851d4233d3da844b92732b4de8", "lon": -76.99621483333334, "fusion_lon": 0.0}, {"is_reserved": 0, "type": "electric_scooter", "fusion_lat": 0.0, "is_disabled": 0, "rental_uris": {"ios": "https://dc.lft.to/lastmile_qr_scan", "android": "https://dc.lft.to/lastmile_qr_scan"}, "bike_id": "d7e0805faae6ddd7e64fd264ba2c4daf", "lat": 38.89817016666667, "name": "d7e0805faae6ddd7e64fd264ba2c4daf", "lon": -76.99832916666666, "fusion_lon": 0.0}, {"is_reserved": 0, "type": "electric_scooter", "fusion_lat": 0.0, "is_disabled": 0, "rental_uris": {"ios": "https://dc.lft.to/lastmile_qr_scan", "android": "https://dc.lft.to/lastmile_qr_scan"}, "bike_id": "75dbff6904c4e028836ef50faad3130d", "lat": 38.896045, "name": "75dbff6904c4e028836ef50faad3130d", "lon": -77.0108435, "fusion_lon": 0.0}, {"is_reserved": 0, "type": "electric_scooter", "fusion_lat": 0.0, "is_disabled": 0, "rental_uris": {"ios": "https://dc.lft.to/lastmile_qr_scan", "android": "https://dc.lft.to/lastmile_qr_scan"}, "bike_id": "428ba2bae2a1f471ea1eed3d9200b997", "lat": 38.89177266666667, "name": "428ba2bae2a1f471ea1eed3d9200b997", "lon": -77.005906, "fusion_lon": 0.0}, {"is_reserved": 0, "type": "electric_scooter", "fusion_lat": 0.0, "is_disabled": 0, "rental_uris": {"ios": "https://dc.lft.to/lastmile_qr_scan", "android": "https://dc.lft.to/lastmile_qr_scan"}, "bike_id": "c3383d26bb330746dd96f8dec01c9a56", "lat": 38.878348833333334, "name": "c3383d26bb330746dd96f8dec01c9a56", "lon": -77.00857416666666, "fusion_lon": 0.0}, {"is_reserved": 0, "type": "electric_scooter", "fusion_lat": 0.0, "is_disabled": 0, "rental_uris": {"ios": "https://dc.lft.to/lastmile_qr_scan", "android": "https://dc.lft.to/lastmile_qr_scan"}, "bike_id": "22d771ce306cafcf70b02c955844b20f", "lat": 38.935371333333336, "name": "22d771ce306cafcf70b02c955844b20f", "lon": -77.02351133333333, "fusion_lon": 0.0}, {"is_reserved": 0, "type": "electric_bike", "fusion_lat": 0.0, "is_disabled": 0, "rental_uris": {"ios": "https://dc.lft.to/lastmile_qr_scan", "android": "https://dc.lft.to/lastmile_qr_scan"}, "bike_id": "a5b13b41859eb4324fcb0621655c77b5", "lat": 38.819380333333335, "name": "a5b13b41859eb4324fcb0621655c77b5", "lon": -77.00203466666666, "fusion_lon": 0.0}, {"is_reserved": 0, "type": "electric_bike", "fusion_lat": 0.0, "is_disabled": 0, "rental_uris": {"ios": "https://dc.lft.to/lastmile_qr_scan", "android": "https://dc.lft.to/lastmile_qr_scan"}, "bike_id": "bff45f32bdbbc257393fd9e5e5a986fe", "lat": 38.888754666666664, "name": "bff45f32bdbbc257393fd9e5e5a986fe", "lon": -76.95702433333334, "fusion_lon": 0.0}, {"is_reserved": 0, "type": "electric_scooter", "fusion_lat": 0.0, "is_disabled": 0, "rental_uris": {"ios": "https://dc.lft.to/lastmile_qr_scan", "android": "https://dc.lft.to/lastmile_qr_scan"}, "bike_id": "fd1523fffa0e146c554cdf65f4155454", "lat": 38.903882833333334, "name": "fd1523fffa0e146c554cdf65f4155454", "lon": -77.01631666666667, "fusion_lon": 0.0}, {"is_reserved": 0, "type": "electric_bike", "fusion_lat": 0.0, "is_disabled": 0, "rental_uris": {"ios": "https://dc.lft.to/lastmile_qr_scan", "android": "https://dc.lft.to/lastmile_qr_scan"}, "bike_id": "a06bf0ec39c884bb028d397de08e9f63", "lat": 38.87958666666667, "name": "a06bf0ec39c884bb028d397de08e9f63", "lon": -76.9319045, "fusion_lon": 0.0}, {"is_reserved": 0, "type": "electric_scooter", "fusion_lat": 0.0, "is_disabled": 0, "rental_uris": {"ios": "https://dc.lft.to/lastmile_qr_scan", "android": "https://dc.lft.to/lastmile_qr_scan"}, "bike_id": "c735cf4b348be42454bd09de67c2f22a", "lat": 38.907738333333334, "name": "c735cf4b348be42454bd09de67c2f22a", "lon": -77.01899233333333, "fusion_lon": 0.0}, {"is_reserved": 0, "type": "electric_scooter", "fusion_lat": 0.0, "is_disabled": 0, "rental_uris": {"ios": "https://dc.lft.to/lastmile_qr_scan", "android": "https://dc.lft.to/lastmile_qr_scan"}, "bike_id": "f77a2b21ec052ad082f2ae5dd81486e8", "lat": 38.91521083333333, "name": "f77a2b21ec052ad082f2ae5dd81486e8", "lon": -77.07272166666667, "fusion_lon": 0.0}, {"is_reserved": 0, "type": "electric_scooter", "fusion_lat": 0.0, "is_disabled": 0, "rental_uris": {"ios": "https://dc.lft.to/lastmile_qr_scan", "android": "https://dc.lft.to/lastmile_qr_scan"}, "bike_id": "e1832bd2bdb7e825034c18a012080d88", "lat": 38.92367183333333, "name": "e1832bd2bdb7e825034c18a012080d88", "lon": -77.0431895, "fusion_lon": 0.0}, {"is_reserved": 0, "type": "electric_scooter", "fusion_lat": 0.0, "is_disabled": 0, "rental_uris": {"ios": "https://dc.lft.to/lastmile_qr_scan", "android": "https://dc.lft.to/lastmile_qr_scan"}, "bike_id": "fd97938670687a7e69a015c3a2c8d695", "lat": 38.92038466666666, "name": "fd97938670687a7e69a015c3a2c8d695", "lon": -77.04092916666667, "fusion_lon": 0.0}, {"is_reserved": 0, "type": "electric_scooter", "fusion_lat": 0.0, "is_disabled": 0, "rental_uris": {"ios": "https://dc.lft.to/lastmile_qr_scan", "android": "https://dc.lft.to/lastmile_qr_scan"}, "bike_id": "5e40ff0d80cb386741cadec981534e1b", "lat": 38.90785016666667, "name": "5e40ff0d80cb386741cadec981534e1b", "lon": -77.04329633333333, "fusion_lon": 0.0}, {"is_reserved": 0, "type": "electric_scooter", "fusion_lat": 0.0, "is_disabled": 0, "rental_uris": {"ios": "https://dc.lft.to/lastmile_qr_scan", "android": "https://dc.lft.to/lastmile_qr_scan"}, "bike_id": "fa9ecbddc1b4f712fce6c83d814d7ee6", "lat": 38.902593333333336, "name": "fa9ecbddc1b4f712fce6c83d814d7ee6", "lon": -77.061656, "fusion_lon": 0.0}, {"is_reserved": 0, "type": "electric_scooter", "fusion_lat": 0.0, "is_disabled": 0, "rental_uris": {"ios": "https://dc.lft.to/lastmile_qr_scan", "android": "https://dc.lft.to/lastmile_qr_scan"}, "bike_id": "ff221eab5bf44793f0d39b70f79a3cb3", "lat": 38.924323666666666, "name": "ff221eab5bf44793f0d39b70f79a3cb3", "lon": -77.042376, "fusion_lon": 0.0}, {"is_reserved": 0, "type": "electric_scooter", "fusion_lat": 0.0, "is_disabled": 0, "rental_uris": {"ios": "https://dc.lft.to/lastmile_qr_scan", "android": "https://dc.lft.to/lastmile_qr_scan"}, "bike_id": "e59157bc72d72240531e1c2b22204512", "lat": 38.915972, "name": "e59157bc72d72240531e1c2b22204512", "lon": -77.02299816666667, "fusion_lon": 0.0}, {"is_reserved": 0, "type": "electric_scooter", "fusion_lat": 0.0, "is_disabled": 0, "rental_uris": {"ios": "https://dc.lft.to/lastmile_qr_scan", "android": "https://dc.lft.to/lastmile_qr_scan"}, "bike_id": "37d0cf1cf8c32fcfe57e76cb51b0897d", "lat": 38.8933065, "name": "37d0cf1cf8c32fcfe57e76cb51b0897d", "lon": -76.9392715, "fusion_lon": 0.0}, {"is_reserved": 0, "type": "electric_bike", "fusion_lat": 0.0, "is_disabled": 0, "rental_uris": {"ios": "https://dc.lft.to/lastmile_qr_scan", "android": "https://dc.lft.to/lastmile_qr_scan"}, "bike_id": "7e78c27e9717ccb3688a9fbbcfa427da", "lat": 38.87667583333333, "name": "7e78c27e9717ccb3688a9fbbcfa427da", "lon": -77.02086966666667, "fusion_lon": 0.0}, {"is_reserved": 0, "type": "electric_scooter", "fusion_lat": 0.0, "is_disabled": 0, "rental_uris": {"ios": "https://dc.lft.to/lastmile_qr_scan", "android": "https://dc.lft.to/lastmile_qr_scan"}, "bike_id": "cfec5823e07df9336e30d19238d66b6a", "lat": 38.8707285, "name": "cfec5823e07df9336e30d19238d66b6a", "lon": -76.98131083333334, "fusion_lon": 0.0}, {"is_reserved": 0, "type": "electric_scooter", "fusion_lat": 0.0, "is_disabled": 0, "rental_uris": {"ios": "https://dc.lft.to/lastmile_qr_scan", "android": "https://dc.lft.to/lastmile_qr_scan"}, "bike_id": "2dd038b4f937fb6d04313d984d2e9b18", "lat": 38.90248366666667, "name": "2dd038b4f937fb6d04313d984d2e9b18", "lon": -77.0172015, "fusion_lon": 0.0}, {"is_reserved": 0, "type": "electric_scooter", "fusion_lat": 0.0, "is_disabled": 0, "rental_uris": {"ios": "https://dc.lft.to/lastmile_qr_scan", "android": "https://dc.lft.to/lastmile_qr_scan"}, "bike_id": "1a79844a2f49572b8ac65a551d7feeef", "lat": 38.90848916666667, "name": "1a79844a2f49572b8ac65a551d7feeef", "lon": -77.02463933333334, "fusion_lon": 0.0}, {"is_reserved": 0, "type": "electric_bike", "fusion_lat": 0.0, "is_disabled": 0, "rental_uris": {"ios": "https://dc.lft.to/lastmile_qr_scan", "android": "https://dc.lft.to/lastmile_qr_scan"}, "bike_id": "c09af259121349b168c06ac7012cb0ae", "lat": 38.87580166666667, "name": "c09af259121349b168c06ac7012cb0ae", "lon": -77.234095, "fusion_lon": 0.0}, {"is_reserved": 0, "type": "electric_scooter", "fusion_lat": 0.0, "is_disabled": 0, "rental_uris": {"ios": "https://dc.lft.to/lastmile_qr_scan", "android": "https://dc.lft.to/lastmile_qr_scan"}, "bike_id": "78ed43d3656ca3b67b53e6335403c16b", "lat": 38.89483083333333, "name": "78ed43d3656ca3b67b53e6335403c16b", "lon": -76.94868016666666, "fusion_lon": 0.0}, {"is_reserved": 0, "type": "electric_scooter", "fusion_lat": 0.0, "is_disabled": 0, "rental_uris": {"ios": "https://dc.lft.to/lastmile_qr_scan", "android": "https://dc.lft.to/lastmile_qr_scan"}, "bike_id": "80660d34eec49fed6e08a9e23d3d15dd", "lat": 38.91762716666667, "name": "80660d34eec49fed6e08a9e23d3d15dd", "lon": -77.0045235, "fusion_lon": 0.0}, {"is_reserved": 0, "type": "electric_scooter", "fusion_lat": 0.0, "is_disabled": 0, "rental_uris": {"ios": "https://dc.lft.to/lastmile_qr_scan", "android": "https://dc.lft.to/lastmile_qr_scan"}, "bike_id": "4f099ef47da97c3c3f83ad2b8914c6af", "lat": 38.90209933333333, "name": "4f099ef47da97c3c3f83ad2b8914c6af", "lon": -77.06121, "fusion_lon": 0.0}, {"is_reserved": 0, "type": "electric_scooter", "fusion_lat": 0.0, "is_disabled": 0, "rental_uris": {"ios": "https://dc.lft.to/lastmile_qr_scan", "android": "https://dc.lft.to/lastmile_qr_scan"}, "bike_id": "54e12e8253af50eeca4159c414a5f94a", "lat": 38.956352333333335, "name": "54e12e8253af50eeca4159c414a5f94a", "lon": -77.02206333333334, "fusion_lon": 0.0}, {"is_reserved": 0, "type": "electric_bike", "fusion_lat": 0.0, "is_disabled": 0, "rental_uris": {"ios": "https://dc.lft.to/lastmile_qr_scan", "android": "https://dc.lft.to/lastmile_qr_scan"}, "bike_id": "6b223ae1cd2c2420a4f793624440b901", "lat": 38.832722833333335, "name": "6b223ae1cd2c2420a4f793624440b901", "lon": -77.08367783333334, "fusion_lon": 0.0}, {"is_reserved": 0, "type": "electric_scooter", "fusion_lat": 0.0, "is_disabled": 0, "rental_uris": {"ios": "https://dc.lft.to/lastmile_qr_scan", "android": "https://dc.lft.to/lastmile_qr_scan"}, "bike_id": "ae787f8087913f91b49d0ae7605ae500", "lat": 38.93933966666667, "name": "ae787f8087913f91b49d0ae7605ae500", "lon": -77.07251733333334, "fusion_lon": 0.0}, {"is_reserved": 0, "type": "electric_scooter", "fusion_lat": 0.0, "is_disabled": 0, "rental_uris": {"ios": "https://dc.lft.to/lastmile_qr_scan", "android": "https://dc.lft.to/lastmile_qr_scan"}, "bike_id": "a25aa9155d30a91964cb2ac24c510912", "lat": 38.916942666666664, "name": "a25aa9155d30a91964cb2ac24c510912", "lon": -77.024811, "fusion_lon": 0.0}, {"is_reserved": 0, "type": "electric_scooter", "fusion_lat": 0.0, "is_disabled": 0, "rental_uris": {"ios": "https://dc.lft.to/lastmile_qr_scan", "android": "https://dc.lft.to/lastmile_qr_scan"}, "bike_id": "a7220d63cefdfecbfebc67425c312e6f", "lat": 38.920212166666666, "name": "a7220d63cefdfecbfebc67425c312e6f", "lon": -77.01702683333333, "fusion_lon": 0.0}, {"is_reserved": 0, "type": "electric_scooter", "fusion_lat": 0.0, "is_disabled": 0, "rental_uris": {"ios": "https://dc.lft.to/lastmile_qr_scan", "android": "https://dc.lft.to/lastmile_qr_scan"}, "bike_id": "7a0a6a9d859e6f14bd603012b4476db9", "lat": 38.91054583333333, "name": "7a0a6a9d859e6f14bd603012b4476db9", "lon": -77.04349533333334, "fusion_lon": 0.0}, {"is_reserved": 0, "type": "electric_scooter", "fusion_lat": 0.0, "is_disabled": 0, "rental_uris": {"ios": "https://dc.lft.to/lastmile_qr_scan", "android": "https://dc.lft.to/lastmile_qr_scan"}, "bike_id": "e8d5549e7575255cee4daafe4eb4dcc3", "lat": 38.938642333333334, "name": "e8d5549e7575255cee4daafe4eb4dcc3", "lon": -77.07237583333334, "fusion_lon": 0.0}, {"is_reserved": 0, "type": "electric_scooter", "fusion_lat": 0.0, "is_disabled": 0, "rental_uris": {"ios": "https://dc.lft.to/lastmile_qr_scan", "android": "https://dc.lft.to/lastmile_qr_scan"}, "bike_id": "b304896c72b745c1d397b7856f9d2621", "lat": 38.92052, "name": "b304896c72b745c1d397b7856f9d2621", "lon": -77.0166915, "fusion_lon": 0.0}, {"is_reserved": 0, "type": "electric_scooter", "fusion_lat": 0.0, "is_disabled": 0, "rental_uris": {"ios": "https://dc.lft.to/lastmile_qr_scan", "android": "https://dc.lft.to/lastmile_qr_scan"}, "bike_id": "2914c4a54940a6c7baa81102e21f5cdb", "lat": 38.89903133333333, "name": "2914c4a54940a6c7baa81102e21f5cdb", "lon": -77.0499415, "fusion_lon": 0.0}, {"is_reserved": 0, "type": "electric_scooter", "fusion_lat": 0.0, "is_disabled": 0, "rental_uris": {"ios": "https://dc.lft.to/lastmile_qr_scan", "android": "https://dc.lft.to/lastmile_qr_scan"}, "bike_id": "67c9a04ba3fd684b9fca251c0a00aa3e", "lat": 38.927165, "name": "67c9a04ba3fd684b9fca251c0a00aa3e", "lon": -77.04049483333333, "fusion_lon": 0.0}, {"is_reserved": 0, "type": "electric_scooter", "fusion_lat": 0.0, "is_disabled": 0, "rental_uris": {"ios": "https://dc.lft.to/lastmile_qr_scan", "android": "https://dc.lft.to/lastmile_qr_scan"}, "bike_id": "835e4b059328d9d5fe8e3779cbb91722", "lat": 38.922642, "name": "835e4b059328d9d5fe8e3779cbb91722", "lon": -77.03664433333333, "fusion_lon": 0.0}, {"is_reserved": 0, "type": "electric_bike", "fusion_lat": 0.0, "is_disabled": 0, "rental_uris": {"ios": "https://dc.lft.to/lastmile_qr_scan", "android": "https://dc.lft.to/lastmile_qr_scan"}, "bike_id": "4d0124f5005c5569707a9e5ce4c12685", "lat": 38.92289266666667, "name": "4d0124f5005c5569707a9e5ce4c12685", "lon": -76.99762316666667, "fusion_lon": 0.0}, {"is_reserved": 0, "type": "electric_bike", "fusion_lat": 0.0, "is_disabled": 0, "rental_uris": {"ios": "https://dc.lft.to/lastmile_qr_scan", "android": "https://dc.lft.to/lastmile_qr_scan"}, "bike_id": "fc6cca8a157c3e0bd468cdebd4fb36f4", "lat": 38.900906, "name": "fc6cca8a157c3e0bd468cdebd4fb36f4", "lon": -77.01875016666666, "fusion_lon": 0.0}, {"is_reserved": 0, "type": "electric_scooter", "fusion_lat": 0.0, "is_disabled": 0, "rental_uris": {"ios": "https://dc.lft.to/lastmile_qr_scan", "android": "https://dc.lft.to/lastmile_qr_scan"}, "bike_id": "a3fa900493f2ba0ce7229f7253512fce", "lat": 38.9182415, "name": "a3fa900493f2ba0ce7229f7253512fce", "lon": -77.02715583333334, "fusion_lon": 0.0}, {"is_reserved": 0, "type": "electric_scooter", "fusion_lat": 0.0, "is_disabled": 0, "rental_uris": {"ios": "https://dc.lft.to/lastmile_qr_scan", "android": "https://dc.lft.to/lastmile_qr_scan"}, "bike_id": "7937fe9a1953f4c452b3aecf2cc2ddbb", "lat": 38.899800166666665, "name": "7937fe9a1953f4c452b3aecf2cc2ddbb", "lon": -77.04183983333333, "fusion_lon": 0.0}, {"is_reserved": 0, "type": "electric_scooter", "fusion_lat": 0.0, "is_disabled": 0, "rental_uris": {"ios": "https://dc.lft.to/lastmile_qr_scan", "android": "https://dc.lft.to/lastmile_qr_scan"}, "bike_id": "fd48a2e8b660dd10134cc5f448eff806", "lat": 38.898812666666664, "name": "fd48a2e8b660dd10134cc5f448eff806", "lon": -77.021732, "fusion_lon": 0.0}, {"is_reserved": 0, "type": "electric_scooter", "fusion_lat": 0.0, "is_disabled": 0, "rental_uris": {"ios": "https://dc.lft.to/lastmile_qr_scan", "android": "https://dc.lft.to/lastmile_qr_scan"}, "bike_id": "7033fc1e9b963d537f6dfe71f882e1f9", "lat": 38.903865333333336, "name": "7033fc1e9b963d537f6dfe71f882e1f9", "lon": -77.0513705, "fusion_lon": 0.0}, {"is_reserved": 0, "type": "electric_scooter", "fusion_lat": 0.0, "is_disabled": 0, "rental_uris": {"ios": "https://dc.lft.to/lastmile_qr_scan", "android": "https://dc.lft.to/lastmile_qr_scan"}, "bike_id": "3d970ab86bdefb5ebd0ac081e3a072cf", "lat": 38.90240033333333, "name": "3d970ab86bdefb5ebd0ac081e3a072cf", "lon": -77.02652866666666, "fusion_lon": 0.0}, {"is_reserved": 0, "type": "electric_scooter", "fusion_lat": 0.0, "is_disabled": 0, "rental_uris": {"ios": "https://dc.lft.to/lastmile_qr_scan", "android": "https://dc.lft.to/lastmile_qr_scan"}, "bike_id": "97c24207c13ce596d7a295b79b2bc865", "lat": 38.923933166666664, "name": "97c24207c13ce596d7a295b79b2bc865", "lon": -77.051608, "fusion_lon": 0.0}, {"is_reserved": 0, "type": "electric_scooter", "fusion_lat": 0.0, "is_disabled": 0, "rental_uris": {"ios": "https://dc.lft.to/lastmile_qr_scan", "android": "https://dc.lft.to/lastmile_qr_scan"}, "bike_id": "557b2745114205065b5724a9ea45a78e", "lat": 38.8922135, "name": "557b2745114205065b5724a9ea45a78e", "lon": -77.0221855, "fusion_lon": 0.0}, {"is_reserved": 0, "type": "electric_scooter", "fusion_lat": 0.0, "is_disabled": 0, "rental_uris": {"ios": "https://dc.lft.to/lastmile_qr_scan", "android": "https://dc.lft.to/lastmile_qr_scan"}, "bike_id": "4ddf82d8415677f9f948d9b7bd625538", "lat": 38.91411816666667, "name": "4ddf82d8415677f9f948d9b7bd625538", "lon": -77.03332116666667, "fusion_lon": 0.0}, {"is_reserved": 0, "type": "electric_scooter", "fusion_lat": 0.0, "is_disabled": 0, "rental_uris": {"ios": "https://dc.lft.to/lastmile_qr_scan", "android": "https://dc.lft.to/lastmile_qr_scan"}, "bike_id": "b224e9b0dd69cdbe27db21babd928886", "lat": 38.92331183333334, "name": "b224e9b0dd69cdbe27db21babd928886", "lon": -77.00892783333333, "fusion_lon": 0.0}, {"is_reserved": 0, "type": "electric_scooter", "fusion_lat": 0.0, "is_disabled": 0, "rental_uris": {"ios": "https://dc.lft.to/lastmile_qr_scan", "android": "https://dc.lft.to/lastmile_qr_scan"}, "bike_id": "88316502796bee7fe4167ea9c0e62f2d", "lat": 38.89525883333334, "name": "88316502796bee7fe4167ea9c0e62f2d", "lon": -76.97725083333333, "fusion_lon": 0.0}, {"is_reserved": 0, "type": "electric_scooter", "fusion_lat": 0.0, "is_disabled": 0, "rental_uris": {"ios": "https://dc.lft.to/lastmile_qr_scan", "android": "https://dc.lft.to/lastmile_qr_scan"}, "bike_id": "341ec917e49ef89473fea7f3b7695d34", "lat": 38.876487166666664, "name": "341ec917e49ef89473fea7f3b7695d34", "lon": -77.0007285, "fusion_lon": 0.0}, {"is_reserved": 0, "type": "electric_scooter", "fusion_lat": 0.0, "is_disabled": 0, "rental_uris": {"ios": "https://dc.lft.to/lastmile_qr_scan", "android": "https://dc.lft.to/lastmile_qr_scan"}, "bike_id": "b5d51833c75af3d9d1c83f4875bd33e7", "lat": 38.89199216666667, "name": "b5d51833c75af3d9d1c83f4875bd33e7", "lon": -77.01546566666667, "fusion_lon": 0.0}, {"is_reserved": 0, "type": "electric_scooter", "fusion_lat": 0.0, "is_disabled": 0, "rental_uris": {"ios": "https://dc.lft.to/lastmile_qr_scan", "android": "https://dc.lft.to/lastmile_qr_scan"}, "bike_id": "55fc85613862d79a3b3f05c8d57dd182", "lat": 38.91801483333333, "name": "55fc85613862d79a3b3f05c8d57dd182", "lon": -77.04442533333334, "fusion_lon": 0.0}, {"is_reserved": 0, "type": "electric_scooter", "fusion_lat": 0.0, "is_disabled": 0, "rental_uris": {"ios": "https://dc.lft.to/lastmile_qr_scan", "android": "https://dc.lft.to/lastmile_qr_scan"}, "bike_id": "7d47bfe9ae56cac038fea6c057e866f4", "lat": 38.9023365, "name": "7d47bfe9ae56cac038fea6c057e866f4", "lon": -77.000607, "fusion_lon": 0.0}, {"is_reserved": 0, "type": "electric_scooter", "fusion_lat": 0.0, "is_disabled": 0, "rental_uris": {"ios": "https://dc.lft.to/lastmile_qr_scan", "android": "https://dc.lft.to/lastmile_qr_scan"}, "bike_id": "c06da21312ecebd89709c76b6289b9c0", "lat": 38.924166, "name": "c06da21312ecebd89709c76b6289b9c0", "lon": -77.0212545, "fusion_lon": 0.0}, {"is_reserved": 0, "type": "electric_scooter", "fusion_lat": 0.0, "is_disabled": 0, "rental_uris": {"ios": "https://dc.lft.to/lastmile_qr_scan", "android": "https://dc.lft.to/lastmile_qr_scan"}, "bike_id": "76752b985c90f8fc44dba32672155e6b", "lat": 38.8998055, "name": "76752b985c90f8fc44dba32672155e6b", "lon": -77.04496766666666, "fusion_lon": 0.0}, {"is_reserved": 0, "type": "electric_bike", "fusion_lat": 0.0, "is_disabled": 0, "rental_uris": {"ios": "https://dc.lft.to/lastmile_qr_scan", "android": "https://dc.lft.to/lastmile_qr_scan"}, "bike_id": "d5c29f3452225ce70906cf5ad40bf29e", "lat": 38.813362166666664, "name": "d5c29f3452225ce70906cf5ad40bf29e", "lon": -77.05115333333333, "fusion_lon": 0.0}, {"is_reserved": 0, "type": "electric_scooter", "fusion_lat": 0.0, "is_disabled": 0, "rental_uris": {"ios": "https://dc.lft.to/lastmile_qr_scan", "android": "https://dc.lft.to/lastmile_qr_scan"}, "bike_id": "f85a243fd71ee36a077beb40dc6d2132", "lat": 38.877138, "name": "f85a243fd71ee36a077beb40dc6d2132", "lon": -77.01731583333333, "fusion_lon": 0.0}, {"is_reserved": 0, "type": "electric_scooter", "fusion_lat": 0.0, "is_disabled": 0, "rental_uris": {"ios": "https://dc.lft.to/lastmile_qr_scan", "android": "https://dc.lft.to/lastmile_qr_scan"}, "bike_id": "168a65d509b394817026f7aa3868cd76", "lat": 38.89931166666667, "name": "168a65d509b394817026f7aa3868cd76", "lon": -77.03231733333334, "fusion_lon": 0.0}, {"is_reserved": 0, "type": "electric_scooter", "fusion_lat": 0.0, "is_disabled": 0, "rental_uris": {"ios": "https://dc.lft.to/lastmile_qr_scan", "android": "https://dc.lft.to/lastmile_qr_scan"}, "bike_id": "abe231b8785b0ca476a14f38b4cb10c9", "lat": 38.9482265, "name": "abe231b8785b0ca476a14f38b4cb10c9", "lon": -77.026109, "fusion_lon": 0.0}, {"is_reserved": 0, "type": "electric_scooter", "fusion_lat": 0.0, "is_disabled": 0, "rental_uris": {"ios": "https://dc.lft.to/lastmile_qr_scan", "android": "https://dc.lft.to/lastmile_qr_scan"}, "bike_id": "2025c59353121c46b4b78010b89e040c", "lat": 38.90067966666667, "name": "2025c59353121c46b4b78010b89e040c", "lon": -77.043636, "fusion_lon": 0.0}, {"is_reserved": 0, "type": "electric_scooter", "fusion_lat": 0.0, "is_disabled": 0, "rental_uris": {"ios": "https://dc.lft.to/lastmile_qr_scan", "android": "https://dc.lft.to/lastmile_qr_scan"}, "bike_id": "48fb79c38b1b9c29601545445d131d1d", "lat": 38.933913, "name": "48fb79c38b1b9c29601545445d131d1d", "lon": -77.07387183333333, "fusion_lon": 0.0}, {"is_reserved": 0, "type": "electric_scooter", "fusion_lat": 0.0, "is_disabled": 0, "rental_uris": {"ios": "https://dc.lft.to/lastmile_qr_scan", "android": "https://dc.lft.to/lastmile_qr_scan"}, "bike_id": "77d381fd15b608331e5cd8cc583b499f", "lat": 38.92229916666667, "name": "77d381fd15b608331e5cd8cc583b499f", "lon": -76.97531766666667, "fusion_lon": 0.0}, {"is_reserved": 0, "type": "electric_scooter", "fusion_lat": 0.0, "is_disabled": 0, "rental_uris": {"ios": "https://dc.lft.to/lastmile_qr_scan", "android": "https://dc.lft.to/lastmile_qr_scan"}, "bike_id": "027e1bda03e345550fd9b7f510bd32bd", "lat": 38.892233833333336, "name": "027e1bda03e345550fd9b7f510bd32bd", "lon": -77.04366333333333, "fusion_lon": 0.0}, {"is_reserved": 0, "type": "electric_scooter", "fusion_lat": 0.0, "is_disabled": 0, "rental_uris": {"ios": "https://dc.lft.to/lastmile_qr_scan", "android": "https://dc.lft.to/lastmile_qr_scan"}, "bike_id": "b5cc317e9a8ab78a87657ee7f50d935f", "lat": 38.92668483333333, "name": "b5cc317e9a8ab78a87657ee7f50d935f", "lon": -77.02708866666667, "fusion_lon": 0.0}, {"is_reserved": 0, "type": "electric_scooter", "fusion_lat": 0.0, "is_disabled": 0, "rental_uris": {"ios": "https://dc.lft.to/lastmile_qr_scan", "android": "https://dc.lft.to/lastmile_qr_scan"}, "bike_id": "c5cad237d391071d77274b2af590f579", "lat": 38.93094383333333, "name": "c5cad237d391071d77274b2af590f579", "lon": -77.0361925, "fusion_lon": 0.0}, {"is_reserved": 0, "type": "electric_scooter", "fusion_lat": 0.0, "is_disabled": 0, "rental_uris": {"ios": "https://dc.lft.to/lastmile_qr_scan", "android": "https://dc.lft.to/lastmile_qr_scan"}, "bike_id": "e2973d6043ba39d19f5179fdba549450", "lat": 38.93868366666667, "name": "e2973d6043ba39d19f5179fdba549450", "lon": -77.078249, "fusion_lon": 0.0}, {"is_reserved": 0, "type": "electric_scooter", "fusion_lat": 0.0, "is_disabled": 0, "rental_uris": {"ios": "https://dc.lft.to/lastmile_qr_scan", "android": "https://dc.lft.to/lastmile_qr_scan"}, "bike_id": "83b0889832d91a8bc7f42d47d6a958ac", "lat": 38.92693666666667, "name": "83b0889832d91a8bc7f42d47d6a958ac", "lon": -77.02293266666666, "fusion_lon": 0.0}, {"is_reserved": 0, "type": "electric_scooter", "fusion_lat": 0.0, "is_disabled": 0, "rental_uris": {"ios": "https://dc.lft.to/lastmile_qr_scan", "android": "https://dc.lft.to/lastmile_qr_scan"}, "bike_id": "025914e056892f568262f2bcfc3badab", "lat": 38.91784833333333, "name": "025914e056892f568262f2bcfc3badab", "lon": -77.023927, "fusion_lon": 0.0}, {"is_reserved": 0, "type": "electric_scooter", "fusion_lat": 0.0, "is_disabled": 0, "rental_uris": {"ios": "https://dc.lft.to/lastmile_qr_scan", "android": "https://dc.lft.to/lastmile_qr_scan"}, "bike_id": "94a86ffb3dbcf621f93cd7d099adf4f5", "lat": 38.92886466666667, "name": "94a86ffb3dbcf621f93cd7d099adf4f5", "lon": -77.0373885, "fusion_lon": 0.0}, {"is_reserved": 0, "type": "electric_scooter", "fusion_lat": 0.0, "is_disabled": 0, "rental_uris": {"ios": "https://dc.lft.to/lastmile_qr_scan", "android": "https://dc.lft.to/lastmile_qr_scan"}, "bike_id": "b668044dcc879a0c606e8ebf0a39716b", "lat": 38.942047333333335, "name": "b668044dcc879a0c606e8ebf0a39716b", "lon": -77.01341583333334, "fusion_lon": 0.0}, {"is_reserved": 0, "type": "electric_scooter", "fusion_lat": 0.0, "is_disabled": 0, "rental_uris": {"ios": "https://dc.lft.to/lastmile_qr_scan", "android": "https://dc.lft.to/lastmile_qr_scan"}, "bike_id": "3918ebf536503315ac5609ae068dac1f", "lat": 38.897822833333336, "name": "3918ebf536503315ac5609ae068dac1f", "lon": -77.0502765, "fusion_lon": 0.0}, {"is_reserved": 0, "type": "electric_scooter", "fusion_lat": 0.0, "is_disabled": 0, "rental_uris": {"ios": "https://dc.lft.to/lastmile_qr_scan", "android": "https://dc.lft.to/lastmile_qr_scan"}, "bike_id": "8984859d99b51b499b6f0aea8804bd54", "lat": 38.89219166666667, "name": "8984859d99b51b499b6f0aea8804bd54", "lon": -77.025392, "fusion_lon": 0.0},