{"data": {"bikes": [{"is_reserved": 0, "type": "electric_scooter", "bike_id": "43781f6116f9f5ce67b609042d7036c6", "lat": 38.903549166666664, "lon": -77.01095116666667, "rental_uris": {"android": "https://dc.lft.to/lastmile_qr_scan", "ios": "https://dc.lft.to/lastmile_qr_scan"}, "is_disabled": 0, "fusion_lat": 0.0, "name": "43781f6116f9f5ce67b609042d7036c6", "fusion_lon": 0.0}, {"is_reserved": 0, "type": "electric_scooter", "bike_id": "79e503a2700a9d300a7935ee6f90474d", "lat": 38.937562166666666, "lon": -77.03153216666666, "rental_uris": {"android": "https://dc.lft.to/lastmile_qr_scan", "ios": "https://dc.lft.to/lastmile_qr_scan"}, "is_disabled": 0, "fusion_lat": 0.0, "name": "79e503a2700a9d300a7935ee6f90474d", "fusion_lon": 0.0}, {"is_reserved": 0, "type": "electric_scooter", "bike_id": "8b10c5252607fdf42528692071cddc4f", "lat": 38.90982833333333, "lon": -77.033331, "rental_uris": {"android": "https://dc.lft.to/lastmile_qr_scan", "ios": "https://dc.lft.to/lastmile_qr_scan"}, "is_disabled": 0, "fusion_lat": 0.0, "name": "8b10c5252607fdf42528692071cddc4f", "fusion_lon": 0.0}, {"is_reserved": 0, "type": "electric_scooter", "bike_id": "92e690d773a5fb499906c78e55657877", "lat": 38.9403165, "lon": -77.0264225, "rental_uris": {"android": "https://dc.lft.to/lastmile_qr_scan", "ios": "https://dc.lft.to/lastmile_qr_scan"}, "is_disabled": 0, "fusion_lat": 0.0, "name": "92e690d773a5fb499906c78e55657877", "fusion_lon": 0.0}, {"is_reserved": 0, "type": "electric_scooter", "bike_id": "f7b02e9198a8c31600aa4378bb3ada9a", "lat": 38.928517166666666, "lon": -77.03253916666667, "rental_uris": {"android": "https://dc.lft.to/lastmile_qr_scan", "ios": "https://dc.lft.to/lastmile_qr_scan"}, "is_disabled": 0, "fusion_lat": 0.0, "name": "f7b02e9198a8c31600aa4378bb3ada9a", "fusion_lon": 0.0}, {"is_reserved": 0, "type": "electric_scooter", "bike_id": "3a8dadc9e8c2af1ab72f1e7d56a82004", "lat": 38.9006395, "lon": -76.98654833333333, "rental_uris": {"android": "https://dc.lft.to/lastmile_qr_scan", "ios": "https://dc.lft.to/lastmile_qr_scan"}, "is_disabled": 0, "fusion_lat": 0.0, "name": "3a8dadc9e8c2af1ab72f1e7d56a82004", "fusion_lon": 0.0}, {"is_reserved": 0, "type": "electric_scooter", "bike_id": "45dbcfe6e0045744660391483114ce14", "lat": 38.93170216666667, "lon": -77.02351216666666, "rental_uris": {"android": "https://dc.lft.to/lastmile_qr_scan", "ios": "https://dc.lft.to/lastmile_qr_scan"}, "is_disabled": 0, "fusion_lat": 0.0, "name": "45dbcfe6e0045744660391483114ce14", "fusion_lon": 0.0}, {"is_reserved": 0, "type": "electric_scooter", "bike_id": "04072bb1ce6753715a94ad11ff04f37e", "lat": 38.934626, "lon": -77.0224495, "rental_uris": {"android": "https://dc.lft.to/lastmile_qr_scan", "ios": "https://dc.lft.to/lastmile_qr_scan"}, "is_disabled": 0, "fusion_lat": 0.0, "name": "04072bb1ce6753715a94ad11ff04f37e", "fusion_lon": 0.0}, {"is_reserved": 0, "type": "electric_scooter", "bike_id": "1e6a2b9755466ffc632cdea18f5c5c55", "lat": 38.86431433333333, "lon": -76.998621, "rental_uris": {"android": "https://dc.lft.to/lastmile_qr_scan", "ios": "https://dc.lft.to/lastmile_qr_scan"}, "is_disabled": 0, "fusion_lat": 0.0, "name": "1e6a2b9755466ffc632cdea18f5c5c55", "fusion_lon": 0.0}, {"is_reserved": 0, "type": "electric_scooter", "bike_id": "1d55fe7a6a442eedec2e9b95ec75fd07", "lat": 38.945195166666664, "lon": -77.02980416666666, "rental_uris": {"android": "https://dc.lft.to/lastmile_qr_scan", "ios": "https://dc.lft.to/lastmile_qr_scan"}, "is_disabled": 0, "fusion_lat": 0.0, "name": "1d55fe7a6a442eedec2e9b95ec75fd07", "fusion_lon": 0.0}, {"is_reserved": 0, "type": "electric_scooter", "bike_id": "7e8c5a643143947f557045c759674ad0", "lat": 38.91221133333333, "lon": -76.98706616666666, "rental_uris": {"android": "https://dc.lft.to/lastmile_qr_scan", "ios": "https://dc.lft.to/lastmile_qr_scan"}, "is_disabled": 0, "fusion_lat": 0.0, "name": "7e8c5a643143947f557045c759674ad0", "fusion_lon": 0.0}, {"is_reserved": 0, "type": "electric_scooter", "bike_id": "f19d042f4795457e7718a99b77983a70", "lat": 38.923710166666666, "lon": -77.019183, "rental_uris": {"android": "https://dc.lft.to/lastmile_qr_scan", "ios": "https://dc.lft.to/lastmile_qr_scan"}, "is_disabled": 0, "fusion_lat": 0.0, "name": "f19d042f4795457e7718a99b77983a70", "fusion_lon": 0.0}, {"is_reserved": 0, "type": "electric_scooter", "bike_id": "1b51f2b0b3f2166584340ae13caf6332", "lat": 38.930593333333334, "lon": -77.02966716666667, "rental_uris": {"android": "https://dc.lft.to/lastmile_qr_scan", "ios": "https://dc.lft.to/lastmile_qr_scan"}, "is_disabled": 0, "fusion_lat": 0.0, "name": "1b51f2b0b3f2166584340ae13caf6332", "fusion_lon": 0.0}, {"is_reserved": 0, "type": "electric_scooter", "bike_id": "156533ae8326da682cb1be1ea5b20061", "lat": 38.903985, "lon": -77.00205216666667, "rental_uris": {"android": "https://dc.lft.to/lastmile_qr_scan", "ios": "https://dc.lft.to/lastmile_qr_scan"}, "is_disabled": 0, "fusion_lat": 0.0, "name": "156533ae8326da682cb1be1ea5b20061", "fusion_lon": 0.0}, {"is_reserved": 0, "type": "electric_scooter", "bike_id": "da5048d11af57f9a9d6f40e164377ff4", "lat": 38.89766916666667, "lon": -77.00902266666667, "rental_uris": {"android": "https://dc.lft.to/lastmile_qr_scan", "ios": "https://dc.lft.to/lastmile_qr_scan"}, "is_disabled": 0, "fusion_lat": 0.0, "name": "da5048d11af57f9a9d6f40e164377ff4", "fusion_lon": 0.0}, {"is_reserved": 0, "type": "electric_scooter", "bike_id": "ef22cbdfab550dc9996c1f271154bbe6", "lat": 38.92171833333333, "lon": -77.04352933333334, "rental_uris": {"android": "https://dc.lft.to/lastmile_qr_scan", "ios": "https://dc.lft.to/lastmile_qr_scan"}, "is_disabled": 0, "fusion_lat": 0.0, "name": "ef22cbdfab550dc9996c1f271154bbe6", "fusion_lon": 0.0}, {"is_reserved": 0, "type": "electric_scooter", "bike_id": "e442d5483bd9cdc0084def73a9704b41", "lat": 38.95153083333334, "lon": -77.01868366666666, "rental_uris": {"android": "https://dc.lft.to/lastmile_qr_scan", "ios": "https://dc.lft.to/lastmile_qr_scan"}, "is_disabled": 0, "fusion_lat": 0.0, "name": "e442d5483bd9cdc0084def73a9704b41", "fusion_lon": 0.0}, {"is_reserved": 0, "type": "electric_scooter", "bike_id": "8aa8407d6d713af1c1f64cd0592ce54e", "lat": 38.90240883333333, "lon": -77.05900433333333, "rental_uris": {"android": "https://dc.lft.to/lastmile_qr_scan", "ios": "https://dc.lft.to/lastmile_qr_scan"}, "is_disabled": 0, "fusion_lat": 0.0, "name": "8aa8407d6d713af1c1f64cd0592ce54e", "fusion_lon": 0.0}, {"is_reserved": 0, "type": "electric_scooter", "bike_id": "d1d1b3f5f585654a1a7578ba040e2bf3", "lat": 38.914927, "lon": -77.018593, "rental_uris": {"android": "https://dc.lft.to/lastmile_qr_scan", "ios": "https://dc.lft.to/lastmile_qr_scan"}, "is_disabled": 0, "fusion_lat": 0.0, "name": "d1d1b3f5f585654a1a7578ba040e2bf3", "fusion_lon": 0.0}, {"is_reserved": 0, "type": "electric_scooter", "bike_id": "f549f8ad9fdee22dd791c09e17062e1a", "lat": 38.91564316666667, "lon": -77.01164933333334, "rental_uris": {"android": "https://dc.lft.to/lastmile_qr_scan", "ios": "https://dc.lft.to/lastmile_qr_scan"}, "is_disabled": 0, "fusion_lat": 0.0, "name": "f549f8ad9fdee22dd791c09e17062e1a", "fusion_lon": 0.0}, {"is_reserved": 0, "type": "electric_scooter", "bike_id": "f6566a8a4e88556489a439d0ff584b7d", "lat": 38.8989505, "lon": -77.0217185, "rental_uris": {"android": "https://dc.lft.to/lastmile_qr_scan", "ios": "https://dc.lft.to/lastmile_qr_scan"}, "is_disabled": 0, "fusion_lat": 0.0, "name": "f6566a8a4e88556489a439d0ff584b7d", "fusion_lon": 0.0}, {"is_reserved": 0, "type": "electric_scooter", "bike_id": "0e12bb528e039dded6263326fc780a29", "lat": 38.896042333333334, "lon": -77.04689066666667, "rental_uris": {"android": "https://dc.lft.to/lastmile_qr_scan", "ios": "https://dc.lft.to/lastmile_qr_scan"}, "is_disabled": 0, "fusion_lat": 0.0, "name": "0e12bb528e039dded6263326fc780a29", "fusion_lon": 0.0}, {"is_reserved": 0, "type": "electric_bike", "bike_id": "f6eb9f7cce53ca6bd6be43d9a52ba1a1", "lat": 38.88785283333333, "lon": -76.92344766666666, "rental_uris": {"android": "https://dc.lft.to/lastmile_qr_scan", "ios": "https://dc.lft.to/lastmile_qr_scan"}, "is_disabled": 0, "fusion_lat": 0.0, "name": "f6eb9f7cce53ca6bd6be43d9a52ba1a1", "fusion_lon": 0.0}, {"is_reserved": 0, "type": "electric_scooter", "bike_id": "0cca561fb34ecdf7486924d94fe74859", "lat": 38.974972, "lon": -77.01698866666666, "rental_uris": {"android": "https://dc.lft.to/lastmile_qr_scan", "ios": "https://dc.lft.to/lastmile_qr_scan"}, "is_disabled": 0, "fusion_lat": 0.0, "name": "0cca561fb34ecdf7486924d94fe74859", "fusion_lon": 0.0}, {"is_reserved": 0, "type": "electric_scooter", "bike_id": "bfa17f5216b855b66c55be9e0b803087", "lat": 38.90223666666667, "lon": -77.0292025, "rental_uris": {"android": "https://dc.lft.to/lastmile_qr_scan", "ios": "https://dc.lft.to/lastmile_qr_scan"}, "is_disabled": 0, "fusion_lat": 0.0, "name": "bfa17f5216b855b66c55be9e0b803087", "fusion_lon": 0.0}, {"is_reserved": 0, "type": "electric_scooter", "bike_id": "0b2e004d1eee305fb5c0851e5610a9c4", "lat": 38.9206595, "lon": -76.98079583333333, "rental_uris": {"android": "https://dc.lft.to/lastmile_qr_scan", "ios": "https://dc.lft.to/lastmile_qr_scan"}, "is_disabled": 0, "fusion_lat": 0.0, "name": "0b2e004d1eee305fb5c0851e5610a9c4", "fusion_lon": 0.0}, {"is_reserved": 0, "type": "electric_scooter", "bike_id": "6881e16cc721cf864906d9fae7b5c15a", "lat": 38.89731883333333, "lon": -77.05476366666667, "rental_uris": {"android": "https://dc.lft.to/lastmile_qr_scan", "ios": "https://dc.lft.to/lastmile_qr_scan"}, "is_disabled": 0, "fusion_lat": 0.0, "name": "6881e16cc721cf864906d9fae7b5c15a", "fusion_lon": 0.0}, {"is_reserved": 0, "type": "electric_scooter", "bike_id": "fa1c9240d8e2ca196bfe8cf3e3e5c206", "lat": 38.90066133333333, "lon": -77.0453375, "rental_uris": {"android": "https://dc.lft.to/lastmile_qr_scan", "ios": "https://dc.lft.to/lastmile_qr_scan"}, "is_disabled": 0, "fusion_lat": 0.0, "name": "fa1c9240d8e2ca196bfe8cf3e3e5c206", "fusion_lon": 0.0}, {"is_reserved": 0, "type": "electric_scooter", "bike_id": "4d09f36b78dc496d0f725c46f0552a85", "lat": 38.9176045, "lon": -77.01157883333333, "rental_uris": {"android": "https://dc.lft.to/lastmile_qr_scan", "ios": "https://dc.lft.to/lastmile_qr_scan"}, "is_disabled": 0, "fusion_lat": 0.0, "name": "4d09f36b78dc496d0f725c46f0552a85", "fusion_lon": 0.0}, {"is_reserved": 0, "type": "electric_scooter", "bike_id": "774e55171599fc57d33396dd4c50b65b", "lat": 38.91332466666667, "lon": -77.0480185, "rental_uris": {"android": "https://dc.lft.to/lastmile_qr_scan", "ios": "https://dc.lft.to/lastmile_qr_scan"}, "is_disabled": 0, "fusion_lat": 0.0, "name": "774e55171599fc57d33396dd4c50b65b", "fusion_lon": 0.0}, {"is_reserved": 0, "type": "electric_bike", "bike_id": "32c260489af7db38455dee0f71a85e71", "lat": 38.958706666666664, "lon": -76.97052416666666, "rental_uris": {"android": "https://dc.lft.to/lastmile_qr_scan", "ios": "https://dc.lft.to/lastmile_qr_scan"}, "is_disabled": 0, "fusion_lat": 0.0, "name": "32c260489af7db38455dee0f71a85e71", "fusion_lon": 0.0}, {"is_reserved": 0, "type": "electric_scooter", "bike_id": "b1bd0028b2e0d7abfb23b293306166ec", "lat": 38.9015555, "lon": -77.02982583333333, "rental_uris": {"android": "https://dc.lft.to/lastmile_qr_scan", "ios": "https://dc.lft.to/lastmile_qr_scan"}, "is_disabled": 0, "fusion_lat": 0.0, "name": "b1bd0028b2e0d7abfb23b293306166ec", "fusion_lon": 0.0}, {"is_reserved": 0, "type": "electric_scooter", "bike_id": "2efd9074ca426eeb741dbf51007de8c6", "lat": 38.9312045, "lon": -77.023143, "rental_uris": {"android": "https://dc.lft.to/lastmile_qr_scan", "ios": "https://dc.lft.to/lastmile_qr_scan"}, "is_disabled": 0, "fusion_lat": 0.0, "name": "2efd9074ca426eeb741dbf51007de8c6", "fusion_lon": 0.0}, {"is_reserved": 0, "type": "electric_scooter", "bike_id": "ff0d7d7baf29e165c068ed02fef20d20", "lat": 38.93232916666667, "lon": -76.99755033333334, "rental_uris": {"android": "https://dc.lft.to/lastmile_qr_scan", "ios": "https://dc.lft.to/lastmile_qr_scan"}, "is_disabled": 0, "fusion_lat": 0.0, "name": "ff0d7d7baf29e165c068ed02fef20d20", "fusion_lon": 0.0}, {"is_reserved": 0, "type": "electric_bike", "bike_id": "7be9632be689d586cda07fe2dcb70b19", "lat": 38.84107083333333, "lon": -77.0893945, "rental_uris": {"android": "https://dc.lft.to/lastmile_qr_scan", "ios": "https://dc.lft.to/lastmile_qr_scan"}, "is_disabled": 0, "fusion_lat": 0.0, "name": "7be9632be689d586cda07fe2dcb70b19", "fusion_lon": 0.0}, {"is_reserved": 0, "type": "electric_scooter", "bike_id": "5269179ae9eae64bad70e4923ad987aa", "lat": 38.91002733333333, "lon": -76.99416633333334, "rental_uris": {"android": "https://dc.lft.to/lastmile_qr_scan", "ios": "https://dc.lft.to/lastmile_qr_scan"}, "is_disabled": 0, "fusion_lat": 0.0, "name": "5269179ae9eae64bad70e4923ad987aa", "fusion_lon": 0.0}, {"is_reserved": 0, "type": "electric_scooter", "bike_id": "a87d19a0d044d7e631ce79a9817312f2", "lat": 38.896174333333335, "lon": -76.9973275, "rental_uris": {"android": "https://dc.lft.to/lastmile_qr_scan", "ios": "https://dc.lft.to/lastmile_qr_scan"}, "is_disabled": 0, "fusion_lat": 0.0, "name": "a87d19a0d044d7e631ce79a9817312f2", "fusion_lon": 0.0}, {"is_reserved": 0, "type": "electric_scooter", "bike_id": "c70853a64ef4605ab89457f1f3ce67f6", "lat": 38.91005533333333, "lon": -77.024075, "rental_uris": {"android": "https://dc.lft.to/lastmile_qr_scan", "ios": "https://dc.lft.to/lastmile_qr_scan"}, "is_disabled": 0, "fusion_lat": 0.0, "name": "c70853a64ef4605ab89457f1f3ce67f6", "fusion_lon": 0.0}, {"is_reserved": 0, "type": "electric_scooter", "bike_id": "f7a5c1942f5657cd8141649e314f68b5", "lat": 38.882977333333336, "lon": -76.9485425, "rental_uris": {"android": "https://dc.lft.to/lastmile_qr_scan", "ios": "https://dc.lft.to/lastmile_qr_scan"}, "is_disabled": 0, "fusion_lat": 0.0, "name": "f7a5c1942f5657cd8141649e314f68b5", "fusion_lon": 0.0}, {"is_reserved": 0, "type": "electric_scooter", "bike_id": "292730bbd17d1628316b60cfa8a806bc", "lat": 38.923941, "lon": -77.0506935, "rental_uris": {"android": "https://dc.lft.to/lastmile_qr_scan", "ios": "https://dc.lft.to/lastmile_qr_scan"}, "is_disabled": 0, "fusion_lat": 0.0, "name": "292730bbd17d1628316b60cfa8a806bc", "fusion_lon": 0.0}, {"is_reserved": 0, "type": "electric_scooter", "bike_id": "4bbc9ebd12b9bd285bf0180a9d61c581", "lat": 38.918092666666666, "lon": -77.04548183333333, "rental_uris": {"android": "https://dc.lft.to/lastmile_qr_scan", "ios": "https://dc.lft.to/lastmile_qr_scan"}, "is_disabled": 0, "fusion_lat": 0.0, "name": "4bbc9ebd12b9bd285bf0180a9d61c581", "fusion_lon": 0.0}, {"is_reserved": 0, "type": "electric_scooter", "bike_id": "504db54030f12804328127708b9c92d7", "lat": 38.883744166666666, "lon": -76.99518183333333, "rental_uris": {"android": "https://dc.lft.to/lastmile_qr_scan", "ios": "https://dc.lft.to/lastmile_qr_scan"}, "is_disabled": 0, "fusion_lat": 0.0, "name": "504db54030f12804328127708b9c92d7", "fusion_lon": 0.0}, {"is_reserved": 0, "type": "electric_scooter", "bike_id": "5ee844e9e8cc73e5a0a33dc0f3aa3fed", "lat": 38.879386, "lon": -77.0166515, "rental_uris": {"android": "https://dc.lft.to/lastmile_qr_scan", "ios": "https://dc.lft.to/lastmile_qr_scan"}, "is_disabled": 0, "fusion_lat": 0.0, "name": "5ee844e9e8cc73e5a0a33dc0f3aa3fed", "fusion_lon": 0.0}, {"is_reserved": 0, "type": "electric_scooter", "bike_id": "138686bfe11f16e974486b990a87a5e0", "lat": 38.874708, "lon": -77.005491, "rental_uris": {"android": "https://dc.lft.to/lastmile_qr_scan", "ios": "https://dc.lft.to/lastmile_qr_scan"}, "is_disabled": 0, "fusion_lat": 0.0, "name": "138686bfe11f16e974486b990a87a5e0", "fusion_lon": 0.0}, {"is_reserved": 0, "type": "electric_bike", "bike_id": "47e879e576984023b9fcd03c138495d2", "lat": 38.9456415, "lon": -76.95840866666667, "rental_uris": {"android": "https://dc.lft.to/lastmile_qr_scan", "ios": "https://dc.lft.to/lastmile_qr_scan"}, "is_disabled": 0, "fusion_lat": 0.0, "name": "47e879e576984023b9fcd03c138495d2", "fusion_lon": 0.0}, {"is_reserved": 0, "type": "electric_scooter", "bike_id": "51b56e92c0357008a15e4ab1aa98b275", "lat": 38.92378733333334, "lon": -77.02881666666667, "rental_uris": {"android": "https://dc.lft.to/lastmile_qr_scan", "ios": "https://dc.lft.to/lastmile_qr_scan"}, "is_disabled": 0, "fusion_lat": 0.0, "name": "51b56e92c0357008a15e4ab1aa98b275", "fusion_lon": 0.0}, {"is_reserved": 0, "type": "electric_scooter", "bike_id": "fe9b2186a6d0f990baf0c3ad208feff7", "lat": 38.912442666666664, "lon": -77.0476605, "rental_uris": {"android": "https://dc.lft.to/lastmile_qr_scan", "ios": "https://dc.lft.to/lastmile_qr_scan"}, "is_disabled": 0, "fusion_lat": 0.0, "name": "fe9b2186a6d0f990baf0c3ad208feff7", "fusion_lon": 0.0}, {"is_reserved": 0, "type": "electric_scooter", "bike_id": "b6c3ad3a7b9a380b7bb777269a004ea0", "lat": 38.8994305, "lon": -76.98202766666667, "rental_uris": {"android": "https://dc.lft.to/lastmile_qr_scan", "ios": "https://dc.lft.to/lastmile_qr_scan"}, "is_disabled": 0, "fusion_lat": 0.0, "name": "b6c3ad3a7b9a380b7bb777269a004ea0", "fusion_lon": 0.0}, {"is_reserved": 0, "type": "electric_scooter", "bike_id": "3397efc5711b5e313be751c212d61a38", "lat": 38.96412733333333, "lon": -77.03279033333334, "rental_uris": {"android": "https://dc.lft.to/lastmile_qr_scan", "ios": "https://dc.lft.to/lastmile_qr_scan"}, "is_disabled": 0, "fusion_lat": 0.0, "name": "3397efc5711b5e313be751c212d61a38", "fusion_lon": 0.0}, {"is_reserved": 0, "type": "electric_bike", "bike_id": "910bcb5f8a062de6776e2665163b7985", "lat": 38.88399583333333, "lon": -76.96056666666667, "rental_uris": {"android": "https://dc.lft.to/lastmile_qr_scan", "ios": "https://dc.lft.to/lastmile_qr_scan"}, "is_disabled": 0, "fusion_lat": 0.0, "name": "910bcb5f8a062de6776e2665163b7985", "fusion_lon": 0.0}, {"is_reserved": 0, "type": "electric_scooter", "bike_id": "2d7c1ae6b368f222f54d536f3c547504", "lat": 38.9236305, "lon": -77.05131216666666, "rental_uris": {"android": "https://dc.lft.to/lastmile_qr_scan", "ios": "https://dc.lft.to/lastmile_qr_scan"}, "is_disabled": 0, "fusion_lat": 0.0, "name": "2d7c1ae6b368f222f54d536f3c547504", "fusion_lon": 0.0}, {"is_reserved": 0, "type": "electric_scooter", "bike_id": "b086bd7460a2bc0cb30ad415c784f4ff", "lat": 38.903626833333334, "lon": -76.9994575, "rental_uris": {"android": "https://dc.lft.to/lastmile_qr_scan", "ios": "https://dc.lft.to/lastmile_qr_scan"}, "is_disabled": 0, "fusion_lat": 0.0, "name": "b086bd7460a2bc0cb30ad415c784f4ff", "fusion_lon": 0.0}, {"is_reserved": 0, "type": "electric_scooter", "bike_id": "ffdccd449e99f3d0fef9bc92a8a5ac58", "lat": 38.9012795, "lon": -77.039017, "rental_uris": {"android": "https://dc.lft.to/lastmile_qr_scan", "ios": "https://dc.lft.to/lastmile_qr_scan"}, "is_disabled": 0, "fusion_lat": 0.0, "name": "ffdccd449e99f3d0fef9bc92a8a5ac58", "fusion_lon": 0.0}, {"is_reserved": 0, "type": "electric_scooter", "bike_id": "222c9adb131f98838d851578c5afb7d7", "lat": 38.93316816666667, "lon": -77.03237866666667, "rental_uris": {"android": "https://dc.lft.to/lastmile_qr_scan", "ios": "https://dc.lft.to/lastmile_qr_scan"}, "is_disabled": 0, "fusion_lat": 0.0, "name": "222c9adb131f98838d851578c5afb7d7", "fusion_lon": 0.0}, {"is_reserved": 0, "type": "electric_scooter", "bike_id": "068f57a8cae126dc0eb5a610145a1463", "lat": 38.917131833333336, "lon": -77.03604933333334, "rental_uris": {"android": "https://dc.lft.to/lastmile_qr_scan", "ios": "https://dc.lft.to/lastmile_qr_scan"}, "is_disabled": 0, "fusion_lat": 0.0, "name": "068f57a8cae126dc0eb5a610145a1463", "fusion_lon": 0.0}, {"is_reserved": 0, "type": "electric_bike", "bike_id": "9bb572852d383439e6f464fcacad1dea", "lat": 38.78398766666667, "lon": -77.12072816666667, "rental_uris": {"android": "https://dc.lft.to/lastmile_qr_scan", "ios": "https://dc.lft.to/lastmile_qr_scan"}, "is_disabled": 0, "fusion_lat": 0.0, "name": "9bb572852d383439e6f464fcacad1dea", "fusion_lon": 0.0}, {"is_reserved": 0, "type": "electric_scooter", "bike_id": "d2473907bd9c568bc7494d2db2ba04ab", "lat": 38.92834166666667, "lon": -77.02600016666666, "rental_uris": {"android": "https://dc.lft.to/lastmile_qr_scan", "ios": "https://dc.lft.to/lastmile_qr_scan"}, "is_disabled": 0, "fusion_lat": 0.0, "name": "d2473907bd9c568bc7494d2db2ba04ab", "fusion_lon": 0.0}, {"is_reserved": 0, "type": "electric_scooter", "bike_id": "1827fe4c938c5d55f037757b664e832d", "lat": 38.9038605, "lon": -77.03135, "rental_uris": {"android": "https://dc.lft.to/lastmile_qr_scan", "ios": "https://dc.lft.to/lastmile_qr_scan"}, "is_disabled": 0, "fusion_lat": 0.0, "name": "1827fe4c938c5d55f037757b664e832d", "fusion_lon": 0.0}, {"is_reserved": 0, "type": "electric_bike", "bike_id": "d13dc2e278794b465c7f95b696776f7c", "lat": 38.95085433333333, "lon": -77.0122785, "rental_uris": {"android": "https://dc.lft.to/lastmile_qr_scan", "ios": "https://dc.lft.to/lastmile_qr_scan"}, "is_disabled": 0, "fusion_lat": 0.0, "name": "d13dc2e278794b465c7f95b696776f7c", "fusion_lon": 0.0}, {"is_reserved": 0, "type": "electric_scooter", "bike_id": "1711ba32767deebf3f807fd0d9f32f61", "lat": 38.88324816666667, "lon": -77.00950183333333, "rental_uris": {"android": "https://dc.lft.to/lastmile_qr_scan", "ios": "https://dc.lft.to/lastmile_qr_scan"}, "is_disabled": 0, "fusion_lat": 0.0, "name": "1711ba32767deebf3f807fd0d9f32f61", "fusion_lon": 0.0}, {"is_reserved": 0, "type": "electric_scooter", "bike_id": "2819c54f58a2f5b79e96bb4ab069c28f", "lat": 38.879066, "lon": -77.021975, "rental_uris": {"android": "https://dc.lft.to/lastmile_qr_scan", "ios": "https://dc.lft.to/lastmile_qr_scan"}, "is_disabled": 0, "fusion_lat": 0.0, "name": "2819c54f58a2f5b79e96bb4ab069c28f", "fusion_lon": 0.0}, {"is_reserved": 0, "type": "electric_scooter", "bike_id": "dbe96fbeaf60c03a56057ddb338f4d37", "lat": 38.9520985, "lon": -77.00257733333333, "rental_uris": {"android": "https://dc.lft.to/lastmile_qr_scan", "ios": "https://dc.lft.to/lastmile_qr_scan"}, "is_disabled": 0, "fusion_lat": 0.0, "name": "dbe96fbeaf60c03a56057ddb338f4d37", "fusion_lon": 0.0}, {"is_reserved": 0, "type": "electric_bike", "bike_id": "76da00f65e995d12d6441e700dbba943", "lat": 38.9085985, "lon": -76.98478716666666, "rental_uris": {"android": "https://dc.lft.to/lastmile_qr_scan", "ios": "https://dc.lft.to/lastmile_qr_scan"}, "is_disabled": 0, "fusion_lat": 0.0, "name": "76da00f65e995d12d6441e700dbba943", "fusion_lon": 0.0}, {"is_reserved": 0, "type": "electric_scooter", "bike_id": "cf87ae5984a72b965c3113e4df0da9a8", "lat": 38.899569666666665, "lon": -77.047851, "rental_uris": {"android": "https://dc.lft.to/lastmile_qr_scan", "ios": "https://dc.lft.to/lastmile_qr_scan"}, "is_disabled": 0, "fusion_lat": 0.0, "name": "cf87ae5984a72b965c3113e4df0da9a8", "fusion_lon": 0.0}, {"is_reserved": 0, "type": "electric_scooter", "bike_id": "e2c09ba67338f8de5bafe7ad6713aea2", "lat": 38.90114633333334, "lon": -77.01631483333334, "rental_uris": {"android": "https://dc.lft.to/lastmile_qr_scan", "ios": "https://dc.lft.to/lastmile_qr_scan"}, "is_disabled": 0, "fusion_lat": 0.0, "name": "e2c09ba67338f8de5bafe7ad6713aea2", "fusion_lon": 0.0}, {"is_reserved": 0, "type": "electric_scooter", "bike_id": "3f4b9900103895090664d34c629ec3dd", "lat": 38.916896, "lon": -77.02391666666666, "rental_uris": {"android": "https://dc.lft.to/lastmile_qr_scan", "ios": "https://dc.lft.to/lastmile_qr_scan"}, "is_disabled": 0, "fusion_lat": 0.0, "name": "3f4b9900103895090664d34c629ec3dd", "fusion_lon": 0.0}, {"is_reserved": 0, "type": "electric_scooter", "bike_id": "cdc9bfa57da19928cf1542dfb415a3a8", "lat": 38.92559933333333, "lon": -77.022831, "rental_uris": {"android": "https://dc.lft.to/lastmile_qr_scan", "ios": "https://dc.lft.to/lastmile_qr_scan"}, "is_disabled": 0, "fusion_lat": 0.0, "name": "cdc9bfa57da19928cf1542dfb415a3a8", "fusion_lon": 0.0}, {"is_reserved": 0, "type": "electric_scooter", "bike_id": "0a01178cb8d0f3db2196b699dd708467", "lat": 38.91107066666667, "lon": -77.01906216666667, "rental_uris": {"android": "https://dc.lft.to/lastmile_qr_scan", "ios": "https://dc.lft.to/lastmile_qr_scan"}, "is_disabled": 0, "fusion_lat": 0.0, "name": "0a01178cb8d0f3db2196b699dd708467", "fusion_lon": 0.0}, {"is_reserved": 0, "type": "electric_scooter", "bike_id": "f27ed0743f15998f4c200e2262dd39fb", "lat": 38.93017366666667, "lon": -77.02327233333334, "rental_uris": {"android": "https://dc.lft.to/lastmile_qr_scan", "ios": "https://dc.lft.to/lastmile_qr_scan"}, "is_disabled": 0, "fusion_lat": 0.0, "name": "f27ed0743f15998f4c200e2262dd39fb", "fusion_lon": 0.0}, {"is_reserved": 0, "type": "electric_scooter", "bike_id": "7e432b8bfc6e6619d9472f058d5c401d", "lat": 38.916417333333335, "lon": -77.03208066666667, "rental_uris": {"android": "https://dc.lft.to/lastmile_qr_scan", "ios": "https://dc.lft.to/lastmile_qr_scan"}, "is_disabled": 0, "fusion_lat": 0.0, "name": "7e432b8bfc6e6619d9472f058d5c401d", "fusion_lon": 0.0}, {"is_reserved": 0, "type": "electric_scooter", "bike_id": "3fdae543f3cd98dd5cf5f688867cb12c", "lat": 38.92056983333333, "lon": -77.0365905, "rental_uris": {"android": "https://dc.lft.to/lastmile_qr_scan", "ios": "https://dc.lft.to/lastmile_qr_scan"}, "is_disabled": 0, "fusion_lat": 0.0, "name": "3fdae543f3cd98dd5cf5f688867cb12c", "fusion_lon": 0.0}, {"is_reserved": 0, "type": "electric_scooter", "bike_id": "f3d42a85798ff48b384bed2098242e4c", "lat": 38.92601916666667, "lon": -77.02418766666666, "rental_uris": {"android": "https://dc.lft.to/lastmile_qr_scan", "ios": "https://dc.lft.to/lastmile_qr_scan"}, "is_disabled": 0, "fusion_lat": 0.0, "name": "f3d42a85798ff48b384bed2098242e4c", "fusion_lon": 0.0}, {"is_reserved": 0, "type": "electric_scooter", "bike_id": "2a858e8515a12ddf293873444874d62b", "lat": 38.902655333333335, "lon": -77.02779116666666, "rental_uris": {"android": "https://dc.lft.to/lastmile_qr_scan", "ios": "https://dc.lft.to/lastmile_qr_scan"}, "is_disabled": 0, "fusion_lat": 0.0, "name": "2a858e8515a12ddf293873444874d62b", "fusion_lon": 0.0}, {"is_reserved": 0, "type": "electric_scooter", "bike_id": "f5bd334c68765c29b83cfd7178ac1bcf", "lat": 38.8983785, "lon": -77.04809083333333, "rental_uris": {"android": "https://dc.lft.to/lastmile_qr_scan", "ios": "https://dc.lft.to/lastmile_qr_scan"}, "is_disabled": 0, "fusion_lat": 0.0, "name": "f5bd334c68765c29b83cfd7178ac1bcf", "fusion_lon": 0.0}, {"is_reserved": 0, "type": "electric_scooter", "bike_id": "815c2a842f1ecde71f5ebce634450285", "lat": 38.9180705, "lon": -77.03302516666666, "rental_uris": {"android": "https://dc.lft.to/lastmile_qr_scan", "ios": "https://dc.lft.to/lastmile_qr_scan"}, "is_disabled": 0, "fusion_lat": 0.0, "name": "815c2a842f1ecde71f5ebce634450285", "fusion_lon": 0.0}, {"is_reserved": 0, "type": "electric_bike", "bike_id": "8d104b59801464bfc5da52f73640e5ac", "lat": 38.908351333333336, "lon": -77.02709283333333, "rental_uris": {"android": "https://dc.lft.to/lastmile_qr_scan", "ios": "https://dc.lft.to/lastmile_qr_scan"}, "is_disabled": 0, "fusion_lat": 0.0, "name": "8d104b59801464bfc5da52f73640e5ac", "fusion_lon": 0.0}, {"is_reserved": 0, "type": "electric_scooter", "bike_id": "f85d2772e41dfb3a6412e911508fe8b5", "lat": 38.89500483333333, "lon": -77.00211766666666, "rental_uris": {"android": "https://dc.lft.to/lastmile_qr_scan", "ios": "https://dc.lft.to/lastmile_qr_scan"}, "is_disabled": 0, "fusion_lat": 0.0, "name": "f85d2772e41dfb3a6412e911508fe8b5", "fusion_lon": 0.0}, {"is_reserved": 0, "type": "electric_scooter", "bike_id": "ed4e54476e81254b159fd5bf3fe0decf", "lat": 38.90868916666667, "lon": -77.02350833333334, "rental_uris": {"android": "https://dc.lft.to/lastmile_qr_scan", "ios": "https://dc.lft.to/lastmile_qr_scan"}, "is_disabled": 0, "fusion_lat": 0.0, "name": "ed4e54476e81254b159fd5bf3fe0decf", "fusion_lon": 0.0}, {"is_reserved": 0, "type": "electric_scooter", "bike_id": "74249957890121a9ef834199a4543155", "lat": 38.956251333333334, "lon": -77.02781683333333, "rental_uris": {"android": "https://dc.lft.to/lastmile_qr_scan", "ios": "https://dc.lft.to/lastmile_qr_scan"}, "is_disabled": 0, "fusion_lat": 0.0, "name": "74249957890121a9ef834199a4543155", "fusion_lon": 0.0}, {"is_reserved": 0, "type": "electric_scooter", "bike_id": "96aec60a8bd22941de7c33aa43c03871", "lat": 38.905511, "lon": -77.00580766666667, "rental_uris": {"android": "https://dc.lft.to/lastmile_qr_scan", "ios": "https://dc.lft.to/lastmile_qr_scan"}, "is_disabled": 0, "fusion_lat": 0.0, "name": "96aec60a8bd22941de7c33aa43c03871", "fusion_lon": 0.0}, {"is_reserved": 0, "type": "electric_scooter", "bike_id": "2137586dd9369ed40b206d873e2d232e", "lat": 38.924485833333335, "lon": -77.04403566666667, "rental_uris": {"android": "https://dc.lft.to/lastmile_qr_scan", "ios": "https://dc.lft.to/lastmile_qr_scan"}, "is_disabled": 0, "fusion_lat": 0.0, "name": "2137586dd9369ed40b206d873e2d232e", "fusion_lon": 0.0}, {"is_reserved": 0, "type": "electric_scooter", "bike_id": "ff5d1eb1f53938b714c139cf98641107", "lat": 38.902455833333335, "lon": -77.01760916666667, "rental_uris": {"android": "https://dc.lft.to/lastmile_qr_scan", "ios": "https://dc.lft.to/lastmile_qr_scan"}, "is_disabled": 0, "fusion_lat": 0.0, "name": "ff5d1eb1f53938b714c139cf98641107", "fusion_lon": 0.0}, {"is_reserved": 0, "type": "electric_bike", "bike_id": "d6e5466e8b63fd5618240e3545890126", "lat": 38.908486333333336, "lon": -77.057653, "rental_uris": {"android": "https://dc.lft.to/lastmile_qr_scan", "ios": "https://dc.lft.to/lastmile_qr_scan"}, "is_disabled": 0, "fusion_lat": 0.0, "name": "d6e5466e8b63fd5618240e3545890126", "fusion_lon": 0.0}, {"is_reserved": 0, "type": "electric_scooter", "bike_id": "c3528f681fe4425a6eedb18d69f56e48", "lat": 38.8983025, "lon": -77.0294395, "rental_uris": {"android": "https://dc.lft.to/lastmile_qr_scan", "ios": "https://dc.lft.to/lastmile_qr_scan"}, "is_disabled": 0, "fusion_lat": 0.0, "name": "c3528f681fe4425a6eedb18d69f56e48", "fusion_lon": 0.0}, {"is_reserved": 0, "type": "electric_bike", "bike_id": "80e123b87760b563e4f2ff6ec8ffd6dd", "lat": 38.854196333333334, "lon": -77.083671, "rental_uris": {"android": "https://dc.lft.to/lastmile_qr_scan", "ios": "https://dc.lft.to/lastmile_qr_scan"}, "is_disabled": 0, "fusion_lat": 0.0, "name": "80e123b87760b563e4f2ff6ec8ffd6dd", "fusion_lon": 0.0}, {"is_reserved": 0, "type": "electric_scooter", "bike_id": "5cc8e4d9759bfe916ba8a486f3402c13", "lat": 38.88530866666667, "lon": -76.98090233333333, "rental_uris": {"android": "https://dc.lft.to/lastmile_qr_scan", "ios": "https://dc.lft.to/lastmile_qr_scan"}, "is_disabled": 0, "fusion_lat": 0.0, "name": "5cc8e4d9759bfe916ba8a486f3402c13", "fusion_lon": 0.0}, {"is_reserved": 0, "type": "electric_scooter", "bike_id": "40d6d47b1c7e0a1aa063be49a5af0b8f", "lat": 38.900212, "lon": -76.996759, "rental_uris": {"android": "https://dc.lft.to/lastmile_qr_scan", "ios": "https://dc.lft.to/lastmile_qr_scan"}, "is_disabled": 0, "fusion_lat": 0.0, "name": "40d6d47b1c7e0a1aa063be49a5af0b8f", "fusion_lon": 0.0}, {"is_reserved": 0, "type": "electric_scooter", "bike_id": "dc3f83d9fa71539269146c9a2c1c7889", "lat": 38.86632983333333, "lon": -76.9828665, "rental_uris": {"android": "https://dc.lft.to/lastmile_qr_scan", "ios": "https://dc.lft.to/lastmile_qr_scan"}, "is_disabled": 0, "fusion_lat": 0.0, "name": "dc3f83d9fa71539269146c9a2c1c7889", "fusion_lon": 0.0}, {"is_reserved": 0, "type": "electric_scooter", "bike_id": "b1877c45ccef413d4ddfcb01dbdddebd", "lat": 38.91567633333333, "lon": -77.03857983333333, "rental_uris": {"android": "https://dc.lft.to/lastmile_qr_scan", "ios": "https://dc.lft.to/lastmile_qr_scan"}, "is_disabled": 0, "fusion_lat": 0.0, "name": "b1877c45ccef413d4ddfcb01dbdddebd", "fusion_lon": 0.0}, {"is_reserved": 0, "type": "electric_bike", "bike_id": "72575dc081c0705761ad8fa9263519c5", "lat": 38.87003216666667, "lon": -77.2299905, "rental_uris": {"android": "https://dc.lft.to/lastmile_qr_scan", "ios": "https://dc.lft.to/lastmile_qr_scan"}, "is_disabled": 0, "fusion_lat": 0.0, "name": "72575dc081c0705761ad8fa9263519c5", "fusion_lon": 0.0}, {"is_reserved": 0, "type": "electric_scooter", "bike_id": "08bdf0b2fa410d5c05a484b1044e81ba", "lat": 38.88628216666667, "lon": -77.022247, "rental_uris": {"android": "https://dc.lft.to/lastmile_qr_scan", "ios": "https://dc.lft.to/lastmile_qr_scan"}, "is_disabled": 0, "fusion_lat": 0.0, "name": "08bdf0b2fa410d5c05a484b1044e81ba", "fusion_lon": 0.0}, {"is_reserved": 0, "type": "electric_scooter", "bike_id": "13d827e76ac9462033ab8dc108dfa412", "lat": 38.89355316666666, "lon": -77.00332283333333, "rental_uris": {"android": "https://dc.lft.to/lastmile_qr_scan", "ios": "https://dc.lft.to/lastmile_qr_scan"}, "is_disabled": 0, "fusion_lat": 0.0, "name": "13d827e76ac9462033ab8dc108dfa412", "fusion_lon": 0.0}, {"is_reserved": 0, "type": "electric_scooter", "bike_id": "7db8878be2a7e555f931a681b42b4fe9", "lat": 38.909051, "lon": -77.00329183333334, "rental_uris": {"android": "https://dc.lft.to/lastmile_qr_scan", "ios": "https://dc.lft.to/lastmile_qr_scan"}, "is_disabled": 0, "fusion_lat": 0.0, "name": "7db8878be2a7e555f931a681b42b4fe9", "fusion_lon": 0.0}, {"is_reserved": 0, "type": "electric_scooter", "bike_id": "482c55c26886ed903576db6ee67448da", "lat": 38.92524916666667, "lon": -77.050562, "rental_uris": {"android": "https://dc.lft.to/lastmile_qr_scan", "ios": "https://dc.lft.to/lastmile_qr_scan"}, "is_disabled": 0, "fusion_lat": 0.0, "name": "482c55c26886ed903576db6ee67448da", "fusion_lon": 0.0}, {"is_reserved": 0, "type": "electric_bike", "bike_id": "8e118e3b9b554c16870bc8ffab9ed458", "lat": 38.89145533333333, "lon": -77.18285283333333, "rental_uris": {"android": "https://dc.lft.to/lastmile_qr_scan", "ios": "https://dc.lft.to/lastmile_qr_scan"}, "is_disabled": 0, "fusion_lat": 0.0, "name": "8e118e3b9b554c16870bc8ffab9ed458", "fusion_lon": 0.0}, {"is_reserved": 0, "type": "electric_scooter", "bike_id": "7f40cb876ab36c841e311a5c78741c79", "lat": 38.8532145, "lon": -76.980124, "rental_uris": {"android": "https://dc.lft.to/lastmile_qr_scan", "ios": "https://dc.lft.to/lastmile_qr_scan"}, "is_disabled": 0, "fusion_lat": 0.0, "name": "7f40cb876ab36c841e311a5c78741c79", "fusion_lon": 0.0}, {"is_reserved": 0, "type": "electric_scooter", "bike_id": "be1a190fb991b7ad1329a924f52f3228", "lat": 38.920444333333336, "lon": -77.04204683333333, "rental_uris": {"android": "https://dc.lft.to/lastmile_qr_scan", "ios": "https://dc.lft.to/lastmile_qr_scan"}, "is_disabled": 0, "fusion_lat": 0.0, "name": "be1a190fb991b7ad1329a924f52f3228", "fusion_lon": 0.0}, {"is_reserved": 0, "type": "electric_scooter", "bike_id": "76ee8beb00f4e1d7af393fe02a6202b7", "lat": 38.90265216666667, "lon": -77.003322, "rental_uris": {"android": "https://dc.lft.to/lastmile_qr_scan", "ios": "https://dc.lft.to/lastmile_qr_scan"}, "is_disabled": 0, "fusion_lat": 0.0, "name": "76ee8beb00f4e1d7af393fe02a6202b7", "fusion_lon": 0.0}, {"is_reserved": 0, "type": "electric_scooter", "bike_id": "f66cc5618769d1990f288c1c4461353d", "lat": 38.9068395, "lon": -77.02698733333334, "rental_uris": {"android": "https://dc.lft.to/lastmile_qr_scan", "ios": "https://dc.lft.to/lastmile_qr_scan"}, "is_disabled": 0, "fusion_lat": 0.0, "name": "f66cc5618769d1990f288c1c4461353d", "fusion_lon": 0.0}, {"is_reserved": 0, "type": "electric_scooter", "bike_id": "5ce03b9688dd91a8f390c5d88542cd70", "lat": 38.902434666666664, "lon": -77.02655366666667, "rental_uris": {"android": "https://dc.lft.to/lastmile_qr_scan", "ios": "https://dc.lft.to/lastmile_qr_scan"}, "is_disabled": 0, "fusion_lat": 0.0, "name": "5ce03b9688dd91a8f390c5d88542cd70", "fusion_lon": 0.0}, {"is_reserved": 0, "type": "electric_scooter", "bike_id": "9aac1e22618fd5b03daa968677b55482", "lat": 38.920426166666665, "lon": -77.04822833333333, "rental_uris": {"android": "https://dc.lft.to/lastmile_qr_scan", "ios": "https://dc.lft.to/lastmile_qr_scan"}, "is_disabled": 0, "fusion_lat": 0.0, "name": "9aac1e22618fd5b03daa968677b55482", "fusion_lon": 0.0}, {"is_reserved": 0, "type": "electric_scooter", "bike_id": "640df271b0e7e5234586f751c486293a", "lat": 38.91716, "lon": -77.03857433333333, "rental_uris": {"android": "https://dc.lft.to/lastmile_qr_scan", "ios": "https://dc.lft.to/lastmile_qr_scan"}, "is_disabled": 0, "fusion_lat": 0.0, "name": "640df271b0e7e5234586f751c486293a", "fusion_lon": 0.0}, {"is_reserved": 0, "type": "electric_scooter", "bike_id": "5b347fb09218d91fee48b4d02b22d686", "lat": 38.916818166666665, "lon": -77.0240385, "rental_uris": {"android": "https://dc.lft.to/lastmile_qr_scan", "ios": "https://dc.lft.to/lastmile_qr_scan"}, "is_disabled": 0, "fusion_lat": 0.0, "name": "5b347fb09218d91fee48b4d02b22d686", "fusion_lon": 0.0}, {"is_reserved": 0, "type": "electric_scooter", "bike_id": "7f5ce4f9c335a84d426885ada46e1e05", "lat": 38.918035, "lon": -77.0330355, "rental_uris": {"android": "https://dc.lft.to/lastmile_qr_scan", "ios": "https://dc.lft.to/lastmile_qr_scan"}, "is_disabled": 0, "fusion_lat": 0.0, "name": "7f5ce4f9c335a84d426885ada46e1e05", "fusion_lon": 0.0}, {"is_reserved": 0, "type": "electric_scooter", "bike_id": "c0cd54f8c4a7910bf94341bedd13e9d1", "lat": 38.933297, "lon": -77.02910216666666, "rental_uris": {"android": "https://dc.lft.to/lastmile_qr_scan", "ios": "https://dc.lft.to/lastmile_qr_scan"}, "is_disabled": 0, "fusion_lat": 0.0, "name": "c0cd54f8c4a7910bf94341bedd13e9d1", "fusion_lon": 0.0}, {"is_reserved": 0, "type": "electric_scooter", "bike_id": "008d2db5dde92ae64b39a673184f95f8", "lat": 38.919202, "lon": -77.04803683333333, "rental_uris": {"android": "https://dc.lft.to/lastmile_qr_scan", "ios": "https://dc.lft.to/lastmile_qr_scan"}, "is_disabled": 0, "fusion_lat": 0.0, "name": "008d2db5dde92ae64b39a673184f95f8", "fusion_lon": 0.0}, {"is_reserved": 0, "type": "electric_scooter", "bike_id": "08cf6310a617683cef8d614bd9659dc7", "lat": 38.92449533333333, "lon": -77.02039666666667, "rental_uris": {"android": "https://dc.lft.to/lastmile_qr_scan", "ios": "https://dc.lft.to/lastmile_qr_scan"}, "is_disabled": 0, "fusion_lat": 0.0, "name": "08cf6310a617683cef8d614bd9659dc7", "fusion_lon": 0.0}, {"is_reserved": 0, "type": "electric_scooter", "bike_id": "3bc17d39fc4382716314d73b17a59e70", "lat": 38.937216166666666, "lon": -77.03264616666667, "rental_uris": {"android": "https://dc.lft.to/lastmile_qr_scan", "ios": "https://dc.lft.to/lastmile_qr_scan"}, "is_disabled": 0, "fusion_lat": 0.0, "name": "3bc17d39fc4382716314d73b17a59e70", "fusion_lon": 0.0}, {"is_reserved": 0, "type": "electric_scooter", "bike_id": "eee33c1c622f191e8884e9038a5a3699", "lat": 38.923348833333336, "lon": -77.04586383333333, "rental_uris": {"android": "https://dc.lft.to/lastmile_qr_scan", "ios": "https://dc.lft.to/lastmile_qr_scan"}, "is_disabled": 0, "fusion_lat": 0.0, "name": "eee33c1c622f191e8884e9038a5a3699", "fusion_lon": 0.0}, {"is_reserved": 0, "type": "electric_bike", "bike_id": "c2eaba31359563c9806e1ebb90f32310", "lat": 38.83028066666667, "lon": -77.08375816666667, "rental_uris": {"android": "https://dc.lft.to/lastmile_qr_scan", "ios": "https://dc.lft.to/lastmile_qr_scan"}, "is_disabled": 0, "fusion_lat": 0.0, "name": "c2eaba31359563c9806e1ebb90f32310", "fusion_lon": 0.0}, {"is_reserved": 0, "type": "electric_scooter", "bike_id": "32663ffa9036a7aec5b1b8ef8514c581", "lat": 38.897284, "lon": -76.99512816666666, "rental_uris": {"android": "https://dc.lft.to/lastmile_qr_scan", "ios": "https://dc.lft.to/lastmile_qr_scan"}, "is_disabled": 0, "fusion_lat": 0.0, "name": "32663ffa9036a7aec5b1b8ef8514c581", "fusion_lon": 0.0}, {"is_reserved": 0, "type": "electric_scooter", "bike_id": "aa48e75e80f520433d69955b65d8504c", "lat": 38.9120375, "lon": -77.032073, "rental_uris": {"android": "https://dc.lft.to/lastmile_qr_scan", "ios": "https://dc.lft.to/lastmile_qr_scan"}, "is_disabled": 0, "fusion_lat": 0.0, "name": "aa48e75e80f520433d69955b65d8504c", "fusion_lon": 0.0}, {"is_reserved": 0, "type": "electric_bike", "bike_id": "2ff138bec17ebdc518be101919cf9b9a", "lat": 38.85781216666667, "lon": -76.98763433333333, "rental_uris": {"android": "https://dc.lft.to/lastmile_qr_scan", "ios": "https://dc.lft.to/lastmile_qr_scan"}, "is_disabled": 0, "fusion_lat": 0.0, "name": "2ff138bec17ebdc518be101919cf9b9a", "fusion_lon": 0.0}, {"is_reserved": 0, "type": "electric_scooter", "bike_id": "e23512cb734fc6a2d73e429fe068fb5f", "lat": 38.91691083333333, "lon": -77.02292683333333, "rental_uris": {"android": "https://dc.lft.to/lastmile_qr_scan", "ios": "https://dc.lft.to/lastmile_qr_scan"}, "is_disabled": 0, "fusion_lat": 0.0, "name": "e23512cb734fc6a2d73e429fe068fb5f", "fusion_lon": 0.0}, {"is_reserved": 0, "type": "electric_scooter", "bike_id": "f5817bce4c1ff541c24c9293f07ea1c7", "lat": 38.88728, "lon": -77.03217516666666, "rental_uris": {"android": "https://dc.lft.to/lastmile_qr_scan", "ios": "https://dc.lft.to/lastmile_qr_scan"}, "is_disabled": 0, "fusion_lat": 0.0, "name": "f5817bce4c1ff541c24c9293f07ea1c7", "fusion_lon": 0.0}, {"is_reserved": 0, "type": "electric_scooter", "bike_id": "5de51ebe8f13f9b7b86d3cad833a2807", "lat": 38.944509, "lon": -77.028047, "rental_uris": {"android": "https://dc.lft.to/lastmile_qr_scan", "ios": "https://dc.lft.to/lastmile_qr_scan"}, "is_disabled": 0, "fusion_lat": 0.0, "name": "5de51ebe8f13f9b7b86d3cad833a2807", "fusion_lon": 0.0}, {"is_reserved": 0, "type": "electric_scooter", "bike_id": "0aceccf4e461d2df604498a0b937f1d9", "lat": 38.9072905, "lon": -77.0070065, "rental_uris": {"android": "https://dc.lft.to/lastmile_qr_scan", "ios": "https://dc.lft.to/lastmile_qr_scan"}, "is_disabled": 0, "fusion_lat": 0.0, "name": "0aceccf4e461d2df604498a0b937f1d9", "fusion_lon": 0.0}, {"is_reserved": 0, "type": "electric_scooter", "bike_id": "81c9d273ad030aeea5ea7fa53436c2b1", "lat": 38.898441166666665, "lon": -77.02950683333333, "rental_uris": {"android": "https://dc.lft.to/lastmile_qr_scan", "ios": "https://dc.lft.to/lastmile_qr_scan"}, "is_disabled": 0, "fusion_lat": 0.0, "name": "81c9d273ad030aeea5ea7fa53436c2b1", "fusion_lon": 0.0}, {"is_reserved": 0, "type": "electric_scooter", "bike_id": "434ebdd99609f1046854d81f092f0168", "lat": 38.92898183333333, "lon": -77.02497666666666, "rental_uris": {"android": "https://dc.lft.to/lastmile_qr_scan", "ios": "https://dc.lft.to/lastmile_qr_scan"}, "is_disabled": 0, "fusion_lat": 0.0, "name": "434ebdd99609f1046854d81f092f0168", "fusion_lon": 0.0}, {"is_reserved": 0, "type": "electric_scooter", "bike_id": "0ef67bf346cf45e2a5c1fae3fa581d3e", "lat": 38.884922, "lon": -77.02349083333333, "rental_uris": {"android": "https://dc.lft.to/lastmile_qr_scan", "ios": "https://dc.lft.to/lastmile_qr_scan"}, "is_disabled": 0, "fusion_lat": 0.0, "name": "0ef67bf346cf45e2a5c1fae3fa581d3e", "fusion_lon": 0.0}, {"is_reserved": 0, "type": "electric_scooter", "bike_id": "83236ee123c902ba2db671440fcb2caa", "lat": 38.9158185, "lon": -77.01231383333334, "rental_uris": {"android": "https://dc.lft.to/lastmile_qr_scan", "ios": "https://dc.lft.to/lastmile_qr_scan"}, "is_disabled": 0, "fusion_lat": 0.0, "name": "83236ee123c902ba2db671440fcb2caa", "fusion_lon": 0.0}, {"is_reserved": 0, "type": "electric_scooter", "bike_id": "b60564c0de8e4faf6621483003fad690", "lat": 38.900239666666664, "lon": -76.9990485, "rental_uris": {"android": "https://dc.lft.to/lastmile_qr_scan", "ios": "https://dc.lft.to/lastmile_qr_scan"}, "is_disabled": 0, "fusion_lat": 0.0, "name": "b60564c0de8e4faf6621483003fad690", "fusion_lon": 0.0}, {"is_reserved": 0, "type": "electric_scooter", "bike_id": "067dfadb72fbcd92efd3418c2b09c093", "lat": 38.91873066666667, "lon": -77.03501866666667, "rental_uris": {"android": "https://dc.lft.to/lastmile_qr_scan", "ios": "https://dc.lft.to/lastmile_qr_scan"}, "is_disabled": 0, "fusion_lat": 0.0, "name": "067dfadb72fbcd92efd3418c2b09c093", "fusion_lon": 0.0}, {"is_reserved": 0, "type": "electric_scooter", "bike_id": "2ab46c9c0c0e160565ef688c53454aea", "lat": 38.90811333333333, "lon": -77.03864316666666, "rental_uris": {"android": "https://dc.lft.to/lastmile_qr_scan", "ios": "https://dc.lft.to/lastmile_qr_scan"}, "is_disabled": 0, "fusion_lat": 0.0, "name": "2ab46c9c0c0e160565ef688c53454aea", "fusion_lon": 0.0}, {"is_reserved": 0, "type": "electric_scooter", "bike_id": "9a5ef9e8b5a4b5e619fba6703b2a0298", "lat": 38.90847616666667, "lon": -77.06344766666666, "rental_uris": {"android": "https://dc.lft.to/lastmile_qr_scan", "ios": "https://dc.lft.to/lastmile_qr_scan"}, "is_disabled": 0, "fusion_lat": 0.0, "name": "9a5ef9e8b5a4b5e619fba6703b2a0298", "fusion_lon": 0.0}, {"is_reserved": 0, "type": "electric_bike", "bike_id": "d1c6ede485676d8c01089e1986a728b4", "lat": 38.972613333333335, "lon": -77.1496925, "rental_uris": {"android": "https://dc.lft.to/lastmile_qr_scan", "ios": "https://dc.lft.to/lastmile_qr_scan"}, "is_disabled": 0, "fusion_lat": 0.0, "name": "d1c6ede485676d8c01089e1986a728b4", "fusion_lon": 0.0}, {"is_reserved": 0, "type": "electric_scooter", "bike_id": "4d80310e7167f2bfa4936cbddc7d1300", "lat": 38.91797233333333, "lon": -77.03201, "rental_uris": {"android": "https://dc.lft.to/lastmile_qr_scan", "ios": "https://dc.lft.to/lastmile_qr_scan"}, "is_disabled": 0, "fusion_lat": 0.0, "name": "4d80310e7167f2bfa4936cbddc7d1300", "fusion_lon": 0.0}, {"is_reserved": 0, "type": "electric_scooter", "bike_id": "c2996bc1b3bae7ab859e76585ed1ac9e", "lat": 38.91678683333333, "lon": -77.0296715, "rental_uris": {"android": "https://dc.lft.to/lastmile_qr_scan", "ios": "https://dc.lft.to/lastmile_qr_scan"}, "is_disabled": 0, "fusion_lat": 0.0, "name": "c2996bc1b3bae7ab859e76585ed1ac9e", "fusion_lon": 0.0}, {"is_reserved": 0, "type": "electric_scooter", "bike_id": "f3015209b5c020acbc28acfbc75cf83f", "lat": 38.9227475, "lon": -77.04285216666666, "rental_uris": {"android": "https://dc.lft.to/lastmile_qr_scan", "ios": "https://dc.lft.to/lastmile_qr_scan"}, "is_disabled": 0, "fusion_lat": 0.0, "name": "f3015209b5c020acbc28acfbc75cf83f", "fusion_lon": 0.0}, {"is_reserved": 0, "type": "electric_bike", "bike_id": "f040b77f269ac59fcf8538c5874cfe19", "lat": 38.99935883333333, "lon": -77.05132783333333, "rental_uris": {"android": "https://dc.lft.to/lastmile_qr_scan", "ios": "https://dc.lft.to/lastmile_qr_scan"}, "is_disabled": 0, "fusion_lat": 0.0, "name": "f040b77f269ac59fcf8538c5874cfe19", "fusion_lon": 0.0}, {"is_reserved": 0, "type": "electric_scooter", "bike_id": "2dd04d92dbbaf00a076ff54048727fa1", "lat": 38.900344833333335, "lon": -76.991503, "rental_uris": {"android": "https://dc.lft.to/lastmile_qr_scan", "ios": "https://dc.lft.to/lastmile_qr_scan"}, "is_disabled": 0, "fusion_lat": 0.0, "name": "2dd04d92dbbaf00a076ff54048727fa1", "fusion_lon": 0.0}, {"is_reserved": 0, "type": "electric_scooter", "bike_id": "ea13dbaecc582251ec0f095f3d3c5a62", "lat": 38.925539666666666, "lon": -77.033254, "rental_uris": {"android": "https://dc.lft.to/lastmile_qr_scan", "ios": "https://dc.lft.to/lastmile_qr_scan"}, "is_disabled": 0, "fusion_lat": 0.0, "name": "ea13dbaecc582251ec0f095f3d3c5a62", "fusion_lon": 0.0}, {"is_reserved": 0, "type": "electric_scooter", "bike_id": "ac38dc1b8a41f348ef8e9de1d8708fa2", "lat": 38.924227333333334, "lon": -77.019467, "rental_uris": {"android": "https://dc.lft.to/lastmile_qr_scan", "ios": "https://dc.lft.to/lastmile_qr_scan"}, "is_disabled": 0, "fusion_lat": 0.0, "name": "ac38dc1b8a41f348ef8e9de1d8708fa2", "fusion_lon": 0.0}, {"is_reserved": 0, "type": "electric_scooter", "bike_id": "caeac63be9d55e9557b58fe68521c32c", "lat": 38.923392666666665, "lon": -77.0189765, "rental_uris": {"android": "https://dc.lft.to/lastmile_qr_scan", "ios": "https://dc.lft.to/lastmile_qr_scan"}, "is_disabled": 0, "fusion_lat": 0.0, "name": "caeac63be9d55e9557b58fe68521c32c", "fusion_lon": 0.0}, {"is_reserved": 0, "type": "electric_scooter", "bike_id": "e0f4159bef462066101670fa086079d8", "lat": 38.92632966666667, "lon": -77.03536133333333, "rental_uris": {"android": "https://dc.lft.to/lastmile_qr_scan", "ios": "https://dc.lft.to/lastmile_qr_scan"}, "is_disabled": 0, "fusion_lat": 0.0, "name": "e0f4159bef462066101670fa086079d8", "fusion_lon": 0.0}, {"is_reserved": 0, "type": "electric_scooter", "bike_id": "695394d23a3c8a414d6d2e533b1ead1b", "lat": 38.93532416666667, "lon": -77.02352766666667, "rental_uris": {"android": "https://dc.lft.to/lastmile_qr_scan", "ios": "https://dc.lft.to/lastmile_qr_scan"}, "is_disabled": 0, "fusion_lat": 0.0, "name": "695394d23a3c8a414d6d2e533b1ead1b", "fusion_lon": 0.0}, {"is_reserved": 0, "type": "electric_scooter", "bike_id": "cb8fc2eae42858e500e2581ba84a7e71", "lat": 38.90150516666667, "lon": -77.0317905, "rental_uris": {"android": "https://dc.lft.to/lastmile_qr_scan", "ios": "https://dc.lft.to/lastmile_qr_scan"}, "is_disabled": 0, "fusion_lat": 0.0, "name": "cb8fc2eae42858e500e2581ba84a7e71", "fusion_lon": 0.0}, {"is_reserved": 0, "type": "electric_scooter", "bike_id": "e883d94e4351c90f91784d0fdc4f14c5", "lat": 38.928354166666665, "lon": -77.0542055, "rental_uris": {"android": "https://dc.lft.to/lastmile_qr_scan", "ios": "https://dc.lft.to/lastmile_qr_scan"}, "is_disabled": 0, "fusion_lat": 0.0, "name": "e883d94e4351c90f91784d0fdc4f14c5", "fusion_lon": 0.0}, {"is_reserved": 0, "type": "electric_scooter", "bike_id": "07c0424c091a2db47e7ad4a324b4091d", "lat": 38.982280333333335, "lon": -77.02641266666667, "rental_uris": {"android": "https://dc.lft.to/lastmile_qr_scan", "ios": "https://dc.lft.to/lastmile_qr_scan"}, "is_disabled": 0, "fusion_lat": 0.0, "name": "07c0424c091a2db47e7ad4a324b4091d", "fusion_lon": 0.0}, {"is_reserved": 0, "type": "electric_bike", "bike_id": "190e0fdc7a35b034504a95a533bc10ec", "lat": 38.839335166666665, "lon": -77.07901916666667, "rental_uris": {"android": "https://dc.lft.to/lastmile_qr_scan", "ios": "https://dc.lft.to/lastmile_qr_scan"}, "is_disabled": 0, "fusion_lat": 0.0, "name": "190e0fdc7a35b034504a95a533bc10ec", "fusion_lon": 0.0}, {"is_reserved": 0, "type": "electric_scooter", "bike_id": "da3595ea2de1e30013c41e497489e02d", "lat": 38.88516216666667, "lon": -76.99676666666667, "rental_uris": {"android": "https://dc.lft.to/lastmile_qr_scan", "ios": "https://dc.lft.to/lastmile_qr_scan"}, "is_disabled": 0, "fusion_lat": 0.0, "name": "da3595ea2de1e30013c41e497489e02d", "fusion_lon": 0.0}, {"is_reserved": 0, "type": "electric_scooter", "bike_id": "c6ef0ddf8a89fc35603f0015b86591ed", "lat": 38.92046633333333, "lon": -77.04196416666667, "rental_uris": {"android": "https://dc.lft.to/lastmile_qr_scan", "ios": "https://dc.lft.to/lastmile_qr_scan"}, "is_disabled": 0, "fusion_lat": 0.0, "name": "c6ef0ddf8a89fc35603f0015b86591ed", "fusion_lon": 0.0}, {"is_reserved": 0, "type": "electric_scooter", "bike_id": "aa2c3503c0e143907b6e8de839d45e80", "lat": 38.92602683333333, "lon": -77.0215925, "rental_uris": {"android": "https://dc.lft.to/lastmile_qr_scan", "ios": "https://dc.lft.to/lastmile_qr_scan"}, "is_disabled": 0, "fusion_lat": 0.0, "name": "aa2c3503c0e143907b6e8de839d45e80", "fusion_lon": 0.0}, {"is_reserved": 0, "type": "electric_scooter", "bike_id": "c306c9739e925dc14e2140f06b3b7a3b", "lat": 38.873848, "lon": -77.00122566666667, "rental_uris": {"android": "https://dc.lft.to/lastmile_qr_scan", "ios": "https://dc.lft.to/lastmile_qr_scan"}, "is_disabled": 0, "fusion_lat": 0.0, "name": "c306c9739e925dc14e2140f06b3b7a3b", "fusion_lon": 0.0}, {"is_reserved": 0, "type": "electric_scooter", "bike_id": "699f028aa30e17106d5e709daa4934f3", "lat": 38.90165066666667, "lon": -77.02588666666666, "rental_uris": {"android": "https://dc.lft.to/lastmile_qr_scan", "ios": "https://dc.lft.to/lastmile_qr_scan"}, "is_disabled": 0, "fusion_lat": 0.0, "name": "699f028aa30e17106d5e709daa4934f3", "fusion_lon": 0.0}, {"is_reserved": 0, "type": "electric_scooter", "bike_id": "97377c1746b51ac7659c02f5801eb3d2", "lat": 38.928364333333334, "lon": -77.0060555, "rental_uris": {"android": "https://dc.lft.to/lastmile_qr_scan", "ios": "https://dc.lft.to/lastmile_qr_scan"}, "is_disabled": 0, "fusion_lat": 0.0, "name": "97377c1746b51ac7659c02f5801eb3d2", "fusion_lon": 0.0}, {"is_reserved": 0, "type": "electric_scooter", "bike_id": "233da307cb6b7b835a9ff70c286ee7f4", "lat": 38.900134333333334, "lon": -76.99350466666667, "rental_uris": {"android": "https://dc.lft.to/lastmile_qr_scan", "ios": "https://dc.lft.to/lastmile_qr_scan"}, "is_disabled": 0, "fusion_lat": 0.0, "name": "233da307cb6b7b835a9ff70c286ee7f4", "fusion_lon": 0.0}, {"is_reserved": 0, "type": "electric_scooter", "bike_id": "3328d5d8478453c0de390ef91546087d", "lat": 38.89360516666667, "lon": -77.0222245, "rental_uris": {"android": "https://dc.lft.to/lastmile_qr_scan", "ios": "https://dc.lft.to/lastmile_qr_scan"}, "is_disabled": 0, "fusion_lat": 0.0, "name": "3328d5d8478453c0de390ef91546087d", "fusion_lon": 0.0}, {"is_reserved": 0, "type": "electric_scooter", "bike_id": "b5be20fffb280e6a4cfa92bd9af6ed03", "lat": 38.917492333333335, "lon": -77.04071883333333, "rental_uris": {"android": "https://dc.lft.to/lastmile_qr_scan", "ios": "https://dc.lft.to/lastmile_qr_scan"}, "is_disabled": 0, "fusion_lat": 0.0, "name": "b5be20fffb280e6a4cfa92bd9af6ed03", "fusion_lon": 0.0}, {"is_reserved": 0, "type": "electric_scooter", "bike_id": "ebee101eac8d77a596d9a6bbc18cb93f", "lat": 38.89737933333333, "lon": -77.02989133333334, "rental_uris": {"android": "https://dc.lft.to/lastmile_qr_scan", "ios": "https://dc.lft.to/lastmile_qr_scan"}, "is_disabled": 0, "fusion_lat": 0.0, "name": "ebee101eac8d77a596d9a6bbc18cb93f", "fusion_lon": 0.0}, {"is_reserved": 0, "type": "electric_bike", "bike_id": "49c90b5ab7b26e36ca831493effd04d7", "lat": 39.08593366666667, "lon": -77.12281333333334, "rental_uris": {"android": "https://dc.lft.to/lastmile_qr_scan", "ios": "https://dc.lft.to/lastmile_qr_scan"}, "is_disabled": 0, "fusion_lat": 0.0, "name": "49c90b5ab7b26e36ca831493effd04d7", "fusion_lon": 0.0}, {"is_reserved": 0, "type": "electric_bike", "bike_id": "1e623801fb1cdb8a2b1243eaeb1d2dda", "lat": 38.813333666666665, "lon": -77.05115466666666, "rental_uris": {"android": "https://dc.lft.to/lastmile_qr_scan", "ios": "https://dc.lft.to/lastmile_qr_scan"}, "is_disabled": 0, "fusion_lat": 0.0, "name": "1e623801fb1cdb8a2b1243eaeb1d2dda", "fusion_lon": 0.0}, {"is_reserved": 0, "type": "electric_scooter", "bike_id": "eafb5e0440fe0849b196d5a3c29c3cb9", "lat": 38.93570483333333, "lon": -77.0330075, "rental_uris": {"android": "https://dc.lft.to/lastmile_qr_scan", "ios": "https://dc.lft.to/lastmile_qr_scan"}, "is_disabled": 0, "fusion_lat": 0.0, "name": "eafb5e0440fe0849b196d5a3c29c3cb9", "fusion_lon": 0.0}, {"is_reserved": 0, "type": "electric_bike", "bike_id": "5549674b3c98f8813252f1b34f4a2df1", "lat": 38.9723835, "lon": -77.027141, "rental_uris": {"android": "https://dc.lft.to/lastmile_qr_scan", "ios": "https://dc.lft.to/lastmile_qr_scan"}, "is_disabled": 0, "fusion_lat": 0.0, "name": "5549674b3c98f8813252f1b34f4a2df1", "fusion_lon": 0.0}, {"is_reserved": 0, "type": "electric_scooter", "bike_id": "2384f9a99166ef429a277de71d1994e2", "lat": 38.89475616666667, "lon": -77.024154, "rental_uris": {"android": "https://dc.lft.to/lastmile_qr_scan", "ios": "https://dc.lft.to/lastmile_qr_scan"}, "is_disabled": 0, "fusion_lat": 0.0, "name": "2384f9a99166ef429a277de71d1994e2", "fusion_lon": 0.0}, {"is_reserved": 0, "type": "electric_scooter", "bike_id": "c78dfd839a382ea72a4f135de267e2c0", "lat": 38.92051983333333, "lon": -77.041828, "rental_uris": {"android": "https://dc.lft.to/lastmile_qr_scan", "ios": "https://dc.lft.to/lastmile_qr_scan"}, "is_disabled": 0, "fusion_lat": 0.0, "name": "c78dfd839a382ea72a4f135de267e2c0", "fusion_lon": 0.0}, {"is_reserved": 0, "type": "electric_bike", "bike_id": "b596bbee3898a5439834003fa2d1323a", "lat": 38.9246195, "lon": -77.0191835, "rental_uris": {"android": "https://dc.lft.to/lastmile_qr_scan", "ios": "https://dc.lft.to/lastmile_qr_scan"}, "is_disabled": 0, "fusion_lat": 0.0, "name": "b596bbee3898a5439834003fa2d1323a", "fusion_lon": 0.0}, {"is_reserved": 0, "type": "electric_bike", "bike_id": "07fe99010d7c364269012d27ad6e2d4c", "lat": 38.857873833333336, "lon": -76.9876395, "rental_uris": {"android": "https://dc.lft.to/lastmile_qr_scan", "ios": "https://dc.lft.to/lastmile_qr_scan"}, "is_disabled": 0, "fusion_lat": 0.0, "name": "07fe99010d7c364269012d27ad6e2d4c", "fusion_lon": 0.0}, {"is_reserved": 0, "type": "electric_scooter", "bike_id": "49675afdeb750b1b2db9b41b6829d580", "lat": 38.917438, "lon": -77.04166133333334, "rental_uris": {"android": "https://dc.lft.to/lastmile_qr_scan", "ios": "https://dc.lft.to/lastmile_qr_scan"}, "is_disabled": 0, "fusion_lat": 0.0, "name": "49675afdeb750b1b2db9b41b6829d580", "fusion_lon": 0.0}, {"is_reserved": 0, "type": "electric_scooter", "bike_id": "b69f143f0c358a88f36261060bc42ef8", "lat": 38.919654333333334, "lon": -77.0143705, "rental_uris": {"android": "https://dc.lft.to/lastmile_qr_scan", "ios": "https://dc.lft.to/lastmile_qr_scan"}, "is_disabled": 0, "fusion_lat": 0.0, "name": "b69f143f0c358a88f36261060bc42ef8", "fusion_lon": 0.0}, {"is_reserved": 0, "type": "electric_scooter", "bike_id": "81f0b3fa6b7f91d0abe0677882b34dd7", "lat": 38.89858866666667, "lon": -76.9776515, "rental_uris": {"android": "https://dc.lft.to/lastmile_qr_scan", "ios": "https://dc.lft.to/lastmile_qr_scan"}, "is_disabled": 0, "fusion_lat": 0.0, "name": "81f0b3fa6b7f91d0abe0677882b34dd7", "fusion_lon": 0.0}, {"is_reserved": 0, "type": "electric_scooter", "bike_id": "d3e278a98e3904d48ad684761b0e2d5c", "lat": 38.899984333333336, "lon": -77.01891333333333, "rental_uris": {"android": "https://dc.lft.to/lastmile_qr_scan", "ios": "https://dc.lft.to/lastmile_qr_scan"}, "is_disabled": 0, "fusion_lat": 0.0, "name": "d3e278a98e3904d48ad684761b0e2d5c", "fusion_lon": 0.0}, {"is_reserved": 0, "type": "electric_scooter", "bike_id": "b06ae510c2a0062295db79982a235ffd", "lat": 38.905446166666664, "lon": -77.00718516666667, "rental_uris": {"android": "https://dc.lft.to/lastmile_qr_scan", "ios": "https://dc.lft.to/lastmile_qr_scan"}, "is_disabled": 0, "fusion_lat": 0.0, "name": "b06ae510c2a0062295db79982a235ffd", "fusion_lon": 0.0}, {"is_reserved": 0, "type": "electric_scooter", "bike_id": "868cfa856da52f32e63335aa2bdbae22", "lat": 38.90499066666667, "lon": -76.9887355, "rental_uris": {"android": "https://dc.lft.to/lastmile_qr_scan", "ios": "https://dc.lft.to/lastmile_qr_scan"}, "is_disabled": 0, "fusion_lat": 0.0, "name": "868cfa856da52f32e63335aa2bdbae22", "fusion_lon": 0.0}, {"is_reserved": 0, "type": "electric_scooter", "bike_id": "603a72c415e1bd306db349318b9c536f", "lat": 38.91028933333333, "lon": -77.00753816666666, "rental_uris": {"android": "https://dc.lft.to/lastmile_qr_scan", "ios": "https://dc.lft.to/lastmile_qr_scan"}, "is_disabled": 0, "fusion_lat": 0.0, "name": "603a72c415e1bd306db349318b9c536f", "fusion_lon": 0.0}, {"is_reserved": 0, "type": "electric_bike", "bike_id": "90c151cdc78d744a341078d15f1f8235", "lat": 38.80670383333333, "lon": -77.08757533333333, "rental_uris": {"android": "https://dc.lft.to/lastmile_qr_scan", "ios": "https://dc.lft.to/lastmile_qr_scan"}, "is_disabled": 0, "fusion_lat": 0.0, "name": "90c151cdc78d744a341078d15f1f8235", "fusion_lon": 0.0}, {"is_reserved": 0, "type": "electric_bike", "bike_id": "2d86163cab43076aaf60aedb71dfea8e", "lat": 38.943176333333334, "lon": -76.99020416666667, "rental_uris": {"android": "https://dc.lft.to/lastmile_qr_scan", "ios": "https://dc.lft.to/lastmile_qr_scan"}, "is_disabled": 0, "fusion_lat": 0.0, "name": "2d86163cab43076aaf60aedb71dfea8e", "fusion_lon": 0.0}, {"is_reserved": 0, "type": "electric_bike", "bike_id": "21bfe9de50b1624a44e8da7b226948d6", "lat": 38.8897635, "lon": -77.049285, "rental_uris": {"android": "https://dc.lft.to/lastmile_qr_scan", "ios": "https://dc.lft.to/lastmile_qr_scan"}, "is_disabled": 0, "fusion_lat": 0.0, "name": "21bfe9de50b1624a44e8da7b226948d6", "fusion_lon": 0.0}, {"is_reserved": 0, "type": "electric_bike", "bike_id": "80d0e32ab14e2c0f0ead8ae5861da854", "lat": 38.87210966666667, "lon": -77.11743583333333, "rental_uris": {"android": "https://dc.lft.to/lastmile_qr_scan", "ios": "https://dc.lft.to/lastmile_qr_scan"}, "is_disabled": 0, "fusion_lat": 0.0, "name": "80d0e32ab14e2c0f0ead8ae5861da854", "fusion_lon": 0.0}, {"is_reserved": 0, "type": "electric_scooter", "bike_id": "d5d61bfd8b72a1aaf6c099e9d1c99e67", "lat": 38.955297333333334, "lon": -77.02058333333333, "rental_uris": {"android": "https://dc.lft.to/lastmile_qr_scan", "ios": "https://dc.lft.to/lastmile_qr_scan"}, "is_disabled": 0, "fusion_lat": 0.0, "name": "d5d61bfd8b72a1aaf6c099e9d1c99e67", "fusion_lon": 0.0}, {"is_reserved": 0, "type": "electric_scooter", "bike_id": "055ea0d8f1739fd8fc40cf045f77797f", "lat": 38.90580083333333, "lon": -77.03658733333333, "rental_uris": {"android": "https://dc.lft.to/lastmile_qr_scan", "ios": "https://dc.lft.to/lastmile_qr_scan"}, "is_disabled": 0, "fusion_lat": 0.0, "name": "055ea0d8f1739fd8fc40cf045f77797f", "fusion_lon": 0.0}, {"is_reserved": 0, "type": "electric_scooter", "bike_id": "90688fa65a34b4b7085d089a0ed401ba", "lat": 38.885009833333335, "lon": -77.01757733333334, "rental_uris": {"android": "https://dc.lft.to/lastmile_qr_scan", "ios": "https://dc.lft.to/lastmile_qr_scan"}, "is_disabled": 0, "fusion_lat": 0.0, "name": "90688fa65a34b4b7085d089a0ed401ba", "fusion_lon": 0.0}, {"is_reserved": 0, "type": "electric_scooter", "bike_id": "fa3c0d0775335315cc77244c56dc08df", "lat": 38.91413683333333, "lon": -77.0313895, "rental_uris": {"android": "https://dc.lft.to/lastmile_qr_scan", "ios": "https://dc.lft.to/lastmile_qr_scan"}, "is_disabled": 0, "fusion_lat": 0.0, "name": "fa3c0d0775335315cc77244c56dc08df", "fusion_lon": 0.0}, {"is_reserved": 0, "type": "electric_bike", "bike_id": "cae3c41dcd62dc3deadbe4e810274e2e", "lat": 38.85600783333334, "lon": -76.97456133333333, "rental_uris": {"android": "https://dc.lft.to/lastmile_qr_scan", "ios": "https://dc.lft.to/lastmile_qr_scan"}, "is_disabled": 0, "fusion_lat": 0.0, "name": "cae3c41dcd62dc3deadbe4e810274e2e", "fusion_lon": 0.0}, {"is_reserved": 0, "type": "electric_scooter", "bike_id": "60df28057bb829ce0773deadee2a65f6", "lat": 38.919036166666665, "lon": -77.03121116666667, "rental_uris": {"android": "https://dc.lft.to/lastmile_qr_scan", "ios": "https://dc.lft.to/lastmile_qr_scan"}, "is_disabled": 0, "fusion_lat": 0.0, "name": "60df28057bb829ce0773deadee2a65f6", "fusion_lon": 0.0}, {"is_reserved": 0, "type": "electric_scooter", "bike_id": "17de85d10ba27ced80b27660034b34a4", "lat": 38.877863833333336, "lon": -77.02199933333333, "rental_uris": {"android": "https://dc.lft.to/lastmile_qr_scan", "ios": "https://dc.lft.to/lastmile_qr_scan"}, "is_disabled": 0, "fusion_lat": 0.0, "name": "17de85d10ba27ced80b27660034b34a4", "fusion_lon": 0.0}, {"is_reserved": 0, "type": "electric_scooter", "bike_id": "4705f0448c41a5c7eb4f5b6cd17f86be", "lat": 38.92044816666667, "lon": -77.0420195, "rental_uris": {"android": "https://dc.lft.to/lastmile_qr_scan", "ios": "https://dc.lft.to/lastmile_qr_scan"}, "is_disabled": 0, "fusion_lat": 0.0, "name": "4705f0448c41a5c7eb4f5b6cd17f86be", "fusion_lon": 0.0}, {"is_reserved": 0, "type": "electric_scooter", "bike_id": "5e9f23a6349da0f728410d4e89fbfbb8", "lat": 38.92794716666667, "lon": -77.0253705, "rental_uris": {"android": "https://dc.lft.to/lastmile_qr_scan", "ios": "https://dc.lft.to/lastmile_qr_scan"}, "is_disabled": 0, "fusion_lat": 0.0, "name": "5e9f23a6349da0f728410d4e89fbfbb8", "fusion_lon": 0.0}, {"is_reserved": 0, "type": "electric_scooter", "bike_id": "1778461480f518273ca24191533b8192", "lat": 38.919775, "lon": -77.04148933333333, "rental_uris": {"android": "https://dc.lft.to/lastmile_qr_scan", "ios": "https://dc.lft.to/lastmile_qr_scan"}, "is_disabled": 0, "fusion_lat": 0.0, "name": "1778461480f518273ca24191533b8192", "fusion_lon": 0.0}, {"is_reserved": 0, "type": "electric_bike", "bike_id": "7fa5387325efc9833202717d70d17f6a", "lat": 38.935541666666666, "lon": -77.03701383333333, "rental_uris": {"android": "https://dc.lft.to/lastmile_qr_scan", "ios": "https://dc.lft.to/lastmile_qr_scan"}, "is_disabled": 0, "fusion_lat": 0.0, "name": "7fa5387325efc9833202717d70d17f6a", "fusion_lon": 0.0}, {"is_reserved": 0, "type": "electric_bike", "bike_id": "0a5f1dd693ee29dc08b60874d5489ac9", "lat": 38.9224865, "lon": -77.030698, "rental_uris": {"android": "https://dc.lft.to/lastmile_qr_scan", "ios": "https://dc.lft.to/lastmile_qr_scan"}, "is_disabled": 0, "fusion_lat": 0.0, "name": "0a5f1dd693ee29dc08b60874d5489ac9", "fusion_lon": 0.0}, {"is_reserved": 0, "type": "electric_bike", "bike_id": "2c4216ee2fa68cce32fb3f96959dd339", "lat": 38.99998683333333, "lon": -76.91805833333333, "rental_uris": {"android": "https://dc.lft.to/lastmile_qr_scan", "ios": "https://dc.lft.to/lastmile_qr_scan"}, "is_disabled": 0, "fusion_lat": 0.0, "name": "2c4216ee2fa68cce32fb3f96959dd339", "fusion_lon": 0.0}, {"is_reserved": 0, "type": "electric_scooter", "bike_id": "aa11c7f4f842d8ebfcfc86597642f7e6", "lat": 38.917184166666665, "lon": -77.03836833333334, "rental_uris": {"android": "https://dc.lft.to/lastmile_qr_scan", "ios": "https://dc.lft.to/lastmile_qr_scan"}, "is_disabled": 0, "fusion_lat": 0.0, "name": "aa11c7f4f842d8ebfcfc86597642f7e6", "fusion_lon": 0.0}, {"is_reserved": 0, "type": "electric_scooter", "bike_id": "0d2d6f3ec9f4385a7f955bf14ac3968f", "lat": 38.91986283333333, "lon": -76.97307133333334, "rental_uris": {"android": "https://dc.lft.to/lastmile_qr_scan", "ios": "https://dc.lft.to/lastmile_qr_scan"}, "is_disabled": 0, "fusion_lat": 0.0, "name": "0d2d6f3ec9f4385a7f955bf14ac3968f", "fusion_lon": 0.0}, {"is_reserved": 0, "type": "electric_scooter", "bike_id": "f9ca184f50e38c4aa87905e7a2a0b54e", "lat": 38.926491, "lon": -77.03427233333333, "rental_uris": {"android": "https://dc.lft.to/lastmile_qr_scan", "ios": "https://dc.lft.to/lastmile_qr_scan"}, "is_disabled": 0, "fusion_lat": 0.0, "name": "f9ca184f50e38c4aa87905e7a2a0b54e", "fusion_lon": 0.0}, {"is_reserved": 0, "type": "electric_scooter", "bike_id": "6a8cac54c331b362b33c9612018a1816", "lat": 38.89902416666666, "lon": -77.00363116666666, "rental_uris": {"android": "https://dc.lft.to/lastmile_qr_scan", "ios": "https://dc.lft.to/lastmile_qr_scan"}, "is_disabled": 0, "fusion_lat": 0.0, "name": "6a8cac54c331b362b33c9612018a1816", "fusion_lon": 0.0}, {"is_reserved": 0, "type": "electric_scooter", "bike_id": "9d57985779382bdf070d610181cecbdb", "lat": 38.900121166666665, "lon": -76.98905366666666, "rental_uris": {"android": "https://dc.lft.to/lastmile_qr_scan", "ios": "https://dc.lft.to/lastmile_qr_scan"}, "is_disabled": 0, "fusion_lat": 0.0, "name": "9d57985779382bdf070d610181cecbdb", "fusion_lon": 0.0}, {"is_reserved": 0, "type": "electric_scooter", "bike_id": "c7cb5cdf70ba378a4907da0f5ba81238", "lat": 38.8971205, "lon": -77.02713916666667, "rental_uris": {"android": "https://dc.lft.to/lastmile_qr_scan", "ios": "https://dc.lft.to/lastmile_qr_scan"}, "is_disabled": 0, "fusion_lat": 0.0, "name": "c7cb5cdf70ba378a4907da0f5ba81238", "fusion_lon": 0.0}, {"is_reserved": 0, "type": "electric_bike", "bike_id": "2d4d8ad2167c29532893a56bf54eb8ab", "lat": 39.01094633333334, "lon": -77.04956366666667, "rental_uris": {"android": "https://dc.lft.to/lastmile_qr_scan", "ios": "https://dc.lft.to/lastmile_qr_scan"}, "is_disabled": 0, "fusion_lat": 0.0, "name": "2d4d8ad2167c29532893a56bf54eb8ab", "fusion_lon": 0.0}, {"is_reserved": 0, "type": "electric_bike", "bike_id": "415bdc2515ac99a9f85a960d28905ecb", "lat": 38.863322, "lon": -76.98724716666666, "rental_uris": {"android": "https://dc.lft.to/lastmile_qr_scan", "ios": "https://dc.lft.to/lastmile_qr_scan"}, "is_disabled": 0, "fusion_lat": 0.0, "name": "415bdc2515ac99a9f85a960d28905ecb", "fusion_lon": 0.0}, {"is_reserved": 0, "type": "electric_scooter", "bike_id": "8a9ad31d5b10d88ce2dc88de059960b8", "lat": 38.9222285, "lon": -77.04333666666666, "rental_uris": {"android": "https://dc.lft.to/lastmile_qr_scan", "ios": "https://dc.lft.to/lastmile_qr_scan"}, "is_disabled": 0, "fusion_lat": 0.0, "name": "8a9ad31d5b10d88ce2dc88de059960b8", "fusion_lon": 0.0}, {"is_reserved": 0, "type": "electric_scooter", "bike_id": "f9a47539ea705e36b8a150dc811405f7", "lat": 38.92630716666667, "lon": -77.03806833333333, "rental_uris": {"android": "https://dc.lft.to/lastmile_qr_scan", "ios": "https://dc.lft.to/lastmile_qr_scan"}, "is_disabled": 0, "fusion_lat": 0.0, "name": "f9a47539ea705e36b8a150dc811405f7", "fusion_lon": 0.0}, {"is_reserved": 0, "type": "electric_scooter", "bike_id": "af7fdab7f6e10440486ab8aa35cc5b38", "lat": 38.914000333333334, "lon": -77.03320283333333, "rental_uris": {"android": "https://dc.lft.to/lastmile_qr_scan", "ios": "https://dc.lft.to/lastmile_qr_scan"}, "is_disabled": 0, "fusion_lat": 0.0, "name": "af7fdab7f6e10440486ab8aa35cc5b38", "fusion_lon": 0.0}, {"is_reserved": 0, "type": "electric_bike", "bike_id": "cb46d550648dc8da27268d64c0c6fac4", "lat": 38.80382183333333, "lon": -76.98816816666667, "rental_uris": {"android": "https://dc.lft.to/lastmile_qr_scan", "ios": "https://dc.lft.to/lastmile_qr_scan"}, "is_disabled": 0, "fusion_lat": 0.0, "name": "cb46d550648dc8da27268d64c0c6fac4", "fusion_lon": 0.0}, {"is_reserved": 0, "type": "electric_scooter", "bike_id": "2c283ed0939ccd94e3e1bcfd36127e1a", "lat": 38.89458316666666, "lon": -77.01902683333333, "rental_uris": {"android": "https://dc.lft.to/lastmile_qr_scan", "ios": "https://dc.lft.to/lastmile_qr_scan"}, "is_disabled": 0, "fusion_lat": 0.0, "name": "2c283ed0939ccd94e3e1bcfd36127e1a", "fusion_lon": 0.0}, {"is_reserved": 0, "type": "electric_scooter", "bike_id": "51a47612f02263076cf471afe55d8898", "lat": 38.883684833333334, "lon": -76.94145466666667, "rental_uris": {"android": "https://dc.lft.to/lastmile_qr_scan", "ios": "https://dc.lft.to/lastmile_qr_scan"}, "is_disabled": 0, "fusion_lat": 0.0, "name": "51a47612f02263076cf471afe55d8898", "fusion_lon": 0.0}, {"is_reserved": 0, "type": "electric_scooter", "bike_id": "877d9092f9eb9e40cdb7d3c54e41b116", "lat": 38.93531616666667, "lon": -77.0235545, "rental_uris": {"android": "https://dc.lft.to/lastmile_qr_scan", "ios": "https://dc.lft.to/lastmile_qr_scan"}, "is_disabled": 0, "fusion_lat": 0.0, "name": "877d9092f9eb9e40cdb7d3c54e41b116", "fusion_lon": 0.0}, {"is_reserved": 0, "type": "electric_scooter", "bike_id": "6ef335e051f9e79992ffc4602b1efb1f", "lat": 38.90262033333333, "lon": -77.053979, "rental_uris": {"android": "https://dc.lft.to/lastmile_qr_scan", "ios": "https://dc.lft.to/lastmile_qr_scan"}, "is_disabled": 0, "fusion_lat": 0.0, "name": "6ef335e051f9e79992ffc4602b1efb1f", "fusion_lon": 0.0}, {"is_reserved": 0, "type": "electric_scooter", "bike_id": "ac14e890b06fcb56ffcaaed2b5f9bc2c", "lat": 38.93504683333333, "lon": -77.02424083333334, "rental_uris": {"android": "https://dc.lft.to/lastmile_qr_scan", "ios": "https://dc.lft.to/lastmile_qr_scan"}, "is_disabled": 0, "fusion_lat": 0.0, "name": "ac14e890b06fcb56ffcaaed2b5f9bc2c", "fusion_lon": 0.0}, {"is_reserved": 0, "type": "electric_scooter", "bike_id": "ed234aa753db038f03bcff7a638ac4f7", "lat": 38.88298483333333, "lon": -76.92928866666666, "rental_uris": {"android": "https://dc.lft.to/lastmile_qr_scan", "ios": "https://dc.lft.to/lastmile_qr_scan"}, "is_disabled": 0, "fusion_lat": 0.0, "name": "ed234aa753db038f03bcff7a638ac4f7", "fusion_lon": 0.0}, {"is_reserved": 0, "type": "electric_scooter", "bike_id": "d99ce3748623a9480adfcbf1aa54656d", "lat": 38.86721383333333, "lon": -76.97913883333334, "rental_uris": {"android": "https://dc.lft.to/lastmile_qr_scan", "ios": "https://dc.lft.to/lastmile_qr_scan"}, "is_disabled": 0, "fusion_lat": 0.0, "name": "d99ce3748623a9480adfcbf1aa54656d", "fusion_lon": 0.0}, {"is_reserved": 0, "type": "electric_scooter", "bike_id": "e5f49d11236da0eb1c0e9efca4298198", "lat": 38.8652815, "lon": -76.96908, "rental_uris": {"android": "https://dc.lft.to/lastmile_qr_scan", "ios": "https://dc.lft.to/lastmile_qr_scan"}, "is_disabled": 0, "fusion_lat": 0.0, "name": "e5f49d11236da0eb1c0e9efca4298198", "fusion_lon": 0.0}, {"is_reserved": 0, "type": "electric_scooter", "bike_id": "f59bff7ae94f9fa05a62ce9faf856f3b", "lat": 38.91768283333333, "lon": -77.040609, "rental_uris": {"android": "https://dc.lft.to/lastmile_qr_scan", "ios": "https://dc.lft.to/lastmile_qr_scan"}, "is_disabled": 0, "fusion_lat": 0.0, "name": "f59bff7ae94f9fa05a62ce9faf856f3b", "fusion_lon": 0.0}, {"is_reserved": 0, "type": "electric_scooter", "bike_id": "ba374988b70f3aac725f6a2366fe92a6", "lat": 38.92504116666667, "lon": -77.03883166666667, "rental_uris": {"android": "https://dc.lft.to/lastmile_qr_scan", "ios": "https://dc.lft.to/lastmile_qr_scan"}, "is_disabled": 0, "fusion_lat": 0.0, "name": "ba374988b70f3aac725f6a2366fe92a6", "fusion_lon": 0.0}, {"is_reserved": 0, "type": "electric_scooter", "bike_id": "5b68249badcd75f6363ecff207d21e70", "lat": 38.90763833333333, "lon": -77.03210866666667, "rental_uris": {"android": "https://dc.lft.to/lastmile_qr_scan", "ios": "https://dc.lft.to/lastmile_qr_scan"}, "is_disabled": 0, "fusion_lat": 0.0, "name": "5b68249badcd75f6363ecff207d21e70", "fusion_lon": 0.0}, {"is_reserved": 0, "type": "electric_scooter", "bike_id": "55025d95aae5200879db5c328a883da7", "lat": 38.923693666666665, "lon": -77.01914983333333, "rental_uris": {"android": "https://dc.lft.to/lastmile_qr_scan", "ios": "https://dc.lft.to/lastmile_qr_scan"}, "is_disabled": 0, "fusion_lat": 0.0, "name": "55025d95aae5200879db5c328a883da7", "fusion_lon": 0.0}, {"is_reserved": 0, "type": "electric_scooter", "bike_id": "b0afda442b7f278b87ebb884b92b44ab", "lat": 38.9155395, "lon": -77.031181, "rental_uris": {"android": "https://dc.lft.to/lastmile_qr_scan", "ios": "https://dc.lft.to/lastmile_qr_scan"}, "is_disabled": 0, "fusion_lat": 0.0, "name": "b0afda442b7f278b87ebb884b92b44ab", "fusion_lon": 0.0}, {"is_reserved": 0, "type": "electric_scooter", "bike_id": "fc5b205593d43e10757013e472b0ea77", "lat": 38.89611283333333, "lon": -77.04410166666666, "rental_uris": {"android": "https://dc.lft.to/lastmile_qr_scan", "ios": "https://dc.lft.to/lastmile_qr_scan"}, "is_disabled": 0, "fusion_lat": 0.0, "name": "fc5b205593d43e10757013e472b0ea77", "fusion_lon": 0.0}, {"is_reserved": 0, "type": "electric_scooter", "bike_id": "705e0ab20d8bfb903ed53c1a13defccd", "lat": 38.893917333333334, "lon": -77.02970916666666, "rental_uris": {"android": "https://dc.lft.to/lastmile_qr_scan", "ios": "https://dc.lft.to/lastmile_qr_scan"}, "is_disabled": 0, "fusion_lat": 0.0, "name": "705e0ab20d8bfb903ed53c1a13defccd", "fusion_lon": 0.0}, {"is_reserved": 0, "type": "electric_scooter", "bike_id": "d2573cec0f06dfb17fef2581f766677d", "lat": 38.9724085, "lon": -77.0271425, "rental_uris": {"android": "https://dc.lft.to/lastmile_qr_scan", "ios": "https://dc.lft.to/lastmile_qr_scan"}, "is_disabled": 0, "fusion_lat": 0.0, "name": "d2573cec0f06dfb17fef2581f766677d", "fusion_lon": 0.0}, {"is_reserved": 0, "type": "electric_scooter", "bike_id": "6d8f0350b794ca280bfa5537f5c56e0f", "lat": 38.9188665, "lon": -77.047266, "rental_uris": {"android": "https://dc.lft.to/lastmile_qr_scan", "ios": "https://dc.lft.to/lastmile_qr_scan"}, "is_disabled": 0, "fusion_lat": 0.0, "name": "6d8f0350b794ca280bfa5537f5c56e0f", "fusion_lon": 0.0}, {"is_reserved": 0, "type": "electric_scooter", "bike_id": "579def4a63f1eb6d5f5cb2b2430ace56", "lat": 38.9322115, "lon": -77.026636, "rental_uris": {"android": "https://dc.lft.to/lastmile_qr_scan", "ios": "https://dc.lft.to/lastmile_qr_scan"}, "is_disabled": 0, "fusion_lat": 0.0, "name": "579def4a63f1eb6d5f5cb2b2430ace56", "fusion_lon": 0.0}, {"is_reserved": 0, "type": "electric_bike", "bike_id": "a963733a0a97a2a13441bbffa3c6d541", "lat": 38.80247833333333, "lon": -77.11439466666667, "rental_uris": {"android": "https://dc.lft.to/lastmile_qr_scan", "ios": "https://dc.lft.to/lastmile_qr_scan"}, "is_disabled": 0, "fusion_lat": 0.0, "name": "a963733a0a97a2a13441bbffa3c6d541", "fusion_lon": 0.0}, {"is_reserved": 0, "type": "electric_scooter", "bike_id": "284e34ac10eb4513a08c6f609d70dc02", "lat": 38.93043566666667, "lon": -77.05541166666667, "rental_uris": {"android": "https://dc.lft.to/lastmile_qr_scan", "ios": "https://dc.lft.to/lastmile_qr_scan"}, "is_disabled": 0, "fusion_lat": 0.0, "name": "284e34ac10eb4513a08c6f609d70dc02", "fusion_lon": 0.0}, {"is_reserved": 0, "type": "electric_scooter", "bike_id": "91ccb25357118d05e67d033b15389b05", "lat": 38.89405683333333, "lon": -77.02153783333333, "rental_uris": {"android": "https://dc.lft.to/lastmile_qr_scan", "ios": "https://dc.lft.to/lastmile_qr_scan"}, "is_disabled": 0, "fusion_lat": 0.0, "name": "91ccb25357118d05e67d033b15389b05", "fusion_lon": 0.0}, {"is_reserved": 0, "type": "electric_scooter", "bike_id": "7c5dd9fdcfffbe0ba96e601551f64857", "lat": 38.91564116666667, "lon": -77.022823, "rental_uris": {"android": "https://dc.lft.to/lastmile_qr_scan", "ios": "https://dc.lft.to/lastmile_qr_scan"}, "is_disabled": 0, "fusion_lat": 0.0, "name": "7c5dd9fdcfffbe0ba96e601551f64857", "fusion_lon": 0.0}, {"is_reserved": 0, "type": "electric_scooter", "bike_id": "8392f63a9f217f07913d23f6e7525803", "lat": 38.952468333333336, "lon": -77.00917533333333, "rental_uris": {"android": "https://dc.lft.to/lastmile_qr_scan", "ios": "https://dc.lft.to/lastmile_qr_scan"}, "is_disabled": 0, "fusion_lat": 0.0, "name": "8392f63a9f217f07913d23f6e7525803", "fusion_lon": 0.0}, {"is_reserved": 0, "type": "electric_scooter", "bike_id": "2d6eb2e067ba056dcd13c0b7291f2dee", "lat": 38.920959, "lon": -77.04692483333334, "rental_uris": {"android": "https://dc.lft.to/lastmile_qr_scan", "ios": "https://dc.lft.to/lastmile_qr_scan"}, "is_disabled": 0, "fusion_lat": 0.0, "name": "2d6eb2e067ba056dcd13c0b7291f2dee", "fusion_lon": 0.0}, {"is_reserved": 0, "type": "electric_scooter", "bike_id": "281263c69321c8ab973a4c4d892efd39", "lat": 38.91783983333333, "lon": -77.02304283333334, "rental_uris": {"android": "https://dc.lft.to/lastmile_qr_scan", "ios": "https://dc.lft.to/lastmile_qr_scan"}, "is_disabled": 0, "fusion_lat": 0.0, "name": "281263c69321c8ab973a4c4d892efd39", "fusion_lon": 0.0}, {"is_reserved": 0, "type": "electric_scooter", "bike_id": "9637f389de145170721fd181c8394079", "lat": 38.9432515, "lon": -77.0125855, "rental_uris": {"android": "https://dc.lft.to/lastmile_qr_scan", "ios": "https://dc.lft.to/lastmile_qr_scan"}, "is_disabled": 0, "fusion_lat": 0.0, "name": "9637f389de145170721fd181c8394079", "fusion_lon": 0.0}, {"is_reserved": 0, "type": "electric_scooter", "bike_id": "ab10e3144a539956f22519236c71bb90", "lat": 38.92404766666667, "lon": -77.04264733333333, "rental_uris": {"android": "https://dc.lft.to/lastmile_qr_scan", "ios": "https://dc.lft.to/lastmile_qr_scan"}, "is_disabled": 0, "fusion_lat": 0.0, "name": "ab10e3144a539956f22519236c71bb90", "fusion_lon": 0.0}, {"is_reserved": 0, "type": "electric_scooter", "bike_id": "161b4956548b753eeed903944c26f243", "lat": 38.926367, "lon": -77.0425205, "rental_uris": {"android": "https://dc.lft.to/lastmile_qr_scan", "ios": "https://dc.lft.to/lastmile_qr_scan"}, "is_disabled": 0, "fusion_lat": 0.0, "name": "161b4956548b753eeed903944c26f243", "fusion_lon": 0.0}, {"is_reserved": 0, "type": "electric_scooter", "bike_id": "6a31076e0f708179a2f65c69ae6adf43", "lat": 38.90900933333333, "lon": -76.99620283333333, "rental_uris": {"android": "https://dc.lft.to/lastmile_qr_scan", "ios": "https://dc.lft.to/lastmile_qr_scan"}, "is_disabled": 0, "fusion_lat": 0.0, "name": "6a31076e0f708179a2f65c69ae6adf43", "fusion_lon": 0.0}, {"is_reserved": 0, "type": "electric_scooter", "bike_id": "b5e659289fb60dfd8e0b808374456119", "lat": 38.88616833333333, "lon": -77.01977416666666, "rental_uris": {"android": "https://dc.lft.to/lastmile_qr_scan", "ios": "https://dc.lft.to/lastmile_qr_scan"}, "is_disabled": 0, "fusion_lat": 0.0, "name": "b5e659289fb60dfd8e0b808374456119", "fusion_lon": 0.0}, {"is_reserved": 0, "type": "electric_scooter", "bike_id": "8603b677a71bddd2114dbcbd95ac01db", "lat": 38.9751805, "lon": -77.01746233333333, "rental_uris": {"android": "https://dc.lft.to/lastmile_qr_scan", "ios": "https://dc.lft.to/lastmile_qr_scan"}, "is_disabled": 0, "fusion_lat": 0.0, "name": "8603b677a71bddd2114dbcbd95ac01db", "fusion_lon": 0.0}, {"is_reserved": 0, "type": "electric_scooter", "bike_id": "602555e0c49104ef1013f4b9a895f497", "lat": 38.9302385, "lon": -77.05554766666667, "rental_uris": {"android": "https://dc.lft.to/lastmile_qr_scan", "ios": "https://dc.lft.to/lastmile_qr_scan"}, "is_disabled": 0, "fusion_lat": 0.0, "name": "602555e0c49104ef1013f4b9a895f497", "fusion_lon": 0.0}, {"is_reserved": 0, "type": "electric_scooter", "bike_id": "03d5769bea7a845554700b91a4c08924", "lat": 38.92604516666667, "lon": -77.021734, "rental_uris": {"android": "https://dc.lft.to/lastmile_qr_scan", "ios": "https://dc.lft.to/lastmile_qr_scan"}, "is_disabled": 0, "fusion_lat": 0.0, "name": "03d5769bea7a845554700b91a4c08924", "fusion_lon": 0.0}, {"is_reserved": 0, "type": "electric_bike", "bike_id": "d5f4a17972651ed73f538dc73c0a8d16", "lat": 38.957533, "lon": -76.98020466666667, "rental_uris": {"android": "https://dc.lft.to/lastmile_qr_scan", "ios": "https://dc.lft.to/lastmile_qr_scan"}, "is_disabled": 0, "fusion_lat": 0.0, "name": "d5f4a17972651ed73f538dc73c0a8d16", "fusion_lon": 0.0}, {"is_reserved": 0, "type": "electric_scooter", "bike_id": "9799e7dee601cc63361fce214b588dda", "lat": 38.916819, "lon": -77.0320885, "rental_uris": {"android": "https://dc.lft.to/lastmile_qr_scan", "ios": "https://dc.lft.to/lastmile_qr_scan"}, "is_disabled": 0, "fusion_lat": 0.0, "name": "9799e7dee601cc63361fce214b588dda", "fusion_lon": 0.0}, {"is_reserved": 0, "type": "electric_scooter", "bike_id": "c40d0ff0019f1024776b427dd6c53bdd", "lat": 38.90081816666667, "lon": -77.00213983333333, "rental_uris": {"android": "https://dc.lft.to/lastmile_qr_scan", "ios": "https://dc.lft.to/lastmile_qr_scan"}, "is_disabled": 0, "fusion_lat": 0.0, "name": "c40d0ff0019f1024776b427dd6c53bdd", "fusion_lon": 0.0}, {"is_reserved": 0, "type": "electric_scooter", "bike_id": "d7bacbd7386705dcae045150d950631f", "lat": 38.901954833333335, "lon": -77.02184, "rental_uris": {"android": "https://dc.lft.to/lastmile_qr_scan", "ios": "https://dc.lft.to/lastmile_qr_scan"}, "is_disabled": 0, "fusion_lat": 0.0, "name": "d7bacbd7386705dcae045150d950631f", "fusion_lon": 0.0}, {"is_reserved": 0, "type": "electric_scooter", "bike_id": "1dab1e381f3f936aa5d25450304866c5", "lat": 38.931409, "lon": -77.03823866666667, "rental_uris": {"android": "https://dc.lft.to/lastmile_qr_scan", "ios": "https://dc.lft.to/lastmile_qr_scan"}, "is_disabled": 0, "fusion_lat": 0.0, "name": "1dab1e381f3f936aa5d25450304866c5", "fusion_lon": 0.0}, {"is_reserved": 0, "type": "electric_scooter", "bike_id": "2999ebe54535527ee6259eb8666a2179", "lat": 38.918612833333334, "lon": -77.04177866666667, "rental_uris": {"android": "https://dc.lft.to/lastmile_qr_scan", "ios": "https://dc.lft.to/lastmile_qr_scan"}, "is_disabled": 0, "fusion_lat": 0.0, "name": "2999ebe54535527ee6259eb8666a2179", "fusion_lon": 0.0}, {"is_reserved": 0, "type": "electric_scooter", "bike_id": "2b1ffc6a183ef634b5bd3e47fbf44b90", "lat": 38.903523666666665, "lon": -76.9861405, "rental_uris": {"android": "https://dc.lft.to/lastmile_qr_scan", "ios": "https://dc.lft.to/lastmile_qr_scan"}, "is_disabled": 0, "fusion_lat": 0.0, "name": "2b1ffc6a183ef634b5bd3e47fbf44b90", "fusion_lon": 0.0}, {"is_reserved": 0, "type": "electric_scooter", "bike_id": "a83976159a61330af54273c5a08fb444", "lat": 38.91251183333333, "lon": -77.03811333333333, "rental_uris": {"android": "https://dc.lft.to/lastmile_qr_scan", "ios": "https://dc.lft.to/lastmile_qr_scan"}, "is_disabled": 0, "fusion_lat": 0.0, "name": "a83976159a61330af54273c5a08fb444", "fusion_lon": 0.0}, {"is_reserved": 0, "type": "electric_scooter", "bike_id": "2ad455beda99a1a9e102a88aed70cd70", "lat": 38.9181055, "lon": -77.045521, "rental_uris": {"android": "https://dc.lft.to/lastmile_qr_scan", "ios": "https://dc.lft.to/lastmile_qr_scan"}, "is_disabled": 0, "fusion_lat": 0.0, "name": "2ad455beda99a1a9e102a88aed70cd70", "fusion_lon": 0.0}, {"is_reserved": 0, "type": "electric_scooter", "bike_id": "75e50673503fa70de46c96b6558b2a63", "lat": 38.92336183333333, "lon": -77.05681916666667, "rental_uris": {"android": "https://dc.lft.to/lastmile_qr_scan", "ios": "https://dc.lft.to/lastmile_qr_scan"}, "is_disabled": 0, "fusion_lat": 0.0, "name": "75e50673503fa70de46c96b6558b2a63", "fusion_lon": 0.0}, {"is_reserved": 0, "type": "electric_scooter", "bike_id": "c9c7e173e6aa979cd7370a825b95a869", "lat": 38.93994416666666, "lon": -77.02003066666667, "rental_uris": {"android": "https://dc.lft.to/lastmile_qr_scan", "ios": "https://dc.lft.to/lastmile_qr_scan"}, "is_disabled": 0, "fusion_lat": 0.0, "name": "c9c7e173e6aa979cd7370a825b95a869", "fusion_lon": 0.0}, {"is_reserved": 0, "type": "electric_scooter", "bike_id": "e31b873293e89413f59295d9fc4a7739", "lat": 38.9751745, "lon": -77.01746916666667, "rental_uris": {"android": "https://dc.lft.to/lastmile_qr_scan", "ios": "https://dc.lft.to/lastmile_qr_scan"}, "is_disabled": 0, "fusion_lat": 0.0, "name": "e31b873293e89413f59295d9fc4a7739", "fusion_lon": 0.0}, {"is_reserved": 0, "type": "electric_scooter", "bike_id": "8ba967ebe60543427b2d0115234e6317", "lat": 38.93302416666667, "lon": -77.0214445, "rental_uris": {"android": "https://dc.lft.to/lastmile_qr_scan", "ios": "https://dc.lft.to/lastmile_qr_scan"}, "is_disabled": 0, "fusion_lat": 0.0, "name": "8ba967ebe60543427b2d0115234e6317", "fusion_lon": 0.0}, {"is_reserved": 0, "type": "electric_scooter", "bike_id": "14efe27b192352af45e30afeb234e0a7", "lat": 38.9072765, "lon": -76.93447883333333, "rental_uris": {"android": "https://dc.lft.to/lastmile_qr_scan", "ios": "https://dc.lft.to/lastmile_qr_scan"}, "is_disabled": 0, "fusion_lat": 0.0, "name": "14efe27b192352af45e30afeb234e0a7", "fusion_lon": 0.0}, {"is_reserved": 0, "type": "electric_scooter", "bike_id": "86c6128b28829f6c49b778475e830ee5", "lat": 38.935280166666665, "lon": -77.01943416666667, "rental_uris": {"android": "https://dc.lft.to/lastmile_qr_scan", "ios": "https://dc.lft.to/lastmile_qr_scan"}, "is_disabled": 0, "fusion_lat": 0.0, "name": "86c6128b28829f6c49b778475e830ee5", "fusion_lon": 0.0}, {"is_reserved": 0, "type": "electric_scooter", "bike_id": "af6907d782b1fa14d9f76c73c99860ef", "lat": 38.9246785, "lon": -77.03934466666666, "rental_uris": {"android": "https://dc.lft.to/lastmile_qr_scan", "ios": "https://dc.lft.to/lastmile_qr_scan"}, "is_disabled": 0, "fusion_lat": 0.0, "name": "af6907d782b1fa14d9f76c73c99860ef", "fusion_lon": 0.0}, {"is_reserved": 0, "type": "electric_scooter", "bike_id": "d698b38dca01d765e8d0b70093935a88", "lat": 38.863436666666665, "lon": -76.9871825, "rental_uris": {"android": "https://dc.lft.to/lastmile_qr_scan", "ios": "https://dc.lft.to/lastmile_qr_scan"}, "is_disabled": 0, "fusion_lat": 0.0, "name": "d698b38dca01d765e8d0b70093935a88", "fusion_lon": 0.0}, {"is_reserved": 0, "type": "electric_scooter", "bike_id": "a56dbce374c251a2c5ab7399c0d3cd11", "lat": 38.92675233333333, "lon": -77.03198533333334, "rental_uris": {"android": "https://dc.lft.to/lastmile_qr_scan", "ios": "https://dc.lft.to/lastmile_qr_scan"}, "is_disabled": 0, "fusion_lat": 0.0, "name": "a56dbce374c251a2c5ab7399c0d3cd11", "fusion_lon": 0.0}, {"is_reserved": 0, "type": "electric_scooter", "bike_id": "4766017c89d5d9df1736d0249d406986", "lat": 38.899485166666665, "lon": -76.9791465, "rental_uris": {"android": "https://dc.lft.to/lastmile_qr_scan", "ios": "https://dc.lft.to/lastmile_qr_scan"}, "is_disabled": 0, "fusion_lat": 0.0, "name": "4766017c89d5d9df1736d0249d406986", "fusion_lon": 0.0}, {"is_reserved": 0, "type": "electric_scooter", "bike_id": "046d6c8ac43d09a739b88e42b08b937d", "lat": 38.90525433333333, "lon": -77.06461733333333, "rental_uris": {"android": "https://dc.lft.to/lastmile_qr_scan", "ios": "https://dc.lft.to/lastmile_qr_scan"}, "is_disabled": 0, "fusion_lat": 0.0, "name": "046d6c8ac43d09a739b88e42b08b937d", "fusion_lon": 0.0}, {"is_reserved": 0, "type": "electric_scooter", "bike_id": "a3a0e8352697424abf58c893600ebdfa", "lat": 38.90646566666667, "lon": -76.9838105, "rental_uris": {"android": "https://dc.lft.to/lastmile_qr_scan", "ios": "https://dc.lft.to/lastmile_qr_scan"}, "is_disabled": 0, "fusion_lat": 0.0, "name": "a3a0e8352697424abf58c893600ebdfa", "fusion_lon": 0.0}, {"is_reserved": 0, "type": "electric_scooter", "bike_id": "faf5e72ca68330ef5e60abe8e882a44d", "lat": 38.914041833333336, "lon": -77.0318385, "rental_uris": {"android": "https://dc.lft.to/lastmile_qr_scan", "ios": "https://dc.lft.to/lastmile_qr_scan"}, "is_disabled": 0, "fusion_lat": 0.0, "name": "faf5e72ca68330ef5e60abe8e882a44d", "fusion_lon": 0.0}, {"is_reserved": 0, "type": "electric_scooter", "bike_id": "803bb328473401bba555192774652cf5", "lat": 38.9164795, "lon": -77.03892316666666, "rental_uris": {"android": "https://dc.lft.to/lastmile_qr_scan", "ios": "https://dc.lft.to/lastmile_qr_scan"}, "is_disabled": 0, "fusion_lat": 0.0, "name": "803bb328473401bba555192774652cf5", "fusion_lon": 0.0}, {"is_reserved": 0, "type": "electric_scooter", "bike_id": "fcac9b73144d34924e97feb72f63d92e", "lat": 38.91821633333333, "lon": -77.032024, "rental_uris": {"android": "https://dc.lft.to/lastmile_qr_scan", "ios": "https://dc.lft.to/lastmile_qr_scan"}, "is_disabled": 0, "fusion_lat": 0.0, "name": "fcac9b73144d34924e97feb72f63d92e", "fusion_lon": 0.0}, {"is_reserved": 0, "type": "electric_scooter", "bike_id": "9ff716de7ec9677542e4c73e20286933", "lat": 38.9370135, "lon": -77.021173, "rental_uris": {"android": "https://dc.lft.to/lastmile_qr_scan", "ios": "https://dc.lft.to/lastmile_qr_scan"}, "is_disabled": 0, "fusion_lat": 0.0, "name": "9ff716de7ec9677542e4c73e20286933", "fusion_lon": 0.0}, {"is_reserved": 0, "type": "electric_scooter", "bike_id": "69da15b3285c62b4120f052ff0c25840", "lat": 38.89606033333333, "lon": -77.04687733333333, "rental_uris": {"android": "https://dc.lft.to/lastmile_qr_scan", "ios": "https://dc.lft.to/lastmile_qr_scan"}, "is_disabled": 0, "fusion_lat": 0.0, "name": "69da15b3285c62b4120f052ff0c25840", "fusion_lon": 0.0}, {"is_reserved": 0, "type": "electric_scooter", "bike_id": "16c3ed192ec7ad94ddfbde6600d56514", "lat": 38.899178666666664, "lon": -76.978361, "rental_uris": {"android": "https://dc.lft.to/lastmile_qr_scan", "ios": "https://dc.lft.to/lastmile_qr_scan"}, "is_disabled": 0, "fusion_lat": 0.0, "name": "16c3ed192ec7ad94ddfbde6600d56514", "fusion_lon": 0.0}, {"is_reserved": 0, "type": "electric_scooter", "bike_id": "b5f8e985589776c4b43b2ae34fb2fcbc", "lat": 38.89541716666667, "lon": -77.030226, "rental_uris": {"android": "https://dc.lft.to/lastmile_qr_scan", "ios": "https://dc.lft.to/lastmile_qr_scan"}, "is_disabled": 0, "fusion_lat": 0.0, "name": "b5f8e985589776c4b43b2ae34fb2fcbc", "fusion_lon": 0.0}, {"is_reserved": 0, "type": "electric_scooter", "bike_id": "1f8a9d5dc64454cd34d4a615b3436ee8", "lat": 38.897069, "lon": -77.0228765, "rental_uris": {"android": "https://dc.lft.to/lastmile_qr_scan", "ios": "https://dc.lft.to/lastmile_qr_scan"}, "is_disabled": 0, "fusion_lat": 0.0, "name": "1f8a9d5dc64454cd34d4a615b3436ee8", "fusion_lon": 0.0}, {"is_reserved": 0, "type": "electric_scooter", "bike_id": "c5e3752f9388ae84cd9ed6a777954079", "lat": 38.91472566666667, "lon": -77.03217583333333, "rental_uris": {"android": "https://dc.lft.to/lastmile_qr_scan", "ios": "https://dc.lft.to/lastmile_qr_scan"}, "is_disabled": 0, "fusion_lat": 0.0, "name": "c5e3752f9388ae84cd9ed6a777954079", "fusion_lon": 0.0}, {"is_reserved": 0, "type": "electric_scooter", "bike_id": "54ab60d8005d27dc186aabed670f6d13", "lat": 38.92689466666667, "lon": -77.037593, "rental_uris": {"android": "https://dc.lft.to/lastmile_qr_scan", "ios": "https://dc.lft.to/lastmile_qr_scan"}, "is_disabled": 0, "fusion_lat": 0.0, "name": "54ab60d8005d27dc186aabed670f6d13", "fusion_lon": 0.0}, {"is_reserved": 0, "type": "electric_scooter", "bike_id": "7929fe22aecacba0518ca1ebbac9d23f", "lat": 38.935441833333336, "lon": -77.03418616666667, "rental_uris": {"android": "https://dc.lft.to/lastmile_qr_scan", "ios": "https://dc.lft.to/lastmile_qr_scan"}, "is_disabled": 0, "fusion_lat": 0.0, "name": "7929fe22aecacba0518ca1ebbac9d23f", "fusion_lon": 0.0}, {"is_reserved": 0, "type": "electric_bike", "bike_id": "c2f9e77b627e27d148746a128a4f3db3", "lat": 38.92779616666667, "lon": -76.99906766666666, "rental_uris": {"android": "https://dc.lft.to/lastmile_qr_scan", "ios": "https://dc.lft.to/lastmile_qr_scan"}, "is_disabled": 0, "fusion_lat": 0.0, "name": "c2f9e77b627e27d148746a128a4f3db3", "fusion_lon": 0.0}, {"is_reserved": 0, "type": "electric_scooter", "bike_id": "4c4c3b6836505ef0dfaa53c2c4d146f8", "lat": 38.90527133333333, "lon": -77.06785866666667, "rental_uris": {"android": "https://dc.lft.to/lastmile_qr_scan", "ios": "https://dc.lft.to/lastmile_qr_scan"}, "is_disabled": 0, "fusion_lat": 0.0, "name": "4c4c3b6836505ef0dfaa53c2c4d146f8", "fusion_lon": 0.0}, {"is_reserved": 0, "type": "electric_bike", "bike_id": "a4f95f8704c5c09a050a0374ef51e6a6", "lat": 38.920375166666666, "lon": -76.97956016666667, "rental_uris": {"android": "https://dc.lft.to/lastmile_qr_scan", "ios": "https://dc.lft.to/lastmile_qr_scan"}, "is_disabled": 0, "fusion_lat": 0.0, "name": "a4f95f8704c5c09a050a0374ef51e6a6", "fusion_lon": 0.0}, {"is_reserved": 0, "type": "electric_scooter", "bike_id": "b005936d471724bacfe6cb106991b470", "lat": 38.923613333333336, "lon": -77.05131616666667, "rental_uris": {"android": "https://dc.lft.to/lastmile_qr_scan", "ios": "https://dc.lft.to/lastmile_qr_scan"}, "is_disabled": 0, "fusion_lat": 0.0, "name": "b005936d471724bacfe6cb106991b470", "fusion_lon": 0.0}, {"is_reserved": 0, "type": "electric_scooter", "bike_id": "9243c1bbefa23d099f252b5fc6e5964e", "lat": 38.91594516666667, "lon": -77.021338, "rental_uris": {"android": "https://dc.lft.to/lastmile_qr_scan", "ios": "https://dc.lft.to/lastmile_qr_scan"}, "is_disabled": 0, "fusion_lat": 0.0, "name": "9243c1bbefa23d099f252b5fc6e5964e", "fusion_lon": 0.0}, {"is_reserved": 0, "type": "electric_scooter", "bike_id": "4d1a9a6abdb3840df3e7963e83d76eda", "lat": 38.90580033333333, "lon": -77.03651216666667, "rental_uris": {"android": "https://dc.lft.to/lastmile_qr_scan", "ios": "https://dc.lft.to/lastmile_qr_scan"}, "is_disabled": 0, "fusion_lat": 0.0, "name": "4d1a9a6abdb3840df3e7963e83d76eda", "fusion_lon": 0.0}, {"is_reserved": 0, "type": "electric_scooter", "bike_id": "b7ebbf7c5759f18a6d1edc24c17df209", "lat": 38.907415, "lon": -77.03298066666666, "rental_uris": {"android": "https://dc.lft.to/lastmile_qr_scan", "ios": "https://dc.lft.to/lastmile_qr_scan"}, "is_disabled": 0, "fusion_lat": 0.0, "name": "b7ebbf7c5759f18a6d1edc24c17df209", "fusion_lon": 0.0}, {"is_reserved": 0, "type": "electric_scooter", "bike_id": "812619bd621c1da50836ee17a15d8940", "lat": 38.924553833333334, "lon": -77.032841, "rental_uris": {"android": "https://dc.lft.to/lastmile_qr_scan", "ios": "https://dc.lft.to/lastmile_qr_scan"}, "is_disabled": 0, "fusion_lat": 0.0, "name": "812619bd621c1da50836ee17a15d8940", "fusion_lon": 0.0}, {"is_reserved": 0, "type": "electric_scooter", "bike_id": "050d859f824317662290bea66d85d0a0", "lat": 38.92766983333333, "lon": -77.02774133333334, "rental_uris": {"android": "https://dc.lft.to/lastmile_qr_scan", "ios": "https://dc.lft.to/lastmile_qr_scan"}, "is_disabled": 0, "fusion_lat": 0.0, "name": "050d859f824317662290bea66d85d0a0", "fusion_lon": 0.0}, {"is_reserved": 0, "type": "electric_scooter", "bike_id": "df53b1a91c1d6d829545ad1a042e72e4", "lat": 38.84586433333333, "lon": -76.98164116666666, "rental_uris": {"android": "https://dc.lft.to/lastmile_qr_scan", "ios": "https://dc.lft.to/lastmile_qr_scan"}, "is_disabled": 0, "fusion_lat": 0.0, "name": "df53b1a91c1d6d829545ad1a042e72e4", "fusion_lon": 0.0}, {"is_reserved": 0, "type": "electric_scooter", "bike_id": "891f6dc203e2e7792826cde2aaa16f08", "lat": 38.94733816666667, "lon": -77.0245795, "rental_uris": {"android": "https://dc.lft.to/lastmile_qr_scan", "ios": "https://dc.lft.to/lastmile_qr_scan"}, "is_disabled": 0, "fusion_lat": 0.0, "name": "891f6dc203e2e7792826cde2aaa16f08", "fusion_lon": 0.0}, {"is_reserved": 0, "type": "electric_scooter", "bike_id": "f3bd40c42d027d863f8904ef4f1b3d75", "lat": 38.93373966666667, "lon": -77.0572345, "rental_uris": {"android": "https://dc.lft.to/lastmile_qr_scan", "ios": "https://dc.lft.to/lastmile_qr_scan"}, "is_disabled": 0, "fusion_lat": 0.0, "name": "f3bd40c42d027d863f8904ef4f1b3d75", "fusion_lon": 0.0}, {"is_reserved": 0, "type": "electric_scooter", "bike_id": "9cd55cce4b62e5d55355838990aff058", "lat": 38.898941, "lon": -77.01621916666667, "rental_uris": {"android": "https://dc.lft.to/lastmile_qr_scan", "ios": "https://dc.lft.to/lastmile_qr_scan"}, "is_disabled": 0, "fusion_lat": 0.0, "name": "9cd55cce4b62e5d55355838990aff058", "fusion_lon": 0.0}, {"is_reserved": 0, "type": "electric_scooter", "bike_id": "d0640747a8cb7c824960b01e0f5c640d", "lat": 38.89266116666667, "lon": -77.04198833333334, "rental_uris": {"android": "https://dc.lft.to/lastmile_qr_scan", "ios": "https://dc.lft.to/lastmile_qr_scan"}, "is_disabled": 0, "fusion_lat": 0.0, "name": "d0640747a8cb7c824960b01e0f5c640d", "fusion_lon": 0.0}, {"is_reserved": 0, "type": "electric_scooter", "bike_id": "c57109b46b3306ecd6b2b89fe6c7d44d", "lat": 38.925666, "lon": -76.97004916666667, "rental_uris": {"android": "https://dc.lft.to/lastmile_qr_scan", "ios": "https://dc.lft.to/lastmile_qr_scan"}, "is_disabled": 0, "fusion_lat": 0.0, "name": "c57109b46b3306ecd6b2b89fe6c7d44d", "fusion_lon": 0.0}, {"is_reserved": 0, "type": "electric_scooter", "bike_id": "aa72870642aa3abd8268be8b090ff330", "lat": 38.92969733333334, "lon": -77.02341883333334, "rental_uris": {"android": "https://dc.lft.to/lastmile_qr_scan", "ios": "https://dc.lft.to/lastmile_qr_scan"}, "is_disabled": 0, "fusion_lat": 0.0, "name": "aa72870642aa3abd8268be8b090ff330", "fusion_lon": 0.0}, {"is_reserved": 0, "type": "electric_scooter", "bike_id": "e9317e7835951d71157f40e9f4e4e30a", "lat": 38.930851, "lon": -77.03498516666667, "rental_uris": {"android": "https://dc.lft.to/lastmile_qr_scan", "ios": "https://dc.lft.to/lastmile_qr_scan"}, "is_disabled": 0, "fusion_lat": 0.0, "name": "e9317e7835951d71157f40e9f4e4e30a", "fusion_lon": 0.0}, {"is_reserved": 0, "type": "electric_scooter", "bike_id": "491eceb449baf65f602de089c6d9eb1a", "lat": 38.90039816666667, "lon": -76.9915775, "rental_uris": {"android": "https://dc.lft.to/lastmile_qr_scan", "ios": "https://dc.lft.to/lastmile_qr_scan"}, "is_disabled": 0, "fusion_lat": 0.0, "name": "491eceb449baf65f602de089c6d9eb1a", "fusion_lon": 0.0}, {"is_reserved": 0, "type": "electric_scooter", "bike_id": "f98be04a9e87bde284022da8a7f816e0", "lat": 38.920813333333335, "lon": -77.02436733333333, "rental_uris": {"android": "https://dc.lft.to/lastmile_qr_scan", "ios": "https://dc.lft.to/lastmile_qr_scan"}, "is_disabled": 0, "fusion_lat": 0.0, "name": "f98be04a9e87bde284022da8a7f816e0", "fusion_lon": 0.0}, {"is_reserved": 0, "type": "electric_scooter", "bike_id": "dfd439ca49e8cb4808d44d51c06cd0a7", "lat": 38.917041, "lon": -77.026778, "rental_uris": {"android": "https://dc.lft.to/lastmile_qr_scan", "ios": "https://dc.lft.to/lastmile_qr_scan"}, "is_disabled": 0, "fusion_lat": 0.0, "name": "dfd439ca49e8cb4808d44d51c06cd0a7", "fusion_lon": 0.0}, {"is_reserved": 0, "type": "electric_scooter", "bike_id": "4775154c9af1a0da43993aafb804f73a", "lat": 38.90964266666667, "lon": -77.02126533333333, "rental_uris": {"android": "https://dc.lft.to/lastmile_qr_scan", "ios": "https://dc.lft.to/lastmile_qr_scan"}, "is_disabled": 0, "fusion_lat": 0.0, "name": "4775154c9af1a0da43993aafb804f73a", "fusion_lon": 0.0}, {"is_reserved": 0, "type": "electric_scooter", "bike_id": "4c25f4e7a032d857b1ca8b343a3eaeca", "lat": 38.9353735, "lon": -77.07288566666666, "rental_uris": {"android": "https://dc.lft.to/lastmile_qr_scan", "ios": "https://dc.lft.to/lastmile_qr_scan"}, "is_disabled": 0, "fusion_lat": 0.0, "name": "4c25f4e7a032d857b1ca8b343a3eaeca", "fusion_lon": 0.0}, {"is_reserved": 0, "type": "electric_bike", "bike_id": "0c7bf7b4a905a35609604347f4cfc2b2", "lat": 38.90695516666667, "lon": -76.95252416666666, "rental_uris": {"android": "https://dc.lft.to/lastmile_qr_scan", "ios": "https://dc.lft.to/lastmile_qr_scan"}, "is_disabled": 0, "fusion_lat": 0.0, "name": "0c7bf7b4a905a35609604347f4cfc2b2", "fusion_lon": 0.0},