{"data": {"bikes": [{"fusion_lat": 0.0, "name": "8d22acd2f42dd3e7334d48d382364bde", "is_disabled": 0, "rental_uris": {"android": "https://dc.lft.to/lastmile_qr_scan", "ios": "https://dc.lft.to/lastmile_qr_scan"}, "fusion_lon": 0.0, "lat": 38.91614383333334, "bike_id": "8d22acd2f42dd3e7334d48d382364bde", "type": "electric_scooter", "is_reserved": 0, "lon": -77.03852}, {"fusion_lat": 0.0, "name": "395a36954a80cc18f456f2572f6d8eac", "is_disabled": 0, "rental_uris": {"android": "https://dc.lft.to/lastmile_qr_scan", "ios": "https://dc.lft.to/lastmile_qr_scan"}, "fusion_lon": 0.0, "lat": 38.909695166666666, "bike_id": "395a36954a80cc18f456f2572f6d8eac", "type": "electric_scooter", "is_reserved": 0, "lon": -77.0324715}, {"fusion_lat": 0.0, "name": "deabf6af9b54f012fc9a971d126d7cbe", "is_disabled": 0, "rental_uris": {"android": "https://dc.lft.to/lastmile_qr_scan", "ios": "https://dc.lft.to/lastmile_qr_scan"}, "fusion_lon": 0.0, "lat": 38.90076583333333, "bike_id": "deabf6af9b54f012fc9a971d126d7cbe", "type": "electric_scooter", "is_reserved": 0, "lon": -77.05828733333334}, {"fusion_lat": 0.0, "name": "2abc77f84015b2485a367faf0b711a55", "is_disabled": 0, "rental_uris": {"android": "https://dc.lft.to/lastmile_qr_scan", "ios": "https://dc.lft.to/lastmile_qr_scan"}, "fusion_lon": 0.0, "lat": 38.925893333333335, "bike_id": "2abc77f84015b2485a367faf0b711a55", "type": "electric_scooter", "is_reserved": 0, "lon": -77.03760316666667}, {"fusion_lat": 0.0, "name": "556da3751432193c0d17fbae9d494cbf", "is_disabled": 0, "rental_uris": {"android": "https://dc.lft.to/lastmile_qr_scan", "ios": "https://dc.lft.to/lastmile_qr_scan"}, "fusion_lon": 0.0, "lat": 38.90672466666667, "bike_id": "556da3751432193c0d17fbae9d494cbf", "type": "electric_scooter", "is_reserved": 0, "lon": -77.07016366666667}, {"fusion_lat": 0.0, "name": "740f60989d0430dc2b2a084dc2d4e445", "is_disabled": 0, "rental_uris": {"android": "https://dc.lft.to/lastmile_qr_scan", "ios": "https://dc.lft.to/lastmile_qr_scan"}, "fusion_lon": 0.0, "lat": 38.897442, "bike_id": "740f60989d0430dc2b2a084dc2d4e445", "type": "electric_scooter", "is_reserved": 0, "lon": -77.021742}, {"fusion_lat": 0.0, "name": "f964620cb97267b26262390e255a0ff5", "is_disabled": 0, "rental_uris": {"android": "https://dc.lft.to/lastmile_qr_scan", "ios": "https://dc.lft.to/lastmile_qr_scan"}, "fusion_lon": 0.0, "lat": 38.89896, "bike_id": "f964620cb97267b26262390e255a0ff5", "type": "electric_scooter", "is_reserved": 0, "lon": -76.93353983333333}, {"fusion_lat": 0.0, "name": "9ad6fb120c205639350c638f66a34f78", "is_disabled": 0, "rental_uris": {"android": "https://dc.lft.to/lastmile_qr_scan", "ios": "https://dc.lft.to/lastmile_qr_scan"}, "fusion_lon": 0.0, "lat": 38.93402716666667, "bike_id": "9ad6fb120c205639350c638f66a34f78", "type": "electric_scooter", "is_reserved": 0, "lon": -77.04163016666666}, {"fusion_lat": 0.0, "name": "0d6520146345853d37f94aa99263bf1f", "is_disabled": 0, "rental_uris": {"android": "https://dc.lft.to/lastmile_qr_scan", "ios": "https://dc.lft.to/lastmile_qr_scan"}, "fusion_lon": 0.0, "lat": 38.9351535, "bike_id": "0d6520146345853d37f94aa99263bf1f", "type": "electric_scooter", "is_reserved": 0, "lon": -77.02423166666667}, {"fusion_lat": 0.0, "name": "22254927825800a59b04eb569433db74", "is_disabled": 0, "rental_uris": {"android": "https://dc.lft.to/lastmile_qr_scan", "ios": "https://dc.lft.to/lastmile_qr_scan"}, "fusion_lon": 0.0, "lat": 38.911133666666665, "bike_id": "22254927825800a59b04eb569433db74", "type": "electric_scooter", "is_reserved": 0, "lon": -76.99769333333333}, {"fusion_lat": 0.0, "name": "d2edd80676865833315ce16af7b62cfc", "is_disabled": 0, "rental_uris": {"android": "https://dc.lft.to/lastmile_qr_scan", "ios": "https://dc.lft.to/lastmile_qr_scan"}, "fusion_lon": 0.0, "lat": 38.90526166666667, "bike_id": "d2edd80676865833315ce16af7b62cfc", "type": "electric_scooter", "is_reserved": 0, "lon": -77.067793}, {"fusion_lat": 0.0, "name": "c2158b5688f0f154c8c517847a6e719b", "is_disabled": 0, "rental_uris": {"android": "https://dc.lft.to/lastmile_qr_scan", "ios": "https://dc.lft.to/lastmile_qr_scan"}, "fusion_lon": 0.0, "lat": 38.922873333333335, "bike_id": "c2158b5688f0f154c8c517847a6e719b", "type": "electric_scooter", "is_reserved": 0, "lon": -77.03675666666666}, {"fusion_lat": 0.0, "name": "0d916c55fbb3e84ced96b3b3837f9da8", "is_disabled": 0, "rental_uris": {"android": "https://dc.lft.to/lastmile_qr_scan", "ios": "https://dc.lft.to/lastmile_qr_scan"}, "fusion_lon": 0.0, "lat": 38.884883, "bike_id": "0d916c55fbb3e84ced96b3b3837f9da8", "type": "electric_scooter", "is_reserved": 0, "lon": -77.01084316666666}, {"fusion_lat": 0.0, "name": "577f9cae1985299d2e1a3839f6983336", "is_disabled": 0, "rental_uris": {"android": "https://dc.lft.to/lastmile_qr_scan", "ios": "https://dc.lft.to/lastmile_qr_scan"}, "fusion_lon": 0.0, "lat": 38.91589283333333, "bike_id": "577f9cae1985299d2e1a3839f6983336", "type": "electric_scooter", "is_reserved": 0, "lon": -77.01113933333333}, {"fusion_lat": 0.0, "name": "b9a6ca7e9e7999c2cd435dc8f858066d", "is_disabled": 0, "rental_uris": {"android": "https://dc.lft.to/lastmile_qr_scan", "ios": "https://dc.lft.to/lastmile_qr_scan"}, "fusion_lon": 0.0, "lat": 38.92129216666667, "bike_id": "b9a6ca7e9e7999c2cd435dc8f858066d", "type": "electric_scooter", "is_reserved": 0, "lon": -77.04585183333333}, {"fusion_lat": 0.0, "name": "a58e5522fad09aff4243af33028131d6", "is_disabled": 0, "rental_uris": {"android": "https://dc.lft.to/lastmile_qr_scan", "ios": "https://dc.lft.to/lastmile_qr_scan"}, "fusion_lon": 0.0, "lat": 38.8884475, "bike_id": "a58e5522fad09aff4243af33028131d6", "type": "electric_scooter", "is_reserved": 0, "lon": -76.92684716666666}, {"fusion_lat": 0.0, "name": "c36177e951f397f77a90bbf124f68a19", "is_disabled": 0, "rental_uris": {"android": "https://dc.lft.to/lastmile_qr_scan", "ios": "https://dc.lft.to/lastmile_qr_scan"}, "fusion_lon": 0.0, "lat": 38.913193666666665, "bike_id": "c36177e951f397f77a90bbf124f68a19", "type": "electric_scooter", "is_reserved": 0, "lon": -77.02126133333333}, {"fusion_lat": 0.0, "name": "c55a49edbf6ca4916344432832bca543", "is_disabled": 0, "rental_uris": {"android": "https://dc.lft.to/lastmile_qr_scan", "ios": "https://dc.lft.to/lastmile_qr_scan"}, "fusion_lon": 0.0, "lat": 38.91122766666667, "bike_id": "c55a49edbf6ca4916344432832bca543", "type": "electric_scooter", "is_reserved": 0, "lon": -77.022009}, {"fusion_lat": 0.0, "name": "7d815cbd99b4b0e3e0cd082591cf858b", "is_disabled": 0, "rental_uris": {"android": "https://dc.lft.to/lastmile_qr_scan", "ios": "https://dc.lft.to/lastmile_qr_scan"}, "fusion_lon": 0.0, "lat": 38.89725166666667, "bike_id": "7d815cbd99b4b0e3e0cd082591cf858b", "type": "electric_scooter", "is_reserved": 0, "lon": -77.02253816666666}, {"fusion_lat": 0.0, "name": "6e74ab5b4a9eeeb52e6205d332ba63c1", "is_disabled": 0, "rental_uris": {"android": "https://dc.lft.to/lastmile_qr_scan", "ios": "https://dc.lft.to/lastmile_qr_scan"}, "fusion_lon": 0.0, "lat": 38.90576983333333, "bike_id": "6e74ab5b4a9eeeb52e6205d332ba63c1", "type": "electric_scooter", "is_reserved": 0, "lon": -77.0220305}, {"fusion_lat": 0.0, "name": "f3b50e924840933a970ccac29a19af3b", "is_disabled": 0, "rental_uris": {"android": "https://dc.lft.to/lastmile_qr_scan", "ios": "https://dc.lft.to/lastmile_qr_scan"}, "fusion_lon": 0.0, "lat": 38.9335825, "bike_id": "f3b50e924840933a970ccac29a19af3b", "type": "electric_scooter", "is_reserved": 0, "lon": -77.03882733333333}, {"fusion_lat": 0.0, "name": "9912e662bab7104cd0af82ce9d77f050", "is_disabled": 0, "rental_uris": {"android": "https://dc.lft.to/lastmile_qr_scan", "ios": "https://dc.lft.to/lastmile_qr_scan"}, "fusion_lon": 0.0, "lat": 38.91682866666667, "bike_id": "9912e662bab7104cd0af82ce9d77f050", "type": "electric_scooter", "is_reserved": 0, "lon": -77.031978}, {"fusion_lat": 0.0, "name": "708c76441257827fa91880e84f748bbb", "is_disabled": 0, "rental_uris": {"android": "https://dc.lft.to/lastmile_qr_scan", "ios": "https://dc.lft.to/lastmile_qr_scan"}, "fusion_lon": 0.0, "lat": 38.897192833333335, "bike_id": "708c76441257827fa91880e84f748bbb", "type": "electric_scooter", "is_reserved": 0, "lon": -77.03240833333334}, {"fusion_lat": 0.0, "name": "439ac6ffadbb7f684baac1154a900095", "is_disabled": 0, "rental_uris": {"android": "https://dc.lft.to/lastmile_qr_scan", "ios": "https://dc.lft.to/lastmile_qr_scan"}, "fusion_lon": 0.0, "lat": 38.926741666666665, "bike_id": "439ac6ffadbb7f684baac1154a900095", "type": "electric_scooter", "is_reserved": 0, "lon": -77.02794833333333}, {"fusion_lat": 0.0, "name": "5bbd412eaea092eac55bac4bb5a12a10", "is_disabled": 0, "rental_uris": {"android": "https://dc.lft.to/lastmile_qr_scan", "ios": "https://dc.lft.to/lastmile_qr_scan"}, "fusion_lon": 0.0, "lat": 38.90352266666667, "bike_id": "5bbd412eaea092eac55bac4bb5a12a10", "type": "electric_scooter", "is_reserved": 0, "lon": -76.97240583333334}, {"fusion_lat": 0.0, "name": "ac0d3aa8d983091274cae6bcfd27c388", "is_disabled": 0, "rental_uris": {"android": "https://dc.lft.to/lastmile_qr_scan", "ios": "https://dc.lft.to/lastmile_qr_scan"}, "fusion_lon": 0.0, "lat": 38.90968616666667, "bike_id": "ac0d3aa8d983091274cae6bcfd27c388", "type": "electric_scooter", "is_reserved": 0, "lon": -77.009054}, {"fusion_lat": 0.0, "name": "f9a06fbf6d85b57c5bc7c1b78a0aeabf", "is_disabled": 0, "rental_uris": {"android": "https://dc.lft.to/lastmile_qr_scan", "ios": "https://dc.lft.to/lastmile_qr_scan"}, "fusion_lon": 0.0, "lat": 38.901078, "bike_id": "f9a06fbf6d85b57c5bc7c1b78a0aeabf", "type": "electric_scooter", "is_reserved": 0, "lon": -77.0515685}, {"fusion_lat": 0.0, "name": "9a741e0440153309411c34b83acd0181", "is_disabled": 0, "rental_uris": {"android": "https://dc.lft.to/lastmile_qr_scan", "ios": "https://dc.lft.to/lastmile_qr_scan"}, "fusion_lon": 0.0, "lat": 38.83931333333334, "bike_id": "9a741e0440153309411c34b83acd0181", "type": "electric_bike", "is_reserved": 0, "lon": -77.0789995}, {"fusion_lat": 0.0, "name": "37046732eeb570878a001d6dae483423", "is_disabled": 0, "rental_uris": {"android": "https://dc.lft.to/lastmile_qr_scan", "ios": "https://dc.lft.to/lastmile_qr_scan"}, "fusion_lon": 0.0, "lat": 38.905789, "bike_id": "37046732eeb570878a001d6dae483423", "type": "electric_scooter", "is_reserved": 0, "lon": -77.0088915}, {"fusion_lat": 0.0, "name": "8ad84a5e5098cb30e0d396f3b2363b91", "is_disabled": 0, "rental_uris": {"android": "https://dc.lft.to/lastmile_qr_scan", "ios": "https://dc.lft.to/lastmile_qr_scan"}, "fusion_lon": 0.0, "lat": 38.9413165, "bike_id": "8ad84a5e5098cb30e0d396f3b2363b91", "type": "electric_scooter", "is_reserved": 0, "lon": -77.006113}, {"fusion_lat": 0.0, "name": "f4c042bfa18af16ba37b05757d401936", "is_disabled": 0, "rental_uris": {"android": "https://dc.lft.to/lastmile_qr_scan", "ios": "https://dc.lft.to/lastmile_qr_scan"}, "fusion_lon": 0.0, "lat": 38.93960916666666, "bike_id": "f4c042bfa18af16ba37b05757d401936", "type": "electric_bike", "is_reserved": 0, "lon": -76.9937685}, {"fusion_lat": 0.0, "name": "cd96189533a2b04293f51d9dbde91253", "is_disabled": 0, "rental_uris": {"android": "https://dc.lft.to/lastmile_qr_scan", "ios": "https://dc.lft.to/lastmile_qr_scan"}, "fusion_lon": 0.0, "lat": 38.9180065, "bike_id": "cd96189533a2b04293f51d9dbde91253", "type": "electric_scooter", "is_reserved": 0, "lon": -77.027119}, {"fusion_lat": 0.0, "name": "194a0d773d2009a3bba10d9432236878", "is_disabled": 0, "rental_uris": {"android": "https://dc.lft.to/lastmile_qr_scan", "ios": "https://dc.lft.to/lastmile_qr_scan"}, "fusion_lon": 0.0, "lat": 38.90686483333333, "bike_id": "194a0d773d2009a3bba10d9432236878", "type": "electric_scooter", "is_reserved": 0, "lon": -77.037781}, {"fusion_lat": 0.0, "name": "fa4269ed5516c3dbd9441053dc23f463", "is_disabled": 0, "rental_uris": {"android": "https://dc.lft.to/lastmile_qr_scan", "ios": "https://dc.lft.to/lastmile_qr_scan"}, "fusion_lon": 0.0, "lat": 38.839324500000004, "bike_id": "fa4269ed5516c3dbd9441053dc23f463", "type": "electric_bike", "is_reserved": 0, "lon": -77.079111}, {"fusion_lat": 0.0, "name": "bc31cea75aa43d874ea1b755b8e59418", "is_disabled": 0, "rental_uris": {"android": "https://dc.lft.to/lastmile_qr_scan", "ios": "https://dc.lft.to/lastmile_qr_scan"}, "fusion_lon": 0.0, "lat": 38.97879916666667, "bike_id": "bc31cea75aa43d874ea1b755b8e59418", "type": "electric_bike", "is_reserved": 0, "lon": -77.06032833333333}, {"fusion_lat": 0.0, "name": "9d94979cfa3e8f558407c5d42234f4f4", "is_disabled": 0, "rental_uris": {"android": "https://dc.lft.to/lastmile_qr_scan", "ios": "https://dc.lft.to/lastmile_qr_scan"}, "fusion_lon": 0.0, "lat": 38.91061933333334, "bike_id": "9d94979cfa3e8f558407c5d42234f4f4", "type": "electric_scooter", "is_reserved": 0, "lon": -77.03654016666667}, {"fusion_lat": 0.0, "name": "f5693141b12ec18dede511431b3c9734", "is_disabled": 0, "rental_uris": {"android": "https://dc.lft.to/lastmile_qr_scan", "ios": "https://dc.lft.to/lastmile_qr_scan"}, "fusion_lon": 0.0, "lat": 38.927445666666664, "bike_id": "f5693141b12ec18dede511431b3c9734", "type": "electric_scooter", "is_reserved": 0, "lon": -77.0364285}, {"fusion_lat": 0.0, "name": "bb4c270302e0531509d8b7329dbc6fbd", "is_disabled": 0, "rental_uris": {"android": "https://dc.lft.to/lastmile_qr_scan", "ios": "https://dc.lft.to/lastmile_qr_scan"}, "fusion_lon": 0.0, "lat": 38.901323166666664, "bike_id": "bb4c270302e0531509d8b7329dbc6fbd", "type": "electric_scooter", "is_reserved": 0, "lon": -76.98652816666667}, {"fusion_lat": 0.0, "name": "3c8edd02c8e66c417f84a81b9e548ffe", "is_disabled": 0, "rental_uris": {"android": "https://dc.lft.to/lastmile_qr_scan", "ios": "https://dc.lft.to/lastmile_qr_scan"}, "fusion_lon": 0.0, "lat": 38.953308666666665, "bike_id": "3c8edd02c8e66c417f84a81b9e548ffe", "type": "electric_bike", "is_reserved": 0, "lon": -76.98254333333334}, {"fusion_lat": 0.0, "name": "f2d1075c512bd842dd38510043bb09c9", "is_disabled": 0, "rental_uris": {"android": "https://dc.lft.to/lastmile_qr_scan", "ios": "https://dc.lft.to/lastmile_qr_scan"}, "fusion_lon": 0.0, "lat": 38.87461616666667, "bike_id": "f2d1075c512bd842dd38510043bb09c9", "type": "electric_scooter", "is_reserved": 0, "lon": -77.0002115}, {"fusion_lat": 0.0, "name": "a334a7a7b1d04094e81b9212a5dd8533", "is_disabled": 0, "rental_uris": {"android": "https://dc.lft.to/lastmile_qr_scan", "ios": "https://dc.lft.to/lastmile_qr_scan"}, "fusion_lon": 0.0, "lat": 38.92615966666666, "bike_id": "a334a7a7b1d04094e81b9212a5dd8533", "type": "electric_scooter", "is_reserved": 0, "lon": -77.043274}, {"fusion_lat": 0.0, "name": "c2d8a505f83cb895c68c2f10b261ee9e", "is_disabled": 0, "rental_uris": {"android": "https://dc.lft.to/lastmile_qr_scan", "ios": "https://dc.lft.to/lastmile_qr_scan"}, "fusion_lon": 0.0, "lat": 38.9420195, "bike_id": "c2d8a505f83cb895c68c2f10b261ee9e", "type": "electric_scooter", "is_reserved": 0, "lon": -77.0259135}, {"fusion_lat": 0.0, "name": "8641976be359fea4ed0de610a6b3f65b", "is_disabled": 0, "rental_uris": {"android": "https://dc.lft.to/lastmile_qr_scan", "ios": "https://dc.lft.to/lastmile_qr_scan"}, "fusion_lon": 0.0, "lat": 38.895104, "bike_id": "8641976be359fea4ed0de610a6b3f65b", "type": "electric_scooter", "is_reserved": 0, "lon": -76.9996245}, {"fusion_lat": 0.0, "name": "665d7d43912b97fede5270e2ffdd64cc", "is_disabled": 0, "rental_uris": {"android": "https://dc.lft.to/lastmile_qr_scan", "ios": "https://dc.lft.to/lastmile_qr_scan"}, "fusion_lon": 0.0, "lat": 38.916546, "bike_id": "665d7d43912b97fede5270e2ffdd64cc", "type": "electric_scooter", "is_reserved": 0, "lon": -77.0280785}, {"fusion_lat": 0.0, "name": "e667304a7e4e353b66ed3ee9e6f947d2", "is_disabled": 0, "rental_uris": {"android": "https://dc.lft.to/lastmile_qr_scan", "ios": "https://dc.lft.to/lastmile_qr_scan"}, "fusion_lon": 0.0, "lat": 38.8923515, "bike_id": "e667304a7e4e353b66ed3ee9e6f947d2", "type": "electric_scooter", "is_reserved": 0, "lon": -77.04659033333333}, {"fusion_lat": 0.0, "name": "5a86ca108105362ce84224f1bc405e36", "is_disabled": 0, "rental_uris": {"android": "https://dc.lft.to/lastmile_qr_scan", "ios": "https://dc.lft.to/lastmile_qr_scan"}, "fusion_lon": 0.0, "lat": 38.913245833333335, "bike_id": "5a86ca108105362ce84224f1bc405e36", "type": "electric_scooter", "is_reserved": 0, "lon": -77.04538866666667}, {"fusion_lat": 0.0, "name": "21c5d1dd65c9558194031e06131f4227", "is_disabled": 0, "rental_uris": {"android": "https://dc.lft.to/lastmile_qr_scan", "ios": "https://dc.lft.to/lastmile_qr_scan"}, "fusion_lon": 0.0, "lat": 38.913505666666666, "bike_id": "21c5d1dd65c9558194031e06131f4227", "type": "electric_scooter", "is_reserved": 0, "lon": -77.02207233333333}, {"fusion_lat": 0.0, "name": "d521bb5133568eac429d417b53914727", "is_disabled": 0, "rental_uris": {"android": "https://dc.lft.to/lastmile_qr_scan", "ios": "https://dc.lft.to/lastmile_qr_scan"}, "fusion_lon": 0.0, "lat": 38.902367166666664, "bike_id": "d521bb5133568eac429d417b53914727", "type": "electric_scooter", "is_reserved": 0, "lon": -77.05306083333333}, {"fusion_lat": 0.0, "name": "a13f0b7700eff2eb7b5d484185dc7bf7", "is_disabled": 0, "rental_uris": {"android": "https://dc.lft.to/lastmile_qr_scan", "ios": "https://dc.lft.to/lastmile_qr_scan"}, "fusion_lon": 0.0, "lat": 38.92878566666667, "bike_id": "a13f0b7700eff2eb7b5d484185dc7bf7", "type": "electric_scooter", "is_reserved": 0, "lon": -77.01367433333333}, {"fusion_lat": 0.0, "name": "31b7db0b5ecd60deb4772581c24ba92f", "is_disabled": 0, "rental_uris": {"android": "https://dc.lft.to/lastmile_qr_scan", "ios": "https://dc.lft.to/lastmile_qr_scan"}, "fusion_lon": 0.0, "lat": 38.905094166666665, "bike_id": "31b7db0b5ecd60deb4772581c24ba92f", "type": "electric_scooter", "is_reserved": 0, "lon": -77.051493}, {"fusion_lat": 0.0, "name": "8f131e3955f9b110563f619fb192a3d8", "is_disabled": 0, "rental_uris": {"android": "https://dc.lft.to/lastmile_qr_scan", "ios": "https://dc.lft.to/lastmile_qr_scan"}, "fusion_lon": 0.0, "lat": 38.916191166666664, "bike_id": "8f131e3955f9b110563f619fb192a3d8", "type": "electric_scooter", "is_reserved": 0, "lon": -77.0316295}, {"fusion_lat": 0.0, "name": "4a3c70ae964b031000cba6e5685d92a4", "is_disabled": 0, "rental_uris": {"android": "https://dc.lft.to/lastmile_qr_scan", "ios": "https://dc.lft.to/lastmile_qr_scan"}, "fusion_lon": 0.0, "lat": 38.9331095, "bike_id": "4a3c70ae964b031000cba6e5685d92a4", "type": "electric_scooter", "is_reserved": 0, "lon": -77.02755966666666}, {"fusion_lat": 0.0, "name": "32fd82ae0850602028f4bfa0e8a1c105", "is_disabled": 0, "rental_uris": {"android": "https://dc.lft.to/lastmile_qr_scan", "ios": "https://dc.lft.to/lastmile_qr_scan"}, "fusion_lon": 0.0, "lat": 38.901953666666664, "bike_id": "32fd82ae0850602028f4bfa0e8a1c105", "type": "electric_scooter", "is_reserved": 0, "lon": -76.978604}, {"fusion_lat": 0.0, "name": "0f8dffe88c00f208bcfb87fa8dea0cd9", "is_disabled": 0, "rental_uris": {"android": "https://dc.lft.to/lastmile_qr_scan", "ios": "https://dc.lft.to/lastmile_qr_scan"}, "fusion_lon": 0.0, "lat": 38.89601616666667, "bike_id": "0f8dffe88c00f208bcfb87fa8dea0cd9", "type": "electric_scooter", "is_reserved": 0, "lon": -77.00932466666667}, {"fusion_lat": 0.0, "name": "9949ade738f174a83cb8daae208da358", "is_disabled": 0, "rental_uris": {"android": "https://dc.lft.to/lastmile_qr_scan", "ios": "https://dc.lft.to/lastmile_qr_scan"}, "fusion_lon": 0.0, "lat": 38.8861825, "bike_id": "9949ade738f174a83cb8daae208da358", "type": "electric_scooter", "is_reserved": 0, "lon": -77.01947}, {"fusion_lat": 0.0, "name": "f367fd686479965608751f7d52873371", "is_disabled": 0, "rental_uris": {"android": "https://dc.lft.to/lastmile_qr_scan", "ios": "https://dc.lft.to/lastmile_qr_scan"}, "fusion_lon": 0.0, "lat": 38.88607366666667, "bike_id": "f367fd686479965608751f7d52873371", "type": "electric_scooter", "is_reserved": 0, "lon": -77.01249733333333}, {"fusion_lat": 0.0, "name": "5a6e3ea52fe23c4c930d4e0b8220c80d", "is_disabled": 0, "rental_uris": {"android": "https://dc.lft.to/lastmile_qr_scan", "ios": "https://dc.lft.to/lastmile_qr_scan"}, "fusion_lon": 0.0, "lat": 38.934965, "bike_id": "5a6e3ea52fe23c4c930d4e0b8220c80d", "type": "electric_scooter", "is_reserved": 0, "lon": -77.03616266666667}, {"fusion_lat": 0.0, "name": "3d93e5bc788bc5988d7c2b0d8705f491", "is_disabled": 0, "rental_uris": {"android": "https://dc.lft.to/lastmile_qr_scan", "ios": "https://dc.lft.to/lastmile_qr_scan"}, "fusion_lon": 0.0, "lat": 38.94917266666667, "bike_id": "3d93e5bc788bc5988d7c2b0d8705f491", "type": "electric_bike", "is_reserved": 0, "lon": -77.00790783333333}, {"fusion_lat": 0.0, "name": "95a4890d93949f8e6b6e293d47138d51", "is_disabled": 0, "rental_uris": {"android": "https://dc.lft.to/lastmile_qr_scan", "ios": "https://dc.lft.to/lastmile_qr_scan"}, "fusion_lon": 0.0, "lat": 38.958746, "bike_id": "95a4890d93949f8e6b6e293d47138d51", "type": "electric_bike", "is_reserved": 0, "lon": -76.97053166666667}, {"fusion_lat": 0.0, "name": "4e27bf6bf79b4cbb9010b3504aa477a3", "is_disabled": 0, "rental_uris": {"android": "https://dc.lft.to/lastmile_qr_scan", "ios": "https://dc.lft.to/lastmile_qr_scan"}, "fusion_lon": 0.0, "lat": 38.91977683333333, "bike_id": "4e27bf6bf79b4cbb9010b3504aa477a3", "type": "electric_scooter", "is_reserved": 0, "lon": -77.033312}, {"fusion_lat": 0.0, "name": "504bb1fa3d76a0114ffb14a945c1c915", "is_disabled": 0, "rental_uris": {"android": "https://dc.lft.to/lastmile_qr_scan", "ios": "https://dc.lft.to/lastmile_qr_scan"}, "fusion_lon": 0.0, "lat": 38.8996905, "bike_id": "504bb1fa3d76a0114ffb14a945c1c915", "type": "electric_scooter", "is_reserved": 0, "lon": -77.03339266666667}, {"fusion_lat": 0.0, "name": "5c64c7fd7a8b0c31361c88c779c8db22", "is_disabled": 0, "rental_uris": {"android": "https://dc.lft.to/lastmile_qr_scan", "ios": "https://dc.lft.to/lastmile_qr_scan"}, "fusion_lon": 0.0, "lat": 38.923402333333335, "bike_id": "5c64c7fd7a8b0c31361c88c779c8db22", "type": "electric_scooter", "is_reserved": 0, "lon": -77.03537966666667}, {"fusion_lat": 0.0, "name": "13ba83c841e366519bb673e82346bf40", "is_disabled": 0, "rental_uris": {"android": "https://dc.lft.to/lastmile_qr_scan", "ios": "https://dc.lft.to/lastmile_qr_scan"}, "fusion_lon": 0.0, "lat": 38.906214166666665, "bike_id": "13ba83c841e366519bb673e82346bf40", "type": "electric_scooter", "is_reserved": 0, "lon": -77.02957666666667}, {"fusion_lat": 0.0, "name": "c60df3ad0fc75d05973fa21aaa606ae7", "is_disabled": 0, "rental_uris": {"android": "https://dc.lft.to/lastmile_qr_scan", "ios": "https://dc.lft.to/lastmile_qr_scan"}, "fusion_lon": 0.0, "lat": 38.9563405, "bike_id": "c60df3ad0fc75d05973fa21aaa606ae7", "type": "electric_scooter", "is_reserved": 0, "lon": -77.03304883333334}, {"fusion_lat": 0.0, "name": "516045181e1db76bcd01957d5c5919b6", "is_disabled": 0, "rental_uris": {"android": "https://dc.lft.to/lastmile_qr_scan", "ios": "https://dc.lft.to/lastmile_qr_scan"}, "fusion_lon": 0.0, "lat": 38.93609133333333, "bike_id": "516045181e1db76bcd01957d5c5919b6", "type": "electric_scooter", "is_reserved": 0, "lon": -77.0230085}, {"fusion_lat": 0.0, "name": "17980bfd12d221a96bea81aeb09a96b5", "is_disabled": 0, "rental_uris": {"android": "https://dc.lft.to/lastmile_qr_scan", "ios": "https://dc.lft.to/lastmile_qr_scan"}, "fusion_lon": 0.0, "lat": 38.920755166666666, "bike_id": "17980bfd12d221a96bea81aeb09a96b5", "type": "electric_scooter", "is_reserved": 0, "lon": -77.023016}, {"fusion_lat": 0.0, "name": "5303d92ec95ad34c1f298806356c0366", "is_disabled": 0, "rental_uris": {"android": "https://dc.lft.to/lastmile_qr_scan", "ios": "https://dc.lft.to/lastmile_qr_scan"}, "fusion_lon": 0.0, "lat": 38.8995065, "bike_id": "5303d92ec95ad34c1f298806356c0366", "type": "electric_scooter", "is_reserved": 0, "lon": -77.01510433333333}, {"fusion_lat": 0.0, "name": "375ccc51bfbb978f3a4d341173f6b45c", "is_disabled": 0, "rental_uris": {"android": "https://dc.lft.to/lastmile_qr_scan", "ios": "https://dc.lft.to/lastmile_qr_scan"}, "fusion_lon": 0.0, "lat": 38.91344566666667, "bike_id": "375ccc51bfbb978f3a4d341173f6b45c", "type": "electric_bike", "is_reserved": 0, "lon": -76.98898966666667}, {"fusion_lat": 0.0, "name": "c2bd97786212edeffe603af21e1a486d", "is_disabled": 0, "rental_uris": {"android": "https://dc.lft.to/lastmile_qr_scan", "ios": "https://dc.lft.to/lastmile_qr_scan"}, "fusion_lon": 0.0, "lat": 38.90370866666667, "bike_id": "c2bd97786212edeffe603af21e1a486d", "type": "electric_scooter", "is_reserved": 0, "lon": -77.0448845}, {"fusion_lat": 0.0, "name": "670e8faa3dc9a1e6151ec78979d868ee", "is_disabled": 0, "rental_uris": {"android": "https://dc.lft.to/lastmile_qr_scan", "ios": "https://dc.lft.to/lastmile_qr_scan"}, "fusion_lon": 0.0, "lat": 38.926855833333335, "bike_id": "670e8faa3dc9a1e6151ec78979d868ee", "type": "electric_scooter", "is_reserved": 0, "lon": -77.03143933333334}, {"fusion_lat": 0.0, "name": "1f14f4c4157f101ac4088d614d4f5896", "is_disabled": 0, "rental_uris": {"android": "https://dc.lft.to/lastmile_qr_scan", "ios": "https://dc.lft.to/lastmile_qr_scan"}, "fusion_lon": 0.0, "lat": 38.91969133333333, "bike_id": "1f14f4c4157f101ac4088d614d4f5896", "type": "electric_scooter", "is_reserved": 0, "lon": -77.02393066666667}, {"fusion_lat": 0.0, "name": "6df19db108427e7c29f04885913d2c83", "is_disabled": 0, "rental_uris": {"android": "https://dc.lft.to/lastmile_qr_scan", "ios": "https://dc.lft.to/lastmile_qr_scan"}, "fusion_lon": 0.0, "lat": 38.88123133333333, "bike_id": "6df19db108427e7c29f04885913d2c83", "type": "electric_bike", "is_reserved": 0, "lon": -77.01639883333333}, {"fusion_lat": 0.0, "name": "289e961e91b963f91bf56179c4f634d7", "is_disabled": 0, "rental_uris": {"android": "https://dc.lft.to/lastmile_qr_scan", "ios": "https://dc.lft.to/lastmile_qr_scan"}, "fusion_lon": 0.0, "lat": 38.90831816666667, "bike_id": "289e961e91b963f91bf56179c4f634d7", "type": "electric_scooter", "is_reserved": 0, "lon": -77.04317216666666}, {"fusion_lat": 0.0, "name": "0f80d3fea7487e6442541ae101b7c81c", "is_disabled": 0, "rental_uris": {"android": "https://dc.lft.to/lastmile_qr_scan", "ios": "https://dc.lft.to/lastmile_qr_scan"}, "fusion_lon": 0.0, "lat": 38.9416015, "bike_id": "0f80d3fea7487e6442541ae101b7c81c", "type": "electric_scooter", "is_reserved": 0, "lon": -77.02509283333333}, {"fusion_lat": 0.0, "name": "bd520f533d56a8e01ed2a39033e430db", "is_disabled": 0, "rental_uris": {"android": "https://dc.lft.to/lastmile_qr_scan", "ios": "https://dc.lft.to/lastmile_qr_scan"}, "fusion_lon": 0.0, "lat": 38.89939366666667, "bike_id": "bd520f533d56a8e01ed2a39033e430db", "type": "electric_scooter", "is_reserved": 0, "lon": -77.0535625}, {"fusion_lat": 0.0, "name": "0bfd092b9a116e2da5c5f2492293dbfa", "is_disabled": 0, "rental_uris": {"android": "https://dc.lft.to/lastmile_qr_scan", "ios": "https://dc.lft.to/lastmile_qr_scan"}, "fusion_lon": 0.0, "lat": 38.902893666666664, "bike_id": "0bfd092b9a116e2da5c5f2492293dbfa", "type": "electric_scooter", "is_reserved": 0, "lon": -76.99257466666667}, {"fusion_lat": 0.0, "name": "5d3f790a810d3bb826e763400c7b955a", "is_disabled": 0, "rental_uris": {"android": "https://dc.lft.to/lastmile_qr_scan", "ios": "https://dc.lft.to/lastmile_qr_scan"}, "fusion_lon": 0.0, "lat": 38.88743866666667, "bike_id": "5d3f790a810d3bb826e763400c7b955a", "type": "electric_scooter", "is_reserved": 0, "lon": -76.98359133333334}, {"fusion_lat": 0.0, "name": "4d07f9fbcd91572ac04485bf289051ce", "is_disabled": 0, "rental_uris": {"android": "https://dc.lft.to/lastmile_qr_scan", "ios": "https://dc.lft.to/lastmile_qr_scan"}, "fusion_lon": 0.0, "lat": 38.888048166666664, "bike_id": "4d07f9fbcd91572ac04485bf289051ce", "type": "electric_scooter", "is_reserved": 0, "lon": -76.983559}, {"fusion_lat": 0.0, "name": "3d5b9e6721975322079d403990e77622", "is_disabled": 0, "rental_uris": {"android": "https://dc.lft.to/lastmile_qr_scan", "ios": "https://dc.lft.to/lastmile_qr_scan"}, "fusion_lon": 0.0, "lat": 38.9207895, "bike_id": "3d5b9e6721975322079d403990e77622", "type": "electric_scooter", "is_reserved": 0, "lon": -77.01491433333334}, {"fusion_lat": 0.0, "name": "00ef54924714aa03dc07cf4a527ec809", "is_disabled": 0, "rental_uris": {"android": "https://dc.lft.to/lastmile_qr_scan", "ios": "https://dc.lft.to/lastmile_qr_scan"}, "fusion_lon": 0.0, "lat": 38.88458716666667, "bike_id": "00ef54924714aa03dc07cf4a527ec809", "type": "electric_scooter", "is_reserved": 0, "lon": -76.94979383333333}, {"fusion_lat": 0.0, "name": "3266e7f1873cb3b493a04588af12da37", "is_disabled": 0, "rental_uris": {"android": "https://dc.lft.to/lastmile_qr_scan", "ios": "https://dc.lft.to/lastmile_qr_scan"}, "fusion_lon": 0.0, "lat": 38.94636283333333, "bike_id": "3266e7f1873cb3b493a04588af12da37", "type": "electric_scooter", "is_reserved": 0, "lon": -77.095425}, {"fusion_lat": 0.0, "name": "c81260d6beccc515485b7faee5153e67", "is_disabled": 0, "rental_uris": {"android": "https://dc.lft.to/lastmile_qr_scan", "ios": "https://dc.lft.to/lastmile_qr_scan"}, "fusion_lon": 0.0, "lat": 38.901517166666665, "bike_id": "c81260d6beccc515485b7faee5153e67", "type": "electric_scooter", "is_reserved": 0, "lon": -77.01999583333334}, {"fusion_lat": 0.0, "name": "e15a85e2a23b49121dc0dca4d65efb83", "is_disabled": 0, "rental_uris": {"android": "https://dc.lft.to/lastmile_qr_scan", "ios": "https://dc.lft.to/lastmile_qr_scan"}, "fusion_lon": 0.0, "lat": 38.9612245, "bike_id": "e15a85e2a23b49121dc0dca4d65efb83", "type": "electric_bike", "is_reserved": 0, "lon": -77.03283133333333}, {"fusion_lat": 0.0, "name": "b79aff486ee892e288b2025ead6baf3a", "is_disabled": 0, "rental_uris": {"android": "https://dc.lft.to/lastmile_qr_scan", "ios": "https://dc.lft.to/lastmile_qr_scan"}, "fusion_lon": 0.0, "lat": 38.961308, "bike_id": "b79aff486ee892e288b2025ead6baf3a", "type": "electric_scooter", "is_reserved": 0, "lon": -77.02791833333333}, {"fusion_lat": 0.0, "name": "6fad799012ec632b947d2a74d11f2763", "is_disabled": 0, "rental_uris": {"android": "https://dc.lft.to/lastmile_qr_scan", "ios": "https://dc.lft.to/lastmile_qr_scan"}, "fusion_lon": 0.0, "lat": 38.91332416666667, "bike_id": "6fad799012ec632b947d2a74d11f2763", "type": "electric_scooter", "is_reserved": 0, "lon": -77.04271033333333}, {"fusion_lat": 0.0, "name": "9e7ca182115c2c6da6a471bcec662706", "is_disabled": 0, "rental_uris": {"android": "https://dc.lft.to/lastmile_qr_scan", "ios": "https://dc.lft.to/lastmile_qr_scan"}, "fusion_lon": 0.0, "lat": 38.902636666666666, "bike_id": "9e7ca182115c2c6da6a471bcec662706", "type": "electric_scooter", "is_reserved": 0, "lon": -77.029779}, {"fusion_lat": 0.0, "name": "0dbf355dbc8b068b2cadbda74b10fff6", "is_disabled": 0, "rental_uris": {"android": "https://dc.lft.to/lastmile_qr_scan", "ios": "https://dc.lft.to/lastmile_qr_scan"}, "fusion_lon": 0.0, "lat": 38.91561733333333, "bike_id": "0dbf355dbc8b068b2cadbda74b10fff6", "type": "electric_scooter", "is_reserved": 0, "lon": -77.0305825}, {"fusion_lat": 0.0, "name": "67656150efb020358956bfcf9a69c4c4", "is_disabled": 0, "rental_uris": {"android": "https://dc.lft.to/lastmile_qr_scan", "ios": "https://dc.lft.to/lastmile_qr_scan"}, "fusion_lon": 0.0, "lat": 38.90781966666667, "bike_id": "67656150efb020358956bfcf9a69c4c4", "type": "electric_scooter", "is_reserved": 0, "lon": -77.00970016666666}, {"fusion_lat": 0.0, "name": "7ddec4eeb9de8cf30e503f0355bd84ea", "is_disabled": 0, "rental_uris": {"android": "https://dc.lft.to/lastmile_qr_scan", "ios": "https://dc.lft.to/lastmile_qr_scan"}, "fusion_lon": 0.0, "lat": 38.89902633333333, "bike_id": "7ddec4eeb9de8cf30e503f0355bd84ea", "type": "electric_scooter", "is_reserved": 0, "lon": -77.0330025}, {"fusion_lat": 0.0, "name": "ba0fcce3cafc2c1c6fdbc41135df6958", "is_disabled": 0, "rental_uris": {"android": "https://dc.lft.to/lastmile_qr_scan", "ios": "https://dc.lft.to/lastmile_qr_scan"}, "fusion_lon": 0.0, "lat": 38.9333295, "bike_id": "ba0fcce3cafc2c1c6fdbc41135df6958", "type": "electric_scooter", "is_reserved": 0, "lon": -77.03633283333333}, {"fusion_lat": 0.0, "name": "a770d821bdb5f44c5d48f598b68ed580", "is_disabled": 0, "rental_uris": {"android": "https://dc.lft.to/lastmile_qr_scan", "ios": "https://dc.lft.to/lastmile_qr_scan"}, "fusion_lon": 0.0, "lat": 38.92247616666667, "bike_id": "a770d821bdb5f44c5d48f598b68ed580", "type": "electric_scooter", "is_reserved": 0, "lon": -77.05083016666667}, {"fusion_lat": 0.0, "name": "986cb0f5d856eb8d00a6093ebefa88c9", "is_disabled": 0, "rental_uris": {"android": "https://dc.lft.to/lastmile_qr_scan", "ios": "https://dc.lft.to/lastmile_qr_scan"}, "fusion_lon": 0.0, "lat": 38.925389, "bike_id": "986cb0f5d856eb8d00a6093ebefa88c9", "type": "electric_scooter", "is_reserved": 0, "lon": -77.051222}, {"fusion_lat": 0.0, "name": "cb584b2e2668b4d56e9a49d457905435", "is_disabled": 0, "rental_uris": {"android": "https://dc.lft.to/lastmile_qr_scan", "ios": "https://dc.lft.to/lastmile_qr_scan"}, "fusion_lon": 0.0, "lat": 38.8323415, "bike_id": "cb584b2e2668b4d56e9a49d457905435", "type": "electric_bike", "is_reserved": 0, "lon": -76.94617616666666}, {"fusion_lat": 0.0, "name": "ee8929e92b294d8705437b41e42a3078", "is_disabled": 0, "rental_uris": {"android": "https://dc.lft.to/lastmile_qr_scan", "ios": "https://dc.lft.to/lastmile_qr_scan"}, "fusion_lon": 0.0, "lat": 38.91673866666667, "bike_id": "ee8929e92b294d8705437b41e42a3078", "type": "electric_scooter", "is_reserved": 0, "lon": -77.02891266666667}, {"fusion_lat": 0.0, "name": "166ddb62999ac9ff81d06c044962834f", "is_disabled": 0, "rental_uris": {"android": "https://dc.lft.to/lastmile_qr_scan", "ios": "https://dc.lft.to/lastmile_qr_scan"}, "fusion_lon": 0.0, "lat": 38.92898533333333, "bike_id": "166ddb62999ac9ff81d06c044962834f", "type": "electric_scooter", "is_reserved": 0, "lon": -77.05463266666666}, {"fusion_lat": 0.0, "name": "84de1f414be60389fc6c84a5eec6d0c3", "is_disabled": 0, "rental_uris": {"android": "https://dc.lft.to/lastmile_qr_scan", "ios": "https://dc.lft.to/lastmile_qr_scan"}, "fusion_lon": 0.0, "lat": 38.88753366666667, "bike_id": "84de1f414be60389fc6c84a5eec6d0c3", "type": "electric_scooter", "is_reserved": 0, "lon": -77.00258483333333}, {"fusion_lat": 0.0, "name": "91916e369ce89ea523068fac5fe4d13f", "is_disabled": 0, "rental_uris": {"android": "https://dc.lft.to/lastmile_qr_scan", "ios": "https://dc.lft.to/lastmile_qr_scan"}, "fusion_lon": 0.0, "lat": 38.92434766666667, "bike_id": "91916e369ce89ea523068fac5fe4d13f", "type": "electric_scooter", "is_reserved": 0, "lon": -77.00067333333334}, {"fusion_lat": 0.0, "name": "5bb2c1d6955b3f1136b747535da659c8", "is_disabled": 0, "rental_uris": {"android": "https://dc.lft.to/lastmile_qr_scan", "ios": "https://dc.lft.to/lastmile_qr_scan"}, "fusion_lon": 0.0, "lat": 38.841371, "bike_id": "5bb2c1d6955b3f1136b747535da659c8", "type": "electric_bike", "is_reserved": 0, "lon": -76.9476235}, {"fusion_lat": 0.0, "name": "952eb745f49a34c91193b3b3dbb630b0", "is_disabled": 0, "rental_uris": {"android": "https://dc.lft.to/lastmile_qr_scan", "ios": "https://dc.lft.to/lastmile_qr_scan"}, "fusion_lon": 0.0, "lat": 38.9319365, "bike_id": "952eb745f49a34c91193b3b3dbb630b0", "type": "electric_scooter", "is_reserved": 0, "lon": -77.04298566666667}, {"fusion_lat": 0.0, "name": "69a1c9a0a783aabe65b7ea9ceae283c6", "is_disabled": 0, "rental_uris": {"android": "https://dc.lft.to/lastmile_qr_scan", "ios": "https://dc.lft.to/lastmile_qr_scan"}, "fusion_lon": 0.0, "lat": 38.876341333333336, "bike_id": "69a1c9a0a783aabe65b7ea9ceae283c6", "type": "electric_scooter", "is_reserved": 0, "lon": -77.016616}, {"fusion_lat": 0.0, "name": "ed9d83e46b172c882f51284756abaf96", "is_disabled": 0, "rental_uris": {"android": "https://dc.lft.to/lastmile_qr_scan", "ios": "https://dc.lft.to/lastmile_qr_scan"}, "fusion_lon": 0.0, "lat": 38.90558633333333, "bike_id": "ed9d83e46b172c882f51284756abaf96", "type": "electric_scooter", "is_reserved": 0, "lon": -77.06269416666666}, {"fusion_lat": 0.0, "name": "9beaa509f2550125ccd4e0baf2ab5069", "is_disabled": 0, "rental_uris": {"android": "https://dc.lft.to/lastmile_qr_scan", "ios": "https://dc.lft.to/lastmile_qr_scan"}, "fusion_lon": 0.0, "lat": 38.90407183333333, "bike_id": "9beaa509f2550125ccd4e0baf2ab5069", "type": "electric_scooter", "is_reserved": 0, "lon": -76.973317}, {"fusion_lat": 0.0, "name": "5708ad428ddc76bb89c8c0590bb835b1", "is_disabled": 0, "rental_uris": {"android": "https://dc.lft.to/lastmile_qr_scan", "ios": "https://dc.lft.to/lastmile_qr_scan"}, "fusion_lon": 0.0, "lat": 38.905514833333335, "bike_id": "5708ad428ddc76bb89c8c0590bb835b1", "type": "electric_scooter", "is_reserved": 0, "lon": -77.046739}, {"fusion_lat": 0.0, "name": "acf8ffde162bc7ebe2b4bed1902b32be", "is_disabled": 0, "rental_uris": {"android": "https://dc.lft.to/lastmile_qr_scan", "ios": "https://dc.lft.to/lastmile_qr_scan"}, "fusion_lon": 0.0, "lat": 38.884186666666665, "bike_id": "acf8ffde162bc7ebe2b4bed1902b32be", "type": "electric_scooter", "is_reserved": 0, "lon": -77.02468916666666}, {"fusion_lat": 0.0, "name": "4576e21d923b12e22c818260b560e329", "is_disabled": 0, "rental_uris": {"android": "https://dc.lft.to/lastmile_qr_scan", "ios": "https://dc.lft.to/lastmile_qr_scan"}, "fusion_lon": 0.0, "lat": 38.887256, "bike_id": "4576e21d923b12e22c818260b560e329", "type": "electric_scooter", "is_reserved": 0, "lon": -76.9835735}, {"fusion_lat": 0.0, "name": "556ac45446b1dbdcd4e30213810c975f", "is_disabled": 0, "rental_uris": {"android": "https://dc.lft.to/lastmile_qr_scan", "ios": "https://dc.lft.to/lastmile_qr_scan"}, "fusion_lon": 0.0, "lat": 38.9238015, "bike_id": "556ac45446b1dbdcd4e30213810c975f", "type": "electric_scooter", "is_reserved": 0, "lon": -77.03641933333333}, {"fusion_lat": 0.0, "name": "b676e6aa64eb4bef8821ed6bf971c153", "is_disabled": 0, "rental_uris": {"android": "https://dc.lft.to/lastmile_qr_scan", "ios": "https://dc.lft.to/lastmile_qr_scan"}, "fusion_lon": 0.0, "lat": 38.87963966666667, "bike_id": "b676e6aa64eb4bef8821ed6bf971c153", "type": "electric_bike", "is_reserved": 0, "lon": -76.91616733333333}, {"fusion_lat": 0.0, "name": "1bb2a8797e81af1c5ad7df855c101f5f", "is_disabled": 0, "rental_uris": {"android": "https://dc.lft.to/lastmile_qr_scan", "ios": "https://dc.lft.to/lastmile_qr_scan"}, "fusion_lon": 0.0, "lat": 38.900389, "bike_id": "1bb2a8797e81af1c5ad7df855c101f5f", "type": "electric_scooter", "is_reserved": 0, "lon": -76.985541}, {"fusion_lat": 0.0, "name": "1fd43b39c3147048cc936a7efa6e0f27", "is_disabled": 0, "rental_uris": {"android": "https://dc.lft.to/lastmile_qr_scan", "ios": "https://dc.lft.to/lastmile_qr_scan"}, "fusion_lon": 0.0, "lat": 38.911222, "bike_id": "1fd43b39c3147048cc936a7efa6e0f27", "type": "electric_scooter", "is_reserved": 0, "lon": -77.022027}, {"fusion_lat": 0.0, "name": "baf2f7821958cb7355eb0d822b9f5066", "is_disabled": 0, "rental_uris": {"android": "https://dc.lft.to/lastmile_qr_scan", "ios": "https://dc.lft.to/lastmile_qr_scan"}, "fusion_lon": 0.0, "lat": 38.89742366666667, "bike_id": "baf2f7821958cb7355eb0d822b9f5066", "type": "electric_scooter", "is_reserved": 0, "lon": -77.01963316666667}, {"fusion_lat": 0.0, "name": "a7882f5e6c9cbf52615b7672ad13f302", "is_disabled": 0, "rental_uris": {"android": "https://dc.lft.to/lastmile_qr_scan", "ios": "https://dc.lft.to/lastmile_qr_scan"}, "fusion_lon": 0.0, "lat": 38.934121, "bike_id": "a7882f5e6c9cbf52615b7672ad13f302", "type": "electric_scooter", "is_reserved": 0, "lon": -77.04274416666667}, {"fusion_lat": 0.0, "name": "181208129f3ec1468547a140d3a88078", "is_disabled": 0, "rental_uris": {"android": "https://dc.lft.to/lastmile_qr_scan", "ios": "https://dc.lft.to/lastmile_qr_scan"}, "fusion_lon": 0.0, "lat": 38.89730466666666, "bike_id": "181208129f3ec1468547a140d3a88078", "type": "electric_scooter", "is_reserved": 0, "lon": -77.02155283333333}, {"fusion_lat": 0.0, "name": "d5bb5851a0cdb7d0dd3f572e4efab0e4", "is_disabled": 0, "rental_uris": {"android": "https://dc.lft.to/lastmile_qr_scan", "ios": "https://dc.lft.to/lastmile_qr_scan"}, "fusion_lon": 0.0, "lat": 38.92420516666667, "bike_id": "d5bb5851a0cdb7d0dd3f572e4efab0e4", "type": "electric_scooter", "is_reserved": 0, "lon": -77.01962166666667}, {"fusion_lat": 0.0, "name": "e0777c7c938aaaee7ca9d8d4640cf09f", "is_disabled": 0, "rental_uris": {"android": "https://dc.lft.to/lastmile_qr_scan", "ios": "https://dc.lft.to/lastmile_qr_scan"}, "fusion_lon": 0.0, "lat": 38.91311233333333, "bike_id": "e0777c7c938aaaee7ca9d8d4640cf09f", "type": "electric_scooter", "is_reserved": 0, "lon": -77.0212455}, {"fusion_lat": 0.0, "name": "2026bc8360e182c62b3790e3e3b1f331", "is_disabled": 0, "rental_uris": {"android": "https://dc.lft.to/lastmile_qr_scan", "ios": "https://dc.lft.to/lastmile_qr_scan"}, "fusion_lon": 0.0, "lat": 38.938685, "bike_id": "2026bc8360e182c62b3790e3e3b1f331", "type": "electric_scooter", "is_reserved": 0, "lon": -77.0246995}, {"fusion_lat": 0.0, "name": "ee902f454d0c60589a8e2526e66dfd19", "is_disabled": 0, "rental_uris": {"android": "https://dc.lft.to/lastmile_qr_scan", "ios": "https://dc.lft.to/lastmile_qr_scan"}, "fusion_lon": 0.0, "lat": 38.96206166666666, "bike_id": "ee902f454d0c60589a8e2526e66dfd19", "type": "electric_bike", "is_reserved": 0, "lon": -77.02784683333333}, {"fusion_lat": 0.0, "name": "9f79e58e3746e3d3b76ccb90eff787d9", "is_disabled": 0, "rental_uris": {"android": "https://dc.lft.to/lastmile_qr_scan", "ios": "https://dc.lft.to/lastmile_qr_scan"}, "fusion_lon": 0.0, "lat": 38.915616666666665, "bike_id": "9f79e58e3746e3d3b76ccb90eff787d9", "type": "electric_scooter", "is_reserved": 0, "lon": -77.0317975}, {"fusion_lat": 0.0, "name": "661b488541b4550233bb925c70b64aaf", "is_disabled": 0, "rental_uris": {"android": "https://dc.lft.to/lastmile_qr_scan", "ios": "https://dc.lft.to/lastmile_qr_scan"}, "fusion_lon": 0.0, "lat": 38.933507, "bike_id": "661b488541b4550233bb925c70b64aaf", "type": "electric_scooter", "is_reserved": 0, "lon": -77.0243255}, {"fusion_lat": 0.0, "name": "c0c5d9ff996a691ad31cf1622f392e4a", "is_disabled": 0, "rental_uris": {"android": "https://dc.lft.to/lastmile_qr_scan", "ios": "https://dc.lft.to/lastmile_qr_scan"}, "fusion_lon": 0.0, "lat": 38.930999166666666, "bike_id": "c0c5d9ff996a691ad31cf1622f392e4a", "type": "electric_scooter", "is_reserved": 0, "lon": -77.02665866666666}, {"fusion_lat": 0.0, "name": "3d17bc48ec02fb002594ab0a98529c3e", "is_disabled": 0, "rental_uris": {"android": "https://dc.lft.to/lastmile_qr_scan", "ios": "https://dc.lft.to/lastmile_qr_scan"}, "fusion_lon": 0.0, "lat": 38.94835666666667, "bike_id": "3d17bc48ec02fb002594ab0a98529c3e", "type": "electric_scooter", "is_reserved": 0, "lon": -77.02571183333333}, {"fusion_lat": 0.0, "name": "43dec99385255dc7e46c54dd6c1448bc", "is_disabled": 0, "rental_uris": {"android": "https://dc.lft.to/lastmile_qr_scan", "ios": "https://dc.lft.to/lastmile_qr_scan"}, "fusion_lon": 0.0, "lat": 38.904229666666666, "bike_id": "43dec99385255dc7e46c54dd6c1448bc", "type": "electric_scooter", "is_reserved": 0, "lon": -77.03152516666667}, {"fusion_lat": 0.0, "name": "d449649ecdffa18e6ec0de72ff7a17bb", "is_disabled": 0, "rental_uris": {"android": "https://dc.lft.to/lastmile_qr_scan", "ios": "https://dc.lft.to/lastmile_qr_scan"}, "fusion_lon": 0.0, "lat": 38.93183916666667, "bike_id": "d449649ecdffa18e6ec0de72ff7a17bb", "type": "electric_scooter", "is_reserved": 0, "lon": -77.04293333333334}, {"fusion_lat": 0.0, "name": "cc85e80c43d577095311224a8328ce92", "is_disabled": 0, "rental_uris": {"android": "https://dc.lft.to/lastmile_qr_scan", "ios": "https://dc.lft.to/lastmile_qr_scan"}, "fusion_lon": 0.0, "lat": 38.910985833333335, "bike_id": "cc85e80c43d577095311224a8328ce92", "type": "electric_scooter", "is_reserved": 0, "lon": -77.01138633333333}, {"fusion_lat": 0.0, "name": "a1e154931b2c4872c347888651a8f108", "is_disabled": 0, "rental_uris": {"android": "https://dc.lft.to/lastmile_qr_scan", "ios": "https://dc.lft.to/lastmile_qr_scan"}, "fusion_lon": 0.0, "lat": 38.957080166666664, "bike_id": "a1e154931b2c4872c347888651a8f108", "type": "electric_scooter", "is_reserved": 0, "lon": -77.0240675}, {"fusion_lat": 0.0, "name": "02edea778300e8ae918b6e361da39610", "is_disabled": 0, "rental_uris": {"android": "https://dc.lft.to/lastmile_qr_scan", "ios": "https://dc.lft.to/lastmile_qr_scan"}, "fusion_lon": 0.0, "lat": 38.90028066666667, "bike_id": "02edea778300e8ae918b6e361da39610", "type": "electric_scooter", "is_reserved": 0, "lon": -76.991396}, {"fusion_lat": 0.0, "name": "f0c1076538beda69808c04e6a31bad77", "is_disabled": 0, "rental_uris": {"android": "https://dc.lft.to/lastmile_qr_scan", "ios": "https://dc.lft.to/lastmile_qr_scan"}, "fusion_lon": 0.0, "lat": 38.9206795, "bike_id": "f0c1076538beda69808c04e6a31bad77", "type": "electric_scooter", "is_reserved": 0, "lon": -77.03199233333333}, {"fusion_lat": 0.0, "name": "9b86977155b868f3bcbee23d2b34ab95", "is_disabled": 0, "rental_uris": {"android": "https://dc.lft.to/lastmile_qr_scan", "ios": "https://dc.lft.to/lastmile_qr_scan"}, "fusion_lon": 0.0, "lat": 38.8844875, "bike_id": "9b86977155b868f3bcbee23d2b34ab95", "type": "electric_scooter", "is_reserved": 0, "lon": -76.99837033333333}, {"fusion_lat": 0.0, "name": "dd8f9d092c65d5a61cb615264033e9d3", "is_disabled": 0, "rental_uris": {"android": "https://dc.lft.to/lastmile_qr_scan", "ios": "https://dc.lft.to/lastmile_qr_scan"}, "fusion_lon": 0.0, "lat": 38.88470683333333, "bike_id": "dd8f9d092c65d5a61cb615264033e9d3", "type": "electric_scooter", "is_reserved": 0, "lon": -76.92971116666666}, {"fusion_lat": 0.0, "name": "9cee07efa6d990fca8b4b6b629e2a6ab", "is_disabled": 0, "rental_uris": {"android": "https://dc.lft.to/lastmile_qr_scan", "ios": "https://dc.lft.to/lastmile_qr_scan"}, "fusion_lon": 0.0, "lat": 38.9299035, "bike_id": "9cee07efa6d990fca8b4b6b629e2a6ab", "type": "electric_scooter", "is_reserved": 0, "lon": -77.03252616666667}, {"fusion_lat": 0.0, "name": "495ac543c41053fc735ec5fc02afd78f", "is_disabled": 0, "rental_uris": {"android": "https://dc.lft.to/lastmile_qr_scan", "ios": "https://dc.lft.to/lastmile_qr_scan"}, "fusion_lon": 0.0, "lat": 38.947031833333334, "bike_id": "495ac543c41053fc735ec5fc02afd78f", "type": "electric_scooter", "is_reserved": 0, "lon": -77.01946216666667}, {"fusion_lat": 0.0, "name": "ca31217d1d4d5a8671729879941b1bdc", "is_disabled": 0, "rental_uris": {"android": "https://dc.lft.to/lastmile_qr_scan", "ios": "https://dc.lft.to/lastmile_qr_scan"}, "fusion_lon": 0.0, "lat": 38.935872, "bike_id": "ca31217d1d4d5a8671729879941b1bdc", "type": "electric_scooter", "is_reserved": 0, "lon": -77.0236375}, {"fusion_lat": 0.0, "name": "b4559dc2de2e35f7229189ce7a7d4fab", "is_disabled": 0, "rental_uris": {"android": "https://dc.lft.to/lastmile_qr_scan", "ios": "https://dc.lft.to/lastmile_qr_scan"}, "fusion_lon": 0.0, "lat": 38.924352166666665, "bike_id": "b4559dc2de2e35f7229189ce7a7d4fab", "type": "electric_scooter", "is_reserved": 0, "lon": -77.03362283333334}, {"fusion_lat": 0.0, "name": "90ed217421a833ebe308aa24d0196102", "is_disabled": 0, "rental_uris": {"android": "https://dc.lft.to/lastmile_qr_scan", "ios": "https://dc.lft.to/lastmile_qr_scan"}, "fusion_lon": 0.0, "lat": 38.9467475, "bike_id": "90ed217421a833ebe308aa24d0196102", "type": "electric_scooter", "is_reserved": 0, "lon": -77.03092616666666}, {"fusion_lat": 0.0, "name": "eb6d65cdbe8b3d49aec2a979b8ca4ff0", "is_disabled": 0, "rental_uris": {"android": "https://dc.lft.to/lastmile_qr_scan", "ios": "https://dc.lft.to/lastmile_qr_scan"}, "fusion_lon": 0.0, "lat": 38.95472816666667, "bike_id": "eb6d65cdbe8b3d49aec2a979b8ca4ff0", "type": "electric_scooter", "is_reserved": 0, "lon": -77.07777766666666}, {"fusion_lat": 0.0, "name": "855799ceb7b01affe75f159bc01e4ee1", "is_disabled": 0, "rental_uris": {"android": "https://dc.lft.to/lastmile_qr_scan", "ios": "https://dc.lft.to/lastmile_qr_scan"}, "fusion_lon": 0.0, "lat": 38.922454333333334, "bike_id": "855799ceb7b01affe75f159bc01e4ee1", "type": "electric_scooter", "is_reserved": 0, "lon": -77.0390095}, {"fusion_lat": 0.0, "name": "6f34419db529498e7dad67c4259ccaaf", "is_disabled": 0, "rental_uris": {"android": "https://dc.lft.to/lastmile_qr_scan", "ios": "https://dc.lft.to/lastmile_qr_scan"}, "fusion_lon": 0.0, "lat": 38.90852566666667, "bike_id": "6f34419db529498e7dad67c4259ccaaf", "type": "electric_scooter", "is_reserved": 0, "lon": -77.0271965}, {"fusion_lat": 0.0, "name": "4eede02b72d3dcd480f353c4107cc528", "is_disabled": 0, "rental_uris": {"android": "https://dc.lft.to/lastmile_qr_scan", "ios": "https://dc.lft.to/lastmile_qr_scan"}, "fusion_lon": 0.0, "lat": 38.87450066666667, "bike_id": "4eede02b72d3dcd480f353c4107cc528", "type": "electric_bike", "is_reserved": 0, "lon": -76.999364}, {"fusion_lat": 0.0, "name": "82ecded0a4b29d77355542189069b0b7", "is_disabled": 0, "rental_uris": {"android": "https://dc.lft.to/lastmile_qr_scan", "ios": "https://dc.lft.to/lastmile_qr_scan"}, "fusion_lon": 0.0, "lat": 38.8662465, "bike_id": "82ecded0a4b29d77355542189069b0b7", "type": "electric_scooter", "is_reserved": 0, "lon": -76.98720733333333}, {"fusion_lat": 0.0, "name": "c9c1a206e6ea198a3535e5291fe482a1", "is_disabled": 0, "rental_uris": {"android": "https://dc.lft.to/lastmile_qr_scan", "ios": "https://dc.lft.to/lastmile_qr_scan"}, "fusion_lon": 0.0, "lat": 38.93231216666667, "bike_id": "c9c1a206e6ea198a3535e5291fe482a1", "type": "electric_bike", "is_reserved": 0, "lon": -76.97422716666667}, {"fusion_lat": 0.0, "name": "fd3f4df6ef7ab249b1c2d9d232ae1d57", "is_disabled": 0, "rental_uris": {"android": "https://dc.lft.to/lastmile_qr_scan", "ios": "https://dc.lft.to/lastmile_qr_scan"}, "fusion_lon": 0.0, "lat": 38.89813566666667, "bike_id": "fd3f4df6ef7ab249b1c2d9d232ae1d57", "type": "electric_scooter", "is_reserved": 0, "lon": -77.0270295}, {"fusion_lat": 0.0, "name": "1f2bdf44865c478543679a68760505a0", "is_disabled": 0, "rental_uris": {"android": "https://dc.lft.to/lastmile_qr_scan", "ios": "https://dc.lft.to/lastmile_qr_scan"}, "fusion_lon": 0.0, "lat": 38.87972366666666, "bike_id": "1f2bdf44865c478543679a68760505a0", "type": "electric_bike", "is_reserved": 0, "lon": -77.17840083333333}, {"fusion_lat": 0.0, "name": "a638c3a5cb39fa4550db8e55ba85fc68", "is_disabled": 0, "rental_uris": {"android": "https://dc.lft.to/lastmile_qr_scan", "ios": "https://dc.lft.to/lastmile_qr_scan"}, "fusion_lon": 0.0, "lat": 38.91172233333333, "bike_id": "a638c3a5cb39fa4550db8e55ba85fc68", "type": "electric_scooter", "is_reserved": 0, "lon": -77.03663866666666}, {"fusion_lat": 0.0, "name": "89ad3a35aca22684d926cd98c574ccdb", "is_disabled": 0, "rental_uris": {"android": "https://dc.lft.to/lastmile_qr_scan", "ios": "https://dc.lft.to/lastmile_qr_scan"}, "fusion_lon": 0.0, "lat": 38.95106466666667, "bike_id": "89ad3a35aca22684d926cd98c574ccdb", "type": "electric_scooter", "is_reserved": 0, "lon": -77.0586705}, {"fusion_lat": 0.0, "name": "990ea5c256850a344647f7ab972bb267", "is_disabled": 0, "rental_uris": {"android": "https://dc.lft.to/lastmile_qr_scan", "ios": "https://dc.lft.to/lastmile_qr_scan"}, "fusion_lon": 0.0, "lat": 38.916963, "bike_id": "990ea5c256850a344647f7ab972bb267", "type": "electric_scooter", "is_reserved": 0, "lon": -77.03724366666667}, {"fusion_lat": 0.0, "name": "181e371ae1abbf20e3b95d8fd61f87af", "is_disabled": 0, "rental_uris": {"android": "https://dc.lft.to/lastmile_qr_scan", "ios": "https://dc.lft.to/lastmile_qr_scan"}, "fusion_lon": 0.0, "lat": 38.92072983333333, "bike_id": "181e371ae1abbf20e3b95d8fd61f87af", "type": "electric_scooter", "is_reserved": 0, "lon": -77.00448516666667}, {"fusion_lat": 0.0, "name": "d836080364ac826a10148187e4557bca", "is_disabled": 0, "rental_uris": {"android": "https://dc.lft.to/lastmile_qr_scan", "ios": "https://dc.lft.to/lastmile_qr_scan"}, "fusion_lon": 0.0, "lat": 38.9365585, "bike_id": "d836080364ac826a10148187e4557bca", "type": "electric_scooter", "is_reserved": 0, "lon": -77.03688033333333}, {"fusion_lat": 0.0, "name": "66ba9942abeb173c9e271301455e612c", "is_disabled": 0, "rental_uris": {"android": "https://dc.lft.to/lastmile_qr_scan", "ios": "https://dc.lft.to/lastmile_qr_scan"}, "fusion_lon": 0.0, "lat": 38.91614366666667, "bike_id": "66ba9942abeb173c9e271301455e612c", "type": "electric_scooter", "is_reserved": 0, "lon": -77.0364395}, {"fusion_lat": 0.0, "name": "ef1ba869e43a68c877aa15570f41b2f1", "is_disabled": 0, "rental_uris": {"android": "https://dc.lft.to/lastmile_qr_scan", "ios": "https://dc.lft.to/lastmile_qr_scan"}, "fusion_lon": 0.0, "lat": 38.904842333333335, "bike_id": "ef1ba869e43a68c877aa15570f41b2f1", "type": "electric_scooter", "is_reserved": 0, "lon": -77.04081316666667}, {"fusion_lat": 0.0, "name": "ca5f99abf7af0d25da6b1ba9596d7eab", "is_disabled": 0, "rental_uris": {"android": "https://dc.lft.to/lastmile_qr_scan", "ios": "https://dc.lft.to/lastmile_qr_scan"}, "fusion_lon": 0.0, "lat": 38.87474133333333, "bike_id": "ca5f99abf7af0d25da6b1ba9596d7eab", "type": "electric_scooter", "is_reserved": 0, "lon": -77.00043766666667}, {"fusion_lat": 0.0, "name": "ec425ce62d87ef3d8c0f4559bf7af958", "is_disabled": 0, "rental_uris": {"android": "https://dc.lft.to/lastmile_qr_scan", "ios": "https://dc.lft.to/lastmile_qr_scan"}, "fusion_lon": 0.0, "lat": 38.90373966666667, "bike_id": "ec425ce62d87ef3d8c0f4559bf7af958", "type": "electric_scooter", "is_reserved": 0, "lon": -77.04603916666667}, {"fusion_lat": 0.0, "name": "4595f75abe3f0a585cf8742299520e0d", "is_disabled": 0, "rental_uris": {"android": "https://dc.lft.to/lastmile_qr_scan", "ios": "https://dc.lft.to/lastmile_qr_scan"}, "fusion_lon": 0.0, "lat": 38.966270333333334, "bike_id": "4595f75abe3f0a585cf8742299520e0d", "type": "electric_scooter", "is_reserved": 0, "lon": -77.0199885}, {"fusion_lat": 0.0, "name": "dd95dc5fcd58998e391fc7ac02242cf0", "is_disabled": 0, "rental_uris": {"android": "https://dc.lft.to/lastmile_qr_scan", "ios": "https://dc.lft.to/lastmile_qr_scan"}, "fusion_lon": 0.0, "lat": 38.933810666666666, "bike_id": "dd95dc5fcd58998e391fc7ac02242cf0", "type": "electric_scooter", "is_reserved": 0, "lon": -77.038894}, {"fusion_lat": 0.0, "name": "ce0abeb4fcb8b719b5b16cdd208ef224", "is_disabled": 0, "rental_uris": {"android": "https://dc.lft.to/lastmile_qr_scan", "ios": "https://dc.lft.to/lastmile_qr_scan"}, "fusion_lon": 0.0, "lat": 38.879258166666666, "bike_id": "ce0abeb4fcb8b719b5b16cdd208ef224", "type": "electric_scooter", "is_reserved": 0, "lon": -77.02380483333333}, {"fusion_lat": 0.0, "name": "7e0dfa323bd8532f2e514ad042be4fa0", "is_disabled": 0, "rental_uris": {"android": "https://dc.lft.to/lastmile_qr_scan", "ios": "https://dc.lft.to/lastmile_qr_scan"}, "fusion_lon": 0.0, "lat": 38.896936833333335, "bike_id": "7e0dfa323bd8532f2e514ad042be4fa0", "type": "electric_scooter", "is_reserved": 0, "lon": -77.04345783333333}, {"fusion_lat": 0.0, "name": "af4c995ccaa06b01bddec9518c2608c9", "is_disabled": 0, "rental_uris": {"android": "https://dc.lft.to/lastmile_qr_scan", "ios": "https://dc.lft.to/lastmile_qr_scan"}, "fusion_lon": 0.0, "lat": 38.8784805, "bike_id": "af4c995ccaa06b01bddec9518c2608c9", "type": "electric_bike", "is_reserved": 0, "lon": -77.03016633333333}, {"fusion_lat": 0.0, "name": "df6a41bad2735b36a5e7ac50055d7d75", "is_disabled": 0, "rental_uris": {"android": "https://dc.lft.to/lastmile_qr_scan", "ios": "https://dc.lft.to/lastmile_qr_scan"}, "fusion_lon": 0.0, "lat": 38.90027666666667, "bike_id": "df6a41bad2735b36a5e7ac50055d7d75", "type": "electric_scooter", "is_reserved": 0, "lon": -76.98855266666666}, {"fusion_lat": 0.0, "name": "a63f8f66dc2af6e9c3ad1bad0238a0cf", "is_disabled": 0, "rental_uris": {"android": "https://dc.lft.to/lastmile_qr_scan", "ios": "https://dc.lft.to/lastmile_qr_scan"}, "fusion_lon": 0.0, "lat": 38.925720166666665, "bike_id": "a63f8f66dc2af6e9c3ad1bad0238a0cf", "type": "electric_scooter", "is_reserved": 0, "lon": -76.99495816666666}, {"fusion_lat": 0.0, "name": "141b0dcd2cbea93679818ab16f68479a", "is_disabled": 0, "rental_uris": {"android": "https://dc.lft.to/lastmile_qr_scan", "ios": "https://dc.lft.to/lastmile_qr_scan"}, "fusion_lon": 0.0, "lat": 38.887289833333334, "bike_id": "141b0dcd2cbea93679818ab16f68479a", "type": "electric_scooter", "is_reserved": 0, "lon": -76.99495883333333}, {"fusion_lat": 0.0, "name": "e79a643c0e3f6e6f35c70a2eda43c564", "is_disabled": 0, "rental_uris": {"android": "https://dc.lft.to/lastmile_qr_scan", "ios": "https://dc.lft.to/lastmile_qr_scan"}, "fusion_lon": 0.0, "lat": 38.87577266666667, "bike_id": "e79a643c0e3f6e6f35c70a2eda43c564", "type": "electric_bike", "is_reserved": 0, "lon": -77.234137}, {"fusion_lat": 0.0, "name": "3229e161eac9e21188bfb78ed21697e1", "is_disabled": 0, "rental_uris": {"android": "https://dc.lft.to/lastmile_qr_scan", "ios": "https://dc.lft.to/lastmile_qr_scan"}, "fusion_lon": 0.0, "lat": 38.898976166666664, "bike_id": "3229e161eac9e21188bfb78ed21697e1", "type": "electric_scooter", "is_reserved": 0, "lon": -76.93355583333333}, {"fusion_lat": 0.0, "name": "2c22225d4fc51900b35237e6e3b73656", "is_disabled": 0, "rental_uris": {"android": "https://dc.lft.to/lastmile_qr_scan", "ios": "https://dc.lft.to/lastmile_qr_scan"}, "fusion_lon": 0.0, "lat": 38.88524966666667, "bike_id": "2c22225d4fc51900b35237e6e3b73656", "type": "electric_scooter", "is_reserved": 0, "lon": -76.9293325}, {"fusion_lat": 0.0, "name": "5145b60920b18a3f128009d7990cf37b", "is_disabled": 0, "rental_uris": {"android": "https://dc.lft.to/lastmile_qr_scan", "ios": "https://dc.lft.to/lastmile_qr_scan"}, "fusion_lon": 0.0, "lat": 38.89321733333333, "bike_id": "5145b60920b18a3f128009d7990cf37b", "type": "electric_scooter", "is_reserved": 0, "lon": -77.03959183333333}, {"fusion_lat": 0.0, "name": "e2fbef96f6aa099aa84170a6e8787714", "is_disabled": 0, "rental_uris": {"android": "https://dc.lft.to/lastmile_qr_scan", "ios": "https://dc.lft.to/lastmile_qr_scan"}, "fusion_lon": 0.0, "lat": 38.89983383333333, "bike_id": "e2fbef96f6aa099aa84170a6e8787714", "type": "electric_scooter", "is_reserved": 0, "lon": -77.01626966666667}, {"fusion_lat": 0.0, "name": "019e1875aa528c156f3a795df422cf51", "is_disabled": 0, "rental_uris": {"android": "https://dc.lft.to/lastmile_qr_scan", "ios": "https://dc.lft.to/lastmile_qr_scan"}, "fusion_lon": 0.0, "lat": 38.930927, "bike_id": "019e1875aa528c156f3a795df422cf51", "type": "electric_scooter", "is_reserved": 0, "lon": -77.02552116666666}, {"fusion_lat": 0.0, "name": "b2dbdcc209cd0b3b3c97e30ee4e2fbae", "is_disabled": 0, "rental_uris": {"android": "https://dc.lft.to/lastmile_qr_scan", "ios": "https://dc.lft.to/lastmile_qr_scan"}, "fusion_lon": 0.0, "lat": 38.96314733333333, "bike_id": "b2dbdcc209cd0b3b3c97e30ee4e2fbae", "type": "electric_scooter", "is_reserved": 0, "lon": -77.0749335}, {"fusion_lat": 0.0, "name": "b13eedb027edd12ca273529c3a148341", "is_disabled": 0, "rental_uris": {"android": "https://dc.lft.to/lastmile_qr_scan", "ios": "https://dc.lft.to/lastmile_qr_scan"}, "fusion_lon": 0.0, "lat": 38.91609316666667, "bike_id": "b13eedb027edd12ca273529c3a148341", "type": "electric_scooter", "is_reserved": 0, "lon": -77.00336566666667}, {"fusion_lat": 0.0, "name": "bdc944a57f4740ac7f8de06963dc9fb8", "is_disabled": 0, "rental_uris": {"android": "https://dc.lft.to/lastmile_qr_scan", "ios": "https://dc.lft.to/lastmile_qr_scan"}, "fusion_lon": 0.0, "lat": 38.9353345, "bike_id": "bdc944a57f4740ac7f8de06963dc9fb8", "type": "electric_scooter", "is_reserved": 0, "lon": -77.02364083333333}, {"fusion_lat": 0.0, "name": "95f9f6a164ec15e90aa9a49d9a4b3350", "is_disabled": 0, "rental_uris": {"android": "https://dc.lft.to/lastmile_qr_scan", "ios": "https://dc.lft.to/lastmile_qr_scan"}, "fusion_lon": 0.0, "lat": 38.91849116666667, "bike_id": "95f9f6a164ec15e90aa9a49d9a4b3350", "type": "electric_scooter", "is_reserved": 0, "lon": -77.02422733333333}, {"fusion_lat": 0.0, "name": "883436529138a752d1286c9ae3c13acd", "is_disabled": 0, "rental_uris": {"android": "https://dc.lft.to/lastmile_qr_scan", "ios": "https://dc.lft.to/lastmile_qr_scan"}, "fusion_lon": 0.0, "lat": 38.8990825, "bike_id": "883436529138a752d1286c9ae3c13acd", "type": "electric_scooter", "is_reserved": 0, "lon": -76.9459085}, {"fusion_lat": 0.0, "name": "fdff519cd1a743417f2e116c9736f841", "is_disabled": 0, "rental_uris": {"android": "https://dc.lft.to/lastmile_qr_scan", "ios": "https://dc.lft.to/lastmile_qr_scan"}, "fusion_lon": 0.0, "lat": 38.942009, "bike_id": "fdff519cd1a743417f2e116c9736f841", "type": "electric_scooter", "is_reserved": 0, "lon": -77.02591666666666}, {"fusion_lat": 0.0, "name": "d8d183ffe8d683c1f09d279082c02789", "is_disabled": 0, "rental_uris": {"android": "https://dc.lft.to/lastmile_qr_scan", "ios": "https://dc.lft.to/lastmile_qr_scan"}, "fusion_lon": 0.0, "lat": 38.9021335, "bike_id": "d8d183ffe8d683c1f09d279082c02789", "type": "electric_scooter", "is_reserved": 0, "lon": -77.02201216666667}, {"fusion_lat": 0.0, "name": "0e84292e2ff4a46f8db5bb593de67bf0", "is_disabled": 0, "rental_uris": {"android": "https://dc.lft.to/lastmile_qr_scan", "ios": "https://dc.lft.to/lastmile_qr_scan"}, "fusion_lon": 0.0, "lat": 38.90572516666667, "bike_id": "0e84292e2ff4a46f8db5bb593de67bf0", "type": "electric_scooter", "is_reserved": 0, "lon": -77.03354816666666}, {"fusion_lat": 0.0, "name": "ebf3cac0c84f57ee9bca64bd910a782e", "is_disabled": 0, "rental_uris": {"android": "https://dc.lft.to/lastmile_qr_scan", "ios": "https://dc.lft.to/lastmile_qr_scan"}, "fusion_lon": 0.0, "lat": 38.9180285, "bike_id": "ebf3cac0c84f57ee9bca64bd910a782e", "type": "electric_scooter", "is_reserved": 0, "lon": -77.03447633333333}, {"fusion_lat": 0.0, "name": "fdd691c4f076c614e9f13704222f1dcc", "is_disabled": 0, "rental_uris": {"android": "https://dc.lft.to/lastmile_qr_scan", "ios": "https://dc.lft.to/lastmile_qr_scan"}, "fusion_lon": 0.0, "lat": 38.9341145, "bike_id": "fdd691c4f076c614e9f13704222f1dcc", "type": "electric_scooter", "is_reserved": 0, "lon": -77.019642}, {"fusion_lat": 0.0, "name": "afe9a7f941de7cee788a633aaa421fa6", "is_disabled": 0, "rental_uris": {"android": "https://dc.lft.to/lastmile_qr_scan", "ios": "https://dc.lft.to/lastmile_qr_scan"}, "fusion_lon": 0.0, "lat": 38.87923083333333, "bike_id": "afe9a7f941de7cee788a633aaa421fa6", "type": "electric_scooter", "is_reserved": 0, "lon": -76.944835}, {"fusion_lat": 0.0, "name": "dd63be70280ddbd7ee7918b4762f5430", "is_disabled": 0, "rental_uris": {"android": "https://dc.lft.to/lastmile_qr_scan", "ios": "https://dc.lft.to/lastmile_qr_scan"}, "fusion_lon": 0.0, "lat": 38.9170755, "bike_id": "dd63be70280ddbd7ee7918b4762f5430", "type": "electric_scooter", "is_reserved": 0, "lon": -77.03861283333333}, {"fusion_lat": 0.0, "name": "cc609d3f2dd5d36357a8c3d67f467c66", "is_disabled": 0, "rental_uris": {"android": "https://dc.lft.to/lastmile_qr_scan", "ios": "https://dc.lft.to/lastmile_qr_scan"}, "fusion_lon": 0.0, "lat": 38.92870533333333, "bike_id": "cc609d3f2dd5d36357a8c3d67f467c66", "type": "electric_scooter", "is_reserved": 0, "lon": -77.0330375}, {"fusion_lat": 0.0, "name": "181e48982f1e742fbaa134266f37a322", "is_disabled": 0, "rental_uris": {"android": "https://dc.lft.to/lastmile_qr_scan", "ios": "https://dc.lft.to/lastmile_qr_scan"}, "fusion_lon": 0.0, "lat": 38.8795115, "bike_id": "181e48982f1e742fbaa134266f37a322", "type": "electric_scooter", "is_reserved": 0, "lon": -77.00836766666667}, {"fusion_lat": 0.0, "name": "21ee4a3044c5396869cb0008c5e0073f", "is_disabled": 0, "rental_uris": {"android": "https://dc.lft.to/lastmile_qr_scan", "ios": "https://dc.lft.to/lastmile_qr_scan"}, "fusion_lon": 0.0, "lat": 38.93287466666666, "bike_id": "21ee4a3044c5396869cb0008c5e0073f", "type": "electric_scooter", "is_reserved": 0, "lon": -77.027943}, {"fusion_lat": 0.0, "name": "74ea803b49d9db99e5f849d6f4de8592", "is_disabled": 0, "rental_uris": {"android": "https://dc.lft.to/lastmile_qr_scan", "ios": "https://dc.lft.to/lastmile_qr_scan"}, "fusion_lon": 0.0, "lat": 38.949496, "bike_id": "74ea803b49d9db99e5f849d6f4de8592", "type": "electric_scooter", "is_reserved": 0, "lon": -77.02318433333333}, {"fusion_lat": 0.0, "name": "51dfcebd1d1b73966b943837e306781b", "is_disabled": 0, "rental_uris": {"android": "https://dc.lft.to/lastmile_qr_scan", "ios": "https://dc.lft.to/lastmile_qr_scan"}, "fusion_lon": 0.0, "lat": 38.902234666666665, "bike_id": "51dfcebd1d1b73966b943837e306781b", "type": "electric_scooter", "is_reserved": 0, "lon": -77.03209716666667}, {"fusion_lat": 0.0, "name": "fd59d53fa0d2486c43f2ed99746e3103", "is_disabled": 0, "rental_uris": {"android": "https://dc.lft.to/lastmile_qr_scan", "ios": "https://dc.lft.to/lastmile_qr_scan"}, "fusion_lon": 0.0, "lat": 38.919382666666664, "bike_id": "fd59d53fa0d2486c43f2ed99746e3103", "type": "electric_scooter", "is_reserved": 0, "lon": -77.03948533333333}, {"fusion_lat": 0.0, "name": "e80a76bf58b498b5214c8f17b40d86f1", "is_disabled": 0, "rental_uris": {"android": "https://dc.lft.to/lastmile_qr_scan", "ios": "https://dc.lft.to/lastmile_qr_scan"}, "fusion_lon": 0.0, "lat": 38.90590483333333, "bike_id": "e80a76bf58b498b5214c8f17b40d86f1", "type": "electric_scooter", "is_reserved": 0, "lon": -77.03347633333334}, {"fusion_lat": 0.0, "name": "9ad9eedcc9f57a64fa990fe2f0914c47", "is_disabled": 0, "rental_uris": {"android": "https://dc.lft.to/lastmile_qr_scan", "ios": "https://dc.lft.to/lastmile_qr_scan"}, "fusion_lon": 0.0, "lat": 38.95686833333333, "bike_id": "9ad9eedcc9f57a64fa990fe2f0914c47", "type": "electric_scooter", "is_reserved": 0, "lon": -77.0325555}, {"fusion_lat": 0.0, "name": "68c8cb322a8f7d3dfd101f15c3097d4b", "is_disabled": 0, "rental_uris": {"android": "https://dc.lft.to/lastmile_qr_scan", "ios": "https://dc.lft.to/lastmile_qr_scan"}, "fusion_lon": 0.0, "lat": 38.92425866666667, "bike_id": "68c8cb322a8f7d3dfd101f15c3097d4b", "type": "electric_scooter", "is_reserved": 0, "lon": -77.02273666666666}, {"fusion_lat": 0.0, "name": "7a84ce571ca66b4f16ac062ee7e36192", "is_disabled": 0, "rental_uris": {"android": "https://dc.lft.to/lastmile_qr_scan", "ios": "https://dc.lft.to/lastmile_qr_scan"}, "fusion_lon": 0.0, "lat": 38.92068833333333, "bike_id": "7a84ce571ca66b4f16ac062ee7e36192", "type": "electric_scooter", "is_reserved": 0, "lon": -77.0241785}, {"fusion_lat": 0.0, "name": "11bb23c8311c62a826654fe71ffe301e", "is_disabled": 0, "rental_uris": {"android": "https://dc.lft.to/lastmile_qr_scan", "ios": "https://dc.lft.to/lastmile_qr_scan"}, "fusion_lon": 0.0, "lat": 38.91708283333333, "bike_id": "11bb23c8311c62a826654fe71ffe301e", "type": "electric_scooter", "is_reserved": 0, "lon": -77.03472833333333}, {"fusion_lat": 0.0, "name": "2ecffc8c79428da6f182cda676936510", "is_disabled": 0, "rental_uris": {"android": "https://dc.lft.to/lastmile_qr_scan", "ios": "https://dc.lft.to/lastmile_qr_scan"}, "fusion_lon": 0.0, "lat": 38.9623435, "bike_id": "2ecffc8c79428da6f182cda676936510", "type": "electric_bike", "is_reserved": 0, "lon": -76.92762766666667}, {"fusion_lat": 0.0, "name": "a3dab213ad4dd93786057ff0fb0c4434", "is_disabled": 0, "rental_uris": {"android": "https://dc.lft.to/lastmile_qr_scan", "ios": "https://dc.lft.to/lastmile_qr_scan"}, "fusion_lon": 0.0, "lat": 38.91839566666667, "bike_id": "a3dab213ad4dd93786057ff0fb0c4434", "type": "electric_scooter", "is_reserved": 0, "lon": -77.02433116666667}, {"fusion_lat": 0.0, "name": "9226f464cc88220b11f939a2fce8062d", "is_disabled": 0, "rental_uris": {"android": "https://dc.lft.to/lastmile_qr_scan", "ios": "https://dc.lft.to/lastmile_qr_scan"}, "fusion_lon": 0.0, "lat": 38.905728, "bike_id": "9226f464cc88220b11f939a2fce8062d", "type": "electric_scooter", "is_reserved": 0, "lon": -77.02202533333333}, {"fusion_lat": 0.0, "name": "1c9d24d068a6878aeb834c12e68f3c19", "is_disabled": 0, "rental_uris": {"android": "https://dc.lft.to/lastmile_qr_scan", "ios": "https://dc.lft.to/lastmile_qr_scan"}, "fusion_lon": 0.0, "lat": 38.902575166666665, "bike_id": "1c9d24d068a6878aeb834c12e68f3c19", "type": "electric_scooter", "is_reserved": 0, "lon": -77.01870983333333}, {"fusion_lat": 0.0, "name": "7f78fb0ce61ea27f8287d6303db5907f", "is_disabled": 0, "rental_uris": {"android": "https://dc.lft.to/lastmile_qr_scan", "ios": "https://dc.lft.to/lastmile_qr_scan"}, "fusion_lon": 0.0, "lat": 38.89725766666667, "bike_id": "7f78fb0ce61ea27f8287d6303db5907f", "type": "electric_scooter", "is_reserved": 0, "lon": -77.04856616666666}, {"fusion_lat": 0.0, "name": "8c1106dcfc58987a0a0b2976bd7c0981", "is_disabled": 0, "rental_uris": {"android": "https://dc.lft.to/lastmile_qr_scan", "ios": "https://dc.lft.to/lastmile_qr_scan"}, "fusion_lon": 0.0, "lat": 38.8668015, "bike_id": "8c1106dcfc58987a0a0b2976bd7c0981", "type": "electric_bike", "is_reserved": 0, "lon": -76.98235733333334}, {"fusion_lat": 0.0, "name": "6120f096b04c8a0a0772badca8e42a47", "is_disabled": 0, "rental_uris": {"android": "https://dc.lft.to/lastmile_qr_scan", "ios": "https://dc.lft.to/lastmile_qr_scan"}, "fusion_lon": 0.0, "lat": 38.9106145, "bike_id": "6120f096b04c8a0a0772badca8e42a47", "type": "electric_scooter", "is_reserved": 0, "lon": -77.00472266666667}, {"fusion_lat": 0.0, "name": "6d5f44cfe178b2874590c7715525b3bf", "is_disabled": 0, "rental_uris": {"android": "https://dc.lft.to/lastmile_qr_scan", "ios": "https://dc.lft.to/lastmile_qr_scan"}, "fusion_lon": 0.0, "lat": 38.924140333333334, "bike_id": "6d5f44cfe178b2874590c7715525b3bf", "type": "electric_scooter", "is_reserved": 0, "lon": -77.020102}, {"fusion_lat": 0.0, "name": "dbed5d266d832880114a2be1f3a21f29", "is_disabled": 0, "rental_uris": {"android": "https://dc.lft.to/lastmile_qr_scan", "ios": "https://dc.lft.to/lastmile_qr_scan"}, "fusion_lon": 0.0, "lat": 38.89184066666667, "bike_id": "dbed5d266d832880114a2be1f3a21f29", "type": "electric_scooter", "is_reserved": 0, "lon": -76.999412}, {"fusion_lat": 0.0, "name": "aeeb1044e8fb01bb9eea14cffc8aef54", "is_disabled": 0, "rental_uris": {"android": "https://dc.lft.to/lastmile_qr_scan", "ios": "https://dc.lft.to/lastmile_qr_scan"}, "fusion_lon": 0.0, "lat": 38.92031866666667, "bike_id": "aeeb1044e8fb01bb9eea14cffc8aef54", "type": "electric_scooter", "is_reserved": 0, "lon": -77.01771633333334}, {"fusion_lat": 0.0, "name": "50509b231ed319663af21f81b295930a", "is_disabled": 0, "rental_uris": {"android": "https://dc.lft.to/lastmile_qr_scan", "ios": "https://dc.lft.to/lastmile_qr_scan"}, "fusion_lon": 0.0, "lat": 38.916851666666666, "bike_id": "50509b231ed319663af21f81b295930a", "type": "electric_scooter", "is_reserved": 0, "lon": -77.028069}, {"fusion_lat": 0.0, "name": "0f3a3ae154e85650fc26d263b2cf0430", "is_disabled": 0, "rental_uris": {"android": "https://dc.lft.to/lastmile_qr_scan", "ios": "https://dc.lft.to/lastmile_qr_scan"}, "fusion_lon": 0.0, "lat": 38.9313105, "bike_id": "0f3a3ae154e85650fc26d263b2cf0430", "type": "electric_scooter", "is_reserved": 0, "lon": -77.07845416666666}, {"fusion_lat": 0.0, "name": "d37eccfd9d18b90bd3d4b195cd6183af", "is_disabled": 0, "rental_uris": {"android": "https://dc.lft.to/lastmile_qr_scan", "ios": "https://dc.lft.to/lastmile_qr_scan"}, "fusion_lon": 0.0, "lat": 38.902550166666664, "bike_id": "d37eccfd9d18b90bd3d4b195cd6183af", "type": "electric_scooter", "is_reserved": 0, "lon": -77.0436855}, {"fusion_lat": 0.0, "name": "602dc3f88cede4d69fdb52297f2d88d1", "is_disabled": 0, "rental_uris": {"android": "https://dc.lft.to/lastmile_qr_scan", "ios": "https://dc.lft.to/lastmile_qr_scan"}, "fusion_lon": 0.0, "lat": 38.907128, "bike_id": "602dc3f88cede4d69fdb52297f2d88d1", "type": "electric_scooter", "is_reserved": 0, "lon": -77.048108}, {"fusion_lat": 0.0, "name": "82c687d0f5b205fb2d4ba228deb99d1a", "is_disabled": 0, "rental_uris": {"android": "https://dc.lft.to/lastmile_qr_scan", "ios": "https://dc.lft.to/lastmile_qr_scan"}, "fusion_lon": 0.0, "lat": 38.95951916666667, "bike_id": "82c687d0f5b205fb2d4ba228deb99d1a", "type": "electric_bike", "is_reserved": 0, "lon": -77.03062816666667}, {"fusion_lat": 0.0, "name": "e32171b8099225ed41771341293a3c32", "is_disabled": 0, "rental_uris": {"android": "https://dc.lft.to/lastmile_qr_scan", "ios": "https://dc.lft.to/lastmile_qr_scan"}, "fusion_lon": 0.0, "lat": 38.92686233333333, "bike_id": "e32171b8099225ed41771341293a3c32", "type": "electric_scooter", "is_reserved": 0, "lon": -77.00770133333333}, {"fusion_lat": 0.0, "name": "30b83f1f31747cd94b8628bcee512848", "is_disabled": 0, "rental_uris": {"android": "https://dc.lft.to/lastmile_qr_scan", "ios": "https://dc.lft.to/lastmile_qr_scan"}, "fusion_lon": 0.0, "lat": 38.842799666666664, "bike_id": "30b83f1f31747cd94b8628bcee512848", "type": "electric_bike", "is_reserved": 0, "lon": -77.04502883333333}, {"fusion_lat": 0.0, "name": "3e2fa56b9ab31262961dd0093e9ee929", "is_disabled": 0, "rental_uris": {"android": "https://dc.lft.to/lastmile_qr_scan", "ios": "https://dc.lft.to/lastmile_qr_scan"}, "fusion_lon": 0.0, "lat": 38.92944933333333, "bike_id": "3e2fa56b9ab31262961dd0093e9ee929", "type": "electric_scooter", "is_reserved": 0, "lon": -77.0346895}, {"fusion_lat": 0.0, "name": "233b46cef3eb9eab0184b181b4751503", "is_disabled": 0, "rental_uris": {"android": "https://dc.lft.to/lastmile_qr_scan", "ios": "https://dc.lft.to/lastmile_qr_scan"}, "fusion_lon": 0.0, "lat": 38.89564466666667, "bike_id": "233b46cef3eb9eab0184b181b4751503", "type": "electric_bike", "is_reserved": 0, "lon": -77.127365}, {"fusion_lat": 0.0, "name": "f036124cb8a1bb62d79e7a3fc2b51a11", "is_disabled": 0, "rental_uris": {"android": "https://dc.lft.to/lastmile_qr_scan", "ios": "https://dc.lft.to/lastmile_qr_scan"}, "fusion_lon": 0.0, "lat": 38.90271666666666, "bike_id": "f036124cb8a1bb62d79e7a3fc2b51a11", "type": "electric_scooter", "is_reserved": 0, "lon": -77.03376616666667}, {"fusion_lat": 0.0, "name": "7ab11aa90f46c9f24eb97d52b91e619e", "is_disabled": 0, "rental_uris": {"android": "https://dc.lft.to/lastmile_qr_scan", "ios": "https://dc.lft.to/lastmile_qr_scan"}, "fusion_lon": 0.0, "lat": 38.892945833333336, "bike_id": "7ab11aa90f46c9f24eb97d52b91e619e", "type": "electric_scooter", "is_reserved": 0, "lon": -77.04656766666666}, {"fusion_lat": 0.0, "name": "917c3c7ff949f0dfdb60f925aaa97853", "is_disabled": 0, "rental_uris": {"android": "https://dc.lft.to/lastmile_qr_scan", "ios": "https://dc.lft.to/lastmile_qr_scan"}, "fusion_lon": 0.0, "lat": 38.903611833333336, "bike_id": "917c3c7ff949f0dfdb60f925aaa97853", "type": "electric_scooter", "is_reserved": 0, "lon": -77.00346316666666}, {"fusion_lat": 0.0, "name": "45696b4c71d5d718453fb6f35c3bfa41", "is_disabled": 0, "rental_uris": {"android": "https://dc.lft.to/lastmile_qr_scan", "ios": "https://dc.lft.to/lastmile_qr_scan"}, "fusion_lon": 0.0, "lat": 38.8530935, "bike_id": "45696b4c71d5d718453fb6f35c3bfa41", "type": "electric_bike", "is_reserved": 0, "lon": -77.04602216666666}, {"fusion_lat": 0.0, "name": "55759c3fc8cceac4fc305fcc069eba13", "is_disabled": 0, "rental_uris": {"android": "https://dc.lft.to/lastmile_qr_scan", "ios": "https://dc.lft.to/lastmile_qr_scan"}, "fusion_lon": 0.0, "lat": 38.9113055, "bike_id": "55759c3fc8cceac4fc305fcc069eba13", "type": "electric_scooter", "is_reserved": 0, "lon": -77.0105295}, {"fusion_lat": 0.0, "name": "c83890f865c0bcf600896afb218b1377", "is_disabled": 0, "rental_uris": {"android": "https://dc.lft.to/lastmile_qr_scan", "ios": "https://dc.lft.to/lastmile_qr_scan"}, "fusion_lon": 0.0, "lat": 38.9070365, "bike_id": "c83890f865c0bcf600896afb218b1377", "type": "electric_scooter", "is_reserved": 0, "lon": -77.01024966666667}, {"fusion_lat": 0.0, "name": "62bd348d85f077f0b771379e7d610a3f", "is_disabled": 0, "rental_uris": {"android": "https://dc.lft.to/lastmile_qr_scan", "ios": "https://dc.lft.to/lastmile_qr_scan"}, "fusion_lon": 0.0, "lat": 38.91708583333333, "bike_id": "62bd348d85f077f0b771379e7d610a3f", "type": "electric_scooter", "is_reserved": 0, "lon": -77.03475533333334}, {"fusion_lat": 0.0, "name": "9299751ac916726a4489cd7e7f88ad7b", "is_disabled": 0, "rental_uris": {"android": "https://dc.lft.to/lastmile_qr_scan", "ios": "https://dc.lft.to/lastmile_qr_scan"}, "fusion_lon": 0.0, "lat": 38.840841, "bike_id": "9299751ac916726a4489cd7e7f88ad7b", "type": "electric_bike", "is_reserved": 0, "lon": -76.97025883333333}, {"fusion_lat": 0.0, "name": "58e40643372f73a518390d6085e24e2a", "is_disabled": 0, "rental_uris": {"android": "https://dc.lft.to/lastmile_qr_scan", "ios": "https://dc.lft.to/lastmile_qr_scan"}, "fusion_lon": 0.0, "lat": 38.919999833333335, "bike_id": "58e40643372f73a518390d6085e24e2a", "type": "electric_scooter", "is_reserved": 0, "lon": -77.0327685}, {"fusion_lat": 0.0, "name": "e08cfe3b180bb27ab11823346a2a5980", "is_disabled": 0, "rental_uris": {"android": "https://dc.lft.to/lastmile_qr_scan", "ios": "https://dc.lft.to/lastmile_qr_scan"}, "fusion_lon": 0.0, "lat": 38.929846833333336, "bike_id": "e08cfe3b180bb27ab11823346a2a5980", "type": "electric_scooter", "is_reserved": 0, "lon": -77.03246583333333}, {"fusion_lat": 0.0, "name": "bdef1927bd5b28e580082d9d3fb201e0", "is_disabled": 0, "rental_uris": {"android": "https://dc.lft.to/lastmile_qr_scan", "ios": "https://dc.lft.to/lastmile_qr_scan"}, "fusion_lon": 0.0, "lat": 38.915984333333334, "bike_id": "bdef1927bd5b28e580082d9d3fb201e0", "type": "electric_scooter", "is_reserved": 0, "lon": -77.04906333333334}, {"fusion_lat": 0.0, "name": "bdca5cc42fcae599121b7e1cb510d819", "is_disabled": 0, "rental_uris": {"android": "https://dc.lft.to/lastmile_qr_scan", "ios": "https://dc.lft.to/lastmile_qr_scan"}, "fusion_lon": 0.0, "lat": 38.90201183333333, "bike_id": "bdca5cc42fcae599121b7e1cb510d819", "type": "electric_scooter", "is_reserved": 0, "lon": -77.02371733333334}, {"fusion_lat": 0.0, "name": "eecd35b37a505ac8acfb8d56e715b17c", "is_disabled": 0, "rental_uris": {"android": "https://dc.lft.to/lastmile_qr_scan", "ios": "https://dc.lft.to/lastmile_qr_scan"}, "fusion_lon": 0.0, "lat": 38.9184245, "bike_id": "eecd35b37a505ac8acfb8d56e715b17c", "type": "electric_scooter", "is_reserved": 0, "lon": -77.03193533333334}, {"fusion_lat": 0.0, "name": "da02dbe2923bb8bb986926da1bef3df7", "is_disabled": 0, "rental_uris": {"android": "https://dc.lft.to/lastmile_qr_scan", "ios": "https://dc.lft.to/lastmile_qr_scan"}, "fusion_lon": 0.0, "lat": 38.919995666666665, "bike_id": "da02dbe2923bb8bb986926da1bef3df7", "type": "electric_scooter", "is_reserved": 0, "lon": -77.07108583333333}, {"fusion_lat": 0.0, "name": "409f76f05d4f2b9f7d187ada4193c887", "is_disabled": 0, "rental_uris": {"android": "https://dc.lft.to/lastmile_qr_scan", "ios": "https://dc.lft.to/lastmile_qr_scan"}, "fusion_lon": 0.0, "lat": 38.9261545, "bike_id": "409f76f05d4f2b9f7d187ada4193c887", "type": "electric_scooter", "is_reserved": 0, "lon": -77.04324433333333}, {"fusion_lat": 0.0, "name": "848c94b7bcbc98bbeb80a79f0c739e12", "is_disabled": 0, "rental_uris": {"android": "https://dc.lft.to/lastmile_qr_scan", "ios": "https://dc.lft.to/lastmile_qr_scan"}, "fusion_lon": 0.0, "lat": 38.93115066666667, "bike_id": "848c94b7bcbc98bbeb80a79f0c739e12", "type": "electric_scooter", "is_reserved": 0, "lon": -77.02098583333333}, {"fusion_lat": 0.0, "name": "b1f07ab78e21c26b6ffee7880943d7c5", "is_disabled": 0, "rental_uris": {"android": "https://dc.lft.to/lastmile_qr_scan", "ios": "https://dc.lft.to/lastmile_qr_scan"}, "fusion_lon": 0.0, "lat": 38.9003205, "bike_id": "b1f07ab78e21c26b6ffee7880943d7c5", "type": "electric_scooter", "is_reserved": 0, "lon": -77.00022683333333}, {"fusion_lat": 0.0, "name": "a4bbc92f61d5440438a15ff5d276b560", "is_disabled": 0, "rental_uris": {"android": "https://dc.lft.to/lastmile_qr_scan", "ios": "https://dc.lft.to/lastmile_qr_scan"}, "fusion_lon": 0.0, "lat": 38.96666916666667, "bike_id": "a4bbc92f61d5440438a15ff5d276b560", "type": "electric_bike", "is_reserved": 0, "lon": -76.9744775}, {"fusion_lat": 0.0, "name": "0e86b2de7c41463525ea08e62eeefcfd", "is_disabled": 0, "rental_uris": {"android": "https://dc.lft.to/lastmile_qr_scan", "ios": "https://dc.lft.to/lastmile_qr_scan"}, "fusion_lon": 0.0, "lat": 38.890396333333335, "bike_id": "0e86b2de7c41463525ea08e62eeefcfd", "type": "electric_bike", "is_reserved": 0, "lon": -77.0864325}, {"fusion_lat": 0.0, "name": "8aa0fc04ef3d36e86346203f6731bb52", "is_disabled": 0, "rental_uris": {"android": "https://dc.lft.to/lastmile_qr_scan", "ios": "https://dc.lft.to/lastmile_qr_scan"}, "fusion_lon": 0.0, "lat": 38.938439, "bike_id": "8aa0fc04ef3d36e86346203f6731bb52", "type": "electric_scooter", "is_reserved": 0, "lon": -77.0624795}, {"fusion_lat": 0.0, "name": "08a9b0989fac2f9542101ec1db0987e1", "is_disabled": 0, "rental_uris": {"android": "https://dc.lft.to/lastmile_qr_scan", "ios": "https://dc.lft.to/lastmile_qr_scan"}, "fusion_lon": 0.0, "lat": 38.926097166666665, "bike_id": "08a9b0989fac2f9542101ec1db0987e1", "type": "electric_scooter", "is_reserved": 0, "lon": -77.0222495}, {"fusion_lat": 0.0, "name": "b741ff254ab6fd77ba7473ab75840ac3", "is_disabled": 0, "rental_uris": {"android": "https://dc.lft.to/lastmile_qr_scan", "ios": "https://dc.lft.to/lastmile_qr_scan"}, "fusion_lon": 0.0, "lat": 38.9131975, "bike_id": "b741ff254ab6fd77ba7473ab75840ac3", "type": "electric_scooter", "is_reserved": 0, "lon": -77.04710633333333}, {"fusion_lat": 0.0, "name": "93afd079f42702aa3a5591f21fac3eaa", "is_disabled": 0, "rental_uris": {"android": "https://dc.lft.to/lastmile_qr_scan", "ios": "https://dc.lft.to/lastmile_qr_scan"}, "fusion_lon": 0.0, "lat": 38.88757566666666, "bike_id": "93afd079f42702aa3a5591f21fac3eaa", "type": "electric_scooter", "is_reserved": 0, "lon": -77.0016635}, {"fusion_lat": 0.0, "name": "39e3b1c531ba8c800314fddc2ce574ad", "is_disabled": 0, "rental_uris": {"android": "https://dc.lft.to/lastmile_qr_scan", "ios": "https://dc.lft.to/lastmile_qr_scan"}, "fusion_lon": 0.0, "lat": 38.93581916666667, "bike_id": "39e3b1c531ba8c800314fddc2ce574ad", "type": "electric_scooter", "is_reserved": 0, "lon": -77.023703}, {"fusion_lat": 0.0, "name": "dc41cd46c79f18879bfb4ff98e8fc050", "is_disabled": 0, "rental_uris": {"android": "https://dc.lft.to/lastmile_qr_scan", "ios": "https://dc.lft.to/lastmile_qr_scan"}, "fusion_lon": 0.0, "lat": 38.917140833333335, "bike_id": "dc41cd46c79f18879bfb4ff98e8fc050", "type": "electric_scooter", "is_reserved": 0, "lon": -76.968709}, {"fusion_lat": 0.0, "name": "2af791e4291ba13dd91cc361debe6a95", "is_disabled": 0, "rental_uris": {"android": "https://dc.lft.to/lastmile_qr_scan", "ios": "https://dc.lft.to/lastmile_qr_scan"}, "fusion_lon": 0.0, "lat": 38.94019266666667, "bike_id": "2af791e4291ba13dd91cc361debe6a95", "type": "electric_scooter", "is_reserved": 0, "lon": -77.02781033333333}, {"fusion_lat": 0.0, "name": "0f6d26af789525a5d7a8bf34e5e1a225", "is_disabled": 0, "rental_uris": {"android": "https://dc.lft.to/lastmile_qr_scan", "ios": "https://dc.lft.to/lastmile_qr_scan"}, "fusion_lon": 0.0, "lat": 38.91020616666667, "bike_id": "0f6d26af789525a5d7a8bf34e5e1a225", "type": "electric_scooter", "is_reserved": 0, "lon": -77.00764066666666}, {"fusion_lat": 0.0, "name": "ad6105e378892c6192f1037a3cbccb13", "is_disabled": 0, "rental_uris": {"android": "https://dc.lft.to/lastmile_qr_scan", "ios": "https://dc.lft.to/lastmile_qr_scan"}, "fusion_lon": 0.0, "lat": 38.920757333333334, "bike_id": "ad6105e378892c6192f1037a3cbccb13", "type": "electric_scooter", "is_reserved": 0, "lon": -77.02303433333333}, {"fusion_lat": 0.0, "name": "371facbdf0ad36fbdc5d6dc9986f4e99", "is_disabled": 0, "rental_uris": {"android": "https://dc.lft.to/lastmile_qr_scan", "ios": "https://dc.lft.to/lastmile_qr_scan"}, "fusion_lon": 0.0, "lat": 38.909573333333334, "bike_id": "371facbdf0ad36fbdc5d6dc9986f4e99", "type": "electric_scooter", "is_reserved": 0, "lon": -77.044637}, {"fusion_lat": 0.0, "name": "61eda15993c20d5bf30d092f5a8ac8de", "is_disabled": 0, "rental_uris": {"android": "https://dc.lft.to/lastmile_qr_scan", "ios": "https://dc.lft.to/lastmile_qr_scan"}, "fusion_lon": 0.0, "lat": 38.87635216666666, "bike_id": "61eda15993c20d5bf30d092f5a8ac8de", "type": "electric_scooter", "is_reserved": 0, "lon": -77.01646316666667}, {"fusion_lat": 0.0, "name": "f068bf30492eb5c5856bf0229ed562ea", "is_disabled": 0, "rental_uris": {"android": "https://dc.lft.to/lastmile_qr_scan", "ios": "https://dc.lft.to/lastmile_qr_scan"}, "fusion_lon": 0.0, "lat": 38.90782866666667, "bike_id": "f068bf30492eb5c5856bf0229ed562ea", "type": "electric_scooter", "is_reserved": 0, "lon": -77.035315}, {"fusion_lat": 0.0, "name": "2b261f181e651c197079d6247553b8c6", "is_disabled": 0, "rental_uris": {"android": "https://dc.lft.to/lastmile_qr_scan", "ios": "https://dc.lft.to/lastmile_qr_scan"}, "fusion_lon": 0.0, "lat": 38.922363, "bike_id": "2b261f181e651c197079d6247553b8c6", "type": "electric_scooter", "is_reserved": 0, "lon": -77.03531966666667}, {"fusion_lat": 0.0, "name": "ec55d4944c1644dc19ea92cc94495c11", "is_disabled": 0, "rental_uris": {"android": "https://dc.lft.to/lastmile_qr_scan", "ios": "https://dc.lft.to/lastmile_qr_scan"}, "fusion_lon": 0.0, "lat": 38.91549366666667, "bike_id": "ec55d4944c1644dc19ea92cc94495c11", "type": "electric_scooter", "is_reserved": 0, "lon": -77.03812716666667}, {"fusion_lat": 0.0, "name": "da6c7241007ce09c1dcdb8aafed272a5", "is_disabled": 0, "rental_uris": {"android": "https://dc.lft.to/lastmile_qr_scan", "ios": "https://dc.lft.to/lastmile_qr_scan"}, "fusion_lon": 0.0, "lat": 38.935718666666666, "bike_id": "da6c7241007ce09c1dcdb8aafed272a5", "type": "electric_scooter", "is_reserved": 0, "lon": -77.01920733333333}, {"fusion_lat": 0.0, "name": "897551eeec38c275442bab9088db9512", "is_disabled": 0, "rental_uris": {"android": "https://dc.lft.to/lastmile_qr_scan", "ios": "https://dc.lft.to/lastmile_qr_scan"}, "fusion_lon": 0.0, "lat": 38.8775845, "bike_id": "897551eeec38c275442bab9088db9512", "type": "electric_scooter", "is_reserved": 0, "lon": -76.99385183333334}, {"fusion_lat": 0.0, "name": "6f865d8a2ca00c2195f5c84d3a34d8ea", "is_disabled": 0, "rental_uris": {"android": "https://dc.lft.to/lastmile_qr_scan", "ios": "https://dc.lft.to/lastmile_qr_scan"}, "fusion_lon": 0.0, "lat": 38.92250116666666, "bike_id": "6f865d8a2ca00c2195f5c84d3a34d8ea", "type": "electric_scooter", "is_reserved": 0, "lon": -77.0338695}, {"fusion_lat": 0.0, "name": "c8b5a8dd06170d1d6a71abd9ac5c3ff0", "is_disabled": 0, "rental_uris": {"android": "https://dc.lft.to/lastmile_qr_scan", "ios": "https://dc.lft.to/lastmile_qr_scan"}, "fusion_lon": 0.0, "lat": 38.90582883333333, "bike_id": "c8b5a8dd06170d1d6a71abd9ac5c3ff0", "type": "electric_scooter", "is_reserved": 0, "lon": -77.00887433333334}, {"fusion_lat": 0.0, "name": "7288bdaa2ef3b071d60df7d79beb2c9c", "is_disabled": 0, "rental_uris": {"android": "https://dc.lft.to/lastmile_qr_scan", "ios": "https://dc.lft.to/lastmile_qr_scan"}, "fusion_lon": 0.0, "lat": 38.919267166666664, "bike_id": "7288bdaa2ef3b071d60df7d79beb2c9c", "type": "electric_scooter", "is_reserved": 0, "lon": -77.03186266666667}, {"fusion_lat": 0.0, "name": "87861583edc2e74032d11f1b2dbf11a9", "is_disabled": 0, "rental_uris": {"android": "https://dc.lft.to/lastmile_qr_scan", "ios": "https://dc.lft.to/lastmile_qr_scan"}, "fusion_lon": 0.0, "lat": 38.897177166666665, "bike_id": "87861583edc2e74032d11f1b2dbf11a9", "type": "electric_scooter", "is_reserved": 0, "lon": -77.05188733333334}, {"fusion_lat": 0.0, "name": "deb5c7b38e85ed452e8e0f9577a7bcc3", "is_disabled": 0, "rental_uris": {"android": "https://dc.lft.to/lastmile_qr_scan", "ios": "https://dc.lft.to/lastmile_qr_scan"}, "fusion_lon": 0.0, "lat": 38.90004066666667, "bike_id": "deb5c7b38e85ed452e8e0f9577a7bcc3", "type": "electric_scooter", "is_reserved": 0, "lon": -77.025117}, {"fusion_lat": 0.0, "name": "07c30ea94c85cf75a58a2d3bc2e6578a", "is_disabled": 0, "rental_uris": {"android": "https://dc.lft.to/lastmile_qr_scan", "ios": "https://dc.lft.to/lastmile_qr_scan"}, "fusion_lon": 0.0, "lat": 38.89774516666667, "bike_id": "07c30ea94c85cf75a58a2d3bc2e6578a", "type": "electric_scooter", "is_reserved": 0, "lon": -77.05081133333333}, {"fusion_lat": 0.0, "name": "07c3b92ebecd67ba02c99440ddb2d1bc", "is_disabled": 0, "rental_uris": {"android": "https://dc.lft.to/lastmile_qr_scan", "ios": "https://dc.lft.to/lastmile_qr_scan"}, "fusion_lon": 0.0, "lat": 38.8973975, "bike_id": "07c3b92ebecd67ba02c99440ddb2d1bc", "type": "electric_scooter", "is_reserved": 0, "lon": -77.04562233333333}, {"fusion_lat": 0.0, "name": "f648bc37221bbcc45c1aafa21856f523", "is_disabled": 0, "rental_uris": {"android": "https://dc.lft.to/lastmile_qr_scan", "ios": "https://dc.lft.to/lastmile_qr_scan"}, "fusion_lon": 0.0, "lat": 38.90409916666667, "bike_id": "f648bc37221bbcc45c1aafa21856f523", "type": "electric_scooter", "is_reserved": 0, "lon": -76.97330433333333}, {"fusion_lat": 0.0, "name": "60884f71ea96454e7f3df81a135e2d20", "is_disabled": 0, "rental_uris": {"android": "https://dc.lft.to/lastmile_qr_scan", "ios": "https://dc.lft.to/lastmile_qr_scan"}, "fusion_lon": 0.0, "lat": 38.88441366666667, "bike_id": "60884f71ea96454e7f3df81a135e2d20", "type": "electric_scooter", "is_reserved": 0, "lon": -77.00352466666666}, {"fusion_lat": 0.0, "name": "c2a34299c476deecee7c9b1fd04f27a2", "is_disabled": 0, "rental_uris": {"android": "https://dc.lft.to/lastmile_qr_scan", "ios": "https://dc.lft.to/lastmile_qr_scan"}, "fusion_lon": 0.0, "lat": 38.83395866666667, "bike_id": "c2a34299c476deecee7c9b1fd04f27a2", "type": "electric_bike", "is_reserved": 0, "lon": -77.00331716666666}, {"fusion_lat": 0.0, "name": "a11e66f4e5e93cb6629b05ae1d0e92ad", "is_disabled": 0, "rental_uris": {"android": "https://dc.lft.to/lastmile_qr_scan", "ios": "https://dc.lft.to/lastmile_qr_scan"}, "fusion_lon": 0.0, "lat": 38.92960333333333, "bike_id": "a11e66f4e5e93cb6629b05ae1d0e92ad", "type": "electric_scooter", "is_reserved": 0, "lon": -77.020189}, {"fusion_lat": 0.0, "name": "da4a500c8abc54f99bcc4aad999f36a3", "is_disabled": 0, "rental_uris": {"android": "https://dc.lft.to/lastmile_qr_scan", "ios": "https://dc.lft.to/lastmile_qr_scan"}, "fusion_lon": 0.0, "lat": 38.90031783333333, "bike_id": "da4a500c8abc54f99bcc4aad999f36a3", "type": "electric_scooter", "is_reserved": 0, "lon": -77.00221866666666}, {"fusion_lat": 0.0, "name": "4dc85c6be0831c5d41029dd362a846c6", "is_disabled": 0, "rental_uris": {"android": "https://dc.lft.to/lastmile_qr_scan", "ios": "https://dc.lft.to/lastmile_qr_scan"}, "fusion_lon": 0.0, "lat": 38.90949283333333, "bike_id": "4dc85c6be0831c5d41029dd362a846c6", "type": "electric_scooter", "is_reserved": 0, "lon": -77.023829}, {"fusion_lat": 0.0, "name": "578385ab97501547fd07b12d6f280c2b", "is_disabled": 0, "rental_uris": {"android": "https://dc.lft.to/lastmile_qr_scan", "ios": "https://dc.lft.to/lastmile_qr_scan"}, "fusion_lon": 0.0, "lat": 38.889885, "bike_id": "578385ab97501547fd07b12d6f280c2b", "type": "electric_scooter", "is_reserved": 0, "lon": -76.99638033333333}, {"fusion_lat": 0.0, "name": "3103da3f24983b83ea40b751e0a985e4", "is_disabled": 0, "rental_uris": {"android": "https://dc.lft.to/lastmile_qr_scan", "ios": "https://dc.lft.to/lastmile_qr_scan"}, "fusion_lon": 0.0, "lat": 38.85890583333333, "bike_id": "3103da3f24983b83ea40b751e0a985e4", "type": "electric_bike", "is_reserved": 0, "lon": -77.0954455}, {"fusion_lat": 0.0, "name": "ed40b8df73e0a59bcd82124834efa197", "is_disabled": 0, "rental_uris": {"android": "https://dc.lft.to/lastmile_qr_scan", "ios": "https://dc.lft.to/lastmile_qr_scan"}, "fusion_lon": 0.0, "lat": 38.909385, "bike_id": "ed40b8df73e0a59bcd82124834efa197", "type": "electric_scooter", "is_reserved": 0, "lon": -77.0212315}, {"fusion_lat": 0.0, "name": "ef5141317f74c6ab4b3873ac38e8874a", "is_disabled": 0, "rental_uris": {"android": "https://dc.lft.to/lastmile_qr_scan", "ios": "https://dc.lft.to/lastmile_qr_scan"}, "fusion_lon": 0.0, "lat": 38.917326, "bike_id": "ef5141317f74c6ab4b3873ac38e8874a", "type": "electric_scooter", "is_reserved": 0, "lon": -77.04832733333333}, {"fusion_lat": 0.0, "name": "426ce631dd7211bd048b5d5f30ee49ec", "is_disabled": 0, "rental_uris": {"android": "https://dc.lft.to/lastmile_qr_scan", "ios": "https://dc.lft.to/lastmile_qr_scan"}, "fusion_lon": 0.0, "lat": 38.899416333333335, "bike_id": "426ce631dd7211bd048b5d5f30ee49ec", "type": "electric_scooter", "is_reserved": 0, "lon": -77.05355783333333}, {"fusion_lat": 0.0, "name": "5511d682e8e565ffc84da1fcc9115baa", "is_disabled": 0, "rental_uris": {"android": "https://dc.lft.to/lastmile_qr_scan", "ios": "https://dc.lft.to/lastmile_qr_scan"}, "fusion_lon": 0.0, "lat": 38.913849, "bike_id": "5511d682e8e565ffc84da1fcc9115baa", "type": "electric_scooter", "is_reserved": 0, "lon": -77.034645}, {"fusion_lat": 0.0, "name": "b778fb27a3902e1e5c8190907d87538d", "is_disabled": 0, "rental_uris": {"android": "https://dc.lft.to/lastmile_qr_scan", "ios": "https://dc.lft.to/lastmile_qr_scan"}, "fusion_lon": 0.0, "lat": 38.920522, "bike_id": "b778fb27a3902e1e5c8190907d87538d", "type": "electric_scooter", "is_reserved": 0, "lon": -77.033945}, {"fusion_lat": 0.0, "name": "e501e9aaccf013487e5bc1f640966891", "is_disabled": 0, "rental_uris": {"android": "https://dc.lft.to/lastmile_qr_scan", "ios": "https://dc.lft.to/lastmile_qr_scan"}, "fusion_lon": 0.0, "lat": 38.88986516666667, "bike_id": "e501e9aaccf013487e5bc1f640966891", "type": "electric_scooter", "is_reserved": 0, "lon": -76.98735216666667}, {"fusion_lat": 0.0, "name": "f0621f31fbfc7bb155619f80009af354", "is_disabled": 0, "rental_uris": {"android": "https://dc.lft.to/lastmile_qr_scan", "ios": "https://dc.lft.to/lastmile_qr_scan"}, "fusion_lon": 0.0, "lat": 38.93947333333333, "bike_id": "f0621f31fbfc7bb155619f80009af354", "type": "electric_scooter", "is_reserved": 0, "lon": -77.03331533333333}, {"fusion_lat": 0.0, "name": "496723e8e7757709c4589408d8d4b05a", "is_disabled": 0, "rental_uris": {"android": "https://dc.lft.to/lastmile_qr_scan", "ios": "https://dc.lft.to/lastmile_qr_scan"}, "fusion_lon": 0.0, "lat": 38.95886433333333, "bike_id": "496723e8e7757709c4589408d8d4b05a", "type": "electric_bike", "is_reserved": 0, "lon": -76.92488083333333}, {"fusion_lat": 0.0, "name": "9dc092bb665419c175510252294ddcec", "is_disabled": 0, "rental_uris": {"android": "https://dc.lft.to/lastmile_qr_scan", "ios": "https://dc.lft.to/lastmile_qr_scan"}, "fusion_lon": 0.0, "lat": 38.87701883333333, "bike_id": "9dc092bb665419c175510252294ddcec", "type": "electric_scooter", "is_reserved": 0, "lon": -77.00328483333334}, {"fusion_lat": 0.0, "name": "01b4cc2403ae309ee658f18a968a3833", "is_disabled": 0, "rental_uris": {"android": "https://dc.lft.to/lastmile_qr_scan", "ios": "https://dc.lft.to/lastmile_qr_scan"}, "fusion_lon": 0.0, "lat": 38.91260583333333, "bike_id": "01b4cc2403ae309ee658f18a968a3833", "type": "electric_scooter", "is_reserved": 0, "lon": -77.02265666666666}, {"fusion_lat": 0.0, "name": "797132c5509c67da1c75a9e9b019c24d", "is_disabled": 0, "rental_uris": {"android": "https://dc.lft.to/lastmile_qr_scan", "ios": "https://dc.lft.to/lastmile_qr_scan"}, "fusion_lon": 0.0, "lat": 38.92889266666667, "bike_id": "797132c5509c67da1c75a9e9b019c24d", "type": "electric_scooter", "is_reserved": 0, "lon": -77.04217416666667}, {"fusion_lat": 0.0, "name": "cd875daa7870646d7bc36493e040aaad", "is_disabled": 0, "rental_uris": {"android": "https://dc.lft.to/lastmile_qr_scan", "ios": "https://dc.lft.to/lastmile_qr_scan"}, "fusion_lon": 0.0, "lat": 38.9196095, "bike_id": "cd875daa7870646d7bc36493e040aaad", "type": "electric_scooter", "is_reserved": 0, "lon": -77.02375916666666}, {"fusion_lat": 0.0, "name": "c40c18834f16e96c677979943e257df0", "is_disabled": 0, "rental_uris": {"android": "https://dc.lft.to/lastmile_qr_scan", "ios": "https://dc.lft.to/lastmile_qr_scan"}, "fusion_lon": 0.0, "lat": 38.92501433333334, "bike_id": "c40c18834f16e96c677979943e257df0", "type": "electric_scooter", "is_reserved": 0, "lon": -77.02330583333334}, {"fusion_lat": 0.0, "name": "699cef7eee8db52571d6db8efdf3911b", "is_disabled": 0, "rental_uris": {"android": "https://dc.lft.to/lastmile_qr_scan", "ios": "https://dc.lft.to/lastmile_qr_scan"}, "fusion_lon": 0.0, "lat": 38.84354016666666, "bike_id": "699cef7eee8db52571d6db8efdf3911b", "type": "electric_bike", "is_reserved": 0, "lon": -76.97821433333333}, {"fusion_lat": 0.0, "name": "b0c9b4942e3488b5daf9834e16af2a53", "is_disabled": 0, "rental_uris": {"android": "https://dc.lft.to/lastmile_qr_scan", "ios": "https://dc.lft.to/lastmile_qr_scan"}, "fusion_lon": 0.0, "lat": 38.91253866666667, "bike_id": "b0c9b4942e3488b5daf9834e16af2a53", "type": "electric_scooter", "is_reserved": 0, "lon": -77.03863966666667}, {"fusion_lat": 0.0, "name": "bd8bd9b65eb9cd555b23d13e88c8aacc", "is_disabled": 0, "rental_uris": {"android": "https://dc.lft.to/lastmile_qr_scan", "ios": "https://dc.lft.to/lastmile_qr_scan"}, "fusion_lon": 0.0, "lat": 38.94618716666667, "bike_id": "bd8bd9b65eb9cd555b23d13e88c8aacc", "type": "electric_scooter", "is_reserved": 0, "lon": -77.08012716666667}, {"fusion_lat": 0.0, "name": "de1b8f2e92245e0ad276e1f2406d4712", "is_disabled": 0, "rental_uris": {"android": "https://dc.lft.to/lastmile_qr_scan", "ios": "https://dc.lft.to/lastmile_qr_scan"}, "fusion_lon": 0.0, "lat": 38.935967833333336, "bike_id": "de1b8f2e92245e0ad276e1f2406d4712", "type": "electric_scooter", "is_reserved": 0, "lon": -77.05894566666667}, {"fusion_lat": 0.0, "name": "9f5d9f9d87a51c9fdcef1e21a8602833", "is_disabled": 0, "rental_uris": {"android": "https://dc.lft.to/lastmile_qr_scan", "ios": "https://dc.lft.to/lastmile_qr_scan"}, "fusion_lon": 0.0, "lat": 38.94110383333334, "bike_id": "9f5d9f9d87a51c9fdcef1e21a8602833", "type": "electric_scooter", "is_reserved": 0, "lon": -77.02542016666666}, {"fusion_lat": 0.0, "name": "8ac9dd43163120bfa91f28e660ad8dd3", "is_disabled": 0, "rental_uris": {"android": "https://dc.lft.to/lastmile_qr_scan", "ios": "https://dc.lft.to/lastmile_qr_scan"}, "fusion_lon": 0.0, "lat": 38.92538783333333, "bike_id": "8ac9dd43163120bfa91f28e660ad8dd3", "type": "electric_scooter", "is_reserved": 0, "lon": -77.05122283333333}, {"fusion_lat": 0.0, "name": "53114046d311eac838cc7fa256595a77", "is_disabled": 0, "rental_uris": {"android": "https://dc.lft.to/lastmile_qr_scan", "ios": "https://dc.lft.to/lastmile_qr_scan"}, "fusion_lon": 0.0, "lat": 38.88359466666667, "bike_id": "53114046d311eac838cc7fa256595a77", "type": "electric_scooter", "is_reserved": 0, "lon": -76.9415655}, {"fusion_lat": 0.0, "name": "4754806d0f9c14bdad900d3ee7e1eab5", "is_disabled": 0, "rental_uris": {"android": "https://dc.lft.to/lastmile_qr_scan", "ios": "https://dc.lft.to/lastmile_qr_scan"}, "fusion_lon": 0.0, "lat": 38.96218183333333, "bike_id": "4754806d0f9c14bdad900d3ee7e1eab5", "type": "electric_bike", "is_reserved": 0, "lon": -77.02620633333333}, {"fusion_lat": 0.0, "name": "a4fe211ee7bb1d41fd88b5e0e9982a4c", "is_disabled": 0, "rental_uris": {"android": "https://dc.lft.to/lastmile_qr_scan", "ios": "https://dc.lft.to/lastmile_qr_scan"}, "fusion_lon": 0.0, "lat": 38.9055255, "bike_id": "a4fe211ee7bb1d41fd88b5e0e9982a4c", "type": "electric_scooter", "is_reserved": 0, "lon": -77.0059565}, {"fusion_lat": 0.0, "name": "e17e68feed31a00410e59aa95729ca9c", "is_disabled": 0, "rental_uris": {"android": "https://dc.lft.to/lastmile_qr_scan", "ios": "https://dc.lft.to/lastmile_qr_scan"}, "fusion_lon": 0.0, "lat": 38.9391535, "bike_id": "e17e68feed31a00410e59aa95729ca9c", "type": "electric_scooter", "is_reserved": 0, "lon": -77.0279825}, {"fusion_lat": 0.0, "name": "3a1eb6bc84e5657f075d2c2cf83fd2ec", "is_disabled": 0, "rental_uris": {"android": "https://dc.lft.to/lastmile_qr_scan", "ios": "https://dc.lft.to/lastmile_qr_scan"}, "fusion_lon": 0.0, "lat": 38.9205775, "bike_id": "3a1eb6bc84e5657f075d2c2cf83fd2ec", "type": "electric_scooter", "is_reserved": 0, "lon": -76.998573}, {"fusion_lat": 0.0, "name": "1d44374f44ac096c3b5e8238d446aae8", "is_disabled": 0, "rental_uris": {"android": "https://dc.lft.to/lastmile_qr_scan", "ios": "https://dc.lft.to/lastmile_qr_scan"}, "fusion_lon": 0.0, "lat": 38.9101715, "bike_id": "1d44374f44ac096c3b5e8238d446aae8", "type": "electric_scooter", "is_reserved": 0, "lon": -77.007741}, {"fusion_lat": 0.0, "name": "717a958d4940ab413408ac2b79df7172", "is_disabled": 0, "rental_uris": {"android": "https://dc.lft.to/lastmile_qr_scan", "ios": "https://dc.lft.to/lastmile_qr_scan"}, "fusion_lon": 0.0, "lat": 38.88395333333333, "bike_id": "717a958d4940ab413408ac2b79df7172", "type": "electric_scooter", "is_reserved": 0, "lon": -77.01997783333333},