{"data": {"bikes": [{"rental_uris": {"ios": "https://dc.lft.to/lastmile_qr_scan", "android": "https://dc.lft.to/lastmile_qr_scan"}, "lat": 38.92244083333333, "lon": -77.04220116666667, "fusion_lat": 0.0, "name": "31162de74fceb61588ea3a73d6028974", "is_disabled": 0, "is_reserved": 0, "bike_id": "31162de74fceb61588ea3a73d6028974", "fusion_lon": 0.0, "type": "electric_scooter"}, {"rental_uris": {"ios": "https://dc.lft.to/lastmile_qr_scan", "android": "https://dc.lft.to/lastmile_qr_scan"}, "lat": 38.87877233333333, "lon": -77.01747933333333, "fusion_lat": 0.0, "name": "d08b9d3dcf2060253dbb220ecf576484", "is_disabled": 0, "is_reserved": 0, "bike_id": "d08b9d3dcf2060253dbb220ecf576484", "fusion_lon": 0.0, "type": "electric_scooter"}, {"rental_uris": {"ios": "https://dc.lft.to/lastmile_qr_scan", "android": "https://dc.lft.to/lastmile_qr_scan"}, "lat": 38.92265283333333, "lon": -77.022449, "fusion_lat": 0.0, "name": "20919613b2173d246480f42014b2696f", "is_disabled": 0, "is_reserved": 0, "bike_id": "20919613b2173d246480f42014b2696f", "fusion_lon": 0.0, "type": "electric_scooter"}, {"rental_uris": {"ios": "https://dc.lft.to/lastmile_qr_scan", "android": "https://dc.lft.to/lastmile_qr_scan"}, "lat": 38.921437166666664, "lon": -77.043462, "fusion_lat": 0.0, "name": "4bd7a75a1b7ef31956a0b9786dff762c", "is_disabled": 0, "is_reserved": 0, "bike_id": "4bd7a75a1b7ef31956a0b9786dff762c", "fusion_lon": 0.0, "type": "electric_scooter"}, {"rental_uris": {"ios": "https://dc.lft.to/lastmile_qr_scan", "android": "https://dc.lft.to/lastmile_qr_scan"}, "lat": 38.9181645, "lon": -77.03167833333333, "fusion_lat": 0.0, "name": "3911c5ca4906b49a4a16dc4f4b7a298c", "is_disabled": 0, "is_reserved": 0, "bike_id": "3911c5ca4906b49a4a16dc4f4b7a298c", "fusion_lon": 0.0, "type": "electric_scooter"}, {"rental_uris": {"ios": "https://dc.lft.to/lastmile_qr_scan", "android": "https://dc.lft.to/lastmile_qr_scan"}, "lat": 38.9213435, "lon": -76.99549933333333, "fusion_lat": 0.0, "name": "c15029a5ccb258ba4c776aeff799834e", "is_disabled": 0, "is_reserved": 0, "bike_id": "c15029a5ccb258ba4c776aeff799834e", "fusion_lon": 0.0, "type": "electric_scooter"}, {"rental_uris": {"ios": "https://dc.lft.to/lastmile_qr_scan", "android": "https://dc.lft.to/lastmile_qr_scan"}, "lat": 38.953312, "lon": -76.98249416666667, "fusion_lat": 0.0, "name": "1631f67388049460756dcfb80b8ee209", "is_disabled": 0, "is_reserved": 0, "bike_id": "1631f67388049460756dcfb80b8ee209", "fusion_lon": 0.0, "type": "electric_bike"}, {"rental_uris": {"ios": "https://dc.lft.to/lastmile_qr_scan", "android": "https://dc.lft.to/lastmile_qr_scan"}, "lat": 38.9196905, "lon": -77.03826566666666, "fusion_lat": 0.0, "name": "c771090920ec03a87e8368b7919c013f", "is_disabled": 0, "is_reserved": 0, "bike_id": "c771090920ec03a87e8368b7919c013f", "fusion_lon": 0.0, "type": "electric_scooter"}, {"rental_uris": {"ios": "https://dc.lft.to/lastmile_qr_scan", "android": "https://dc.lft.to/lastmile_qr_scan"}, "lat": 38.88529333333334, "lon": -76.98053066666667, "fusion_lat": 0.0, "name": "df6cfa3bbb9902c0edbbf4c2bd64502d", "is_disabled": 0, "is_reserved": 0, "bike_id": "df6cfa3bbb9902c0edbbf4c2bd64502d", "fusion_lon": 0.0, "type": "electric_scooter"}, {"rental_uris": {"ios": "https://dc.lft.to/lastmile_qr_scan", "android": "https://dc.lft.to/lastmile_qr_scan"}, "lat": 38.95682933333333, "lon": -77.0223745, "fusion_lat": 0.0, "name": "acd77da129cd63180db3b51e54bd9460", "is_disabled": 0, "is_reserved": 0, "bike_id": "acd77da129cd63180db3b51e54bd9460", "fusion_lon": 0.0, "type": "electric_bike"}, {"rental_uris": {"ios": "https://dc.lft.to/lastmile_qr_scan", "android": "https://dc.lft.to/lastmile_qr_scan"}, "lat": 38.9112095, "lon": -77.0420465, "fusion_lat": 0.0, "name": "8622b3a02010ca6bdfd71fa05ceb6c04", "is_disabled": 0, "is_reserved": 0, "bike_id": "8622b3a02010ca6bdfd71fa05ceb6c04", "fusion_lon": 0.0, "type": "electric_scooter"}, {"rental_uris": {"ios": "https://dc.lft.to/lastmile_qr_scan", "android": "https://dc.lft.to/lastmile_qr_scan"}, "lat": 38.934604666666665, "lon": -77.04536033333333, "fusion_lat": 0.0, "name": "13510bdd6ab7889e6d9554503d5fb36f", "is_disabled": 0, "is_reserved": 0, "bike_id": "13510bdd6ab7889e6d9554503d5fb36f", "fusion_lon": 0.0, "type": "electric_scooter"}, {"rental_uris": {"ios": "https://dc.lft.to/lastmile_qr_scan", "android": "https://dc.lft.to/lastmile_qr_scan"}, "lat": 38.89919733333333, "lon": -76.9336155, "fusion_lat": 0.0, "name": "40c5da90fd5cd39cb7486f766a748c3f", "is_disabled": 0, "is_reserved": 0, "bike_id": "40c5da90fd5cd39cb7486f766a748c3f", "fusion_lon": 0.0, "type": "electric_scooter"}, {"rental_uris": {"ios": "https://dc.lft.to/lastmile_qr_scan", "android": "https://dc.lft.to/lastmile_qr_scan"}, "lat": 38.903559666666666, "lon": -77.06024516666666, "fusion_lat": 0.0, "name": "b73b67d51c4c9ba69feb51ac1261f7e6", "is_disabled": 0, "is_reserved": 0, "bike_id": "b73b67d51c4c9ba69feb51ac1261f7e6", "fusion_lon": 0.0, "type": "electric_scooter"}, {"rental_uris": {"ios": "https://dc.lft.to/lastmile_qr_scan", "android": "https://dc.lft.to/lastmile_qr_scan"}, "lat": 38.915654833333335, "lon": -77.02592383333334, "fusion_lat": 0.0, "name": "543a94d8dbdd1647d48b9f9f6b4caa3c", "is_disabled": 0, "is_reserved": 0, "bike_id": "543a94d8dbdd1647d48b9f9f6b4caa3c", "fusion_lon": 0.0, "type": "electric_scooter"}, {"rental_uris": {"ios": "https://dc.lft.to/lastmile_qr_scan", "android": "https://dc.lft.to/lastmile_qr_scan"}, "lat": 38.844674499999996, "lon": -76.9785565, "fusion_lat": 0.0, "name": "9c3f01a33bdcd0d760d03eecb28bbf28", "is_disabled": 0, "is_reserved": 0, "bike_id": "9c3f01a33bdcd0d760d03eecb28bbf28", "fusion_lon": 0.0, "type": "electric_bike"}, {"rental_uris": {"ios": "https://dc.lft.to/lastmile_qr_scan", "android": "https://dc.lft.to/lastmile_qr_scan"}, "lat": 38.91753633333333, "lon": -77.0271475, "fusion_lat": 0.0, "name": "a701c8dcafe1e07d5dc77f9ed2b160dd", "is_disabled": 0, "is_reserved": 0, "bike_id": "a701c8dcafe1e07d5dc77f9ed2b160dd", "fusion_lon": 0.0, "type": "electric_scooter"}, {"rental_uris": {"ios": "https://dc.lft.to/lastmile_qr_scan", "android": "https://dc.lft.to/lastmile_qr_scan"}, "lat": 38.9667775, "lon": -77.02254016666667, "fusion_lat": 0.0, "name": "3ab40b13a03736426afd6d4f48090ce8", "is_disabled": 0, "is_reserved": 0, "bike_id": "3ab40b13a03736426afd6d4f48090ce8", "fusion_lon": 0.0, "type": "electric_bike"}, {"rental_uris": {"ios": "https://dc.lft.to/lastmile_qr_scan", "android": "https://dc.lft.to/lastmile_qr_scan"}, "lat": 38.904316, "lon": -76.98277, "fusion_lat": 0.0, "name": "9cd4a4a9b6bb6814b3019039964577e0", "is_disabled": 0, "is_reserved": 0, "bike_id": "9cd4a4a9b6bb6814b3019039964577e0", "fusion_lon": 0.0, "type": "electric_scooter"}, {"rental_uris": {"ios": "https://dc.lft.to/lastmile_qr_scan", "android": "https://dc.lft.to/lastmile_qr_scan"}, "lat": 38.90191633333333, "lon": -76.97880333333333, "fusion_lat": 0.0, "name": "860da9c646d9f22ca1052103d4202515", "is_disabled": 0, "is_reserved": 0, "bike_id": "860da9c646d9f22ca1052103d4202515", "fusion_lon": 0.0, "type": "electric_scooter"}, {"rental_uris": {"ios": "https://dc.lft.to/lastmile_qr_scan", "android": "https://dc.lft.to/lastmile_qr_scan"}, "lat": 38.93246233333333, "lon": -76.9951135, "fusion_lat": 0.0, "name": "012edc7c6c4084bbad792389807f6ea0", "is_disabled": 0, "is_reserved": 0, "bike_id": "012edc7c6c4084bbad792389807f6ea0", "fusion_lon": 0.0, "type": "electric_scooter"}, {"rental_uris": {"ios": "https://dc.lft.to/lastmile_qr_scan", "android": "https://dc.lft.to/lastmile_qr_scan"}, "lat": 38.91806366666667, "lon": -77.02493366666667, "fusion_lat": 0.0, "name": "18365b18c8c099dc991f95ce65dae156", "is_disabled": 0, "is_reserved": 0, "bike_id": "18365b18c8c099dc991f95ce65dae156", "fusion_lon": 0.0, "type": "electric_scooter"}, {"rental_uris": {"ios": "https://dc.lft.to/lastmile_qr_scan", "android": "https://dc.lft.to/lastmile_qr_scan"}, "lat": 38.88368966666667, "lon": -76.99543266666667, "fusion_lat": 0.0, "name": "176a6e74e8012f898dc002c688c55b90", "is_disabled": 0, "is_reserved": 0, "bike_id": "176a6e74e8012f898dc002c688c55b90", "fusion_lon": 0.0, "type": "electric_scooter"}, {"rental_uris": {"ios": "https://dc.lft.to/lastmile_qr_scan", "android": "https://dc.lft.to/lastmile_qr_scan"}, "lat": 38.9223085, "lon": -77.00842233333333, "fusion_lat": 0.0, "name": "f0dba74f2085a2d12e40d5f84471a2d1", "is_disabled": 0, "is_reserved": 0, "bike_id": "f0dba74f2085a2d12e40d5f84471a2d1", "fusion_lon": 0.0, "type": "electric_scooter"}, {"rental_uris": {"ios": "https://dc.lft.to/lastmile_qr_scan", "android": "https://dc.lft.to/lastmile_qr_scan"}, "lat": 38.89849516666666, "lon": -77.01214433333334, "fusion_lat": 0.0, "name": "f4702cb82707960185a6f9358c3d06cd", "is_disabled": 0, "is_reserved": 0, "bike_id": "f4702cb82707960185a6f9358c3d06cd", "fusion_lon": 0.0, "type": "electric_scooter"}, {"rental_uris": {"ios": "https://dc.lft.to/lastmile_qr_scan", "android": "https://dc.lft.to/lastmile_qr_scan"}, "lat": 38.902889333333334, "lon": -77.0175255, "fusion_lat": 0.0, "name": "7e5c3e0fa3c629e14848d500b8bece42", "is_disabled": 0, "is_reserved": 0, "bike_id": "7e5c3e0fa3c629e14848d500b8bece42", "fusion_lon": 0.0, "type": "electric_scooter"}, {"rental_uris": {"ios": "https://dc.lft.to/lastmile_qr_scan", "android": "https://dc.lft.to/lastmile_qr_scan"}, "lat": 38.90603466666666, "lon": -77.05652433333333, "fusion_lat": 0.0, "name": "4eae247200aa3d216252759cd4c4b78f", "is_disabled": 0, "is_reserved": 0, "bike_id": "4eae247200aa3d216252759cd4c4b78f", "fusion_lon": 0.0, "type": "electric_scooter"}, {"rental_uris": {"ios": "https://dc.lft.to/lastmile_qr_scan", "android": "https://dc.lft.to/lastmile_qr_scan"}, "lat": 38.9041905, "lon": -77.02393466666666, "fusion_lat": 0.0, "name": "9541baf9622a944d842e6980c77fa1f5", "is_disabled": 0, "is_reserved": 0, "bike_id": "9541baf9622a944d842e6980c77fa1f5", "fusion_lon": 0.0, "type": "electric_scooter"}, {"rental_uris": {"ios": "https://dc.lft.to/lastmile_qr_scan", "android": "https://dc.lft.to/lastmile_qr_scan"}, "lat": 38.90639183333333, "lon": -77.016329, "fusion_lat": 0.0, "name": "094fd2d832cd1dd660c5ba94b1e00dce", "is_disabled": 0, "is_reserved": 0, "bike_id": "094fd2d832cd1dd660c5ba94b1e00dce", "fusion_lon": 0.0, "type": "electric_scooter"}, {"rental_uris": {"ios": "https://dc.lft.to/lastmile_qr_scan", "android": "https://dc.lft.to/lastmile_qr_scan"}, "lat": 38.8738295, "lon": -77.00068216666666, "fusion_lat": 0.0, "name": "493d3f0d42799aa385ab5e3f38a47411", "is_disabled": 0, "is_reserved": 0, "bike_id": "493d3f0d42799aa385ab5e3f38a47411", "fusion_lon": 0.0, "type": "electric_scooter"}, {"rental_uris": {"ios": "https://dc.lft.to/lastmile_qr_scan", "android": "https://dc.lft.to/lastmile_qr_scan"}, "lat": 38.90953283333333, "lon": -77.04507783333334, "fusion_lat": 0.0, "name": "4f69de9f2a0dd6614034eba4cbdc0b48", "is_disabled": 0, "is_reserved": 0, "bike_id": "4f69de9f2a0dd6614034eba4cbdc0b48", "fusion_lon": 0.0, "type": "electric_scooter"}, {"rental_uris": {"ios": "https://dc.lft.to/lastmile_qr_scan", "android": "https://dc.lft.to/lastmile_qr_scan"}, "lat": 38.89239366666666, "lon": -77.0334865, "fusion_lat": 0.0, "name": "127b3eaf34317fd9cfbb2485c849b291", "is_disabled": 0, "is_reserved": 0, "bike_id": "127b3eaf34317fd9cfbb2485c849b291", "fusion_lon": 0.0, "type": "electric_scooter"}, {"rental_uris": {"ios": "https://dc.lft.to/lastmile_qr_scan", "android": "https://dc.lft.to/lastmile_qr_scan"}, "lat": 38.915681666666664, "lon": -77.0220465, "fusion_lat": 0.0, "name": "c0fcb9d93e21732b9e4898d471b21fad", "is_disabled": 0, "is_reserved": 0, "bike_id": "c0fcb9d93e21732b9e4898d471b21fad", "fusion_lon": 0.0, "type": "electric_scooter"}, {"rental_uris": {"ios": "https://dc.lft.to/lastmile_qr_scan", "android": "https://dc.lft.to/lastmile_qr_scan"}, "lat": 38.8851675, "lon": -77.00274033333334, "fusion_lat": 0.0, "name": "96ebec46b3a3cfaa42cc284673f2b1ca", "is_disabled": 0, "is_reserved": 0, "bike_id": "96ebec46b3a3cfaa42cc284673f2b1ca", "fusion_lon": 0.0, "type": "electric_scooter"}, {"rental_uris": {"ios": "https://dc.lft.to/lastmile_qr_scan", "android": "https://dc.lft.to/lastmile_qr_scan"}, "lat": 38.91919016666667, "lon": -77.03185266666667, "fusion_lat": 0.0, "name": "980efafc995bf75c2a6a0b18277e65f7", "is_disabled": 0, "is_reserved": 0, "bike_id": "980efafc995bf75c2a6a0b18277e65f7", "fusion_lon": 0.0, "type": "electric_scooter"}, {"rental_uris": {"ios": "https://dc.lft.to/lastmile_qr_scan", "android": "https://dc.lft.to/lastmile_qr_scan"}, "lat": 38.917357333333335, "lon": -77.03202966666667, "fusion_lat": 0.0, "name": "8325be3c5dd0a9c5bd0db6a6e8ee5864", "is_disabled": 0, "is_reserved": 0, "bike_id": "8325be3c5dd0a9c5bd0db6a6e8ee5864", "fusion_lon": 0.0, "type": "electric_scooter"}, {"rental_uris": {"ios": "https://dc.lft.to/lastmile_qr_scan", "android": "https://dc.lft.to/lastmile_qr_scan"}, "lat": 38.90543233333333, "lon": -77.046675, "fusion_lat": 0.0, "name": "9295e661920be9060091ee6b7f6c45df", "is_disabled": 0, "is_reserved": 0, "bike_id": "9295e661920be9060091ee6b7f6c45df", "fusion_lon": 0.0, "type": "electric_scooter"}, {"rental_uris": {"ios": "https://dc.lft.to/lastmile_qr_scan", "android": "https://dc.lft.to/lastmile_qr_scan"}, "lat": 38.922016166666666, "lon": -77.033991, "fusion_lat": 0.0, "name": "6cef0ea0d6a413942c560af0d671f36e", "is_disabled": 0, "is_reserved": 0, "bike_id": "6cef0ea0d6a413942c560af0d671f36e", "fusion_lon": 0.0, "type": "electric_scooter"}, {"rental_uris": {"ios": "https://dc.lft.to/lastmile_qr_scan", "android": "https://dc.lft.to/lastmile_qr_scan"}, "lat": 38.91627166666667, "lon": -77.03044466666667, "fusion_lat": 0.0, "name": "33b270899be816c44f6069f9f109686c", "is_disabled": 0, "is_reserved": 0, "bike_id": "33b270899be816c44f6069f9f109686c", "fusion_lon": 0.0, "type": "electric_scooter"}, {"rental_uris": {"ios": "https://dc.lft.to/lastmile_qr_scan", "android": "https://dc.lft.to/lastmile_qr_scan"}, "lat": 38.887361, "lon": -77.01532783333333, "fusion_lat": 0.0, "name": "4352fcc9ebd54cdadefab01ad8dcef3c", "is_disabled": 0, "is_reserved": 0, "bike_id": "4352fcc9ebd54cdadefab01ad8dcef3c", "fusion_lon": 0.0, "type": "electric_scooter"}, {"rental_uris": {"ios": "https://dc.lft.to/lastmile_qr_scan", "android": "https://dc.lft.to/lastmile_qr_scan"}, "lat": 38.90023, "lon": -77.04510083333334, "fusion_lat": 0.0, "name": "44802a091cb0e11b55243806e7e96d25", "is_disabled": 0, "is_reserved": 0, "bike_id": "44802a091cb0e11b55243806e7e96d25", "fusion_lon": 0.0, "type": "electric_scooter"}, {"rental_uris": {"ios": "https://dc.lft.to/lastmile_qr_scan", "android": "https://dc.lft.to/lastmile_qr_scan"}, "lat": 38.9150475, "lon": -77.04488833333333, "fusion_lat": 0.0, "name": "33e4e8943c47f20bc95073149695d934", "is_disabled": 0, "is_reserved": 0, "bike_id": "33e4e8943c47f20bc95073149695d934", "fusion_lon": 0.0, "type": "electric_scooter"}, {"rental_uris": {"ios": "https://dc.lft.to/lastmile_qr_scan", "android": "https://dc.lft.to/lastmile_qr_scan"}, "lat": 38.874643, "lon": -77.004843, "fusion_lat": 0.0, "name": "8dd806aa9a96895d3db19f414b5a8992", "is_disabled": 0, "is_reserved": 0, "bike_id": "8dd806aa9a96895d3db19f414b5a8992", "fusion_lon": 0.0, "type": "electric_scooter"}, {"rental_uris": {"ios": "https://dc.lft.to/lastmile_qr_scan", "android": "https://dc.lft.to/lastmile_qr_scan"}, "lat": 38.918215000000004, "lon": -77.04941816666667, "fusion_lat": 0.0, "name": "8f8557e0d54174db39a7efb6600231be", "is_disabled": 0, "is_reserved": 0, "bike_id": "8f8557e0d54174db39a7efb6600231be", "fusion_lon": 0.0, "type": "electric_scooter"}, {"rental_uris": {"ios": "https://dc.lft.to/lastmile_qr_scan", "android": "https://dc.lft.to/lastmile_qr_scan"}, "lat": 38.867036166666665, "lon": -76.98711016666667, "fusion_lat": 0.0, "name": "c5e5bd833533bdf01af7e684630ce528", "is_disabled": 0, "is_reserved": 0, "bike_id": "c5e5bd833533bdf01af7e684630ce528", "fusion_lon": 0.0, "type": "electric_scooter"}, {"rental_uris": {"ios": "https://dc.lft.to/lastmile_qr_scan", "android": "https://dc.lft.to/lastmile_qr_scan"}, "lat": 38.895043666666666, "lon": -77.02290433333333, "fusion_lat": 0.0, "name": "1b61748d2426f79fa1eb44c54f299ee9", "is_disabled": 0, "is_reserved": 0, "bike_id": "1b61748d2426f79fa1eb44c54f299ee9", "fusion_lon": 0.0, "type": "electric_scooter"}, {"rental_uris": {"ios": "https://dc.lft.to/lastmile_qr_scan", "android": "https://dc.lft.to/lastmile_qr_scan"}, "lat": 38.933377, "lon": -77.02056066666667, "fusion_lat": 0.0, "name": "3f3a6c6d892609ef06c494fea20b90bc", "is_disabled": 0, "is_reserved": 0, "bike_id": "3f3a6c6d892609ef06c494fea20b90bc", "fusion_lon": 0.0, "type": "electric_scooter"}, {"rental_uris": {"ios": "https://dc.lft.to/lastmile_qr_scan", "android": "https://dc.lft.to/lastmile_qr_scan"}, "lat": 38.89967716666666, "lon": -77.04623, "fusion_lat": 0.0, "name": "5d0ff8dc813e65a8239e72365a15b6f1", "is_disabled": 0, "is_reserved": 0, "bike_id": "5d0ff8dc813e65a8239e72365a15b6f1", "fusion_lon": 0.0, "type": "electric_scooter"}, {"rental_uris": {"ios": "https://dc.lft.to/lastmile_qr_scan", "android": "https://dc.lft.to/lastmile_qr_scan"}, "lat": 39.05252933333333, "lon": -77.08066516666666, "fusion_lat": 0.0, "name": "77c8fb8774dc296f840769a8c8a2aac7", "is_disabled": 0, "is_reserved": 0, "bike_id": "77c8fb8774dc296f840769a8c8a2aac7", "fusion_lon": 0.0, "type": "electric_bike"}, {"rental_uris": {"ios": "https://dc.lft.to/lastmile_qr_scan", "android": "https://dc.lft.to/lastmile_qr_scan"}, "lat": 38.93574266666667, "lon": -77.01976466666666, "fusion_lat": 0.0, "name": "e6e7b9633e8e74da753b4861e431a9c5", "is_disabled": 0, "is_reserved": 0, "bike_id": "e6e7b9633e8e74da753b4861e431a9c5", "fusion_lon": 0.0, "type": "electric_scooter"}, {"rental_uris": {"ios": "https://dc.lft.to/lastmile_qr_scan", "android": "https://dc.lft.to/lastmile_qr_scan"}, "lat": 38.90157383333333, "lon": -77.04157483333333, "fusion_lat": 0.0, "name": "ae76620f6ff38fd9a2f69ea9e60811f2", "is_disabled": 0, "is_reserved": 0, "bike_id": "ae76620f6ff38fd9a2f69ea9e60811f2", "fusion_lon": 0.0, "type": "electric_scooter"}, {"rental_uris": {"ios": "https://dc.lft.to/lastmile_qr_scan", "android": "https://dc.lft.to/lastmile_qr_scan"}, "lat": 38.913954833333335, "lon": -77.02409183333333, "fusion_lat": 0.0, "name": "339a6c6ecfdaf7baf2440d63c15d9a7c", "is_disabled": 0, "is_reserved": 0, "bike_id": "339a6c6ecfdaf7baf2440d63c15d9a7c", "fusion_lon": 0.0, "type": "electric_scooter"}, {"rental_uris": {"ios": "https://dc.lft.to/lastmile_qr_scan", "android": "https://dc.lft.to/lastmile_qr_scan"}, "lat": 38.8002575, "lon": -77.06332983333333, "fusion_lat": 0.0, "name": "c598737a3d1b14aaa62bc1ad908e5e42", "is_disabled": 0, "is_reserved": 0, "bike_id": "c598737a3d1b14aaa62bc1ad908e5e42", "fusion_lon": 0.0, "type": "electric_bike"}, {"rental_uris": {"ios": "https://dc.lft.to/lastmile_qr_scan", "android": "https://dc.lft.to/lastmile_qr_scan"}, "lat": 38.91608083333333, "lon": -77.03394216666666, "fusion_lat": 0.0, "name": "72f1a76c391522ea5ce8615b2b240c5e", "is_disabled": 0, "is_reserved": 0, "bike_id": "72f1a76c391522ea5ce8615b2b240c5e", "fusion_lon": 0.0, "type": "electric_scooter"}, {"rental_uris": {"ios": "https://dc.lft.to/lastmile_qr_scan", "android": "https://dc.lft.to/lastmile_qr_scan"}, "lat": 38.916728166666665, "lon": -77.023958, "fusion_lat": 0.0, "name": "9916058bbde729183b1f3cb0cb7c3523", "is_disabled": 0, "is_reserved": 0, "bike_id": "9916058bbde729183b1f3cb0cb7c3523", "fusion_lon": 0.0, "type": "electric_scooter"}, {"rental_uris": {"ios": "https://dc.lft.to/lastmile_qr_scan", "android": "https://dc.lft.to/lastmile_qr_scan"}, "lat": 38.86244333333333, "lon": -76.99496133333334, "fusion_lat": 0.0, "name": "9bddcec0eeda3775f5769fcdda6b72c9", "is_disabled": 0, "is_reserved": 0, "bike_id": "9bddcec0eeda3775f5769fcdda6b72c9", "fusion_lon": 0.0, "type": "electric_scooter"}, {"rental_uris": {"ios": "https://dc.lft.to/lastmile_qr_scan", "android": "https://dc.lft.to/lastmile_qr_scan"}, "lat": 38.909521833333336, "lon": -77.03202133333333, "fusion_lat": 0.0, "name": "c6b67e1b34552ea76af6092479737650", "is_disabled": 0, "is_reserved": 0, "bike_id": "c6b67e1b34552ea76af6092479737650", "fusion_lon": 0.0, "type": "electric_scooter"}, {"rental_uris": {"ios": "https://dc.lft.to/lastmile_qr_scan", "android": "https://dc.lft.to/lastmile_qr_scan"}, "lat": 38.9072765, "lon": -77.01133183333333, "fusion_lat": 0.0, "name": "fb1a10a8d94056daaabaffcfe56ed2c9", "is_disabled": 0, "is_reserved": 0, "bike_id": "fb1a10a8d94056daaabaffcfe56ed2c9", "fusion_lon": 0.0, "type": "electric_scooter"}, {"rental_uris": {"ios": "https://dc.lft.to/lastmile_qr_scan", "android": "https://dc.lft.to/lastmile_qr_scan"}, "lat": 38.93442616666667, "lon": -77.03874583333334, "fusion_lat": 0.0, "name": "e246197fbac96b86d89eea86991aa14b", "is_disabled": 0, "is_reserved": 0, "bike_id": "e246197fbac96b86d89eea86991aa14b", "fusion_lon": 0.0, "type": "electric_scooter"}, {"rental_uris": {"ios": "https://dc.lft.to/lastmile_qr_scan", "android": "https://dc.lft.to/lastmile_qr_scan"}, "lat": 38.927279, "lon": -77.02972716666666, "fusion_lat": 0.0, "name": "602633306ca2fb84c6d228927a307d2c", "is_disabled": 0, "is_reserved": 0, "bike_id": "602633306ca2fb84c6d228927a307d2c", "fusion_lon": 0.0, "type": "electric_scooter"}, {"rental_uris": {"ios": "https://dc.lft.to/lastmile_qr_scan", "android": "https://dc.lft.to/lastmile_qr_scan"}, "lat": 38.917161666666665, "lon": -77.02336766666667, "fusion_lat": 0.0, "name": "d62b03f1e35f052206a4189329a23e8a", "is_disabled": 0, "is_reserved": 0, "bike_id": "d62b03f1e35f052206a4189329a23e8a", "fusion_lon": 0.0, "type": "electric_scooter"}, {"rental_uris": {"ios": "https://dc.lft.to/lastmile_qr_scan", "android": "https://dc.lft.to/lastmile_qr_scan"}, "lat": 38.9335395, "lon": -77.04119633333333, "fusion_lat": 0.0, "name": "06f4fd40deb56a607cae5bb70669bebf", "is_disabled": 0, "is_reserved": 0, "bike_id": "06f4fd40deb56a607cae5bb70669bebf", "fusion_lon": 0.0, "type": "electric_scooter"}, {"rental_uris": {"ios": "https://dc.lft.to/lastmile_qr_scan", "android": "https://dc.lft.to/lastmile_qr_scan"}, "lat": 38.92875266666667, "lon": -77.0183525, "fusion_lat": 0.0, "name": "3a258964ddd879930d456194511c7556", "is_disabled": 0, "is_reserved": 0, "bike_id": "3a258964ddd879930d456194511c7556", "fusion_lon": 0.0, "type": "electric_scooter"}, {"rental_uris": {"ios": "https://dc.lft.to/lastmile_qr_scan", "android": "https://dc.lft.to/lastmile_qr_scan"}, "lat": 38.90018716666667, "lon": -77.04676766666667, "fusion_lat": 0.0, "name": "18922feaf52d43b86d02c73b76b2fb03", "is_disabled": 0, "is_reserved": 0, "bike_id": "18922feaf52d43b86d02c73b76b2fb03", "fusion_lon": 0.0, "type": "electric_scooter"}, {"rental_uris": {"ios": "https://dc.lft.to/lastmile_qr_scan", "android": "https://dc.lft.to/lastmile_qr_scan"}, "lat": 38.93606283333333, "lon": -77.05892833333333, "fusion_lat": 0.0, "name": "13ef9b35ae18fa15a4164f59312ec531", "is_disabled": 0, "is_reserved": 0, "bike_id": "13ef9b35ae18fa15a4164f59312ec531", "fusion_lon": 0.0, "type": "electric_scooter"}, {"rental_uris": {"ios": "https://dc.lft.to/lastmile_qr_scan", "android": "https://dc.lft.to/lastmile_qr_scan"}, "lat": 38.951556833333335, "lon": -77.05676533333333, "fusion_lat": 0.0, "name": "d151d6357455035099611896300f6d79", "is_disabled": 0, "is_reserved": 0, "bike_id": "d151d6357455035099611896300f6d79", "fusion_lon": 0.0, "type": "electric_scooter"}, {"rental_uris": {"ios": "https://dc.lft.to/lastmile_qr_scan", "android": "https://dc.lft.to/lastmile_qr_scan"}, "lat": 38.866715166666665, "lon": -76.9853905, "fusion_lat": 0.0, "name": "dd2f4d90db68ef83c0a01eeace9149c9", "is_disabled": 0, "is_reserved": 0, "bike_id": "dd2f4d90db68ef83c0a01eeace9149c9", "fusion_lon": 0.0, "type": "electric_scooter"}, {"rental_uris": {"ios": "https://dc.lft.to/lastmile_qr_scan", "android": "https://dc.lft.to/lastmile_qr_scan"}, "lat": 38.895064833333336, "lon": -77.003394, "fusion_lat": 0.0, "name": "20cbcc0193fb4781f13c956647cbfbb3", "is_disabled": 0, "is_reserved": 0, "bike_id": "20cbcc0193fb4781f13c956647cbfbb3", "fusion_lon": 0.0, "type": "electric_scooter"}, {"rental_uris": {"ios": "https://dc.lft.to/lastmile_qr_scan", "android": "https://dc.lft.to/lastmile_qr_scan"}, "lat": 38.9130855, "lon": -77.02205383333333, "fusion_lat": 0.0, "name": "f4eb6764c22d6da8a75feb19d7d1d5fa", "is_disabled": 0, "is_reserved": 0, "bike_id": "f4eb6764c22d6da8a75feb19d7d1d5fa", "fusion_lon": 0.0, "type": "electric_scooter"}, {"rental_uris": {"ios": "https://dc.lft.to/lastmile_qr_scan", "android": "https://dc.lft.to/lastmile_qr_scan"}, "lat": 38.94892516666667, "lon": -76.96372883333333, "fusion_lat": 0.0, "name": "846ae3bb5867c969c5022d2e7f712ff2", "is_disabled": 0, "is_reserved": 0, "bike_id": "846ae3bb5867c969c5022d2e7f712ff2", "fusion_lon": 0.0, "type": "electric_bike"}, {"rental_uris": {"ios": "https://dc.lft.to/lastmile_qr_scan", "android": "https://dc.lft.to/lastmile_qr_scan"}, "lat": 38.8717155, "lon": -77.00675433333333, "fusion_lat": 0.0, "name": "686c79190e64ba65e04bf91715de62d1", "is_disabled": 0, "is_reserved": 0, "bike_id": "686c79190e64ba65e04bf91715de62d1", "fusion_lon": 0.0, "type": "electric_scooter"}, {"rental_uris": {"ios": "https://dc.lft.to/lastmile_qr_scan", "android": "https://dc.lft.to/lastmile_qr_scan"}, "lat": 38.906376, "lon": -77.02186433333334, "fusion_lat": 0.0, "name": "f82ed41d60675a432e485b66d39b6e44", "is_disabled": 0, "is_reserved": 0, "bike_id": "f82ed41d60675a432e485b66d39b6e44", "fusion_lon": 0.0, "type": "electric_scooter"}, {"rental_uris": {"ios": "https://dc.lft.to/lastmile_qr_scan", "android": "https://dc.lft.to/lastmile_qr_scan"}, "lat": 38.900114, "lon": -76.98695883333333, "fusion_lat": 0.0, "name": "07511943cf64b04594189b9411e088fe", "is_disabled": 0, "is_reserved": 0, "bike_id": "07511943cf64b04594189b9411e088fe", "fusion_lon": 0.0, "type": "electric_scooter"}, {"rental_uris": {"ios": "https://dc.lft.to/lastmile_qr_scan", "android": "https://dc.lft.to/lastmile_qr_scan"}, "lat": 38.8463585, "lon": -76.991364, "fusion_lat": 0.0, "name": "74b392db9ee445dd880c4d8595952ba8", "is_disabled": 0, "is_reserved": 0, "bike_id": "74b392db9ee445dd880c4d8595952ba8", "fusion_lon": 0.0, "type": "electric_scooter"}, {"rental_uris": {"ios": "https://dc.lft.to/lastmile_qr_scan", "android": "https://dc.lft.to/lastmile_qr_scan"}, "lat": 38.91422033333333, "lon": -77.02117833333334, "fusion_lat": 0.0, "name": "9bd790bfecf086ef4422c9004f32b02d", "is_disabled": 0, "is_reserved": 0, "bike_id": "9bd790bfecf086ef4422c9004f32b02d", "fusion_lon": 0.0, "type": "electric_scooter"}, {"rental_uris": {"ios": "https://dc.lft.to/lastmile_qr_scan", "android": "https://dc.lft.to/lastmile_qr_scan"}, "lat": 38.916734, "lon": -77.02976433333333, "fusion_lat": 0.0, "name": "2ea8223b04bcf72a004e99d8f111ecd3", "is_disabled": 0, "is_reserved": 0, "bike_id": "2ea8223b04bcf72a004e99d8f111ecd3", "fusion_lon": 0.0, "type": "electric_scooter"}, {"rental_uris": {"ios": "https://dc.lft.to/lastmile_qr_scan", "android": "https://dc.lft.to/lastmile_qr_scan"}, "lat": 38.84596666666667, "lon": -77.10859083333334, "fusion_lat": 0.0, "name": "261b2e313669d71c15215834a41a7783", "is_disabled": 0, "is_reserved": 0, "bike_id": "261b2e313669d71c15215834a41a7783", "fusion_lon": 0.0, "type": "electric_bike"}, {"rental_uris": {"ios": "https://dc.lft.to/lastmile_qr_scan", "android": "https://dc.lft.to/lastmile_qr_scan"}, "lat": 38.914788, "lon": -77.02197983333333, "fusion_lat": 0.0, "name": "fe79559e987c07f4356a78155505577d", "is_disabled": 0, "is_reserved": 0, "bike_id": "fe79559e987c07f4356a78155505577d", "fusion_lon": 0.0, "type": "electric_scooter"}, {"rental_uris": {"ios": "https://dc.lft.to/lastmile_qr_scan", "android": "https://dc.lft.to/lastmile_qr_scan"}, "lat": 38.93530416666667, "lon": -77.023544, "fusion_lat": 0.0, "name": "cae628af7d992fd7410e75c66af9af80", "is_disabled": 0, "is_reserved": 0, "bike_id": "cae628af7d992fd7410e75c66af9af80", "fusion_lon": 0.0, "type": "electric_scooter"}, {"rental_uris": {"ios": "https://dc.lft.to/lastmile_qr_scan", "android": "https://dc.lft.to/lastmile_qr_scan"}, "lat": 38.91837533333333, "lon": -77.0393785, "fusion_lat": 0.0, "name": "e7d02b1f2ceb60acd653a5c54009ed7f", "is_disabled": 0, "is_reserved": 0, "bike_id": "e7d02b1f2ceb60acd653a5c54009ed7f", "fusion_lon": 0.0, "type": "electric_scooter"}, {"rental_uris": {"ios": "https://dc.lft.to/lastmile_qr_scan", "android": "https://dc.lft.to/lastmile_qr_scan"}, "lat": 38.89358283333333, "lon": -76.94933583333334, "fusion_lat": 0.0, "name": "c130421d8dc059150bce93e61b3673e4", "is_disabled": 0, "is_reserved": 0, "bike_id": "c130421d8dc059150bce93e61b3673e4", "fusion_lon": 0.0, "type": "electric_scooter"}, {"rental_uris": {"ios": "https://dc.lft.to/lastmile_qr_scan", "android": "https://dc.lft.to/lastmile_qr_scan"}, "lat": 38.91703583333334, "lon": -77.03471383333333, "fusion_lat": 0.0, "name": "080911247d518ca411373088c4043f0a", "is_disabled": 0, "is_reserved": 0, "bike_id": "080911247d518ca411373088c4043f0a", "fusion_lon": 0.0, "type": "electric_scooter"}, {"rental_uris": {"ios": "https://dc.lft.to/lastmile_qr_scan", "android": "https://dc.lft.to/lastmile_qr_scan"}, "lat": 38.91469816666667, "lon": -76.981131, "fusion_lat": 0.0, "name": "fb70c6e739a017941707cb9d10634829", "is_disabled": 0, "is_reserved": 0, "bike_id": "fb70c6e739a017941707cb9d10634829", "fusion_lon": 0.0, "type": "electric_scooter"}, {"rental_uris": {"ios": "https://dc.lft.to/lastmile_qr_scan", "android": "https://dc.lft.to/lastmile_qr_scan"}, "lat": 38.9207215, "lon": -77.02312266666667, "fusion_lat": 0.0, "name": "10268abae513bc8b13eaffb5b6dcc47b", "is_disabled": 0, "is_reserved": 0, "bike_id": "10268abae513bc8b13eaffb5b6dcc47b", "fusion_lon": 0.0, "type": "electric_scooter"}, {"rental_uris": {"ios": "https://dc.lft.to/lastmile_qr_scan", "android": "https://dc.lft.to/lastmile_qr_scan"}, "lat": 38.87833233333333, "lon": -77.02278016666666, "fusion_lat": 0.0, "name": "60d9307654b5f003ffa6a1d10e705b60", "is_disabled": 0, "is_reserved": 0, "bike_id": "60d9307654b5f003ffa6a1d10e705b60", "fusion_lon": 0.0, "type": "electric_scooter"}, {"rental_uris": {"ios": "https://dc.lft.to/lastmile_qr_scan", "android": "https://dc.lft.to/lastmile_qr_scan"}, "lat": 38.908954333333334, "lon": -76.9976795, "fusion_lat": 0.0, "name": "060c632d85495e6d7f0521c27e663f96", "is_disabled": 0, "is_reserved": 0, "bike_id": "060c632d85495e6d7f0521c27e663f96", "fusion_lon": 0.0, "type": "electric_scooter"}, {"rental_uris": {"ios": "https://dc.lft.to/lastmile_qr_scan", "android": "https://dc.lft.to/lastmile_qr_scan"}, "lat": 38.9010595, "lon": -77.05139266666667, "fusion_lat": 0.0, "name": "02bea300828dfbba38127bb401df3535", "is_disabled": 0, "is_reserved": 0, "bike_id": "02bea300828dfbba38127bb401df3535", "fusion_lon": 0.0, "type": "electric_scooter"}, {"rental_uris": {"ios": "https://dc.lft.to/lastmile_qr_scan", "android": "https://dc.lft.to/lastmile_qr_scan"}, "lat": 38.8762695, "lon": -76.965233, "fusion_lat": 0.0, "name": "234bbbe707061577907b53c6e48aa2d2", "is_disabled": 0, "is_reserved": 0, "bike_id": "234bbbe707061577907b53c6e48aa2d2", "fusion_lon": 0.0, "type": "electric_scooter"}, {"rental_uris": {"ios": "https://dc.lft.to/lastmile_qr_scan", "android": "https://dc.lft.to/lastmile_qr_scan"}, "lat": 38.876695833333336, "lon": -77.00813116666667, "fusion_lat": 0.0, "name": "6e74b6dc729ff4df501e56cf6a26295e", "is_disabled": 0, "is_reserved": 0, "bike_id": "6e74b6dc729ff4df501e56cf6a26295e", "fusion_lon": 0.0, "type": "electric_scooter"}, {"rental_uris": {"ios": "https://dc.lft.to/lastmile_qr_scan", "android": "https://dc.lft.to/lastmile_qr_scan"}, "lat": 38.906713833333335, "lon": -77.01059166666667, "fusion_lat": 0.0, "name": "2c75fdd436606f90a44272723a07e431", "is_disabled": 0, "is_reserved": 0, "bike_id": "2c75fdd436606f90a44272723a07e431", "fusion_lon": 0.0, "type": "electric_scooter"}, {"rental_uris": {"ios": "https://dc.lft.to/lastmile_qr_scan", "android": "https://dc.lft.to/lastmile_qr_scan"}, "lat": 38.8971965, "lon": -77.00801683333333, "fusion_lat": 0.0, "name": "fc1a7972bf178a327328ee94a378578f", "is_disabled": 0, "is_reserved": 0, "bike_id": "fc1a7972bf178a327328ee94a378578f", "fusion_lon": 0.0, "type": "electric_scooter"}, {"rental_uris": {"ios": "https://dc.lft.to/lastmile_qr_scan", "android": "https://dc.lft.to/lastmile_qr_scan"}, "lat": 38.87455283333333, "lon": -77.0122005, "fusion_lat": 0.0, "name": "6fcad2049dd81bcd08bb7b1a59d2f318", "is_disabled": 0, "is_reserved": 0, "bike_id": "6fcad2049dd81bcd08bb7b1a59d2f318", "fusion_lon": 0.0, "type": "electric_scooter"}, {"rental_uris": {"ios": "https://dc.lft.to/lastmile_qr_scan", "android": "https://dc.lft.to/lastmile_qr_scan"}, "lat": 38.956117666666664, "lon": -77.010151, "fusion_lat": 0.0, "name": "f6e497102f7e740ae563daeb8e0be12f", "is_disabled": 0, "is_reserved": 0, "bike_id": "f6e497102f7e740ae563daeb8e0be12f", "fusion_lon": 0.0, "type": "electric_scooter"}, {"rental_uris": {"ios": "https://dc.lft.to/lastmile_qr_scan", "android": "https://dc.lft.to/lastmile_qr_scan"}, "lat": 38.917294, "lon": -77.01920783333334, "fusion_lat": 0.0, "name": "a5c2ea057e6703b23133bd5d74d7718e", "is_disabled": 0, "is_reserved": 0, "bike_id": "a5c2ea057e6703b23133bd5d74d7718e", "fusion_lon": 0.0, "type": "electric_scooter"}, {"rental_uris": {"ios": "https://dc.lft.to/lastmile_qr_scan", "android": "https://dc.lft.to/lastmile_qr_scan"}, "lat": 38.9115065, "lon": -77.00455283333334, "fusion_lat": 0.0, "name": "ca865d50fe5c2918c7ded61cab60fd76", "is_disabled": 0, "is_reserved": 0, "bike_id": "ca865d50fe5c2918c7ded61cab60fd76", "fusion_lon": 0.0, "type": "electric_scooter"}, {"rental_uris": {"ios": "https://dc.lft.to/lastmile_qr_scan", "android": "https://dc.lft.to/lastmile_qr_scan"}, "lat": 38.8998715, "lon": -77.02807366666667, "fusion_lat": 0.0, "name": "ac6faa1a9f6a1dddb539f62f098acc3a", "is_disabled": 0, "is_reserved": 0, "bike_id": "ac6faa1a9f6a1dddb539f62f098acc3a", "fusion_lon": 0.0, "type": "electric_scooter"}, {"rental_uris": {"ios": "https://dc.lft.to/lastmile_qr_scan", "android": "https://dc.lft.to/lastmile_qr_scan"}, "lat": 38.906772, "lon": -76.9863295, "fusion_lat": 0.0, "name": "b7ea0b207b3c04340a4e7782d0b948aa", "is_disabled": 0, "is_reserved": 0, "bike_id": "b7ea0b207b3c04340a4e7782d0b948aa", "fusion_lon": 0.0, "type": "electric_scooter"}, {"rental_uris": {"ios": "https://dc.lft.to/lastmile_qr_scan", "android": "https://dc.lft.to/lastmile_qr_scan"}, "lat": 38.924097, "lon": -77.0363995, "fusion_lat": 0.0, "name": "3e4b28d246f632e2a4a8b4193d35d94e", "is_disabled": 0, "is_reserved": 0, "bike_id": "3e4b28d246f632e2a4a8b4193d35d94e", "fusion_lon": 0.0, "type": "electric_scooter"}, {"rental_uris": {"ios": "https://dc.lft.to/lastmile_qr_scan", "android": "https://dc.lft.to/lastmile_qr_scan"}, "lat": 38.9254655, "lon": -77.04272033333334, "fusion_lat": 0.0, "name": "0536a78b8fe95cf03045dd7baa1ac9d5", "is_disabled": 0, "is_reserved": 0, "bike_id": "0536a78b8fe95cf03045dd7baa1ac9d5", "fusion_lon": 0.0, "type": "electric_scooter"}, {"rental_uris": {"ios": "https://dc.lft.to/lastmile_qr_scan", "android": "https://dc.lft.to/lastmile_qr_scan"}, "lat": 38.916105, "lon": -77.04157466666666, "fusion_lat": 0.0, "name": "25d6194b758df3bbaa85fe509fcef559", "is_disabled": 0, "is_reserved": 0, "bike_id": "25d6194b758df3bbaa85fe509fcef559", "fusion_lon": 0.0, "type": "electric_scooter"}, {"rental_uris": {"ios": "https://dc.lft.to/lastmile_qr_scan", "android": "https://dc.lft.to/lastmile_qr_scan"}, "lat": 38.898487, "lon": -77.04106633333333, "fusion_lat": 0.0, "name": "c97ade119e9a7b299f3c0922ee7661ef", "is_disabled": 0, "is_reserved": 0, "bike_id": "c97ade119e9a7b299f3c0922ee7661ef", "fusion_lon": 0.0, "type": "electric_scooter"}, {"rental_uris": {"ios": "https://dc.lft.to/lastmile_qr_scan", "android": "https://dc.lft.to/lastmile_qr_scan"}, "lat": 38.873101, "lon": -77.00146083333334, "fusion_lat": 0.0, "name": "ade5a57ac27a338db398535b62087a30", "is_disabled": 0, "is_reserved": 0, "bike_id": "ade5a57ac27a338db398535b62087a30", "fusion_lon": 0.0, "type": "electric_scooter"}, {"rental_uris": {"ios": "https://dc.lft.to/lastmile_qr_scan", "android": "https://dc.lft.to/lastmile_qr_scan"}, "lat": 38.904622333333336, "lon": -77.0404705, "fusion_lat": 0.0, "name": "f8ce34a14e70545c2381c7ab68af707a", "is_disabled": 0, "is_reserved": 0, "bike_id": "f8ce34a14e70545c2381c7ab68af707a", "fusion_lon": 0.0, "type": "electric_scooter"}, {"rental_uris": {"ios": "https://dc.lft.to/lastmile_qr_scan", "android": "https://dc.lft.to/lastmile_qr_scan"}, "lat": 38.91804716666667, "lon": -77.02490683333333, "fusion_lat": 0.0, "name": "126d3406b1982cd9864edad294b34a55", "is_disabled": 0, "is_reserved": 0, "bike_id": "126d3406b1982cd9864edad294b34a55", "fusion_lon": 0.0, "type": "electric_scooter"}, {"rental_uris": {"ios": "https://dc.lft.to/lastmile_qr_scan", "android": "https://dc.lft.to/lastmile_qr_scan"}, "lat": 38.89858733333333, "lon": -76.9463585, "fusion_lat": 0.0, "name": "df009e26a53caccb2318b7113d856fe0", "is_disabled": 0, "is_reserved": 0, "bike_id": "df009e26a53caccb2318b7113d856fe0", "fusion_lon": 0.0, "type": "electric_scooter"}, {"rental_uris": {"ios": "https://dc.lft.to/lastmile_qr_scan", "android": "https://dc.lft.to/lastmile_qr_scan"}, "lat": 38.79594483333333, "lon": -76.99671566666666, "fusion_lat": 0.0, "name": "8dd004eedb1890b4e9bc006704b9895b", "is_disabled": 0, "is_reserved": 0, "bike_id": "8dd004eedb1890b4e9bc006704b9895b", "fusion_lon": 0.0, "type": "electric_bike"}, {"rental_uris": {"ios": "https://dc.lft.to/lastmile_qr_scan", "android": "https://dc.lft.to/lastmile_qr_scan"}, "lat": 38.908207833333336, "lon": -77.0220895, "fusion_lat": 0.0, "name": "7fe9a9315ee4322442523765afe1bcee", "is_disabled": 0, "is_reserved": 0, "bike_id": "7fe9a9315ee4322442523765afe1bcee", "fusion_lon": 0.0, "type": "electric_scooter"}, {"rental_uris": {"ios": "https://dc.lft.to/lastmile_qr_scan", "android": "https://dc.lft.to/lastmile_qr_scan"}, "lat": 38.904061, "lon": -77.02477266666666, "fusion_lat": 0.0, "name": "370bb6f1c59b48090f2d712750b34395", "is_disabled": 0, "is_reserved": 0, "bike_id": "370bb6f1c59b48090f2d712750b34395", "fusion_lon": 0.0, "type": "electric_scooter"}, {"rental_uris": {"ios": "https://dc.lft.to/lastmile_qr_scan", "android": "https://dc.lft.to/lastmile_qr_scan"}, "lat": 38.8150435, "lon": -77.12662116666667, "fusion_lat": 0.0, "name": "d53164d5fb208bd5fd767c4b49e1d112", "is_disabled": 0, "is_reserved": 0, "bike_id": "d53164d5fb208bd5fd767c4b49e1d112", "fusion_lon": 0.0, "type": "electric_bike"}, {"rental_uris": {"ios": "https://dc.lft.to/lastmile_qr_scan", "android": "https://dc.lft.to/lastmile_qr_scan"}, "lat": 38.918442666666664, "lon": -77.03190783333334, "fusion_lat": 0.0, "name": "e4c915a0a40a8a0978e3d97826d0b179", "is_disabled": 0, "is_reserved": 0, "bike_id": "e4c915a0a40a8a0978e3d97826d0b179", "fusion_lon": 0.0, "type": "electric_scooter"}, {"rental_uris": {"ios": "https://dc.lft.to/lastmile_qr_scan", "android": "https://dc.lft.to/lastmile_qr_scan"}, "lat": 38.90944533333333, "lon": -77.04420183333333, "fusion_lat": 0.0, "name": "4646d0e122a1e32c9edb9104eabb7bde", "is_disabled": 0, "is_reserved": 0, "bike_id": "4646d0e122a1e32c9edb9104eabb7bde", "fusion_lon": 0.0, "type": "electric_scooter"}, {"rental_uris": {"ios": "https://dc.lft.to/lastmile_qr_scan", "android": "https://dc.lft.to/lastmile_qr_scan"}, "lat": 38.90077516666667, "lon": -77.02704433333334, "fusion_lat": 0.0, "name": "71c29c800550c873a6650eb98de46de6", "is_disabled": 0, "is_reserved": 0, "bike_id": "71c29c800550c873a6650eb98de46de6", "fusion_lon": 0.0, "type": "electric_scooter"}, {"rental_uris": {"ios": "https://dc.lft.to/lastmile_qr_scan", "android": "https://dc.lft.to/lastmile_qr_scan"}, "lat": 38.9198785, "lon": -77.01803133333334, "fusion_lat": 0.0, "name": "9fc7abe8dcef767ca3c9ff5d87ed4a10", "is_disabled": 0, "is_reserved": 0, "bike_id": "9fc7abe8dcef767ca3c9ff5d87ed4a10", "fusion_lon": 0.0, "type": "electric_scooter"}, {"rental_uris": {"ios": "https://dc.lft.to/lastmile_qr_scan", "android": "https://dc.lft.to/lastmile_qr_scan"}, "lat": 38.905642666666665, "lon": -76.97783783333334, "fusion_lat": 0.0, "name": "22d71fd87c452112721b5bfa8885cd4c", "is_disabled": 0, "is_reserved": 0, "bike_id": "22d71fd87c452112721b5bfa8885cd4c", "fusion_lon": 0.0, "type": "electric_scooter"}, {"rental_uris": {"ios": "https://dc.lft.to/lastmile_qr_scan", "android": "https://dc.lft.to/lastmile_qr_scan"}, "lat": 38.91469566666667, "lon": -77.0434945, "fusion_lat": 0.0, "name": "b79cea561b7f450b6c98e411b069b272", "is_disabled": 0, "is_reserved": 0, "bike_id": "b79cea561b7f450b6c98e411b069b272", "fusion_lon": 0.0, "type": "electric_scooter"}, {"rental_uris": {"ios": "https://dc.lft.to/lastmile_qr_scan", "android": "https://dc.lft.to/lastmile_qr_scan"}, "lat": 38.90973, "lon": -77.03402466666667, "fusion_lat": 0.0, "name": "c602bd8253b6189ce7001f8c9c879da3", "is_disabled": 0, "is_reserved": 0, "bike_id": "c602bd8253b6189ce7001f8c9c879da3", "fusion_lon": 0.0, "type": "electric_scooter"}, {"rental_uris": {"ios": "https://dc.lft.to/lastmile_qr_scan", "android": "https://dc.lft.to/lastmile_qr_scan"}, "lat": 38.92863666666667, "lon": -77.02770333333333, "fusion_lat": 0.0, "name": "2cbe4421dab5cf7b2dbebcab2492442a", "is_disabled": 0, "is_reserved": 0, "bike_id": "2cbe4421dab5cf7b2dbebcab2492442a", "fusion_lon": 0.0, "type": "electric_scooter"}, {"rental_uris": {"ios": "https://dc.lft.to/lastmile_qr_scan", "android": "https://dc.lft.to/lastmile_qr_scan"}, "lat": 38.928608, "lon": -77.00553883333333, "fusion_lat": 0.0, "name": "a0e216887a19a3d8ef291840e17a5ce2", "is_disabled": 0, "is_reserved": 0, "bike_id": "a0e216887a19a3d8ef291840e17a5ce2", "fusion_lon": 0.0, "type": "electric_scooter"}, {"rental_uris": {"ios": "https://dc.lft.to/lastmile_qr_scan", "android": "https://dc.lft.to/lastmile_qr_scan"}, "lat": 38.90613066666667, "lon": -77.0120225, "fusion_lat": 0.0, "name": "a346944a93e1d95a661e086edc33d040", "is_disabled": 0, "is_reserved": 0, "bike_id": "a346944a93e1d95a661e086edc33d040", "fusion_lon": 0.0, "type": "electric_scooter"}, {"rental_uris": {"ios": "https://dc.lft.to/lastmile_qr_scan", "android": "https://dc.lft.to/lastmile_qr_scan"}, "lat": 38.87756383333333, "lon": -76.98680033333333, "fusion_lat": 0.0, "name": "659ee0c144ec21ffcf30a180f4c6361c", "is_disabled": 0, "is_reserved": 0, "bike_id": "659ee0c144ec21ffcf30a180f4c6361c", "fusion_lon": 0.0, "type": "electric_scooter"}, {"rental_uris": {"ios": "https://dc.lft.to/lastmile_qr_scan", "android": "https://dc.lft.to/lastmile_qr_scan"}, "lat": 38.91425066666667, "lon": -77.0241005, "fusion_lat": 0.0, "name": "b2dae0811bcc619b13abce8185852ab6", "is_disabled": 0, "is_reserved": 0, "bike_id": "b2dae0811bcc619b13abce8185852ab6", "fusion_lon": 0.0, "type": "electric_scooter"}, {"rental_uris": {"ios": "https://dc.lft.to/lastmile_qr_scan", "android": "https://dc.lft.to/lastmile_qr_scan"}, "lat": 38.88443216666667, "lon": -76.9961875, "fusion_lat": 0.0, "name": "be36e2f4f72103f6ee8a7d89253c2557", "is_disabled": 0, "is_reserved": 0, "bike_id": "be36e2f4f72103f6ee8a7d89253c2557", "fusion_lon": 0.0, "type": "electric_scooter"}, {"rental_uris": {"ios": "https://dc.lft.to/lastmile_qr_scan", "android": "https://dc.lft.to/lastmile_qr_scan"}, "lat": 38.898340833333336, "lon": -77.030281, "fusion_lat": 0.0, "name": "b8cecb3667d30a2a0ee27fa2d59323a9", "is_disabled": 0, "is_reserved": 0, "bike_id": "b8cecb3667d30a2a0ee27fa2d59323a9", "fusion_lon": 0.0, "type": "electric_scooter"}, {"rental_uris": {"ios": "https://dc.lft.to/lastmile_qr_scan", "android": "https://dc.lft.to/lastmile_qr_scan"}, "lat": 38.92316366666667, "lon": -77.04519766666667, "fusion_lat": 0.0, "name": "0f80bcf9371ae3d09bfa6881230ccdd8", "is_disabled": 0, "is_reserved": 0, "bike_id": "0f80bcf9371ae3d09bfa6881230ccdd8", "fusion_lon": 0.0, "type": "electric_scooter"}, {"rental_uris": {"ios": "https://dc.lft.to/lastmile_qr_scan", "android": "https://dc.lft.to/lastmile_qr_scan"}, "lat": 38.8324275, "lon": -76.9462735, "fusion_lat": 0.0, "name": "b0dc4880fda98ed3fe011c6307b3d958", "is_disabled": 0, "is_reserved": 0, "bike_id": "b0dc4880fda98ed3fe011c6307b3d958", "fusion_lon": 0.0, "type": "electric_bike"}, {"rental_uris": {"ios": "https://dc.lft.to/lastmile_qr_scan", "android": "https://dc.lft.to/lastmile_qr_scan"}, "lat": 38.884724, "lon": -76.95665016666666, "fusion_lat": 0.0, "name": "ab0454fce7ca0974011762da866f5128", "is_disabled": 0, "is_reserved": 0, "bike_id": "ab0454fce7ca0974011762da866f5128", "fusion_lon": 0.0, "type": "electric_bike"}, {"rental_uris": {"ios": "https://dc.lft.to/lastmile_qr_scan", "android": "https://dc.lft.to/lastmile_qr_scan"}, "lat": 38.921208666666665, "lon": -77.01753866666667, "fusion_lat": 0.0, "name": "6107a93f5233e64d11910ce3580207f9", "is_disabled": 0, "is_reserved": 0, "bike_id": "6107a93f5233e64d11910ce3580207f9", "fusion_lon": 0.0, "type": "electric_scooter"}, {"rental_uris": {"ios": "https://dc.lft.to/lastmile_qr_scan", "android": "https://dc.lft.to/lastmile_qr_scan"}, "lat": 38.93206166666667, "lon": -77.02731533333333, "fusion_lat": 0.0, "name": "028453b1788607361eb3dbf1d5a75a25", "is_disabled": 0, "is_reserved": 0, "bike_id": "028453b1788607361eb3dbf1d5a75a25", "fusion_lon": 0.0, "type": "electric_scooter"}, {"rental_uris": {"ios": "https://dc.lft.to/lastmile_qr_scan", "android": "https://dc.lft.to/lastmile_qr_scan"}, "lat": 39.034376333333334, "lon": -77.04308316666666, "fusion_lat": 0.0, "name": "5fa6a4d038f40c309562b671e0676a1a", "is_disabled": 0, "is_reserved": 0, "bike_id": "5fa6a4d038f40c309562b671e0676a1a", "fusion_lon": 0.0, "type": "electric_bike"}, {"rental_uris": {"ios": "https://dc.lft.to/lastmile_qr_scan", "android": "https://dc.lft.to/lastmile_qr_scan"}, "lat": 38.9259455, "lon": -77.02386183333333, "fusion_lat": 0.0, "name": "404d76d43f5d8703a5985ea28f0287ef", "is_disabled": 0, "is_reserved": 0, "bike_id": "404d76d43f5d8703a5985ea28f0287ef", "fusion_lon": 0.0, "type": "electric_scooter"}, {"rental_uris": {"ios": "https://dc.lft.to/lastmile_qr_scan", "android": "https://dc.lft.to/lastmile_qr_scan"}, "lat": 38.921448833333336, "lon": -77.03325433333333, "fusion_lat": 0.0, "name": "315e5c86f29738e38a3a702a48b40391", "is_disabled": 0, "is_reserved": 0, "bike_id": "315e5c86f29738e38a3a702a48b40391", "fusion_lon": 0.0, "type": "electric_scooter"}, {"rental_uris": {"ios": "https://dc.lft.to/lastmile_qr_scan", "android": "https://dc.lft.to/lastmile_qr_scan"}, "lat": 38.873759666666665, "lon": -77.00107266666667, "fusion_lat": 0.0, "name": "0949745f25708bdbab49ae7d1b6f2ce9", "is_disabled": 0, "is_reserved": 0, "bike_id": "0949745f25708bdbab49ae7d1b6f2ce9", "fusion_lon": 0.0, "type": "electric_scooter"}, {"rental_uris": {"ios": "https://dc.lft.to/lastmile_qr_scan", "android": "https://dc.lft.to/lastmile_qr_scan"}, "lat": 38.93464983333333, "lon": -77.02773416666666, "fusion_lat": 0.0, "name": "aef88213e105919f8de2e132f9d29c7e", "is_disabled": 0, "is_reserved": 0, "bike_id": "aef88213e105919f8de2e132f9d29c7e", "fusion_lon": 0.0, "type": "electric_scooter"}, {"rental_uris": {"ios": "https://dc.lft.to/lastmile_qr_scan", "android": "https://dc.lft.to/lastmile_qr_scan"}, "lat": 38.924007, "lon": -77.01220633333334, "fusion_lat": 0.0, "name": "ce3ad113a56b2595e62088647751523b", "is_disabled": 0, "is_reserved": 0, "bike_id": "ce3ad113a56b2595e62088647751523b", "fusion_lon": 0.0, "type": "electric_scooter"}, {"rental_uris": {"ios": "https://dc.lft.to/lastmile_qr_scan", "android": "https://dc.lft.to/lastmile_qr_scan"}, "lat": 38.93401166666666, "lon": -77.03305633333333, "fusion_lat": 0.0, "name": "12ad65bccc4aa5ff19f24a7b5b23d4c7", "is_disabled": 0, "is_reserved": 0, "bike_id": "12ad65bccc4aa5ff19f24a7b5b23d4c7", "fusion_lon": 0.0, "type": "electric_scooter"}, {"rental_uris": {"ios": "https://dc.lft.to/lastmile_qr_scan", "android": "https://dc.lft.to/lastmile_qr_scan"}, "lat": 38.915726, "lon": -77.02207783333333, "fusion_lat": 0.0, "name": "c2ea2510e1d9ce2afecb889586d4cf2b", "is_disabled": 0, "is_reserved": 0, "bike_id": "c2ea2510e1d9ce2afecb889586d4cf2b", "fusion_lon": 0.0, "type": "electric_scooter"}, {"rental_uris": {"ios": "https://dc.lft.to/lastmile_qr_scan", "android": "https://dc.lft.to/lastmile_qr_scan"}, "lat": 38.91676283333334, "lon": -77.03212666666667, "fusion_lat": 0.0, "name": "bd8ccfdde1e01f719241d5227d32be01", "is_disabled": 0, "is_reserved": 0, "bike_id": "bd8ccfdde1e01f719241d5227d32be01", "fusion_lon": 0.0, "type": "electric_scooter"}, {"rental_uris": {"ios": "https://dc.lft.to/lastmile_qr_scan", "android": "https://dc.lft.to/lastmile_qr_scan"}, "lat": 38.92232816666667, "lon": -77.03520766666666, "fusion_lat": 0.0, "name": "0693f3e05575756d658b18ac079202ed", "is_disabled": 0, "is_reserved": 0, "bike_id": "0693f3e05575756d658b18ac079202ed", "fusion_lon": 0.0, "type": "electric_scooter"}, {"rental_uris": {"ios": "https://dc.lft.to/lastmile_qr_scan", "android": "https://dc.lft.to/lastmile_qr_scan"}, "lat": 38.86744783333333, "lon": -76.9785895, "fusion_lat": 0.0, "name": "fdb1aeae5b765a8204e0e585fb69cd04", "is_disabled": 0, "is_reserved": 0, "bike_id": "fdb1aeae5b765a8204e0e585fb69cd04", "fusion_lon": 0.0, "type": "electric_scooter"}, {"rental_uris": {"ios": "https://dc.lft.to/lastmile_qr_scan", "android": "https://dc.lft.to/lastmile_qr_scan"}, "lat": 38.900426333333336, "lon": -77.03241666666666, "fusion_lat": 0.0, "name": "041a083d929502ba89e2f21537d388ea", "is_disabled": 0, "is_reserved": 0, "bike_id": "041a083d929502ba89e2f21537d388ea", "fusion_lon": 0.0, "type": "electric_scooter"}, {"rental_uris": {"ios": "https://dc.lft.to/lastmile_qr_scan", "android": "https://dc.lft.to/lastmile_qr_scan"}, "lat": 38.9287605, "lon": -77.03922433333334, "fusion_lat": 0.0, "name": "0477a53e05e2644b76d9fc1f3d933c92", "is_disabled": 0, "is_reserved": 0, "bike_id": "0477a53e05e2644b76d9fc1f3d933c92", "fusion_lon": 0.0, "type": "electric_scooter"}, {"rental_uris": {"ios": "https://dc.lft.to/lastmile_qr_scan", "android": "https://dc.lft.to/lastmile_qr_scan"}, "lat": 38.931196166666666, "lon": -77.02262583333334, "fusion_lat": 0.0, "name": "09b5d10caeff8f72ba7ad9e8bae84e7c", "is_disabled": 0, "is_reserved": 0, "bike_id": "09b5d10caeff8f72ba7ad9e8bae84e7c", "fusion_lon": 0.0, "type": "electric_scooter"}, {"rental_uris": {"ios": "https://dc.lft.to/lastmile_qr_scan", "android": "https://dc.lft.to/lastmile_qr_scan"}, "lat": 38.90841916666667, "lon": -77.000615, "fusion_lat": 0.0, "name": "611d6e2fbb593bf88f9400a741f3dd7e", "is_disabled": 0, "is_reserved": 0, "bike_id": "611d6e2fbb593bf88f9400a741f3dd7e", "fusion_lon": 0.0, "type": "electric_scooter"}, {"rental_uris": {"ios": "https://dc.lft.to/lastmile_qr_scan", "android": "https://dc.lft.to/lastmile_qr_scan"}, "lat": 38.8971385, "lon": -77.02718883333333, "fusion_lat": 0.0, "name": "065e8404a1fee81720cfc4e5a21950f5", "is_disabled": 0, "is_reserved": 0, "bike_id": "065e8404a1fee81720cfc4e5a21950f5", "fusion_lon": 0.0, "type": "electric_scooter"}, {"rental_uris": {"ios": "https://dc.lft.to/lastmile_qr_scan", "android": "https://dc.lft.to/lastmile_qr_scan"}, "lat": 38.898869166666664, "lon": -76.9317755, "fusion_lat": 0.0, "name": "17e94bba6d30f0e1640b265fcf4e6948", "is_disabled": 0, "is_reserved": 0, "bike_id": "17e94bba6d30f0e1640b265fcf4e6948", "fusion_lon": 0.0, "type": "electric_scooter"}, {"rental_uris": {"ios": "https://dc.lft.to/lastmile_qr_scan", "android": "https://dc.lft.to/lastmile_qr_scan"}, "lat": 38.92071, "lon": -77.02316183333333, "fusion_lat": 0.0, "name": "b403a49b3074784bd0d5e5df76e2b1bc", "is_disabled": 0, "is_reserved": 0, "bike_id": "b403a49b3074784bd0d5e5df76e2b1bc", "fusion_lon": 0.0, "type": "electric_scooter"}, {"rental_uris": {"ios": "https://dc.lft.to/lastmile_qr_scan", "android": "https://dc.lft.to/lastmile_qr_scan"}, "lat": 38.9096205, "lon": -77.03349066666667, "fusion_lat": 0.0, "name": "84e5ed82998729c3854598a95a1627b8", "is_disabled": 0, "is_reserved": 0, "bike_id": "84e5ed82998729c3854598a95a1627b8", "fusion_lon": 0.0, "type": "electric_scooter"}, {"rental_uris": {"ios": "https://dc.lft.to/lastmile_qr_scan", "android": "https://dc.lft.to/lastmile_qr_scan"}, "lat": 38.88778816666667, "lon": -76.95529883333333, "fusion_lat": 0.0, "name": "db340834ff972f0a747e20cc7bd3ffaf", "is_disabled": 0, "is_reserved": 0, "bike_id": "db340834ff972f0a747e20cc7bd3ffaf", "fusion_lon": 0.0, "type": "electric_scooter"}, {"rental_uris": {"ios": "https://dc.lft.to/lastmile_qr_scan", "android": "https://dc.lft.to/lastmile_qr_scan"}, "lat": 38.928825833333335, "lon": -77.0404595, "fusion_lat": 0.0, "name": "ff2028dfe58ec021cb6498e8fa080a42", "is_disabled": 0, "is_reserved": 0, "bike_id": "ff2028dfe58ec021cb6498e8fa080a42", "fusion_lon": 0.0, "type": "electric_scooter"}, {"rental_uris": {"ios": "https://dc.lft.to/lastmile_qr_scan", "android": "https://dc.lft.to/lastmile_qr_scan"}, "lat": 38.9236955, "lon": -77.03128866666667, "fusion_lat": 0.0, "name": "bc19c21c87e1774328847be041ac4693", "is_disabled": 0, "is_reserved": 0, "bike_id": "bc19c21c87e1774328847be041ac4693", "fusion_lon": 0.0, "type": "electric_scooter"}, {"rental_uris": {"ios": "https://dc.lft.to/lastmile_qr_scan", "android": "https://dc.lft.to/lastmile_qr_scan"}, "lat": 38.8662925, "lon": -76.98717566666667, "fusion_lat": 0.0, "name": "4c04bf57fe9e7304ae40bd9803521716", "is_disabled": 0, "is_reserved": 0, "bike_id": "4c04bf57fe9e7304ae40bd9803521716", "fusion_lon": 0.0, "type": "electric_scooter"}, {"rental_uris": {"ios": "https://dc.lft.to/lastmile_qr_scan", "android": "https://dc.lft.to/lastmile_qr_scan"}, "lat": 38.89648616666667, "lon": -77.0709735, "fusion_lat": 0.0, "name": "b5272d48c422c9409757d914088c340f", "is_disabled": 0, "is_reserved": 0, "bike_id": "b5272d48c422c9409757d914088c340f", "fusion_lon": 0.0, "type": "electric_scooter"}, {"rental_uris": {"ios": "https://dc.lft.to/lastmile_qr_scan", "android": "https://dc.lft.to/lastmile_qr_scan"}, "lat": 38.89603666666667, "lon": -76.98862866666667, "fusion_lat": 0.0, "name": "cc09159c2f88de30af61c763f7081915", "is_disabled": 0, "is_reserved": 0, "bike_id": "cc09159c2f88de30af61c763f7081915", "fusion_lon": 0.0, "type": "electric_scooter"}, {"rental_uris": {"ios": "https://dc.lft.to/lastmile_qr_scan", "android": "https://dc.lft.to/lastmile_qr_scan"}, "lat": 38.88031633333333, "lon": -77.02505166666667, "fusion_lat": 0.0, "name": "e251cf940fe9828072329f2db41e78d5", "is_disabled": 0, "is_reserved": 0, "bike_id": "e251cf940fe9828072329f2db41e78d5", "fusion_lon": 0.0, "type": "electric_scooter"}, {"rental_uris": {"ios": "https://dc.lft.to/lastmile_qr_scan", "android": "https://dc.lft.to/lastmile_qr_scan"}, "lat": 38.904086666666664, "lon": -76.97332233333333, "fusion_lat": 0.0, "name": "34e8e36eb42f4ce871417841e12019dc", "is_disabled": 0, "is_reserved": 0, "bike_id": "34e8e36eb42f4ce871417841e12019dc", "fusion_lon": 0.0, "type": "electric_scooter"}, {"rental_uris": {"ios": "https://dc.lft.to/lastmile_qr_scan", "android": "https://dc.lft.to/lastmile_qr_scan"}, "lat": 38.896880833333334, "lon": -77.03217566666666, "fusion_lat": 0.0, "name": "b9c3de12585202add4bdee380b8d72c6", "is_disabled": 0, "is_reserved": 0, "bike_id": "b9c3de12585202add4bdee380b8d72c6", "fusion_lon": 0.0, "type": "electric_scooter"}, {"rental_uris": {"ios": "https://dc.lft.to/lastmile_qr_scan", "android": "https://dc.lft.to/lastmile_qr_scan"}, "lat": 38.918638333333334, "lon": -77.04023016666666, "fusion_lat": 0.0, "name": "09038c526040b77a25aa8fd89fa836da", "is_disabled": 0, "is_reserved": 0, "bike_id": "09038c526040b77a25aa8fd89fa836da", "fusion_lon": 0.0, "type": "electric_scooter"}, {"rental_uris": {"ios": "https://dc.lft.to/lastmile_qr_scan", "android": "https://dc.lft.to/lastmile_qr_scan"}, "lat": 38.886754833333335, "lon": -77.0198045, "fusion_lat": 0.0, "name": "5fc1afcefbd8558021f196d012bf9b60", "is_disabled": 0, "is_reserved": 0, "bike_id": "5fc1afcefbd8558021f196d012bf9b60", "fusion_lon": 0.0, "type": "electric_scooter"}, {"rental_uris": {"ios": "https://dc.lft.to/lastmile_qr_scan", "android": "https://dc.lft.to/lastmile_qr_scan"}, "lat": 38.91737166666667, "lon": -77.031981, "fusion_lat": 0.0, "name": "9456bb97366a52e770c42dc77b960b6e", "is_disabled": 0, "is_reserved": 0, "bike_id": "9456bb97366a52e770c42dc77b960b6e", "fusion_lon": 0.0, "type": "electric_scooter"}, {"rental_uris": {"ios": "https://dc.lft.to/lastmile_qr_scan", "android": "https://dc.lft.to/lastmile_qr_scan"}, "lat": 38.8588905, "lon": -77.11861683333333, "fusion_lat": 0.0, "name": "ea1634ccae2b0d0eb87552cba3180ef4", "is_disabled": 0, "is_reserved": 0, "bike_id": "ea1634ccae2b0d0eb87552cba3180ef4", "fusion_lon": 0.0, "type": "electric_bike"}, {"rental_uris": {"ios": "https://dc.lft.to/lastmile_qr_scan", "android": "https://dc.lft.to/lastmile_qr_scan"}, "lat": 38.90008816666667, "lon": -77.04029916666667, "fusion_lat": 0.0, "name": "4d234045c292a15fc6a4f97e15d499f2", "is_disabled": 0, "is_reserved": 0, "bike_id": "4d234045c292a15fc6a4f97e15d499f2", "fusion_lon": 0.0, "type": "electric_scooter"}, {"rental_uris": {"ios": "https://dc.lft.to/lastmile_qr_scan", "android": "https://dc.lft.to/lastmile_qr_scan"}, "lat": 38.874591833333334, "lon": -77.00486933333333, "fusion_lat": 0.0, "name": "f050020f0c1e02098f932406f74be789", "is_disabled": 0, "is_reserved": 0, "bike_id": "f050020f0c1e02098f932406f74be789", "fusion_lon": 0.0, "type": "electric_scooter"}, {"rental_uris": {"ios": "https://dc.lft.to/lastmile_qr_scan", "android": "https://dc.lft.to/lastmile_qr_scan"}, "lat": 38.9117705, "lon": -77.02829383333334, "fusion_lat": 0.0, "name": "93f5af6812731ed456a3a5356b3bcaa8", "is_disabled": 0, "is_reserved": 0, "bike_id": "93f5af6812731ed456a3a5356b3bcaa8", "fusion_lon": 0.0, "type": "electric_scooter"}, {"rental_uris": {"ios": "https://dc.lft.to/lastmile_qr_scan", "android": "https://dc.lft.to/lastmile_qr_scan"}, "lat": 38.940940166666664, "lon": -77.02494083333333, "fusion_lat": 0.0, "name": "1410744ec6c5ea2e7895ad5018dc5829", "is_disabled": 0, "is_reserved": 0, "bike_id": "1410744ec6c5ea2e7895ad5018dc5829", "fusion_lon": 0.0, "type": "electric_scooter"}, {"rental_uris": {"ios": "https://dc.lft.to/lastmile_qr_scan", "android": "https://dc.lft.to/lastmile_qr_scan"}, "lat": 38.931194, "lon": -77.0303665, "fusion_lat": 0.0, "name": "8bd507d4e7c9220f426e7b12fca4bbb3", "is_disabled": 0, "is_reserved": 0, "bike_id": "8bd507d4e7c9220f426e7b12fca4bbb3", "fusion_lon": 0.0, "type": "electric_scooter"}, {"rental_uris": {"ios": "https://dc.lft.to/lastmile_qr_scan", "android": "https://dc.lft.to/lastmile_qr_scan"}, "lat": 38.924802, "lon": -77.0089105, "fusion_lat": 0.0, "name": "bc54b1e88a154cb823c99b1c9a5ad44f", "is_disabled": 0, "is_reserved": 0, "bike_id": "bc54b1e88a154cb823c99b1c9a5ad44f", "fusion_lon": 0.0, "type": "electric_scooter"}, {"rental_uris": {"ios": "https://dc.lft.to/lastmile_qr_scan", "android": "https://dc.lft.to/lastmile_qr_scan"}, "lat": 38.87473266666667, "lon": -77.01069316666667, "fusion_lat": 0.0, "name": "53c6bce3f076181d6daa226727d4d2cd", "is_disabled": 0, "is_reserved": 0, "bike_id": "53c6bce3f076181d6daa226727d4d2cd", "fusion_lon": 0.0, "type": "electric_scooter"}, {"rental_uris": {"ios": "https://dc.lft.to/lastmile_qr_scan", "android": "https://dc.lft.to/lastmile_qr_scan"}, "lat": 38.9141175, "lon": -77.0224945, "fusion_lat": 0.0, "name": "dfeff28c87993ceaecf57be55257e3ee", "is_disabled": 0, "is_reserved": 0, "bike_id": "dfeff28c87993ceaecf57be55257e3ee", "fusion_lon": 0.0, "type": "electric_scooter"}, {"rental_uris": {"ios": "https://dc.lft.to/lastmile_qr_scan", "android": "https://dc.lft.to/lastmile_qr_scan"}, "lat": 38.90321733333333, "lon": -77.02874866666667, "fusion_lat": 0.0, "name": "94deba5178619fffa4d18b1b648f8c2d", "is_disabled": 0, "is_reserved": 0, "bike_id": "94deba5178619fffa4d18b1b648f8c2d", "fusion_lon": 0.0, "type": "electric_scooter"}, {"rental_uris": {"ios": "https://dc.lft.to/lastmile_qr_scan", "android": "https://dc.lft.to/lastmile_qr_scan"}, "lat": 38.917371, "lon": -77.031948, "fusion_lat": 0.0, "name": "01ca24b1c8934bb70a4dd08e320c7a42", "is_disabled": 0, "is_reserved": 0, "bike_id": "01ca24b1c8934bb70a4dd08e320c7a42", "fusion_lon": 0.0, "type": "electric_scooter"}, {"rental_uris": {"ios": "https://dc.lft.to/lastmile_qr_scan", "android": "https://dc.lft.to/lastmile_qr_scan"}, "lat": 38.922158, "lon": -77.04333083333333, "fusion_lat": 0.0, "name": "11aac92af20935ae892eaade754cfab4", "is_disabled": 0, "is_reserved": 0, "bike_id": "11aac92af20935ae892eaade754cfab4", "fusion_lon": 0.0, "type": "electric_scooter"}, {"rental_uris": {"ios": "https://dc.lft.to/lastmile_qr_scan", "android": "https://dc.lft.to/lastmile_qr_scan"}, "lat": 38.9185015, "lon": -77.03220533333334, "fusion_lat": 0.0, "name": "07115a97f604157e6a2ecf09d67ed723", "is_disabled": 0, "is_reserved": 0, "bike_id": "07115a97f604157e6a2ecf09d67ed723", "fusion_lon": 0.0, "type": "electric_bike"}, {"rental_uris": {"ios": "https://dc.lft.to/lastmile_qr_scan", "android": "https://dc.lft.to/lastmile_qr_scan"}, "lat": 38.880023666666666, "lon": -77.0056395, "fusion_lat": 0.0, "name": "c033022273ac79a60b90cddc8e993fcc", "is_disabled": 0, "is_reserved": 0, "bike_id": "c033022273ac79a60b90cddc8e993fcc", "fusion_lon": 0.0, "type": "electric_scooter"}, {"rental_uris": {"ios": "https://dc.lft.to/lastmile_qr_scan", "android": "https://dc.lft.to/lastmile_qr_scan"}, "lat": 38.892385, "lon": -77.03352416666667, "fusion_lat": 0.0, "name": "a981c9bd0f3864a621d5c3e72df13e8a", "is_disabled": 0, "is_reserved": 0, "bike_id": "a981c9bd0f3864a621d5c3e72df13e8a", "fusion_lon": 0.0, "type": "electric_scooter"}, {"rental_uris": {"ios": "https://dc.lft.to/lastmile_qr_scan", "android": "https://dc.lft.to/lastmile_qr_scan"}, "lat": 38.89910966666667, "lon": -77.04486616666667, "fusion_lat": 0.0, "name": "ad91f6e304a6bc5b629fe3770c8e1f53", "is_disabled": 0, "is_reserved": 0, "bike_id": "ad91f6e304a6bc5b629fe3770c8e1f53", "fusion_lon": 0.0, "type": "electric_scooter"}, {"rental_uris": {"ios": "https://dc.lft.to/lastmile_qr_scan", "android": "https://dc.lft.to/lastmile_qr_scan"}, "lat": 38.91789083333333, "lon": -77.02303783333333, "fusion_lat": 0.0, "name": "092a520d5f8b0e6d70ab4d354f8ffbd7", "is_disabled": 0, "is_reserved": 0, "bike_id": "092a520d5f8b0e6d70ab4d354f8ffbd7", "fusion_lon": 0.0, "type": "electric_scooter"}, {"rental_uris": {"ios": "https://dc.lft.to/lastmile_qr_scan", "android": "https://dc.lft.to/lastmile_qr_scan"}, "lat": 38.910579, "lon": -77.0410255, "fusion_lat": 0.0, "name": "4f0c5125c4e6cd75c5923334b6477fde", "is_disabled": 0, "is_reserved": 0, "bike_id": "4f0c5125c4e6cd75c5923334b6477fde", "fusion_lon": 0.0, "type": "electric_scooter"}, {"rental_uris": {"ios": "https://dc.lft.to/lastmile_qr_scan", "android": "https://dc.lft.to/lastmile_qr_scan"}, "lat": 38.883910166666666, "lon": -77.09985616666667, "fusion_lat": 0.0, "name": "1d2ca2a96b4f2502aba4b44e8336d56a", "is_disabled": 0, "is_reserved": 0, "bike_id": "1d2ca2a96b4f2502aba4b44e8336d56a", "fusion_lon": 0.0, "type": "electric_bike"}, {"rental_uris": {"ios": "https://dc.lft.to/lastmile_qr_scan", "android": "https://dc.lft.to/lastmile_qr_scan"}, "lat": 38.917076333333334, "lon": -77.0319105, "fusion_lat": 0.0, "name": "66e9f4f389dac48a6b592dfa4c6dbcbb", "is_disabled": 0, "is_reserved": 0, "bike_id": "66e9f4f389dac48a6b592dfa4c6dbcbb", "fusion_lon": 0.0, "type": "electric_scooter"}, {"rental_uris": {"ios": "https://dc.lft.to/lastmile_qr_scan", "android": "https://dc.lft.to/lastmile_qr_scan"}, "lat": 38.86024616666667, "lon": -76.996828, "fusion_lat": 0.0, "name": "82c6ff4bba07bde414be67014fe6a26d", "is_disabled": 0, "is_reserved": 0, "bike_id": "82c6ff4bba07bde414be67014fe6a26d", "fusion_lon": 0.0, "type": "electric_scooter"}, {"rental_uris": {"ios": "https://dc.lft.to/lastmile_qr_scan", "android": "https://dc.lft.to/lastmile_qr_scan"}, "lat": 38.9081515, "lon": -77.03445883333333, "fusion_lat": 0.0, "name": "1787793e77b2e76b15d3df9c18e33123", "is_disabled": 0, "is_reserved": 0, "bike_id": "1787793e77b2e76b15d3df9c18e33123", "fusion_lon": 0.0, "type": "electric_scooter"}, {"rental_uris": {"ios": "https://dc.lft.to/lastmile_qr_scan", "android": "https://dc.lft.to/lastmile_qr_scan"}, "lat": 38.892389333333334, "lon": -77.033495, "fusion_lat": 0.0, "name": "f5e158182f87a3008ee5d0b3f9b06290", "is_disabled": 0, "is_reserved": 0, "bike_id": "f5e158182f87a3008ee5d0b3f9b06290", "fusion_lon": 0.0, "type": "electric_scooter"}, {"rental_uris": {"ios": "https://dc.lft.to/lastmile_qr_scan", "android": "https://dc.lft.to/lastmile_qr_scan"}, "lat": 38.92487633333333, "lon": -77.03182583333333, "fusion_lat": 0.0, "name": "08c99bc7aa60024f0d14bd2b006dd2c6", "is_disabled": 0, "is_reserved": 0, "bike_id": "08c99bc7aa60024f0d14bd2b006dd2c6", "fusion_lon": 0.0, "type": "electric_scooter"}, {"rental_uris": {"ios": "https://dc.lft.to/lastmile_qr_scan", "android": "https://dc.lft.to/lastmile_qr_scan"}, "lat": 38.91125016666667, "lon": -77.0433435, "fusion_lat": 0.0, "name": "22d3c00af812d66a1335a4afeec43e67", "is_disabled": 0, "is_reserved": 0, "bike_id": "22d3c00af812d66a1335a4afeec43e67", "fusion_lon": 0.0, "type": "electric_scooter"}, {"rental_uris": {"ios": "https://dc.lft.to/lastmile_qr_scan", "android": "https://dc.lft.to/lastmile_qr_scan"}, "lat": 38.89623516666666, "lon": -77.02247733333333, "fusion_lat": 0.0, "name": "90975c5dcf4bf9b82183789b8e48402a", "is_disabled": 0, "is_reserved": 0, "bike_id": "90975c5dcf4bf9b82183789b8e48402a", "fusion_lon": 0.0, "type": "electric_scooter"}, {"rental_uris": {"ios": "https://dc.lft.to/lastmile_qr_scan", "android": "https://dc.lft.to/lastmile_qr_scan"}, "lat": 38.88853866666667, "lon": -77.000509, "fusion_lat": 0.0, "name": "9fe93d51fc2dcc5f15a18172b31de541", "is_disabled": 0, "is_reserved": 0, "bike_id": "9fe93d51fc2dcc5f15a18172b31de541", "fusion_lon": 0.0, "type": "electric_scooter"}, {"rental_uris": {"ios": "https://dc.lft.to/lastmile_qr_scan", "android": "https://dc.lft.to/lastmile_qr_scan"}, "lat": 38.908585, "lon": -77.054827, "fusion_lat": 0.0, "name": "87a8dbd7bcbaee4db9c29507b008191f", "is_disabled": 0, "is_reserved": 0, "bike_id": "87a8dbd7bcbaee4db9c29507b008191f", "fusion_lon": 0.0, "type": "electric_scooter"}, {"rental_uris": {"ios": "https://dc.lft.to/lastmile_qr_scan", "android": "https://dc.lft.to/lastmile_qr_scan"}, "lat": 38.90423533333333, "lon": -77.04353083333334, "fusion_lat": 0.0, "name": "6139cd4f8f09df87370df319c6cb5b1f", "is_disabled": 0, "is_reserved": 0, "bike_id": "6139cd4f8f09df87370df319c6cb5b1f", "fusion_lon": 0.0, "type": "electric_scooter"}, {"rental_uris": {"ios": "https://dc.lft.to/lastmile_qr_scan", "android": "https://dc.lft.to/lastmile_qr_scan"}, "lat": 38.908522833333336, "lon": -76.99800966666666, "fusion_lat": 0.0, "name": "fbe8d107473fae800c7eee1e42be0729", "is_disabled": 0, "is_reserved": 0, "bike_id": "fbe8d107473fae800c7eee1e42be0729", "fusion_lon": 0.0, "type": "electric_scooter"}, {"rental_uris": {"ios": "https://dc.lft.to/lastmile_qr_scan", "android": "https://dc.lft.to/lastmile_qr_scan"}, "lat": 38.91660983333333, "lon": -77.02328433333334, "fusion_lat": 0.0, "name": "7d3297e9e7f05df192e4a96c25dce3d8", "is_disabled": 0, "is_reserved": 0, "bike_id": "7d3297e9e7f05df192e4a96c25dce3d8", "fusion_lon": 0.0, "type": "electric_scooter"}, {"rental_uris": {"ios": "https://dc.lft.to/lastmile_qr_scan", "android": "https://dc.lft.to/lastmile_qr_scan"}, "lat": 38.950744, "lon": -77.02986483333333, "fusion_lat": 0.0, "name": "225711f2e17cd10fdfe7aace6eb6524c", "is_disabled": 0, "is_reserved": 0, "bike_id": "225711f2e17cd10fdfe7aace6eb6524c", "fusion_lon": 0.0, "type": "electric_scooter"}, {"rental_uris": {"ios": "https://dc.lft.to/lastmile_qr_scan", "android": "https://dc.lft.to/lastmile_qr_scan"}, "lat": 38.90728816666667, "lon": -77.0237635, "fusion_lat": 0.0, "name": "ce5cd932e6123726bb3ffe10b4530972", "is_disabled": 0, "is_reserved": 0, "bike_id": "ce5cd932e6123726bb3ffe10b4530972", "fusion_lon": 0.0, "type": "electric_scooter"}, {"rental_uris": {"ios": "https://dc.lft.to/lastmile_qr_scan", "android": "https://dc.lft.to/lastmile_qr_scan"}, "lat": 38.907655, "lon": -77.0346575, "fusion_lat": 0.0, "name": "023874ff263e8eaae4ad99585fb22f05", "is_disabled": 0, "is_reserved": 0, "bike_id": "023874ff263e8eaae4ad99585fb22f05", "fusion_lon": 0.0, "type": "electric_scooter"}, {"rental_uris": {"ios": "https://dc.lft.to/lastmile_qr_scan", "android": "https://dc.lft.to/lastmile_qr_scan"}, "lat": 38.9387925, "lon": -77.0338835, "fusion_lat": 0.0, "name": "40e35c251fcffff297f74b58fff415ea", "is_disabled": 0, "is_reserved": 0, "bike_id": "40e35c251fcffff297f74b58fff415ea", "fusion_lon": 0.0, "type": "electric_scooter"}, {"rental_uris": {"ios": "https://dc.lft.to/lastmile_qr_scan", "android": "https://dc.lft.to/lastmile_qr_scan"}, "lat": 38.90404383333333, "lon": -77.04868833333333, "fusion_lat": 0.0, "name": "1767872a00ea7da6bcdefa40e3f0684c", "is_disabled": 0, "is_reserved": 0, "bike_id": "1767872a00ea7da6bcdefa40e3f0684c", "fusion_lon": 0.0, "type": "electric_scooter"}, {"rental_uris": {"ios": "https://dc.lft.to/lastmile_qr_scan", "android": "https://dc.lft.to/lastmile_qr_scan"}, "lat": 38.96404666666667, "lon": -76.99989583333333, "fusion_lat": 0.0, "name": "2eca741502a2c4ff95601aa4de4fac8c", "is_disabled": 0, "is_reserved": 0, "bike_id": "2eca741502a2c4ff95601aa4de4fac8c", "fusion_lon": 0.0, "type": "electric_bike"}, {"rental_uris": {"ios": "https://dc.lft.to/lastmile_qr_scan", "android": "https://dc.lft.to/lastmile_qr_scan"}, "lat": 38.89909566666667, "lon": -77.0282695, "fusion_lat": 0.0, "name": "3efeb3e53a2d9c399c5523b5e78d7dde", "is_disabled": 0, "is_reserved": 0, "bike_id": "3efeb3e53a2d9c399c5523b5e78d7dde", "fusion_lon": 0.0, "type": "electric_scooter"}, {"rental_uris": {"ios": "https://dc.lft.to/lastmile_qr_scan", "android": "https://dc.lft.to/lastmile_qr_scan"}, "lat": 38.8955235, "lon": -77.046841, "fusion_lat": 0.0, "name": "ea1b3f67f110ad088f8bb3fe37a14457", "is_disabled": 0, "is_reserved": 0, "bike_id": "ea1b3f67f110ad088f8bb3fe37a14457", "fusion_lon": 0.0, "type": "electric_scooter"}, {"rental_uris": {"ios": "https://dc.lft.to/lastmile_qr_scan", "android": "https://dc.lft.to/lastmile_qr_scan"}, "lat": 38.90492183333333, "lon": -77.04353116666667, "fusion_lat": 0.0, "name": "617dc8e2009da073daa0c08a4d7f40ee", "is_disabled": 0, "is_reserved": 0, "bike_id": "617dc8e2009da073daa0c08a4d7f40ee", "fusion_lon": 0.0, "type": "electric_scooter"}, {"rental_uris": {"ios": "https://dc.lft.to/lastmile_qr_scan", "android": "https://dc.lft.to/lastmile_qr_scan"}, "lat": 38.903947333333335, "lon": -77.06298616666666, "fusion_lat": 0.0, "name": "1aa778d43c5d50b83e2327cb91f7c14d", "is_disabled": 0, "is_reserved": 0, "bike_id": "1aa778d43c5d50b83e2327cb91f7c14d", "fusion_lon": 0.0, "type": "electric_scooter"}, {"rental_uris": {"ios": "https://dc.lft.to/lastmile_qr_scan", "android": "https://dc.lft.to/lastmile_qr_scan"}, "lat": 38.91708833333333, "lon": -77.03917583333333, "fusion_lat": 0.0, "name": "b560614389d2c7217d5d1b153459e5aa", "is_disabled": 0, "is_reserved": 0, "bike_id": "b560614389d2c7217d5d1b153459e5aa", "fusion_lon": 0.0, "type": "electric_scooter"}, {"rental_uris": {"ios": "https://dc.lft.to/lastmile_qr_scan", "android": "https://dc.lft.to/lastmile_qr_scan"}, "lat": 38.90737816666667, "lon": -77.0024085, "fusion_lat": 0.0, "name": "abbc411602d9213ad9981eb6215a07f2", "is_disabled": 0, "is_reserved": 0, "bike_id": "abbc411602d9213ad9981eb6215a07f2", "fusion_lon": 0.0, "type": "electric_scooter"}, {"rental_uris": {"ios": "https://dc.lft.to/lastmile_qr_scan", "android": "https://dc.lft.to/lastmile_qr_scan"}, "lat": 38.91894466666667, "lon": -77.0448905, "fusion_lat": 0.0, "name": "c94575fe89697f6899d989f84668488d", "is_disabled": 0, "is_reserved": 0, "bike_id": "c94575fe89697f6899d989f84668488d", "fusion_lon": 0.0, "type": "electric_scooter"}, {"rental_uris": {"ios": "https://dc.lft.to/lastmile_qr_scan", "android": "https://dc.lft.to/lastmile_qr_scan"}, "lat": 38.9196035, "lon": -77.02392733333333, "fusion_lat": 0.0, "name": "4eba1229bb1447b57c17b78008d8ce6e", "is_disabled": 0, "is_reserved": 0, "bike_id": "4eba1229bb1447b57c17b78008d8ce6e", "fusion_lon": 0.0, "type": "electric_scooter"}, {"rental_uris": {"ios": "https://dc.lft.to/lastmile_qr_scan", "android": "https://dc.lft.to/lastmile_qr_scan"}, "lat": 38.90508416666667, "lon": -77.04065933333334, "fusion_lat": 0.0, "name": "5f75322cc5ebb658b3b62a8f46a93d8a", "is_disabled": 0, "is_reserved": 0, "bike_id": "5f75322cc5ebb658b3b62a8f46a93d8a", "fusion_lon": 0.0, "type": "electric_scooter"}, {"rental_uris": {"ios": "https://dc.lft.to/lastmile_qr_scan", "android": "https://dc.lft.to/lastmile_qr_scan"}, "lat": 38.9170705, "lon": -77.09578666666667, "fusion_lat": 0.0, "name": "cb47ad766a9a61717e1446386eb61d6d", "is_disabled": 0, "is_reserved": 0, "bike_id": "cb47ad766a9a61717e1446386eb61d6d", "fusion_lon": 0.0, "type": "electric_scooter"}, {"rental_uris": {"ios": "https://dc.lft.to/lastmile_qr_scan", "android": "https://dc.lft.to/lastmile_qr_scan"}, "lat": 38.883873333333334, "lon": -77.01769783333333, "fusion_lat": 0.0, "name": "fa93fc8e5f60d3de6a9ecf13d56064c5", "is_disabled": 0, "is_reserved": 0, "bike_id": "fa93fc8e5f60d3de6a9ecf13d56064c5", "fusion_lon": 0.0, "type": "electric_scooter"}, {"rental_uris": {"ios": "https://dc.lft.to/lastmile_qr_scan", "android": "https://dc.lft.to/lastmile_qr_scan"}, "lat": 38.929556, "lon": -77.0234795, "fusion_lat": 0.0, "name": "9afd6be0dfa466150edd27f5cf8a5257", "is_disabled": 0, "is_reserved": 0, "bike_id": "9afd6be0dfa466150edd27f5cf8a5257", "fusion_lon": 0.0, "type": "electric_scooter"}, {"rental_uris": {"ios": "https://dc.lft.to/lastmile_qr_scan", "android": "https://dc.lft.to/lastmile_qr_scan"}, "lat": 38.9173715, "lon": -77.06847866666666, "fusion_lat": 0.0, "name": "348046d1e9c951fa4a6a69ff77d8af06", "is_disabled": 0, "is_reserved": 0, "bike_id": "348046d1e9c951fa4a6a69ff77d8af06", "fusion_lon": 0.0, "type": "electric_scooter"}, {"rental_uris": {"ios": "https://dc.lft.to/lastmile_qr_scan", "android": "https://dc.lft.to/lastmile_qr_scan"}, "lat": 38.90245766666666, "lon": -77.05903466666666, "fusion_lat": 0.0, "name": "cd795be724b849e63b1ce278da3fa06d", "is_disabled": 0, "is_reserved": 0, "bike_id": "cd795be724b849e63b1ce278da3fa06d", "fusion_lon": 0.0, "type": "electric_scooter"}, {"rental_uris": {"ios": "https://dc.lft.to/lastmile_qr_scan", "android": "https://dc.lft.to/lastmile_qr_scan"}, "lat": 38.9434605, "lon": -77.03762366666666, "fusion_lat": 0.0, "name": "5ea1c2b79101850dc70999476fb6770e", "is_disabled": 0, "is_reserved": 0, "bike_id": "5ea1c2b79101850dc70999476fb6770e", "fusion_lon": 0.0, "type": "electric_scooter"}, {"rental_uris": {"ios": "https://dc.lft.to/lastmile_qr_scan", "android": "https://dc.lft.to/lastmile_qr_scan"}, "lat": 38.866833166666666, "lon": -76.985768, "fusion_lat": 0.0, "name": "74c070c252c044ebe60687190affe1e5", "is_disabled": 0, "is_reserved": 0, "bike_id": "74c070c252c044ebe60687190affe1e5", "fusion_lon": 0.0, "type": "electric_scooter"}, {"rental_uris": {"ios": "https://dc.lft.to/lastmile_qr_scan", "android": "https://dc.lft.to/lastmile_qr_scan"}, "lat": 38.916797833333334, "lon": -77.02311583333334, "fusion_lat": 0.0, "name": "58aae0122fe311c96a7da6a5e46aaaef", "is_disabled": 0, "is_reserved": 0, "bike_id": "58aae0122fe311c96a7da6a5e46aaaef", "fusion_lon": 0.0, "type": "electric_scooter"}, {"rental_uris": {"ios": "https://dc.lft.to/lastmile_qr_scan", "android": "https://dc.lft.to/lastmile_qr_scan"}, "lat": 38.918999, "lon": -77.02405766666666, "fusion_lat": 0.0, "name": "7c5488b3748b0384796bec12933bfb05", "is_disabled": 0, "is_reserved": 0, "bike_id": "7c5488b3748b0384796bec12933bfb05", "fusion_lon": 0.0, "type": "electric_scooter"}, {"rental_uris": {"ios": "https://dc.lft.to/lastmile_qr_scan", "android": "https://dc.lft.to/lastmile_qr_scan"}, "lat": 38.905332333333334, "lon": -77.041744, "fusion_lat": 0.0, "name": "8d720efd4a5892222e73aa023c84133f", "is_disabled": 0, "is_reserved": 0, "bike_id": "8d720efd4a5892222e73aa023c84133f", "fusion_lon": 0.0, "type": "electric_scooter"}, {"rental_uris": {"ios": "https://dc.lft.to/lastmile_qr_scan", "android": "https://dc.lft.to/lastmile_qr_scan"}, "lat": 38.916767, "lon": -77.0238855, "fusion_lat": 0.0, "name": "462450b39506d0bf74b654c2e43ade28", "is_disabled": 0, "is_reserved": 0, "bike_id": "462450b39506d0bf74b654c2e43ade28", "fusion_lon": 0.0, "type": "electric_scooter"}, {"rental_uris": {"ios": "https://dc.lft.to/lastmile_qr_scan", "android": "https://dc.lft.to/lastmile_qr_scan"}, "lat": 38.9320105, "lon": -77.03855, "fusion_lat": 0.0, "name": "b01095d09eb57d9e770a80c1a051ea65", "is_disabled": 0, "is_reserved": 0, "bike_id": "b01095d09eb57d9e770a80c1a051ea65", "fusion_lon": 0.0, "type": "electric_scooter"}, {"rental_uris": {"ios": "https://dc.lft.to/lastmile_qr_scan", "android": "https://dc.lft.to/lastmile_qr_scan"}, "lat": 38.892942833333336, "lon": -77.04874716666667, "fusion_lat": 0.0, "name": "041469eaf3e82d8a1cb18e556f219ca6", "is_disabled": 0, "is_reserved": 0, "bike_id": "041469eaf3e82d8a1cb18e556f219ca6", "fusion_lon": 0.0, "type": "electric_scooter"}, {"rental_uris": {"ios": "https://dc.lft.to/lastmile_qr_scan", "android": "https://dc.lft.to/lastmile_qr_scan"}, "lat": 38.8716155, "lon": -77.01354433333333, "fusion_lat": 0.0, "name": "c8de8b9deae7899dd8954c9c50e67a62", "is_disabled": 0, "is_reserved": 0, "bike_id": "c8de8b9deae7899dd8954c9c50e67a62", "fusion_lon": 0.0, "type": "electric_scooter"}, {"rental_uris": {"ios": "https://dc.lft.to/lastmile_qr_scan", "android": "https://dc.lft.to/lastmile_qr_scan"}, "lat": 38.9054775, "lon": -77.03244466666666, "fusion_lat": 0.0, "name": "8a5baddf65c644999121c0486ce9e208", "is_disabled": 0, "is_reserved": 0, "bike_id": "8a5baddf65c644999121c0486ce9e208", "fusion_lon": 0.0, "type": "electric_scooter"}, {"rental_uris": {"ios": "https://dc.lft.to/lastmile_qr_scan", "android": "https://dc.lft.to/lastmile_qr_scan"}, "lat": 38.906402666666665, "lon": -77.01831516666667, "fusion_lat": 0.0, "name": "64c50d1ad33e3b89096e01c03e716d3c", "is_disabled": 0, "is_reserved": 0, "bike_id": "64c50d1ad33e3b89096e01c03e716d3c", "fusion_lon": 0.0, "type": "electric_scooter"}, {"rental_uris": {"ios": "https://dc.lft.to/lastmile_qr_scan", "android": "https://dc.lft.to/lastmile_qr_scan"}, "lat": 38.9180765, "lon": -77.03435983333334, "fusion_lat": 0.0, "name": "2af1da290d7926aef208c5871d55c23d", "is_disabled": 0, "is_reserved": 0, "bike_id": "2af1da290d7926aef208c5871d55c23d", "fusion_lon": 0.0, "type": "electric_scooter"}, {"rental_uris": {"ios": "https://dc.lft.to/lastmile_qr_scan", "android": "https://dc.lft.to/lastmile_qr_scan"}, "lat": 38.892310333333334, "lon": -77.04997316666666, "fusion_lat": 0.0, "name": "f8e47215b1e4e5a52dfa02a3dfa40cc7", "is_disabled": 0, "is_reserved": 0, "bike_id": "f8e47215b1e4e5a52dfa02a3dfa40cc7", "fusion_lon": 0.0, "type": "electric_scooter"}, {"rental_uris": {"ios": "https://dc.lft.to/lastmile_qr_scan", "android": "https://dc.lft.to/lastmile_qr_scan"}, "lat": 38.907059333333336, "lon": -77.03196633333333, "fusion_lat": 0.0, "name": "ac22f8ed1c110ccca8ade678bcdfc922", "is_disabled": 0, "is_reserved": 0, "bike_id": "ac22f8ed1c110ccca8ade678bcdfc922", "fusion_lon": 0.0, "type": "electric_scooter"}, {"rental_uris": {"ios": "https://dc.lft.to/lastmile_qr_scan", "android": "https://dc.lft.to/lastmile_qr_scan"}, "lat": 38.874623666666665, "lon": -77.00491716666667, "fusion_lat": 0.0, "name": "785a690405cb05403fd0674dd4fb1304", "is_disabled": 0, "is_reserved": 0, "bike_id": "785a690405cb05403fd0674dd4fb1304", "fusion_lon": 0.0, "type": "electric_scooter"}, {"rental_uris": {"ios": "https://dc.lft.to/lastmile_qr_scan", "android": "https://dc.lft.to/lastmile_qr_scan"}, "lat": 38.884162833333335, "lon": -77.00058583333333, "fusion_lat": 0.0, "name": "df75d967cd4ae67b46639f220a113444", "is_disabled": 0, "is_reserved": 0, "bike_id": "df75d967cd4ae67b46639f220a113444", "fusion_lon": 0.0, "type": "electric_scooter"}, {"rental_uris": {"ios": "https://dc.lft.to/lastmile_qr_scan", "android": "https://dc.lft.to/lastmile_qr_scan"}, "lat": 38.96192283333333, "lon": -77.02797166666667, "fusion_lat": 0.0, "name": "dc713da6ecf19731f7f150ba99c557bd", "is_disabled": 0, "is_reserved": 0, "bike_id": "dc713da6ecf19731f7f150ba99c557bd", "fusion_lon": 0.0, "type": "electric_bike"}, {"rental_uris": {"ios": "https://dc.lft.to/lastmile_qr_scan", "android": "https://dc.lft.to/lastmile_qr_scan"}, "lat": 38.897409333333336, "lon": -77.02713116666666, "fusion_lat": 0.0, "name": "6c2916a8f8363cc9a9f32f62d4360c1e", "is_disabled": 0, "is_reserved": 0, "bike_id": "6c2916a8f8363cc9a9f32f62d4360c1e", "fusion_lon": 0.0, "type": "electric_scooter"}, {"rental_uris": {"ios": "https://dc.lft.to/lastmile_qr_scan", "android": "https://dc.lft.to/lastmile_qr_scan"}, "lat": 38.901080666666665, "lon": -77.05135116666666, "fusion_lat": 0.0, "name": "9e15ad20dc358e0075113ba22257c0e5", "is_disabled": 0, "is_reserved": 0, "bike_id": "9e15ad20dc358e0075113ba22257c0e5", "fusion_lon": 0.0, "type": "electric_scooter"}, {"rental_uris": {"ios": "https://dc.lft.to/lastmile_qr_scan", "android": "https://dc.lft.to/lastmile_qr_scan"}, "lat": 38.900162333333334, "lon": -77.04575666666666, "fusion_lat": 0.0, "name": "b22d7f38e87a2030606dec78d3a03603", "is_disabled": 0, "is_reserved": 0, "bike_id": "b22d7f38e87a2030606dec78d3a03603", "fusion_lon": 0.0, "type": "electric_scooter"}, {"rental_uris": {"ios": "https://dc.lft.to/lastmile_qr_scan", "android": "https://dc.lft.to/lastmile_qr_scan"}, "lat": 38.89254833333333, "lon": -76.92569866666666, "fusion_lat": 0.0, "name": "a5080e80148c77262362ad05c82e0349", "is_disabled": 0, "is_reserved": 0, "bike_id": "a5080e80148c77262362ad05c82e0349", "fusion_lon": 0.0, "type": "electric_scooter"}, {"rental_uris": {"ios": "https://dc.lft.to/lastmile_qr_scan", "android": "https://dc.lft.to/lastmile_qr_scan"}, "lat": 38.90017866666667, "lon": -77.04508933333334, "fusion_lat": 0.0, "name": "4320121db6681c1260613d76238242fc", "is_disabled": 0, "is_reserved": 0, "bike_id": "4320121db6681c1260613d76238242fc", "fusion_lon": 0.0, "type": "electric_scooter"}, {"rental_uris": {"ios": "https://dc.lft.to/lastmile_qr_scan", "android": "https://dc.lft.to/lastmile_qr_scan"}, "lat": 38.8768525, "lon": -77.00698383333334, "fusion_lat": 0.0, "name": "fd330cddf06fc43c970097442e96b061", "is_disabled": 0, "is_reserved": 0, "bike_id": "fd330cddf06fc43c970097442e96b061", "fusion_lon": 0.0, "type": "electric_scooter"}, {"rental_uris": {"ios": "https://dc.lft.to/lastmile_qr_scan", "android": "https://dc.lft.to/lastmile_qr_scan"}, "lat": 38.93068433333333, "lon": -77.05830433333334, "fusion_lat": 0.0, "name": "94b4cfbd170199f42c09644754b40f6c", "is_disabled": 0, "is_reserved": 0, "bike_id": "94b4cfbd170199f42c09644754b40f6c", "fusion_lon": 0.0, "type": "electric_scooter"}, {"rental_uris": {"ios": "https://dc.lft.to/lastmile_qr_scan", "android": "https://dc.lft.to/lastmile_qr_scan"}, "lat": 38.87762566666667, "lon": -77.01049766666667, "fusion_lat": 0.0, "name": "ef7f1751f6df003da027becb78b8f3a6", "is_disabled": 0, "is_reserved": 0, "bike_id": "ef7f1751f6df003da027becb78b8f3a6", "fusion_lon": 0.0, "type": "electric_bike"}, {"rental_uris": {"ios": "https://dc.lft.to/lastmile_qr_scan", "android": "https://dc.lft.to/lastmile_qr_scan"}, "lat": 38.90748766666667, "lon": -77.032091, "fusion_lat": 0.0, "name": "650da2f3fe7466cba44f0c6d18da9f8c", "is_disabled": 0, "is_reserved": 0, "bike_id": "650da2f3fe7466cba44f0c6d18da9f8c", "fusion_lon": 0.0, "type": "electric_scooter"}, {"rental_uris": {"ios": "https://dc.lft.to/lastmile_qr_scan", "android": "https://dc.lft.to/lastmile_qr_scan"}, "lat": 38.898415166666666, "lon": -77.048338, "fusion_lat": 0.0, "name": "07f196c7f882fc062237ae3dc94c6fcd", "is_disabled": 0, "is_reserved": 0, "bike_id": "07f196c7f882fc062237ae3dc94c6fcd", "fusion_lon": 0.0, "type": "electric_scooter"}, {"rental_uris": {"ios": "https://dc.lft.to/lastmile_qr_scan", "android": "https://dc.lft.to/lastmile_qr_scan"}, "lat": 38.919886, "lon": -77.02974616666667, "fusion_lat": 0.0, "name": "78da7a5a2f1ac8b453102773b41fa6bb", "is_disabled": 0, "is_reserved": 0, "bike_id": "78da7a5a2f1ac8b453102773b41fa6bb", "fusion_lon": 0.0, "type": "electric_scooter"}, {"rental_uris": {"ios": "https://dc.lft.to/lastmile_qr_scan", "android": "https://dc.lft.to/lastmile_qr_scan"}, "lat": 38.91060733333333, "lon": -77.05515383333334, "fusion_lat": 0.0, "name": "5ae0471b84b64e591331ccc31765c724", "is_disabled": 0, "is_reserved": 0, "bike_id": "5ae0471b84b64e591331ccc31765c724", "fusion_lon": 0.0, "type": "electric_bike"}, {"rental_uris": {"ios": "https://dc.lft.to/lastmile_qr_scan", "android": "https://dc.lft.to/lastmile_qr_scan"}, "lat": 38.8791275, "lon": -77.02366833333333, "fusion_lat": 0.0, "name": "eb8f7d01f3145f03cef9fc4e2dd83efc", "is_disabled": 0, "is_reserved": 0, "bike_id": "eb8f7d01f3145f03cef9fc4e2dd83efc", "fusion_lon": 0.0, "type": "electric_scooter"}, {"rental_uris": {"ios": "https://dc.lft.to/lastmile_qr_scan", "android": "https://dc.lft.to/lastmile_qr_scan"}, "lat": 38.90044316666667, "lon": -76.98287433333333, "fusion_lat": 0.0, "name": "0f4d121eb78eca814fe4ce1a379c18e6", "is_disabled": 0, "is_reserved": 0, "bike_id": "0f4d121eb78eca814fe4ce1a379c18e6", "fusion_lon": 0.0, "type": "electric_scooter"}, {"rental_uris": {"ios": "https://dc.lft.to/lastmile_qr_scan", "android": "https://dc.lft.to/lastmile_qr_scan"}, "lat": 38.948203666666664, "lon": -77.024864, "fusion_lat": 0.0, "name": "7fc29b86d8c589f2c7979d1d0569d5e3", "is_disabled": 0, "is_reserved": 0, "bike_id": "7fc29b86d8c589f2c7979d1d0569d5e3", "fusion_lon": 0.0, "type": "electric_scooter"}, {"rental_uris": {"ios": "https://dc.lft.to/lastmile_qr_scan", "android": "https://dc.lft.to/lastmile_qr_scan"}, "lat": 38.86213016666667, "lon": -76.99480566666666, "fusion_lat": 0.0, "name": "d4d5e0e3dbb75906fb10f63431db0734", "is_disabled": 0, "is_reserved": 0, "bike_id": "d4d5e0e3dbb75906fb10f63431db0734", "fusion_lon": 0.0, "type": "electric_scooter"}, {"rental_uris": {"ios": "https://dc.lft.to/lastmile_qr_scan", "android": "https://dc.lft.to/lastmile_qr_scan"}, "lat": 38.9250765, "lon": -77.00225016666667, "fusion_lat": 0.0, "name": "f9f16c3eac5f791227d8b5e323a573ee", "is_disabled": 0, "is_reserved": 0, "bike_id": "f9f16c3eac5f791227d8b5e323a573ee", "fusion_lon": 0.0, "type": "electric_scooter"}, {"rental_uris": {"ios": "https://dc.lft.to/lastmile_qr_scan", "android": "https://dc.lft.to/lastmile_qr_scan"}, "lat": 38.931793666666664, "lon": -77.04298433333334, "fusion_lat": 0.0, "name": "4406c083c34c2e3ff236e6faf8afe1f9", "is_disabled": 0, "is_reserved": 0, "bike_id": "4406c083c34c2e3ff236e6faf8afe1f9", "fusion_lon": 0.0, "type": "electric_scooter"}, {"rental_uris": {"ios": "https://dc.lft.to/lastmile_qr_scan", "android": "https://dc.lft.to/lastmile_qr_scan"}, "lat": 38.898504833333334, "lon": -76.9290755, "fusion_lat": 0.0, "name": "ac74e8fe0d24bf3c0ee09ae155b07e76", "is_disabled": 0, "is_reserved": 0, "bike_id": "ac74e8fe0d24bf3c0ee09ae155b07e76", "fusion_lon": 0.0, "type": "electric_scooter"}, {"rental_uris": {"ios": "https://dc.lft.to/lastmile_qr_scan", "android": "https://dc.lft.to/lastmile_qr_scan"}, "lat": 38.9113285, "lon": -77.028, "fusion_lat": 0.0, "name": "69b70ebaf80c2d5d93096e42c3380ca9", "is_disabled": 0, "is_reserved": 0, "bike_id": "69b70ebaf80c2d5d93096e42c3380ca9", "fusion_lon": 0.0, "type": "electric_scooter"}, {"rental_uris": {"ios": "https://dc.lft.to/lastmile_qr_scan", "android": "https://dc.lft.to/lastmile_qr_scan"}, "lat": 38.9277495, "lon": -77.05260233333334, "fusion_lat": 0.0, "name": "4c20fbf25724fbe5eeee9289bc3f21d6", "is_disabled": 0, "is_reserved": 0, "bike_id": "4c20fbf25724fbe5eeee9289bc3f21d6", "fusion_lon": 0.0, "type": "electric_scooter"}, {"rental_uris": {"ios": "https://dc.lft.to/lastmile_qr_scan", "android": "https://dc.lft.to/lastmile_qr_scan"}, "lat": 38.90872666666667, "lon": -77.03225733333333, "fusion_lat": 0.0, "name": "39d90c20080ed7daaa8269c227576e9c", "is_disabled": 0, "is_reserved": 0, "bike_id": "39d90c20080ed7daaa8269c227576e9c", "fusion_lon": 0.0, "type": "electric_scooter"}, {"rental_uris": {"ios": "https://dc.lft.to/lastmile_qr_scan", "android": "https://dc.lft.to/lastmile_qr_scan"}, "lat": 38.93819416666667, "lon": -77.07163366666667, "fusion_lat": 0.0, "name": "f6be5912c0995869e7428ceb3b8565c7", "is_disabled": 0, "is_reserved": 0, "bike_id": "f6be5912c0995869e7428ceb3b8565c7", "fusion_lon": 0.0, "type": "electric_scooter"}, {"rental_uris": {"ios": "https://dc.lft.to/lastmile_qr_scan", "android": "https://dc.lft.to/lastmile_qr_scan"}, "lat": 38.903972833333334, "lon": -77.06519083333333, "fusion_lat": 0.0, "name": "139f80723f62bea4f4676ec920674a88", "is_disabled": 0, "is_reserved": 0, "bike_id": "139f80723f62bea4f4676ec920674a88", "fusion_lon": 0.0, "type": "electric_scooter"}, {"rental_uris": {"ios": "https://dc.lft.to/lastmile_qr_scan", "android": "https://dc.lft.to/lastmile_qr_scan"}, "lat": 38.902270666666666, "lon": -77.019903, "fusion_lat": 0.0, "name": "1129b5d54799852775c5c4cc119c7bee", "is_disabled": 0, "is_reserved": 0, "bike_id": "1129b5d54799852775c5c4cc119c7bee", "fusion_lon": 0.0, "type": "electric_scooter"}, {"rental_uris": {"ios": "https://dc.lft.to/lastmile_qr_scan", "android": "https://dc.lft.to/lastmile_qr_scan"}, "lat": 38.91185466666667, "lon": -77.03859083333333, "fusion_lat": 0.0, "name": "700a882e16757d8531bb16a302b93ff0", "is_disabled": 0, "is_reserved": 0, "bike_id": "700a882e16757d8531bb16a302b93ff0", "fusion_lon": 0.0, "type": "electric_scooter"}, {"rental_uris": {"ios": "https://dc.lft.to/lastmile_qr_scan", "android": "https://dc.lft.to/lastmile_qr_scan"}, "lat": 38.908612833333336, "lon": -77.02705683333333, "fusion_lat": 0.0, "name": "bf4d29876eadf292b077a72bf4baf86d", "is_disabled": 0, "is_reserved": 0, "bike_id": "bf4d29876eadf292b077a72bf4baf86d", "fusion_lon": 0.0, "type": "electric_scooter"}, {"rental_uris": {"ios": "https://dc.lft.to/lastmile_qr_scan", "android": "https://dc.lft.to/lastmile_qr_scan"}, "lat": 38.9236585, "lon": -77.05042383333333, "fusion_lat": 0.0, "name": "f6c2bae99b5e366326f9d7b80d0caf70", "is_disabled": 0, "is_reserved": 0, "bike_id": "f6c2bae99b5e366326f9d7b80d0caf70", "fusion_lon": 0.0, "type": "electric_scooter"}, {"rental_uris": {"ios": "https://dc.lft.to/lastmile_qr_scan", "android": "https://dc.lft.to/lastmile_qr_scan"}, "lat": 38.89847016666667, "lon": -77.0449405, "fusion_lat": 0.0, "name": "6571e6e7c32fe9a8789f59de4c982d6d", "is_disabled": 0, "is_reserved": 0, "bike_id": "6571e6e7c32fe9a8789f59de4c982d6d", "fusion_lon": 0.0, "type": "electric_scooter"}, {"rental_uris": {"ios": "https://dc.lft.to/lastmile_qr_scan", "android": "https://dc.lft.to/lastmile_qr_scan"}, "lat": 38.90862333333333, "lon": -77.024594, "fusion_lat": 0.0, "name": "b670733e7a20414f04997438ea778231", "is_disabled": 0, "is_reserved": 0, "bike_id": "b670733e7a20414f04997438ea778231", "fusion_lon": 0.0, "type": "electric_scooter"}, {"rental_uris": {"ios": "https://dc.lft.to/lastmile_qr_scan", "android": "https://dc.lft.to/lastmile_qr_scan"}, "lat": 39.0563225, "lon": -77.12524133333334, "fusion_lat": 0.0, "name": "0cc98a583cbb4eda974b5a4420fcbc60", "is_disabled": 0, "is_reserved": 0, "bike_id": "0cc98a583cbb4eda974b5a4420fcbc60", "fusion_lon": 0.0, "type": "electric_bike"}, {"rental_uris": {"ios": "https://dc.lft.to/lastmile_qr_scan", "android": "https://dc.lft.to/lastmile_qr_scan"}, "lat": 38.892261833333336, "lon": -77.0316645, "fusion_lat": 0.0, "name": "deef3216963ed9a67dfb048aa79f59e8", "is_disabled": 0, "is_reserved": 0, "bike_id": "deef3216963ed9a67dfb048aa79f59e8", "fusion_lon": 0.0, "type": "electric_scooter"}, {"rental_uris": {"ios": "https://dc.lft.to/lastmile_qr_scan", "android": "https://dc.lft.to/lastmile_qr_scan"}, "lat": 38.927157333333334, "lon": -77.0535315, "fusion_lat": 0.0, "name": "3f9e54047a0186becb74b2bcda3c0d60", "is_disabled": 0, "is_reserved": 0, "bike_id": "3f9e54047a0186becb74b2bcda3c0d60", "fusion_lon": 0.0, "type": "electric_scooter"}, {"rental_uris": {"ios": "https://dc.lft.to/lastmile_qr_scan", "android": "https://dc.lft.to/lastmile_qr_scan"}, "lat": 38.90970983333333, "lon": -77.0234865, "fusion_lat": 0.0, "name": "462530743431c82806155ba2323506e7", "is_disabled": 0, "is_reserved": 0, "bike_id": "462530743431c82806155ba2323506e7", "fusion_lon": 0.0, "type": "electric_scooter"}, {"rental_uris": {"ios": "https://dc.lft.to/lastmile_qr_scan", "android": "https://dc.lft.to/lastmile_qr_scan"}, "lat": 38.9024795, "lon": -77.03953266666667, "fusion_lat": 0.0, "name": "4bb25f336fa47a8c5058e7e932ea9b1c", "is_disabled": 0, "is_reserved": 0, "bike_id": "4bb25f336fa47a8c5058e7e932ea9b1c", "fusion_lon": 0.0, "type": "electric_scooter"}, {"rental_uris": {"ios": "https://dc.lft.to/lastmile_qr_scan", "android": "https://dc.lft.to/lastmile_qr_scan"}, "lat": 38.933566166666665, "lon": -77.08569966666667, "fusion_lat": 0.0, "name": "df4b622017e9df93cca54da0c79db611", "is_disabled": 0, "is_reserved": 0, "bike_id": "df4b622017e9df93cca54da0c79db611", "fusion_lon": 0.0, "type": "electric_scooter"}, {"rental_uris": {"ios": "https://dc.lft.to/lastmile_qr_scan", "android": "https://dc.lft.to/lastmile_qr_scan"}, "lat": 38.874995, "lon": -77.01227816666666, "fusion_lat": 0.0, "name": "94005744adadbb7e11d99b4cfbc65c42", "is_disabled": 0, "is_reserved": 0, "bike_id": "94005744adadbb7e11d99b4cfbc65c42", "fusion_lon": 0.0, "type": "electric_scooter"}, {"rental_uris": {"ios": "https://dc.lft.to/lastmile_qr_scan", "android": "https://dc.lft.to/lastmile_qr_scan"}, "lat": 38.90749866666667, "lon": -77.03202333333333, "fusion_lat": 0.0, "name": "92185b7ff12086df62851960744b8972", "is_disabled": 0, "is_reserved": 0, "bike_id": "92185b7ff12086df62851960744b8972", "fusion_lon": 0.0, "type": "electric_scooter"}, {"rental_uris": {"ios": "https://dc.lft.to/lastmile_qr_scan", "android": "https://dc.lft.to/lastmile_qr_scan"}, "lat": 38.878575, "lon": -77.01763133333333, "fusion_lat": 0.0, "name": "c314c68235953337d659ae4efdc8dcd9", "is_disabled": 0, "is_reserved": 0, "bike_id": "c314c68235953337d659ae4efdc8dcd9", "fusion_lon": 0.0, "type": "electric_scooter"}, {"rental_uris": {"ios": "https://dc.lft.to/lastmile_qr_scan", "android": "https://dc.lft.to/lastmile_qr_scan"}, "lat": 38.90094583333333, "lon": -76.983402, "fusion_lat": 0.0, "name": "bb6f018fc69f9cbcaad536f38a2764e9", "is_disabled": 0, "is_reserved": 0, "bike_id": "bb6f018fc69f9cbcaad536f38a2764e9", "fusion_lon": 0.0, "type": "electric_scooter"}, {"rental_uris": {"ios": "https://dc.lft.to/lastmile_qr_scan", "android": "https://dc.lft.to/lastmile_qr_scan"}, "lat": 38.86503666666667, "lon": -76.99012083333334, "fusion_lat": 0.0, "name": "e1a1565fef24d2fc2d5597587842dadc", "is_disabled": 0, "is_reserved": 0, "bike_id": "e1a1565fef24d2fc2d5597587842dadc", "fusion_lon": 0.0, "type": "electric_scooter"}, {"rental_uris": {"ios": "https://dc.lft.to/lastmile_qr_scan", "android": "https://dc.lft.to/lastmile_qr_scan"}, "lat": 38.9014915, "lon": -77.0592145, "fusion_lat": 0.0, "name": "6bd2ab28dd0fec6405c36c8c95849c71", "is_disabled": 0, "is_reserved": 0, "bike_id": "6bd2ab28dd0fec6405c36c8c95849c71", "fusion_lon": 0.0, "type": "electric_scooter"}, {"rental_uris": {"ios": "https://dc.lft.to/lastmile_qr_scan", "android": "https://dc.lft.to/lastmile_qr_scan"}, "lat": 38.92338616666667, "lon": -77.01906966666667, "fusion_lat": 0.0, "name": "f3e92040090d0a52e0b5fc5fe13d3511", "is_disabled": 0, "is_reserved": 0, "bike_id": "f3e92040090d0a52e0b5fc5fe13d3511", "fusion_lon": 0.0, "type": "electric_scooter"}, {"rental_uris": {"ios": "https://dc.lft.to/lastmile_qr_scan", "android": "https://dc.lft.to/lastmile_qr_scan"}, "lat": 38.91763566666667, "lon": -77.02958933333333, "fusion_lat": 0.0, "name": "138f5dfbe9783c289f00b3c7d5033d09", "is_disabled": 0, "is_reserved": 0, "bike_id": "138f5dfbe9783c289f00b3c7d5033d09", "fusion_lon": 0.0, "type": "electric_scooter"}, {"rental_uris": {"ios": "https://dc.lft.to/lastmile_qr_scan", "android": "https://dc.lft.to/lastmile_qr_scan"}, "lat": 38.90528616666667, "lon": -77.06100833333333, "fusion_lat": 0.0, "name": "692881889b0d8cb41a7f6863e8c21396", "is_disabled": 0, "is_reserved": 0, "bike_id": "692881889b0d8cb41a7f6863e8c21396", "fusion_lon": 0.0, "type": "electric_scooter"}, {"rental_uris": {"ios": "https://dc.lft.to/lastmile_qr_scan", "android": "https://dc.lft.to/lastmile_qr_scan"}, "lat": 38.8090315, "lon": -77.08653966666667, "fusion_lat": 0.0, "name": "6f4e8b34d0afa50a9040b46ba2d99920", "is_disabled": 0, "is_reserved": 0, "bike_id": "6f4e8b34d0afa50a9040b46ba2d99920", "fusion_lon": 0.0, "type": "electric_bike"}, {"rental_uris": {"ios": "https://dc.lft.to/lastmile_qr_scan", "android": "https://dc.lft.to/lastmile_qr_scan"}, "lat": 38.892471666666665, "lon": -77.04874683333334, "fusion_lat": 0.0, "name": "c3b6e5154632f52e86d9707935c5ef18", "is_disabled": 0, "is_reserved": 0, "bike_id": "c3b6e5154632f52e86d9707935c5ef18", "fusion_lon": 0.0, "type": "electric_scooter"}, {"rental_uris": {"ios": "https://dc.lft.to/lastmile_qr_scan", "android": "https://dc.lft.to/lastmile_qr_scan"}, "lat": 38.88720983333333, "lon": -77.13319033333333, "fusion_lat": 0.0, "name": "e6bad2625dbf8c56307457d04be99dc5", "is_disabled": 0, "is_reserved": 0, "bike_id": "e6bad2625dbf8c56307457d04be99dc5", "fusion_lon": 0.0, "type": "electric_bike"}, {"rental_uris": {"ios": "https://dc.lft.to/lastmile_qr_scan", "android": "https://dc.lft.to/lastmile_qr_scan"}, "lat": 38.90765283333333, "lon": -77.034511, "fusion_lat": 0.0, "name": "f50fd786d457e08e23f8a33b91295fe3", "is_disabled": 0, "is_reserved": 0, "bike_id": "f50fd786d457e08e23f8a33b91295fe3", "fusion_lon": 0.0, "type": "electric_scooter"}, {"rental_uris": {"ios": "https://dc.lft.to/lastmile_qr_scan", "android": "https://dc.lft.to/lastmile_qr_scan"}, "lat": 38.915614166666664, "lon": -77.0312215, "fusion_lat": 0.0, "name": "a82cd13d59684ce4a900381bddf0fd69", "is_disabled": 0, "is_reserved": 0, "bike_id": "a82cd13d59684ce4a900381bddf0fd69", "fusion_lon": 0.0, "type": "electric_scooter"}, {"rental_uris": {"ios": "https://dc.lft.to/lastmile_qr_scan", "android": "https://dc.lft.to/lastmile_qr_scan"}, "lat": 38.901351166666664, "lon": -77.0436575, "fusion_lat": 0.0, "name": "229a00ba6c6f6ea8b793a4d6b5b85988", "is_disabled": 0, "is_reserved": 0, "bike_id": "229a00ba6c6f6ea8b793a4d6b5b85988", "fusion_lon": 0.0, "type": "electric_scooter"}, {"rental_uris": {"ios": "https://dc.lft.to/lastmile_qr_scan", "android": "https://dc.lft.to/lastmile_qr_scan"}, "lat": 38.903857333333335, "lon": -77.04824466666666, "fusion_lat": 0.0, "name": "7068dc7c1140817634024caf9b6dc8ff", "is_disabled": 0, "is_reserved": 0, "bike_id": "7068dc7c1140817634024caf9b6dc8ff", "fusion_lon": 0.0, "type": "electric_scooter"}, {"rental_uris": {"ios": "https://dc.lft.to/lastmile_qr_scan", "android": "https://dc.lft.to/lastmile_qr_scan"}, "lat": 38.91927883333334, "lon": -77.017918, "fusion_lat": 0.0, "name": "e224795d0d9d8638e999c5bc39041a1c", "is_disabled": 0, "is_reserved": 0, "bike_id": "e224795d0d9d8638e999c5bc39041a1c", "fusion_lon": 0.0, "type": "electric_scooter"}, {"rental_uris": {"ios": "https://dc.lft.to/lastmile_qr_scan", "android": "https://dc.lft.to/lastmile_qr_scan"}, "lat": 38.914141666666666, "lon": -77.02588183333333, "fusion_lat": 0.0, "name": "10259e17b82fcc1caa02f405d131dd04", "is_disabled": 0, "is_reserved": 0, "bike_id": "10259e17b82fcc1caa02f405d131dd04", "fusion_lon": 0.0, "type": "electric_scooter"}, {"rental_uris": {"ios": "https://dc.lft.to/lastmile_qr_scan", "android": "https://dc.lft.to/lastmile_qr_scan"}, "lat": 38.896106833333334, "lon": -76.90735333333333, "fusion_lat": 0.0, "name": "784ff9d514c34c3732425a98946975c1", "is_disabled": 0, "is_reserved": 0, "bike_id": "784ff9d514c34c3732425a98946975c1", "fusion_lon": 0.0, "type": "electric_bike"},