{"data": {"bikes": [{"type": "electric_scooter", "lat": 38.866710833333336, "rental_uris": {"ios": "https://dc.lft.to/lastmile_qr_scan", "android": "https://dc.lft.to/lastmile_qr_scan"}, "name": "d8ccfdc5a4a76b07a1ddf268d674def4", "lon": -76.98905616666667, "fusion_lat": 0.0, "is_reserved": 0, "bike_id": "d8ccfdc5a4a76b07a1ddf268d674def4", "is_disabled": 0, "fusion_lon": 0.0}, {"type": "electric_scooter", "lat": 38.90039683333333, "rental_uris": {"ios": "https://dc.lft.to/lastmile_qr_scan", "android": "https://dc.lft.to/lastmile_qr_scan"}, "name": "6e0c96be1fb4ab2f9e9e9be2d7542ef9", "lon": -76.99840583333334, "fusion_lat": 0.0, "is_reserved": 0, "bike_id": "6e0c96be1fb4ab2f9e9e9be2d7542ef9", "is_disabled": 0, "fusion_lon": 0.0}, {"type": "electric_scooter", "lat": 38.8737385, "rental_uris": {"ios": "https://dc.lft.to/lastmile_qr_scan", "android": "https://dc.lft.to/lastmile_qr_scan"}, "name": "4bdd9bcdb1169849e76c6c918fb00839", "lon": -77.001003, "fusion_lat": 0.0, "is_reserved": 0, "bike_id": "4bdd9bcdb1169849e76c6c918fb00839", "is_disabled": 0, "fusion_lon": 0.0}, {"type": "electric_bike", "lat": 38.936050333333334, "rental_uris": {"ios": "https://dc.lft.to/lastmile_qr_scan", "android": "https://dc.lft.to/lastmile_qr_scan"}, "name": "d6d3899e231f52a2d442593ef4d25406", "lon": -77.021159, "fusion_lat": 0.0, "is_reserved": 0, "bike_id": "d6d3899e231f52a2d442593ef4d25406", "is_disabled": 0, "fusion_lon": 0.0}, {"type": "electric_scooter", "lat": 38.917184, "rental_uris": {"ios": "https://dc.lft.to/lastmile_qr_scan", "android": "https://dc.lft.to/lastmile_qr_scan"}, "name": "1d5c343b39ae517025daa8c1d4678d3a", "lon": -77.0240435, "fusion_lat": 0.0, "is_reserved": 0, "bike_id": "1d5c343b39ae517025daa8c1d4678d3a", "is_disabled": 0, "fusion_lon": 0.0}, {"type": "electric_scooter", "lat": 38.90950633333333, "rental_uris": {"ios": "https://dc.lft.to/lastmile_qr_scan", "android": "https://dc.lft.to/lastmile_qr_scan"}, "name": "7ea8fb514ead40b72cf7b183da931ec7", "lon": -77.03180133333333, "fusion_lat": 0.0, "is_reserved": 0, "bike_id": "7ea8fb514ead40b72cf7b183da931ec7", "is_disabled": 0, "fusion_lon": 0.0}, {"type": "electric_scooter", "lat": 38.9008445, "rental_uris": {"ios": "https://dc.lft.to/lastmile_qr_scan", "android": "https://dc.lft.to/lastmile_qr_scan"}, "name": "8c27e7c6f309fa173e348e2e063e9a20", "lon": -77.04910783333334, "fusion_lat": 0.0, "is_reserved": 0, "bike_id": "8c27e7c6f309fa173e348e2e063e9a20", "is_disabled": 0, "fusion_lon": 0.0}, {"type": "electric_scooter", "lat": 38.89883316666667, "rental_uris": {"ios": "https://dc.lft.to/lastmile_qr_scan", "android": "https://dc.lft.to/lastmile_qr_scan"}, "name": "345115e5334ed5fc50e0651de89082dc", "lon": -77.0500355, "fusion_lat": 0.0, "is_reserved": 0, "bike_id": "345115e5334ed5fc50e0651de89082dc", "is_disabled": 0, "fusion_lon": 0.0}, {"type": "electric_scooter", "lat": 38.892451, "rental_uris": {"ios": "https://dc.lft.to/lastmile_qr_scan", "android": "https://dc.lft.to/lastmile_qr_scan"}, "name": "73e1519df82dd37b08243f5739d98d57", "lon": -77.048778, "fusion_lat": 0.0, "is_reserved": 0, "bike_id": "73e1519df82dd37b08243f5739d98d57", "is_disabled": 0, "fusion_lon": 0.0}, {"type": "electric_scooter", "lat": 38.88264083333333, "rental_uris": {"ios": "https://dc.lft.to/lastmile_qr_scan", "android": "https://dc.lft.to/lastmile_qr_scan"}, "name": "79d990406177727a6b6c263536501932", "lon": -77.00552166666667, "fusion_lat": 0.0, "is_reserved": 0, "bike_id": "79d990406177727a6b6c263536501932", "is_disabled": 0, "fusion_lon": 0.0}, {"type": "electric_scooter", "lat": 38.894979666666664, "rental_uris": {"ios": "https://dc.lft.to/lastmile_qr_scan", "android": "https://dc.lft.to/lastmile_qr_scan"}, "name": "e3b96700eb902de94fdcbf15453aaa1f", "lon": -77.00358633333333, "fusion_lat": 0.0, "is_reserved": 0, "bike_id": "e3b96700eb902de94fdcbf15453aaa1f", "is_disabled": 0, "fusion_lon": 0.0}, {"type": "electric_scooter", "lat": 38.8726955, "rental_uris": {"ios": "https://dc.lft.to/lastmile_qr_scan", "android": "https://dc.lft.to/lastmile_qr_scan"}, "name": "f12a3bc344e7f16afcbe2ce294383d78", "lon": -77.01356666666666, "fusion_lat": 0.0, "is_reserved": 0, "bike_id": "f12a3bc344e7f16afcbe2ce294383d78", "is_disabled": 0, "fusion_lon": 0.0}, {"type": "electric_scooter", "lat": 38.9425955, "rental_uris": {"ios": "https://dc.lft.to/lastmile_qr_scan", "android": "https://dc.lft.to/lastmile_qr_scan"}, "name": "f08b692d64eb7e7983128c93a91d7cc6", "lon": -77.036295, "fusion_lat": 0.0, "is_reserved": 0, "bike_id": "f08b692d64eb7e7983128c93a91d7cc6", "is_disabled": 0, "fusion_lon": 0.0}, {"type": "electric_scooter", "lat": 38.90730333333333, "rental_uris": {"ios": "https://dc.lft.to/lastmile_qr_scan", "android": "https://dc.lft.to/lastmile_qr_scan"}, "name": "0d3a57efea667f4b3a1befeb8e5b1a80", "lon": -77.03552816666667, "fusion_lat": 0.0, "is_reserved": 0, "bike_id": "0d3a57efea667f4b3a1befeb8e5b1a80", "is_disabled": 0, "fusion_lon": 0.0}, {"type": "electric_scooter", "lat": 38.887507166666666, "rental_uris": {"ios": "https://dc.lft.to/lastmile_qr_scan", "android": "https://dc.lft.to/lastmile_qr_scan"}, "name": "bc1dac4c927ff0c0101999c9828ce7a2", "lon": -77.01775633333334, "fusion_lat": 0.0, "is_reserved": 0, "bike_id": "bc1dac4c927ff0c0101999c9828ce7a2", "is_disabled": 0, "fusion_lon": 0.0}, {"type": "electric_scooter", "lat": 38.9160125, "rental_uris": {"ios": "https://dc.lft.to/lastmile_qr_scan", "android": "https://dc.lft.to/lastmile_qr_scan"}, "name": "4d97f9bb0f5fa3d28aec8fbd968c7b0c", "lon": -77.014788, "fusion_lat": 0.0, "is_reserved": 0, "bike_id": "4d97f9bb0f5fa3d28aec8fbd968c7b0c", "is_disabled": 0, "fusion_lon": 0.0}, {"type": "electric_scooter", "lat": 38.88764783333333, "rental_uris": {"ios": "https://dc.lft.to/lastmile_qr_scan", "android": "https://dc.lft.to/lastmile_qr_scan"}, "name": "67c785641b6d29350c7e5ad6ef3ce261", "lon": -76.9829735, "fusion_lat": 0.0, "is_reserved": 0, "bike_id": "67c785641b6d29350c7e5ad6ef3ce261", "is_disabled": 0, "fusion_lon": 0.0}, {"type": "electric_scooter", "lat": 38.90980616666667, "rental_uris": {"ios": "https://dc.lft.to/lastmile_qr_scan", "android": "https://dc.lft.to/lastmile_qr_scan"}, "name": "ffe62d4269be9d2b85660e125d89faeb", "lon": -77.04473516666667, "fusion_lat": 0.0, "is_reserved": 0, "bike_id": "ffe62d4269be9d2b85660e125d89faeb", "is_disabled": 0, "fusion_lon": 0.0}, {"type": "electric_scooter", "lat": 38.9142005, "rental_uris": {"ios": "https://dc.lft.to/lastmile_qr_scan", "android": "https://dc.lft.to/lastmile_qr_scan"}, "name": "c700d1594855cf999a35c67bfe63d856", "lon": -77.02103566666666, "fusion_lat": 0.0, "is_reserved": 0, "bike_id": "c700d1594855cf999a35c67bfe63d856", "is_disabled": 0, "fusion_lon": 0.0}, {"type": "electric_scooter", "lat": 38.920356166666664, "rental_uris": {"ios": "https://dc.lft.to/lastmile_qr_scan", "android": "https://dc.lft.to/lastmile_qr_scan"}, "name": "0813e4d952d5bdb1d19dca606b8e57ad", "lon": -77.03121466666667, "fusion_lat": 0.0, "is_reserved": 0, "bike_id": "0813e4d952d5bdb1d19dca606b8e57ad", "is_disabled": 0, "fusion_lon": 0.0}, {"type": "electric_scooter", "lat": 38.9170285, "rental_uris": {"ios": "https://dc.lft.to/lastmile_qr_scan", "android": "https://dc.lft.to/lastmile_qr_scan"}, "name": "1330e7e91c19fbb099297a69a63025c7", "lon": -77.03112833333333, "fusion_lat": 0.0, "is_reserved": 0, "bike_id": "1330e7e91c19fbb099297a69a63025c7", "is_disabled": 0, "fusion_lon": 0.0}, {"type": "electric_scooter", "lat": 38.930705333333336, "rental_uris": {"ios": "https://dc.lft.to/lastmile_qr_scan", "android": "https://dc.lft.to/lastmile_qr_scan"}, "name": "08938673f4ca43dc4ece4b2c5dd0d76f", "lon": -77.03222433333333, "fusion_lat": 0.0, "is_reserved": 0, "bike_id": "08938673f4ca43dc4ece4b2c5dd0d76f", "is_disabled": 0, "fusion_lon": 0.0}, {"type": "electric_scooter", "lat": 38.92231533333333, "rental_uris": {"ios": "https://dc.lft.to/lastmile_qr_scan", "android": "https://dc.lft.to/lastmile_qr_scan"}, "name": "19128c24181115882bc9e222536e3933", "lon": -76.97532166666667, "fusion_lat": 0.0, "is_reserved": 0, "bike_id": "19128c24181115882bc9e222536e3933", "is_disabled": 0, "fusion_lon": 0.0}, {"type": "electric_scooter", "lat": 38.901538333333335, "rental_uris": {"ios": "https://dc.lft.to/lastmile_qr_scan", "android": "https://dc.lft.to/lastmile_qr_scan"}, "name": "884b72c29dd11d3461bf00c332db739e", "lon": -76.97419883333333, "fusion_lat": 0.0, "is_reserved": 0, "bike_id": "884b72c29dd11d3461bf00c332db739e", "is_disabled": 0, "fusion_lon": 0.0}, {"type": "electric_scooter", "lat": 38.90262333333333, "rental_uris": {"ios": "https://dc.lft.to/lastmile_qr_scan", "android": "https://dc.lft.to/lastmile_qr_scan"}, "name": "88f4c56b5ac164a8a8d1835f9766ac03", "lon": -77.0178515, "fusion_lat": 0.0, "is_reserved": 0, "bike_id": "88f4c56b5ac164a8a8d1835f9766ac03", "is_disabled": 0, "fusion_lon": 0.0}, {"type": "electric_scooter", "lat": 38.898967, "rental_uris": {"ios": "https://dc.lft.to/lastmile_qr_scan", "android": "https://dc.lft.to/lastmile_qr_scan"}, "name": "9c9b3aab85a6f8d4a1b88f788a3cb112", "lon": -76.99704816666667, "fusion_lat": 0.0, "is_reserved": 0, "bike_id": "9c9b3aab85a6f8d4a1b88f788a3cb112", "is_disabled": 0, "fusion_lon": 0.0}, {"type": "electric_scooter", "lat": 38.920934833333334, "rental_uris": {"ios": "https://dc.lft.to/lastmile_qr_scan", "android": "https://dc.lft.to/lastmile_qr_scan"}, "name": "748ba3fdf40200c173fe999e4e150ab6", "lon": -77.075533, "fusion_lat": 0.0, "is_reserved": 0, "bike_id": "748ba3fdf40200c173fe999e4e150ab6", "is_disabled": 0, "fusion_lon": 0.0}, {"type": "electric_scooter", "lat": 38.8936045, "rental_uris": {"ios": "https://dc.lft.to/lastmile_qr_scan", "android": "https://dc.lft.to/lastmile_qr_scan"}, "name": "d72c1e8fa6078987de976a94eaf6d17e", "lon": -77.003371, "fusion_lat": 0.0, "is_reserved": 0, "bike_id": "d72c1e8fa6078987de976a94eaf6d17e", "is_disabled": 0, "fusion_lon": 0.0}, {"type": "electric_scooter", "lat": 38.88409266666667, "rental_uris": {"ios": "https://dc.lft.to/lastmile_qr_scan", "android": "https://dc.lft.to/lastmile_qr_scan"}, "name": "fb04296e5ad069a3d3d52260533796fb", "lon": -76.9938415, "fusion_lat": 0.0, "is_reserved": 0, "bike_id": "fb04296e5ad069a3d3d52260533796fb", "is_disabled": 0, "fusion_lon": 0.0}, {"type": "electric_scooter", "lat": 38.923633333333335, "rental_uris": {"ios": "https://dc.lft.to/lastmile_qr_scan", "android": "https://dc.lft.to/lastmile_qr_scan"}, "name": "e742653282136901b149cb76d6f252d3", "lon": -77.05129683333334, "fusion_lat": 0.0, "is_reserved": 0, "bike_id": "e742653282136901b149cb76d6f252d3", "is_disabled": 0, "fusion_lon": 0.0}, {"type": "electric_scooter", "lat": 38.920318333333334, "rental_uris": {"ios": "https://dc.lft.to/lastmile_qr_scan", "android": "https://dc.lft.to/lastmile_qr_scan"}, "name": "eeac4ab8dd1f82bf5c31855b56dfba19", "lon": -77.03851833333333, "fusion_lat": 0.0, "is_reserved": 0, "bike_id": "eeac4ab8dd1f82bf5c31855b56dfba19", "is_disabled": 0, "fusion_lon": 0.0}, {"type": "electric_scooter", "lat": 38.91910016666667, "rental_uris": {"ios": "https://dc.lft.to/lastmile_qr_scan", "android": "https://dc.lft.to/lastmile_qr_scan"}, "name": "8d1e75e71bdbc1b26aed2ee1f43bc272", "lon": -77.0120055, "fusion_lat": 0.0, "is_reserved": 0, "bike_id": "8d1e75e71bdbc1b26aed2ee1f43bc272", "is_disabled": 0, "fusion_lon": 0.0}, {"type": "electric_scooter", "lat": 38.92431083333334, "rental_uris": {"ios": "https://dc.lft.to/lastmile_qr_scan", "android": "https://dc.lft.to/lastmile_qr_scan"}, "name": "6c2a33a69573d5b14a67a93a208c5f2a", "lon": -77.02019883333334, "fusion_lat": 0.0, "is_reserved": 0, "bike_id": "6c2a33a69573d5b14a67a93a208c5f2a", "is_disabled": 0, "fusion_lon": 0.0}, {"type": "electric_scooter", "lat": 38.9250215, "rental_uris": {"ios": "https://dc.lft.to/lastmile_qr_scan", "android": "https://dc.lft.to/lastmile_qr_scan"}, "name": "1469ea6538470e0a79aff88e489cca75", "lon": -77.02447866666667, "fusion_lat": 0.0, "is_reserved": 0, "bike_id": "1469ea6538470e0a79aff88e489cca75", "is_disabled": 0, "fusion_lon": 0.0}, {"type": "electric_scooter", "lat": 38.892232, "rental_uris": {"ios": "https://dc.lft.to/lastmile_qr_scan", "android": "https://dc.lft.to/lastmile_qr_scan"}, "name": "e9c6530a4c2713df912f1edffcf70b60", "lon": -77.02656583333334, "fusion_lat": 0.0, "is_reserved": 0, "bike_id": "e9c6530a4c2713df912f1edffcf70b60", "is_disabled": 0, "fusion_lon": 0.0}, {"type": "electric_scooter", "lat": 38.914810333333335, "rental_uris": {"ios": "https://dc.lft.to/lastmile_qr_scan", "android": "https://dc.lft.to/lastmile_qr_scan"}, "name": "7666277768e6fe84a86705c07298fc21", "lon": -77.0127455, "fusion_lat": 0.0, "is_reserved": 0, "bike_id": "7666277768e6fe84a86705c07298fc21", "is_disabled": 0, "fusion_lon": 0.0}, {"type": "electric_scooter", "lat": 38.90554733333333, "rental_uris": {"ios": "https://dc.lft.to/lastmile_qr_scan", "android": "https://dc.lft.to/lastmile_qr_scan"}, "name": "70064ee5f89c30788a22c2eaa1c69ddc", "lon": -76.99493916666667, "fusion_lat": 0.0, "is_reserved": 0, "bike_id": "70064ee5f89c30788a22c2eaa1c69ddc", "is_disabled": 0, "fusion_lon": 0.0}, {"type": "electric_scooter", "lat": 38.909539333333335, "rental_uris": {"ios": "https://dc.lft.to/lastmile_qr_scan", "android": "https://dc.lft.to/lastmile_qr_scan"}, "name": "2273b0249fa966f0374a3b6add3a6409", "lon": -77.02712, "fusion_lat": 0.0, "is_reserved": 0, "bike_id": "2273b0249fa966f0374a3b6add3a6409", "is_disabled": 0, "fusion_lon": 0.0}, {"type": "electric_scooter", "lat": 38.934328, "rental_uris": {"ios": "https://dc.lft.to/lastmile_qr_scan", "android": "https://dc.lft.to/lastmile_qr_scan"}, "name": "caa9ef8e67c5703bc2caf2da2e37e917", "lon": -77.0329165, "fusion_lat": 0.0, "is_reserved": 0, "bike_id": "caa9ef8e67c5703bc2caf2da2e37e917", "is_disabled": 0, "fusion_lon": 0.0}, {"type": "electric_scooter", "lat": 38.938697166666664, "rental_uris": {"ios": "https://dc.lft.to/lastmile_qr_scan", "android": "https://dc.lft.to/lastmile_qr_scan"}, "name": "9d9add99ad1806a05e668a359a5366b9", "lon": -77.02549533333334, "fusion_lat": 0.0, "is_reserved": 0, "bike_id": "9d9add99ad1806a05e668a359a5366b9", "is_disabled": 0, "fusion_lon": 0.0}, {"type": "electric_scooter", "lat": 38.91478933333333, "rental_uris": {"ios": "https://dc.lft.to/lastmile_qr_scan", "android": "https://dc.lft.to/lastmile_qr_scan"}, "name": "a20a392b012528013e044341ee07ae2a", "lon": -77.02450766666666, "fusion_lat": 0.0, "is_reserved": 0, "bike_id": "a20a392b012528013e044341ee07ae2a", "is_disabled": 0, "fusion_lon": 0.0}, {"type": "electric_scooter", "lat": 38.90760816666667, "rental_uris": {"ios": "https://dc.lft.to/lastmile_qr_scan", "android": "https://dc.lft.to/lastmile_qr_scan"}, "name": "03a95c66f559a1707df5ef8bc372c107", "lon": -77.037224, "fusion_lat": 0.0, "is_reserved": 0, "bike_id": "03a95c66f559a1707df5ef8bc372c107", "is_disabled": 0, "fusion_lon": 0.0}, {"type": "electric_scooter", "lat": 38.90013916666667, "rental_uris": {"ios": "https://dc.lft.to/lastmile_qr_scan", "android": "https://dc.lft.to/lastmile_qr_scan"}, "name": "ce6675feb90fbd045ec70cde9c0cf39c", "lon": -76.936527, "fusion_lat": 0.0, "is_reserved": 0, "bike_id": "ce6675feb90fbd045ec70cde9c0cf39c", "is_disabled": 0, "fusion_lon": 0.0}, {"type": "electric_scooter", "lat": 38.9009165, "rental_uris": {"ios": "https://dc.lft.to/lastmile_qr_scan", "android": "https://dc.lft.to/lastmile_qr_scan"}, "name": "7b8ea81e69f9eda9e765f985de06777f", "lon": -77.03349366666667, "fusion_lat": 0.0, "is_reserved": 0, "bike_id": "7b8ea81e69f9eda9e765f985de06777f", "is_disabled": 0, "fusion_lon": 0.0}, {"type": "electric_bike", "lat": 38.89388366666667, "rental_uris": {"ios": "https://dc.lft.to/lastmile_qr_scan", "android": "https://dc.lft.to/lastmile_qr_scan"}, "name": "334d1b90c72bd8da337d7e0b22912b93", "lon": -76.99374133333333, "fusion_lat": 0.0, "is_reserved": 0, "bike_id": "334d1b90c72bd8da337d7e0b22912b93", "is_disabled": 0, "fusion_lon": 0.0}, {"type": "electric_scooter", "lat": 38.92237433333333, "rental_uris": {"ios": "https://dc.lft.to/lastmile_qr_scan", "android": "https://dc.lft.to/lastmile_qr_scan"}, "name": "1a2df1108e675d44b2e2c01fb314d227", "lon": -77.042425, "fusion_lat": 0.0, "is_reserved": 0, "bike_id": "1a2df1108e675d44b2e2c01fb314d227", "is_disabled": 0, "fusion_lon": 0.0}, {"type": "electric_scooter", "lat": 38.95043016666666, "rental_uris": {"ios": "https://dc.lft.to/lastmile_qr_scan", "android": "https://dc.lft.to/lastmile_qr_scan"}, "name": "bb1f8cfb77f9d709cf2c09588f4cb8cf", "lon": -77.0272035, "fusion_lat": 0.0, "is_reserved": 0, "bike_id": "bb1f8cfb77f9d709cf2c09588f4cb8cf", "is_disabled": 0, "fusion_lon": 0.0}, {"type": "electric_bike", "lat": 38.812516333333335, "rental_uris": {"ios": "https://dc.lft.to/lastmile_qr_scan", "android": "https://dc.lft.to/lastmile_qr_scan"}, "name": "f611d0035704a70b08e25d91f398ba2b", "lon": -77.1176355, "fusion_lat": 0.0, "is_reserved": 0, "bike_id": "f611d0035704a70b08e25d91f398ba2b", "is_disabled": 0, "fusion_lon": 0.0}, {"type": "electric_scooter", "lat": 38.904931166666664, "rental_uris": {"ios": "https://dc.lft.to/lastmile_qr_scan", "android": "https://dc.lft.to/lastmile_qr_scan"}, "name": "49f9de39a211bc349e3d6d6eb50979ae", "lon": -76.99499983333334, "fusion_lat": 0.0, "is_reserved": 0, "bike_id": "49f9de39a211bc349e3d6d6eb50979ae", "is_disabled": 0, "fusion_lon": 0.0}, {"type": "electric_scooter", "lat": 38.87380566666667, "rental_uris": {"ios": "https://dc.lft.to/lastmile_qr_scan", "android": "https://dc.lft.to/lastmile_qr_scan"}, "name": "29a0526832c4fd3fbe2feba2e396ec66", "lon": -77.00134116666666, "fusion_lat": 0.0, "is_reserved": 0, "bike_id": "29a0526832c4fd3fbe2feba2e396ec66", "is_disabled": 0, "fusion_lon": 0.0}, {"type": "electric_scooter", "lat": 38.92173416666667, "rental_uris": {"ios": "https://dc.lft.to/lastmile_qr_scan", "android": "https://dc.lft.to/lastmile_qr_scan"}, "name": "fb9459177fb7a6a28f4cf925ba1186fb", "lon": -77.03828733333333, "fusion_lat": 0.0, "is_reserved": 0, "bike_id": "fb9459177fb7a6a28f4cf925ba1186fb", "is_disabled": 0, "fusion_lon": 0.0}, {"type": "electric_scooter", "lat": 38.91714233333333, "rental_uris": {"ios": "https://dc.lft.to/lastmile_qr_scan", "android": "https://dc.lft.to/lastmile_qr_scan"}, "name": "89da6dc7408e306a914aa902758705a0", "lon": -76.97649, "fusion_lat": 0.0, "is_reserved": 0, "bike_id": "89da6dc7408e306a914aa902758705a0", "is_disabled": 0, "fusion_lon": 0.0}, {"type": "electric_scooter", "lat": 38.919101166666664, "rental_uris": {"ios": "https://dc.lft.to/lastmile_qr_scan", "android": "https://dc.lft.to/lastmile_qr_scan"}, "name": "50ecd63f59d3bce1e8f184378e8f19ac", "lon": -77.02470533333333, "fusion_lat": 0.0, "is_reserved": 0, "bike_id": "50ecd63f59d3bce1e8f184378e8f19ac", "is_disabled": 0, "fusion_lon": 0.0}, {"type": "electric_scooter", "lat": 38.91262366666667, "rental_uris": {"ios": "https://dc.lft.to/lastmile_qr_scan", "android": "https://dc.lft.to/lastmile_qr_scan"}, "name": "dd330ce2b4bfa525ae039cc44c3de468", "lon": -77.04440583333333, "fusion_lat": 0.0, "is_reserved": 0, "bike_id": "dd330ce2b4bfa525ae039cc44c3de468", "is_disabled": 0, "fusion_lon": 0.0}, {"type": "electric_scooter", "lat": 38.910448, "rental_uris": {"ios": "https://dc.lft.to/lastmile_qr_scan", "android": "https://dc.lft.to/lastmile_qr_scan"}, "name": "5a53fd3c68ecb8ca292d87e912224267", "lon": -77.03413133333333, "fusion_lat": 0.0, "is_reserved": 0, "bike_id": "5a53fd3c68ecb8ca292d87e912224267", "is_disabled": 0, "fusion_lon": 0.0}, {"type": "electric_scooter", "lat": 38.90182016666667, "rental_uris": {"ios": "https://dc.lft.to/lastmile_qr_scan", "android": "https://dc.lft.to/lastmile_qr_scan"}, "name": "72eab64db3bbf14a35fd0f95804ae722", "lon": -77.01620416666667, "fusion_lat": 0.0, "is_reserved": 0, "bike_id": "72eab64db3bbf14a35fd0f95804ae722", "is_disabled": 0, "fusion_lon": 0.0}, {"type": "electric_scooter", "lat": 38.87316033333333, "rental_uris": {"ios": "https://dc.lft.to/lastmile_qr_scan", "android": "https://dc.lft.to/lastmile_qr_scan"}, "name": "9aed73c2c6818f1d8bf1c8a3670f5bb8", "lon": -77.0106835, "fusion_lat": 0.0, "is_reserved": 0, "bike_id": "9aed73c2c6818f1d8bf1c8a3670f5bb8", "is_disabled": 0, "fusion_lon": 0.0}, {"type": "electric_scooter", "lat": 38.9239905, "rental_uris": {"ios": "https://dc.lft.to/lastmile_qr_scan", "android": "https://dc.lft.to/lastmile_qr_scan"}, "name": "9faa177724dd3727bb95316640dca9b4", "lon": -77.02165533333333, "fusion_lat": 0.0, "is_reserved": 0, "bike_id": "9faa177724dd3727bb95316640dca9b4", "is_disabled": 0, "fusion_lon": 0.0}, {"type": "electric_scooter", "lat": 38.91881733333334, "rental_uris": {"ios": "https://dc.lft.to/lastmile_qr_scan", "android": "https://dc.lft.to/lastmile_qr_scan"}, "name": "3502d018d8ebd94c436af9744bc697b1", "lon": -77.0431695, "fusion_lat": 0.0, "is_reserved": 0, "bike_id": "3502d018d8ebd94c436af9744bc697b1", "is_disabled": 0, "fusion_lon": 0.0}, {"type": "electric_scooter", "lat": 38.90280383333333, "rental_uris": {"ios": "https://dc.lft.to/lastmile_qr_scan", "android": "https://dc.lft.to/lastmile_qr_scan"}, "name": "ce9427f33430ce85e59bc0c73e59cd57", "lon": -76.9289865, "fusion_lat": 0.0, "is_reserved": 0, "bike_id": "ce9427f33430ce85e59bc0c73e59cd57", "is_disabled": 0, "fusion_lon": 0.0}, {"type": "electric_scooter", "lat": 38.92846516666667, "rental_uris": {"ios": "https://dc.lft.to/lastmile_qr_scan", "android": "https://dc.lft.to/lastmile_qr_scan"}, "name": "5903477a3c3b9d1773ac678958c39aae", "lon": -76.99585216666667, "fusion_lat": 0.0, "is_reserved": 0, "bike_id": "5903477a3c3b9d1773ac678958c39aae", "is_disabled": 0, "fusion_lon": 0.0}, {"type": "electric_bike", "lat": 38.877402833333335, "rental_uris": {"ios": "https://dc.lft.to/lastmile_qr_scan", "android": "https://dc.lft.to/lastmile_qr_scan"}, "name": "2607d34896f779b939a95f3e57dd54ac", "lon": -77.11854683333334, "fusion_lat": 0.0, "is_reserved": 0, "bike_id": "2607d34896f779b939a95f3e57dd54ac", "is_disabled": 0, "fusion_lon": 0.0}, {"type": "electric_scooter", "lat": 38.902189666666665, "rental_uris": {"ios": "https://dc.lft.to/lastmile_qr_scan", "android": "https://dc.lft.to/lastmile_qr_scan"}, "name": "698b97ed489dcc1f62be5072f93a3afa", "lon": -77.02353283333333, "fusion_lat": 0.0, "is_reserved": 0, "bike_id": "698b97ed489dcc1f62be5072f93a3afa", "is_disabled": 0, "fusion_lon": 0.0}, {"type": "electric_scooter", "lat": 38.917309, "rental_uris": {"ios": "https://dc.lft.to/lastmile_qr_scan", "android": "https://dc.lft.to/lastmile_qr_scan"}, "name": "f9448d96350037a4b03ec93719874314", "lon": -77.03617733333333, "fusion_lat": 0.0, "is_reserved": 0, "bike_id": "f9448d96350037a4b03ec93719874314", "is_disabled": 0, "fusion_lon": 0.0}, {"type": "electric_scooter", "lat": 38.934254, "rental_uris": {"ios": "https://dc.lft.to/lastmile_qr_scan", "android": "https://dc.lft.to/lastmile_qr_scan"}, "name": "9d1cad489e30b902b126edbea22fdc61", "lon": -77.03286383333334, "fusion_lat": 0.0, "is_reserved": 0, "bike_id": "9d1cad489e30b902b126edbea22fdc61", "is_disabled": 0, "fusion_lon": 0.0}, {"type": "electric_scooter", "lat": 38.91826416666667, "rental_uris": {"ios": "https://dc.lft.to/lastmile_qr_scan", "android": "https://dc.lft.to/lastmile_qr_scan"}, "name": "9ed4b22f923c7a1dbc45bbf207ae3cd8", "lon": -77.02418416666667, "fusion_lat": 0.0, "is_reserved": 0, "bike_id": "9ed4b22f923c7a1dbc45bbf207ae3cd8", "is_disabled": 0, "fusion_lon": 0.0}, {"type": "electric_scooter", "lat": 38.9039265, "rental_uris": {"ios": "https://dc.lft.to/lastmile_qr_scan", "android": "https://dc.lft.to/lastmile_qr_scan"}, "name": "2a887874d9881eb3835d0b610a3433cf", "lon": -77.06027266666666, "fusion_lat": 0.0, "is_reserved": 0, "bike_id": "2a887874d9881eb3835d0b610a3433cf", "is_disabled": 0, "fusion_lon": 0.0}, {"type": "electric_scooter", "lat": 38.880249666666664, "rental_uris": {"ios": "https://dc.lft.to/lastmile_qr_scan", "android": "https://dc.lft.to/lastmile_qr_scan"}, "name": "6cf6d4a1c7b994dc218e7f165eb26311", "lon": -77.00570016666667, "fusion_lat": 0.0, "is_reserved": 0, "bike_id": "6cf6d4a1c7b994dc218e7f165eb26311", "is_disabled": 0, "fusion_lon": 0.0}, {"type": "electric_bike", "lat": 38.85524183333333, "rental_uris": {"ios": "https://dc.lft.to/lastmile_qr_scan", "android": "https://dc.lft.to/lastmile_qr_scan"}, "name": "164108b32512c15e6a649c768150bf12", "lon": -76.98455083333333, "fusion_lat": 0.0, "is_reserved": 0, "bike_id": "164108b32512c15e6a649c768150bf12", "is_disabled": 0, "fusion_lon": 0.0}, {"type": "electric_scooter", "lat": 38.896737333333334, "rental_uris": {"ios": "https://dc.lft.to/lastmile_qr_scan", "android": "https://dc.lft.to/lastmile_qr_scan"}, "name": "597f42ab80a1f05e121e626716464fca", "lon": -76.98836566666667, "fusion_lat": 0.0, "is_reserved": 0, "bike_id": "597f42ab80a1f05e121e626716464fca", "is_disabled": 0, "fusion_lon": 0.0}, {"type": "electric_scooter", "lat": 38.928518, "rental_uris": {"ios": "https://dc.lft.to/lastmile_qr_scan", "android": "https://dc.lft.to/lastmile_qr_scan"}, "name": "4b192df954c7337a2a6a866bdc8617f2", "lon": -77.03281033333333, "fusion_lat": 0.0, "is_reserved": 0, "bike_id": "4b192df954c7337a2a6a866bdc8617f2", "is_disabled": 0, "fusion_lon": 0.0}, {"type": "electric_scooter", "lat": 38.91426216666667, "rental_uris": {"ios": "https://dc.lft.to/lastmile_qr_scan", "android": "https://dc.lft.to/lastmile_qr_scan"}, "name": "f72242afe5a62f2e265a458ade334e8a", "lon": -77.01801666666667, "fusion_lat": 0.0, "is_reserved": 0, "bike_id": "f72242afe5a62f2e265a458ade334e8a", "is_disabled": 0, "fusion_lon": 0.0}, {"type": "electric_scooter", "lat": 38.87693266666667, "rental_uris": {"ios": "https://dc.lft.to/lastmile_qr_scan", "android": "https://dc.lft.to/lastmile_qr_scan"}, "name": "eb64ac019960c40450e388fc0afc1964", "lon": -77.00327116666666, "fusion_lat": 0.0, "is_reserved": 0, "bike_id": "eb64ac019960c40450e388fc0afc1964", "is_disabled": 0, "fusion_lon": 0.0}, {"type": "electric_scooter", "lat": 38.901364, "rental_uris": {"ios": "https://dc.lft.to/lastmile_qr_scan", "android": "https://dc.lft.to/lastmile_qr_scan"}, "name": "0e903a523152583d54bf4b7c9f0ccc94", "lon": -77.01311366666667, "fusion_lat": 0.0, "is_reserved": 0, "bike_id": "0e903a523152583d54bf4b7c9f0ccc94", "is_disabled": 0, "fusion_lon": 0.0}, {"type": "electric_scooter", "lat": 38.921269, "rental_uris": {"ios": "https://dc.lft.to/lastmile_qr_scan", "android": "https://dc.lft.to/lastmile_qr_scan"}, "name": "752a1f536397b6f329aad261617081ab", "lon": -77.0121345, "fusion_lat": 0.0, "is_reserved": 0, "bike_id": "752a1f536397b6f329aad261617081ab", "is_disabled": 0, "fusion_lon": 0.0}, {"type": "electric_scooter", "lat": 38.91706383333333, "rental_uris": {"ios": "https://dc.lft.to/lastmile_qr_scan", "android": "https://dc.lft.to/lastmile_qr_scan"}, "name": "029c54b84622525de8454b276ae8b4f0", "lon": -77.03088233333334, "fusion_lat": 0.0, "is_reserved": 0, "bike_id": "029c54b84622525de8454b276ae8b4f0", "is_disabled": 0, "fusion_lon": 0.0}, {"type": "electric_scooter", "lat": 38.8969675, "rental_uris": {"ios": "https://dc.lft.to/lastmile_qr_scan", "android": "https://dc.lft.to/lastmile_qr_scan"}, "name": "8fb684a4b1c4313e8ef330f01dd5ac7b", "lon": -77.02677316666667, "fusion_lat": 0.0, "is_reserved": 0, "bike_id": "8fb684a4b1c4313e8ef330f01dd5ac7b", "is_disabled": 0, "fusion_lon": 0.0}, {"type": "electric_bike", "lat": 38.956338, "rental_uris": {"ios": "https://dc.lft.to/lastmile_qr_scan", "android": "https://dc.lft.to/lastmile_qr_scan"}, "name": "f57a5bdbf011c78458abb2a0a8e5c8d8", "lon": -77.02319066666666, "fusion_lat": 0.0, "is_reserved": 0, "bike_id": "f57a5bdbf011c78458abb2a0a8e5c8d8", "is_disabled": 0, "fusion_lon": 0.0}, {"type": "electric_scooter", "lat": 38.884014666666666, "rental_uris": {"ios": "https://dc.lft.to/lastmile_qr_scan", "android": "https://dc.lft.to/lastmile_qr_scan"}, "name": "db1134a0ec2e08f2097cd79e1440eac4", "lon": -76.93044666666667, "fusion_lat": 0.0, "is_reserved": 0, "bike_id": "db1134a0ec2e08f2097cd79e1440eac4", "is_disabled": 0, "fusion_lon": 0.0}, {"type": "electric_scooter", "lat": 38.91588866666667, "rental_uris": {"ios": "https://dc.lft.to/lastmile_qr_scan", "android": "https://dc.lft.to/lastmile_qr_scan"}, "name": "a71afb61df9ff61ec408e4a11e65a5e2", "lon": -77.04174416666666, "fusion_lat": 0.0, "is_reserved": 0, "bike_id": "a71afb61df9ff61ec408e4a11e65a5e2", "is_disabled": 0, "fusion_lon": 0.0}, {"type": "electric_scooter", "lat": 38.8667255, "rental_uris": {"ios": "https://dc.lft.to/lastmile_qr_scan", "android": "https://dc.lft.to/lastmile_qr_scan"}, "name": "9c1e87f3ce7d8e20f2436644a5a50f41", "lon": -76.98898283333334, "fusion_lat": 0.0, "is_reserved": 0, "bike_id": "9c1e87f3ce7d8e20f2436644a5a50f41", "is_disabled": 0, "fusion_lon": 0.0}, {"type": "electric_scooter", "lat": 38.897696833333335, "rental_uris": {"ios": "https://dc.lft.to/lastmile_qr_scan", "android": "https://dc.lft.to/lastmile_qr_scan"}, "name": "519ee281b0fcb1ada55ef671ab24fab4", "lon": -77.03148633333333, "fusion_lat": 0.0, "is_reserved": 0, "bike_id": "519ee281b0fcb1ada55ef671ab24fab4", "is_disabled": 0, "fusion_lon": 0.0}, {"type": "electric_scooter", "lat": 38.8749815, "rental_uris": {"ios": "https://dc.lft.to/lastmile_qr_scan", "android": "https://dc.lft.to/lastmile_qr_scan"}, "name": "840ded6991aa8c93a2b33b7e87efa3d1", "lon": -77.00283116666667, "fusion_lat": 0.0, "is_reserved": 0, "bike_id": "840ded6991aa8c93a2b33b7e87efa3d1", "is_disabled": 0, "fusion_lon": 0.0}, {"type": "electric_scooter", "lat": 38.9540755, "rental_uris": {"ios": "https://dc.lft.to/lastmile_qr_scan", "android": "https://dc.lft.to/lastmile_qr_scan"}, "name": "a2de42cb7f8faa3e461aaf33e623a2a7", "lon": -77.027931, "fusion_lat": 0.0, "is_reserved": 0, "bike_id": "a2de42cb7f8faa3e461aaf33e623a2a7", "is_disabled": 0, "fusion_lon": 0.0}, {"type": "electric_scooter", "lat": 38.92856616666667, "rental_uris": {"ios": "https://dc.lft.to/lastmile_qr_scan", "android": "https://dc.lft.to/lastmile_qr_scan"}, "name": "1ff11c97db876a8644ef79e8f65495e2", "lon": -77.0140135, "fusion_lat": 0.0, "is_reserved": 0, "bike_id": "1ff11c97db876a8644ef79e8f65495e2", "is_disabled": 0, "fusion_lon": 0.0}, {"type": "electric_scooter", "lat": 38.87463983333333, "rental_uris": {"ios": "https://dc.lft.to/lastmile_qr_scan", "android": "https://dc.lft.to/lastmile_qr_scan"}, "name": "2b33230becd8eab3c74d68ca7f2b9b5f", "lon": -77.0054275, "fusion_lat": 0.0, "is_reserved": 0, "bike_id": "2b33230becd8eab3c74d68ca7f2b9b5f", "is_disabled": 0, "fusion_lon": 0.0}, {"type": "electric_scooter", "lat": 38.917369, "rental_uris": {"ios": "https://dc.lft.to/lastmile_qr_scan", "android": "https://dc.lft.to/lastmile_qr_scan"}, "name": "2747d020f4e68fe942cfba5e86ec97f4", "lon": -77.019259, "fusion_lat": 0.0, "is_reserved": 0, "bike_id": "2747d020f4e68fe942cfba5e86ec97f4", "is_disabled": 0, "fusion_lon": 0.0}, {"type": "electric_scooter", "lat": 38.9036265, "rental_uris": {"ios": "https://dc.lft.to/lastmile_qr_scan", "android": "https://dc.lft.to/lastmile_qr_scan"}, "name": "1b63644b9f11268b56ac22a23e43608e", "lon": -77.0191725, "fusion_lat": 0.0, "is_reserved": 0, "bike_id": "1b63644b9f11268b56ac22a23e43608e", "is_disabled": 0, "fusion_lon": 0.0}, {"type": "electric_scooter", "lat": 38.920505166666665, "rental_uris": {"ios": "https://dc.lft.to/lastmile_qr_scan", "android": "https://dc.lft.to/lastmile_qr_scan"}, "name": "7f471cd3364a20db89f73cab62b1b9de", "lon": -77.037112, "fusion_lat": 0.0, "is_reserved": 0, "bike_id": "7f471cd3364a20db89f73cab62b1b9de", "is_disabled": 0, "fusion_lon": 0.0}, {"type": "electric_scooter", "lat": 38.92228633333333, "rental_uris": {"ios": "https://dc.lft.to/lastmile_qr_scan", "android": "https://dc.lft.to/lastmile_qr_scan"}, "name": "5651486dc416365869a3e21894eb421c", "lon": -77.04333733333333, "fusion_lat": 0.0, "is_reserved": 0, "bike_id": "5651486dc416365869a3e21894eb421c", "is_disabled": 0, "fusion_lon": 0.0}, {"type": "electric_scooter", "lat": 38.881259166666666, "rental_uris": {"ios": "https://dc.lft.to/lastmile_qr_scan", "android": "https://dc.lft.to/lastmile_qr_scan"}, "name": "555a768ea3f806713025d173c2ee1492", "lon": -77.01741333333334, "fusion_lat": 0.0, "is_reserved": 0, "bike_id": "555a768ea3f806713025d173c2ee1492", "is_disabled": 0, "fusion_lon": 0.0}, {"type": "electric_scooter", "lat": 38.919924333333334, "rental_uris": {"ios": "https://dc.lft.to/lastmile_qr_scan", "android": "https://dc.lft.to/lastmile_qr_scan"}, "name": "bf80935da67a22f998ddcde41b4e492d", "lon": -77.02376933333333, "fusion_lat": 0.0, "is_reserved": 0, "bike_id": "bf80935da67a22f998ddcde41b4e492d", "is_disabled": 0, "fusion_lon": 0.0}, {"type": "electric_scooter", "lat": 38.909277833333334, "rental_uris": {"ios": "https://dc.lft.to/lastmile_qr_scan", "android": "https://dc.lft.to/lastmile_qr_scan"}, "name": "8f3da290b8ce54dc25da683def2bc889", "lon": -77.0310025, "fusion_lat": 0.0, "is_reserved": 0, "bike_id": "8f3da290b8ce54dc25da683def2bc889", "is_disabled": 0, "fusion_lon": 0.0}, {"type": "electric_scooter", "lat": 38.91716533333334, "rental_uris": {"ios": "https://dc.lft.to/lastmile_qr_scan", "android": "https://dc.lft.to/lastmile_qr_scan"}, "name": "bfc3eb1247c56528ce5f14067584859d", "lon": -77.02439433333333, "fusion_lat": 0.0, "is_reserved": 0, "bike_id": "bfc3eb1247c56528ce5f14067584859d", "is_disabled": 0, "fusion_lon": 0.0}, {"type": "electric_scooter", "lat": 38.941232166666666, "rental_uris": {"ios": "https://dc.lft.to/lastmile_qr_scan", "android": "https://dc.lft.to/lastmile_qr_scan"}, "name": "b45164d16d8607fb945e6d2054c5ec10", "lon": -77.00045733333333, "fusion_lat": 0.0, "is_reserved": 0, "bike_id": "b45164d16d8607fb945e6d2054c5ec10", "is_disabled": 0, "fusion_lon": 0.0}, {"type": "electric_scooter", "lat": 38.905170166666664, "rental_uris": {"ios": "https://dc.lft.to/lastmile_qr_scan", "android": "https://dc.lft.to/lastmile_qr_scan"}, "name": "522f01078e89ccce05153e00f85f4e95", "lon": -77.06546233333333, "fusion_lat": 0.0, "is_reserved": 0, "bike_id": "522f01078e89ccce05153e00f85f4e95", "is_disabled": 0, "fusion_lon": 0.0}, {"type": "electric_scooter", "lat": 38.9189355, "rental_uris": {"ios": "https://dc.lft.to/lastmile_qr_scan", "android": "https://dc.lft.to/lastmile_qr_scan"}, "name": "a0941fae2b0e99e33cca73e4a1f5a157", "lon": -77.02436383333334, "fusion_lat": 0.0, "is_reserved": 0, "bike_id": "a0941fae2b0e99e33cca73e4a1f5a157", "is_disabled": 0, "fusion_lon": 0.0}, {"type": "electric_bike", "lat": 38.9450055, "rental_uris": {"ios": "https://dc.lft.to/lastmile_qr_scan", "android": "https://dc.lft.to/lastmile_qr_scan"}, "name": "4fd5ccbf8a3dccdbc6e26d4d39d82e93", "lon": -77.006853, "fusion_lat": 0.0, "is_reserved": 0, "bike_id": "4fd5ccbf8a3dccdbc6e26d4d39d82e93", "is_disabled": 0, "fusion_lon": 0.0}, {"type": "electric_scooter", "lat": 38.90746166666667, "rental_uris": {"ios": "https://dc.lft.to/lastmile_qr_scan", "android": "https://dc.lft.to/lastmile_qr_scan"}, "name": "4298807f73aabcd3023b3fa8d0483e30", "lon": -77.0279875, "fusion_lat": 0.0, "is_reserved": 0, "bike_id": "4298807f73aabcd3023b3fa8d0483e30", "is_disabled": 0, "fusion_lon": 0.0}, {"type": "electric_scooter", "lat": 38.918249833333334, "rental_uris": {"ios": "https://dc.lft.to/lastmile_qr_scan", "android": "https://dc.lft.to/lastmile_qr_scan"}, "name": "85b24bbdb39ed1072e8ac766e7d43e80", "lon": -77.03294383333333, "fusion_lat": 0.0, "is_reserved": 0, "bike_id": "85b24bbdb39ed1072e8ac766e7d43e80", "is_disabled": 0, "fusion_lon": 0.0}, {"type": "electric_scooter", "lat": 38.909848833333335, "rental_uris": {"ios": "https://dc.lft.to/lastmile_qr_scan", "android": "https://dc.lft.to/lastmile_qr_scan"}, "name": "e951a633f43866b574afd734a8cc213d", "lon": -77.02188666666666, "fusion_lat": 0.0, "is_reserved": 0, "bike_id": "e951a633f43866b574afd734a8cc213d", "is_disabled": 0, "fusion_lon": 0.0}, {"type": "electric_scooter", "lat": 38.883278, "rental_uris": {"ios": "https://dc.lft.to/lastmile_qr_scan", "android": "https://dc.lft.to/lastmile_qr_scan"}, "name": "d8eaebb330236ca71161154085024189", "lon": -76.92544116666667, "fusion_lat": 0.0, "is_reserved": 0, "bike_id": "d8eaebb330236ca71161154085024189", "is_disabled": 0, "fusion_lon": 0.0}, {"type": "electric_scooter", "lat": 38.922977833333334, "rental_uris": {"ios": "https://dc.lft.to/lastmile_qr_scan", "android": "https://dc.lft.to/lastmile_qr_scan"}, "name": "6bf84ae65289ecd28adfca881eb3adcc", "lon": -77.029597, "fusion_lat": 0.0, "is_reserved": 0, "bike_id": "6bf84ae65289ecd28adfca881eb3adcc", "is_disabled": 0, "fusion_lon": 0.0}, {"type": "electric_scooter", "lat": 38.9077665, "rental_uris": {"ios": "https://dc.lft.to/lastmile_qr_scan", "android": "https://dc.lft.to/lastmile_qr_scan"}, "name": "74215088242eae698843c30ee0cea3d3", "lon": -76.997137, "fusion_lat": 0.0, "is_reserved": 0, "bike_id": "74215088242eae698843c30ee0cea3d3", "is_disabled": 0, "fusion_lon": 0.0}, {"type": "electric_scooter", "lat": 38.919998666666665, "rental_uris": {"ios": "https://dc.lft.to/lastmile_qr_scan", "android": "https://dc.lft.to/lastmile_qr_scan"}, "name": "c9bb736df0c49d7273d38eac2c4a793c", "lon": -77.04757833333333, "fusion_lat": 0.0, "is_reserved": 0, "bike_id": "c9bb736df0c49d7273d38eac2c4a793c", "is_disabled": 0, "fusion_lon": 0.0}, {"type": "electric_scooter", "lat": 38.880182, "rental_uris": {"ios": "https://dc.lft.to/lastmile_qr_scan", "android": "https://dc.lft.to/lastmile_qr_scan"}, "name": "def2f5aee25a91e53fa44c657e15455c", "lon": -76.9973605, "fusion_lat": 0.0, "is_reserved": 0, "bike_id": "def2f5aee25a91e53fa44c657e15455c", "is_disabled": 0, "fusion_lon": 0.0}, {"type": "electric_scooter", "lat": 38.861697166666666, "rental_uris": {"ios": "https://dc.lft.to/lastmile_qr_scan", "android": "https://dc.lft.to/lastmile_qr_scan"}, "name": "cef907039b853b2e943d4a8ec4063967", "lon": -76.96911283333333, "fusion_lat": 0.0, "is_reserved": 0, "bike_id": "cef907039b853b2e943d4a8ec4063967", "is_disabled": 0, "fusion_lon": 0.0}, {"type": "electric_scooter", "lat": 38.926495833333334, "rental_uris": {"ios": "https://dc.lft.to/lastmile_qr_scan", "android": "https://dc.lft.to/lastmile_qr_scan"}, "name": "97acdfa2e43a00318b7a4f79abdc38ca", "lon": -77.04121533333333, "fusion_lat": 0.0, "is_reserved": 0, "bike_id": "97acdfa2e43a00318b7a4f79abdc38ca", "is_disabled": 0, "fusion_lon": 0.0}, {"type": "electric_scooter", "lat": 38.90407416666667, "rental_uris": {"ios": "https://dc.lft.to/lastmile_qr_scan", "android": "https://dc.lft.to/lastmile_qr_scan"}, "name": "5701093bb68d56e352e01dbb9a93a067", "lon": -77.00182083333333, "fusion_lat": 0.0, "is_reserved": 0, "bike_id": "5701093bb68d56e352e01dbb9a93a067", "is_disabled": 0, "fusion_lon": 0.0}, {"type": "electric_bike", "lat": 38.933196, "rental_uris": {"ios": "https://dc.lft.to/lastmile_qr_scan", "android": "https://dc.lft.to/lastmile_qr_scan"}, "name": "c7f1850ae23eeefdd4e0bb3ae5d8a51c", "lon": -77.032168, "fusion_lat": 0.0, "is_reserved": 0, "bike_id": "c7f1850ae23eeefdd4e0bb3ae5d8a51c", "is_disabled": 0, "fusion_lon": 0.0}, {"type": "electric_bike", "lat": 38.93705966666667, "rental_uris": {"ios": "https://dc.lft.to/lastmile_qr_scan", "android": "https://dc.lft.to/lastmile_qr_scan"}, "name": "53e3f9dabd67853ecfde5d9fffa7c6f3", "lon": -77.02127183333333, "fusion_lat": 0.0, "is_reserved": 0, "bike_id": "53e3f9dabd67853ecfde5d9fffa7c6f3", "is_disabled": 0, "fusion_lon": 0.0}, {"type": "electric_scooter", "lat": 38.906353833333334, "rental_uris": {"ios": "https://dc.lft.to/lastmile_qr_scan", "android": "https://dc.lft.to/lastmile_qr_scan"}, "name": "79f4a099013dd9522854bf066dc52898", "lon": -77.02964333333334, "fusion_lat": 0.0, "is_reserved": 0, "bike_id": "79f4a099013dd9522854bf066dc52898", "is_disabled": 0, "fusion_lon": 0.0}, {"type": "electric_scooter", "lat": 38.899385333333335, "rental_uris": {"ios": "https://dc.lft.to/lastmile_qr_scan", "android": "https://dc.lft.to/lastmile_qr_scan"}, "name": "a2773138928c33d90ee059265948f097", "lon": -77.01268966666666, "fusion_lat": 0.0, "is_reserved": 0, "bike_id": "a2773138928c33d90ee059265948f097", "is_disabled": 0, "fusion_lon": 0.0}, {"type": "electric_bike", "lat": 38.91867083333333, "rental_uris": {"ios": "https://dc.lft.to/lastmile_qr_scan", "android": "https://dc.lft.to/lastmile_qr_scan"}, "name": "e14ea5feeec66d4edd485a999ec4ab0f", "lon": -76.96085216666667, "fusion_lat": 0.0, "is_reserved": 0, "bike_id": "e14ea5feeec66d4edd485a999ec4ab0f", "is_disabled": 0, "fusion_lon": 0.0}, {"type": "electric_bike", "lat": 38.8363225, "rental_uris": {"ios": "https://dc.lft.to/lastmile_qr_scan", "android": "https://dc.lft.to/lastmile_qr_scan"}, "name": "c2a8f53e2b0022e3ea218b7d167b5011", "lon": -77.06954216666666, "fusion_lat": 0.0, "is_reserved": 0, "bike_id": "c2a8f53e2b0022e3ea218b7d167b5011", "is_disabled": 0, "fusion_lon": 0.0}, {"type": "electric_scooter", "lat": 38.92883466666667, "rental_uris": {"ios": "https://dc.lft.to/lastmile_qr_scan", "android": "https://dc.lft.to/lastmile_qr_scan"}, "name": "d41df2dddc6fc7e4f8fd257a0f976ee9", "lon": -77.04128283333333, "fusion_lat": 0.0, "is_reserved": 0, "bike_id": "d41df2dddc6fc7e4f8fd257a0f976ee9", "is_disabled": 0, "fusion_lon": 0.0}, {"type": "electric_scooter", "lat": 38.90647583333333, "rental_uris": {"ios": "https://dc.lft.to/lastmile_qr_scan", "android": "https://dc.lft.to/lastmile_qr_scan"}, "name": "5ddb6ac1acfaf1bf9bc32c4dd0c6c6be", "lon": -77.00959133333333, "fusion_lat": 0.0, "is_reserved": 0, "bike_id": "5ddb6ac1acfaf1bf9bc32c4dd0c6c6be", "is_disabled": 0, "fusion_lon": 0.0}, {"type": "electric_scooter", "lat": 38.90023933333333, "rental_uris": {"ios": "https://dc.lft.to/lastmile_qr_scan", "android": "https://dc.lft.to/lastmile_qr_scan"}, "name": "5ebfb11f610631da1d830c6baf0fdaa0", "lon": -77.03735883333333, "fusion_lat": 0.0, "is_reserved": 0, "bike_id": "5ebfb11f610631da1d830c6baf0fdaa0", "is_disabled": 0, "fusion_lon": 0.0}, {"type": "electric_scooter", "lat": 38.93493733333333, "rental_uris": {"ios": "https://dc.lft.to/lastmile_qr_scan", "android": "https://dc.lft.to/lastmile_qr_scan"}, "name": "603dfa70e73618811b6eb7fd7a4647c8", "lon": -77.07271466666667, "fusion_lat": 0.0, "is_reserved": 0, "bike_id": "603dfa70e73618811b6eb7fd7a4647c8", "is_disabled": 0, "fusion_lon": 0.0}, {"type": "electric_scooter", "lat": 38.9157845, "rental_uris": {"ios": "https://dc.lft.to/lastmile_qr_scan", "android": "https://dc.lft.to/lastmile_qr_scan"}, "name": "5422195d56ac5dd6c879da642dc4295a", "lon": -77.0317995, "fusion_lat": 0.0, "is_reserved": 0, "bike_id": "5422195d56ac5dd6c879da642dc4295a", "is_disabled": 0, "fusion_lon": 0.0}, {"type": "electric_scooter", "lat": 38.903188166666666, "rental_uris": {"ios": "https://dc.lft.to/lastmile_qr_scan", "android": "https://dc.lft.to/lastmile_qr_scan"}, "name": "a05525cddb5e2048f325e73aa090df31", "lon": -77.02451016666667, "fusion_lat": 0.0, "is_reserved": 0, "bike_id": "a05525cddb5e2048f325e73aa090df31", "is_disabled": 0, "fusion_lon": 0.0}, {"type": "electric_scooter", "lat": 38.96155983333333, "rental_uris": {"ios": "https://dc.lft.to/lastmile_qr_scan", "android": "https://dc.lft.to/lastmile_qr_scan"}, "name": "ef683f7142f5da2b7ce68e5dd38814d7", "lon": -77.02791116666667, "fusion_lat": 0.0, "is_reserved": 0, "bike_id": "ef683f7142f5da2b7ce68e5dd38814d7", "is_disabled": 0, "fusion_lon": 0.0}, {"type": "electric_scooter", "lat": 38.90786116666666, "rental_uris": {"ios": "https://dc.lft.to/lastmile_qr_scan", "android": "https://dc.lft.to/lastmile_qr_scan"}, "name": "33ecaa2bc2c1cb076b21a14002b48404", "lon": -76.935251, "fusion_lat": 0.0, "is_reserved": 0, "bike_id": "33ecaa2bc2c1cb076b21a14002b48404", "is_disabled": 0, "fusion_lon": 0.0}, {"type": "electric_scooter", "lat": 38.87649283333333, "rental_uris": {"ios": "https://dc.lft.to/lastmile_qr_scan", "android": "https://dc.lft.to/lastmile_qr_scan"}, "name": "1aa80b8cd6c71b2668e334d6bd6d75bd", "lon": -77.0147245, "fusion_lat": 0.0, "is_reserved": 0, "bike_id": "1aa80b8cd6c71b2668e334d6bd6d75bd", "is_disabled": 0, "fusion_lon": 0.0}, {"type": "electric_scooter", "lat": 38.907317, "rental_uris": {"ios": "https://dc.lft.to/lastmile_qr_scan", "android": "https://dc.lft.to/lastmile_qr_scan"}, "name": "714e493eefaed07f2c353cee0ba0c22e", "lon": -77.01379433333334, "fusion_lat": 0.0, "is_reserved": 0, "bike_id": "714e493eefaed07f2c353cee0ba0c22e", "is_disabled": 0, "fusion_lon": 0.0}, {"type": "electric_scooter", "lat": 38.87905683333334, "rental_uris": {"ios": "https://dc.lft.to/lastmile_qr_scan", "android": "https://dc.lft.to/lastmile_qr_scan"}, "name": "58fc54a935745dcef98d508e07b3bb8a", "lon": -77.0019285, "fusion_lat": 0.0, "is_reserved": 0, "bike_id": "58fc54a935745dcef98d508e07b3bb8a", "is_disabled": 0, "fusion_lon": 0.0}, {"type": "electric_scooter", "lat": 38.915738, "rental_uris": {"ios": "https://dc.lft.to/lastmile_qr_scan", "android": "https://dc.lft.to/lastmile_qr_scan"}, "name": "8cc07a23437dd03a3cbfb4cc21f0c4f9", "lon": -77.02289866666666, "fusion_lat": 0.0, "is_reserved": 0, "bike_id": "8cc07a23437dd03a3cbfb4cc21f0c4f9", "is_disabled": 0, "fusion_lon": 0.0}, {"type": "electric_scooter", "lat": 38.887479166666665, "rental_uris": {"ios": "https://dc.lft.to/lastmile_qr_scan", "android": "https://dc.lft.to/lastmile_qr_scan"}, "name": "a7c5f6b33c7921bcbea192a816d9e313", "lon": -77.02568116666667, "fusion_lat": 0.0, "is_reserved": 0, "bike_id": "a7c5f6b33c7921bcbea192a816d9e313", "is_disabled": 0, "fusion_lon": 0.0}, {"type": "electric_scooter", "lat": 38.92149633333333, "rental_uris": {"ios": "https://dc.lft.to/lastmile_qr_scan", "android": "https://dc.lft.to/lastmile_qr_scan"}, "name": "11d19ced50dd2c2b8ac13fe5426260e0", "lon": -77.04366116666667, "fusion_lat": 0.0, "is_reserved": 0, "bike_id": "11d19ced50dd2c2b8ac13fe5426260e0", "is_disabled": 0, "fusion_lon": 0.0}, {"type": "electric_scooter", "lat": 38.902438, "rental_uris": {"ios": "https://dc.lft.to/lastmile_qr_scan", "android": "https://dc.lft.to/lastmile_qr_scan"}, "name": "13cd2de21260ac95b0dc63269e561298", "lon": -77.0155455, "fusion_lat": 0.0, "is_reserved": 0, "bike_id": "13cd2de21260ac95b0dc63269e561298", "is_disabled": 0, "fusion_lon": 0.0}, {"type": "electric_bike", "lat": 38.84768, "rental_uris": {"ios": "https://dc.lft.to/lastmile_qr_scan", "android": "https://dc.lft.to/lastmile_qr_scan"}, "name": "39bd78387178f4bc251ee76dbc6650bb", "lon": -76.966302, "fusion_lat": 0.0, "is_reserved": 0, "bike_id": "39bd78387178f4bc251ee76dbc6650bb", "is_disabled": 0, "fusion_lon": 0.0}, {"type": "electric_scooter", "lat": 38.84428783333333, "rental_uris": {"ios": "https://dc.lft.to/lastmile_qr_scan", "android": "https://dc.lft.to/lastmile_qr_scan"}, "name": "3b41275478129b6f23074f5713e493d4", "lon": -76.99779083333334, "fusion_lat": 0.0, "is_reserved": 0, "bike_id": "3b41275478129b6f23074f5713e493d4", "is_disabled": 0, "fusion_lon": 0.0}, {"type": "electric_scooter", "lat": 38.88755066666667, "rental_uris": {"ios": "https://dc.lft.to/lastmile_qr_scan", "android": "https://dc.lft.to/lastmile_qr_scan"}, "name": "95a2ebd532cb13c08204198bec7e740c", "lon": -77.02131816666666, "fusion_lat": 0.0, "is_reserved": 0, "bike_id": "95a2ebd532cb13c08204198bec7e740c", "is_disabled": 0, "fusion_lon": 0.0}, {"type": "electric_scooter", "lat": 38.923686000000004, "rental_uris": {"ios": "https://dc.lft.to/lastmile_qr_scan", "android": "https://dc.lft.to/lastmile_qr_scan"}, "name": "4cb2429f3cd156c14dc902769c102ce6", "lon": -77.05069816666666, "fusion_lat": 0.0, "is_reserved": 0, "bike_id": "4cb2429f3cd156c14dc902769c102ce6", "is_disabled": 0, "fusion_lon": 0.0}, {"type": "electric_bike", "lat": 38.85208383333333, "rental_uris": {"ios": "https://dc.lft.to/lastmile_qr_scan", "android": "https://dc.lft.to/lastmile_qr_scan"}, "name": "2c0509ed96589dac0e5dbb67aeb17721", "lon": -76.962992, "fusion_lat": 0.0, "is_reserved": 0, "bike_id": "2c0509ed96589dac0e5dbb67aeb17721", "is_disabled": 0, "fusion_lon": 0.0}, {"type": "electric_scooter", "lat": 38.916736666666665, "rental_uris": {"ios": "https://dc.lft.to/lastmile_qr_scan", "android": "https://dc.lft.to/lastmile_qr_scan"}, "name": "0fc1f49c2149709d27bd85464ae62e5f", "lon": -77.02721016666666, "fusion_lat": 0.0, "is_reserved": 0, "bike_id": "0fc1f49c2149709d27bd85464ae62e5f", "is_disabled": 0, "fusion_lon": 0.0}, {"type": "electric_scooter", "lat": 38.897417, "rental_uris": {"ios": "https://dc.lft.to/lastmile_qr_scan", "android": "https://dc.lft.to/lastmile_qr_scan"}, "name": "1aad030ba5c3129aa958849585a84e38", "lon": -77.049998, "fusion_lat": 0.0, "is_reserved": 0, "bike_id": "1aad030ba5c3129aa958849585a84e38", "is_disabled": 0, "fusion_lon": 0.0}, {"type": "electric_scooter", "lat": 38.90473083333333, "rental_uris": {"ios": "https://dc.lft.to/lastmile_qr_scan", "android": "https://dc.lft.to/lastmile_qr_scan"}, "name": "3c9521577e9d47ca11fb010dce53e05a", "lon": -77.03458133333334, "fusion_lat": 0.0, "is_reserved": 0, "bike_id": "3c9521577e9d47ca11fb010dce53e05a", "is_disabled": 0, "fusion_lon": 0.0}, {"type": "electric_scooter", "lat": 38.899612833333336, "rental_uris": {"ios": "https://dc.lft.to/lastmile_qr_scan", "android": "https://dc.lft.to/lastmile_qr_scan"}, "name": "81bb0fcc498b42b37ed3cabc98f45adf", "lon": -77.05096983333334, "fusion_lat": 0.0, "is_reserved": 0, "bike_id": "81bb0fcc498b42b37ed3cabc98f45adf", "is_disabled": 0, "fusion_lon": 0.0}, {"type": "electric_scooter", "lat": 38.905281, "rental_uris": {"ios": "https://dc.lft.to/lastmile_qr_scan", "android": "https://dc.lft.to/lastmile_qr_scan"}, "name": "918bcf2928b53caa1f9b2e42192cc9d1", "lon": -77.065877, "fusion_lat": 0.0, "is_reserved": 0, "bike_id": "918bcf2928b53caa1f9b2e42192cc9d1", "is_disabled": 0, "fusion_lon": 0.0}, {"type": "electric_scooter", "lat": 38.91271, "rental_uris": {"ios": "https://dc.lft.to/lastmile_qr_scan", "android": "https://dc.lft.to/lastmile_qr_scan"}, "name": "c1a8a117ed8f9d0d3421c3accd9262ff", "lon": -77.03910416666666, "fusion_lat": 0.0, "is_reserved": 0, "bike_id": "c1a8a117ed8f9d0d3421c3accd9262ff", "is_disabled": 0, "fusion_lon": 0.0}, {"type": "electric_scooter", "lat": 38.909353833333334, "rental_uris": {"ios": "https://dc.lft.to/lastmile_qr_scan", "android": "https://dc.lft.to/lastmile_qr_scan"}, "name": "04dce35bf96fbb1734eea8e5f3f2f3da", "lon": -76.99968783333334, "fusion_lat": 0.0, "is_reserved": 0, "bike_id": "04dce35bf96fbb1734eea8e5f3f2f3da", "is_disabled": 0, "fusion_lon": 0.0}, {"type": "electric_scooter", "lat": 38.90730966666667, "rental_uris": {"ios": "https://dc.lft.to/lastmile_qr_scan", "android": "https://dc.lft.to/lastmile_qr_scan"}, "name": "e5906e64150dddabf4936a9d832a9b55", "lon": -77.0345785, "fusion_lat": 0.0, "is_reserved": 0, "bike_id": "e5906e64150dddabf4936a9d832a9b55", "is_disabled": 0, "fusion_lon": 0.0}, {"type": "electric_scooter", "lat": 38.87673266666667, "rental_uris": {"ios": "https://dc.lft.to/lastmile_qr_scan", "android": "https://dc.lft.to/lastmile_qr_scan"}, "name": "9b492a3a3a080484d7d8423316fdd6f7", "lon": -77.00739116666666, "fusion_lat": 0.0, "is_reserved": 0, "bike_id": "9b492a3a3a080484d7d8423316fdd6f7", "is_disabled": 0, "fusion_lon": 0.0}, {"type": "electric_bike", "lat": 38.9229755, "rental_uris": {"ios": "https://dc.lft.to/lastmile_qr_scan", "android": "https://dc.lft.to/lastmile_qr_scan"}, "name": "a8a01236e8c80e7874a53ee790bdcec1", "lon": -77.042498, "fusion_lat": 0.0, "is_reserved": 0, "bike_id": "a8a01236e8c80e7874a53ee790bdcec1", "is_disabled": 0, "fusion_lon": 0.0}, {"type": "electric_scooter", "lat": 38.917010166666664, "rental_uris": {"ios": "https://dc.lft.to/lastmile_qr_scan", "android": "https://dc.lft.to/lastmile_qr_scan"}, "name": "c3b7c85d5c6ad999247da4b499e1e05e", "lon": -77.02898433333333, "fusion_lat": 0.0, "is_reserved": 0, "bike_id": "c3b7c85d5c6ad999247da4b499e1e05e", "is_disabled": 0, "fusion_lon": 0.0}, {"type": "electric_scooter", "lat": 38.883836, "rental_uris": {"ios": "https://dc.lft.to/lastmile_qr_scan", "android": "https://dc.lft.to/lastmile_qr_scan"}, "name": "a60917b1804a291e84e37ea9b49b6792", "lon": -77.00528483333333, "fusion_lat": 0.0, "is_reserved": 0, "bike_id": "a60917b1804a291e84e37ea9b49b6792", "is_disabled": 0, "fusion_lon": 0.0}, {"type": "electric_scooter", "lat": 38.909857333333335, "rental_uris": {"ios": "https://dc.lft.to/lastmile_qr_scan", "android": "https://dc.lft.to/lastmile_qr_scan"}, "name": "54155ce732db05efc35affde5e64adf0", "lon": -77.021869, "fusion_lat": 0.0, "is_reserved": 0, "bike_id": "54155ce732db05efc35affde5e64adf0", "is_disabled": 0, "fusion_lon": 0.0}, {"type": "electric_scooter", "lat": 38.912024, "rental_uris": {"ios": "https://dc.lft.to/lastmile_qr_scan", "android": "https://dc.lft.to/lastmile_qr_scan"}, "name": "29b6efa3226706ba197d3661809154bd", "lon": -77.00439116666666, "fusion_lat": 0.0, "is_reserved": 0, "bike_id": "29b6efa3226706ba197d3661809154bd", "is_disabled": 0, "fusion_lon": 0.0}, {"type": "electric_scooter", "lat": 38.901097, "rental_uris": {"ios": "https://dc.lft.to/lastmile_qr_scan", "android": "https://dc.lft.to/lastmile_qr_scan"}, "name": "177aa7fe227c34e761fc695c290c8d2a", "lon": -76.93043366666667, "fusion_lat": 0.0, "is_reserved": 0, "bike_id": "177aa7fe227c34e761fc695c290c8d2a", "is_disabled": 0, "fusion_lon": 0.0}, {"type": "electric_scooter", "lat": 38.911995, "rental_uris": {"ios": "https://dc.lft.to/lastmile_qr_scan", "android": "https://dc.lft.to/lastmile_qr_scan"}, "name": "ab2531fc6a67d509a1c4eafd5f415198", "lon": -77.011769, "fusion_lat": 0.0, "is_reserved": 0, "bike_id": "ab2531fc6a67d509a1c4eafd5f415198", "is_disabled": 0, "fusion_lon": 0.0}, {"type": "electric_scooter", "lat": 38.907922666666664, "rental_uris": {"ios": "https://dc.lft.to/lastmile_qr_scan", "android": "https://dc.lft.to/lastmile_qr_scan"}, "name": "d10ab2eb645cd49c709c03d5d53e372a", "lon": -77.04240083333333, "fusion_lat": 0.0, "is_reserved": 0, "bike_id": "d10ab2eb645cd49c709c03d5d53e372a", "is_disabled": 0, "fusion_lon": 0.0}, {"type": "electric_scooter", "lat": 38.926016, "rental_uris": {"ios": "https://dc.lft.to/lastmile_qr_scan", "android": "https://dc.lft.to/lastmile_qr_scan"}, "name": "b9396569a5bce6d7ba9f4df47db6d174", "lon": -77.03231366666667, "fusion_lat": 0.0, "is_reserved": 0, "bike_id": "b9396569a5bce6d7ba9f4df47db6d174", "is_disabled": 0, "fusion_lon": 0.0}, {"type": "electric_scooter", "lat": 38.860182, "rental_uris": {"ios": "https://dc.lft.to/lastmile_qr_scan", "android": "https://dc.lft.to/lastmile_qr_scan"}, "name": "2c20184317f2005f0f9fdf3a7f74b492", "lon": -76.96708016666666, "fusion_lat": 0.0, "is_reserved": 0, "bike_id": "2c20184317f2005f0f9fdf3a7f74b492", "is_disabled": 0, "fusion_lon": 0.0}, {"type": "electric_scooter", "lat": 38.8942785, "rental_uris": {"ios": "https://dc.lft.to/lastmile_qr_scan", "android": "https://dc.lft.to/lastmile_qr_scan"}, "name": "d7abc693858789b4868dd637e3212b0b", "lon": -77.0217035, "fusion_lat": 0.0, "is_reserved": 0, "bike_id": "d7abc693858789b4868dd637e3212b0b", "is_disabled": 0, "fusion_lon": 0.0}, {"type": "electric_scooter", "lat": 38.926478833333334, "rental_uris": {"ios": "https://dc.lft.to/lastmile_qr_scan", "android": "https://dc.lft.to/lastmile_qr_scan"}, "name": "610cf60619444deb01482c539e79f044", "lon": -77.03706716666667, "fusion_lat": 0.0, "is_reserved": 0, "bike_id": "610cf60619444deb01482c539e79f044", "is_disabled": 0, "fusion_lon": 0.0}, {"type": "electric_scooter", "lat": 38.91651066666667, "rental_uris": {"ios": "https://dc.lft.to/lastmile_qr_scan", "android": "https://dc.lft.to/lastmile_qr_scan"}, "name": "51c162ad838c48f849b78821cfdb3ac6", "lon": -77.041762, "fusion_lat": 0.0, "is_reserved": 0, "bike_id": "51c162ad838c48f849b78821cfdb3ac6", "is_disabled": 0, "fusion_lon": 0.0}, {"type": "electric_scooter", "lat": 38.91826833333333, "rental_uris": {"ios": "https://dc.lft.to/lastmile_qr_scan", "android": "https://dc.lft.to/lastmile_qr_scan"}, "name": "bed9701b3e6b6701af915d4df8491e74", "lon": -77.02416166666667, "fusion_lat": 0.0, "is_reserved": 0, "bike_id": "bed9701b3e6b6701af915d4df8491e74", "is_disabled": 0, "fusion_lon": 0.0}, {"type": "electric_scooter", "lat": 38.910620333333334, "rental_uris": {"ios": "https://dc.lft.to/lastmile_qr_scan", "android": "https://dc.lft.to/lastmile_qr_scan"}, "name": "8178371ee843f2d6bc08d86071ee023d", "lon": -77.0221255, "fusion_lat": 0.0, "is_reserved": 0, "bike_id": "8178371ee843f2d6bc08d86071ee023d", "is_disabled": 0, "fusion_lon": 0.0}, {"type": "electric_scooter", "lat": 38.923189666666666, "rental_uris": {"ios": "https://dc.lft.to/lastmile_qr_scan", "android": "https://dc.lft.to/lastmile_qr_scan"}, "name": "de4f093bd3ee8064e22d20b8b1d00e29", "lon": -77.04038416666667, "fusion_lat": 0.0, "is_reserved": 0, "bike_id": "de4f093bd3ee8064e22d20b8b1d00e29", "is_disabled": 0, "fusion_lon": 0.0}, {"type": "electric_scooter", "lat": 38.92741683333333, "rental_uris": {"ios": "https://dc.lft.to/lastmile_qr_scan", "android": "https://dc.lft.to/lastmile_qr_scan"}, "name": "8a075947f0d350ce3666b5933087a684", "lon": -77.02283866666667, "fusion_lat": 0.0, "is_reserved": 0, "bike_id": "8a075947f0d350ce3666b5933087a684", "is_disabled": 0, "fusion_lon": 0.0}, {"type": "electric_scooter", "lat": 38.915540666666665, "rental_uris": {"ios": "https://dc.lft.to/lastmile_qr_scan", "android": "https://dc.lft.to/lastmile_qr_scan"}, "name": "b84effbf30ae78c8881f12b1d46baf50", "lon": -77.02368816666667, "fusion_lat": 0.0, "is_reserved": 0, "bike_id": "b84effbf30ae78c8881f12b1d46baf50", "is_disabled": 0, "fusion_lon": 0.0}, {"type": "electric_scooter", "lat": 38.914949, "rental_uris": {"ios": "https://dc.lft.to/lastmile_qr_scan", "android": "https://dc.lft.to/lastmile_qr_scan"}, "name": "89700734e1798bf80a5bc0df7a7a10d9", "lon": -77.0376935, "fusion_lat": 0.0, "is_reserved": 0, "bike_id": "89700734e1798bf80a5bc0df7a7a10d9", "is_disabled": 0, "fusion_lon": 0.0}, {"type": "electric_scooter", "lat": 38.87377266666667, "rental_uris": {"ios": "https://dc.lft.to/lastmile_qr_scan", "android": "https://dc.lft.to/lastmile_qr_scan"}, "name": "0bfbf7f62dd5f55a0a4e44b0610fdad4", "lon": -77.00130666666666, "fusion_lat": 0.0, "is_reserved": 0, "bike_id": "0bfbf7f62dd5f55a0a4e44b0610fdad4", "is_disabled": 0, "fusion_lon": 0.0}, {"type": "electric_scooter", "lat": 38.90471983333333, "rental_uris": {"ios": "https://dc.lft.to/lastmile_qr_scan", "android": "https://dc.lft.to/lastmile_qr_scan"}, "name": "3ddb126d3ee9b8389c9148563f97acf3", "lon": -77.06607883333334, "fusion_lat": 0.0, "is_reserved": 0, "bike_id": "3ddb126d3ee9b8389c9148563f97acf3", "is_disabled": 0, "fusion_lon": 0.0}, {"type": "electric_scooter", "lat": 38.8721255, "rental_uris": {"ios": "https://dc.lft.to/lastmile_qr_scan", "android": "https://dc.lft.to/lastmile_qr_scan"}, "name": "69bd04229bad215cd977a665d611becb", "lon": -77.01638933333334, "fusion_lat": 0.0, "is_reserved": 0, "bike_id": "69bd04229bad215cd977a665d611becb", "is_disabled": 0, "fusion_lon": 0.0}, {"type": "electric_scooter", "lat": 38.89833816666667, "rental_uris": {"ios": "https://dc.lft.to/lastmile_qr_scan", "android": "https://dc.lft.to/lastmile_qr_scan"}, "name": "50b3392e476eae9fdfc1b6648ada4dcc", "lon": -77.01529733333334, "fusion_lat": 0.0, "is_reserved": 0, "bike_id": "50b3392e476eae9fdfc1b6648ada4dcc", "is_disabled": 0, "fusion_lon": 0.0}, {"type": "electric_bike", "lat": 38.98795116666667, "rental_uris": {"ios": "https://dc.lft.to/lastmile_qr_scan", "android": "https://dc.lft.to/lastmile_qr_scan"}, "name": "1d3106d59acc147983d10b8a7828bb48", "lon": -77.1409885, "fusion_lat": 0.0, "is_reserved": 0, "bike_id": "1d3106d59acc147983d10b8a7828bb48", "is_disabled": 0, "fusion_lon": 0.0}, {"type": "electric_scooter", "lat": 38.895472166666664, "rental_uris": {"ios": "https://dc.lft.to/lastmile_qr_scan", "android": "https://dc.lft.to/lastmile_qr_scan"}, "name": "8f2fc25f703af506fdb009cebaa1fab4", "lon": -76.98339083333333, "fusion_lat": 0.0, "is_reserved": 0, "bike_id": "8f2fc25f703af506fdb009cebaa1fab4", "is_disabled": 0, "fusion_lon": 0.0}, {"type": "electric_scooter", "lat": 38.926039333333335, "rental_uris": {"ios": "https://dc.lft.to/lastmile_qr_scan", "android": "https://dc.lft.to/lastmile_qr_scan"}, "name": "a0e2bc0864fc33284cbf287b406c1488", "lon": -77.02154883333333, "fusion_lat": 0.0, "is_reserved": 0, "bike_id": "a0e2bc0864fc33284cbf287b406c1488", "is_disabled": 0, "fusion_lon": 0.0}, {"type": "electric_scooter", "lat": 38.902703833333334, "rental_uris": {"ios": "https://dc.lft.to/lastmile_qr_scan", "android": "https://dc.lft.to/lastmile_qr_scan"}, "name": "a3e8c068459c356912a24f06047961f1", "lon": -77.02997216666667, "fusion_lat": 0.0, "is_reserved": 0, "bike_id": "a3e8c068459c356912a24f06047961f1", "is_disabled": 0, "fusion_lon": 0.0}, {"type": "electric_scooter", "lat": 38.88733216666667, "rental_uris": {"ios": "https://dc.lft.to/lastmile_qr_scan", "android": "https://dc.lft.to/lastmile_qr_scan"}, "name": "84898df8637dc67e4620153265f636c3", "lon": -76.98357366666667, "fusion_lat": 0.0, "is_reserved": 0, "bike_id": "84898df8637dc67e4620153265f636c3", "is_disabled": 0, "fusion_lon": 0.0}, {"type": "electric_scooter", "lat": 38.87556633333333, "rental_uris": {"ios": "https://dc.lft.to/lastmile_qr_scan", "android": "https://dc.lft.to/lastmile_qr_scan"}, "name": "1bb21d59b8d8d5e3dbbd1a14a19d445c", "lon": -77.005935, "fusion_lat": 0.0, "is_reserved": 0, "bike_id": "1bb21d59b8d8d5e3dbbd1a14a19d445c", "is_disabled": 0, "fusion_lon": 0.0}, {"type": "electric_bike", "lat": 38.897457333333335, "rental_uris": {"ios": "https://dc.lft.to/lastmile_qr_scan", "android": "https://dc.lft.to/lastmile_qr_scan"}, "name": "2f5f77485abc6aeb693064949e1e7eb5", "lon": -76.99222333333333, "fusion_lat": 0.0, "is_reserved": 0, "bike_id": "2f5f77485abc6aeb693064949e1e7eb5", "is_disabled": 0, "fusion_lon": 0.0}, {"type": "electric_scooter", "lat": 38.88418516666667, "rental_uris": {"ios": "https://dc.lft.to/lastmile_qr_scan", "android": "https://dc.lft.to/lastmile_qr_scan"}, "name": "0f8dbe7009a194758724cb77594cb577", "lon": -76.94208033333334, "fusion_lat": 0.0, "is_reserved": 0, "bike_id": "0f8dbe7009a194758724cb77594cb577", "is_disabled": 0, "fusion_lon": 0.0}, {"type": "electric_scooter", "lat": 38.923495833333334, "rental_uris": {"ios": "https://dc.lft.to/lastmile_qr_scan", "android": "https://dc.lft.to/lastmile_qr_scan"}, "name": "387c00733ed918a7b6d8730e3e08de5d", "lon": -77.05170666666666, "fusion_lat": 0.0, "is_reserved": 0, "bike_id": "387c00733ed918a7b6d8730e3e08de5d", "is_disabled": 0, "fusion_lon": 0.0}, {"type": "electric_scooter", "lat": 38.93333416666667, "rental_uris": {"ios": "https://dc.lft.to/lastmile_qr_scan", "android": "https://dc.lft.to/lastmile_qr_scan"}, "name": "43a237d77af5b710eaf8298bb3a1660b", "lon": -77.03265816666666, "fusion_lat": 0.0, "is_reserved": 0, "bike_id": "43a237d77af5b710eaf8298bb3a1660b", "is_disabled": 0, "fusion_lon": 0.0}, {"type": "electric_scooter", "lat": 38.91194683333333, "rental_uris": {"ios": "https://dc.lft.to/lastmile_qr_scan", "android": "https://dc.lft.to/lastmile_qr_scan"}, "name": "4e4f3cf0bd35facaac1897d1b3b77411", "lon": -77.03215133333333, "fusion_lat": 0.0, "is_reserved": 0, "bike_id": "4e4f3cf0bd35facaac1897d1b3b77411", "is_disabled": 0, "fusion_lon": 0.0}, {"type": "electric_scooter", "lat": 38.8952725, "rental_uris": {"ios": "https://dc.lft.to/lastmile_qr_scan", "android": "https://dc.lft.to/lastmile_qr_scan"}, "name": "fa13e62bf3fedcb0d31f2e379bf95eed", "lon": -77.04482283333333, "fusion_lat": 0.0, "is_reserved": 0, "bike_id": "fa13e62bf3fedcb0d31f2e379bf95eed", "is_disabled": 0, "fusion_lon": 0.0}, {"type": "electric_scooter", "lat": 38.908419333333335, "rental_uris": {"ios": "https://dc.lft.to/lastmile_qr_scan", "android": "https://dc.lft.to/lastmile_qr_scan"}, "name": "74776fac8201ac0e182afd54308af68a", "lon": -76.999717, "fusion_lat": 0.0, "is_reserved": 0, "bike_id": "74776fac8201ac0e182afd54308af68a", "is_disabled": 0, "fusion_lon": 0.0}, {"type": "electric_scooter", "lat": 38.9177715, "rental_uris": {"ios": "https://dc.lft.to/lastmile_qr_scan", "android": "https://dc.lft.to/lastmile_qr_scan"}, "name": "a8299dc2da9bebaa9b1cdbe2bb3516da", "lon": -77.0321485, "fusion_lat": 0.0, "is_reserved": 0, "bike_id": "a8299dc2da9bebaa9b1cdbe2bb3516da", "is_disabled": 0, "fusion_lon": 0.0}, {"type": "electric_scooter", "lat": 38.92346766666667, "rental_uris": {"ios": "https://dc.lft.to/lastmile_qr_scan", "android": "https://dc.lft.to/lastmile_qr_scan"}, "name": "9e81393665d909adacb47bc4c7aceebf", "lon": -77.00916283333333, "fusion_lat": 0.0, "is_reserved": 0, "bike_id": "9e81393665d909adacb47bc4c7aceebf", "is_disabled": 0, "fusion_lon": 0.0}, {"type": "electric_scooter", "lat": 38.873947333333334, "rental_uris": {"ios": "https://dc.lft.to/lastmile_qr_scan", "android": "https://dc.lft.to/lastmile_qr_scan"}, "name": "11406d16ca8d3e29726b081c8926653b", "lon": -77.0002945, "fusion_lat": 0.0, "is_reserved": 0, "bike_id": "11406d16ca8d3e29726b081c8926653b", "is_disabled": 0, "fusion_lon": 0.0}, {"type": "electric_scooter", "lat": 38.90311533333333, "rental_uris": {"ios": "https://dc.lft.to/lastmile_qr_scan", "android": "https://dc.lft.to/lastmile_qr_scan"}, "name": "b74f9d6bf6df3363535d35ab58be8f01", "lon": -77.061202, "fusion_lat": 0.0, "is_reserved": 0, "bike_id": "b74f9d6bf6df3363535d35ab58be8f01", "is_disabled": 0, "fusion_lon": 0.0}, {"type": "electric_scooter", "lat": 38.87837116666667, "rental_uris": {"ios": "https://dc.lft.to/lastmile_qr_scan", "android": "https://dc.lft.to/lastmile_qr_scan"}, "name": "dc3e3b6d98dec0490717f9907032a7d2", "lon": -77.00546283333334, "fusion_lat": 0.0, "is_reserved": 0, "bike_id": "dc3e3b6d98dec0490717f9907032a7d2", "is_disabled": 0, "fusion_lon": 0.0}, {"type": "electric_scooter", "lat": 38.919873833333334, "rental_uris": {"ios": "https://dc.lft.to/lastmile_qr_scan", "android": "https://dc.lft.to/lastmile_qr_scan"}, "name": "fcc45d83b65fc71724772d5f064778f3", "lon": -77.041648, "fusion_lat": 0.0, "is_reserved": 0, "bike_id": "fcc45d83b65fc71724772d5f064778f3", "is_disabled": 0, "fusion_lon": 0.0}, {"type": "electric_scooter", "lat": 38.903935833333335, "rental_uris": {"ios": "https://dc.lft.to/lastmile_qr_scan", "android": "https://dc.lft.to/lastmile_qr_scan"}, "name": "ed818838b6f327c433057a0b5494b8b3", "lon": -77.01745266666667, "fusion_lat": 0.0, "is_reserved": 0, "bike_id": "ed818838b6f327c433057a0b5494b8b3", "is_disabled": 0, "fusion_lon": 0.0}, {"type": "electric_scooter", "lat": 38.961538833333336, "rental_uris": {"ios": "https://dc.lft.to/lastmile_qr_scan", "android": "https://dc.lft.to/lastmile_qr_scan"}, "name": "1c757f40ef72a582f40915f4de23e3fc", "lon": -77.02789016666667, "fusion_lat": 0.0, "is_reserved": 0, "bike_id": "1c757f40ef72a582f40915f4de23e3fc", "is_disabled": 0, "fusion_lon": 0.0}, {"type": "electric_scooter", "lat": 38.9175305, "rental_uris": {"ios": "https://dc.lft.to/lastmile_qr_scan", "android": "https://dc.lft.to/lastmile_qr_scan"}, "name": "2a492026f786ca23ba13e0da0e441b28", "lon": -77.0693845, "fusion_lat": 0.0, "is_reserved": 0, "bike_id": "2a492026f786ca23ba13e0da0e441b28", "is_disabled": 0, "fusion_lon": 0.0}, {"type": "electric_scooter", "lat": 38.925035, "rental_uris": {"ios": "https://dc.lft.to/lastmile_qr_scan", "android": "https://dc.lft.to/lastmile_qr_scan"}, "name": "7cc6525e232ecc05b3bb7ef1be4d4bee", "lon": -77.0245215, "fusion_lat": 0.0, "is_reserved": 0, "bike_id": "7cc6525e232ecc05b3bb7ef1be4d4bee", "is_disabled": 0, "fusion_lon": 0.0}, {"type": "electric_scooter", "lat": 38.876568166666665, "rental_uris": {"ios": "https://dc.lft.to/lastmile_qr_scan", "android": "https://dc.lft.to/lastmile_qr_scan"}, "name": "c6cc5453375a848c09b4f9b13091191f", "lon": -77.00709716666667, "fusion_lat": 0.0, "is_reserved": 0, "bike_id": "c6cc5453375a848c09b4f9b13091191f", "is_disabled": 0, "fusion_lon": 0.0}, {"type": "electric_scooter", "lat": 38.922631333333335, "rental_uris": {"ios": "https://dc.lft.to/lastmile_qr_scan", "android": "https://dc.lft.to/lastmile_qr_scan"}, "name": "f02209a036be2eb7da0e00cd925a2c05", "lon": -77.035173, "fusion_lat": 0.0, "is_reserved": 0, "bike_id": "f02209a036be2eb7da0e00cd925a2c05", "is_disabled": 0, "fusion_lon": 0.0}, {"type": "electric_scooter", "lat": 38.9024445, "rental_uris": {"ios": "https://dc.lft.to/lastmile_qr_scan", "android": "https://dc.lft.to/lastmile_qr_scan"}, "name": "ab13f21320b184aea47234760c897eec", "lon": -77.04622666666667, "fusion_lat": 0.0, "is_reserved": 0, "bike_id": "ab13f21320b184aea47234760c897eec", "is_disabled": 0, "fusion_lon": 0.0}, {"type": "electric_scooter", "lat": 38.921012833333336, "rental_uris": {"ios": "https://dc.lft.to/lastmile_qr_scan", "android": "https://dc.lft.to/lastmile_qr_scan"}, "name": "3d6d1dab45b36ce9faca91f3cd1ca356", "lon": -77.02510533333333, "fusion_lat": 0.0, "is_reserved": 0, "bike_id": "3d6d1dab45b36ce9faca91f3cd1ca356", "is_disabled": 0, "fusion_lon": 0.0}, {"type": "electric_scooter", "lat": 38.8922135, "rental_uris": {"ios": "https://dc.lft.to/lastmile_qr_scan", "android": "https://dc.lft.to/lastmile_qr_scan"}, "name": "55624a28bc07af542631cfdbedb55e0d", "lon": -77.02630183333333, "fusion_lat": 0.0, "is_reserved": 0, "bike_id": "55624a28bc07af542631cfdbedb55e0d", "is_disabled": 0, "fusion_lon": 0.0}, {"type": "electric_scooter", "lat": 38.922337666666664, "rental_uris": {"ios": "https://dc.lft.to/lastmile_qr_scan", "android": "https://dc.lft.to/lastmile_qr_scan"}, "name": "87cc3cf4282f9c98d3c333f15ce0a292", "lon": -77.02332133333333, "fusion_lat": 0.0, "is_reserved": 0, "bike_id": "87cc3cf4282f9c98d3c333f15ce0a292", "is_disabled": 0, "fusion_lon": 0.0}, {"type": "electric_scooter", "lat": 38.939753333333336, "rental_uris": {"ios": "https://dc.lft.to/lastmile_qr_scan", "android": "https://dc.lft.to/lastmile_qr_scan"}, "name": "93125c13d163f579396272a0b1380656", "lon": -77.03252216666667, "fusion_lat": 0.0, "is_reserved": 0, "bike_id": "93125c13d163f579396272a0b1380656", "is_disabled": 0, "fusion_lon": 0.0}, {"type": "electric_scooter", "lat": 38.923670666666666, "rental_uris": {"ios": "https://dc.lft.to/lastmile_qr_scan", "android": "https://dc.lft.to/lastmile_qr_scan"}, "name": "eccdb4edb213935ef2c59adc8918d520", "lon": -77.05075516666666, "fusion_lat": 0.0, "is_reserved": 0, "bike_id": "eccdb4edb213935ef2c59adc8918d520", "is_disabled": 0, "fusion_lon": 0.0}, {"type": "electric_scooter", "lat": 38.898332333333336, "rental_uris": {"ios": "https://dc.lft.to/lastmile_qr_scan", "android": "https://dc.lft.to/lastmile_qr_scan"}, "name": "859619e9d1323ca8b95f0a1c42bcbb26", "lon": -77.03036116666667, "fusion_lat": 0.0, "is_reserved": 0, "bike_id": "859619e9d1323ca8b95f0a1c42bcbb26", "is_disabled": 0, "fusion_lon": 0.0}, {"type": "electric_scooter", "lat": 38.91252583333333, "rental_uris": {"ios": "https://dc.lft.to/lastmile_qr_scan", "android": "https://dc.lft.to/lastmile_qr_scan"}, "name": "0c5860f7be8920426b952a88ea7ba242", "lon": -77.058813, "fusion_lat": 0.0, "is_reserved": 0, "bike_id": "0c5860f7be8920426b952a88ea7ba242", "is_disabled": 0, "fusion_lon": 0.0}, {"type": "electric_scooter", "lat": 38.8850115, "rental_uris": {"ios": "https://dc.lft.to/lastmile_qr_scan", "android": "https://dc.lft.to/lastmile_qr_scan"}, "name": "a31176238eab5058032fc0167b8c94e1", "lon": -76.98061766666666, "fusion_lat": 0.0, "is_reserved": 0, "bike_id": "a31176238eab5058032fc0167b8c94e1", "is_disabled": 0, "fusion_lon": 0.0}, {"type": "electric_scooter", "lat": 38.931030166666666, "rental_uris": {"ios": "https://dc.lft.to/lastmile_qr_scan", "android": "https://dc.lft.to/lastmile_qr_scan"}, "name": "0706005420ce81917d626e0f7045ad98", "lon": -77.0309485, "fusion_lat": 0.0, "is_reserved": 0, "bike_id": "0706005420ce81917d626e0f7045ad98", "is_disabled": 0, "fusion_lon": 0.0}, {"type": "electric_bike", "lat": 38.961889, "rental_uris": {"ios": "https://dc.lft.to/lastmile_qr_scan", "android": "https://dc.lft.to/lastmile_qr_scan"}, "name": "89cd4bbab205f8d31f68949d84335d21", "lon": -77.05265933333334, "fusion_lat": 0.0, "is_reserved": 0, "bike_id": "89cd4bbab205f8d31f68949d84335d21", "is_disabled": 0, "fusion_lon": 0.0}, {"type": "electric_scooter", "lat": 38.9211565, "rental_uris": {"ios": "https://dc.lft.to/lastmile_qr_scan", "android": "https://dc.lft.to/lastmile_qr_scan"}, "name": "2de0d39abb1bba1b68e77a6c859fc094", "lon": -77.04207033333333, "fusion_lat": 0.0, "is_reserved": 0, "bike_id": "2de0d39abb1bba1b68e77a6c859fc094", "is_disabled": 0, "fusion_lon": 0.0}, {"type": "electric_scooter", "lat": 38.965772666666666, "rental_uris": {"ios": "https://dc.lft.to/lastmile_qr_scan", "android": "https://dc.lft.to/lastmile_qr_scan"}, "name": "20a058fb5f4251efb74b320c93626606", "lon": -77.0026645, "fusion_lat": 0.0, "is_reserved": 0, "bike_id": "20a058fb5f4251efb74b320c93626606", "is_disabled": 0, "fusion_lon": 0.0}, {"type": "electric_scooter", "lat": 38.873420333333335, "rental_uris": {"ios": "https://dc.lft.to/lastmile_qr_scan", "android": "https://dc.lft.to/lastmile_qr_scan"}, "name": "23542b1534b4eb28f6d572d456c56311", "lon": -76.99167683333333, "fusion_lat": 0.0, "is_reserved": 0, "bike_id": "23542b1534b4eb28f6d572d456c56311", "is_disabled": 0, "fusion_lon": 0.0}, {"type": "electric_scooter", "lat": 38.867381, "rental_uris": {"ios": "https://dc.lft.to/lastmile_qr_scan", "android": "https://dc.lft.to/lastmile_qr_scan"}, "name": "7f7aea554eae58a20523055e8ea0ed2a", "lon": -76.98781183333334, "fusion_lat": 0.0, "is_reserved": 0, "bike_id": "7f7aea554eae58a20523055e8ea0ed2a", "is_disabled": 0, "fusion_lon": 0.0}, {"type": "electric_scooter", "lat": 38.895846666666664, "rental_uris": {"ios": "https://dc.lft.to/lastmile_qr_scan", "android": "https://dc.lft.to/lastmile_qr_scan"}, "name": "5ea7f14cd479b7b0ff16038a119c4773", "lon": -76.9487885, "fusion_lat": 0.0, "is_reserved": 0, "bike_id": "5ea7f14cd479b7b0ff16038a119c4773", "is_disabled": 0, "fusion_lon": 0.0}, {"type": "electric_scooter", "lat": 38.904953166666665, "rental_uris": {"ios": "https://dc.lft.to/lastmile_qr_scan", "android": "https://dc.lft.to/lastmile_qr_scan"}, "name": "5fa4814d461e0ffcfdeb31e3066a7568", "lon": -77.02114516666667, "fusion_lat": 0.0, "is_reserved": 0, "bike_id": "5fa4814d461e0ffcfdeb31e3066a7568", "is_disabled": 0, "fusion_lon": 0.0}, {"type": "electric_scooter", "lat": 38.917235166666664, "rental_uris": {"ios": "https://dc.lft.to/lastmile_qr_scan", "android": "https://dc.lft.to/lastmile_qr_scan"}, "name": "804ef948fe7644438718e57e56ddf771", "lon": -77.02700183333333, "fusion_lat": 0.0, "is_reserved": 0, "bike_id": "804ef948fe7644438718e57e56ddf771", "is_disabled": 0, "fusion_lon": 0.0}, {"type": "electric_scooter", "lat": 38.924269833333334, "rental_uris": {"ios": "https://dc.lft.to/lastmile_qr_scan", "android": "https://dc.lft.to/lastmile_qr_scan"}, "name": "0c40a8c9d09522e06da0a9af43436929", "lon": -77.0574695, "fusion_lat": 0.0, "is_reserved": 0, "bike_id": "0c40a8c9d09522e06da0a9af43436929", "is_disabled": 0, "fusion_lon": 0.0}, {"type": "electric_scooter", "lat": 38.896196333333336, "rental_uris": {"ios": "https://dc.lft.to/lastmile_qr_scan", "android": "https://dc.lft.to/lastmile_qr_scan"}, "name": "7fe6772623800c6035c0f261efc2b82d", "lon": -77.00191316666667, "fusion_lat": 0.0, "is_reserved": 0, "bike_id": "7fe6772623800c6035c0f261efc2b82d", "is_disabled": 0, "fusion_lon": 0.0}, {"type": "electric_scooter", "lat": 38.8722235, "rental_uris": {"ios": "https://dc.lft.to/lastmile_qr_scan", "android": "https://dc.lft.to/lastmile_qr_scan"}, "name": "c3866f28588d7847a07418703db89326", "lon": -77.01225216666667, "fusion_lat": 0.0, "is_reserved": 0, "bike_id": "c3866f28588d7847a07418703db89326", "is_disabled": 0, "fusion_lon": 0.0}, {"type": "electric_scooter", "lat": 38.8922675, "rental_uris": {"ios": "https://dc.lft.to/lastmile_qr_scan", "android": "https://dc.lft.to/lastmile_qr_scan"}, "name": "aba9e47a93bcc6123eb0837c4d174bc0", "lon": -77.02629533333334, "fusion_lat": 0.0, "is_reserved": 0, "bike_id": "aba9e47a93bcc6123eb0837c4d174bc0", "is_disabled": 0, "fusion_lon": 0.0}, {"type": "electric_scooter", "lat": 38.90404566666667, "rental_uris": {"ios": "https://dc.lft.to/lastmile_qr_scan", "android": "https://dc.lft.to/lastmile_qr_scan"}, "name": "c6c6daf4592e524d5df3bfab68719964", "lon": -77.06807133333334, "fusion_lat": 0.0, "is_reserved": 0, "bike_id": "c6c6daf4592e524d5df3bfab68719964", "is_disabled": 0, "fusion_lon": 0.0}, {"type": "electric_scooter", "lat": 38.92128116666667, "rental_uris": {"ios": "https://dc.lft.to/lastmile_qr_scan", "android": "https://dc.lft.to/lastmile_qr_scan"}, "name": "e56ca8b373f1da3a47c1bb315027dadd", "lon": -77.01803666666666, "fusion_lat": 0.0, "is_reserved": 0, "bike_id": "e56ca8b373f1da3a47c1bb315027dadd", "is_disabled": 0, "fusion_lon": 0.0}, {"type": "electric_scooter", "lat": 38.904624166666665, "rental_uris": {"ios": "https://dc.lft.to/lastmile_qr_scan", "android": "https://dc.lft.to/lastmile_qr_scan"}, "name": "4233086cd7561d1afb1bdb4fdea6fed6", "lon": -77.00167133333333, "fusion_lat": 0.0, "is_reserved": 0, "bike_id": "4233086cd7561d1afb1bdb4fdea6fed6", "is_disabled": 0, "fusion_lon": 0.0}, {"type": "electric_scooter", "lat": 38.877149333333335, "rental_uris": {"ios": "https://dc.lft.to/lastmile_qr_scan", "android": "https://dc.lft.to/lastmile_qr_scan"}, "name": "823eaa48ac5e97f10e72ac170923de53", "lon": -76.9969475, "fusion_lat": 0.0, "is_reserved": 0, "bike_id": "823eaa48ac5e97f10e72ac170923de53", "is_disabled": 0, "fusion_lon": 0.0}, {"type": "electric_scooter", "lat": 38.908617166666666, "rental_uris": {"ios": "https://dc.lft.to/lastmile_qr_scan", "android": "https://dc.lft.to/lastmile_qr_scan"}, "name": "a7dd2c9c3bc8ba2224cce0c2927cff01", "lon": -77.06396683333334, "fusion_lat": 0.0, "is_reserved": 0, "bike_id": "a7dd2c9c3bc8ba2224cce0c2927cff01", "is_disabled": 0, "fusion_lon": 0.0}, {"type": "electric_scooter", "lat": 38.91296333333333, "rental_uris": {"ios": "https://dc.lft.to/lastmile_qr_scan", "android": "https://dc.lft.to/lastmile_qr_scan"}, "name": "e5f5a4431a70dfa2eff2c975f7624c1a", "lon": -77.03660883333333, "fusion_lat": 0.0, "is_reserved": 0, "bike_id": "e5f5a4431a70dfa2eff2c975f7624c1a", "is_disabled": 0, "fusion_lon": 0.0}, {"type": "electric_scooter", "lat": 38.9429615, "rental_uris": {"ios": "https://dc.lft.to/lastmile_qr_scan", "android": "https://dc.lft.to/lastmile_qr_scan"}, "name": "bae474b22454184b5760b0573fecf3f4", "lon": -77.02169716666667, "fusion_lat": 0.0, "is_reserved": 0, "bike_id": "bae474b22454184b5760b0573fecf3f4", "is_disabled": 0, "fusion_lon": 0.0}, {"type": "electric_scooter", "lat": 38.922589333333335, "rental_uris": {"ios": "https://dc.lft.to/lastmile_qr_scan", "android": "https://dc.lft.to/lastmile_qr_scan"}, "name": "edeeaa387f82c8853f9c9824064c83de", "lon": -77.035219, "fusion_lat": 0.0, "is_reserved": 0, "bike_id": "edeeaa387f82c8853f9c9824064c83de", "is_disabled": 0, "fusion_lon": 0.0}, {"type": "electric_scooter", "lat": 38.93200816666667, "rental_uris": {"ios": "https://dc.lft.to/lastmile_qr_scan", "android": "https://dc.lft.to/lastmile_qr_scan"}, "name": "70f5291fbe797e27c7818ad7e8382a5c", "lon": -77.03069366666666, "fusion_lat": 0.0, "is_reserved": 0, "bike_id": "70f5291fbe797e27c7818ad7e8382a5c", "is_disabled": 0, "fusion_lon": 0.0}, {"type": "electric_scooter", "lat": 38.92502916666667, "rental_uris": {"ios": "https://dc.lft.to/lastmile_qr_scan", "android": "https://dc.lft.to/lastmile_qr_scan"}, "name": "36969095517e439cadc18f7284fba6bd", "lon": -77.024017, "fusion_lat": 0.0, "is_reserved": 0, "bike_id": "36969095517e439cadc18f7284fba6bd", "is_disabled": 0, "fusion_lon": 0.0}, {"type": "electric_scooter", "lat": 38.92811533333333, "rental_uris": {"ios": "https://dc.lft.to/lastmile_qr_scan", "android": "https://dc.lft.to/lastmile_qr_scan"}, "name": "b36ae1f7dc4ed0055cda32fb101543a5", "lon": -77.02723116666667, "fusion_lat": 0.0, "is_reserved": 0, "bike_id": "b36ae1f7dc4ed0055cda32fb101543a5", "is_disabled": 0, "fusion_lon": 0.0}, {"type": "electric_scooter", "lat": 38.915571666666665, "rental_uris": {"ios": "https://dc.lft.to/lastmile_qr_scan", "android": "https://dc.lft.to/lastmile_qr_scan"}, "name": "2400332449c624d076ceaff027cf9171", "lon": -77.00587666666667, "fusion_lat": 0.0, "is_reserved": 0, "bike_id": "2400332449c624d076ceaff027cf9171", "is_disabled": 0, "fusion_lon": 0.0}, {"type": "electric_scooter", "lat": 38.872652333333335, "rental_uris": {"ios": "https://dc.lft.to/lastmile_qr_scan", "android": "https://dc.lft.to/lastmile_qr_scan"}, "name": "02f194607939a2910b7fdd8bfb24d1a3", "lon": -77.005767, "fusion_lat": 0.0, "is_reserved": 0, "bike_id": "02f194607939a2910b7fdd8bfb24d1a3", "is_disabled": 0, "fusion_lon": 0.0}, {"type": "electric_scooter", "lat": 38.91959666666666, "rental_uris": {"ios": "https://dc.lft.to/lastmile_qr_scan", "android": "https://dc.lft.to/lastmile_qr_scan"}, "name": "b692f9f935f135ad5506cb193089fc7d", "lon": -77.04542816666667, "fusion_lat": 0.0, "is_reserved": 0, "bike_id": "b692f9f935f135ad5506cb193089fc7d", "is_disabled": 0, "fusion_lon": 0.0}, {"type": "electric_scooter", "lat": 38.914171, "rental_uris": {"ios": "https://dc.lft.to/lastmile_qr_scan", "android": "https://dc.lft.to/lastmile_qr_scan"}, "name": "1d0d20e3e3ccaf29c4b62b0f95e930d9", "lon": -77.02096416666667, "fusion_lat": 0.0, "is_reserved": 0, "bike_id": "1d0d20e3e3ccaf29c4b62b0f95e930d9", "is_disabled": 0, "fusion_lon": 0.0}, {"type": "electric_scooter", "lat": 38.8742205, "rental_uris": {"ios": "https://dc.lft.to/lastmile_qr_scan", "android": "https://dc.lft.to/lastmile_qr_scan"}, "name": "1dd27760a250dd4688078d6ea6447a9a", "lon": -76.9717885, "fusion_lat": 0.0, "is_reserved": 0, "bike_id": "1dd27760a250dd4688078d6ea6447a9a", "is_disabled": 0, "fusion_lon": 0.0}, {"type": "electric_scooter", "lat": 38.89860066666667, "rental_uris": {"ios": "https://dc.lft.to/lastmile_qr_scan", "android": "https://dc.lft.to/lastmile_qr_scan"}, "name": "ef07cbcf1626aaa98121357a01bcb547", "lon": -77.022214, "fusion_lat": 0.0, "is_reserved": 0, "bike_id": "ef07cbcf1626aaa98121357a01bcb547", "is_disabled": 0, "fusion_lon": 0.0}, {"type": "electric_scooter", "lat": 38.90402616666667, "rental_uris": {"ios": "https://dc.lft.to/lastmile_qr_scan", "android": "https://dc.lft.to/lastmile_qr_scan"}, "name": "86a74ed77c8a31a8295227e85dfc9742", "lon": -77.03633483333333, "fusion_lat": 0.0, "is_reserved": 0, "bike_id": "86a74ed77c8a31a8295227e85dfc9742", "is_disabled": 0, "fusion_lon": 0.0}, {"type": "electric_scooter", "lat": 38.91705966666667, "rental_uris": {"ios": "https://dc.lft.to/lastmile_qr_scan", "android": "https://dc.lft.to/lastmile_qr_scan"}, "name": "47635a522bfb7404548e7ca1d56b6173", "lon": -77.0258005, "fusion_lat": 0.0, "is_reserved": 0, "bike_id": "47635a522bfb7404548e7ca1d56b6173", "is_disabled": 0, "fusion_lon": 0.0}, {"type": "electric_scooter", "lat": 38.915608166666665, "rental_uris": {"ios": "https://dc.lft.to/lastmile_qr_scan", "android": "https://dc.lft.to/lastmile_qr_scan"}, "name": "ef02c0217e357de18381465f26e36781", "lon": -77.0204755, "fusion_lat": 0.0, "is_reserved": 0, "bike_id": "ef02c0217e357de18381465f26e36781", "is_disabled": 0, "fusion_lon": 0.0}, {"type": "electric_scooter", "lat": 38.909645166666664, "rental_uris": {"ios": "https://dc.lft.to/lastmile_qr_scan", "android": "https://dc.lft.to/lastmile_qr_scan"}, "name": "55d2faa19f362969ba00c8433beeeced", "lon": -77.04845183333333, "fusion_lat": 0.0, "is_reserved": 0, "bike_id": "55d2faa19f362969ba00c8433beeeced", "is_disabled": 0, "fusion_lon": 0.0}, {"type": "electric_bike", "lat": 38.841953333333336, "rental_uris": {"ios": "https://dc.lft.to/lastmile_qr_scan", "android": "https://dc.lft.to/lastmile_qr_scan"}, "name": "62b522fdb90de03a24304bcb903f1633", "lon": -77.06759433333333, "fusion_lat": 0.0, "is_reserved": 0, "bike_id": "62b522fdb90de03a24304bcb903f1633", "is_disabled": 0, "fusion_lon": 0.0}, {"type": "electric_scooter", "lat": 38.91802933333334, "rental_uris": {"ios": "https://dc.lft.to/lastmile_qr_scan", "android": "https://dc.lft.to/lastmile_qr_scan"}, "name": "9eee7bb0b840ab5e090e3654e9b68830", "lon": -77.02486216666667, "fusion_lat": 0.0, "is_reserved": 0, "bike_id": "9eee7bb0b840ab5e090e3654e9b68830", "is_disabled": 0, "fusion_lon": 0.0}, {"type": "electric_scooter", "lat": 38.90241016666667, "rental_uris": {"ios": "https://dc.lft.to/lastmile_qr_scan", "android": "https://dc.lft.to/lastmile_qr_scan"}, "name": "954f88a6c09c308662d763ea51df2281", "lon": -77.02606833333333, "fusion_lat": 0.0, "is_reserved": 0, "bike_id": "954f88a6c09c308662d763ea51df2281", "is_disabled": 0, "fusion_lon": 0.0}, {"type": "electric_scooter", "lat": 38.89364283333333, "rental_uris": {"ios": "https://dc.lft.to/lastmile_qr_scan", "android": "https://dc.lft.to/lastmile_qr_scan"}, "name": "fd734b42ad36e12241d64cf990eee732", "lon": -77.003358, "fusion_lat": 0.0, "is_reserved": 0, "bike_id": "fd734b42ad36e12241d64cf990eee732", "is_disabled": 0, "fusion_lon": 0.0}, {"type": "electric_scooter", "lat": 38.907382166666665, "rental_uris": {"ios": "https://dc.lft.to/lastmile_qr_scan", "android": "https://dc.lft.to/lastmile_qr_scan"}, "name": "4df0a84f6f78ca1c08b7236edcceb176", "lon": -77.057, "fusion_lat": 0.0, "is_reserved": 0, "bike_id": "4df0a84f6f78ca1c08b7236edcceb176", "is_disabled": 0, "fusion_lon": 0.0}, {"type": "electric_bike", "lat": 38.863982, "rental_uris": {"ios": "https://dc.lft.to/lastmile_qr_scan", "android": "https://dc.lft.to/lastmile_qr_scan"}, "name": "f38d137dec451fad6db246434c689e89", "lon": -77.201081, "fusion_lat": 0.0, "is_reserved": 0, "bike_id": "f38d137dec451fad6db246434c689e89", "is_disabled": 0, "fusion_lon": 0.0}, {"type": "electric_scooter", "lat": 38.909086333333335, "rental_uris": {"ios": "https://dc.lft.to/lastmile_qr_scan", "android": "https://dc.lft.to/lastmile_qr_scan"}, "name": "b3504c27bbf41e3c8fe16e070ef08d25", "lon": -77.004578, "fusion_lat": 0.0, "is_reserved": 0, "bike_id": "b3504c27bbf41e3c8fe16e070ef08d25", "is_disabled": 0, "fusion_lon": 0.0}, {"type": "electric_scooter", "lat": 38.973566, "rental_uris": {"ios": "https://dc.lft.to/lastmile_qr_scan", "android": "https://dc.lft.to/lastmile_qr_scan"}, "name": "5097fa4a7c6a6450a8c743be11df8971", "lon": -77.0278525, "fusion_lat": 0.0, "is_reserved": 0, "bike_id": "5097fa4a7c6a6450a8c743be11df8971", "is_disabled": 0, "fusion_lon": 0.0}, {"type": "electric_scooter", "lat": 38.924316, "rental_uris": {"ios": "https://dc.lft.to/lastmile_qr_scan", "android": "https://dc.lft.to/lastmile_qr_scan"}, "name": "657da83f529864a7661ec23d98828577", "lon": -76.99711816666667, "fusion_lat": 0.0, "is_reserved": 0, "bike_id": "657da83f529864a7661ec23d98828577", "is_disabled": 0, "fusion_lon": 0.0}, {"type": "electric_scooter", "lat": 38.96596316666667, "rental_uris": {"ios": "https://dc.lft.to/lastmile_qr_scan", "android": "https://dc.lft.to/lastmile_qr_scan"}, "name": "99b92174b0307b9f42193732030d5955", "lon": -77.015917, "fusion_lat": 0.0, "is_reserved": 0, "bike_id": "99b92174b0307b9f42193732030d5955", "is_disabled": 0, "fusion_lon": 0.0}, {"type": "electric_scooter", "lat": 38.923927666666664, "rental_uris": {"ios": "https://dc.lft.to/lastmile_qr_scan", "android": "https://dc.lft.to/lastmile_qr_scan"}, "name": "cd2c9ff391e7f07dbc9a5f3f2882d231", "lon": -77.03056883333333, "fusion_lat": 0.0, "is_reserved": 0, "bike_id": "cd2c9ff391e7f07dbc9a5f3f2882d231", "is_disabled": 0, "fusion_lon": 0.0}, {"type": "electric_scooter", "lat": 38.887526, "rental_uris": {"ios": "https://dc.lft.to/lastmile_qr_scan", "android": "https://dc.lft.to/lastmile_qr_scan"}, "name": "15d026c7c3bfb11fb47bb2ae317edfb3", "lon": -77.02132533333334, "fusion_lat": 0.0, "is_reserved": 0, "bike_id": "15d026c7c3bfb11fb47bb2ae317edfb3", "is_disabled": 0, "fusion_lon": 0.0}, {"type": "electric_scooter", "lat": 38.9097675, "rental_uris": {"ios": "https://dc.lft.to/lastmile_qr_scan", "android": "https://dc.lft.to/lastmile_qr_scan"}, "name": "53431ce3345d57072d9cfeecda0ca896", "lon": -77.05192866666667, "fusion_lat": 0.0, "is_reserved": 0, "bike_id": "53431ce3345d57072d9cfeecda0ca896", "is_disabled": 0, "fusion_lon": 0.0}, {"type": "electric_scooter", "lat": 38.92369166666667, "rental_uris": {"ios": "https://dc.lft.to/lastmile_qr_scan", "android": "https://dc.lft.to/lastmile_qr_scan"}, "name": "e27d4c7876ffbd3f6325482fa1a1089a", "lon": -77.02981116666666, "fusion_lat": 0.0, "is_reserved": 0, "bike_id": "e27d4c7876ffbd3f6325482fa1a1089a", "is_disabled": 0, "fusion_lon": 0.0}, {"type": "electric_scooter", "lat": 38.91464716666667, "rental_uris": {"ios": "https://dc.lft.to/lastmile_qr_scan", "android": "https://dc.lft.to/lastmile_qr_scan"}, "name": "1963778aa80bb8fac5a619c78abce66a", "lon": -77.0021585, "fusion_lat": 0.0, "is_reserved": 0, "bike_id": "1963778aa80bb8fac5a619c78abce66a", "is_disabled": 0, "fusion_lon": 0.0}, {"type": "electric_scooter", "lat": 38.8922465, "rental_uris": {"ios": "https://dc.lft.to/lastmile_qr_scan", "android": "https://dc.lft.to/lastmile_qr_scan"}, "name": "b8587f85498349cb8b84f6a6e9c7dbdd", "lon": -77.04501983333333, "fusion_lat": 0.0, "is_reserved": 0, "bike_id": "b8587f85498349cb8b84f6a6e9c7dbdd", "is_disabled": 0, "fusion_lon": 0.0}, {"type": "electric_scooter", "lat": 38.9026835, "rental_uris": {"ios": "https://dc.lft.to/lastmile_qr_scan", "android": "https://dc.lft.to/lastmile_qr_scan"}, "name": "b4058e110173957943cc43c58c46aaa5", "lon": -77.042409, "fusion_lat": 0.0, "is_reserved": 0, "bike_id": "b4058e110173957943cc43c58c46aaa5", "is_disabled": 0, "fusion_lon": 0.0}, {"type": "electric_scooter", "lat": 38.8755735, "rental_uris": {"ios": "https://dc.lft.to/lastmile_qr_scan", "android": "https://dc.lft.to/lastmile_qr_scan"}, "name": "527567ec9c21f39c38b8d95d353e0d2d", "lon": -77.00597433333333, "fusion_lat": 0.0, "is_reserved": 0, "bike_id": "527567ec9c21f39c38b8d95d353e0d2d", "is_disabled": 0, "fusion_lon": 0.0}, {"type": "electric_scooter", "lat": 38.95047483333333, "rental_uris": {"ios": "https://dc.lft.to/lastmile_qr_scan", "android": "https://dc.lft.to/lastmile_qr_scan"}, "name": "588e87e4b6ebdbae7dcff217ad3c89a9", "lon": -77.0271585, "fusion_lat": 0.0, "is_reserved": 0, "bike_id": "588e87e4b6ebdbae7dcff217ad3c89a9", "is_disabled": 0, "fusion_lon": 0.0}, {"type": "electric_scooter", "lat": 38.911197666666666, "rental_uris": {"ios": "https://dc.lft.to/lastmile_qr_scan", "android": "https://dc.lft.to/lastmile_qr_scan"}, "name": "18c47698704f6483830db68f0bb8a4b6", "lon": -77.04539, "fusion_lat": 0.0, "is_reserved": 0, "bike_id": "18c47698704f6483830db68f0bb8a4b6", "is_disabled": 0, "fusion_lon": 0.0}, {"type": "electric_bike", "lat": 38.871548, "rental_uris": {"ios": "https://dc.lft.to/lastmile_qr_scan", "android": "https://dc.lft.to/lastmile_qr_scan"}, "name": "738ed209dfe8999090c69b0c49dd132b", "lon": -77.13144183333333, "fusion_lat": 0.0, "is_reserved": 0, "bike_id": "738ed209dfe8999090c69b0c49dd132b", "is_disabled": 0, "fusion_lon": 0.0}, {"type": "electric_scooter", "lat": 38.90346, "rental_uris": {"ios": "https://dc.lft.to/lastmile_qr_scan", "android": "https://dc.lft.to/lastmile_qr_scan"}, "name": "b037f01342e0805732bd6e19c94a5091", "lon": -77.0163055, "fusion_lat": 0.0, "is_reserved": 0, "bike_id": "b037f01342e0805732bd6e19c94a5091", "is_disabled": 0, "fusion_lon": 0.0}, {"type": "electric_scooter", "lat": 38.90414283333333, "rental_uris": {"ios": "https://dc.lft.to/lastmile_qr_scan", "android": "https://dc.lft.to/lastmile_qr_scan"}, "name": "676e18c32fc2d571c276aac42d59e847", "lon": -76.97331733333333, "fusion_lat": 0.0, "is_reserved": 0, "bike_id": "676e18c32fc2d571c276aac42d59e847", "is_disabled": 0, "fusion_lon": 0.0}, {"type": "electric_scooter", "lat": 38.87859483333333, "rental_uris": {"ios": "https://dc.lft.to/lastmile_qr_scan", "android": "https://dc.lft.to/lastmile_qr_scan"}, "name": "b480b32eed61c2132e08beef6577a26f", "lon": -77.00731866666666, "fusion_lat": 0.0, "is_reserved": 0, "bike_id": "b480b32eed61c2132e08beef6577a26f", "is_disabled": 0, "fusion_lon": 0.0}, {"type": "electric_scooter", "lat": 38.873873333333336, "rental_uris": {"ios": "https://dc.lft.to/lastmile_qr_scan", "android": "https://dc.lft.to/lastmile_qr_scan"}, "name": "d13934f5cbdb6173a43e044368953d64", "lon": -77.001645, "fusion_lat": 0.0, "is_reserved": 0, "bike_id": "d13934f5cbdb6173a43e044368953d64", "is_disabled": 0, "fusion_lon": 0.0}, {"type": "electric_scooter", "lat": 38.93401683333333, "rental_uris": {"ios": "https://dc.lft.to/lastmile_qr_scan", "android": "https://dc.lft.to/lastmile_qr_scan"}, "name": "22855097da337c78c51bf8b73155c4a5", "lon": -77.027224, "fusion_lat": 0.0, "is_reserved": 0, "bike_id": "22855097da337c78c51bf8b73155c4a5", "is_disabled": 0, "fusion_lon": 0.0}, {"type": "electric_scooter", "lat": 38.90511733333334, "rental_uris": {"ios": "https://dc.lft.to/lastmile_qr_scan", "android": "https://dc.lft.to/lastmile_qr_scan"}, "name": "b5d23bcf3a2b2b3282a2f791e10d4f36", "lon": -77.06024116666667, "fusion_lat": 0.0, "is_reserved": 0, "bike_id": "b5d23bcf3a2b2b3282a2f791e10d4f36", "is_disabled": 0, "fusion_lon": 0.0}, {"type": "electric_bike", "lat": 38.95561633333333, "rental_uris": {"ios": "https://dc.lft.to/lastmile_qr_scan", "android": "https://dc.lft.to/lastmile_qr_scan"}, "name": "4d7f2b58bd7474ace58adfa3dc5c5795", "lon": -77.02443233333334, "fusion_lat": 0.0, "is_reserved": 0, "bike_id": "4d7f2b58bd7474ace58adfa3dc5c5795", "is_disabled": 0, "fusion_lon": 0.0}, {"type": "electric_bike", "lat": 38.886599, "rental_uris": {"ios": "https://dc.lft.to/lastmile_qr_scan", "android": "https://dc.lft.to/lastmile_qr_scan"}, "name": "babf392bd4ebd3740c932ce21a1e7e83", "lon": -77.16234166666666, "fusion_lat": 0.0, "is_reserved": 0, "bike_id": "babf392bd4ebd3740c932ce21a1e7e83", "is_disabled": 0, "fusion_lon": 0.0}, {"type": "electric_bike", "lat": 38.98944266666667, "rental_uris": {"ios": "https://dc.lft.to/lastmile_qr_scan", "android": "https://dc.lft.to/lastmile_qr_scan"}, "name": "c860ab30bbdc5b12e1f9a9d0e6ac8e9c", "lon": -77.0953345, "fusion_lat": 0.0, "is_reserved": 0, "bike_id": "c860ab30bbdc5b12e1f9a9d0e6ac8e9c", "is_disabled": 0, "fusion_lon": 0.0}, {"type": "electric_bike", "lat": 39.0142065, "rental_uris": {"ios": "https://dc.lft.to/lastmile_qr_scan", "android": "https://dc.lft.to/lastmile_qr_scan"}, "name": "8253f975b08afcc8a08150a155c8b168", "lon": -77.04494016666666, "fusion_lat": 0.0, "is_reserved": 0, "bike_id": "8253f975b08afcc8a08150a155c8b168", "is_disabled": 0, "fusion_lon": 0.0}, {"type": "electric_scooter", "lat": 38.92349983333333, "rental_uris": {"ios": "https://dc.lft.to/lastmile_qr_scan", "android": "https://dc.lft.to/lastmile_qr_scan"}, "name": "e941246634063cd3c49db5f2d1ed5226", "lon": -77.03216233333333, "fusion_lat": 0.0, "is_reserved": 0, "bike_id": "e941246634063cd3c49db5f2d1ed5226", "is_disabled": 0, "fusion_lon": 0.0}, {"type": "electric_scooter", "lat": 38.912669333333334, "rental_uris": {"ios": "https://dc.lft.to/lastmile_qr_scan", "android": "https://dc.lft.to/lastmile_qr_scan"}, "name": "cb1292b90c09eb13afad67e3c579e5be", "lon": -77.030605, "fusion_lat": 0.0, "is_reserved": 0, "bike_id": "cb1292b90c09eb13afad67e3c579e5be", "is_disabled": 0, "fusion_lon": 0.0}, {"type": "electric_scooter", "lat": 38.873811833333335, "rental_uris": {"ios": "https://dc.lft.to/lastmile_qr_scan", "android": "https://dc.lft.to/lastmile_qr_scan"}, "name": "b82bec59542bdccf51a2a772ce1a8afb", "lon": -77.0013005, "fusion_lat": 0.0, "is_reserved": 0, "bike_id": "b82bec59542bdccf51a2a772ce1a8afb", "is_disabled": 0, "fusion_lon": 0.0}, {"type": "electric_scooter", "lat": 38.91815616666667, "rental_uris": {"ios": "https://dc.lft.to/lastmile_qr_scan", "android": "https://dc.lft.to/lastmile_qr_scan"}, "name": "2ca09afc139347e5b489424ba8e87eb0", "lon": -77.03440066666667, "fusion_lat": 0.0, "is_reserved": 0, "bike_id": "2ca09afc139347e5b489424ba8e87eb0", "is_disabled": 0, "fusion_lon": 0.0}, {"type": "electric_scooter", "lat": 38.915495, "rental_uris": {"ios": "https://dc.lft.to/lastmile_qr_scan", "android": "https://dc.lft.to/lastmile_qr_scan"}, "name": "77ee77227768f5517a382a588155ad88", "lon": -77.0385685, "fusion_lat": 0.0, "is_reserved": 0, "bike_id": "77ee77227768f5517a382a588155ad88", "is_disabled": 0, "fusion_lon": 0.0}, {"type": "electric_scooter", "lat": 38.920392, "rental_uris": {"ios": "https://dc.lft.to/lastmile_qr_scan", "android": "https://dc.lft.to/lastmile_qr_scan"}, "name": "c5ef619d7df922e8989ef2fe6c79ace6", "lon": -77.02585733333333, "fusion_lat": 0.0, "is_reserved": 0, "bike_id": "c5ef619d7df922e8989ef2fe6c79ace6", "is_disabled": 0, "fusion_lon": 0.0}, {"type": "electric_scooter", "lat": 38.875466333333335, "rental_uris": {"ios": "https://dc.lft.to/lastmile_qr_scan", "android": "https://dc.lft.to/lastmile_qr_scan"}, "name": "4e5b370dd63f62b3e95313248e1af9f1", "lon": -77.005331, "fusion_lat": 0.0, "is_reserved": 0, "bike_id": "4e5b370dd63f62b3e95313248e1af9f1", "is_disabled": 0, "fusion_lon": 0.0}, {"type": "electric_bike", "lat": 38.91963633333334, "rental_uris": {"ios": "https://dc.lft.to/lastmile_qr_scan", "android": "https://dc.lft.to/lastmile_qr_scan"}, "name": "f40a11fbf42c1ce57088d097bc96433a", "lon": -76.9918515, "fusion_lat": 0.0, "is_reserved": 0, "bike_id": "f40a11fbf42c1ce57088d097bc96433a", "is_disabled": 0, "fusion_lon": 0.0}, {"type": "electric_scooter", "lat": 38.924805666666664, "rental_uris": {"ios": "https://dc.lft.to/lastmile_qr_scan", "android": "https://dc.lft.to/lastmile_qr_scan"}, "name": "e158126fa61aa70b3e5cfcde7ccb73b7", "lon": -77.028378, "fusion_lat": 0.0, "is_reserved": 0, "bike_id": "e158126fa61aa70b3e5cfcde7ccb73b7", "is_disabled": 0, "fusion_lon": 0.0}, {"type": "electric_scooter", "lat": 38.901743833333335, "rental_uris": {"ios": "https://dc.lft.to/lastmile_qr_scan", "android": "https://dc.lft.to/lastmile_qr_scan"}, "name": "d59a21af0669e69bc9e312953951beab", "lon": -77.02589766666667, "fusion_lat": 0.0, "is_reserved": 0, "bike_id": "d59a21af0669e69bc9e312953951beab", "is_disabled": 0, "fusion_lon": 0.0}, {"type": "electric_scooter", "lat": 38.893600666666664, "rental_uris": {"ios": "https://dc.lft.to/lastmile_qr_scan", "android": "https://dc.lft.to/lastmile_qr_scan"}, "name": "1a645814a4f6a7ef7a9510a53b265ab6", "lon": -76.98658366666666, "fusion_lat": 0.0, "is_reserved": 0, "bike_id": "1a645814a4f6a7ef7a9510a53b265ab6", "is_disabled": 0, "fusion_lon": 0.0}, {"type": "electric_scooter", "lat": 38.93073666666667, "rental_uris": {"ios": "https://dc.lft.to/lastmile_qr_scan", "android": "https://dc.lft.to/lastmile_qr_scan"}, "name": "cbb5dd34288b5ab8191b9a63bcff077d", "lon": -77.03399166666667, "fusion_lat": 0.0, "is_reserved": 0, "bike_id": "cbb5dd34288b5ab8191b9a63bcff077d", "is_disabled": 0, "fusion_lon": 0.0}, {"type": "electric_scooter", "lat": 38.91264683333333, "rental_uris": {"ios": "https://dc.lft.to/lastmile_qr_scan", "android": "https://dc.lft.to/lastmile_qr_scan"}, "name": "85691384df58b1b895646e7d4262f689", "lon": -77.03214083333333, "fusion_lat": 0.0, "is_reserved": 0, "bike_id": "85691384df58b1b895646e7d4262f689", "is_disabled": 0, "fusion_lon": 0.0}, {"type": "electric_scooter", "lat": 38.91295566666667, "rental_uris": {"ios": "https://dc.lft.to/lastmile_qr_scan", "android": "https://dc.lft.to/lastmile_qr_scan"}, "name": "01a65ecf9352860f3d375a6e7b25af07", "lon": -77.02386216666666, "fusion_lat": 0.0, "is_reserved": 0, "bike_id": "01a65ecf9352860f3d375a6e7b25af07", "is_disabled": 0, "fusion_lon": 0.0}, {"type": "electric_scooter", "lat": 38.908887166666666, "rental_uris": {"ios": "https://dc.lft.to/lastmile_qr_scan", "android": "https://dc.lft.to/lastmile_qr_scan"}, "name": "f5054336d914435d924bc21f49316db1", "lon": -77.04407466666666, "fusion_lat": 0.0, "is_reserved": 0, "bike_id": "f5054336d914435d924bc21f49316db1", "is_disabled": 0, "fusion_lon": 0.0}, {"type": "electric_scooter", "lat": 38.9233565, "rental_uris": {"ios": "https://dc.lft.to/lastmile_qr_scan", "android": "https://dc.lft.to/lastmile_qr_scan"}, "name": "dd8e0396cd791fcb9ab51f33fecec8b9", "lon": -77.02690183333333, "fusion_lat": 0.0, "is_reserved": 0, "bike_id": "dd8e0396cd791fcb9ab51f33fecec8b9", "is_disabled": 0, "fusion_lon": 0.0},