{"data": {"bikes": [{"bike_id": "3f61a1b25b1705d4bbeab73e59074aff", "name": "3f61a1b25b1705d4bbeab73e59074aff", "is_reserved": 0, "lat": 38.866779666666666, "fusion_lon": 0.0, "is_disabled": 0, "lon": -76.985154, "rental_uris": {"ios": "https://dc.lft.to/lastmile_qr_scan", "android": "https://dc.lft.to/lastmile_qr_scan"}, "fusion_lat": 0.0, "type": "electric_scooter"}, {"bike_id": "75c7d7ce6ad95b707dd69f366cc93c67", "name": "75c7d7ce6ad95b707dd69f366cc93c67", "is_reserved": 0, "lat": 38.8873645, "fusion_lon": 0.0, "is_disabled": 0, "lon": -77.003252, "rental_uris": {"ios": "https://dc.lft.to/lastmile_qr_scan", "android": "https://dc.lft.to/lastmile_qr_scan"}, "fusion_lat": 0.0, "type": "electric_scooter"}, {"bike_id": "b9ec416ad39a06dbed5cf9ca77f0ee10", "name": "b9ec416ad39a06dbed5cf9ca77f0ee10", "is_reserved": 0, "lat": 38.8974355, "fusion_lon": 0.0, "is_disabled": 0, "lon": -77.0218835, "rental_uris": {"ios": "https://dc.lft.to/lastmile_qr_scan", "android": "https://dc.lft.to/lastmile_qr_scan"}, "fusion_lat": 0.0, "type": "electric_scooter"}, {"bike_id": "b55d2bffd8a27e99b528b8d86c116cc4", "name": "b55d2bffd8a27e99b528b8d86c116cc4", "is_reserved": 0, "lat": 38.92577466666667, "fusion_lon": 0.0, "is_disabled": 0, "lon": -77.0280805, "rental_uris": {"ios": "https://dc.lft.to/lastmile_qr_scan", "android": "https://dc.lft.to/lastmile_qr_scan"}, "fusion_lat": 0.0, "type": "electric_scooter"}, {"bike_id": "470ee7aeed453454c8b936c04316f937", "name": "470ee7aeed453454c8b936c04316f937", "is_reserved": 0, "lat": 38.89243533333333, "fusion_lon": 0.0, "is_disabled": 0, "lon": -77.031798, "rental_uris": {"ios": "https://dc.lft.to/lastmile_qr_scan", "android": "https://dc.lft.to/lastmile_qr_scan"}, "fusion_lat": 0.0, "type": "electric_scooter"}, {"bike_id": "1c1c5b3430ce9c7fbf0d4721698b0f6a", "name": "1c1c5b3430ce9c7fbf0d4721698b0f6a", "is_reserved": 0, "lat": 38.867489166666665, "fusion_lon": 0.0, "is_disabled": 0, "lon": -77.00152016666667, "rental_uris": {"ios": "https://dc.lft.to/lastmile_qr_scan", "android": "https://dc.lft.to/lastmile_qr_scan"}, "fusion_lat": 0.0, "type": "electric_scooter"}, {"bike_id": "870c8f2ace40446093f926b5fb1d62d0", "name": "870c8f2ace40446093f926b5fb1d62d0", "is_reserved": 0, "lat": 39.085070333333334, "fusion_lon": 0.0, "is_disabled": 0, "lon": -76.950632, "rental_uris": {"ios": "https://dc.lft.to/lastmile_qr_scan", "android": "https://dc.lft.to/lastmile_qr_scan"}, "fusion_lat": 0.0, "type": "electric_bike"}, {"bike_id": "5edbd1e5ec4a462426d82500706e4e7b", "name": "5edbd1e5ec4a462426d82500706e4e7b", "is_reserved": 0, "lat": 38.916389333333335, "fusion_lon": 0.0, "is_disabled": 0, "lon": -77.032345, "rental_uris": {"ios": "https://dc.lft.to/lastmile_qr_scan", "android": "https://dc.lft.to/lastmile_qr_scan"}, "fusion_lat": 0.0, "type": "electric_scooter"}, {"bike_id": "6e6d4dde8d2760654f28d056ed9b604e", "name": "6e6d4dde8d2760654f28d056ed9b604e", "is_reserved": 0, "lat": 38.9247695, "fusion_lon": 0.0, "is_disabled": 0, "lon": -77.0221595, "rental_uris": {"ios": "https://dc.lft.to/lastmile_qr_scan", "android": "https://dc.lft.to/lastmile_qr_scan"}, "fusion_lat": 0.0, "type": "electric_scooter"}, {"bike_id": "ffccc108363898c5bc09eae5dca6fc3b", "name": "ffccc108363898c5bc09eae5dca6fc3b", "is_reserved": 0, "lat": 38.941993, "fusion_lon": 0.0, "is_disabled": 0, "lon": -77.0285295, "rental_uris": {"ios": "https://dc.lft.to/lastmile_qr_scan", "android": "https://dc.lft.to/lastmile_qr_scan"}, "fusion_lat": 0.0, "type": "electric_scooter"}, {"bike_id": "22ad0418238123895378e4e5e66e60ca", "name": "22ad0418238123895378e4e5e66e60ca", "is_reserved": 0, "lat": 38.90014, "fusion_lon": 0.0, "is_disabled": 0, "lon": -76.99383966666667, "rental_uris": {"ios": "https://dc.lft.to/lastmile_qr_scan", "android": "https://dc.lft.to/lastmile_qr_scan"}, "fusion_lat": 0.0, "type": "electric_scooter"}, {"bike_id": "ea346065d0f22d253834ef5adbd2fb76", "name": "ea346065d0f22d253834ef5adbd2fb76", "is_reserved": 0, "lat": 38.89197716666666, "fusion_lon": 0.0, "is_disabled": 0, "lon": -77.0029325, "rental_uris": {"ios": "https://dc.lft.to/lastmile_qr_scan", "android": "https://dc.lft.to/lastmile_qr_scan"}, "fusion_lat": 0.0, "type": "electric_scooter"}, {"bike_id": "e516e0b2a0b327feb50f5757c9393c2a", "name": "e516e0b2a0b327feb50f5757c9393c2a", "is_reserved": 0, "lat": 38.8989855, "fusion_lon": 0.0, "is_disabled": 0, "lon": -77.03944433333334, "rental_uris": {"ios": "https://dc.lft.to/lastmile_qr_scan", "android": "https://dc.lft.to/lastmile_qr_scan"}, "fusion_lat": 0.0, "type": "electric_scooter"}, {"bike_id": "7a2b73c376f45c7a45d35555eb3cbb70", "name": "7a2b73c376f45c7a45d35555eb3cbb70", "is_reserved": 0, "lat": 38.92745933333333, "fusion_lon": 0.0, "is_disabled": 0, "lon": -77.03300933333334, "rental_uris": {"ios": "https://dc.lft.to/lastmile_qr_scan", "android": "https://dc.lft.to/lastmile_qr_scan"}, "fusion_lat": 0.0, "type": "electric_scooter"}, {"bike_id": "a08607b02252a3c77c314dad309d5ae5", "name": "a08607b02252a3c77c314dad309d5ae5", "is_reserved": 0, "lat": 38.89730266666667, "fusion_lon": 0.0, "is_disabled": 0, "lon": -77.05477816666667, "rental_uris": {"ios": "https://dc.lft.to/lastmile_qr_scan", "android": "https://dc.lft.to/lastmile_qr_scan"}, "fusion_lat": 0.0, "type": "electric_scooter"}, {"bike_id": "9935d3183886da410686ed77296a3035", "name": "9935d3183886da410686ed77296a3035", "is_reserved": 0, "lat": 38.9279275, "fusion_lon": 0.0, "is_disabled": 0, "lon": -77.03152016666667, "rental_uris": {"ios": "https://dc.lft.to/lastmile_qr_scan", "android": "https://dc.lft.to/lastmile_qr_scan"}, "fusion_lat": 0.0, "type": "electric_scooter"}, {"bike_id": "89f2bba0aec63b980ee7f0f0ec036c6c", "name": "89f2bba0aec63b980ee7f0f0ec036c6c", "is_reserved": 0, "lat": 38.92323433333333, "fusion_lon": 0.0, "is_disabled": 0, "lon": -77.04376733333334, "rental_uris": {"ios": "https://dc.lft.to/lastmile_qr_scan", "android": "https://dc.lft.to/lastmile_qr_scan"}, "fusion_lat": 0.0, "type": "electric_scooter"}, {"bike_id": "0206062bc63b9c97ea3e8bfe116439c2", "name": "0206062bc63b9c97ea3e8bfe116439c2", "is_reserved": 0, "lat": 38.9078105, "fusion_lon": 0.0, "is_disabled": 0, "lon": -77.0319385, "rental_uris": {"ios": "https://dc.lft.to/lastmile_qr_scan", "android": "https://dc.lft.to/lastmile_qr_scan"}, "fusion_lat": 0.0, "type": "electric_scooter"}, {"bike_id": "6e6567a409e77334836387e336e7c987", "name": "6e6567a409e77334836387e336e7c987", "is_reserved": 0, "lat": 38.9073005, "fusion_lon": 0.0, "is_disabled": 0, "lon": -77.01720866666666, "rental_uris": {"ios": "https://dc.lft.to/lastmile_qr_scan", "android": "https://dc.lft.to/lastmile_qr_scan"}, "fusion_lat": 0.0, "type": "electric_scooter"}, {"bike_id": "bac9b687acf9892e5f57eb502de2e6c1", "name": "bac9b687acf9892e5f57eb502de2e6c1", "is_reserved": 0, "lat": 38.89877466666667, "fusion_lon": 0.0, "is_disabled": 0, "lon": -77.0465915, "rental_uris": {"ios": "https://dc.lft.to/lastmile_qr_scan", "android": "https://dc.lft.to/lastmile_qr_scan"}, "fusion_lat": 0.0, "type": "electric_scooter"}, {"bike_id": "8231a892e310688be0fe3bf58d6db46b", "name": "8231a892e310688be0fe3bf58d6db46b", "is_reserved": 0, "lat": 38.8942275, "fusion_lon": 0.0, "is_disabled": 0, "lon": -77.04477283333334, "rental_uris": {"ios": "https://dc.lft.to/lastmile_qr_scan", "android": "https://dc.lft.to/lastmile_qr_scan"}, "fusion_lat": 0.0, "type": "electric_scooter"}, {"bike_id": "38bfb844e0598acae7ff9a35e26f025f", "name": "38bfb844e0598acae7ff9a35e26f025f", "is_reserved": 0, "lat": 38.89483833333333, "fusion_lon": 0.0, "is_disabled": 0, "lon": -77.022503, "rental_uris": {"ios": "https://dc.lft.to/lastmile_qr_scan", "android": "https://dc.lft.to/lastmile_qr_scan"}, "fusion_lat": 0.0, "type": "electric_scooter"}, {"bike_id": "369f27378622e6c2bb925d3f537253f6", "name": "369f27378622e6c2bb925d3f537253f6", "is_reserved": 0, "lat": 38.90559966666667, "fusion_lon": 0.0, "is_disabled": 0, "lon": -76.99790266666666, "rental_uris": {"ios": "https://dc.lft.to/lastmile_qr_scan", "android": "https://dc.lft.to/lastmile_qr_scan"}, "fusion_lat": 0.0, "type": "electric_scooter"}, {"bike_id": "90ea374c7c550c1b1aee00703b7667be", "name": "90ea374c7c550c1b1aee00703b7667be", "is_reserved": 0, "lat": 38.91692283333333, "fusion_lon": 0.0, "is_disabled": 0, "lon": -77.03772833333333, "rental_uris": {"ios": "https://dc.lft.to/lastmile_qr_scan", "android": "https://dc.lft.to/lastmile_qr_scan"}, "fusion_lat": 0.0, "type": "electric_scooter"}, {"bike_id": "eb90aac35c4055e8309823dde9eaae86", "name": "eb90aac35c4055e8309823dde9eaae86", "is_reserved": 0, "lat": 38.9260945, "fusion_lon": 0.0, "is_disabled": 0, "lon": -77.05714033333334, "rental_uris": {"ios": "https://dc.lft.to/lastmile_qr_scan", "android": "https://dc.lft.to/lastmile_qr_scan"}, "fusion_lat": 0.0, "type": "electric_scooter"}, {"bike_id": "cd9b1ad66028ab9ac02c33d7a5dd5fde", "name": "cd9b1ad66028ab9ac02c33d7a5dd5fde", "is_reserved": 0, "lat": 38.916967666666665, "fusion_lon": 0.0, "is_disabled": 0, "lon": -77.04602083333333, "rental_uris": {"ios": "https://dc.lft.to/lastmile_qr_scan", "android": "https://dc.lft.to/lastmile_qr_scan"}, "fusion_lat": 0.0, "type": "electric_scooter"}, {"bike_id": "5751d2b43e537c82d5f6be753d93cf61", "name": "5751d2b43e537c82d5f6be753d93cf61", "is_reserved": 0, "lat": 38.932476, "fusion_lon": 0.0, "is_disabled": 0, "lon": -77.02850933333333, "rental_uris": {"ios": "https://dc.lft.to/lastmile_qr_scan", "android": "https://dc.lft.to/lastmile_qr_scan"}, "fusion_lat": 0.0, "type": "electric_scooter"}, {"bike_id": "57b788d23a577ab69779e65cc95bc346", "name": "57b788d23a577ab69779e65cc95bc346", "is_reserved": 0, "lat": 38.89962833333333, "fusion_lon": 0.0, "is_disabled": 0, "lon": -77.02366983333333, "rental_uris": {"ios": "https://dc.lft.to/lastmile_qr_scan", "android": "https://dc.lft.to/lastmile_qr_scan"}, "fusion_lat": 0.0, "type": "electric_scooter"}, {"bike_id": "4c493c7f82052bd99339fb05df9bb69d", "name": "4c493c7f82052bd99339fb05df9bb69d", "is_reserved": 0, "lat": 38.906746166666665, "fusion_lon": 0.0, "is_disabled": 0, "lon": -77.02405016666667, "rental_uris": {"ios": "https://dc.lft.to/lastmile_qr_scan", "android": "https://dc.lft.to/lastmile_qr_scan"}, "fusion_lat": 0.0, "type": "electric_scooter"}, {"bike_id": "f4fa75413e2c25a334d58c222262f46b", "name": "f4fa75413e2c25a334d58c222262f46b", "is_reserved": 0, "lat": 38.8923035, "fusion_lon": 0.0, "is_disabled": 0, "lon": -77.0500055, "rental_uris": {"ios": "https://dc.lft.to/lastmile_qr_scan", "android": "https://dc.lft.to/lastmile_qr_scan"}, "fusion_lat": 0.0, "type": "electric_scooter"}, {"bike_id": "1fa1233a95e5d8cdfa7c01988ab1bba8", "name": "1fa1233a95e5d8cdfa7c01988ab1bba8", "is_reserved": 0, "lat": 38.951468, "fusion_lon": 0.0, "is_disabled": 0, "lon": -77.0186715, "rental_uris": {"ios": "https://dc.lft.to/lastmile_qr_scan", "android": "https://dc.lft.to/lastmile_qr_scan"}, "fusion_lat": 0.0, "type": "electric_scooter"}, {"bike_id": "f20564291bc317be7ed4651905678a52", "name": "f20564291bc317be7ed4651905678a52", "is_reserved": 0, "lat": 38.924065, "fusion_lon": 0.0, "is_disabled": 0, "lon": -76.997524, "rental_uris": {"ios": "https://dc.lft.to/lastmile_qr_scan", "android": "https://dc.lft.to/lastmile_qr_scan"}, "fusion_lat": 0.0, "type": "electric_scooter"}, {"bike_id": "2f5921a4f811496730825c35a0cb165d", "name": "2f5921a4f811496730825c35a0cb165d", "is_reserved": 0, "lat": 38.9156775, "fusion_lon": 0.0, "is_disabled": 0, "lon": -77.03268533333333, "rental_uris": {"ios": "https://dc.lft.to/lastmile_qr_scan", "android": "https://dc.lft.to/lastmile_qr_scan"}, "fusion_lat": 0.0, "type": "electric_scooter"}, {"bike_id": "854b608150dfa01a1a86e14687cd6207", "name": "854b608150dfa01a1a86e14687cd6207", "is_reserved": 0, "lat": 38.92483333333333, "fusion_lon": 0.0, "is_disabled": 0, "lon": -77.0575885, "rental_uris": {"ios": "https://dc.lft.to/lastmile_qr_scan", "android": "https://dc.lft.to/lastmile_qr_scan"}, "fusion_lat": 0.0, "type": "electric_scooter"}, {"bike_id": "6157d2ed69eaef7dd2894673b3cfdaef", "name": "6157d2ed69eaef7dd2894673b3cfdaef", "is_reserved": 0, "lat": 38.920541666666665, "fusion_lon": 0.0, "is_disabled": 0, "lon": -77.04184683333334, "rental_uris": {"ios": "https://dc.lft.to/lastmile_qr_scan", "android": "https://dc.lft.to/lastmile_qr_scan"}, "fusion_lat": 0.0, "type": "electric_scooter"}, {"bike_id": "5f63dfe3361d29b499c575d4594be336", "name": "5f63dfe3361d29b499c575d4594be336", "is_reserved": 0, "lat": 38.90582066666666, "fusion_lon": 0.0, "is_disabled": 0, "lon": -77.021837, "rental_uris": {"ios": "https://dc.lft.to/lastmile_qr_scan", "android": "https://dc.lft.to/lastmile_qr_scan"}, "fusion_lat": 0.0, "type": "electric_scooter"}, {"bike_id": "3b78e257949cc6bbc0fcc5a891e65c81", "name": "3b78e257949cc6bbc0fcc5a891e65c81", "is_reserved": 0, "lat": 38.91958133333333, "fusion_lon": 0.0, "is_disabled": 0, "lon": -77.02595033333333, "rental_uris": {"ios": "https://dc.lft.to/lastmile_qr_scan", "android": "https://dc.lft.to/lastmile_qr_scan"}, "fusion_lat": 0.0, "type": "electric_scooter"}, {"bike_id": "7592cde6b483106604d66f2f9a9dcaf9", "name": "7592cde6b483106604d66f2f9a9dcaf9", "is_reserved": 0, "lat": 38.92062383333333, "fusion_lon": 0.0, "is_disabled": 0, "lon": -77.02562616666667, "rental_uris": {"ios": "https://dc.lft.to/lastmile_qr_scan", "android": "https://dc.lft.to/lastmile_qr_scan"}, "fusion_lat": 0.0, "type": "electric_scooter"}, {"bike_id": "622055b2b47b0f7a5ffc6d47a95ab13a", "name": "622055b2b47b0f7a5ffc6d47a95ab13a", "is_reserved": 0, "lat": 38.89520483333333, "fusion_lon": 0.0, "is_disabled": 0, "lon": -77.21663316666667, "rental_uris": {"ios": "https://dc.lft.to/lastmile_qr_scan", "android": "https://dc.lft.to/lastmile_qr_scan"}, "fusion_lat": 0.0, "type": "electric_bike"}, {"bike_id": "33880344cad2c9f55b3a4ceb06cb426a", "name": "33880344cad2c9f55b3a4ceb06cb426a", "is_reserved": 0, "lat": 38.92158083333333, "fusion_lon": 0.0, "is_disabled": 0, "lon": -77.03319, "rental_uris": {"ios": "https://dc.lft.to/lastmile_qr_scan", "android": "https://dc.lft.to/lastmile_qr_scan"}, "fusion_lat": 0.0, "type": "electric_scooter"}, {"bike_id": "4db8f3add6e56d11951e4896fc70b163", "name": "4db8f3add6e56d11951e4896fc70b163", "is_reserved": 0, "lat": 39.010767666666666, "fusion_lon": 0.0, "is_disabled": 0, "lon": -76.91065766666667, "rental_uris": {"ios": "https://dc.lft.to/lastmile_qr_scan", "android": "https://dc.lft.to/lastmile_qr_scan"}, "fusion_lat": 0.0, "type": "electric_bike"}, {"bike_id": "b2f11dd99de509b4c3eecf1cc3cf5091", "name": "b2f11dd99de509b4c3eecf1cc3cf5091", "is_reserved": 0, "lat": 38.89254533333333, "fusion_lon": 0.0, "is_disabled": 0, "lon": -77.04661233333333, "rental_uris": {"ios": "https://dc.lft.to/lastmile_qr_scan", "android": "https://dc.lft.to/lastmile_qr_scan"}, "fusion_lat": 0.0, "type": "electric_scooter"}, {"bike_id": "6acb3843616dac6d9a7170820daf9ac5", "name": "6acb3843616dac6d9a7170820daf9ac5", "is_reserved": 0, "lat": 38.899552, "fusion_lon": 0.0, "is_disabled": 0, "lon": -77.04714016666667, "rental_uris": {"ios": "https://dc.lft.to/lastmile_qr_scan", "android": "https://dc.lft.to/lastmile_qr_scan"}, "fusion_lat": 0.0, "type": "electric_scooter"}, {"bike_id": "00c7b77f6359f5c9cc1ed493c74ba13a", "name": "00c7b77f6359f5c9cc1ed493c74ba13a", "is_reserved": 0, "lat": 38.9036495, "fusion_lon": 0.0, "is_disabled": 0, "lon": -76.98096983333333, "rental_uris": {"ios": "https://dc.lft.to/lastmile_qr_scan", "android": "https://dc.lft.to/lastmile_qr_scan"}, "fusion_lat": 0.0, "type": "electric_bike"}, {"bike_id": "96abbdb234172d6307972604cfd1a8aa", "name": "96abbdb234172d6307972604cfd1a8aa", "is_reserved": 0, "lat": 38.91032466666667, "fusion_lon": 0.0, "is_disabled": 0, "lon": -76.99342916666667, "rental_uris": {"ios": "https://dc.lft.to/lastmile_qr_scan", "android": "https://dc.lft.to/lastmile_qr_scan"}, "fusion_lat": 0.0, "type": "electric_scooter"}, {"bike_id": "dd6cafbb6b27dbdc23a353ae645c124e", "name": "dd6cafbb6b27dbdc23a353ae645c124e", "is_reserved": 0, "lat": 38.90842216666667, "fusion_lon": 0.0, "is_disabled": 0, "lon": -77.063431, "rental_uris": {"ios": "https://dc.lft.to/lastmile_qr_scan", "android": "https://dc.lft.to/lastmile_qr_scan"}, "fusion_lat": 0.0, "type": "electric_scooter"}, {"bike_id": "13054be0d62c776c41872ccf4e3f378b", "name": "13054be0d62c776c41872ccf4e3f378b", "is_reserved": 0, "lat": 38.878417666666664, "fusion_lon": 0.0, "is_disabled": 0, "lon": -76.93128416666667, "rental_uris": {"ios": "https://dc.lft.to/lastmile_qr_scan", "android": "https://dc.lft.to/lastmile_qr_scan"}, "fusion_lat": 0.0, "type": "electric_scooter"}, {"bike_id": "7ea89fa2988775b285f22bc4a152fe4a", "name": "7ea89fa2988775b285f22bc4a152fe4a", "is_reserved": 0, "lat": 38.926348833333336, "fusion_lon": 0.0, "is_disabled": 0, "lon": -77.02171366666667, "rental_uris": {"ios": "https://dc.lft.to/lastmile_qr_scan", "android": "https://dc.lft.to/lastmile_qr_scan"}, "fusion_lat": 0.0, "type": "electric_scooter"}, {"bike_id": "3aecccdaded1fac6fcf27ffdd17fa2d1", "name": "3aecccdaded1fac6fcf27ffdd17fa2d1", "is_reserved": 0, "lat": 38.91925716666667, "fusion_lon": 0.0, "is_disabled": 0, "lon": -77.04500383333334, "rental_uris": {"ios": "https://dc.lft.to/lastmile_qr_scan", "android": "https://dc.lft.to/lastmile_qr_scan"}, "fusion_lat": 0.0, "type": "electric_scooter"}, {"bike_id": "3e8907c3e7ab6e321f20e1c34df059f0", "name": "3e8907c3e7ab6e321f20e1c34df059f0", "is_reserved": 0, "lat": 38.90908533333333, "fusion_lon": 0.0, "is_disabled": 0, "lon": -77.00298816666667, "rental_uris": {"ios": "https://dc.lft.to/lastmile_qr_scan", "android": "https://dc.lft.to/lastmile_qr_scan"}, "fusion_lat": 0.0, "type": "electric_scooter"}, {"bike_id": "74aea8ab91af164c8c97aa956ea2ce0c", "name": "74aea8ab91af164c8c97aa956ea2ce0c", "is_reserved": 0, "lat": 38.91017083333333, "fusion_lon": 0.0, "is_disabled": 0, "lon": -77.0444875, "rental_uris": {"ios": "https://dc.lft.to/lastmile_qr_scan", "android": "https://dc.lft.to/lastmile_qr_scan"}, "fusion_lat": 0.0, "type": "electric_scooter"}, {"bike_id": "2e611e9b67f85bd107785e2e169e1c29", "name": "2e611e9b67f85bd107785e2e169e1c29", "is_reserved": 0, "lat": 38.90387116666667, "fusion_lon": 0.0, "is_disabled": 0, "lon": -77.039529, "rental_uris": {"ios": "https://dc.lft.to/lastmile_qr_scan", "android": "https://dc.lft.to/lastmile_qr_scan"}, "fusion_lat": 0.0, "type": "electric_scooter"}, {"bike_id": "2f585a148d56e4b87f19b0191ecc0734", "name": "2f585a148d56e4b87f19b0191ecc0734", "is_reserved": 0, "lat": 38.93769483333333, "fusion_lon": 0.0, "is_disabled": 0, "lon": -77.03243333333333, "rental_uris": {"ios": "https://dc.lft.to/lastmile_qr_scan", "android": "https://dc.lft.to/lastmile_qr_scan"}, "fusion_lat": 0.0, "type": "electric_scooter"}, {"bike_id": "667a3689b7602b5d61b0956aed3938b1", "name": "667a3689b7602b5d61b0956aed3938b1", "is_reserved": 0, "lat": 38.90612633333333, "fusion_lon": 0.0, "is_disabled": 0, "lon": -77.12886616666667, "rental_uris": {"ios": "https://dc.lft.to/lastmile_qr_scan", "android": "https://dc.lft.to/lastmile_qr_scan"}, "fusion_lat": 0.0, "type": "electric_bike"}, {"bike_id": "096f011022090a530242f50efe21e840", "name": "096f011022090a530242f50efe21e840", "is_reserved": 0, "lat": 38.8600665, "fusion_lon": 0.0, "is_disabled": 0, "lon": -76.98518616666667, "rental_uris": {"ios": "https://dc.lft.to/lastmile_qr_scan", "android": "https://dc.lft.to/lastmile_qr_scan"}, "fusion_lat": 0.0, "type": "electric_scooter"}, {"bike_id": "3603352f2ae8fe762b540b31b6c43cb2", "name": "3603352f2ae8fe762b540b31b6c43cb2", "is_reserved": 0, "lat": 38.939802, "fusion_lon": 0.0, "is_disabled": 0, "lon": -77.03048683333333, "rental_uris": {"ios": "https://dc.lft.to/lastmile_qr_scan", "android": "https://dc.lft.to/lastmile_qr_scan"}, "fusion_lat": 0.0, "type": "electric_scooter"}, {"bike_id": "d6d784d14758d71835505cc3b7fa2583", "name": "d6d784d14758d71835505cc3b7fa2583", "is_reserved": 0, "lat": 38.9171085, "fusion_lon": 0.0, "is_disabled": 0, "lon": -77.03767216666667, "rental_uris": {"ios": "https://dc.lft.to/lastmile_qr_scan", "android": "https://dc.lft.to/lastmile_qr_scan"}, "fusion_lat": 0.0, "type": "electric_scooter"}, {"bike_id": "f6139b90478386c931dce825100f6e0a", "name": "f6139b90478386c931dce825100f6e0a", "is_reserved": 0, "lat": 38.873777, "fusion_lon": 0.0, "is_disabled": 0, "lon": -77.00130183333333, "rental_uris": {"ios": "https://dc.lft.to/lastmile_qr_scan", "android": "https://dc.lft.to/lastmile_qr_scan"}, "fusion_lat": 0.0, "type": "electric_scooter"}, {"bike_id": "1e6968c459f1d21002871c4e9fb6c671", "name": "1e6968c459f1d21002871c4e9fb6c671", "is_reserved": 0, "lat": 38.909935, "fusion_lon": 0.0, "is_disabled": 0, "lon": -77.00460616666666, "rental_uris": {"ios": "https://dc.lft.to/lastmile_qr_scan", "android": "https://dc.lft.to/lastmile_qr_scan"}, "fusion_lat": 0.0, "type": "electric_scooter"}, {"bike_id": "b24177abaf95da3baa85cc44b5888451", "name": "b24177abaf95da3baa85cc44b5888451", "is_reserved": 0, "lat": 38.918295, "fusion_lon": 0.0, "is_disabled": 0, "lon": -77.03693083333333, "rental_uris": {"ios": "https://dc.lft.to/lastmile_qr_scan", "android": "https://dc.lft.to/lastmile_qr_scan"}, "fusion_lat": 0.0, "type": "electric_scooter"}, {"bike_id": "05624a5eb00a4f3bb93260f3e980f173", "name": "05624a5eb00a4f3bb93260f3e980f173", "is_reserved": 0, "lat": 38.8923225, "fusion_lon": 0.0, "is_disabled": 0, "lon": -77.03170733333333, "rental_uris": {"ios": "https://dc.lft.to/lastmile_qr_scan", "android": "https://dc.lft.to/lastmile_qr_scan"}, "fusion_lat": 0.0, "type": "electric_scooter"}, {"bike_id": "5fb77fbe10162c32058f28c3aafe42a2", "name": "5fb77fbe10162c32058f28c3aafe42a2", "is_reserved": 0, "lat": 38.94609166666667, "fusion_lon": 0.0, "is_disabled": 0, "lon": -77.03288133333334, "rental_uris": {"ios": "https://dc.lft.to/lastmile_qr_scan", "android": "https://dc.lft.to/lastmile_qr_scan"}, "fusion_lat": 0.0, "type": "electric_scooter"}, {"bike_id": "302fd6f1e4899ba6b4ef2c0235a50376", "name": "302fd6f1e4899ba6b4ef2c0235a50376", "is_reserved": 0, "lat": 38.92342633333333, "fusion_lon": 0.0, "is_disabled": 0, "lon": -77.04376366666666, "rental_uris": {"ios": "https://dc.lft.to/lastmile_qr_scan", "android": "https://dc.lft.to/lastmile_qr_scan"}, "fusion_lat": 0.0, "type": "electric_scooter"}, {"bike_id": "3b6bd133853a50e524492919a0948aa1", "name": "3b6bd133853a50e524492919a0948aa1", "is_reserved": 0, "lat": 38.91567466666667, "fusion_lon": 0.0, "is_disabled": 0, "lon": -77.028014, "rental_uris": {"ios": "https://dc.lft.to/lastmile_qr_scan", "android": "https://dc.lft.to/lastmile_qr_scan"}, "fusion_lat": 0.0, "type": "electric_scooter"}, {"bike_id": "4fd285c30d9d9843eafc870f50b04b67", "name": "4fd285c30d9d9843eafc870f50b04b67", "is_reserved": 0, "lat": 38.92270283333333, "fusion_lon": 0.0, "is_disabled": 0, "lon": -77.01832816666666, "rental_uris": {"ios": "https://dc.lft.to/lastmile_qr_scan", "android": "https://dc.lft.to/lastmile_qr_scan"}, "fusion_lat": 0.0, "type": "electric_scooter"}, {"bike_id": "cd5966a895380c2d2d17830b61c84575", "name": "cd5966a895380c2d2d17830b61c84575", "is_reserved": 0, "lat": 38.8839675, "fusion_lon": 0.0, "is_disabled": 0, "lon": -77.044538, "rental_uris": {"ios": "https://dc.lft.to/lastmile_qr_scan", "android": "https://dc.lft.to/lastmile_qr_scan"}, "fusion_lat": 0.0, "type": "electric_scooter"}, {"bike_id": "d2f485ecf08b8a5bd1b995eb2a7b83ef", "name": "d2f485ecf08b8a5bd1b995eb2a7b83ef", "is_reserved": 0, "lat": 38.93399316666667, "fusion_lon": 0.0, "is_disabled": 0, "lon": -77.05745816666666, "rental_uris": {"ios": "https://dc.lft.to/lastmile_qr_scan", "android": "https://dc.lft.to/lastmile_qr_scan"}, "fusion_lat": 0.0, "type": "electric_scooter"}, {"bike_id": "b27606f782b11f9810b5cc36f38f0d4f", "name": "b27606f782b11f9810b5cc36f38f0d4f", "is_reserved": 0, "lat": 38.927999166666666, "fusion_lon": 0.0, "is_disabled": 0, "lon": -77.22946033333334, "rental_uris": {"ios": "https://dc.lft.to/lastmile_qr_scan", "android": "https://dc.lft.to/lastmile_qr_scan"}, "fusion_lat": 0.0, "type": "electric_bike"}, {"bike_id": "62f294cd5c986b5d5f35139f46eaf833", "name": "62f294cd5c986b5d5f35139f46eaf833", "is_reserved": 0, "lat": 38.9002925, "fusion_lon": 0.0, "is_disabled": 0, "lon": -77.03715433333333, "rental_uris": {"ios": "https://dc.lft.to/lastmile_qr_scan", "android": "https://dc.lft.to/lastmile_qr_scan"}, "fusion_lat": 0.0, "type": "electric_scooter"}, {"bike_id": "b9f3ff59130c9d51eda809e5804e2182", "name": "b9f3ff59130c9d51eda809e5804e2182", "is_reserved": 0, "lat": 38.922716, "fusion_lon": 0.0, "is_disabled": 0, "lon": -77.0244275, "rental_uris": {"ios": "https://dc.lft.to/lastmile_qr_scan", "android": "https://dc.lft.to/lastmile_qr_scan"}, "fusion_lat": 0.0, "type": "electric_scooter"}, {"bike_id": "ec93f06db9dca5e5c720cca5680f6596", "name": "ec93f06db9dca5e5c720cca5680f6596", "is_reserved": 0, "lat": 38.81331, "fusion_lon": 0.0, "is_disabled": 0, "lon": -77.0508585, "rental_uris": {"ios": "https://dc.lft.to/lastmile_qr_scan", "android": "https://dc.lft.to/lastmile_qr_scan"}, "fusion_lat": 0.0, "type": "electric_bike"}, {"bike_id": "f3c0678550e117f16f5ef1b7357a9288", "name": "f3c0678550e117f16f5ef1b7357a9288", "is_reserved": 0, "lat": 38.9275715, "fusion_lon": 0.0, "is_disabled": 0, "lon": -77.03248383333333, "rental_uris": {"ios": "https://dc.lft.to/lastmile_qr_scan", "android": "https://dc.lft.to/lastmile_qr_scan"}, "fusion_lat": 0.0, "type": "electric_scooter"}, {"bike_id": "1da778c06d724cabb2e7a117c5f5c274", "name": "1da778c06d724cabb2e7a117c5f5c274", "is_reserved": 0, "lat": 38.90752766666667, "fusion_lon": 0.0, "is_disabled": 0, "lon": -77.041666, "rental_uris": {"ios": "https://dc.lft.to/lastmile_qr_scan", "android": "https://dc.lft.to/lastmile_qr_scan"}, "fusion_lat": 0.0, "type": "electric_scooter"}, {"bike_id": "dd5806ae0d89921c0857ff4137383edd", "name": "dd5806ae0d89921c0857ff4137383edd", "is_reserved": 0, "lat": 38.900827666666665, "fusion_lon": 0.0, "is_disabled": 0, "lon": -77.0500055, "rental_uris": {"ios": "https://dc.lft.to/lastmile_qr_scan", "android": "https://dc.lft.to/lastmile_qr_scan"}, "fusion_lat": 0.0, "type": "electric_scooter"}, {"bike_id": "07592f5a53b1f76438ed0a383a63e13a", "name": "07592f5a53b1f76438ed0a383a63e13a", "is_reserved": 0, "lat": 38.89781933333333, "fusion_lon": 0.0, "is_disabled": 0, "lon": -77.01212466666667, "rental_uris": {"ios": "https://dc.lft.to/lastmile_qr_scan", "android": "https://dc.lft.to/lastmile_qr_scan"}, "fusion_lat": 0.0, "type": "electric_scooter"}, {"bike_id": "bd92399d3e0cd8294eb0017418459e68", "name": "bd92399d3e0cd8294eb0017418459e68", "is_reserved": 0, "lat": 38.856534, "fusion_lon": 0.0, "is_disabled": 0, "lon": -76.99674883333333, "rental_uris": {"ios": "https://dc.lft.to/lastmile_qr_scan", "android": "https://dc.lft.to/lastmile_qr_scan"}, "fusion_lat": 0.0, "type": "electric_scooter"}, {"bike_id": "ded9323a4af9923eb52f8b88e3a3b410", "name": "ded9323a4af9923eb52f8b88e3a3b410", "is_reserved": 0, "lat": 38.9091415, "fusion_lon": 0.0, "is_disabled": 0, "lon": -77.06430266666666, "rental_uris": {"ios": "https://dc.lft.to/lastmile_qr_scan", "android": "https://dc.lft.to/lastmile_qr_scan"}, "fusion_lat": 0.0, "type": "electric_scooter"}, {"bike_id": "029eea9158e80a98b797a29057693dc4", "name": "029eea9158e80a98b797a29057693dc4", "is_reserved": 0, "lat": 38.923217333333334, "fusion_lon": 0.0, "is_disabled": 0, "lon": -77.02115866666666, "rental_uris": {"ios": "https://dc.lft.to/lastmile_qr_scan", "android": "https://dc.lft.to/lastmile_qr_scan"}, "fusion_lat": 0.0, "type": "electric_scooter"}, {"bike_id": "3dc496924be2a39439ac2d7186b90a5a", "name": "3dc496924be2a39439ac2d7186b90a5a", "is_reserved": 0, "lat": 38.895052166666666, "fusion_lon": 0.0, "is_disabled": 0, "lon": -76.93478683333333, "rental_uris": {"ios": "https://dc.lft.to/lastmile_qr_scan", "android": "https://dc.lft.to/lastmile_qr_scan"}, "fusion_lat": 0.0, "type": "electric_scooter"}, {"bike_id": "92e4d1a067b8664893c6d879b0bb5c66", "name": "92e4d1a067b8664893c6d879b0bb5c66", "is_reserved": 0, "lat": 38.9183915, "fusion_lon": 0.0, "is_disabled": 0, "lon": -77.02295633333334, "rental_uris": {"ios": "https://dc.lft.to/lastmile_qr_scan", "android": "https://dc.lft.to/lastmile_qr_scan"}, "fusion_lat": 0.0, "type": "electric_scooter"}, {"bike_id": "76b983539e62732b90f402525b799f23", "name": "76b983539e62732b90f402525b799f23", "is_reserved": 0, "lat": 38.860818333333334, "fusion_lon": 0.0, "is_disabled": 0, "lon": -76.98378583333333, "rental_uris": {"ios": "https://dc.lft.to/lastmile_qr_scan", "android": "https://dc.lft.to/lastmile_qr_scan"}, "fusion_lat": 0.0, "type": "electric_scooter"}, {"bike_id": "29770ae2b89898dbdc628897725ffbe2", "name": "29770ae2b89898dbdc628897725ffbe2", "is_reserved": 0, "lat": 38.917843, "fusion_lon": 0.0, "is_disabled": 0, "lon": -77.02343833333333, "rental_uris": {"ios": "https://dc.lft.to/lastmile_qr_scan", "android": "https://dc.lft.to/lastmile_qr_scan"}, "fusion_lat": 0.0, "type": "electric_scooter"}, {"bike_id": "f34a5909e428885e5cbe2f0d1192ad22", "name": "f34a5909e428885e5cbe2f0d1192ad22", "is_reserved": 0, "lat": 38.90235716666667, "fusion_lon": 0.0, "is_disabled": 0, "lon": -77.01979266666666, "rental_uris": {"ios": "https://dc.lft.to/lastmile_qr_scan", "android": "https://dc.lft.to/lastmile_qr_scan"}, "fusion_lat": 0.0, "type": "electric_scooter"}, {"bike_id": "d31387d8be66305d03ee997f01bc5a0b", "name": "d31387d8be66305d03ee997f01bc5a0b", "is_reserved": 0, "lat": 38.9023805, "fusion_lon": 0.0, "is_disabled": 0, "lon": -77.04227783333333, "rental_uris": {"ios": "https://dc.lft.to/lastmile_qr_scan", "android": "https://dc.lft.to/lastmile_qr_scan"}, "fusion_lat": 0.0, "type": "electric_scooter"}, {"bike_id": "a7669ac7dd300caaa7e9c36c67b86f04", "name": "a7669ac7dd300caaa7e9c36c67b86f04", "is_reserved": 0, "lat": 38.898323500000004, "fusion_lon": 0.0, "is_disabled": 0, "lon": -77.04940083333334, "rental_uris": {"ios": "https://dc.lft.to/lastmile_qr_scan", "android": "https://dc.lft.to/lastmile_qr_scan"}, "fusion_lat": 0.0, "type": "electric_scooter"}, {"bike_id": "0c0b362d96b39e8038483ba0cae0a590", "name": "0c0b362d96b39e8038483ba0cae0a590", "is_reserved": 0, "lat": 38.920644333333335, "fusion_lon": 0.0, "is_disabled": 0, "lon": -77.04192333333333, "rental_uris": {"ios": "https://dc.lft.to/lastmile_qr_scan", "android": "https://dc.lft.to/lastmile_qr_scan"}, "fusion_lat": 0.0, "type": "electric_scooter"}, {"bike_id": "622599aa2c3507deb96092a80fe7d766", "name": "622599aa2c3507deb96092a80fe7d766", "is_reserved": 0, "lat": 38.918387, "fusion_lon": 0.0, "is_disabled": 0, "lon": -77.04177116666666, "rental_uris": {"ios": "https://dc.lft.to/lastmile_qr_scan", "android": "https://dc.lft.to/lastmile_qr_scan"}, "fusion_lat": 0.0, "type": "electric_scooter"}, {"bike_id": "4e1534441d28f7218acd97d7b3ff5324", "name": "4e1534441d28f7218acd97d7b3ff5324", "is_reserved": 0, "lat": 38.896685833333336, "fusion_lon": 0.0, "is_disabled": 0, "lon": -76.932139, "rental_uris": {"ios": "https://dc.lft.to/lastmile_qr_scan", "android": "https://dc.lft.to/lastmile_qr_scan"}, "fusion_lat": 0.0, "type": "electric_scooter"}, {"bike_id": "7b82721cf29cca03bd0c11cee2b6ccf2", "name": "7b82721cf29cca03bd0c11cee2b6ccf2", "is_reserved": 0, "lat": 38.89959566666667, "fusion_lon": 0.0, "is_disabled": 0, "lon": -77.04538666666667, "rental_uris": {"ios": "https://dc.lft.to/lastmile_qr_scan", "android": "https://dc.lft.to/lastmile_qr_scan"}, "fusion_lat": 0.0, "type": "electric_scooter"}, {"bike_id": "b4131b169e7b13628afe36a199056ff5", "name": "b4131b169e7b13628afe36a199056ff5", "is_reserved": 0, "lat": 38.899127666666665, "fusion_lon": 0.0, "is_disabled": 0, "lon": -77.05427283333333, "rental_uris": {"ios": "https://dc.lft.to/lastmile_qr_scan", "android": "https://dc.lft.to/lastmile_qr_scan"}, "fusion_lat": 0.0, "type": "electric_scooter"}, {"bike_id": "b49122a9144d509c7ad21c515c6536f2", "name": "b49122a9144d509c7ad21c515c6536f2", "is_reserved": 0, "lat": 38.920229666666664, "fusion_lon": 0.0, "is_disabled": 0, "lon": -77.03205583333333, "rental_uris": {"ios": "https://dc.lft.to/lastmile_qr_scan", "android": "https://dc.lft.to/lastmile_qr_scan"}, "fusion_lat": 0.0, "type": "electric_scooter"}, {"bike_id": "0ed058fa390f070699e7f2ccdcd079b4", "name": "0ed058fa390f070699e7f2ccdcd079b4", "is_reserved": 0, "lat": 38.868232166666665, "fusion_lon": 0.0, "is_disabled": 0, "lon": -76.9802325, "rental_uris": {"ios": "https://dc.lft.to/lastmile_qr_scan", "android": "https://dc.lft.to/lastmile_qr_scan"}, "fusion_lat": 0.0, "type": "electric_bike"}, {"bike_id": "38def7b4bfc69df7250dcb5d3ef13f52", "name": "38def7b4bfc69df7250dcb5d3ef13f52", "is_reserved": 0, "lat": 38.985266333333335, "fusion_lon": 0.0, "is_disabled": 0, "lon": -77.00411716666666, "rental_uris": {"ios": "https://dc.lft.to/lastmile_qr_scan", "android": "https://dc.lft.to/lastmile_qr_scan"}, "fusion_lat": 0.0, "type": "electric_bike"}, {"bike_id": "e302206ce120d32dce60c38c15a85d4b", "name": "e302206ce120d32dce60c38c15a85d4b", "is_reserved": 0, "lat": 38.91416, "fusion_lon": 0.0, "is_disabled": 0, "lon": -77.0222715, "rental_uris": {"ios": "https://dc.lft.to/lastmile_qr_scan", "android": "https://dc.lft.to/lastmile_qr_scan"}, "fusion_lat": 0.0, "type": "electric_scooter"}, {"bike_id": "2bd3f1e5cc1bd879dd7caa242aea17f6", "name": "2bd3f1e5cc1bd879dd7caa242aea17f6", "is_reserved": 0, "lat": 38.917902166666664, "fusion_lon": 0.0, "is_disabled": 0, "lon": -77.02501266666667, "rental_uris": {"ios": "https://dc.lft.to/lastmile_qr_scan", "android": "https://dc.lft.to/lastmile_qr_scan"}, "fusion_lat": 0.0, "type": "electric_scooter"}, {"bike_id": "39434af9965c0a92ebe902f431013931", "name": "39434af9965c0a92ebe902f431013931", "is_reserved": 0, "lat": 38.90811033333333, "fusion_lon": 0.0, "is_disabled": 0, "lon": -77.04171616666666, "rental_uris": {"ios": "https://dc.lft.to/lastmile_qr_scan", "android": "https://dc.lft.to/lastmile_qr_scan"}, "fusion_lat": 0.0, "type": "electric_scooter"}, {"bike_id": "33cfb138aaf23e02aa1c75d2ed22467a", "name": "33cfb138aaf23e02aa1c75d2ed22467a", "is_reserved": 0, "lat": 38.902369, "fusion_lon": 0.0, "is_disabled": 0, "lon": -77.0517215, "rental_uris": {"ios": "https://dc.lft.to/lastmile_qr_scan", "android": "https://dc.lft.to/lastmile_qr_scan"}, "fusion_lat": 0.0, "type": "electric_scooter"}, {"bike_id": "fc9c7d1f2270df0fef35d47485e5dd52", "name": "fc9c7d1f2270df0fef35d47485e5dd52", "is_reserved": 0, "lat": 38.9011825, "fusion_lon": 0.0, "is_disabled": 0, "lon": -77.03958233333333, "rental_uris": {"ios": "https://dc.lft.to/lastmile_qr_scan", "android": "https://dc.lft.to/lastmile_qr_scan"}, "fusion_lat": 0.0, "type": "electric_scooter"}, {"bike_id": "162c359914735d3bf8b7dd608ff28315", "name": "162c359914735d3bf8b7dd608ff28315", "is_reserved": 0, "lat": 38.93764133333333, "fusion_lon": 0.0, "is_disabled": 0, "lon": -77.03240116666667, "rental_uris": {"ios": "https://dc.lft.to/lastmile_qr_scan", "android": "https://dc.lft.to/lastmile_qr_scan"}, "fusion_lat": 0.0, "type": "electric_scooter"}, {"bike_id": "a5c872d671371ce5d093c362b66ab540", "name": "a5c872d671371ce5d093c362b66ab540", "is_reserved": 0, "lat": 38.895352833333334, "fusion_lon": 0.0, "is_disabled": 0, "lon": -77.02421783333334, "rental_uris": {"ios": "https://dc.lft.to/lastmile_qr_scan", "android": "https://dc.lft.to/lastmile_qr_scan"}, "fusion_lat": 0.0, "type": "electric_scooter"}, {"bike_id": "0ff4c01267d33d3841bac02f88496875", "name": "0ff4c01267d33d3841bac02f88496875", "is_reserved": 0, "lat": 38.919095666666664, "fusion_lon": 0.0, "is_disabled": 0, "lon": -77.04180816666667, "rental_uris": {"ios": "https://dc.lft.to/lastmile_qr_scan", "android": "https://dc.lft.to/lastmile_qr_scan"}, "fusion_lat": 0.0, "type": "electric_scooter"}, {"bike_id": "1b045612ac97ca9bda9d39b768a0d07d", "name": "1b045612ac97ca9bda9d39b768a0d07d", "is_reserved": 0, "lat": 38.899956833333334, "fusion_lon": 0.0, "is_disabled": 0, "lon": -77.022185, "rental_uris": {"ios": "https://dc.lft.to/lastmile_qr_scan", "android": "https://dc.lft.to/lastmile_qr_scan"}, "fusion_lat": 0.0, "type": "electric_scooter"}, {"bike_id": "90ca4315b6d56ddb03ff0f968987c7d9", "name": "90ca4315b6d56ddb03ff0f968987c7d9", "is_reserved": 0, "lat": 38.87954116666667, "fusion_lon": 0.0, "is_disabled": 0, "lon": -76.931883, "rental_uris": {"ios": "https://dc.lft.to/lastmile_qr_scan", "android": "https://dc.lft.to/lastmile_qr_scan"}, "fusion_lat": 0.0, "type": "electric_bike"}, {"bike_id": "c6cf3f25c94c1600c14e782c3ff01ace", "name": "c6cf3f25c94c1600c14e782c3ff01ace", "is_reserved": 0, "lat": 38.903553333333335, "fusion_lon": 0.0, "is_disabled": 0, "lon": -77.05257833333333, "rental_uris": {"ios": "https://dc.lft.to/lastmile_qr_scan", "android": "https://dc.lft.to/lastmile_qr_scan"}, "fusion_lat": 0.0, "type": "electric_scooter"}, {"bike_id": "8984482b105f0b15258abb49fd322161", "name": "8984482b105f0b15258abb49fd322161", "is_reserved": 0, "lat": 38.9083875, "fusion_lon": 0.0, "is_disabled": 0, "lon": -77.06377216666667, "rental_uris": {"ios": "https://dc.lft.to/lastmile_qr_scan", "android": "https://dc.lft.to/lastmile_qr_scan"}, "fusion_lat": 0.0, "type": "electric_scooter"}, {"bike_id": "95fd159229e59c4b83d96de507ccc882", "name": "95fd159229e59c4b83d96de507ccc882", "is_reserved": 0, "lat": 38.88878583333333, "fusion_lon": 0.0, "is_disabled": 0, "lon": -76.9569875, "rental_uris": {"ios": "https://dc.lft.to/lastmile_qr_scan", "android": "https://dc.lft.to/lastmile_qr_scan"}, "fusion_lat": 0.0, "type": "electric_bike"}, {"bike_id": "5c5fe785bdc711d509a60e333ea2fe18", "name": "5c5fe785bdc711d509a60e333ea2fe18", "is_reserved": 0, "lat": 38.940662833333334, "fusion_lon": 0.0, "is_disabled": 0, "lon": -77.02125666666667, "rental_uris": {"ios": "https://dc.lft.to/lastmile_qr_scan", "android": "https://dc.lft.to/lastmile_qr_scan"}, "fusion_lat": 0.0, "type": "electric_scooter"}, {"bike_id": "42a4a7792215103994bd4e68710c357c", "name": "42a4a7792215103994bd4e68710c357c", "is_reserved": 0, "lat": 38.911819333333334, "fusion_lon": 0.0, "is_disabled": 0, "lon": -77.02195833333333, "rental_uris": {"ios": "https://dc.lft.to/lastmile_qr_scan", "android": "https://dc.lft.to/lastmile_qr_scan"}, "fusion_lat": 0.0, "type": "electric_scooter"}, {"bike_id": "858a704146cd2ced5400ca240bd0ef03", "name": "858a704146cd2ced5400ca240bd0ef03", "is_reserved": 0, "lat": 38.87687966666667, "fusion_lon": 0.0, "is_disabled": 0, "lon": -77.00406916666667, "rental_uris": {"ios": "https://dc.lft.to/lastmile_qr_scan", "android": "https://dc.lft.to/lastmile_qr_scan"}, "fusion_lat": 0.0, "type": "electric_scooter"}, {"bike_id": "7114d7eb386be5bce7559eafbdaa38fc", "name": "7114d7eb386be5bce7559eafbdaa38fc", "is_reserved": 0, "lat": 38.926841833333334, "fusion_lon": 0.0, "is_disabled": 0, "lon": -77.032655, "rental_uris": {"ios": "https://dc.lft.to/lastmile_qr_scan", "android": "https://dc.lft.to/lastmile_qr_scan"}, "fusion_lat": 0.0, "type": "electric_scooter"}, {"bike_id": "ff8ee83e10e90b176ce023260e8c0426", "name": "ff8ee83e10e90b176ce023260e8c0426", "is_reserved": 0, "lat": 38.92611266666667, "fusion_lon": 0.0, "is_disabled": 0, "lon": -77.02166816666667, "rental_uris": {"ios": "https://dc.lft.to/lastmile_qr_scan", "android": "https://dc.lft.to/lastmile_qr_scan"}, "fusion_lat": 0.0, "type": "electric_scooter"}, {"bike_id": "4c2f6bfb031bcc4fe2d725553396d90a", "name": "4c2f6bfb031bcc4fe2d725553396d90a", "is_reserved": 0, "lat": 38.921603, "fusion_lon": 0.0, "is_disabled": 0, "lon": -77.042271, "rental_uris": {"ios": "https://dc.lft.to/lastmile_qr_scan", "android": "https://dc.lft.to/lastmile_qr_scan"}, "fusion_lat": 0.0, "type": "electric_scooter"}, {"bike_id": "452f2b30e5015448ea359ed4968d0533", "name": "452f2b30e5015448ea359ed4968d0533", "is_reserved": 0, "lat": 38.90518983333333, "fusion_lon": 0.0, "is_disabled": 0, "lon": -77.062321, "rental_uris": {"ios": "https://dc.lft.to/lastmile_qr_scan", "android": "https://dc.lft.to/lastmile_qr_scan"}, "fusion_lat": 0.0, "type": "electric_scooter"}, {"bike_id": "cf71fa2b542fdc71874fc07da63ca380", "name": "cf71fa2b542fdc71874fc07da63ca380", "is_reserved": 0, "lat": 38.920411333333334, "fusion_lon": 0.0, "is_disabled": 0, "lon": -77.01716283333333, "rental_uris": {"ios": "https://dc.lft.to/lastmile_qr_scan", "android": "https://dc.lft.to/lastmile_qr_scan"}, "fusion_lat": 0.0, "type": "electric_scooter"}, {"bike_id": "f860a3710933de81bb0bebfc9bbc5347", "name": "f860a3710933de81bb0bebfc9bbc5347", "is_reserved": 0, "lat": 38.905739833333335, "fusion_lon": 0.0, "is_disabled": 0, "lon": -77.02198, "rental_uris": {"ios": "https://dc.lft.to/lastmile_qr_scan", "android": "https://dc.lft.to/lastmile_qr_scan"}, "fusion_lat": 0.0, "type": "electric_scooter"}, {"bike_id": "3bf6c0a126a29b0ee4d6c777528167bb", "name": "3bf6c0a126a29b0ee4d6c777528167bb", "is_reserved": 0, "lat": 38.926613, "fusion_lon": 0.0, "is_disabled": 0, "lon": -77.03729816666667, "rental_uris": {"ios": "https://dc.lft.to/lastmile_qr_scan", "android": "https://dc.lft.to/lastmile_qr_scan"}, "fusion_lat": 0.0, "type": "electric_scooter"}, {"bike_id": "5723ea6e7b259c1f4e454d3048e240ad", "name": "5723ea6e7b259c1f4e454d3048e240ad", "is_reserved": 0, "lat": 38.9013145, "fusion_lon": 0.0, "is_disabled": 0, "lon": -77.0401785, "rental_uris": {"ios": "https://dc.lft.to/lastmile_qr_scan", "android": "https://dc.lft.to/lastmile_qr_scan"}, "fusion_lat": 0.0, "type": "electric_scooter"}, {"bike_id": "ccfbe9b2933dffbea04f93a6fa81bfec", "name": "ccfbe9b2933dffbea04f93a6fa81bfec", "is_reserved": 0, "lat": 38.89866716666667, "fusion_lon": 0.0, "is_disabled": 0, "lon": -77.02198783333333, "rental_uris": {"ios": "https://dc.lft.to/lastmile_qr_scan", "android": "https://dc.lft.to/lastmile_qr_scan"}, "fusion_lat": 0.0, "type": "electric_scooter"}, {"bike_id": "4b8e11a80ca4bfc8c013ae1d8476a5b9", "name": "4b8e11a80ca4bfc8c013ae1d8476a5b9", "is_reserved": 0, "lat": 38.92439483333333, "fusion_lon": 0.0, "is_disabled": 0, "lon": -77.02025516666667, "rental_uris": {"ios": "https://dc.lft.to/lastmile_qr_scan", "android": "https://dc.lft.to/lastmile_qr_scan"}, "fusion_lat": 0.0, "type": "electric_scooter"}, {"bike_id": "519af09dfbb70e22b82a2e7e52b1b347", "name": "519af09dfbb70e22b82a2e7e52b1b347", "is_reserved": 0, "lat": 38.91822333333333, "fusion_lon": 0.0, "is_disabled": 0, "lon": -77.02530533333334, "rental_uris": {"ios": "https://dc.lft.to/lastmile_qr_scan", "android": "https://dc.lft.to/lastmile_qr_scan"}, "fusion_lat": 0.0, "type": "electric_scooter"}, {"bike_id": "cdf330d2a734ff4b7d9b7392346320ee", "name": "cdf330d2a734ff4b7d9b7392346320ee", "is_reserved": 0, "lat": 38.897310166666664, "fusion_lon": 0.0, "is_disabled": 0, "lon": -76.92588716666667, "rental_uris": {"ios": "https://dc.lft.to/lastmile_qr_scan", "android": "https://dc.lft.to/lastmile_qr_scan"}, "fusion_lat": 0.0, "type": "electric_scooter"}, {"bike_id": "e3f15b116fd0c06affec360a6a893083", "name": "e3f15b116fd0c06affec360a6a893083", "is_reserved": 0, "lat": 38.942613333333334, "fusion_lon": 0.0, "is_disabled": 0, "lon": -77.029854, "rental_uris": {"ios": "https://dc.lft.to/lastmile_qr_scan", "android": "https://dc.lft.to/lastmile_qr_scan"}, "fusion_lat": 0.0, "type": "electric_scooter"}, {"bike_id": "74456471fd1e8ed3274a63d4dfcebafa", "name": "74456471fd1e8ed3274a63d4dfcebafa", "is_reserved": 0, "lat": 38.908195, "fusion_lon": 0.0, "is_disabled": 0, "lon": -77.03203633333334, "rental_uris": {"ios": "https://dc.lft.to/lastmile_qr_scan", "android": "https://dc.lft.to/lastmile_qr_scan"}, "fusion_lat": 0.0, "type": "electric_scooter"}, {"bike_id": "38b0a45d3acef7fb77b818910a77e49c", "name": "38b0a45d3acef7fb77b818910a77e49c", "is_reserved": 0, "lat": 38.906943, "fusion_lon": 0.0, "is_disabled": 0, "lon": -76.95249466666667, "rental_uris": {"ios": "https://dc.lft.to/lastmile_qr_scan", "android": "https://dc.lft.to/lastmile_qr_scan"}, "fusion_lat": 0.0, "type": "electric_bike"}, {"bike_id": "a61e037a77266142cce67e01dec43199", "name": "a61e037a77266142cce67e01dec43199", "is_reserved": 0, "lat": 38.90434066666667, "fusion_lon": 0.0, "is_disabled": 0, "lon": -77.0287555, "rental_uris": {"ios": "https://dc.lft.to/lastmile_qr_scan", "android": "https://dc.lft.to/lastmile_qr_scan"}, "fusion_lat": 0.0, "type": "electric_scooter"}, {"bike_id": "31229f7b58de10e2bd1b183cfbd5cf16", "name": "31229f7b58de10e2bd1b183cfbd5cf16", "is_reserved": 0, "lat": 38.89731533333333, "fusion_lon": 0.0, "is_disabled": 0, "lon": -77.04841983333333, "rental_uris": {"ios": "https://dc.lft.to/lastmile_qr_scan", "android": "https://dc.lft.to/lastmile_qr_scan"}, "fusion_lat": 0.0, "type": "electric_scooter"}, {"bike_id": "d37bbc3ff6b668c88ffecc684bad3e17", "name": "d37bbc3ff6b668c88ffecc684bad3e17", "is_reserved": 0, "lat": 38.89938016666667, "fusion_lon": 0.0, "is_disabled": 0, "lon": -77.02007833333333, "rental_uris": {"ios": "https://dc.lft.to/lastmile_qr_scan", "android": "https://dc.lft.to/lastmile_qr_scan"}, "fusion_lat": 0.0, "type": "electric_scooter"}, {"bike_id": "7b823e404bf43973dc385bac0f305c96", "name": "7b823e404bf43973dc385bac0f305c96", "is_reserved": 0, "lat": 38.90239966666667, "fusion_lon": 0.0, "is_disabled": 0, "lon": -77.00200233333334, "rental_uris": {"ios": "https://dc.lft.to/lastmile_qr_scan", "android": "https://dc.lft.to/lastmile_qr_scan"}, "fusion_lat": 0.0, "type": "electric_scooter"}, {"bike_id": "48d32e64a91cb87bb65791a2bce25215", "name": "48d32e64a91cb87bb65791a2bce25215", "is_reserved": 0, "lat": 38.925066, "fusion_lon": 0.0, "is_disabled": 0, "lon": -77.0323515, "rental_uris": {"ios": "https://dc.lft.to/lastmile_qr_scan", "android": "https://dc.lft.to/lastmile_qr_scan"}, "fusion_lat": 0.0, "type": "electric_scooter"}, {"bike_id": "65c5d29ad7833926101940fc3798753a", "name": "65c5d29ad7833926101940fc3798753a", "is_reserved": 0, "lat": 38.8860035, "fusion_lon": 0.0, "is_disabled": 0, "lon": -76.92500983333333, "rental_uris": {"ios": "https://dc.lft.to/lastmile_qr_scan", "android": "https://dc.lft.to/lastmile_qr_scan"}, "fusion_lat": 0.0, "type": "electric_scooter"}, {"bike_id": "24457a259997e97e06630de131b7d713", "name": "24457a259997e97e06630de131b7d713", "is_reserved": 0, "lat": 38.9170305, "fusion_lon": 0.0, "is_disabled": 0, "lon": -77.03147183333333, "rental_uris": {"ios": "https://dc.lft.to/lastmile_qr_scan", "android": "https://dc.lft.to/lastmile_qr_scan"}, "fusion_lat": 0.0, "type": "electric_scooter"}, {"bike_id": "c4d470194cc1f9c013094ce6d7dbdd73", "name": "c4d470194cc1f9c013094ce6d7dbdd73", "is_reserved": 0, "lat": 38.90047166666667, "fusion_lon": 0.0, "is_disabled": 0, "lon": -76.99329583333333, "rental_uris": {"ios": "https://dc.lft.to/lastmile_qr_scan", "android": "https://dc.lft.to/lastmile_qr_scan"}, "fusion_lat": 0.0, "type": "electric_scooter"}, {"bike_id": "bd5d338aa3a8672e6bb2f0a6517f778d", "name": "bd5d338aa3a8672e6bb2f0a6517f778d", "is_reserved": 0, "lat": 38.90120483333333, "fusion_lon": 0.0, "is_disabled": 0, "lon": -77.033892, "rental_uris": {"ios": "https://dc.lft.to/lastmile_qr_scan", "android": "https://dc.lft.to/lastmile_qr_scan"}, "fusion_lat": 0.0, "type": "electric_scooter"}, {"bike_id": "61b61d7026a39e21fa707a59fe023bae", "name": "61b61d7026a39e21fa707a59fe023bae", "is_reserved": 0, "lat": 38.893915166666666, "fusion_lon": 0.0, "is_disabled": 0, "lon": -77.05475866666667, "rental_uris": {"ios": "https://dc.lft.to/lastmile_qr_scan", "android": "https://dc.lft.to/lastmile_qr_scan"}, "fusion_lat": 0.0, "type": "electric_scooter"}, {"bike_id": "2c7b97e697e6ee236e4069bcd5de1307", "name": "2c7b97e697e6ee236e4069bcd5de1307", "is_reserved": 0, "lat": 38.9565245, "fusion_lon": 0.0, "is_disabled": 0, "lon": -77.01286266666666, "rental_uris": {"ios": "https://dc.lft.to/lastmile_qr_scan", "android": "https://dc.lft.to/lastmile_qr_scan"}, "fusion_lat": 0.0, "type": "electric_scooter"}, {"bike_id": "eefb6245bd2c7cb52b74cb7ea091d62b", "name": "eefb6245bd2c7cb52b74cb7ea091d62b", "is_reserved": 0, "lat": 38.923661333333335, "fusion_lon": 0.0, "is_disabled": 0, "lon": -77.02125133333334, "rental_uris": {"ios": "https://dc.lft.to/lastmile_qr_scan", "android": "https://dc.lft.to/lastmile_qr_scan"}, "fusion_lat": 0.0, "type": "electric_scooter"}, {"bike_id": "578dcbb98f242070d2588e0b81796f71", "name": "578dcbb98f242070d2588e0b81796f71", "is_reserved": 0, "lat": 38.878946666666664, "fusion_lon": 0.0, "is_disabled": 0, "lon": -76.93528866666666, "rental_uris": {"ios": "https://dc.lft.to/lastmile_qr_scan", "android": "https://dc.lft.to/lastmile_qr_scan"}, "fusion_lat": 0.0, "type": "electric_scooter"}, {"bike_id": "48a37be909913e3d61e81ee10a4d3e74", "name": "48a37be909913e3d61e81ee10a4d3e74", "is_reserved": 0, "lat": 38.822065333333335, "fusion_lon": 0.0, "is_disabled": 0, "lon": -76.97707383333334, "rental_uris": {"ios": "https://dc.lft.to/lastmile_qr_scan", "android": "https://dc.lft.to/lastmile_qr_scan"}, "fusion_lat": 0.0, "type": "electric_bike"}, {"bike_id": "acf4272528847ffabc3d5e7295e63e98", "name": "acf4272528847ffabc3d5e7295e63e98", "is_reserved": 0, "lat": 38.96731116666667, "fusion_lon": 0.0, "is_disabled": 0, "lon": -77.02535866666666, "rental_uris": {"ios": "https://dc.lft.to/lastmile_qr_scan", "android": "https://dc.lft.to/lastmile_qr_scan"}, "fusion_lat": 0.0, "type": "electric_scooter"}, {"bike_id": "c42fd97595383d15d1e14b72f2415ab0", "name": "c42fd97595383d15d1e14b72f2415ab0", "is_reserved": 0, "lat": 38.919252166666666, "fusion_lon": 0.0, "is_disabled": 0, "lon": -77.0417415, "rental_uris": {"ios": "https://dc.lft.to/lastmile_qr_scan", "android": "https://dc.lft.to/lastmile_qr_scan"}, "fusion_lat": 0.0, "type": "electric_scooter"}, {"bike_id": "de9f43b24e5fa032a81043d53b6ac1ae", "name": "de9f43b24e5fa032a81043d53b6ac1ae", "is_reserved": 0, "lat": 38.905139166666665, "fusion_lon": 0.0, "is_disabled": 0, "lon": -76.9839915, "rental_uris": {"ios": "https://dc.lft.to/lastmile_qr_scan", "android": "https://dc.lft.to/lastmile_qr_scan"}, "fusion_lat": 0.0, "type": "electric_scooter"}, {"bike_id": "d5c32400d87e87c5436b38809ad45b02", "name": "d5c32400d87e87c5436b38809ad45b02", "is_reserved": 0, "lat": 38.85438383333333, "fusion_lon": 0.0, "is_disabled": 0, "lon": -77.08321633333334, "rental_uris": {"ios": "https://dc.lft.to/lastmile_qr_scan", "android": "https://dc.lft.to/lastmile_qr_scan"}, "fusion_lat": 0.0, "type": "electric_bike"}, {"bike_id": "d8fbc5fc33982008aa8ad85a913692b9", "name": "d8fbc5fc33982008aa8ad85a913692b9", "is_reserved": 0, "lat": 38.8818215, "fusion_lon": 0.0, "is_disabled": 0, "lon": -77.02209433333333, "rental_uris": {"ios": "https://dc.lft.to/lastmile_qr_scan", "android": "https://dc.lft.to/lastmile_qr_scan"}, "fusion_lat": 0.0, "type": "electric_scooter"}, {"bike_id": "d4ef3f8fc6314ad9b21d8d3e24c7a3f3", "name": "d4ef3f8fc6314ad9b21d8d3e24c7a3f3", "is_reserved": 0, "lat": 38.95169666666666, "fusion_lon": 0.0, "is_disabled": 0, "lon": -77.03164883333334, "rental_uris": {"ios": "https://dc.lft.to/lastmile_qr_scan", "android": "https://dc.lft.to/lastmile_qr_scan"}, "fusion_lat": 0.0, "type": "electric_bike"}, {"bike_id": "6a669080a2a0011ba4973249796c375a", "name": "6a669080a2a0011ba4973249796c375a", "is_reserved": 0, "lat": 38.944532, "fusion_lon": 0.0, "is_disabled": 0, "lon": -77.06352166666667, "rental_uris": {"ios": "https://dc.lft.to/lastmile_qr_scan", "android": "https://dc.lft.to/lastmile_qr_scan"}, "fusion_lat": 0.0, "type": "electric_scooter"}, {"bike_id": "01239c87ee3c5850589ca4a77549f111", "name": "01239c87ee3c5850589ca4a77549f111", "is_reserved": 0, "lat": 38.908169666666666, "fusion_lon": 0.0, "is_disabled": 0, "lon": -77.03597333333333, "rental_uris": {"ios": "https://dc.lft.to/lastmile_qr_scan", "android": "https://dc.lft.to/lastmile_qr_scan"}, "fusion_lat": 0.0, "type": "electric_scooter"}, {"bike_id": "7de624197e97f17ee2872b0692f1f327", "name": "7de624197e97f17ee2872b0692f1f327", "is_reserved": 0, "lat": 38.90876316666667, "fusion_lon": 0.0, "is_disabled": 0, "lon": -76.997943, "rental_uris": {"ios": "https://dc.lft.to/lastmile_qr_scan", "android": "https://dc.lft.to/lastmile_qr_scan"}, "fusion_lat": 0.0, "type": "electric_scooter"}, {"bike_id": "e32f9a23098464f0cf13ab4182e25d6b", "name": "e32f9a23098464f0cf13ab4182e25d6b", "is_reserved": 0, "lat": 38.869352, "fusion_lon": 0.0, "is_disabled": 0, "lon": -76.977452, "rental_uris": {"ios": "https://dc.lft.to/lastmile_qr_scan", "android": "https://dc.lft.to/lastmile_qr_scan"}, "fusion_lat": 0.0, "type": "electric_scooter"}, {"bike_id": "e1df6e8d47b4745ce0857f1320b23366", "name": "e1df6e8d47b4745ce0857f1320b23366", "is_reserved": 0, "lat": 38.92021283333333, "fusion_lon": 0.0, "is_disabled": 0, "lon": -77.0250895, "rental_uris": {"ios": "https://dc.lft.to/lastmile_qr_scan", "android": "https://dc.lft.to/lastmile_qr_scan"}, "fusion_lat": 0.0, "type": "electric_scooter"}, {"bike_id": "4b99f45022b0b1d1ffee2ecef3f0f455", "name": "4b99f45022b0b1d1ffee2ecef3f0f455", "is_reserved": 0, "lat": 38.92061016666667, "fusion_lon": 0.0, "is_disabled": 0, "lon": -77.04191233333333, "rental_uris": {"ios": "https://dc.lft.to/lastmile_qr_scan", "android": "https://dc.lft.to/lastmile_qr_scan"}, "fusion_lat": 0.0, "type": "electric_scooter"}, {"bike_id": "8e2768c3277e26ccc80f9a890c901300", "name": "8e2768c3277e26ccc80f9a890c901300", "is_reserved": 0, "lat": 38.89754966666667, "fusion_lon": 0.0, "is_disabled": 0, "lon": -77.0268065, "rental_uris": {"ios": "https://dc.lft.to/lastmile_qr_scan", "android": "https://dc.lft.to/lastmile_qr_scan"}, "fusion_lat": 0.0, "type": "electric_scooter"}, {"bike_id": "70d48ea983bff8b10dd00668711d9dd3", "name": "70d48ea983bff8b10dd00668711d9dd3", "is_reserved": 0, "lat": 38.90610683333333, "fusion_lon": 0.0, "is_disabled": 0, "lon": -77.0565605, "rental_uris": {"ios": "https://dc.lft.to/lastmile_qr_scan", "android": "https://dc.lft.to/lastmile_qr_scan"}, "fusion_lat": 0.0, "type": "electric_scooter"}, {"bike_id": "b485f597a3998fbaa4ce3eb8af3dab73", "name": "b485f597a3998fbaa4ce3eb8af3dab73", "is_reserved": 0, "lat": 38.913526, "fusion_lon": 0.0, "is_disabled": 0, "lon": -76.9713835, "rental_uris": {"ios": "https://dc.lft.to/lastmile_qr_scan", "android": "https://dc.lft.to/lastmile_qr_scan"}, "fusion_lat": 0.0, "type": "electric_scooter"}, {"bike_id": "6ccd361087d00e30557ec5ff876fe274", "name": "6ccd361087d00e30557ec5ff876fe274", "is_reserved": 0, "lat": 38.89621866666667, "fusion_lon": 0.0, "is_disabled": 0, "lon": -76.9075495, "rental_uris": {"ios": "https://dc.lft.to/lastmile_qr_scan", "android": "https://dc.lft.to/lastmile_qr_scan"}, "fusion_lat": 0.0, "type": "electric_bike"}, {"bike_id": "d6046782489058bf820f34a1c31dbd2a", "name": "d6046782489058bf820f34a1c31dbd2a", "is_reserved": 0, "lat": 38.92367083333333, "fusion_lon": 0.0, "is_disabled": 0, "lon": -77.0354945, "rental_uris": {"ios": "https://dc.lft.to/lastmile_qr_scan", "android": "https://dc.lft.to/lastmile_qr_scan"}, "fusion_lat": 0.0, "type": "electric_scooter"}, {"bike_id": "24e32f1fa7b0c2b2af649665861f6925", "name": "24e32f1fa7b0c2b2af649665861f6925", "is_reserved": 0, "lat": 38.92339616666667, "fusion_lon": 0.0, "is_disabled": 0, "lon": -77.05400683333333, "rental_uris": {"ios": "https://dc.lft.to/lastmile_qr_scan", "android": "https://dc.lft.to/lastmile_qr_scan"}, "fusion_lat": 0.0, "type": "electric_scooter"}, {"bike_id": "5a8ef28b694572599a0dca437f8718cf", "name": "5a8ef28b694572599a0dca437f8718cf", "is_reserved": 0, "lat": 38.90427016666667, "fusion_lon": 0.0, "is_disabled": 0, "lon": -77.02192616666666, "rental_uris": {"ios": "https://dc.lft.to/lastmile_qr_scan", "android": "https://dc.lft.to/lastmile_qr_scan"}, "fusion_lat": 0.0, "type": "electric_scooter"}, {"bike_id": "ecbeb13ae42e016efb43ef2264dc2402", "name": "ecbeb13ae42e016efb43ef2264dc2402", "is_reserved": 0, "lat": 38.91710916666667, "fusion_lon": 0.0, "is_disabled": 0, "lon": -77.038714, "rental_uris": {"ios": "https://dc.lft.to/lastmile_qr_scan", "android": "https://dc.lft.to/lastmile_qr_scan"}, "fusion_lat": 0.0, "type": "electric_scooter"}, {"bike_id": "b1823cc706b8bab03f7142bb261b2618", "name": "b1823cc706b8bab03f7142bb261b2618", "is_reserved": 0, "lat": 38.92052266666666, "fusion_lon": 0.0, "is_disabled": 0, "lon": -77.04192333333333, "rental_uris": {"ios": "https://dc.lft.to/lastmile_qr_scan", "android": "https://dc.lft.to/lastmile_qr_scan"}, "fusion_lat": 0.0, "type": "electric_scooter"}, {"bike_id": "7aaea0e027100f055439d0f0715dd264", "name": "7aaea0e027100f055439d0f0715dd264", "is_reserved": 0, "lat": 38.871996333333335, "fusion_lon": 0.0, "is_disabled": 0, "lon": -77.00613916666667, "rental_uris": {"ios": "https://dc.lft.to/lastmile_qr_scan", "android": "https://dc.lft.to/lastmile_qr_scan"}, "fusion_lat": 0.0, "type": "electric_scooter"}, {"bike_id": "f4fe4fee4d4e823fb700830f584d7ec7", "name": "f4fe4fee4d4e823fb700830f584d7ec7", "is_reserved": 0, "lat": 38.9340735, "fusion_lon": 0.0, "is_disabled": 0, "lon": -77.0454635, "rental_uris": {"ios": "https://dc.lft.to/lastmile_qr_scan", "android": "https://dc.lft.to/lastmile_qr_scan"}, "fusion_lat": 0.0, "type": "electric_scooter"}, {"bike_id": "c246a0c178aea65b1fd29e657b877b47", "name": "c246a0c178aea65b1fd29e657b877b47", "is_reserved": 0, "lat": 38.928120666666665, "fusion_lon": 0.0, "is_disabled": 0, "lon": -77.023331, "rental_uris": {"ios": "https://dc.lft.to/lastmile_qr_scan", "android": "https://dc.lft.to/lastmile_qr_scan"}, "fusion_lat": 0.0, "type": "electric_scooter"}, {"bike_id": "5e7ce9f787a3c48085dce6116fb392d4", "name": "5e7ce9f787a3c48085dce6116fb392d4", "is_reserved": 0, "lat": 38.92044283333333, "fusion_lon": 0.0, "is_disabled": 0, "lon": -77.02425333333333, "rental_uris": {"ios": "https://dc.lft.to/lastmile_qr_scan", "android": "https://dc.lft.to/lastmile_qr_scan"}, "fusion_lat": 0.0, "type": "electric_scooter"}, {"bike_id": "a756325eca2f3fe35858941f8356d76d", "name": "a756325eca2f3fe35858941f8356d76d", "is_reserved": 0, "lat": 38.90016083333333, "fusion_lon": 0.0, "is_disabled": 0, "lon": -77.04478733333333, "rental_uris": {"ios": "https://dc.lft.to/lastmile_qr_scan", "android": "https://dc.lft.to/lastmile_qr_scan"}, "fusion_lat": 0.0, "type": "electric_scooter"}, {"bike_id": "2eea5c8bb36fe19e686e50225c50613c", "name": "2eea5c8bb36fe19e686e50225c50613c", "is_reserved": 0, "lat": 38.909051, "fusion_lon": 0.0, "is_disabled": 0, "lon": -77.08998283333334, "rental_uris": {"ios": "https://dc.lft.to/lastmile_qr_scan", "android": "https://dc.lft.to/lastmile_qr_scan"}, "fusion_lat": 0.0, "type": "electric_bike"}, {"bike_id": "c34eb934bb294db054044da42b11843a", "name": "c34eb934bb294db054044da42b11843a", "is_reserved": 0, "lat": 38.920154833333335, "fusion_lon": 0.0, "is_disabled": 0, "lon": -77.0713915, "rental_uris": {"ios": "https://dc.lft.to/lastmile_qr_scan", "android": "https://dc.lft.to/lastmile_qr_scan"}, "fusion_lat": 0.0, "type": "electric_scooter"}, {"bike_id": "8afc158dd3d06abd044e672ada39f0aa", "name": "8afc158dd3d06abd044e672ada39f0aa", "is_reserved": 0, "lat": 38.8798005, "fusion_lon": 0.0, "is_disabled": 0, "lon": -76.99505433333333, "rental_uris": {"ios": "https://dc.lft.to/lastmile_qr_scan", "android": "https://dc.lft.to/lastmile_qr_scan"}, "fusion_lat": 0.0, "type": "electric_bike"}, {"bike_id": "2366091dcef1e8433a8613f3d3876257", "name": "2366091dcef1e8433a8613f3d3876257", "is_reserved": 0, "lat": 38.90281816666667, "fusion_lon": 0.0, "is_disabled": 0, "lon": -77.03222216666667, "rental_uris": {"ios": "https://dc.lft.to/lastmile_qr_scan", "android": "https://dc.lft.to/lastmile_qr_scan"}, "fusion_lat": 0.0, "type": "electric_scooter"}, {"bike_id": "10c383c284cd32e4db6038fbb6daf00f", "name": "10c383c284cd32e4db6038fbb6daf00f", "is_reserved": 0, "lat": 38.94753, "fusion_lon": 0.0, "is_disabled": 0, "lon": -77.032862, "rental_uris": {"ios": "https://dc.lft.to/lastmile_qr_scan", "android": "https://dc.lft.to/lastmile_qr_scan"}, "fusion_lat": 0.0, "type": "electric_scooter"}, {"bike_id": "6af47c1f5f5e308d6896fccad64f0806", "name": "6af47c1f5f5e308d6896fccad64f0806", "is_reserved": 0, "lat": 38.867075666666665, "fusion_lon": 0.0, "is_disabled": 0, "lon": -76.98974733333333, "rental_uris": {"ios": "https://dc.lft.to/lastmile_qr_scan", "android": "https://dc.lft.to/lastmile_qr_scan"}, "fusion_lat": 0.0, "type": "electric_bike"}, {"bike_id": "f8a6464e0422c68cc092c4267b3804fb", "name": "f8a6464e0422c68cc092c4267b3804fb", "is_reserved": 0, "lat": 38.911938666666664, "fusion_lon": 0.0, "is_disabled": 0, "lon": -77.03214133333333, "rental_uris": {"ios": "https://dc.lft.to/lastmile_qr_scan", "android": "https://dc.lft.to/lastmile_qr_scan"}, "fusion_lat": 0.0, "type": "electric_scooter"}, {"bike_id": "f8ee1bbf841fe39e4433a8d2171e4f08", "name": "f8ee1bbf841fe39e4433a8d2171e4f08", "is_reserved": 0, "lat": 38.912808166666665, "fusion_lon": 0.0, "is_disabled": 0, "lon": -77.01758466666666, "rental_uris": {"ios": "https://dc.lft.to/lastmile_qr_scan", "android": "https://dc.lft.to/lastmile_qr_scan"}, "fusion_lat": 0.0, "type": "electric_scooter"}, {"bike_id": "3431c56d3c1fa8555a1938062274eee1", "name": "3431c56d3c1fa8555a1938062274eee1", "is_reserved": 0, "lat": 38.90366233333334, "fusion_lon": 0.0, "is_disabled": 0, "lon": -77.0175675, "rental_uris": {"ios": "https://dc.lft.to/lastmile_qr_scan", "android": "https://dc.lft.to/lastmile_qr_scan"}, "fusion_lat": 0.0, "type": "electric_scooter"}, {"bike_id": "6b4f4353e19bdbacdfed9f9ac018f40e", "name": "6b4f4353e19bdbacdfed9f9ac018f40e", "is_reserved": 0, "lat": 38.92797316666667, "fusion_lon": 0.0, "is_disabled": 0, "lon": -77.02132866666666, "rental_uris": {"ios": "https://dc.lft.to/lastmile_qr_scan", "android": "https://dc.lft.to/lastmile_qr_scan"}, "fusion_lat": 0.0, "type": "electric_scooter"}, {"bike_id": "a82a090f1a935c9274206b3ff541f418", "name": "a82a090f1a935c9274206b3ff541f418", "is_reserved": 0, "lat": 38.91820516666667, "fusion_lon": 0.0, "is_disabled": 0, "lon": -77.0497575, "rental_uris": {"ios": "https://dc.lft.to/lastmile_qr_scan", "android": "https://dc.lft.to/lastmile_qr_scan"}, "fusion_lat": 0.0, "type": "electric_scooter"}, {"bike_id": "a42682daa8220c45161f391ea7846075", "name": "a42682daa8220c45161f391ea7846075", "is_reserved": 0, "lat": 38.91712, "fusion_lon": 0.0, "is_disabled": 0, "lon": -77.038557, "rental_uris": {"ios": "https://dc.lft.to/lastmile_qr_scan", "android": "https://dc.lft.to/lastmile_qr_scan"}, "fusion_lat": 0.0, "type": "electric_scooter"}, {"bike_id": "d9025830f3b874ede64a152d8a45db09", "name": "d9025830f3b874ede64a152d8a45db09", "is_reserved": 0, "lat": 38.91693516666667, "fusion_lon": 0.0, "is_disabled": 0, "lon": -77.03772683333334, "rental_uris": {"ios": "https://dc.lft.to/lastmile_qr_scan", "android": "https://dc.lft.to/lastmile_qr_scan"}, "fusion_lat": 0.0, "type": "electric_scooter"}, {"bike_id": "d5f5e9620035934fb3ed397b7e6e9988", "name": "d5f5e9620035934fb3ed397b7e6e9988", "is_reserved": 0, "lat": 38.87455666666666, "fusion_lon": 0.0, "is_disabled": 0, "lon": -77.00086766666666, "rental_uris": {"ios": "https://dc.lft.to/lastmile_qr_scan", "android": "https://dc.lft.to/lastmile_qr_scan"}, "fusion_lat": 0.0, "type": "electric_scooter"}, {"bike_id": "895f594c8681b773023d72ca49aac898", "name": "895f594c8681b773023d72ca49aac898", "is_reserved": 0, "lat": 38.93573283333333, "fusion_lon": 0.0, "is_disabled": 0, "lon": -77.02247816666667, "rental_uris": {"ios": "https://dc.lft.to/lastmile_qr_scan", "android": "https://dc.lft.to/lastmile_qr_scan"}, "fusion_lat": 0.0, "type": "electric_scooter"}, {"bike_id": "2b62c1c3b5f0afda8052262926b8a88b", "name": "2b62c1c3b5f0afda8052262926b8a88b", "is_reserved": 0, "lat": 38.916291666666666, "fusion_lon": 0.0, "is_disabled": 0, "lon": -77.02294966666666, "rental_uris": {"ios": "https://dc.lft.to/lastmile_qr_scan", "android": "https://dc.lft.to/lastmile_qr_scan"}, "fusion_lat": 0.0, "type": "electric_bike"}, {"bike_id": "8a6792460c1d1967a4ab878c96b8d8ea", "name": "8a6792460c1d1967a4ab878c96b8d8ea", "is_reserved": 0, "lat": 38.89204566666667, "fusion_lon": 0.0, "is_disabled": 0, "lon": -76.96111033333334, "rental_uris": {"ios": "https://dc.lft.to/lastmile_qr_scan", "android": "https://dc.lft.to/lastmile_qr_scan"}, "fusion_lat": 0.0, "type": "electric_scooter"}, {"bike_id": "657da2edcacfd243ffd4ea0d94d432fe", "name": "657da2edcacfd243ffd4ea0d94d432fe", "is_reserved": 0, "lat": 38.916846, "fusion_lon": 0.0, "is_disabled": 0, "lon": -77.037732, "rental_uris": {"ios": "https://dc.lft.to/lastmile_qr_scan", "android": "https://dc.lft.to/lastmile_qr_scan"}, "fusion_lat": 0.0, "type": "electric_scooter"}, {"bike_id": "f51e38e52725808dc9f7bdc07259153c", "name": "f51e38e52725808dc9f7bdc07259153c", "is_reserved": 0, "lat": 38.9070605, "fusion_lon": 0.0, "is_disabled": 0, "lon": -77.02820883333334, "rental_uris": {"ios": "https://dc.lft.to/lastmile_qr_scan", "android": "https://dc.lft.to/lastmile_qr_scan"}, "fusion_lat": 0.0, "type": "electric_scooter"}, {"bike_id": "444802ce6bfa70047bb8f66388b96ff4", "name": "444802ce6bfa70047bb8f66388b96ff4", "is_reserved": 0, "lat": 38.85630616666667, "fusion_lon": 0.0, "is_disabled": 0, "lon": -76.99065733333333, "rental_uris": {"ios": "https://dc.lft.to/lastmile_qr_scan", "android": "https://dc.lft.to/lastmile_qr_scan"}, "fusion_lat": 0.0, "type": "electric_scooter"}, {"bike_id": "56cd2285ca88bb081b8fb6b1b5ba20fc", "name": "56cd2285ca88bb081b8fb6b1b5ba20fc", "is_reserved": 0, "lat": 38.907301, "fusion_lon": 0.0, "is_disabled": 0, "lon": -76.99897883333334, "rental_uris": {"ios": "https://dc.lft.to/lastmile_qr_scan", "android": "https://dc.lft.to/lastmile_qr_scan"}, "fusion_lat": 0.0, "type": "electric_scooter"}, {"bike_id": "66c8ae96ac54d41adf881abfef787775", "name": "66c8ae96ac54d41adf881abfef787775", "is_reserved": 0, "lat": 38.90546033333333, "fusion_lon": 0.0, "is_disabled": 0, "lon": -77.0298125, "rental_uris": {"ios": "https://dc.lft.to/lastmile_qr_scan", "android": "https://dc.lft.to/lastmile_qr_scan"}, "fusion_lat": 0.0, "type": "electric_scooter"}, {"bike_id": "c719213629a4d76d66fe420e2c683a38", "name": "c719213629a4d76d66fe420e2c683a38", "is_reserved": 0, "lat": 38.922573666666665, "fusion_lon": 0.0, "is_disabled": 0, "lon": -77.0255315, "rental_uris": {"ios": "https://dc.lft.to/lastmile_qr_scan", "android": "https://dc.lft.to/lastmile_qr_scan"}, "fusion_lat": 0.0, "type": "electric_scooter"}, {"bike_id": "8c3561f716eb7fef9bc78f8000267b60", "name": "8c3561f716eb7fef9bc78f8000267b60", "is_reserved": 0, "lat": 38.918026833333336, "fusion_lon": 0.0, "is_disabled": 0, "lon": -77.04001666666667, "rental_uris": {"ios": "https://dc.lft.to/lastmile_qr_scan", "android": "https://dc.lft.to/lastmile_qr_scan"}, "fusion_lat": 0.0, "type": "electric_scooter"}, {"bike_id": "cd1508c0ae43c84ef558cf5fcca0d9c5", "name": "cd1508c0ae43c84ef558cf5fcca0d9c5", "is_reserved": 0, "lat": 38.90663983333334, "fusion_lon": 0.0, "is_disabled": 0, "lon": -76.986015, "rental_uris": {"ios": "https://dc.lft.to/lastmile_qr_scan", "android": "https://dc.lft.to/lastmile_qr_scan"}, "fusion_lat": 0.0, "type": "electric_scooter"}, {"bike_id": "3a5285684f1578017b21d6d7629f24af", "name": "3a5285684f1578017b21d6d7629f24af", "is_reserved": 0, "lat": 38.87472366666667, "fusion_lon": 0.0, "is_disabled": 0, "lon": -77.0189175, "rental_uris": {"ios": "https://dc.lft.to/lastmile_qr_scan", "android": "https://dc.lft.to/lastmile_qr_scan"}, "fusion_lat": 0.0, "type": "electric_scooter"}, {"bike_id": "1f13433e59b97b7fa6852da051ef29b9", "name": "1f13433e59b97b7fa6852da051ef29b9", "is_reserved": 0, "lat": 38.99804366666667, "fusion_lon": 0.0, "is_disabled": 0, "lon": -76.99799433333334, "rental_uris": {"ios": "https://dc.lft.to/lastmile_qr_scan", "android": "https://dc.lft.to/lastmile_qr_scan"}, "fusion_lat": 0.0, "type": "electric_bike"}, {"bike_id": "5bb22378b65b143187cab17ffcd6697e", "name": "5bb22378b65b143187cab17ffcd6697e", "is_reserved": 0, "lat": 38.92782033333334, "fusion_lon": 0.0, "is_disabled": 0, "lon": -77.021269, "rental_uris": {"ios": "https://dc.lft.to/lastmile_qr_scan", "android": "https://dc.lft.to/lastmile_qr_scan"}, "fusion_lat": 0.0, "type": "electric_scooter"}, {"bike_id": "ee43fd9afd2c86723e7f4d0208e3f5d0", "name": "ee43fd9afd2c86723e7f4d0208e3f5d0", "is_reserved": 0, "lat": 38.92601633333334, "fusion_lon": 0.0, "is_disabled": 0, "lon": -77.02158666666666, "rental_uris": {"ios": "https://dc.lft.to/lastmile_qr_scan", "android": "https://dc.lft.to/lastmile_qr_scan"}, "fusion_lat": 0.0, "type": "electric_scooter"}, {"bike_id": "4f87d3df6d8e757d9bba84734821c4aa", "name": "4f87d3df6d8e757d9bba84734821c4aa", "is_reserved": 0, "lat": 38.907763, "fusion_lon": 0.0, "is_disabled": 0, "lon": -77.07257316666667, "rental_uris": {"ios": "https://dc.lft.to/lastmile_qr_scan", "android": "https://dc.lft.to/lastmile_qr_scan"}, "fusion_lat": 0.0, "type": "electric_scooter"}, {"bike_id": "9582ed8e622814f6f5cc57df850d0948", "name": "9582ed8e622814f6f5cc57df850d0948", "is_reserved": 0, "lat": 38.904102, "fusion_lon": 0.0, "is_disabled": 0, "lon": -76.973323, "rental_uris": {"ios": "https://dc.lft.to/lastmile_qr_scan", "android": "https://dc.lft.to/lastmile_qr_scan"}, "fusion_lat": 0.0, "type": "electric_scooter"}, {"bike_id": "bcefadf2956c11e378f89d1149c0d341", "name": "bcefadf2956c11e378f89d1149c0d341", "is_reserved": 0, "lat": 38.923680166666664, "fusion_lon": 0.0, "is_disabled": 0, "lon": -77.02121283333334, "rental_uris": {"ios": "https://dc.lft.to/lastmile_qr_scan", "android": "https://dc.lft.to/lastmile_qr_scan"}, "fusion_lat": 0.0, "type": "electric_scooter"}, {"bike_id": "1d33137b042806cf8b8abd96784af61e", "name": "1d33137b042806cf8b8abd96784af61e", "is_reserved": 0, "lat": 38.90348566666667, "fusion_lon": 0.0, "is_disabled": 0, "lon": -76.98617966666667, "rental_uris": {"ios": "https://dc.lft.to/lastmile_qr_scan", "android": "https://dc.lft.to/lastmile_qr_scan"}, "fusion_lat": 0.0, "type": "electric_scooter"}, {"bike_id": "9d2f9586bbe8619c664d79c5ec74affb", "name": "9d2f9586bbe8619c664d79c5ec74affb", "is_reserved": 0, "lat": 38.924874, "fusion_lon": 0.0, "is_disabled": 0, "lon": -77.02183366666667, "rental_uris": {"ios": "https://dc.lft.to/lastmile_qr_scan", "android": "https://dc.lft.to/lastmile_qr_scan"}, "fusion_lat": 0.0, "type": "electric_scooter"}, {"bike_id": "58fccc0976b1536301872e5a51f91d26", "name": "58fccc0976b1536301872e5a51f91d26", "is_reserved": 0, "lat": 38.94444883333333, "fusion_lon": 0.0, "is_disabled": 0, "lon": -77.0640945, "rental_uris": {"ios": "https://dc.lft.to/lastmile_qr_scan", "android": "https://dc.lft.to/lastmile_qr_scan"}, "fusion_lat": 0.0, "type": "electric_scooter"}, {"bike_id": "d5e870085400b56a9e93c7da28ea8658", "name": "d5e870085400b56a9e93c7da28ea8658", "is_reserved": 0, "lat": 38.87547266666667, "fusion_lon": 0.0, "is_disabled": 0, "lon": -77.00535833333333, "rental_uris": {"ios": "https://dc.lft.to/lastmile_qr_scan", "android": "https://dc.lft.to/lastmile_qr_scan"}, "fusion_lat": 0.0, "type": "electric_scooter"}, {"bike_id": "f447a973fec3d5d3e58361ecde4359dd", "name": "f447a973fec3d5d3e58361ecde4359dd", "is_reserved": 0, "lat": 38.92182866666667, "fusion_lon": 0.0, "is_disabled": 0, "lon": -77.0401045, "rental_uris": {"ios": "https://dc.lft.to/lastmile_qr_scan", "android": "https://dc.lft.to/lastmile_qr_scan"}, "fusion_lat": 0.0, "type": "electric_scooter"}, {"bike_id": "fcc47cd0b2ae80b92cdda7d98872f61f", "name": "fcc47cd0b2ae80b92cdda7d98872f61f", "is_reserved": 0, "lat": 38.87244233333333, "fusion_lon": 0.0, "is_disabled": 0, "lon": -76.97727616666667, "rental_uris": {"ios": "https://dc.lft.to/lastmile_qr_scan", "android": "https://dc.lft.to/lastmile_qr_scan"}, "fusion_lat": 0.0, "type": "electric_scooter"}, {"bike_id": "796231ca6e8975640adbd504746f902a", "name": "796231ca6e8975640adbd504746f902a", "is_reserved": 0, "lat": 38.904244, "fusion_lon": 0.0, "is_disabled": 0, "lon": -77.0533815, "rental_uris": {"ios": "https://dc.lft.to/lastmile_qr_scan", "android": "https://dc.lft.to/lastmile_qr_scan"}, "fusion_lat": 0.0, "type": "electric_scooter"}, {"bike_id": "c806c6722e575fafb4e2eef05fa5ef3f", "name": "c806c6722e575fafb4e2eef05fa5ef3f", "is_reserved": 0, "lat": 38.89619483333333, "fusion_lon": 0.0, "is_disabled": 0, "lon": -76.99851783333334, "rental_uris": {"ios": "https://dc.lft.to/lastmile_qr_scan", "android": "https://dc.lft.to/lastmile_qr_scan"}, "fusion_lat": 0.0, "type": "electric_scooter"}, {"bike_id": "3ad5ac02939c8d082f49bc3b07acb90f", "name": "3ad5ac02939c8d082f49bc3b07acb90f", "is_reserved": 0, "lat": 38.901394333333336, "fusion_lon": 0.0, "is_disabled": 0, "lon": -77.02995066666666, "rental_uris": {"ios": "https://dc.lft.to/lastmile_qr_scan", "android": "https://dc.lft.to/lastmile_qr_scan"}, "fusion_lat": 0.0, "type": "electric_scooter"}, {"bike_id": "7649139a2f355b5364405492b85df9ee", "name": "7649139a2f355b5364405492b85df9ee", "is_reserved": 0, "lat": 38.89360516666667, "fusion_lon": 0.0, "is_disabled": 0, "lon": -77.02071616666667, "rental_uris": {"ios": "https://dc.lft.to/lastmile_qr_scan", "android": "https://dc.lft.to/lastmile_qr_scan"}, "fusion_lat": 0.0, "type": "electric_scooter"}, {"bike_id": "5d9a5ebdc9ebbdae03d00ccc0a4983ab", "name": "5d9a5ebdc9ebbdae03d00ccc0a4983ab", "is_reserved": 0, "lat": 38.905837166666664, "fusion_lon": 0.0, "is_disabled": 0, "lon": -77.021981, "rental_uris": {"ios": "https://dc.lft.to/lastmile_qr_scan", "android": "https://dc.lft.to/lastmile_qr_scan"}, "fusion_lat": 0.0, "type": "electric_scooter"}, {"bike_id": "7880a041f8081b998429dfc72681c3b8", "name": "7880a041f8081b998429dfc72681c3b8", "is_reserved": 0, "lat": 38.921791666666664, "fusion_lon": 0.0, "is_disabled": 0, "lon": -76.997415, "rental_uris": {"ios": "https://dc.lft.to/lastmile_qr_scan", "android": "https://dc.lft.to/lastmile_qr_scan"}, "fusion_lat": 0.0, "type": "electric_scooter"}, {"bike_id": "dbcea820bf82df95979dd472e66b1138", "name": "dbcea820bf82df95979dd472e66b1138", "is_reserved": 0, "lat": 38.88230466666667, "fusion_lon": 0.0, "is_disabled": 0, "lon": -76.9333965, "rental_uris": {"ios": "https://dc.lft.to/lastmile_qr_scan", "android": "https://dc.lft.to/lastmile_qr_scan"}, "fusion_lat": 0.0, "type": "electric_scooter"}, {"bike_id": "df4ec5b72f413d29bf171072212908a4", "name": "df4ec5b72f413d29bf171072212908a4", "is_reserved": 0, "lat": 38.89851516666667, "fusion_lon": 0.0, "is_disabled": 0, "lon": -76.93213883333334, "rental_uris": {"ios": "https://dc.lft.to/lastmile_qr_scan", "android": "https://dc.lft.to/lastmile_qr_scan"}, "fusion_lat": 0.0, "type": "electric_scooter"}, {"bike_id": "f93d264229b95249a4a1887eaebe0f29", "name": "f93d264229b95249a4a1887eaebe0f29", "is_reserved": 0, "lat": 38.91867, "fusion_lon": 0.0, "is_disabled": 0, "lon": -77.04164516666667, "rental_uris": {"ios": "https://dc.lft.to/lastmile_qr_scan", "android": "https://dc.lft.to/lastmile_qr_scan"}, "fusion_lat": 0.0, "type": "electric_scooter"}, {"bike_id": "8554a249bdaf6bb43144a249415d235a", "name": "8554a249bdaf6bb43144a249415d235a", "is_reserved": 0, "lat": 38.935836, "fusion_lon": 0.0, "is_disabled": 0, "lon": -77.074367, "rental_uris": {"ios": "https://dc.lft.to/lastmile_qr_scan", "android": "https://dc.lft.to/lastmile_qr_scan"}, "fusion_lat": 0.0, "type": "electric_scooter"}, {"bike_id": "6f03bd3c471acd09b5ca2b42a0725fbf", "name": "6f03bd3c471acd09b5ca2b42a0725fbf", "is_reserved": 0, "lat": 38.89883583333334, "fusion_lon": 0.0, "is_disabled": 0, "lon": -77.0317745, "rental_uris": {"ios": "https://dc.lft.to/lastmile_qr_scan", "android": "https://dc.lft.to/lastmile_qr_scan"}, "fusion_lat": 0.0, "type": "electric_scooter"}, {"bike_id": "cb2d4edb8e485e80660a266fd334e3d3", "name": "cb2d4edb8e485e80660a266fd334e3d3", "is_reserved": 0, "lat": 38.896543333333334, "fusion_lon": 0.0, "is_disabled": 0, "lon": -77.101934, "rental_uris": {"ios": "https://dc.lft.to/lastmile_qr_scan", "android": "https://dc.lft.to/lastmile_qr_scan"}, "fusion_lat": 0.0, "type": "electric_bike"}, {"bike_id": "7267221102e9d8f0f18e19021e33cbfa", "name": "7267221102e9d8f0f18e19021e33cbfa", "is_reserved": 0, "lat": 38.98501233333333, "fusion_lon": 0.0, "is_disabled": 0, "lon": -76.98212766666667, "rental_uris": {"ios": "https://dc.lft.to/lastmile_qr_scan", "android": "https://dc.lft.to/lastmile_qr_scan"}, "fusion_lat": 0.0, "type": "electric_bike"}, {"bike_id": "50314b60d1670ba804d7fd75dfc178ef", "name": "50314b60d1670ba804d7fd75dfc178ef", "is_reserved": 0, "lat": 38.926384, "fusion_lon": 0.0, "is_disabled": 0, "lon": -77.03463783333333, "rental_uris": {"ios": "https://dc.lft.to/lastmile_qr_scan", "android": "https://dc.lft.to/lastmile_qr_scan"}, "fusion_lat": 0.0, "type": "electric_scooter"}, {"bike_id": "d942c3565d01eaa236ec3a5c1d357238", "name": "d942c3565d01eaa236ec3a5c1d357238", "is_reserved": 0, "lat": 38.940683166666666, "fusion_lon": 0.0, "is_disabled": 0, "lon": -77.00176466666667, "rental_uris": {"ios": "https://dc.lft.to/lastmile_qr_scan", "android": "https://dc.lft.to/lastmile_qr_scan"}, "fusion_lat": 0.0, "type": "electric_scooter"}, {"bike_id": "46ad3e75d68e5d327855d1f7e553b60e", "name": "46ad3e75d68e5d327855d1f7e553b60e", "is_reserved": 0, "lat": 38.934434333333336, "fusion_lon": 0.0, "is_disabled": 0, "lon": -77.0326435, "rental_uris": {"ios": "https://dc.lft.to/lastmile_qr_scan", "android": "https://dc.lft.to/lastmile_qr_scan"}, "fusion_lat": 0.0, "type": "electric_scooter"}, {"bike_id": "9ef9ab380f70f2f210063570a66db74d", "name": "9ef9ab380f70f2f210063570a66db74d", "is_reserved": 0, "lat": 38.91650516666667, "fusion_lon": 0.0, "is_disabled": 0, "lon": -77.021816, "rental_uris": {"ios": "https://dc.lft.to/lastmile_qr_scan", "android": "https://dc.lft.to/lastmile_qr_scan"}, "fusion_lat": 0.0, "type": "electric_scooter"}, {"bike_id": "c6f36aec3d3b10a1b6385d84f374ba7e", "name": "c6f36aec3d3b10a1b6385d84f374ba7e", "is_reserved": 0, "lat": 38.903665833333335, "fusion_lon": 0.0, "is_disabled": 0, "lon": -77.03203433333333, "rental_uris": {"ios": "https://dc.lft.to/lastmile_qr_scan", "android": "https://dc.lft.to/lastmile_qr_scan"}, "fusion_lat": 0.0, "type": "electric_scooter"}, {"bike_id": "780188fce5a99cead1b3ff06d6e5d427", "name": "780188fce5a99cead1b3ff06d6e5d427", "is_reserved": 0, "lat": 38.909994166666664, "fusion_lon": 0.0, "is_disabled": 0, "lon": -76.984304, "rental_uris": {"ios": "https://dc.lft.to/lastmile_qr_scan", "android": "https://dc.lft.to/lastmile_qr_scan"}, "fusion_lat": 0.0, "type": "electric_bike"}, {"bike_id": "6fa63617b9b27ad4653bf4f5daf6c051", "name": "6fa63617b9b27ad4653bf4f5daf6c051", "is_reserved": 0, "lat": 38.91709766666666, "fusion_lon": 0.0, "is_disabled": 0, "lon": -77.03869583333334, "rental_uris": {"ios": "https://dc.lft.to/lastmile_qr_scan", "android": "https://dc.lft.to/lastmile_qr_scan"}, "fusion_lat": 0.0, "type": "electric_scooter"}, {"bike_id": "1338972d970722189361322cfcb5edc7", "name": "1338972d970722189361322cfcb5edc7", "is_reserved": 0, "lat": 38.892248, "fusion_lon": 0.0, "is_disabled": 0, "lon": -77.04871016666667, "rental_uris": {"ios": "https://dc.lft.to/lastmile_qr_scan", "android": "https://dc.lft.to/lastmile_qr_scan"}, "fusion_lat": 0.0, "type": "electric_scooter"}, {"bike_id": "59e763e5270bcb0debb42a8c36005dfd", "name": "59e763e5270bcb0debb42a8c36005dfd", "is_reserved": 0, "lat": 38.906913333333335, "fusion_lon": 0.0, "is_disabled": 0, "lon": -77.0717795, "rental_uris": {"ios": "https://dc.lft.to/lastmile_qr_scan", "android": "https://dc.lft.to/lastmile_qr_scan"}, "fusion_lat": 0.0, "type": "electric_scooter"}, {"bike_id": "809f8e7fc0ad9d5fc388c94b411d07bf", "name": "809f8e7fc0ad9d5fc388c94b411d07bf", "is_reserved": 0, "lat": 38.91301383333333, "fusion_lon": 0.0, "is_disabled": 0, "lon": -76.98693583333333, "rental_uris": {"ios": "https://dc.lft.to/lastmile_qr_scan", "android": "https://dc.lft.to/lastmile_qr_scan"}, "fusion_lat": 0.0, "type": "electric_scooter"}, {"bike_id": "561cf23101e01cb5cca1484163e0b1bc", "name": "561cf23101e01cb5cca1484163e0b1bc", "is_reserved": 0, "lat": 38.900183166666665, "fusion_lon": 0.0, "is_disabled": 0, "lon": -77.04028166666667, "rental_uris": {"ios": "https://dc.lft.to/lastmile_qr_scan", "android": "https://dc.lft.to/lastmile_qr_scan"}, "fusion_lat": 0.0, "type": "electric_scooter"}, {"bike_id": "4b184f66a78335ce3b6fbca2ac073822", "name": "4b184f66a78335ce3b6fbca2ac073822", "is_reserved": 0, "lat": 38.87932416666666, "fusion_lon": 0.0, "is_disabled": 0, "lon": -77.01454616666666, "rental_uris": {"ios": "https://dc.lft.to/lastmile_qr_scan", "android": "https://dc.lft.to/lastmile_qr_scan"}, "fusion_lat": 0.0, "type": "electric_scooter"}, {"bike_id": "924374cd9f7e853593c3be87d07af991", "name": "924374cd9f7e853593c3be87d07af991", "is_reserved": 0, "lat": 38.909187833333334, "fusion_lon": 0.0, "is_disabled": 0, "lon": -77.0320095, "rental_uris": {"ios": "https://dc.lft.to/lastmile_qr_scan", "android": "https://dc.lft.to/lastmile_qr_scan"}, "fusion_lat": 0.0, "type": "electric_scooter"}, {"bike_id": "770f129b89b8765d2941d39b401e2c40", "name": "770f129b89b8765d2941d39b401e2c40", "is_reserved": 0, "lat": 38.9248985, "fusion_lon": 0.0, "is_disabled": 0, "lon": -77.02274516666667, "rental_uris": {"ios": "https://dc.lft.to/lastmile_qr_scan", "android": "https://dc.lft.to/lastmile_qr_scan"}, "fusion_lat": 0.0, "type": "electric_scooter"}, {"bike_id": "b758b7fc98abb5bf7944ca50d8c5ebac", "name": "b758b7fc98abb5bf7944ca50d8c5ebac", "is_reserved": 0, "lat": 38.909403833333336, "fusion_lon": 0.0, "is_disabled": 0, "lon": -77.0320515, "rental_uris": {"ios": "https://dc.lft.to/lastmile_qr_scan", "android": "https://dc.lft.to/lastmile_qr_scan"}, "fusion_lat": 0.0, "type": "electric_scooter"}, {"bike_id": "c803cb2db3c5475dac9b1a43c11d4f91", "name": "c803cb2db3c5475dac9b1a43c11d4f91", "is_reserved": 0, "lat": 38.9358555, "fusion_lon": 0.0, "is_disabled": 0, "lon": -77.073485, "rental_uris": {"ios": "https://dc.lft.to/lastmile_qr_scan", "android": "https://dc.lft.to/lastmile_qr_scan"}, "fusion_lat": 0.0, "type": "electric_scooter"}, {"bike_id": "410d9ad2ad41fe4ba214f365f1272365", "name": "410d9ad2ad41fe4ba214f365f1272365", "is_reserved": 0, "lat": 38.907515833333335, "fusion_lon": 0.0, "is_disabled": 0, "lon": -76.99873683333334, "rental_uris": {"ios": "https://dc.lft.to/lastmile_qr_scan", "android": "https://dc.lft.to/lastmile_qr_scan"}, "fusion_lat": 0.0, "type": "electric_scooter"}, {"bike_id": "a09de08c996797f1e8bf2ecb434e1d08", "name": "a09de08c996797f1e8bf2ecb434e1d08", "is_reserved": 0, "lat": 38.901431333333335, "fusion_lon": 0.0, "is_disabled": 0, "lon": -77.02992583333334, "rental_uris": {"ios": "https://dc.lft.to/lastmile_qr_scan", "android": "https://dc.lft.to/lastmile_qr_scan"}, "fusion_lat": 0.0, "type": "electric_scooter"}, {"bike_id": "f57588f42f788400eb56640f2dacb54a", "name": "f57588f42f788400eb56640f2dacb54a", "is_reserved": 0, "lat": 38.90016, "fusion_lon": 0.0, "is_disabled": 0, "lon": -76.98599616666667, "rental_uris": {"ios": "https://dc.lft.to/lastmile_qr_scan", "android": "https://dc.lft.to/lastmile_qr_scan"}, "fusion_lat": 0.0, "type": "electric_scooter"}, {"bike_id": "89ec044f300c99f2eafc8cfa6fa1ee72", "name": "89ec044f300c99f2eafc8cfa6fa1ee72", "is_reserved": 0, "lat": 38.89790433333334, "fusion_lon": 0.0, "is_disabled": 0, "lon": -77.011953, "rental_uris": {"ios": "https://dc.lft.to/lastmile_qr_scan", "android": "https://dc.lft.to/lastmile_qr_scan"}, "fusion_lat": 0.0, "type": "electric_scooter"}, {"bike_id": "1821a92622a42d5110a16d503d8678bd", "name": "1821a92622a42d5110a16d503d8678bd", "is_reserved": 0, "lat": 38.925047166666666, "fusion_lon": 0.0, "is_disabled": 0, "lon": -77.02165866666667, "rental_uris": {"ios": "https://dc.lft.to/lastmile_qr_scan", "android": "https://dc.lft.to/lastmile_qr_scan"}, "fusion_lat": 0.0, "type": "electric_scooter"}, {"bike_id": "db833cdc3b607bef66f0c9581170fd9d", "name": "db833cdc3b607bef66f0c9581170fd9d", "is_reserved": 0, "lat": 38.886630833333335, "fusion_lon": 0.0, "is_disabled": 0, "lon": -77.00113983333334, "rental_uris": {"ios": "https://dc.lft.to/lastmile_qr_scan", "android": "https://dc.lft.to/lastmile_qr_scan"}, "fusion_lat": 0.0, "type": "electric_scooter"}, {"bike_id": "9b39fc08800366db1a1b71913857fe85", "name": "9b39fc08800366db1a1b71913857fe85", "is_reserved": 0, "lat": 38.887981833333335, "fusion_lon": 0.0, "is_disabled": 0, "lon": -76.95326683333333, "rental_uris": {"ios": "https://dc.lft.to/lastmile_qr_scan", "android": "https://dc.lft.to/lastmile_qr_scan"}, "fusion_lat": 0.0, "type": "electric_scooter"}, {"bike_id": "ff0900f6d5fca8f9d23da90e98f8cb67", "name": "ff0900f6d5fca8f9d23da90e98f8cb67", "is_reserved": 0, "lat": 38.901356166666666, "fusion_lon": 0.0, "is_disabled": 0, "lon": -77.040232, "rental_uris": {"ios": "https://dc.lft.to/lastmile_qr_scan", "android": "https://dc.lft.to/lastmile_qr_scan"}, "fusion_lat": 0.0, "type": "electric_scooter"}, {"bike_id": "ee24d20296825d86ec1084a885aeaff9", "name": "ee24d20296825d86ec1084a885aeaff9", "is_reserved": 0, "lat": 38.9245265, "fusion_lon": 0.0, "is_disabled": 0, "lon": -77.02151733333334, "rental_uris": {"ios": "https://dc.lft.to/lastmile_qr_scan", "android": "https://dc.lft.to/lastmile_qr_scan"}, "fusion_lat": 0.0, "type": "electric_scooter"}, {"bike_id": "d55095b7ab7ae39ecba7308878ff515f", "name": "d55095b7ab7ae39ecba7308878ff515f", "is_reserved": 0, "lat": 38.8971405, "fusion_lon": 0.0, "is_disabled": 0, "lon": -77.02179266666667, "rental_uris": {"ios": "https://dc.lft.to/lastmile_qr_scan", "android": "https://dc.lft.to/lastmile_qr_scan"}, "fusion_lat": 0.0, "type": "electric_scooter"}, {"bike_id": "62f5170b7f984680ef94c20185663783", "name": "62f5170b7f984680ef94c20185663783", "is_reserved": 0, "lat": 38.924745, "fusion_lon": 0.0, "is_disabled": 0, "lon": -77.02997366666666, "rental_uris": {"ios": "https://dc.lft.to/lastmile_qr_scan", "android": "https://dc.lft.to/lastmile_qr_scan"}, "fusion_lat": 0.0, "type": "electric_scooter"}, {"bike_id": "c795a34155be6e0fa2ee94a1d53ddaa1", "name": "c795a34155be6e0fa2ee94a1d53ddaa1", "is_reserved": 0, "lat": 38.89246966666666, "fusion_lon": 0.0, "is_disabled": 0, "lon": -77.03958883333334, "rental_uris": {"ios": "https://dc.lft.to/lastmile_qr_scan", "android": "https://dc.lft.to/lastmile_qr_scan"}, "fusion_lat": 0.0, "type": "electric_scooter"}, {"bike_id": "c7dcf27e7c86ab7db34edefc50a3eb31", "name": "c7dcf27e7c86ab7db34edefc50a3eb31", "is_reserved": 0, "lat": 38.9166975, "fusion_lon": 0.0, "is_disabled": 0, "lon": -77.02276166666667, "rental_uris": {"ios": "https://dc.lft.to/lastmile_qr_scan", "android": "https://dc.lft.to/lastmile_qr_scan"}, "fusion_lat": 0.0, "type": "electric_scooter"}, {"bike_id": "7c3a898fe0fd06de287c47b03381e8fa", "name": "7c3a898fe0fd06de287c47b03381e8fa", "is_reserved": 0, "lat": 38.924399, "fusion_lon": 0.0, "is_disabled": 0, "lon": -77.02159116666667, "rental_uris": {"ios": "https://dc.lft.to/lastmile_qr_scan", "android": "https://dc.lft.to/lastmile_qr_scan"}, "fusion_lat": 0.0, "type": "electric_scooter"}, {"bike_id": "26dc06ed3ac4b8c4e0ddec5af6048c89", "name": "26dc06ed3ac4b8c4e0ddec5af6048c89", "is_reserved": 0, "lat": 38.873866, "fusion_lon": 0.0, "is_disabled": 0, "lon": -77.00202833333333, "rental_uris": {"ios": "https://dc.lft.to/lastmile_qr_scan", "android": "https://dc.lft.to/lastmile_qr_scan"}, "fusion_lat": 0.0, "type": "electric_scooter"}, {"bike_id": "0cd5543b540ff937e4e65a82904e3fe1", "name": "0cd5543b540ff937e4e65a82904e3fe1", "is_reserved": 0, "lat": 38.9008, "fusion_lon": 0.0, "is_disabled": 0, "lon": -77.02680516666666, "rental_uris": {"ios": "https://dc.lft.to/lastmile_qr_scan", "android": "https://dc.lft.to/lastmile_qr_scan"}, "fusion_lat": 0.0, "type": "electric_scooter"}, {"bike_id": "727d42afcc2e30360da348a23ed5801b", "name": "727d42afcc2e30360da348a23ed5801b", "is_reserved": 0, "lat": 38.89609516666667, "fusion_lon": 0.0, "is_disabled": 0, "lon": -77.0253045, "rental_uris": {"ios": "https://dc.lft.to/lastmile_qr_scan", "android": "https://dc.lft.to/lastmile_qr_scan"}, "fusion_lat": 0.0, "type": "electric_scooter"}, {"bike_id": "7f506dc8d77ea35f19fab3e877898431", "name": "7f506dc8d77ea35f19fab3e877898431", "is_reserved": 0, "lat": 38.900299, "fusion_lon": 0.0, "is_disabled": 0, "lon": -77.00217266666667, "rental_uris": {"ios": "https://dc.lft.to/lastmile_qr_scan", "android": "https://dc.lft.to/lastmile_qr_scan"}, "fusion_lat": 0.0, "type": "electric_scooter"}, {"bike_id": "eb28f0e760b69a722768f3a6c728267e", "name": "eb28f0e760b69a722768f3a6c728267e", "is_reserved": 0, "lat": 38.93461116666667, "fusion_lon": 0.0, "is_disabled": 0, "lon": -77.05319433333334, "rental_uris": {"ios": "https://dc.lft.to/lastmile_qr_scan", "android": "https://dc.lft.to/lastmile_qr_scan"}, "fusion_lat": 0.0, "type": "electric_scooter"}, {"bike_id": "08edc1e5450a9bff91b99668ff119012", "name": "08edc1e5450a9bff91b99668ff119012", "is_reserved": 0, "lat": 38.927112, "fusion_lon": 0.0, "is_disabled": 0, "lon": -77.03258416666667, "rental_uris": {"ios": "https://dc.lft.to/lastmile_qr_scan", "android": "https://dc.lft.to/lastmile_qr_scan"}, "fusion_lat": 0.0, "type": "electric_scooter"}, {"bike_id": "eecf0712e26b4dab4fec5d9e35d94e5e", "name": "eecf0712e26b4dab4fec5d9e35d94e5e", "is_reserved": 0, "lat": 38.89798666666667, "fusion_lon": 0.0, "is_disabled": 0, "lon": -77.011901, "rental_uris": {"ios": "https://dc.lft.to/lastmile_qr_scan", "android": "https://dc.lft.to/lastmile_qr_scan"}, "fusion_lat": 0.0, "type": "electric_scooter"}, {"bike_id": "7ca614e41e2d5280ba3ca522e61e9859", "name": "7ca614e41e2d5280ba3ca522e61e9859", "is_reserved": 0, "lat": 38.90123466666667, "fusion_lon": 0.0, "is_disabled": 0, "lon": -77.02708933333334, "rental_uris": {"ios": "https://dc.lft.to/lastmile_qr_scan", "android": "https://dc.lft.to/lastmile_qr_scan"}, "fusion_lat": 0.0, "type": "electric_scooter"}, {"bike_id": "a908e9b266074d1b0c621b2710069d93", "name": "a908e9b266074d1b0c621b2710069d93", "is_reserved": 0, "lat": 38.901217, "fusion_lon": 0.0, "is_disabled": 0, "lon": -77.0200465, "rental_uris": {"ios": "https://dc.lft.to/lastmile_qr_scan", "android": "https://dc.lft.to/lastmile_qr_scan"}, "fusion_lat": 0.0, "type": "electric_scooter"}, {"bike_id": "205bc8c165cd0abd0c70721462e7303c", "name": "205bc8c165cd0abd0c70721462e7303c", "is_reserved": 0, "lat": 38.89762183333333, "fusion_lon": 0.0, "is_disabled": 0, "lon": -77.0550045, "rental_uris": {"ios": "https://dc.lft.to/lastmile_qr_scan", "android": "https://dc.lft.to/lastmile_qr_scan"}, "fusion_lat": 0.0, "type": "electric_scooter"}, {"bike_id": "6a7860e705e67c2f610c3cc6aa11e9a3", "name": "6a7860e705e67c2f610c3cc6aa11e9a3", "is_reserved": 0, "lat": 38.928681833333336, "fusion_lon": 0.0, "is_disabled": 0, "lon": -77.03283916666666, "rental_uris": {"ios": "https://dc.lft.to/lastmile_qr_scan", "android": "https://dc.lft.to/lastmile_qr_scan"}, "fusion_lat": 0.0, "type": "electric_scooter"}, {"bike_id": "b17031a0ef478a172e8d6cc0cff80332", "name": "b17031a0ef478a172e8d6cc0cff80332", "is_reserved": 0, "lat": 38.919183333333336, "fusion_lon": 0.0, "is_disabled": 0, "lon": -77.03345433333334, "rental_uris": {"ios": "https://dc.lft.to/lastmile_qr_scan", "android": "https://dc.lft.to/lastmile_qr_scan"}, "fusion_lat": 0.0, "type": "electric_scooter"}, {"bike_id": "85da82b60eb6b56bb2c403a701066724", "name": "85da82b60eb6b56bb2c403a701066724", "is_reserved": 0, "lat": 38.91927833333333, "fusion_lon": 0.0, "is_disabled": 0, "lon": -77.01790133333333, "rental_uris": {"ios": "https://dc.lft.to/lastmile_qr_scan", "android": "https://dc.lft.to/lastmile_qr_scan"}, "fusion_lat": 0.0, "type": "electric_scooter"}, {"bike_id": "c19a24995651aa553cdeb33f6854b11b", "name": "c19a24995651aa553cdeb33f6854b11b", "is_reserved": 0, "lat": 38.92262933333333, "fusion_lon": 0.0, "is_disabled": 0, "lon": -77.03282216666666, "rental_uris": {"ios": "https://dc.lft.to/lastmile_qr_scan", "android": "https://dc.lft.to/lastmile_qr_scan"}, "fusion_lat": 0.0, "type": "electric_scooter"}, {"bike_id": "934d63fbe8bf44c43808b10d89292c83", "name": "934d63fbe8bf44c43808b10d89292c83", "is_reserved": 0, "lat": 38.9057145, "fusion_lon": 0.0, "is_disabled": 0, "lon": -77.024001, "rental_uris": {"ios": "https://dc.lft.to/lastmile_qr_scan", "android": "https://dc.lft.to/lastmile_qr_scan"}, "fusion_lat": 0.0, "type": "electric_scooter"}, {"bike_id": "4e2b736caf55a7d2581d0b8fc98139ad", "name": "4e2b736caf55a7d2581d0b8fc98139ad", "is_reserved": 0, "lat": 38.900430666666665, "fusion_lon": 0.0, "is_disabled": 0, "lon": -77.04855616666667, "rental_uris": {"ios": "https://dc.lft.to/lastmile_qr_scan", "android": "https://dc.lft.to/lastmile_qr_scan"}, "fusion_lat": 0.0, "type": "electric_scooter"}, {"bike_id": "6ca212f6dfdd417814e6316cc83985c0", "name": "6ca212f6dfdd417814e6316cc83985c0", "is_reserved": 0, "lat": 38.895471666666666, "fusion_lon": 0.0, "is_disabled": 0, "lon": -76.983363, "rental_uris": {"ios": "https://dc.lft.to/lastmile_qr_scan", "android": "https://dc.lft.to/lastmile_qr_scan"}, "fusion_lat": 0.0, "type": "electric_scooter"}, {"bike_id": "c895d376525bd276c0ae094cc1941641", "name": "c895d376525bd276c0ae094cc1941641", "is_reserved": 0, "lat": 38.9367335, "fusion_lon": 0.0, "is_disabled": 0, "lon": -77.03282516666667, "rental_uris": {"ios": "https://dc.lft.to/lastmile_qr_scan", "android": "https://dc.lft.to/lastmile_qr_scan"}, "fusion_lat": 0.0, "type": "electric_scooter"}, {"bike_id": "6da4081db045122bbf9120018b702764", "name": "6da4081db045122bbf9120018b702764", "is_reserved": 0, "lat": 38.931145, "fusion_lon": 0.0, "is_disabled": 0, "lon": -77.02145866666666, "rental_uris": {"ios": "https://dc.lft.to/lastmile_qr_scan", "android": "https://dc.lft.to/lastmile_qr_scan"}, "fusion_lat": 0.0, "type": "electric_scooter"}, {"bike_id": "bcb036a9362cd69a0731b35501a6bab3", "name": "bcb036a9362cd69a0731b35501a6bab3", "is_reserved": 0, "lat": 38.81544533333334, "fusion_lon": 0.0, "is_disabled": 0, "lon": -77.0464425, "rental_uris": {"ios": "https://dc.lft.to/lastmile_qr_scan", "android": "https://dc.lft.to/lastmile_qr_scan"}, "fusion_lat": 0.0, "type": "electric_bike"}, {"bike_id": "2f961ebb88d83aa44b43e76cee5ae63c", "name": "2f961ebb88d83aa44b43e76cee5ae63c", "is_reserved": 0, "lat": 38.89369216666667, "fusion_lon": 0.0, "is_disabled": 0, "lon": -77.04677183333334, "rental_uris": {"ios": "https://dc.lft.to/lastmile_qr_scan", "android": "https://dc.lft.to/lastmile_qr_scan"}, "fusion_lat": 0.0, "type": "electric_scooter"}, {"bike_id": "27024668c7c4a5247e4c468a123a6aef", "name": "27024668c7c4a5247e4c468a123a6aef", "is_reserved": 0, "lat": 38.897132166666665, "fusion_lon": 0.0, "is_disabled": 0, "lon": -76.97875166666667, "rental_uris": {"ios": "https://dc.lft.to/lastmile_qr_scan", "android": "https://dc.lft.to/lastmile_qr_scan"}, "fusion_lat": 0.0, "type": "electric_scooter"}, {"bike_id": "107a44c97379d4af0e8ccea3e4c24183", "name": "107a44c97379d4af0e8ccea3e4c24183", "is_reserved": 0, "lat": 38.9002265, "fusion_lon": 0.0, "is_disabled": 0, "lon": -76.98595783333333, "rental_uris": {"ios": "https://dc.lft.to/lastmile_qr_scan", "android": "https://dc.lft.to/lastmile_qr_scan"}, "fusion_lat": 0.0, "type": "electric_scooter"}, {"bike_id": "d62ae13d136852dc8ae4b2c5aca240a4", "name": "d62ae13d136852dc8ae4b2c5aca240a4", "is_reserved": 0, "lat": 38.89897416666667, "fusion_lon": 0.0, "is_disabled": 0, "lon": -77.01004683333333, "rental_uris": {"ios": "https://dc.lft.to/lastmile_qr_scan", "android": "https://dc.lft.to/lastmile_qr_scan"}, "fusion_lat": 0.0, "type": "electric_scooter"}, {"bike_id": "82cce5ea231474a567e1f7386a085f97", "name": "82cce5ea231474a567e1f7386a085f97", "is_reserved": 0, "lat": 38.864524833333334, "fusion_lon": 0.0, "is_disabled": 0, "lon": -77.01271083333333, "rental_uris": {"ios": "https://dc.lft.to/lastmile_qr_scan", "android": "https://dc.lft.to/lastmile_qr_scan"}, "fusion_lat": 0.0, "type": "electric_bike"}, {"bike_id": "00903f745208d78f4cdfd982da600b9a", "name": "00903f745208d78f4cdfd982da600b9a", "is_reserved": 0, "lat": 38.9001915, "fusion_lon": 0.0, "is_disabled": 0, "lon": -77.0450025, "rental_uris": {"ios": "https://dc.lft.to/lastmile_qr_scan", "android": "https://dc.lft.to/lastmile_qr_scan"}, "fusion_lat": 0.0, "type": "electric_scooter"}, {"bike_id": "c18de2957d6487372d36ce47f30f8f95", "name": "c18de2957d6487372d36ce47f30f8f95", "is_reserved": 0, "lat": 38.9149365, "fusion_lon": 0.0, "is_disabled": 0, "lon": -77.0185885, "rental_uris": {"ios": "https://dc.lft.to/lastmile_qr_scan", "android": "https://dc.lft.to/lastmile_qr_scan"}, "fusion_lat": 0.0, "type": "electric_scooter"}, {"bike_id": "0778cba8f916d6691a0f5f08cdb05c64", "name": "0778cba8f916d6691a0f5f08cdb05c64", "is_reserved": 0, "lat": 38.924233666666666, "fusion_lon": 0.0, "is_disabled": 0, "lon": -77.0403995, "rental_uris": {"ios": "https://dc.lft.to/lastmile_qr_scan", "android": "https://dc.lft.to/lastmile_qr_scan"}, "fusion_lat": 0.0, "type": "electric_scooter"}, {"bike_id": "6bc723d0894ea72c3d6ce57dc97704a3", "name": "6bc723d0894ea72c3d6ce57dc97704a3", "is_reserved": 0, "lat": 38.900441, "fusion_lon": 0.0, "is_disabled": 0, "lon": -77.04856883333333, "rental_uris": {"ios": "https://dc.lft.to/lastmile_qr_scan", "android": "https://dc.lft.to/lastmile_qr_scan"}, "fusion_lat": 0.0, "type": "electric_scooter"}, {"bike_id": "da27009b2cb415e7ca84c698d0f23124", "name": "da27009b2cb415e7ca84c698d0f23124", "is_reserved": 0, "lat": 38.90137083333333, "fusion_lon": 0.0, "is_disabled": 0, "lon": -77.03203533333334, "rental_uris": {"ios": "https://dc.lft.to/lastmile_qr_scan", "android": "https://dc.lft.to/lastmile_qr_scan"}, "fusion_lat": 0.0, "type": "electric_scooter"}, {"bike_id": "eb7b6e692df1177aa9b3a71022a2655c", "name": "eb7b6e692df1177aa9b3a71022a2655c", "is_reserved": 0, "lat": 38.89724283333334, "fusion_lon": 0.0, "is_disabled": 0, "lon": -77.02530266666666, "rental_uris": {"ios": "https://dc.lft.to/lastmile_qr_scan", "android": "https://dc.lft.to/lastmile_qr_scan"}, "fusion_lat": 0.0, "type": "electric_scooter"}, {"bike_id": "a8eb5c0a9353eca723d2156fc1ce0c65", "name": "a8eb5c0a9353eca723d2156fc1ce0c65", "is_reserved": 0, "lat": 38.928814833333334, "fusion_lon": 0.0, "is_disabled": 0, "lon": -77.03231266666667, "rental_uris": {"ios": "https://dc.lft.to/lastmile_qr_scan", "android": "https://dc.lft.to/lastmile_qr_scan"}, "fusion_lat": 0.0, "type": "electric_scooter"}, {"bike_id": "f85c26664a0223f117832e85de110053", "name": "f85c26664a0223f117832e85de110053", "is_reserved": 0, "lat": 38.9274555, "fusion_lon": 0.0, "is_disabled": 0, "lon": -77.022172, "rental_uris": {"ios": "https://dc.lft.to/lastmile_qr_scan", "android": "https://dc.lft.to/lastmile_qr_scan"}, "fusion_lat": 0.0, "type": "electric_scooter"}, {"bike_id": "92d58748617d5982ce8f6a658ccd2b96", "name": "92d58748617d5982ce8f6a658ccd2b96", "is_reserved": 0, "lat": 38.928145666666666, "fusion_lon": 0.0, "is_disabled": 0, "lon": -77.03142066666666, "rental_uris": {"ios": "https://dc.lft.to/lastmile_qr_scan", "android": "https://dc.lft.to/lastmile_qr_scan"}, "fusion_lat": 0.0, "type": "electric_scooter"}, {"bike_id": "dd6a4269d55618dda4ae23a8d03e6d14", "name": "dd6a4269d55618dda4ae23a8d03e6d14", "is_reserved": 0, "lat": 38.899529666666666, "fusion_lon": 0.0, "is_disabled": 0, "lon": -77.02573283333334, "rental_uris": {"ios": "https://dc.lft.to/lastmile_qr_scan", "android": "https://dc.lft.to/lastmile_qr_scan"}, "fusion_lat": 0.0, "type": "electric_scooter"}, {"bike_id": "fb16518080ddd1a217f6b086530e3b91", "name": "fb16518080ddd1a217f6b086530e3b91", "is_reserved": 0, "lat": 38.91795116666667, "fusion_lon": 0.0, "is_disabled": 0, "lon": -77.02708783333334, "rental_uris": {"ios": "https://dc.lft.to/lastmile_qr_scan", "android": "https://dc.lft.to/lastmile_qr_scan"}, "fusion_lat": 0.0, "type": "electric_scooter"}, {"bike_id": "7efb26725359ee017ba712a1ffe92a74", "name": "7efb26725359ee017ba712a1ffe92a74", "is_reserved": 0, "lat": 38.8996815, "fusion_lon": 0.0, "is_disabled": 0, "lon": -77.03062333333334, "rental_uris": {"ios": "https://dc.lft.to/lastmile_qr_scan", "android": "https://dc.lft.to/lastmile_qr_scan"}, "fusion_lat": 0.0, "type": "electric_scooter"},