{"data": {"bikes": [{"lat": 38.901289, "fusion_lat": 0.0, "type": "electric_scooter", "name": "6d81ac443f6f99f2f9cd53b6a0e18e0c", "is_disabled": 0, "bike_id": "6d81ac443f6f99f2f9cd53b6a0e18e0c", "lon": -77.03246283333333, "rental_uris": {"android": "https://dc.lft.to/lastmile_qr_scan", "ios": "https://dc.lft.to/lastmile_qr_scan"}, "fusion_lon": 0.0, "is_reserved": 0}, {"lat": 38.85690983333333, "fusion_lat": 0.0, "type": "electric_scooter", "name": "de49ae6824d3c0a698e617e143fcc282", "is_disabled": 0, "bike_id": "de49ae6824d3c0a698e617e143fcc282", "lon": -76.9959485, "rental_uris": {"android": "https://dc.lft.to/lastmile_qr_scan", "ios": "https://dc.lft.to/lastmile_qr_scan"}, "fusion_lon": 0.0, "is_reserved": 0}, {"lat": 38.905396, "fusion_lat": 0.0, "type": "electric_scooter", "name": "60f62c27700910f3e0cc9578130e3da9", "is_disabled": 0, "bike_id": "60f62c27700910f3e0cc9578130e3da9", "lon": -77.04732233333333, "rental_uris": {"android": "https://dc.lft.to/lastmile_qr_scan", "ios": "https://dc.lft.to/lastmile_qr_scan"}, "fusion_lon": 0.0, "is_reserved": 0}, {"lat": 38.893925333333335, "fusion_lat": 0.0, "type": "electric_scooter", "name": "ebb402d3d0d754a0adaefec55c6068bf", "is_disabled": 0, "bike_id": "ebb402d3d0d754a0adaefec55c6068bf", "lon": -77.023445, "rental_uris": {"android": "https://dc.lft.to/lastmile_qr_scan", "ios": "https://dc.lft.to/lastmile_qr_scan"}, "fusion_lon": 0.0, "is_reserved": 0}, {"lat": 38.89847733333333, "fusion_lat": 0.0, "type": "electric_scooter", "name": "10a9d24dfcea61c7f8aa5d494ab8390f", "is_disabled": 0, "bike_id": "10a9d24dfcea61c7f8aa5d494ab8390f", "lon": -77.02724833333333, "rental_uris": {"android": "https://dc.lft.to/lastmile_qr_scan", "ios": "https://dc.lft.to/lastmile_qr_scan"}, "fusion_lon": 0.0, "is_reserved": 0}, {"lat": 38.928153, "fusion_lat": 0.0, "type": "electric_scooter", "name": "a37debb09e55298ba7c15d7a26a3a766", "is_disabled": 0, "bike_id": "a37debb09e55298ba7c15d7a26a3a766", "lon": -77.0435295, "rental_uris": {"android": "https://dc.lft.to/lastmile_qr_scan", "ios": "https://dc.lft.to/lastmile_qr_scan"}, "fusion_lon": 0.0, "is_reserved": 0}, {"lat": 38.922429, "fusion_lat": 0.0, "type": "electric_scooter", "name": "28cf74392790f25a825ae4a5f03c64fd", "is_disabled": 0, "bike_id": "28cf74392790f25a825ae4a5f03c64fd", "lon": -76.98078966666667, "rental_uris": {"android": "https://dc.lft.to/lastmile_qr_scan", "ios": "https://dc.lft.to/lastmile_qr_scan"}, "fusion_lon": 0.0, "is_reserved": 0}, {"lat": 38.907248833333334, "fusion_lat": 0.0, "type": "electric_scooter", "name": "ef73264aec9f2f71493d5077403968ab", "is_disabled": 0, "bike_id": "ef73264aec9f2f71493d5077403968ab", "lon": -77.00776533333334, "rental_uris": {"android": "https://dc.lft.to/lastmile_qr_scan", "ios": "https://dc.lft.to/lastmile_qr_scan"}, "fusion_lon": 0.0, "is_reserved": 0}, {"lat": 38.91705566666667, "fusion_lat": 0.0, "type": "electric_scooter", "name": "de44bb3c3d6f643f6f1a60855b7db817", "is_disabled": 0, "bike_id": "de44bb3c3d6f643f6f1a60855b7db817", "lon": -77.04173166666666, "rental_uris": {"android": "https://dc.lft.to/lastmile_qr_scan", "ios": "https://dc.lft.to/lastmile_qr_scan"}, "fusion_lon": 0.0, "is_reserved": 0}, {"lat": 38.89759216666667, "fusion_lat": 0.0, "type": "electric_scooter", "name": "73483dbd68ee25cb64070fec7040dded", "is_disabled": 0, "bike_id": "73483dbd68ee25cb64070fec7040dded", "lon": -77.04889966666667, "rental_uris": {"android": "https://dc.lft.to/lastmile_qr_scan", "ios": "https://dc.lft.to/lastmile_qr_scan"}, "fusion_lon": 0.0, "is_reserved": 0}, {"lat": 38.916107333333336, "fusion_lat": 0.0, "type": "electric_bike", "name": "8ef99c6f9603b8f884f6e1bde5e3dc43", "is_disabled": 0, "bike_id": "8ef99c6f9603b8f884f6e1bde5e3dc43", "lon": -77.04828733333333, "rental_uris": {"android": "https://dc.lft.to/lastmile_qr_scan", "ios": "https://dc.lft.to/lastmile_qr_scan"}, "fusion_lon": 0.0, "is_reserved": 0}, {"lat": 38.90981283333333, "fusion_lat": 0.0, "type": "electric_scooter", "name": "9452ec60dd0d2b4aae3914ac9ad531ef", "is_disabled": 0, "bike_id": "9452ec60dd0d2b4aae3914ac9ad531ef", "lon": -76.99495466666667, "rental_uris": {"android": "https://dc.lft.to/lastmile_qr_scan", "ios": "https://dc.lft.to/lastmile_qr_scan"}, "fusion_lon": 0.0, "is_reserved": 0}, {"lat": 38.85753733333333, "fusion_lat": 0.0, "type": "electric_scooter", "name": "e3e088a42e55b1d67f3f9fbe635c10e0", "is_disabled": 0, "bike_id": "e3e088a42e55b1d67f3f9fbe635c10e0", "lon": -76.9930015, "rental_uris": {"android": "https://dc.lft.to/lastmile_qr_scan", "ios": "https://dc.lft.to/lastmile_qr_scan"}, "fusion_lon": 0.0, "is_reserved": 0}, {"lat": 38.92767766666667, "fusion_lat": 0.0, "type": "electric_scooter", "name": "10ed51fba805235ac563a24a81218468", "is_disabled": 0, "bike_id": "10ed51fba805235ac563a24a81218468", "lon": -77.02894716666667, "rental_uris": {"android": "https://dc.lft.to/lastmile_qr_scan", "ios": "https://dc.lft.to/lastmile_qr_scan"}, "fusion_lon": 0.0, "is_reserved": 0}, {"lat": 38.844389666666665, "fusion_lat": 0.0, "type": "electric_scooter", "name": "c44e3799c7f86e4fa73540dd2a5b3ec9", "is_disabled": 0, "bike_id": "c44e3799c7f86e4fa73540dd2a5b3ec9", "lon": -76.99777666666667, "rental_uris": {"android": "https://dc.lft.to/lastmile_qr_scan", "ios": "https://dc.lft.to/lastmile_qr_scan"}, "fusion_lon": 0.0, "is_reserved": 0}, {"lat": 38.9237915, "fusion_lat": 0.0, "type": "electric_scooter", "name": "ffaf69f8d6edbea216952e1992730334", "is_disabled": 0, "bike_id": "ffaf69f8d6edbea216952e1992730334", "lon": -77.051513, "rental_uris": {"android": "https://dc.lft.to/lastmile_qr_scan", "ios": "https://dc.lft.to/lastmile_qr_scan"}, "fusion_lon": 0.0, "is_reserved": 0}, {"lat": 38.913981166666666, "fusion_lat": 0.0, "type": "electric_scooter", "name": "3c0a985ce9dda8c00a92e2b457042590", "is_disabled": 0, "bike_id": "3c0a985ce9dda8c00a92e2b457042590", "lon": -77.01795233333333, "rental_uris": {"android": "https://dc.lft.to/lastmile_qr_scan", "ios": "https://dc.lft.to/lastmile_qr_scan"}, "fusion_lon": 0.0, "is_reserved": 0}, {"lat": 38.954045666666666, "fusion_lat": 0.0, "type": "electric_scooter", "name": "3f4f9ea515cb22215e633ce20f4be2b5", "is_disabled": 0, "bike_id": "3f4f9ea515cb22215e633ce20f4be2b5", "lon": -77.02746383333333, "rental_uris": {"android": "https://dc.lft.to/lastmile_qr_scan", "ios": "https://dc.lft.to/lastmile_qr_scan"}, "fusion_lon": 0.0, "is_reserved": 0}, {"lat": 38.925151166666666, "fusion_lat": 0.0, "type": "electric_scooter", "name": "6bef0b23aae9c7799ca2e214a4ff871f", "is_disabled": 0, "bike_id": "6bef0b23aae9c7799ca2e214a4ff871f", "lon": -77.02312966666666, "rental_uris": {"android": "https://dc.lft.to/lastmile_qr_scan", "ios": "https://dc.lft.to/lastmile_qr_scan"}, "fusion_lon": 0.0, "is_reserved": 0}, {"lat": 38.92219816666667, "fusion_lat": 0.0, "type": "electric_scooter", "name": "1235a2aa690da66b91d18c38048ef9f2", "is_disabled": 0, "bike_id": "1235a2aa690da66b91d18c38048ef9f2", "lon": -77.04244283333334, "rental_uris": {"android": "https://dc.lft.to/lastmile_qr_scan", "ios": "https://dc.lft.to/lastmile_qr_scan"}, "fusion_lon": 0.0, "is_reserved": 0}, {"lat": 38.926616, "fusion_lat": 0.0, "type": "electric_scooter", "name": "6e758f5bbcd61d8523324c81f08f4cae", "is_disabled": 0, "bike_id": "6e758f5bbcd61d8523324c81f08f4cae", "lon": -77.04296283333333, "rental_uris": {"android": "https://dc.lft.to/lastmile_qr_scan", "ios": "https://dc.lft.to/lastmile_qr_scan"}, "fusion_lon": 0.0, "is_reserved": 0}, {"lat": 38.943702, "fusion_lat": 0.0, "type": "electric_scooter", "name": "4b46c249525db3dea67bceb11d0ad7ec", "is_disabled": 0, "bike_id": "4b46c249525db3dea67bceb11d0ad7ec", "lon": -77.063186, "rental_uris": {"android": "https://dc.lft.to/lastmile_qr_scan", "ios": "https://dc.lft.to/lastmile_qr_scan"}, "fusion_lon": 0.0, "is_reserved": 0}, {"lat": 38.892309833333336, "fusion_lat": 0.0, "type": "electric_scooter", "name": "a041b78e1ae05b32b3f6f5394ccf078c", "is_disabled": 0, "bike_id": "a041b78e1ae05b32b3f6f5394ccf078c", "lon": -77.04995416666667, "rental_uris": {"android": "https://dc.lft.to/lastmile_qr_scan", "ios": "https://dc.lft.to/lastmile_qr_scan"}, "fusion_lon": 0.0, "is_reserved": 0}, {"lat": 38.9004575, "fusion_lat": 0.0, "type": "electric_scooter", "name": "1e700944d66a7c21aa106cc45911a89b", "is_disabled": 0, "bike_id": "1e700944d66a7c21aa106cc45911a89b", "lon": -77.04402116666667, "rental_uris": {"android": "https://dc.lft.to/lastmile_qr_scan", "ios": "https://dc.lft.to/lastmile_qr_scan"}, "fusion_lon": 0.0, "is_reserved": 0}, {"lat": 38.91670666666667, "fusion_lat": 0.0, "type": "electric_scooter", "name": "c54099fe3050256018d5468670719459", "is_disabled": 0, "bike_id": "c54099fe3050256018d5468670719459", "lon": -77.02399483333333, "rental_uris": {"android": "https://dc.lft.to/lastmile_qr_scan", "ios": "https://dc.lft.to/lastmile_qr_scan"}, "fusion_lon": 0.0, "is_reserved": 0}, {"lat": 39.084469666666664, "fusion_lat": 0.0, "type": "electric_bike", "name": "99cb4fc368fc14a6820f63b9ee949115", "is_disabled": 0, "bike_id": "99cb4fc368fc14a6820f63b9ee949115", "lon": -76.951877, "rental_uris": {"android": "https://dc.lft.to/lastmile_qr_scan", "ios": "https://dc.lft.to/lastmile_qr_scan"}, "fusion_lon": 0.0, "is_reserved": 0}, {"lat": 38.915517333333334, "fusion_lat": 0.0, "type": "electric_scooter", "name": "cfe3d3859fb89f281b73bfdea494f9d3", "is_disabled": 0, "bike_id": "cfe3d3859fb89f281b73bfdea494f9d3", "lon": -77.046165, "rental_uris": {"android": "https://dc.lft.to/lastmile_qr_scan", "ios": "https://dc.lft.to/lastmile_qr_scan"}, "fusion_lon": 0.0, "is_reserved": 0}, {"lat": 38.916943333333336, "fusion_lat": 0.0, "type": "electric_scooter", "name": "f2383c9228f545bdb00083fba1b3ac94", "is_disabled": 0, "bike_id": "f2383c9228f545bdb00083fba1b3ac94", "lon": -77.02853633333334, "rental_uris": {"android": "https://dc.lft.to/lastmile_qr_scan", "ios": "https://dc.lft.to/lastmile_qr_scan"}, "fusion_lon": 0.0, "is_reserved": 0}, {"lat": 38.92233433333333, "fusion_lat": 0.0, "type": "electric_scooter", "name": "31145c79aac37e5d9c7be89e8c297527", "is_disabled": 0, "bike_id": "31145c79aac37e5d9c7be89e8c297527", "lon": -77.02129533333333, "rental_uris": {"android": "https://dc.lft.to/lastmile_qr_scan", "ios": "https://dc.lft.to/lastmile_qr_scan"}, "fusion_lon": 0.0, "is_reserved": 0}, {"lat": 38.90295166666667, "fusion_lat": 0.0, "type": "electric_scooter", "name": "40386bdef5f364c4a6a7abefded19477", "is_disabled": 0, "bike_id": "40386bdef5f364c4a6a7abefded19477", "lon": -77.03458, "rental_uris": {"android": "https://dc.lft.to/lastmile_qr_scan", "ios": "https://dc.lft.to/lastmile_qr_scan"}, "fusion_lon": 0.0, "is_reserved": 0}, {"lat": 38.902516166666665, "fusion_lat": 0.0, "type": "electric_scooter", "name": "2dad11f1f8a42cc85c032948746425d7", "is_disabled": 0, "bike_id": "2dad11f1f8a42cc85c032948746425d7", "lon": -77.0346205, "rental_uris": {"android": "https://dc.lft.to/lastmile_qr_scan", "ios": "https://dc.lft.to/lastmile_qr_scan"}, "fusion_lon": 0.0, "is_reserved": 0}, {"lat": 38.89220666666667, "fusion_lat": 0.0, "type": "electric_scooter", "name": "c4b91ee422ad573e225dc522dbb96a49", "is_disabled": 0, "bike_id": "c4b91ee422ad573e225dc522dbb96a49", "lon": -77.02407766666667, "rental_uris": {"android": "https://dc.lft.to/lastmile_qr_scan", "ios": "https://dc.lft.to/lastmile_qr_scan"}, "fusion_lon": 0.0, "is_reserved": 0}, {"lat": 38.9091025, "fusion_lat": 0.0, "type": "electric_scooter", "name": "2050f28efdf711ff9cd8f8648ecbd80f", "is_disabled": 0, "bike_id": "2050f28efdf711ff9cd8f8648ecbd80f", "lon": -77.07185666666666, "rental_uris": {"android": "https://dc.lft.to/lastmile_qr_scan", "ios": "https://dc.lft.to/lastmile_qr_scan"}, "fusion_lon": 0.0, "is_reserved": 0}, {"lat": 38.92113883333333, "fusion_lat": 0.0, "type": "electric_scooter", "name": "9dad9324684529c44aae822194110aff", "is_disabled": 0, "bike_id": "9dad9324684529c44aae822194110aff", "lon": -77.04587833333333, "rental_uris": {"android": "https://dc.lft.to/lastmile_qr_scan", "ios": "https://dc.lft.to/lastmile_qr_scan"}, "fusion_lon": 0.0, "is_reserved": 0}, {"lat": 38.87218516666667, "fusion_lat": 0.0, "type": "electric_scooter", "name": "cdc65f795caead730efe0ad634e34e2e", "is_disabled": 0, "bike_id": "cdc65f795caead730efe0ad634e34e2e", "lon": -77.0176035, "rental_uris": {"android": "https://dc.lft.to/lastmile_qr_scan", "ios": "https://dc.lft.to/lastmile_qr_scan"}, "fusion_lon": 0.0, "is_reserved": 0}, {"lat": 38.89834883333333, "fusion_lat": 0.0, "type": "electric_scooter", "name": "9af97c1e02dc21819c46205dbd28dc55", "is_disabled": 0, "bike_id": "9af97c1e02dc21819c46205dbd28dc55", "lon": -77.02675833333333, "rental_uris": {"android": "https://dc.lft.to/lastmile_qr_scan", "ios": "https://dc.lft.to/lastmile_qr_scan"}, "fusion_lon": 0.0, "is_reserved": 0}, {"lat": 38.90005583333333, "fusion_lat": 0.0, "type": "electric_scooter", "name": "f85e13072e59ce9288cc6de26624e758", "is_disabled": 0, "bike_id": "f85e13072e59ce9288cc6de26624e758", "lon": -77.006774, "rental_uris": {"android": "https://dc.lft.to/lastmile_qr_scan", "ios": "https://dc.lft.to/lastmile_qr_scan"}, "fusion_lon": 0.0, "is_reserved": 0}, {"lat": 38.9519025, "fusion_lat": 0.0, "type": "electric_scooter", "name": "4efaf7aa0ab69edd05dbffa04a116cb1", "is_disabled": 0, "bike_id": "4efaf7aa0ab69edd05dbffa04a116cb1", "lon": -77.027172, "rental_uris": {"android": "https://dc.lft.to/lastmile_qr_scan", "ios": "https://dc.lft.to/lastmile_qr_scan"}, "fusion_lon": 0.0, "is_reserved": 0}, {"lat": 38.88425766666667, "fusion_lat": 0.0, "type": "electric_scooter", "name": "87cbe66ef060131572229786e04071b1", "is_disabled": 0, "bike_id": "87cbe66ef060131572229786e04071b1", "lon": -76.95747783333333, "rental_uris": {"android": "https://dc.lft.to/lastmile_qr_scan", "ios": "https://dc.lft.to/lastmile_qr_scan"}, "fusion_lon": 0.0, "is_reserved": 0}, {"lat": 38.893373833333335, "fusion_lat": 0.0, "type": "electric_scooter", "name": "ed6b8e8621977b9c8dfdc570f4a23b07", "is_disabled": 0, "bike_id": "ed6b8e8621977b9c8dfdc570f4a23b07", "lon": -76.94918783333334, "rental_uris": {"android": "https://dc.lft.to/lastmile_qr_scan", "ios": "https://dc.lft.to/lastmile_qr_scan"}, "fusion_lon": 0.0, "is_reserved": 0}, {"lat": 38.874641, "fusion_lat": 0.0, "type": "electric_scooter", "name": "c0542d68d5b13b5f4a23224345acd664", "is_disabled": 0, "bike_id": "c0542d68d5b13b5f4a23224345acd664", "lon": -77.004923, "rental_uris": {"android": "https://dc.lft.to/lastmile_qr_scan", "ios": "https://dc.lft.to/lastmile_qr_scan"}, "fusion_lon": 0.0, "is_reserved": 0}, {"lat": 38.89639583333334, "fusion_lat": 0.0, "type": "electric_scooter", "name": "a1770dffeb8ce8786d92b5c9e361992e", "is_disabled": 0, "bike_id": "a1770dffeb8ce8786d92b5c9e361992e", "lon": -77.02256983333334, "rental_uris": {"android": "https://dc.lft.to/lastmile_qr_scan", "ios": "https://dc.lft.to/lastmile_qr_scan"}, "fusion_lon": 0.0, "is_reserved": 0}, {"lat": 38.91124116666667, "fusion_lat": 0.0, "type": "electric_scooter", "name": "7598d86f7ff7fb852ae101d265de0abe", "is_disabled": 0, "bike_id": "7598d86f7ff7fb852ae101d265de0abe", "lon": -77.02183316666667, "rental_uris": {"android": "https://dc.lft.to/lastmile_qr_scan", "ios": "https://dc.lft.to/lastmile_qr_scan"}, "fusion_lon": 0.0, "is_reserved": 0}, {"lat": 38.930802, "fusion_lat": 0.0, "type": "electric_scooter", "name": "43c77eab6d6702015dd0000d5d492459", "is_disabled": 0, "bike_id": "43c77eab6d6702015dd0000d5d492459", "lon": -77.02809333333333, "rental_uris": {"android": "https://dc.lft.to/lastmile_qr_scan", "ios": "https://dc.lft.to/lastmile_qr_scan"}, "fusion_lon": 0.0, "is_reserved": 0}, {"lat": 38.8981505, "fusion_lat": 0.0, "type": "electric_scooter", "name": "9aa0468fe854b194de7b32f5f3359e28", "is_disabled": 0, "bike_id": "9aa0468fe854b194de7b32f5f3359e28", "lon": -77.03320966666666, "rental_uris": {"android": "https://dc.lft.to/lastmile_qr_scan", "ios": "https://dc.lft.to/lastmile_qr_scan"}, "fusion_lon": 0.0, "is_reserved": 0}, {"lat": 38.866822, "fusion_lat": 0.0, "type": "electric_scooter", "name": "9db745085dc28711c99989790d9658a9", "is_disabled": 0, "bike_id": "9db745085dc28711c99989790d9658a9", "lon": -76.985645, "rental_uris": {"android": "https://dc.lft.to/lastmile_qr_scan", "ios": "https://dc.lft.to/lastmile_qr_scan"}, "fusion_lon": 0.0, "is_reserved": 0}, {"lat": 38.990938166666666, "fusion_lat": 0.0, "type": "electric_bike", "name": "42b761cd9ac9b91d647835c6ae0e5ed7", "is_disabled": 0, "bike_id": "42b761cd9ac9b91d647835c6ae0e5ed7", "lon": -76.99367216666667, "rental_uris": {"android": "https://dc.lft.to/lastmile_qr_scan", "ios": "https://dc.lft.to/lastmile_qr_scan"}, "fusion_lon": 0.0, "is_reserved": 0}, {"lat": 38.890107666666665, "fusion_lat": 0.0, "type": "electric_scooter", "name": "3b0b6782432d8a6531893953ba822ca0", "is_disabled": 0, "bike_id": "3b0b6782432d8a6531893953ba822ca0", "lon": -76.9372785, "rental_uris": {"android": "https://dc.lft.to/lastmile_qr_scan", "ios": "https://dc.lft.to/lastmile_qr_scan"}, "fusion_lon": 0.0, "is_reserved": 0}, {"lat": 38.8708555, "fusion_lat": 0.0, "type": "electric_bike", "name": "84889b68e9874f6a09b573ed18f6a124", "is_disabled": 0, "bike_id": "84889b68e9874f6a09b573ed18f6a124", "lon": -77.01210016666667, "rental_uris": {"android": "https://dc.lft.to/lastmile_qr_scan", "ios": "https://dc.lft.to/lastmile_qr_scan"}, "fusion_lon": 0.0, "is_reserved": 0}, {"lat": 38.975099166666666, "fusion_lat": 0.0, "type": "electric_scooter", "name": "723bc154d7944947884037f385ed73eb", "is_disabled": 0, "bike_id": "723bc154d7944947884037f385ed73eb", "lon": -77.01647333333334, "rental_uris": {"android": "https://dc.lft.to/lastmile_qr_scan", "ios": "https://dc.lft.to/lastmile_qr_scan"}, "fusion_lon": 0.0, "is_reserved": 0}, {"lat": 38.9183375, "fusion_lat": 0.0, "type": "electric_scooter", "name": "33b4f6434e9540c10301c5a12739711d", "is_disabled": 0, "bike_id": "33b4f6434e9540c10301c5a12739711d", "lon": -77.03214033333333, "rental_uris": {"android": "https://dc.lft.to/lastmile_qr_scan", "ios": "https://dc.lft.to/lastmile_qr_scan"}, "fusion_lon": 0.0, "is_reserved": 0}, {"lat": 38.89716966666667, "fusion_lat": 0.0, "type": "electric_scooter", "name": "864a335344664fe161ac7ca06b9bb740", "is_disabled": 0, "bike_id": "864a335344664fe161ac7ca06b9bb740", "lon": -77.007966, "rental_uris": {"android": "https://dc.lft.to/lastmile_qr_scan", "ios": "https://dc.lft.to/lastmile_qr_scan"}, "fusion_lon": 0.0, "is_reserved": 0}, {"lat": 38.8943875, "fusion_lat": 0.0, "type": "electric_scooter", "name": "25ef31f7ddec88d4541aedc4d10047a1", "is_disabled": 0, "bike_id": "25ef31f7ddec88d4541aedc4d10047a1", "lon": -77.00051866666666, "rental_uris": {"android": "https://dc.lft.to/lastmile_qr_scan", "ios": "https://dc.lft.to/lastmile_qr_scan"}, "fusion_lon": 0.0, "is_reserved": 0}, {"lat": 38.90770883333333, "fusion_lat": 0.0, "type": "electric_scooter", "name": "f748dc61b483a5691d16e1437009ccce", "is_disabled": 0, "bike_id": "f748dc61b483a5691d16e1437009ccce", "lon": -77.04348316666666, "rental_uris": {"android": "https://dc.lft.to/lastmile_qr_scan", "ios": "https://dc.lft.to/lastmile_qr_scan"}, "fusion_lon": 0.0, "is_reserved": 0}, {"lat": 38.91120266666667, "fusion_lat": 0.0, "type": "electric_scooter", "name": "5a7bd75af53922ca5cfb2ca02d87674e", "is_disabled": 0, "bike_id": "5a7bd75af53922ca5cfb2ca02d87674e", "lon": -77.03299816666667, "rental_uris": {"android": "https://dc.lft.to/lastmile_qr_scan", "ios": "https://dc.lft.to/lastmile_qr_scan"}, "fusion_lon": 0.0, "is_reserved": 0}, {"lat": 38.9152715, "fusion_lat": 0.0, "type": "electric_scooter", "name": "28992145816fac3857e920f4a6404d0d", "is_disabled": 0, "bike_id": "28992145816fac3857e920f4a6404d0d", "lon": -77.03839683333334, "rental_uris": {"android": "https://dc.lft.to/lastmile_qr_scan", "ios": "https://dc.lft.to/lastmile_qr_scan"}, "fusion_lon": 0.0, "is_reserved": 0}, {"lat": 38.918466333333335, "fusion_lat": 0.0, "type": "electric_scooter", "name": "b53d958d32271804e834d1c677d09b32", "is_disabled": 0, "bike_id": "b53d958d32271804e834d1c677d09b32", "lon": -77.0322045, "rental_uris": {"android": "https://dc.lft.to/lastmile_qr_scan", "ios": "https://dc.lft.to/lastmile_qr_scan"}, "fusion_lon": 0.0, "is_reserved": 0}, {"lat": 38.8644845, "fusion_lat": 0.0, "type": "electric_bike", "name": "e824bc7465df3d9ce0b152009a0846e3", "is_disabled": 0, "bike_id": "e824bc7465df3d9ce0b152009a0846e3", "lon": -77.10682233333333, "rental_uris": {"android": "https://dc.lft.to/lastmile_qr_scan", "ios": "https://dc.lft.to/lastmile_qr_scan"}, "fusion_lon": 0.0, "is_reserved": 0}, {"lat": 38.940214166666664, "fusion_lat": 0.0, "type": "electric_bike", "name": "c9685bb9a02d177ca282b59c66304410", "is_disabled": 0, "bike_id": "c9685bb9a02d177ca282b59c66304410", "lon": -76.99217716666666, "rental_uris": {"android": "https://dc.lft.to/lastmile_qr_scan", "ios": "https://dc.lft.to/lastmile_qr_scan"}, "fusion_lon": 0.0, "is_reserved": 0}, {"lat": 38.923641, "fusion_lat": 0.0, "type": "electric_scooter", "name": "5cc655b6ac2ff7191dc01ede6c258ecb", "is_disabled": 0, "bike_id": "5cc655b6ac2ff7191dc01ede6c258ecb", "lon": -77.051307, "rental_uris": {"android": "https://dc.lft.to/lastmile_qr_scan", "ios": "https://dc.lft.to/lastmile_qr_scan"}, "fusion_lon": 0.0, "is_reserved": 0}, {"lat": 38.931638166666666, "fusion_lat": 0.0, "type": "electric_scooter", "name": "b88c9aa90a2c3ee5912841af8525ac3f", "is_disabled": 0, "bike_id": "b88c9aa90a2c3ee5912841af8525ac3f", "lon": -77.05685716666666, "rental_uris": {"android": "https://dc.lft.to/lastmile_qr_scan", "ios": "https://dc.lft.to/lastmile_qr_scan"}, "fusion_lon": 0.0, "is_reserved": 0}, {"lat": 38.917015166666665, "fusion_lat": 0.0, "type": "electric_scooter", "name": "328cdc97af0df44816254edceafdee61", "is_disabled": 0, "bike_id": "328cdc97af0df44816254edceafdee61", "lon": -77.02785916666667, "rental_uris": {"android": "https://dc.lft.to/lastmile_qr_scan", "ios": "https://dc.lft.to/lastmile_qr_scan"}, "fusion_lon": 0.0, "is_reserved": 0}, {"lat": 38.934321833333335, "fusion_lat": 0.0, "type": "electric_scooter", "name": "8ef9b95f8b5c1dc97888c581c30fb9f4", "is_disabled": 0, "bike_id": "8ef9b95f8b5c1dc97888c581c30fb9f4", "lon": -77.055849, "rental_uris": {"android": "https://dc.lft.to/lastmile_qr_scan", "ios": "https://dc.lft.to/lastmile_qr_scan"}, "fusion_lon": 0.0, "is_reserved": 0}, {"lat": 38.9107035, "fusion_lat": 0.0, "type": "electric_scooter", "name": "c338b74c78d24175d024f10431919658", "is_disabled": 0, "bike_id": "c338b74c78d24175d024f10431919658", "lon": -76.98659183333334, "rental_uris": {"android": "https://dc.lft.to/lastmile_qr_scan", "ios": "https://dc.lft.to/lastmile_qr_scan"}, "fusion_lon": 0.0, "is_reserved": 0}, {"lat": 38.92623916666667, "fusion_lat": 0.0, "type": "electric_scooter", "name": "be3843fca844d521d4d31e02cb3e477a", "is_disabled": 0, "bike_id": "be3843fca844d521d4d31e02cb3e477a", "lon": -77.0422145, "rental_uris": {"android": "https://dc.lft.to/lastmile_qr_scan", "ios": "https://dc.lft.to/lastmile_qr_scan"}, "fusion_lon": 0.0, "is_reserved": 0}, {"lat": 38.8849785, "fusion_lat": 0.0, "type": "electric_scooter", "name": "d9e7890a462c42d37ab88afea4bb3c41", "is_disabled": 0, "bike_id": "d9e7890a462c42d37ab88afea4bb3c41", "lon": -77.00890383333333, "rental_uris": {"android": "https://dc.lft.to/lastmile_qr_scan", "ios": "https://dc.lft.to/lastmile_qr_scan"}, "fusion_lon": 0.0, "is_reserved": 0}, {"lat": 38.8984645, "fusion_lat": 0.0, "type": "electric_scooter", "name": "d1a6baf30f9709e3f1bf94e17d419322", "is_disabled": 0, "bike_id": "d1a6baf30f9709e3f1bf94e17d419322", "lon": -77.02622666666667, "rental_uris": {"android": "https://dc.lft.to/lastmile_qr_scan", "ios": "https://dc.lft.to/lastmile_qr_scan"}, "fusion_lon": 0.0, "is_reserved": 0}, {"lat": 38.93369833333333, "fusion_lat": 0.0, "type": "electric_scooter", "name": "fe82497008bfac0ce081ac7f58cffc37", "is_disabled": 0, "bike_id": "fe82497008bfac0ce081ac7f58cffc37", "lon": -77.05725183333334, "rental_uris": {"android": "https://dc.lft.to/lastmile_qr_scan", "ios": "https://dc.lft.to/lastmile_qr_scan"}, "fusion_lon": 0.0, "is_reserved": 0}, {"lat": 38.911099, "fusion_lat": 0.0, "type": "electric_scooter", "name": "fae236b56120fae539950d0c8678b25b", "is_disabled": 0, "bike_id": "fae236b56120fae539950d0c8678b25b", "lon": -77.02012116666667, "rental_uris": {"android": "https://dc.lft.to/lastmile_qr_scan", "ios": "https://dc.lft.to/lastmile_qr_scan"}, "fusion_lon": 0.0, "is_reserved": 0}, {"lat": 38.956373666666664, "fusion_lat": 0.0, "type": "electric_scooter", "name": "d48e813ef7227da11986274d805f6a1f", "is_disabled": 0, "bike_id": "d48e813ef7227da11986274d805f6a1f", "lon": -77.03302133333334, "rental_uris": {"android": "https://dc.lft.to/lastmile_qr_scan", "ios": "https://dc.lft.to/lastmile_qr_scan"}, "fusion_lon": 0.0, "is_reserved": 0}, {"lat": 38.89635633333333, "fusion_lat": 0.0, "type": "electric_scooter", "name": "386e5d2575f9a6443db555c626fff2a5", "is_disabled": 0, "bike_id": "386e5d2575f9a6443db555c626fff2a5", "lon": -77.04003183333333, "rental_uris": {"android": "https://dc.lft.to/lastmile_qr_scan", "ios": "https://dc.lft.to/lastmile_qr_scan"}, "fusion_lon": 0.0, "is_reserved": 0}, {"lat": 38.90041683333333, "fusion_lat": 0.0, "type": "electric_scooter", "name": "7ce335a7e675e8e99a429c00651b04fe", "is_disabled": 0, "bike_id": "7ce335a7e675e8e99a429c00651b04fe", "lon": -76.9883365, "rental_uris": {"android": "https://dc.lft.to/lastmile_qr_scan", "ios": "https://dc.lft.to/lastmile_qr_scan"}, "fusion_lon": 0.0, "is_reserved": 0}, {"lat": 38.913988833333335, "fusion_lat": 0.0, "type": "electric_scooter", "name": "4013a36b05f6c87636f0bcfe5aafa289", "is_disabled": 0, "bike_id": "4013a36b05f6c87636f0bcfe5aafa289", "lon": -77.01792483333334, "rental_uris": {"android": "https://dc.lft.to/lastmile_qr_scan", "ios": "https://dc.lft.to/lastmile_qr_scan"}, "fusion_lon": 0.0, "is_reserved": 0}, {"lat": 38.89995016666667, "fusion_lat": 0.0, "type": "electric_scooter", "name": "ec90df9449127405fc5463a94b65f643", "is_disabled": 0, "bike_id": "ec90df9449127405fc5463a94b65f643", "lon": -77.00676416666667, "rental_uris": {"android": "https://dc.lft.to/lastmile_qr_scan", "ios": "https://dc.lft.to/lastmile_qr_scan"}, "fusion_lon": 0.0, "is_reserved": 0}, {"lat": 38.90969583333333, "fusion_lat": 0.0, "type": "electric_scooter", "name": "3531d49ede6d19e1723b49b0abd633c2", "is_disabled": 0, "bike_id": "3531d49ede6d19e1723b49b0abd633c2", "lon": -77.0348865, "rental_uris": {"android": "https://dc.lft.to/lastmile_qr_scan", "ios": "https://dc.lft.to/lastmile_qr_scan"}, "fusion_lon": 0.0, "is_reserved": 0}, {"lat": 38.918759, "fusion_lat": 0.0, "type": "electric_scooter", "name": "8e1a7fe519008ab8f71acd1cf53f10e9", "is_disabled": 0, "bike_id": "8e1a7fe519008ab8f71acd1cf53f10e9", "lon": -77.02196216666667, "rental_uris": {"android": "https://dc.lft.to/lastmile_qr_scan", "ios": "https://dc.lft.to/lastmile_qr_scan"}, "fusion_lon": 0.0, "is_reserved": 0}, {"lat": 38.87474783333333, "fusion_lat": 0.0, "type": "electric_scooter", "name": "a1a697e55e63399cca16badb23c0f548", "is_disabled": 0, "bike_id": "a1a697e55e63399cca16badb23c0f548", "lon": -77.00002266666667, "rental_uris": {"android": "https://dc.lft.to/lastmile_qr_scan", "ios": "https://dc.lft.to/lastmile_qr_scan"}, "fusion_lon": 0.0, "is_reserved": 0}, {"lat": 38.9012225, "fusion_lat": 0.0, "type": "electric_scooter", "name": "763a692f2c3c909e9efbfac04678b5e1", "is_disabled": 0, "bike_id": "763a692f2c3c909e9efbfac04678b5e1", "lon": -77.0498795, "rental_uris": {"android": "https://dc.lft.to/lastmile_qr_scan", "ios": "https://dc.lft.to/lastmile_qr_scan"}, "fusion_lon": 0.0, "is_reserved": 0}, {"lat": 38.90168, "fusion_lat": 0.0, "type": "electric_scooter", "name": "100363a1bbe5898540e6448a7c41b409", "is_disabled": 0, "bike_id": "100363a1bbe5898540e6448a7c41b409", "lon": -76.980721, "rental_uris": {"android": "https://dc.lft.to/lastmile_qr_scan", "ios": "https://dc.lft.to/lastmile_qr_scan"}, "fusion_lon": 0.0, "is_reserved": 0}, {"lat": 38.9416365, "fusion_lat": 0.0, "type": "electric_scooter", "name": "a50f0cbabeee1aff646c34eb531667c6", "is_disabled": 0, "bike_id": "a50f0cbabeee1aff646c34eb531667c6", "lon": -77.02554266666667, "rental_uris": {"android": "https://dc.lft.to/lastmile_qr_scan", "ios": "https://dc.lft.to/lastmile_qr_scan"}, "fusion_lon": 0.0, "is_reserved": 0}, {"lat": 38.90269466666667, "fusion_lat": 0.0, "type": "electric_scooter", "name": "25a11f9ec8d153aa68b6f4fa58f3865f", "is_disabled": 0, "bike_id": "25a11f9ec8d153aa68b6f4fa58f3865f", "lon": -77.03851716666667, "rental_uris": {"android": "https://dc.lft.to/lastmile_qr_scan", "ios": "https://dc.lft.to/lastmile_qr_scan"}, "fusion_lon": 0.0, "is_reserved": 0}, {"lat": 38.91273183333333, "fusion_lat": 0.0, "type": "electric_scooter", "name": "76d5372e9f8dfbad3c4907bef8f28f18", "is_disabled": 0, "bike_id": "76d5372e9f8dfbad3c4907bef8f28f18", "lon": -77.04486816666666, "rental_uris": {"android": "https://dc.lft.to/lastmile_qr_scan", "ios": "https://dc.lft.to/lastmile_qr_scan"}, "fusion_lon": 0.0, "is_reserved": 0}, {"lat": 38.86390133333333, "fusion_lat": 0.0, "type": "electric_scooter", "name": "9aa4527b7675f4d182176033c081661b", "is_disabled": 0, "bike_id": "9aa4527b7675f4d182176033c081661b", "lon": -76.99038166666666, "rental_uris": {"android": "https://dc.lft.to/lastmile_qr_scan", "ios": "https://dc.lft.to/lastmile_qr_scan"}, "fusion_lon": 0.0, "is_reserved": 0}, {"lat": 38.8624135, "fusion_lat": 0.0, "type": "electric_scooter", "name": "90447e79fd9268cc9d33d99b236e966f", "is_disabled": 0, "bike_id": "90447e79fd9268cc9d33d99b236e966f", "lon": -76.99486333333333, "rental_uris": {"android": "https://dc.lft.to/lastmile_qr_scan", "ios": "https://dc.lft.to/lastmile_qr_scan"}, "fusion_lon": 0.0, "is_reserved": 0}, {"lat": 38.92359166666667, "fusion_lat": 0.0, "type": "electric_scooter", "name": "7fe041f3c8ffcdd0c59a11ed3cb4d71b", "is_disabled": 0, "bike_id": "7fe041f3c8ffcdd0c59a11ed3cb4d71b", "lon": -77.00051716666667, "rental_uris": {"android": "https://dc.lft.to/lastmile_qr_scan", "ios": "https://dc.lft.to/lastmile_qr_scan"}, "fusion_lon": 0.0, "is_reserved": 0}, {"lat": 38.89813016666667, "fusion_lat": 0.0, "type": "electric_scooter", "name": "2fe96a60be8b4fc130e36362ceea6125", "is_disabled": 0, "bike_id": "2fe96a60be8b4fc130e36362ceea6125", "lon": -76.99253316666666, "rental_uris": {"android": "https://dc.lft.to/lastmile_qr_scan", "ios": "https://dc.lft.to/lastmile_qr_scan"}, "fusion_lon": 0.0, "is_reserved": 0}, {"lat": 38.92468316666667, "fusion_lat": 0.0, "type": "electric_scooter", "name": "dfa1c028282e5b080a80b409660d6b49", "is_disabled": 0, "bike_id": "dfa1c028282e5b080a80b409660d6b49", "lon": -77.02259133333334, "rental_uris": {"android": "https://dc.lft.to/lastmile_qr_scan", "ios": "https://dc.lft.to/lastmile_qr_scan"}, "fusion_lon": 0.0, "is_reserved": 0}, {"lat": 38.90249016666667, "fusion_lat": 0.0, "type": "electric_scooter", "name": "4e6cb193eeb380682f760d9c47e26834", "is_disabled": 0, "bike_id": "4e6cb193eeb380682f760d9c47e26834", "lon": -77.04687516666667, "rental_uris": {"android": "https://dc.lft.to/lastmile_qr_scan", "ios": "https://dc.lft.to/lastmile_qr_scan"}, "fusion_lon": 0.0, "is_reserved": 0}, {"lat": 38.931152, "fusion_lat": 0.0, "type": "electric_scooter", "name": "dd659aea7b7e7c5beff110468042b3e3", "is_disabled": 0, "bike_id": "dd659aea7b7e7c5beff110468042b3e3", "lon": -77.03028266666666, "rental_uris": {"android": "https://dc.lft.to/lastmile_qr_scan", "ios": "https://dc.lft.to/lastmile_qr_scan"}, "fusion_lon": 0.0, "is_reserved": 0}, {"lat": 38.85636383333333, "fusion_lat": 0.0, "type": "electric_scooter", "name": "a33117d80b6ab85d4c776122468c153d", "is_disabled": 0, "bike_id": "a33117d80b6ab85d4c776122468c153d", "lon": -76.96684116666667, "rental_uris": {"android": "https://dc.lft.to/lastmile_qr_scan", "ios": "https://dc.lft.to/lastmile_qr_scan"}, "fusion_lon": 0.0, "is_reserved": 0}, {"lat": 38.90957933333333, "fusion_lat": 0.0, "type": "electric_scooter", "name": "cf3b424c7b441b81911e77245ec08a31", "is_disabled": 0, "bike_id": "cf3b424c7b441b81911e77245ec08a31", "lon": -77.02560983333333, "rental_uris": {"android": "https://dc.lft.to/lastmile_qr_scan", "ios": "https://dc.lft.to/lastmile_qr_scan"}, "fusion_lon": 0.0, "is_reserved": 0}, {"lat": 38.90375216666666, "fusion_lat": 0.0, "type": "electric_scooter", "name": "a2dcd5e72f20e08eab5a73843d46ee6e", "is_disabled": 0, "bike_id": "a2dcd5e72f20e08eab5a73843d46ee6e", "lon": -77.038495, "rental_uris": {"android": "https://dc.lft.to/lastmile_qr_scan", "ios": "https://dc.lft.to/lastmile_qr_scan"}, "fusion_lon": 0.0, "is_reserved": 0}, {"lat": 38.894656166666664, "fusion_lat": 0.0, "type": "electric_scooter", "name": "044f428c6463a917426fd677e4aedbd1", "is_disabled": 0, "bike_id": "044f428c6463a917426fd677e4aedbd1", "lon": -77.0034785, "rental_uris": {"android": "https://dc.lft.to/lastmile_qr_scan", "ios": "https://dc.lft.to/lastmile_qr_scan"}, "fusion_lon": 0.0, "is_reserved": 0}, {"lat": 38.909547, "fusion_lat": 0.0, "type": "electric_scooter", "name": "c7010963c333d89f6b8c00a4d143d762", "is_disabled": 0, "bike_id": "c7010963c333d89f6b8c00a4d143d762", "lon": -77.02266283333333, "rental_uris": {"android": "https://dc.lft.to/lastmile_qr_scan", "ios": "https://dc.lft.to/lastmile_qr_scan"}, "fusion_lon": 0.0, "is_reserved": 0}, {"lat": 38.84467683333333, "fusion_lat": 0.0, "type": "electric_bike", "name": "d6551dd5e5810fa9b8d086319c36e348", "is_disabled": 0, "bike_id": "d6551dd5e5810fa9b8d086319c36e348", "lon": -76.97853433333333, "rental_uris": {"android": "https://dc.lft.to/lastmile_qr_scan", "ios": "https://dc.lft.to/lastmile_qr_scan"}, "fusion_lon": 0.0, "is_reserved": 0}, {"lat": 38.879225, "fusion_lat": 0.0, "type": "electric_scooter", "name": "805150724bbc18d3e6930decc1e28366", "is_disabled": 0, "bike_id": "805150724bbc18d3e6930decc1e28366", "lon": -76.99519733333334, "rental_uris": {"android": "https://dc.lft.to/lastmile_qr_scan", "ios": "https://dc.lft.to/lastmile_qr_scan"}, "fusion_lon": 0.0, "is_reserved": 0}, {"lat": 38.896892333333334, "fusion_lat": 0.0, "type": "electric_scooter", "name": "7cfe72e814f72e25642ea548b335e7cc", "is_disabled": 0, "bike_id": "7cfe72e814f72e25642ea548b335e7cc", "lon": -77.0119535, "rental_uris": {"android": "https://dc.lft.to/lastmile_qr_scan", "ios": "https://dc.lft.to/lastmile_qr_scan"}, "fusion_lon": 0.0, "is_reserved": 0}, {"lat": 38.87926383333333, "fusion_lat": 0.0, "type": "electric_bike", "name": "e5859de33b18b723adab017b26ea87a4", "is_disabled": 0, "bike_id": "e5859de33b18b723adab017b26ea87a4", "lon": -77.02356816666666, "rental_uris": {"android": "https://dc.lft.to/lastmile_qr_scan", "ios": "https://dc.lft.to/lastmile_qr_scan"}, "fusion_lon": 0.0, "is_reserved": 0}, {"lat": 38.89701216666667, "fusion_lat": 0.0, "type": "electric_scooter", "name": "563cdf3db56fef7ecfacef64bbe57420", "is_disabled": 0, "bike_id": "563cdf3db56fef7ecfacef64bbe57420", "lon": -77.02286566666666, "rental_uris": {"android": "https://dc.lft.to/lastmile_qr_scan", "ios": "https://dc.lft.to/lastmile_qr_scan"}, "fusion_lon": 0.0, "is_reserved": 0}, {"lat": 38.90359183333333, "fusion_lat": 0.0, "type": "electric_scooter", "name": "e17789609714ac7ee8fa5d327a860557", "is_disabled": 0, "bike_id": "e17789609714ac7ee8fa5d327a860557", "lon": -77.033081, "rental_uris": {"android": "https://dc.lft.to/lastmile_qr_scan", "ios": "https://dc.lft.to/lastmile_qr_scan"}, "fusion_lon": 0.0, "is_reserved": 0}, {"lat": 38.9810835, "fusion_lat": 0.0, "type": "electric_scooter", "name": "61a5a4d3afe906bef635ffc3fa3aa9fc", "is_disabled": 0, "bike_id": "61a5a4d3afe906bef635ffc3fa3aa9fc", "lon": -77.02241066666667, "rental_uris": {"android": "https://dc.lft.to/lastmile_qr_scan", "ios": "https://dc.lft.to/lastmile_qr_scan"}, "fusion_lon": 0.0, "is_reserved": 0}, {"lat": 38.93048116666667, "fusion_lat": 0.0, "type": "electric_bike", "name": "25110cda9f8c2251e0613f07ed6db9dd", "is_disabled": 0, "bike_id": "25110cda9f8c2251e0613f07ed6db9dd", "lon": -76.95834816666667, "rental_uris": {"android": "https://dc.lft.to/lastmile_qr_scan", "ios": "https://dc.lft.to/lastmile_qr_scan"}, "fusion_lon": 0.0, "is_reserved": 0}, {"lat": 38.87178333333333, "fusion_lat": 0.0, "type": "electric_scooter", "name": "9fcd713ae39116f19ede68edcc2d6245", "is_disabled": 0, "bike_id": "9fcd713ae39116f19ede68edcc2d6245", "lon": -77.00609766666666, "rental_uris": {"android": "https://dc.lft.to/lastmile_qr_scan", "ios": "https://dc.lft.to/lastmile_qr_scan"}, "fusion_lon": 0.0, "is_reserved": 0}, {"lat": 38.92375233333333, "fusion_lat": 0.0, "type": "electric_scooter", "name": "274469b556692a7aad573ef602ca65ab", "is_disabled": 0, "bike_id": "274469b556692a7aad573ef602ca65ab", "lon": -77.05150783333333, "rental_uris": {"android": "https://dc.lft.to/lastmile_qr_scan", "ios": "https://dc.lft.to/lastmile_qr_scan"}, "fusion_lon": 0.0, "is_reserved": 0}, {"lat": 38.900267, "fusion_lat": 0.0, "type": "electric_scooter", "name": "3b5e0efbf55fa1e94db458d350367a3b", "is_disabled": 0, "bike_id": "3b5e0efbf55fa1e94db458d350367a3b", "lon": -76.98766616666667, "rental_uris": {"android": "https://dc.lft.to/lastmile_qr_scan", "ios": "https://dc.lft.to/lastmile_qr_scan"}, "fusion_lon": 0.0, "is_reserved": 0}, {"lat": 38.901156, "fusion_lat": 0.0, "type": "electric_scooter", "name": "d93ae946249da2c1fd58c184cffef8bb", "is_disabled": 0, "bike_id": "d93ae946249da2c1fd58c184cffef8bb", "lon": -77.02443883333333, "rental_uris": {"android": "https://dc.lft.to/lastmile_qr_scan", "ios": "https://dc.lft.to/lastmile_qr_scan"}, "fusion_lon": 0.0, "is_reserved": 0}, {"lat": 38.9183325, "fusion_lat": 0.0, "type": "electric_scooter", "name": "1db19c516a95cb5822a03b453da38d31", "is_disabled": 0, "bike_id": "1db19c516a95cb5822a03b453da38d31", "lon": -77.03460433333333, "rental_uris": {"android": "https://dc.lft.to/lastmile_qr_scan", "ios": "https://dc.lft.to/lastmile_qr_scan"}, "fusion_lon": 0.0, "is_reserved": 0}, {"lat": 38.893661, "fusion_lat": 0.0, "type": "electric_scooter", "name": "0af5867bb3090edae01f5d4d88903a76", "is_disabled": 0, "bike_id": "0af5867bb3090edae01f5d4d88903a76", "lon": -77.028617, "rental_uris": {"android": "https://dc.lft.to/lastmile_qr_scan", "ios": "https://dc.lft.to/lastmile_qr_scan"}, "fusion_lon": 0.0, "is_reserved": 0}, {"lat": 38.85789716666667, "fusion_lat": 0.0, "type": "electric_bike", "name": "1199316ee64d2e948a68bc07eab9779d", "is_disabled": 0, "bike_id": "1199316ee64d2e948a68bc07eab9779d", "lon": -77.09958533333334, "rental_uris": {"android": "https://dc.lft.to/lastmile_qr_scan", "ios": "https://dc.lft.to/lastmile_qr_scan"}, "fusion_lon": 0.0, "is_reserved": 0}, {"lat": 39.03304283333333, "fusion_lat": 0.0, "type": "electric_bike", "name": "719cab6be844e2b609fd5dda1718bd2a", "is_disabled": 0, "bike_id": "719cab6be844e2b609fd5dda1718bd2a", "lon": -77.0452445, "rental_uris": {"android": "https://dc.lft.to/lastmile_qr_scan", "ios": "https://dc.lft.to/lastmile_qr_scan"}, "fusion_lon": 0.0, "is_reserved": 0}, {"lat": 38.9134895, "fusion_lat": 0.0, "type": "electric_scooter", "name": "471e5e432b3b48020565e2831dc81b3c", "is_disabled": 0, "bike_id": "471e5e432b3b48020565e2831dc81b3c", "lon": -77.03200933333333, "rental_uris": {"android": "https://dc.lft.to/lastmile_qr_scan", "ios": "https://dc.lft.to/lastmile_qr_scan"}, "fusion_lon": 0.0, "is_reserved": 0}, {"lat": 38.904256333333336, "fusion_lat": 0.0, "type": "electric_bike", "name": "da71f86eca7d5571ad70007694393ba2", "is_disabled": 0, "bike_id": "da71f86eca7d5571ad70007694393ba2", "lon": -76.97232433333333, "rental_uris": {"android": "https://dc.lft.to/lastmile_qr_scan", "ios": "https://dc.lft.to/lastmile_qr_scan"}, "fusion_lon": 0.0, "is_reserved": 0}, {"lat": 38.87308066666667, "fusion_lat": 0.0, "type": "electric_scooter", "name": "6a1c0de3b6a25a7c3853a2bb7c7ca2b1", "is_disabled": 0, "bike_id": "6a1c0de3b6a25a7c3853a2bb7c7ca2b1", "lon": -76.96905566666666, "rental_uris": {"android": "https://dc.lft.to/lastmile_qr_scan", "ios": "https://dc.lft.to/lastmile_qr_scan"}, "fusion_lon": 0.0, "is_reserved": 0}, {"lat": 38.8983165, "fusion_lat": 0.0, "type": "electric_scooter", "name": "fdff213f6add9bedf2c5c11e599f8d92", "is_disabled": 0, "bike_id": "fdff213f6add9bedf2c5c11e599f8d92", "lon": -77.0499455, "rental_uris": {"android": "https://dc.lft.to/lastmile_qr_scan", "ios": "https://dc.lft.to/lastmile_qr_scan"}, "fusion_lon": 0.0, "is_reserved": 0}, {"lat": 38.919089666666665, "fusion_lat": 0.0, "type": "electric_scooter", "name": "cac400e8973a5fba2c02083542977e6f", "is_disabled": 0, "bike_id": "cac400e8973a5fba2c02083542977e6f", "lon": -77.02403733333334, "rental_uris": {"android": "https://dc.lft.to/lastmile_qr_scan", "ios": "https://dc.lft.to/lastmile_qr_scan"}, "fusion_lon": 0.0, "is_reserved": 0}, {"lat": 38.9201085, "fusion_lat": 0.0, "type": "electric_scooter", "name": "31155fa15182278eaec9b939c83b93c6", "is_disabled": 0, "bike_id": "31155fa15182278eaec9b939c83b93c6", "lon": -77.03128216666667, "rental_uris": {"android": "https://dc.lft.to/lastmile_qr_scan", "ios": "https://dc.lft.to/lastmile_qr_scan"}, "fusion_lon": 0.0, "is_reserved": 0}, {"lat": 38.89039016666667, "fusion_lat": 0.0, "type": "electric_scooter", "name": "40bb7809f9ddd05da81f5970cfc8b967", "is_disabled": 0, "bike_id": "40bb7809f9ddd05da81f5970cfc8b967", "lon": -77.02568066666667, "rental_uris": {"android": "https://dc.lft.to/lastmile_qr_scan", "ios": "https://dc.lft.to/lastmile_qr_scan"}, "fusion_lon": 0.0, "is_reserved": 0}, {"lat": 38.8952505, "fusion_lat": 0.0, "type": "electric_scooter", "name": "97779585a02afcb0d2e978b6d0ca9d03", "is_disabled": 0, "bike_id": "97779585a02afcb0d2e978b6d0ca9d03", "lon": -77.02295983333333, "rental_uris": {"android": "https://dc.lft.to/lastmile_qr_scan", "ios": "https://dc.lft.to/lastmile_qr_scan"}, "fusion_lon": 0.0, "is_reserved": 0}, {"lat": 38.917046166666665, "fusion_lat": 0.0, "type": "electric_scooter", "name": "d32abf40372b4d57db0fe73e89117ef3", "is_disabled": 0, "bike_id": "d32abf40372b4d57db0fe73e89117ef3", "lon": -77.02296083333333, "rental_uris": {"android": "https://dc.lft.to/lastmile_qr_scan", "ios": "https://dc.lft.to/lastmile_qr_scan"}, "fusion_lon": 0.0, "is_reserved": 0}, {"lat": 38.901573666666664, "fusion_lat": 0.0, "type": "electric_scooter", "name": "ba9d3686caadad9491c8ca9fe06ebf12", "is_disabled": 0, "bike_id": "ba9d3686caadad9491c8ca9fe06ebf12", "lon": -76.97628816666666, "rental_uris": {"android": "https://dc.lft.to/lastmile_qr_scan", "ios": "https://dc.lft.to/lastmile_qr_scan"}, "fusion_lon": 0.0, "is_reserved": 0}, {"lat": 38.82070566666667, "fusion_lat": 0.0, "type": "electric_bike", "name": "4d40807ce474b0d09909091747ca5b98", "is_disabled": 0, "bike_id": "4d40807ce474b0d09909091747ca5b98", "lon": -77.05373966666667, "rental_uris": {"android": "https://dc.lft.to/lastmile_qr_scan", "ios": "https://dc.lft.to/lastmile_qr_scan"}, "fusion_lon": 0.0, "is_reserved": 0}, {"lat": 38.916238, "fusion_lat": 0.0, "type": "electric_scooter", "name": "a1d90908d04c1189cfce90e7be969653", "is_disabled": 0, "bike_id": "a1d90908d04c1189cfce90e7be969653", "lon": -77.03736433333333, "rental_uris": {"android": "https://dc.lft.to/lastmile_qr_scan", "ios": "https://dc.lft.to/lastmile_qr_scan"}, "fusion_lon": 0.0, "is_reserved": 0}, {"lat": 38.910241666666664, "fusion_lat": 0.0, "type": "electric_scooter", "name": "d06dfa8d792d0fdf7e70330381ac8f23", "is_disabled": 0, "bike_id": "d06dfa8d792d0fdf7e70330381ac8f23", "lon": -77.03194416666666, "rental_uris": {"android": "https://dc.lft.to/lastmile_qr_scan", "ios": "https://dc.lft.to/lastmile_qr_scan"}, "fusion_lon": 0.0, "is_reserved": 0}, {"lat": 38.920692, "fusion_lat": 0.0, "type": "electric_scooter", "name": "701f0d3e25f6cce9e1c89fd414164896", "is_disabled": 0, "bike_id": "701f0d3e25f6cce9e1c89fd414164896", "lon": -77.02523133333334, "rental_uris": {"android": "https://dc.lft.to/lastmile_qr_scan", "ios": "https://dc.lft.to/lastmile_qr_scan"}, "fusion_lon": 0.0, "is_reserved": 0}, {"lat": 38.87508916666667, "fusion_lat": 0.0, "type": "electric_scooter", "name": "67dc7a687e6c577490317c717ef4039d", "is_disabled": 0, "bike_id": "67dc7a687e6c577490317c717ef4039d", "lon": -77.00933666666667, "rental_uris": {"android": "https://dc.lft.to/lastmile_qr_scan", "ios": "https://dc.lft.to/lastmile_qr_scan"}, "fusion_lon": 0.0, "is_reserved": 0}, {"lat": 38.87652116666667, "fusion_lat": 0.0, "type": "electric_scooter", "name": "ff7763ab994e8b535ac58512e29c7074", "is_disabled": 0, "bike_id": "ff7763ab994e8b535ac58512e29c7074", "lon": -77.00852666666667, "rental_uris": {"android": "https://dc.lft.to/lastmile_qr_scan", "ios": "https://dc.lft.to/lastmile_qr_scan"}, "fusion_lon": 0.0, "is_reserved": 0}, {"lat": 38.90119133333334, "fusion_lat": 0.0, "type": "electric_scooter", "name": "243fd941172222a5da3298f43fead818", "is_disabled": 0, "bike_id": "243fd941172222a5da3298f43fead818", "lon": -77.01752883333333, "rental_uris": {"android": "https://dc.lft.to/lastmile_qr_scan", "ios": "https://dc.lft.to/lastmile_qr_scan"}, "fusion_lon": 0.0, "is_reserved": 0}, {"lat": 38.9295945, "fusion_lat": 0.0, "type": "electric_scooter", "name": "e625a9e0609e6dab9b659e6ccb8beccb", "is_disabled": 0, "bike_id": "e625a9e0609e6dab9b659e6ccb8beccb", "lon": -77.011432, "rental_uris": {"android": "https://dc.lft.to/lastmile_qr_scan", "ios": "https://dc.lft.to/lastmile_qr_scan"}, "fusion_lon": 0.0, "is_reserved": 0}, {"lat": 38.90688016666667, "fusion_lat": 0.0, "type": "electric_scooter", "name": "154bf5adbd22f6d82afe6267c74dbea3", "is_disabled": 0, "bike_id": "154bf5adbd22f6d82afe6267c74dbea3", "lon": -77.03631616666667, "rental_uris": {"android": "https://dc.lft.to/lastmile_qr_scan", "ios": "https://dc.lft.to/lastmile_qr_scan"}, "fusion_lon": 0.0, "is_reserved": 0}, {"lat": 38.928003833333335, "fusion_lat": 0.0, "type": "electric_scooter", "name": "797725098c382897636a13485304d4cc", "is_disabled": 0, "bike_id": "797725098c382897636a13485304d4cc", "lon": -77.01408916666666, "rental_uris": {"android": "https://dc.lft.to/lastmile_qr_scan", "ios": "https://dc.lft.to/lastmile_qr_scan"}, "fusion_lon": 0.0, "is_reserved": 0}, {"lat": 38.941857666666664, "fusion_lat": 0.0, "type": "electric_scooter", "name": "eb008a73e20bffcce9c668782dd8c464", "is_disabled": 0, "bike_id": "eb008a73e20bffcce9c668782dd8c464", "lon": -77.02487633333334, "rental_uris": {"android": "https://dc.lft.to/lastmile_qr_scan", "ios": "https://dc.lft.to/lastmile_qr_scan"}, "fusion_lon": 0.0, "is_reserved": 0}, {"lat": 38.94224116666667, "fusion_lat": 0.0, "type": "electric_bike", "name": "cd0649f99185d59b28254e56380fac33", "is_disabled": 0, "bike_id": "cd0649f99185d59b28254e56380fac33", "lon": -76.99071016666667, "rental_uris": {"android": "https://dc.lft.to/lastmile_qr_scan", "ios": "https://dc.lft.to/lastmile_qr_scan"}, "fusion_lon": 0.0, "is_reserved": 0}, {"lat": 38.896088666666664, "fusion_lat": 0.0, "type": "electric_scooter", "name": "4ae0e9fac4dd011f3c5cfbcf30d42c4f", "is_disabled": 0, "bike_id": "4ae0e9fac4dd011f3c5cfbcf30d42c4f", "lon": -77.00923833333333, "rental_uris": {"android": "https://dc.lft.to/lastmile_qr_scan", "ios": "https://dc.lft.to/lastmile_qr_scan"}, "fusion_lon": 0.0, "is_reserved": 0}, {"lat": 38.915424, "fusion_lat": 0.0, "type": "electric_scooter", "name": "f20627e116f8a3ff5d4dfde9b7e72c15", "is_disabled": 0, "bike_id": "f20627e116f8a3ff5d4dfde9b7e72c15", "lon": -77.01268483333334, "rental_uris": {"android": "https://dc.lft.to/lastmile_qr_scan", "ios": "https://dc.lft.to/lastmile_qr_scan"}, "fusion_lon": 0.0, "is_reserved": 0}, {"lat": 38.9170935, "fusion_lat": 0.0, "type": "electric_scooter", "name": "e7fe09b165cd67e3c748b8883e70243a", "is_disabled": 0, "bike_id": "e7fe09b165cd67e3c748b8883e70243a", "lon": -77.03469316666667, "rental_uris": {"android": "https://dc.lft.to/lastmile_qr_scan", "ios": "https://dc.lft.to/lastmile_qr_scan"}, "fusion_lon": 0.0, "is_reserved": 0}, {"lat": 38.90520316666667, "fusion_lat": 0.0, "type": "electric_scooter", "name": "5510f1d78c0352a4daadec1bfce5ed8d", "is_disabled": 0, "bike_id": "5510f1d78c0352a4daadec1bfce5ed8d", "lon": -77.01894116666666, "rental_uris": {"android": "https://dc.lft.to/lastmile_qr_scan", "ios": "https://dc.lft.to/lastmile_qr_scan"}, "fusion_lon": 0.0, "is_reserved": 0}, {"lat": 38.89525716666667, "fusion_lat": 0.0, "type": "electric_scooter", "name": "6811d33e58a157196ae3a50c9eb95917", "is_disabled": 0, "bike_id": "6811d33e58a157196ae3a50c9eb95917", "lon": -77.001962, "rental_uris": {"android": "https://dc.lft.to/lastmile_qr_scan", "ios": "https://dc.lft.to/lastmile_qr_scan"}, "fusion_lon": 0.0, "is_reserved": 0}, {"lat": 38.88363183333333, "fusion_lat": 0.0, "type": "electric_scooter", "name": "b07c74fded7996a28f781e7bcaff7101", "is_disabled": 0, "bike_id": "b07c74fded7996a28f781e7bcaff7101", "lon": -76.94152966666667, "rental_uris": {"android": "https://dc.lft.to/lastmile_qr_scan", "ios": "https://dc.lft.to/lastmile_qr_scan"}, "fusion_lon": 0.0, "is_reserved": 0}, {"lat": 38.9048865, "fusion_lat": 0.0, "type": "electric_scooter", "name": "ce1d855bfd404b25cc200bf285a7bcc5", "is_disabled": 0, "bike_id": "ce1d855bfd404b25cc200bf285a7bcc5", "lon": -77.04479633333334, "rental_uris": {"android": "https://dc.lft.to/lastmile_qr_scan", "ios": "https://dc.lft.to/lastmile_qr_scan"}, "fusion_lon": 0.0, "is_reserved": 0}, {"lat": 38.806539666666666, "fusion_lat": 0.0, "type": "electric_bike", "name": "d95129851017029d1c14fec2fe63ba15", "is_disabled": 0, "bike_id": "d95129851017029d1c14fec2fe63ba15", "lon": -77.087561, "rental_uris": {"android": "https://dc.lft.to/lastmile_qr_scan", "ios": "https://dc.lft.to/lastmile_qr_scan"}, "fusion_lon": 0.0, "is_reserved": 0}, {"lat": 38.900255333333334, "fusion_lat": 0.0, "type": "electric_scooter", "name": "c4fa37c5e180f474ef3b7633033c01d2", "is_disabled": 0, "bike_id": "c4fa37c5e180f474ef3b7633033c01d2", "lon": -77.01189433333333, "rental_uris": {"android": "https://dc.lft.to/lastmile_qr_scan", "ios": "https://dc.lft.to/lastmile_qr_scan"}, "fusion_lon": 0.0, "is_reserved": 0}, {"lat": 38.86504633333333, "fusion_lat": 0.0, "type": "electric_scooter", "name": "9712ce4a122a594376f417ada24cf34a", "is_disabled": 0, "bike_id": "9712ce4a122a594376f417ada24cf34a", "lon": -76.990065, "rental_uris": {"android": "https://dc.lft.to/lastmile_qr_scan", "ios": "https://dc.lft.to/lastmile_qr_scan"}, "fusion_lon": 0.0, "is_reserved": 0}, {"lat": 38.905381166666665, "fusion_lat": 0.0, "type": "electric_scooter", "name": "f9adec8ac6d7ba2cd2e00ce7a9bd0458", "is_disabled": 0, "bike_id": "f9adec8ac6d7ba2cd2e00ce7a9bd0458", "lon": -77.04166383333333, "rental_uris": {"android": "https://dc.lft.to/lastmile_qr_scan", "ios": "https://dc.lft.to/lastmile_qr_scan"}, "fusion_lon": 0.0, "is_reserved": 0}, {"lat": 38.939097833333335, "fusion_lat": 0.0, "type": "electric_scooter", "name": "abf8d27ba7dccb62035ef84b6c507acd", "is_disabled": 0, "bike_id": "abf8d27ba7dccb62035ef84b6c507acd", "lon": -77.06037866666667, "rental_uris": {"android": "https://dc.lft.to/lastmile_qr_scan", "ios": "https://dc.lft.to/lastmile_qr_scan"}, "fusion_lon": 0.0, "is_reserved": 0}, {"lat": 38.920712333333334, "fusion_lat": 0.0, "type": "electric_bike", "name": "b13be7520c33cd0d26dc0f74b1c390b6", "is_disabled": 0, "bike_id": "b13be7520c33cd0d26dc0f74b1c390b6", "lon": -77.0745055, "rental_uris": {"android": "https://dc.lft.to/lastmile_qr_scan", "ios": "https://dc.lft.to/lastmile_qr_scan"}, "fusion_lon": 0.0, "is_reserved": 0}, {"lat": 38.922529, "fusion_lat": 0.0, "type": "electric_scooter", "name": "f027c9ec21b3550619f9c5cb2172adfc", "is_disabled": 0, "bike_id": "f027c9ec21b3550619f9c5cb2172adfc", "lon": -77.03519516666667, "rental_uris": {"android": "https://dc.lft.to/lastmile_qr_scan", "ios": "https://dc.lft.to/lastmile_qr_scan"}, "fusion_lon": 0.0, "is_reserved": 0}, {"lat": 38.903841, "fusion_lat": 0.0, "type": "electric_scooter", "name": "2b9a3c1709a41b4fe59295c2f3a702a4", "is_disabled": 0, "bike_id": "2b9a3c1709a41b4fe59295c2f3a702a4", "lon": -77.04531133333333, "rental_uris": {"android": "https://dc.lft.to/lastmile_qr_scan", "ios": "https://dc.lft.to/lastmile_qr_scan"}, "fusion_lon": 0.0, "is_reserved": 0}, {"lat": 38.90727966666667, "fusion_lat": 0.0, "type": "electric_scooter", "name": "a554b71cfcca541539de067004bf3d1a", "is_disabled": 0, "bike_id": "a554b71cfcca541539de067004bf3d1a", "lon": -77.04282166666667, "rental_uris": {"android": "https://dc.lft.to/lastmile_qr_scan", "ios": "https://dc.lft.to/lastmile_qr_scan"}, "fusion_lon": 0.0, "is_reserved": 0}, {"lat": 38.874580333333334, "fusion_lat": 0.0, "type": "electric_scooter", "name": "dea8964bbe554bba03dfb8aadb7f7607", "is_disabled": 0, "bike_id": "dea8964bbe554bba03dfb8aadb7f7607", "lon": -77.00056516666666, "rental_uris": {"android": "https://dc.lft.to/lastmile_qr_scan", "ios": "https://dc.lft.to/lastmile_qr_scan"}, "fusion_lon": 0.0, "is_reserved": 0}, {"lat": 38.862376833333336, "fusion_lat": 0.0, "type": "electric_bike", "name": "ccf7a8dbe6d3f459c877493a840963f5", "is_disabled": 0, "bike_id": "ccf7a8dbe6d3f459c877493a840963f5", "lon": -76.95278583333334, "rental_uris": {"android": "https://dc.lft.to/lastmile_qr_scan", "ios": "https://dc.lft.to/lastmile_qr_scan"}, "fusion_lon": 0.0, "is_reserved": 0}, {"lat": 38.91318483333333, "fusion_lat": 0.0, "type": "electric_scooter", "name": "3df9fd7a1e6dcebb6b1823eb06b1c84a", "is_disabled": 0, "bike_id": "3df9fd7a1e6dcebb6b1823eb06b1c84a", "lon": -77.033234, "rental_uris": {"android": "https://dc.lft.to/lastmile_qr_scan", "ios": "https://dc.lft.to/lastmile_qr_scan"}, "fusion_lon": 0.0, "is_reserved": 0}, {"lat": 38.92322133333333, "fusion_lat": 0.0, "type": "electric_scooter", "name": "be334a73a9fcb9d2d6d22994be12fa25", "is_disabled": 0, "bike_id": "be334a73a9fcb9d2d6d22994be12fa25", "lon": -77.01900516666667, "rental_uris": {"android": "https://dc.lft.to/lastmile_qr_scan", "ios": "https://dc.lft.to/lastmile_qr_scan"}, "fusion_lon": 0.0, "is_reserved": 0}, {"lat": 38.90672283333333, "fusion_lat": 0.0, "type": "electric_scooter", "name": "719caa1dababf70a81aba4e6858d48d8", "is_disabled": 0, "bike_id": "719caa1dababf70a81aba4e6858d48d8", "lon": -77.02706016666667, "rental_uris": {"android": "https://dc.lft.to/lastmile_qr_scan", "ios": "https://dc.lft.to/lastmile_qr_scan"}, "fusion_lon": 0.0, "is_reserved": 0}, {"lat": 38.89350316666667, "fusion_lat": 0.0, "type": "electric_bike", "name": "710d28fcf6493d5e222c931cca5cd785", "is_disabled": 0, "bike_id": "710d28fcf6493d5e222c931cca5cd785", "lon": -77.18746983333334, "rental_uris": {"android": "https://dc.lft.to/lastmile_qr_scan", "ios": "https://dc.lft.to/lastmile_qr_scan"}, "fusion_lon": 0.0, "is_reserved": 0}, {"lat": 38.9168395, "fusion_lat": 0.0, "type": "electric_scooter", "name": "0f24ca5996f5647ea709fbdf67d1d31b", "is_disabled": 0, "bike_id": "0f24ca5996f5647ea709fbdf67d1d31b", "lon": -77.0295455, "rental_uris": {"android": "https://dc.lft.to/lastmile_qr_scan", "ios": "https://dc.lft.to/lastmile_qr_scan"}, "fusion_lon": 0.0, "is_reserved": 0}, {"lat": 38.9259005, "fusion_lat": 0.0, "type": "electric_scooter", "name": "d20ada552383711ab91761a7b1d4e3ed", "is_disabled": 0, "bike_id": "d20ada552383711ab91761a7b1d4e3ed", "lon": -77.03230233333333, "rental_uris": {"android": "https://dc.lft.to/lastmile_qr_scan", "ios": "https://dc.lft.to/lastmile_qr_scan"}, "fusion_lon": 0.0, "is_reserved": 0}, {"lat": 38.9105055, "fusion_lat": 0.0, "type": "electric_scooter", "name": "cbcdc417c83d7fbeb4f52e67c9e638e2", "is_disabled": 0, "bike_id": "cbcdc417c83d7fbeb4f52e67c9e638e2", "lon": -77.0218975, "rental_uris": {"android": "https://dc.lft.to/lastmile_qr_scan", "ios": "https://dc.lft.to/lastmile_qr_scan"}, "fusion_lon": 0.0, "is_reserved": 0}, {"lat": 38.896243166666665, "fusion_lat": 0.0, "type": "electric_scooter", "name": "6fea9f77e59b80df94ff55d9cc478225", "is_disabled": 0, "bike_id": "6fea9f77e59b80df94ff55d9cc478225", "lon": -77.03949416666667, "rental_uris": {"android": "https://dc.lft.to/lastmile_qr_scan", "ios": "https://dc.lft.to/lastmile_qr_scan"}, "fusion_lon": 0.0, "is_reserved": 0}, {"lat": 38.91922816666667, "fusion_lat": 0.0, "type": "electric_scooter", "name": "40220e8984b9599a21f77310a3e184a9", "is_disabled": 0, "bike_id": "40220e8984b9599a21f77310a3e184a9", "lon": -77.02069916666666, "rental_uris": {"android": "https://dc.lft.to/lastmile_qr_scan", "ios": "https://dc.lft.to/lastmile_qr_scan"}, "fusion_lon": 0.0, "is_reserved": 0}, {"lat": 38.922707, "fusion_lat": 0.0, "type": "electric_scooter", "name": "243b393213bfefd0071d8295b9dce7e2", "is_disabled": 0, "bike_id": "243b393213bfefd0071d8295b9dce7e2", "lon": -77.0211905, "rental_uris": {"android": "https://dc.lft.to/lastmile_qr_scan", "ios": "https://dc.lft.to/lastmile_qr_scan"}, "fusion_lon": 0.0, "is_reserved": 0}, {"lat": 38.83374366666666, "fusion_lat": 0.0, "type": "electric_bike", "name": "f8a4389d760336e2d2cce34ba958a2e8", "is_disabled": 0, "bike_id": "f8a4389d760336e2d2cce34ba958a2e8", "lon": -77.00292283333333, "rental_uris": {"android": "https://dc.lft.to/lastmile_qr_scan", "ios": "https://dc.lft.to/lastmile_qr_scan"}, "fusion_lon": 0.0, "is_reserved": 0}, {"lat": 38.90328316666667, "fusion_lat": 0.0, "type": "electric_scooter", "name": "c3e839b1190c1ad82c0da616d1812844", "is_disabled": 0, "bike_id": "c3e839b1190c1ad82c0da616d1812844", "lon": -77.03455466666666, "rental_uris": {"android": "https://dc.lft.to/lastmile_qr_scan", "ios": "https://dc.lft.to/lastmile_qr_scan"}, "fusion_lon": 0.0, "is_reserved": 0}, {"lat": 38.89884966666666, "fusion_lat": 0.0, "type": "electric_scooter", "name": "6d54420a4805666ffeaf6b0e47c380c0", "is_disabled": 0, "bike_id": "6d54420a4805666ffeaf6b0e47c380c0", "lon": -77.00920966666666, "rental_uris": {"android": "https://dc.lft.to/lastmile_qr_scan", "ios": "https://dc.lft.to/lastmile_qr_scan"}, "fusion_lon": 0.0, "is_reserved": 0}, {"lat": 38.87715716666666, "fusion_lat": 0.0, "type": "electric_scooter", "name": "0ec623d1b31c80059f053d21b1e07d52", "is_disabled": 0, "bike_id": "0ec623d1b31c80059f053d21b1e07d52", "lon": -77.0032785, "rental_uris": {"android": "https://dc.lft.to/lastmile_qr_scan", "ios": "https://dc.lft.to/lastmile_qr_scan"}, "fusion_lon": 0.0, "is_reserved": 0}, {"lat": 38.931573, "fusion_lat": 0.0, "type": "electric_scooter", "name": "35918fd1eb1631fe24efbd91bc354053", "is_disabled": 0, "bike_id": "35918fd1eb1631fe24efbd91bc354053", "lon": -77.03607416666667, "rental_uris": {"android": "https://dc.lft.to/lastmile_qr_scan", "ios": "https://dc.lft.to/lastmile_qr_scan"}, "fusion_lon": 0.0, "is_reserved": 0}, {"lat": 38.90030983333333, "fusion_lat": 0.0, "type": "electric_scooter", "name": "2bae5ef0010b457ad6b86ecdacdd8424", "is_disabled": 0, "bike_id": "2bae5ef0010b457ad6b86ecdacdd8424", "lon": -77.04032866666667, "rental_uris": {"android": "https://dc.lft.to/lastmile_qr_scan", "ios": "https://dc.lft.to/lastmile_qr_scan"}, "fusion_lon": 0.0, "is_reserved": 0}, {"lat": 38.917048666666666, "fusion_lat": 0.0, "type": "electric_scooter", "name": "e3da9ca7d43bb1fa3369fb1b9fa77578", "is_disabled": 0, "bike_id": "e3da9ca7d43bb1fa3369fb1b9fa77578", "lon": -77.04172866666667, "rental_uris": {"android": "https://dc.lft.to/lastmile_qr_scan", "ios": "https://dc.lft.to/lastmile_qr_scan"}, "fusion_lon": 0.0, "is_reserved": 0}, {"lat": 38.89491833333334, "fusion_lat": 0.0, "type": "electric_scooter", "name": "87e0950a053b9813529b4eaebef294f2", "is_disabled": 0, "bike_id": "87e0950a053b9813529b4eaebef294f2", "lon": -77.00296083333333, "rental_uris": {"android": "https://dc.lft.to/lastmile_qr_scan", "ios": "https://dc.lft.to/lastmile_qr_scan"}, "fusion_lon": 0.0, "is_reserved": 0}, {"lat": 38.896883, "fusion_lat": 0.0, "type": "electric_scooter", "name": "a8febb6a3855ad1317588533e6557c79", "is_disabled": 0, "bike_id": "a8febb6a3855ad1317588533e6557c79", "lon": -77.02408633333333, "rental_uris": {"android": "https://dc.lft.to/lastmile_qr_scan", "ios": "https://dc.lft.to/lastmile_qr_scan"}, "fusion_lon": 0.0, "is_reserved": 0}, {"lat": 38.902079666666666, "fusion_lat": 0.0, "type": "electric_scooter", "name": "004c802de707753d2d2a2b6969192b5e", "is_disabled": 0, "bike_id": "004c802de707753d2d2a2b6969192b5e", "lon": -77.0416915, "rental_uris": {"android": "https://dc.lft.to/lastmile_qr_scan", "ios": "https://dc.lft.to/lastmile_qr_scan"}, "fusion_lon": 0.0, "is_reserved": 0}, {"lat": 38.915905333333335, "fusion_lat": 0.0, "type": "electric_scooter", "name": "e76e3b474b376acdb4ade0a44fae4231", "is_disabled": 0, "bike_id": "e76e3b474b376acdb4ade0a44fae4231", "lon": -77.023081, "rental_uris": {"android": "https://dc.lft.to/lastmile_qr_scan", "ios": "https://dc.lft.to/lastmile_qr_scan"}, "fusion_lon": 0.0, "is_reserved": 0}, {"lat": 38.89223633333334, "fusion_lat": 0.0, "type": "electric_scooter", "name": "e79d295bad78dac894dcf8f4303598a4", "is_disabled": 0, "bike_id": "e79d295bad78dac894dcf8f4303598a4", "lon": -77.04373416666667, "rental_uris": {"android": "https://dc.lft.to/lastmile_qr_scan", "ios": "https://dc.lft.to/lastmile_qr_scan"}, "fusion_lon": 0.0, "is_reserved": 0}, {"lat": 38.892222833333335, "fusion_lat": 0.0, "type": "electric_scooter", "name": "a8d65c0ae95241fa8f73db278effe907", "is_disabled": 0, "bike_id": "a8d65c0ae95241fa8f73db278effe907", "lon": -77.04638566666667, "rental_uris": {"android": "https://dc.lft.to/lastmile_qr_scan", "ios": "https://dc.lft.to/lastmile_qr_scan"}, "fusion_lon": 0.0, "is_reserved": 0}, {"lat": 38.938658, "fusion_lat": 0.0, "type": "electric_bike", "name": "f1cf0b441d3c6ab0880d902d91abbc45", "is_disabled": 0, "bike_id": "f1cf0b441d3c6ab0880d902d91abbc45", "lon": -77.02461033333333, "rental_uris": {"android": "https://dc.lft.to/lastmile_qr_scan", "ios": "https://dc.lft.to/lastmile_qr_scan"}, "fusion_lon": 0.0, "is_reserved": 0}, {"lat": 38.8996525, "fusion_lat": 0.0, "type": "electric_scooter", "name": "1a04cb4a4fd95859cde2e78df898c279", "is_disabled": 0, "bike_id": "1a04cb4a4fd95859cde2e78df898c279", "lon": -77.03075516666667, "rental_uris": {"android": "https://dc.lft.to/lastmile_qr_scan", "ios": "https://dc.lft.to/lastmile_qr_scan"}, "fusion_lon": 0.0, "is_reserved": 0}, {"lat": 38.92481316666667, "fusion_lat": 0.0, "type": "electric_scooter", "name": "dc8a580ab283b6a2b5f64a36f72d2eaa", "is_disabled": 0, "bike_id": "dc8a580ab283b6a2b5f64a36f72d2eaa", "lon": -77.02191566666667, "rental_uris": {"android": "https://dc.lft.to/lastmile_qr_scan", "ios": "https://dc.lft.to/lastmile_qr_scan"}, "fusion_lon": 0.0, "is_reserved": 0}, {"lat": 38.89471316666667, "fusion_lat": 0.0, "type": "electric_scooter", "name": "6d32c8a7b31dca713192e8f91f54c7e4", "is_disabled": 0, "bike_id": "6d32c8a7b31dca713192e8f91f54c7e4", "lon": -77.017518, "rental_uris": {"android": "https://dc.lft.to/lastmile_qr_scan", "ios": "https://dc.lft.to/lastmile_qr_scan"}, "fusion_lon": 0.0, "is_reserved": 0}, {"lat": 38.9441815, "fusion_lat": 0.0, "type": "electric_scooter", "name": "740d92c966f00e4c7ab38f4bba132825", "is_disabled": 0, "bike_id": "740d92c966f00e4c7ab38f4bba132825", "lon": -77.06389616666667, "rental_uris": {"android": "https://dc.lft.to/lastmile_qr_scan", "ios": "https://dc.lft.to/lastmile_qr_scan"}, "fusion_lon": 0.0, "is_reserved": 0}, {"lat": 38.897908, "fusion_lat": 0.0, "type": "electric_scooter", "name": "e38c709c232210e324ac99a6072100b9", "is_disabled": 0, "bike_id": "e38c709c232210e324ac99a6072100b9", "lon": -76.93111783333333, "rental_uris": {"android": "https://dc.lft.to/lastmile_qr_scan", "ios": "https://dc.lft.to/lastmile_qr_scan"}, "fusion_lon": 0.0, "is_reserved": 0}, {"lat": 38.9737895, "fusion_lat": 0.0, "type": "electric_scooter", "name": "5fdf1454c769395c7ad05be6f395a234", "is_disabled": 0, "bike_id": "5fdf1454c769395c7ad05be6f395a234", "lon": -77.018065, "rental_uris": {"android": "https://dc.lft.to/lastmile_qr_scan", "ios": "https://dc.lft.to/lastmile_qr_scan"}, "fusion_lon": 0.0, "is_reserved": 0}, {"lat": 38.865042833333334, "fusion_lat": 0.0, "type": "electric_scooter", "name": "7bcb2b49dd7e8f6e9eb7f1fd6c9fa4f7", "is_disabled": 0, "bike_id": "7bcb2b49dd7e8f6e9eb7f1fd6c9fa4f7", "lon": -76.99000566666666, "rental_uris": {"android": "https://dc.lft.to/lastmile_qr_scan", "ios": "https://dc.lft.to/lastmile_qr_scan"}, "fusion_lon": 0.0, "is_reserved": 0}, {"lat": 38.901199166666665, "fusion_lat": 0.0, "type": "electric_scooter", "name": "47650de52cc98e3b303400f1de560241", "is_disabled": 0, "bike_id": "47650de52cc98e3b303400f1de560241", "lon": -77.03827983333333, "rental_uris": {"android": "https://dc.lft.to/lastmile_qr_scan", "ios": "https://dc.lft.to/lastmile_qr_scan"}, "fusion_lon": 0.0, "is_reserved": 0}, {"lat": 38.9111985, "fusion_lat": 0.0, "type": "electric_bike", "name": "bbf6eb6022889926ffd5c7d5ec3195d4", "is_disabled": 0, "bike_id": "bbf6eb6022889926ffd5c7d5ec3195d4", "lon": -77.0446505, "rental_uris": {"android": "https://dc.lft.to/lastmile_qr_scan", "ios": "https://dc.lft.to/lastmile_qr_scan"}, "fusion_lon": 0.0, "is_reserved": 0}, {"lat": 38.90708266666667, "fusion_lat": 0.0, "type": "electric_scooter", "name": "de0fcf8576c6d3121f21f509f1669060", "is_disabled": 0, "bike_id": "de0fcf8576c6d3121f21f509f1669060", "lon": -77.02390316666667, "rental_uris": {"android": "https://dc.lft.to/lastmile_qr_scan", "ios": "https://dc.lft.to/lastmile_qr_scan"}, "fusion_lon": 0.0, "is_reserved": 0}, {"lat": 38.92356766666666, "fusion_lat": 0.0, "type": "electric_scooter", "name": "bd655b07338e2ceab56262a3a24e431f", "is_disabled": 0, "bike_id": "bd655b07338e2ceab56262a3a24e431f", "lon": -77.05044266666667, "rental_uris": {"android": "https://dc.lft.to/lastmile_qr_scan", "ios": "https://dc.lft.to/lastmile_qr_scan"}, "fusion_lon": 0.0, "is_reserved": 0}, {"lat": 38.90776666666667, "fusion_lat": 0.0, "type": "electric_scooter", "name": "bd90b807f34632ee2ce0c2cfc49f83f5", "is_disabled": 0, "bike_id": "bd90b807f34632ee2ce0c2cfc49f83f5", "lon": -77.0716405, "rental_uris": {"android": "https://dc.lft.to/lastmile_qr_scan", "ios": "https://dc.lft.to/lastmile_qr_scan"}, "fusion_lon": 0.0, "is_reserved": 0}, {"lat": 38.95102083333333, "fusion_lat": 0.0, "type": "electric_scooter", "name": "d3df0b1871155c2085ca172389af0892", "is_disabled": 0, "bike_id": "d3df0b1871155c2085ca172389af0892", "lon": -77.097137, "rental_uris": {"android": "https://dc.lft.to/lastmile_qr_scan", "ios": "https://dc.lft.to/lastmile_qr_scan"}, "fusion_lon": 0.0, "is_reserved": 0}, {"lat": 38.90412966666667, "fusion_lat": 0.0, "type": "electric_scooter", "name": "7faec61d804adc7b443d6cabef7cfdd5", "is_disabled": 0, "bike_id": "7faec61d804adc7b443d6cabef7cfdd5", "lon": -77.0500375, "rental_uris": {"android": "https://dc.lft.to/lastmile_qr_scan", "ios": "https://dc.lft.to/lastmile_qr_scan"}, "fusion_lon": 0.0, "is_reserved": 0}, {"lat": 38.98508416666667, "fusion_lat": 0.0, "type": "electric_bike", "name": "3743e38383d095beead41322baa2a421", "is_disabled": 0, "bike_id": "3743e38383d095beead41322baa2a421", "lon": -76.98211716666667, "rental_uris": {"android": "https://dc.lft.to/lastmile_qr_scan", "ios": "https://dc.lft.to/lastmile_qr_scan"}, "fusion_lon": 0.0, "is_reserved": 0}, {"lat": 38.87634083333333, "fusion_lat": 0.0, "type": "electric_scooter", "name": "421744a26564a507f78faa773cfdb4fa", "is_disabled": 0, "bike_id": "421744a26564a507f78faa773cfdb4fa", "lon": -77.0037035, "rental_uris": {"android": "https://dc.lft.to/lastmile_qr_scan", "ios": "https://dc.lft.to/lastmile_qr_scan"}, "fusion_lon": 0.0, "is_reserved": 0}, {"lat": 38.907780333333335, "fusion_lat": 0.0, "type": "electric_scooter", "name": "2acf0fad28a3facb1456c3311335c33b", "is_disabled": 0, "bike_id": "2acf0fad28a3facb1456c3311335c33b", "lon": -77.02709483333334, "rental_uris": {"android": "https://dc.lft.to/lastmile_qr_scan", "ios": "https://dc.lft.to/lastmile_qr_scan"}, "fusion_lon": 0.0, "is_reserved": 0}, {"lat": 38.92267866666667, "fusion_lat": 0.0, "type": "electric_scooter", "name": "66472f25e973fce0720f5ac1e73e407b", "is_disabled": 0, "bike_id": "66472f25e973fce0720f5ac1e73e407b", "lon": -77.042351, "rental_uris": {"android": "https://dc.lft.to/lastmile_qr_scan", "ios": "https://dc.lft.to/lastmile_qr_scan"}, "fusion_lon": 0.0, "is_reserved": 0}, {"lat": 38.951898666666665, "fusion_lat": 0.0, "type": "electric_scooter", "name": "174af2d589063ed0a80cc1f5e2429b7a", "is_disabled": 0, "bike_id": "174af2d589063ed0a80cc1f5e2429b7a", "lon": -77.02720466666666, "rental_uris": {"android": "https://dc.lft.to/lastmile_qr_scan", "ios": "https://dc.lft.to/lastmile_qr_scan"}, "fusion_lon": 0.0, "is_reserved": 0}, {"lat": 38.884876, "fusion_lat": 0.0, "type": "electric_scooter", "name": "9421d982ee146c4ad74921f238964041", "is_disabled": 0, "bike_id": "9421d982ee146c4ad74921f238964041", "lon": -77.007091, "rental_uris": {"android": "https://dc.lft.to/lastmile_qr_scan", "ios": "https://dc.lft.to/lastmile_qr_scan"}, "fusion_lon": 0.0, "is_reserved": 0}, {"lat": 38.917616833333334, "fusion_lat": 0.0, "type": "electric_scooter", "name": "cc7715060c0181ad00a87927a1dd36de", "is_disabled": 0, "bike_id": "cc7715060c0181ad00a87927a1dd36de", "lon": -77.02487016666667, "rental_uris": {"android": "https://dc.lft.to/lastmile_qr_scan", "ios": "https://dc.lft.to/lastmile_qr_scan"}, "fusion_lon": 0.0, "is_reserved": 0}, {"lat": 38.860294, "fusion_lat": 0.0, "type": "electric_scooter", "name": "b62b99ef3c9c41723ca1f508a664bfd0", "is_disabled": 0, "bike_id": "b62b99ef3c9c41723ca1f508a664bfd0", "lon": -76.967199, "rental_uris": {"android": "https://dc.lft.to/lastmile_qr_scan", "ios": "https://dc.lft.to/lastmile_qr_scan"}, "fusion_lon": 0.0, "is_reserved": 0}, {"lat": 38.898950166666665, "fusion_lat": 0.0, "type": "electric_scooter", "name": "6a3b04ca3e8942d68162a1a743ec3582", "is_disabled": 0, "bike_id": "6a3b04ca3e8942d68162a1a743ec3582", "lon": -77.04669283333334, "rental_uris": {"android": "https://dc.lft.to/lastmile_qr_scan", "ios": "https://dc.lft.to/lastmile_qr_scan"}, "fusion_lon": 0.0, "is_reserved": 0}, {"lat": 38.906883666666666, "fusion_lat": 0.0, "type": "electric_scooter", "name": "4f23f19df187e1f348231772690e8011", "is_disabled": 0, "bike_id": "4f23f19df187e1f348231772690e8011", "lon": -77.02376016666666, "rental_uris": {"android": "https://dc.lft.to/lastmile_qr_scan", "ios": "https://dc.lft.to/lastmile_qr_scan"}, "fusion_lon": 0.0, "is_reserved": 0}, {"lat": 38.90171616666667, "fusion_lat": 0.0, "type": "electric_scooter", "name": "dfa590fda3525a129c5ea1de1a6a42c0", "is_disabled": 0, "bike_id": "dfa590fda3525a129c5ea1de1a6a42c0", "lon": -77.04862466666667, "rental_uris": {"android": "https://dc.lft.to/lastmile_qr_scan", "ios": "https://dc.lft.to/lastmile_qr_scan"}, "fusion_lon": 0.0, "is_reserved": 0}, {"lat": 38.91834083333333, "fusion_lat": 0.0, "type": "electric_scooter", "name": "05f023a6e2c9130b0286cd609a0e4c57", "is_disabled": 0, "bike_id": "05f023a6e2c9130b0286cd609a0e4c57", "lon": -77.035273, "rental_uris": {"android": "https://dc.lft.to/lastmile_qr_scan", "ios": "https://dc.lft.to/lastmile_qr_scan"}, "fusion_lon": 0.0, "is_reserved": 0}, {"lat": 38.917147666666665, "fusion_lat": 0.0, "type": "electric_scooter", "name": "e4599774bc07b5702de088b93e9fc65a", "is_disabled": 0, "bike_id": "e4599774bc07b5702de088b93e9fc65a", "lon": -77.03854, "rental_uris": {"android": "https://dc.lft.to/lastmile_qr_scan", "ios": "https://dc.lft.to/lastmile_qr_scan"}, "fusion_lon": 0.0, "is_reserved": 0}, {"lat": 38.9205875, "fusion_lat": 0.0, "type": "electric_scooter", "name": "be98850c869ae3f9fde9a9379bd76087", "is_disabled": 0, "bike_id": "be98850c869ae3f9fde9a9379bd76087", "lon": -77.02439966666667, "rental_uris": {"android": "https://dc.lft.to/lastmile_qr_scan", "ios": "https://dc.lft.to/lastmile_qr_scan"}, "fusion_lon": 0.0, "is_reserved": 0}, {"lat": 38.930431, "fusion_lat": 0.0, "type": "electric_scooter", "name": "6e7abb1e9c8aa05f8b82757fcd3d2024", "is_disabled": 0, "bike_id": "6e7abb1e9c8aa05f8b82757fcd3d2024", "lon": -77.03282466666667, "rental_uris": {"android": "https://dc.lft.to/lastmile_qr_scan", "ios": "https://dc.lft.to/lastmile_qr_scan"}, "fusion_lon": 0.0, "is_reserved": 0}, {"lat": 38.93283366666667, "fusion_lat": 0.0, "type": "electric_scooter", "name": "51412d9d3800393b5725f496311ba653", "is_disabled": 0, "bike_id": "51412d9d3800393b5725f496311ba653", "lon": -76.9862655, "rental_uris": {"android": "https://dc.lft.to/lastmile_qr_scan", "ios": "https://dc.lft.to/lastmile_qr_scan"}, "fusion_lon": 0.0, "is_reserved": 0}, {"lat": 38.98459233333333, "fusion_lat": 0.0, "type": "electric_bike", "name": "35c29a72eb78cb91cb8775424d0def85", "is_disabled": 0, "bike_id": "35c29a72eb78cb91cb8775424d0def85", "lon": -76.97048383333333, "rental_uris": {"android": "https://dc.lft.to/lastmile_qr_scan", "ios": "https://dc.lft.to/lastmile_qr_scan"}, "fusion_lon": 0.0, "is_reserved": 0}, {"lat": 38.87209516666667, "fusion_lat": 0.0, "type": "electric_scooter", "name": "3016dd7d91f11f29112ac67fdf6039d2", "is_disabled": 0, "bike_id": "3016dd7d91f11f29112ac67fdf6039d2", "lon": -77.0123155, "rental_uris": {"android": "https://dc.lft.to/lastmile_qr_scan", "ios": "https://dc.lft.to/lastmile_qr_scan"}, "fusion_lon": 0.0, "is_reserved": 0}, {"lat": 38.928719, "fusion_lat": 0.0, "type": "electric_scooter", "name": "4ce414b742778182d1871a8404351716", "is_disabled": 0, "bike_id": "4ce414b742778182d1871a8404351716", "lon": -77.03322783333333, "rental_uris": {"android": "https://dc.lft.to/lastmile_qr_scan", "ios": "https://dc.lft.to/lastmile_qr_scan"}, "fusion_lon": 0.0, "is_reserved": 0}, {"lat": 38.911916166666664, "fusion_lat": 0.0, "type": "electric_scooter", "name": "e864e5e0e52fd4a696d0e73373785948", "is_disabled": 0, "bike_id": "e864e5e0e52fd4a696d0e73373785948", "lon": -77.00710266666667, "rental_uris": {"android": "https://dc.lft.to/lastmile_qr_scan", "ios": "https://dc.lft.to/lastmile_qr_scan"}, "fusion_lon": 0.0, "is_reserved": 0}, {"lat": 38.910030166666665, "fusion_lat": 0.0, "type": "electric_scooter", "name": "9cba014dfaa0980fcff76e469ac714e4", "is_disabled": 0, "bike_id": "9cba014dfaa0980fcff76e469ac714e4", "lon": -77.03655816666667, "rental_uris": {"android": "https://dc.lft.to/lastmile_qr_scan", "ios": "https://dc.lft.to/lastmile_qr_scan"}, "fusion_lon": 0.0, "is_reserved": 0}, {"lat": 38.921426833333335, "fusion_lat": 0.0, "type": "electric_scooter", "name": "af6b78d261598e3eb47e6877acb88dcf", "is_disabled": 0, "bike_id": "af6b78d261598e3eb47e6877acb88dcf", "lon": -77.03439666666667, "rental_uris": {"android": "https://dc.lft.to/lastmile_qr_scan", "ios": "https://dc.lft.to/lastmile_qr_scan"}, "fusion_lon": 0.0, "is_reserved": 0}, {"lat": 38.90409916666667, "fusion_lat": 0.0, "type": "electric_scooter", "name": "e5cce056b9795e85f6a5f6d798bc1ed5", "is_disabled": 0, "bike_id": "e5cce056b9795e85f6a5f6d798bc1ed5", "lon": -77.04342716666666, "rental_uris": {"android": "https://dc.lft.to/lastmile_qr_scan", "ios": "https://dc.lft.to/lastmile_qr_scan"}, "fusion_lon": 0.0, "is_reserved": 0}, {"lat": 38.922552, "fusion_lat": 0.0, "type": "electric_scooter", "name": "0770c735f2d1ffd7b6fdfa3bc4abb240", "is_disabled": 0, "bike_id": "0770c735f2d1ffd7b6fdfa3bc4abb240", "lon": -77.03903716666666, "rental_uris": {"android": "https://dc.lft.to/lastmile_qr_scan", "ios": "https://dc.lft.to/lastmile_qr_scan"}, "fusion_lon": 0.0, "is_reserved": 0}, {"lat": 38.924388, "fusion_lat": 0.0, "type": "electric_scooter", "name": "89dbd445a2f3f922d02b0d62c4fd8227", "is_disabled": 0, "bike_id": "89dbd445a2f3f922d02b0d62c4fd8227", "lon": -77.03986683333333, "rental_uris": {"android": "https://dc.lft.to/lastmile_qr_scan", "ios": "https://dc.lft.to/lastmile_qr_scan"}, "fusion_lon": 0.0, "is_reserved": 0}, {"lat": 38.90360616666667, "fusion_lat": 0.0, "type": "electric_scooter", "name": "8fc39e89050cb547e1437ae22fec8eee", "is_disabled": 0, "bike_id": "8fc39e89050cb547e1437ae22fec8eee", "lon": -77.04333533333333, "rental_uris": {"android": "https://dc.lft.to/lastmile_qr_scan", "ios": "https://dc.lft.to/lastmile_qr_scan"}, "fusion_lon": 0.0, "is_reserved": 0}, {"lat": 38.867549, "fusion_lat": 0.0, "type": "electric_scooter", "name": "3675e2877a23542851c9ac935ec97905", "is_disabled": 0, "bike_id": "3675e2877a23542851c9ac935ec97905", "lon": -76.98273416666666, "rental_uris": {"android": "https://dc.lft.to/lastmile_qr_scan", "ios": "https://dc.lft.to/lastmile_qr_scan"}, "fusion_lon": 0.0, "is_reserved": 0}, {"lat": 38.92270666666667, "fusion_lat": 0.0, "type": "electric_scooter", "name": "6a04dcce8339327dd3ec0d21ddd29262", "is_disabled": 0, "bike_id": "6a04dcce8339327dd3ec0d21ddd29262", "lon": -77.029698, "rental_uris": {"android": "https://dc.lft.to/lastmile_qr_scan", "ios": "https://dc.lft.to/lastmile_qr_scan"}, "fusion_lon": 0.0, "is_reserved": 0}, {"lat": 38.95634416666667, "fusion_lat": 0.0, "type": "electric_scooter", "name": "75ec3cebf476a76c39c5eee51838187e", "is_disabled": 0, "bike_id": "75ec3cebf476a76c39c5eee51838187e", "lon": -77.03300466666667, "rental_uris": {"android": "https://dc.lft.to/lastmile_qr_scan", "ios": "https://dc.lft.to/lastmile_qr_scan"}, "fusion_lon": 0.0, "is_reserved": 0}, {"lat": 38.8972345, "fusion_lat": 0.0, "type": "electric_scooter", "name": "eb8c506ee799d63e443693f98d35679e", "is_disabled": 0, "bike_id": "eb8c506ee799d63e443693f98d35679e", "lon": -77.02164983333333, "rental_uris": {"android": "https://dc.lft.to/lastmile_qr_scan", "ios": "https://dc.lft.to/lastmile_qr_scan"}, "fusion_lon": 0.0, "is_reserved": 0}, {"lat": 38.92602216666667, "fusion_lat": 0.0, "type": "electric_scooter", "name": "06f5adbe5d4b773635b37bbcd701622e", "is_disabled": 0, "bike_id": "06f5adbe5d4b773635b37bbcd701622e", "lon": -77.01223916666666, "rental_uris": {"android": "https://dc.lft.to/lastmile_qr_scan", "ios": "https://dc.lft.to/lastmile_qr_scan"}, "fusion_lon": 0.0, "is_reserved": 0}, {"lat": 38.89777133333333, "fusion_lat": 0.0, "type": "electric_scooter", "name": "8655d07591f48ebbaaaf35c53489d64c", "is_disabled": 0, "bike_id": "8655d07591f48ebbaaaf35c53489d64c", "lon": -77.02002016666667, "rental_uris": {"android": "https://dc.lft.to/lastmile_qr_scan", "ios": "https://dc.lft.to/lastmile_qr_scan"}, "fusion_lon": 0.0, "is_reserved": 0}, {"lat": 38.9083255, "fusion_lat": 0.0, "type": "electric_scooter", "name": "380bb7c19c2f7b8735d00b6d9374905c", "is_disabled": 0, "bike_id": "380bb7c19c2f7b8735d00b6d9374905c", "lon": -77.04357183333333, "rental_uris": {"android": "https://dc.lft.to/lastmile_qr_scan", "ios": "https://dc.lft.to/lastmile_qr_scan"}, "fusion_lon": 0.0, "is_reserved": 0}, {"lat": 38.885026, "fusion_lat": 0.0, "type": "electric_scooter", "name": "6c2df306c1b56c544e45f0ba71864618", "is_disabled": 0, "bike_id": "6c2df306c1b56c544e45f0ba71864618", "lon": -77.00328783333333, "rental_uris": {"android": "https://dc.lft.to/lastmile_qr_scan", "ios": "https://dc.lft.to/lastmile_qr_scan"}, "fusion_lon": 0.0, "is_reserved": 0}, {"lat": 38.881446833333335, "fusion_lat": 0.0, "type": "electric_scooter", "name": "26a0e5e19c631b58a512240a076dc3fe", "is_disabled": 0, "bike_id": "26a0e5e19c631b58a512240a076dc3fe", "lon": -77.02708733333333, "rental_uris": {"android": "https://dc.lft.to/lastmile_qr_scan", "ios": "https://dc.lft.to/lastmile_qr_scan"}, "fusion_lon": 0.0, "is_reserved": 0}, {"lat": 38.8770835, "fusion_lat": 0.0, "type": "electric_scooter", "name": "28b33db1f42ae33359aa6d7402a8232f", "is_disabled": 0, "bike_id": "28b33db1f42ae33359aa6d7402a8232f", "lon": -77.00329516666666, "rental_uris": {"android": "https://dc.lft.to/lastmile_qr_scan", "ios": "https://dc.lft.to/lastmile_qr_scan"}, "fusion_lon": 0.0, "is_reserved": 0}, {"lat": 38.910919166666666, "fusion_lat": 0.0, "type": "electric_scooter", "name": "fbdd3d6c27e339d22a4d52f84d8da144", "is_disabled": 0, "bike_id": "fbdd3d6c27e339d22a4d52f84d8da144", "lon": -77.038496, "rental_uris": {"android": "https://dc.lft.to/lastmile_qr_scan", "ios": "https://dc.lft.to/lastmile_qr_scan"}, "fusion_lon": 0.0, "is_reserved": 0}, {"lat": 38.924398, "fusion_lat": 0.0, "type": "electric_scooter", "name": "88860997ac872eecf49617d349f1eb7e", "is_disabled": 0, "bike_id": "88860997ac872eecf49617d349f1eb7e", "lon": -77.03399366666666, "rental_uris": {"android": "https://dc.lft.to/lastmile_qr_scan", "ios": "https://dc.lft.to/lastmile_qr_scan"}, "fusion_lon": 0.0, "is_reserved": 0}, {"lat": 38.916494166666666, "fusion_lat": 0.0, "type": "electric_scooter", "name": "ac1318c5d8d66d60c145891b76fcea71", "is_disabled": 0, "bike_id": "ac1318c5d8d66d60c145891b76fcea71", "lon": -77.0280685, "rental_uris": {"android": "https://dc.lft.to/lastmile_qr_scan", "ios": "https://dc.lft.to/lastmile_qr_scan"}, "fusion_lon": 0.0, "is_reserved": 0}, {"lat": 38.877314166666665, "fusion_lat": 0.0, "type": "electric_scooter", "name": "60260979729ab61998f5d9b6280934b1", "is_disabled": 0, "bike_id": "60260979729ab61998f5d9b6280934b1", "lon": -77.00717783333333, "rental_uris": {"android": "https://dc.lft.to/lastmile_qr_scan", "ios": "https://dc.lft.to/lastmile_qr_scan"}, "fusion_lon": 0.0, "is_reserved": 0}, {"lat": 38.90129966666667, "fusion_lat": 0.0, "type": "electric_scooter", "name": "80f88a5be4cc9b29fc4a062903b61e3c", "is_disabled": 0, "bike_id": "80f88a5be4cc9b29fc4a062903b61e3c", "lon": -77.03207316666666, "rental_uris": {"android": "https://dc.lft.to/lastmile_qr_scan", "ios": "https://dc.lft.to/lastmile_qr_scan"}, "fusion_lon": 0.0, "is_reserved": 0}, {"lat": 38.899617166666665, "fusion_lat": 0.0, "type": "electric_scooter", "name": "023e68071e3e05dbb0e3f81284780b49", "is_disabled": 0, "bike_id": "023e68071e3e05dbb0e3f81284780b49", "lon": -77.0484045, "rental_uris": {"android": "https://dc.lft.to/lastmile_qr_scan", "ios": "https://dc.lft.to/lastmile_qr_scan"}, "fusion_lon": 0.0, "is_reserved": 0}, {"lat": 38.93858683333333, "fusion_lat": 0.0, "type": "electric_scooter", "name": "d0adc6a11229c6c0438b80338b5719d1", "is_disabled": 0, "bike_id": "d0adc6a11229c6c0438b80338b5719d1", "lon": -77.02647333333333, "rental_uris": {"android": "https://dc.lft.to/lastmile_qr_scan", "ios": "https://dc.lft.to/lastmile_qr_scan"}, "fusion_lon": 0.0, "is_reserved": 0}, {"lat": 38.91568383333333, "fusion_lat": 0.0, "type": "electric_scooter", "name": "eeefdd8666fd3baee9a66d84983dbb7a", "is_disabled": 0, "bike_id": "eeefdd8666fd3baee9a66d84983dbb7a", "lon": -77.01196833333333, "rental_uris": {"android": "https://dc.lft.to/lastmile_qr_scan", "ios": "https://dc.lft.to/lastmile_qr_scan"}, "fusion_lon": 0.0, "is_reserved": 0}, {"lat": 38.905897333333336, "fusion_lat": 0.0, "type": "electric_scooter", "name": "52590958b02fec6ae34315b8d23f7f61", "is_disabled": 0, "bike_id": "52590958b02fec6ae34315b8d23f7f61", "lon": -77.03466066666667, "rental_uris": {"android": "https://dc.lft.to/lastmile_qr_scan", "ios": "https://dc.lft.to/lastmile_qr_scan"}, "fusion_lon": 0.0, "is_reserved": 0}, {"lat": 38.8949115, "fusion_lat": 0.0, "type": "electric_scooter", "name": "2dc157a2514f6d95ed7ffa14a47ae1c9", "is_disabled": 0, "bike_id": "2dc157a2514f6d95ed7ffa14a47ae1c9", "lon": -77.02299733333334, "rental_uris": {"android": "https://dc.lft.to/lastmile_qr_scan", "ios": "https://dc.lft.to/lastmile_qr_scan"}, "fusion_lon": 0.0, "is_reserved": 0}, {"lat": 38.9008065, "fusion_lat": 0.0, "type": "electric_scooter", "name": "e6f8d0b64495d519aeef7f431f60e810", "is_disabled": 0, "bike_id": "e6f8d0b64495d519aeef7f431f60e810", "lon": -77.04773116666667, "rental_uris": {"android": "https://dc.lft.to/lastmile_qr_scan", "ios": "https://dc.lft.to/lastmile_qr_scan"}, "fusion_lon": 0.0, "is_reserved": 0}, {"lat": 38.896960166666666, "fusion_lat": 0.0, "type": "electric_scooter", "name": "f0dc60d05e24fd17429b800a5485ef05", "is_disabled": 0, "bike_id": "f0dc60d05e24fd17429b800a5485ef05", "lon": -77.05026633333334, "rental_uris": {"android": "https://dc.lft.to/lastmile_qr_scan", "ios": "https://dc.lft.to/lastmile_qr_scan"}, "fusion_lon": 0.0, "is_reserved": 0}, {"lat": 38.892268666666666, "fusion_lat": 0.0, "type": "electric_scooter", "name": "1c325183e76224f5c9eb2281dc863120", "is_disabled": 0, "bike_id": "1c325183e76224f5c9eb2281dc863120", "lon": -76.979684, "rental_uris": {"android": "https://dc.lft.to/lastmile_qr_scan", "ios": "https://dc.lft.to/lastmile_qr_scan"}, "fusion_lon": 0.0, "is_reserved": 0}, {"lat": 38.876869166666665, "fusion_lat": 0.0, "type": "electric_scooter", "name": "bd39495cc7f597e03809f082d61a1776", "is_disabled": 0, "bike_id": "bd39495cc7f597e03809f082d61a1776", "lon": -77.00059616666667, "rental_uris": {"android": "https://dc.lft.to/lastmile_qr_scan", "ios": "https://dc.lft.to/lastmile_qr_scan"}, "fusion_lon": 0.0, "is_reserved": 0}, {"lat": 38.92315883333333, "fusion_lat": 0.0, "type": "electric_scooter", "name": "95fc1f697084ea6ce520f7f84b5be8d9", "is_disabled": 0, "bike_id": "95fc1f697084ea6ce520f7f84b5be8d9", "lon": -77.02125866666667, "rental_uris": {"android": "https://dc.lft.to/lastmile_qr_scan", "ios": "https://dc.lft.to/lastmile_qr_scan"}, "fusion_lon": 0.0, "is_reserved": 0}, {"lat": 38.917019333333336, "fusion_lat": 0.0, "type": "electric_scooter", "name": "2b57c37aa5e42457db75199a79f61631", "is_disabled": 0, "bike_id": "2b57c37aa5e42457db75199a79f61631", "lon": -77.02763433333334, "rental_uris": {"android": "https://dc.lft.to/lastmile_qr_scan", "ios": "https://dc.lft.to/lastmile_qr_scan"}, "fusion_lon": 0.0, "is_reserved": 0}, {"lat": 38.905673666666665, "fusion_lat": 0.0, "type": "electric_scooter", "name": "4c54411914bdadf3b1b5d46943eaa56d", "is_disabled": 0, "bike_id": "4c54411914bdadf3b1b5d46943eaa56d", "lon": -77.04430933333333, "rental_uris": {"android": "https://dc.lft.to/lastmile_qr_scan", "ios": "https://dc.lft.to/lastmile_qr_scan"}, "fusion_lon": 0.0, "is_reserved": 0}, {"lat": 38.9374685, "fusion_lat": 0.0, "type": "electric_scooter", "name": "4b2689c8b030de4da97b90f48037985e", "is_disabled": 0, "bike_id": "4b2689c8b030de4da97b90f48037985e", "lon": -77.08570366666666, "rental_uris": {"android": "https://dc.lft.to/lastmile_qr_scan", "ios": "https://dc.lft.to/lastmile_qr_scan"}, "fusion_lon": 0.0, "is_reserved": 0}, {"lat": 38.899687166666666, "fusion_lat": 0.0, "type": "electric_bike", "name": "c96f869ea6a140938afa6f1b6e96c637", "is_disabled": 0, "bike_id": "c96f869ea6a140938afa6f1b6e96c637", "lon": -77.04819733333333, "rental_uris": {"android": "https://dc.lft.to/lastmile_qr_scan", "ios": "https://dc.lft.to/lastmile_qr_scan"}, "fusion_lon": 0.0, "is_reserved": 0}, {"lat": 38.881129, "fusion_lat": 0.0, "type": "electric_scooter", "name": "a8c3bd5404b14afc906d9908a3102104", "is_disabled": 0, "bike_id": "a8c3bd5404b14afc906d9908a3102104", "lon": -76.98705166666667, "rental_uris": {"android": "https://dc.lft.to/lastmile_qr_scan", "ios": "https://dc.lft.to/lastmile_qr_scan"}, "fusion_lon": 0.0, "is_reserved": 0}, {"lat": 38.90234133333333, "fusion_lat": 0.0, "type": "electric_scooter", "name": "8d4c2fed9223f3a3bfe5792ceba2e400", "is_disabled": 0, "bike_id": "8d4c2fed9223f3a3bfe5792ceba2e400", "lon": -77.04796283333333, "rental_uris": {"android": "https://dc.lft.to/lastmile_qr_scan", "ios": "https://dc.lft.to/lastmile_qr_scan"}, "fusion_lon": 0.0, "is_reserved": 0}, {"lat": 38.92111383333334, "fusion_lat": 0.0, "type": "electric_scooter", "name": "0feca067c67352adc8d84286f6a5b558", "is_disabled": 0, "bike_id": "0feca067c67352adc8d84286f6a5b558", "lon": -77.0208315, "rental_uris": {"android": "https://dc.lft.to/lastmile_qr_scan", "ios": "https://dc.lft.to/lastmile_qr_scan"}, "fusion_lon": 0.0, "is_reserved": 0}, {"lat": 38.919611, "fusion_lat": 0.0, "type": "electric_scooter", "name": "5608b1373b01d95430e897646f02f0c4", "is_disabled": 0, "bike_id": "5608b1373b01d95430e897646f02f0c4", "lon": -77.0270835, "rental_uris": {"android": "https://dc.lft.to/lastmile_qr_scan", "ios": "https://dc.lft.to/lastmile_qr_scan"}, "fusion_lon": 0.0, "is_reserved": 0}, {"lat": 38.89997483333333, "fusion_lat": 0.0, "type": "electric_scooter", "name": "d7e1265459c697ff515a21dbe9bfb20b", "is_disabled": 0, "bike_id": "d7e1265459c697ff515a21dbe9bfb20b", "lon": -77.029362, "rental_uris": {"android": "https://dc.lft.to/lastmile_qr_scan", "ios": "https://dc.lft.to/lastmile_qr_scan"}, "fusion_lon": 0.0, "is_reserved": 0}, {"lat": 38.892214, "fusion_lat": 0.0, "type": "electric_scooter", "name": "c86d9709b689d52358111aeb1b5087b6", "is_disabled": 0, "bike_id": "c86d9709b689d52358111aeb1b5087b6", "lon": -77.02411, "rental_uris": {"android": "https://dc.lft.to/lastmile_qr_scan", "ios": "https://dc.lft.to/lastmile_qr_scan"}, "fusion_lon": 0.0, "is_reserved": 0}, {"lat": 38.874841833333335, "fusion_lat": 0.0, "type": "electric_scooter", "name": "2326481a671acdb37ea045cb986ec1d1", "is_disabled": 0, "bike_id": "2326481a671acdb37ea045cb986ec1d1", "lon": -77.00233366666667, "rental_uris": {"android": "https://dc.lft.to/lastmile_qr_scan", "ios": "https://dc.lft.to/lastmile_qr_scan"}, "fusion_lon": 0.0, "is_reserved": 0}, {"lat": 38.91490433333333, "fusion_lat": 0.0, "type": "electric_scooter", "name": "c9f6c6ec147b0496cbe921a1efb03a01", "is_disabled": 0, "bike_id": "c9f6c6ec147b0496cbe921a1efb03a01", "lon": -77.01864533333334, "rental_uris": {"android": "https://dc.lft.to/lastmile_qr_scan", "ios": "https://dc.lft.to/lastmile_qr_scan"}, "fusion_lon": 0.0, "is_reserved": 0}, {"lat": 38.9154665, "fusion_lat": 0.0, "type": "electric_scooter", "name": "4ee22706c02b28f7decef065e191c58e", "is_disabled": 0, "bike_id": "4ee22706c02b28f7decef065e191c58e", "lon": -77.03852966666666, "rental_uris": {"android": "https://dc.lft.to/lastmile_qr_scan", "ios": "https://dc.lft.to/lastmile_qr_scan"}, "fusion_lon": 0.0, "is_reserved": 0}, {"lat": 38.922733, "fusion_lat": 0.0, "type": "electric_scooter", "name": "7dbe8d11ad5174ead250c99b3bea0c4c", "is_disabled": 0, "bike_id": "7dbe8d11ad5174ead250c99b3bea0c4c", "lon": -77.02238233333334, "rental_uris": {"android": "https://dc.lft.to/lastmile_qr_scan", "ios": "https://dc.lft.to/lastmile_qr_scan"}, "fusion_lon": 0.0, "is_reserved": 0}, {"lat": 38.9273915, "fusion_lat": 0.0, "type": "electric_scooter", "name": "28fb1d9fd9f6ef21336872efc7261e65", "is_disabled": 0, "bike_id": "28fb1d9fd9f6ef21336872efc7261e65", "lon": -77.0363305, "rental_uris": {"android": "https://dc.lft.to/lastmile_qr_scan", "ios": "https://dc.lft.to/lastmile_qr_scan"}, "fusion_lon": 0.0, "is_reserved": 0}, {"lat": 38.87571233333333, "fusion_lat": 0.0, "type": "electric_scooter", "name": "17a112253f2ae072574d0c05f9fb9d9f", "is_disabled": 0, "bike_id": "17a112253f2ae072574d0c05f9fb9d9f", "lon": -77.0058045, "rental_uris": {"android": "https://dc.lft.to/lastmile_qr_scan", "ios": "https://dc.lft.to/lastmile_qr_scan"}, "fusion_lon": 0.0, "is_reserved": 0}, {"lat": 38.915965, "fusion_lat": 0.0, "type": "electric_scooter", "name": "a3154a15674f55aa37597bd792ac4600", "is_disabled": 0, "bike_id": "a3154a15674f55aa37597bd792ac4600", "lon": -77.0465325, "rental_uris": {"android": "https://dc.lft.to/lastmile_qr_scan", "ios": "https://dc.lft.to/lastmile_qr_scan"}, "fusion_lon": 0.0, "is_reserved": 0}, {"lat": 38.84254, "fusion_lat": 0.0, "type": "electric_bike", "name": "cfc073c4d7a9cb00d8ad0c67459407f2", "is_disabled": 0, "bike_id": "cfc073c4d7a9cb00d8ad0c67459407f2", "lon": -77.078857, "rental_uris": {"android": "https://dc.lft.to/lastmile_qr_scan", "ios": "https://dc.lft.to/lastmile_qr_scan"}, "fusion_lon": 0.0, "is_reserved": 0}, {"lat": 38.858071, "fusion_lat": 0.0, "type": "electric_scooter", "name": "6c941c3a03023c25c0a9326a85a9b597", "is_disabled": 0, "bike_id": "6c941c3a03023c25c0a9326a85a9b597", "lon": -76.98648766666666, "rental_uris": {"android": "https://dc.lft.to/lastmile_qr_scan", "ios": "https://dc.lft.to/lastmile_qr_scan"}, "fusion_lon": 0.0, "is_reserved": 0}, {"lat": 38.9065015, "fusion_lat": 0.0, "type": "electric_scooter", "name": "4dee82341cb13c09933d1793e975b879", "is_disabled": 0, "bike_id": "4dee82341cb13c09933d1793e975b879", "lon": -76.98390266666667, "rental_uris": {"android": "https://dc.lft.to/lastmile_qr_scan", "ios": "https://dc.lft.to/lastmile_qr_scan"}, "fusion_lon": 0.0, "is_reserved": 0}, {"lat": 38.9175965, "fusion_lat": 0.0, "type": "electric_scooter", "name": "645755f47892f457964d46271fe59773", "is_disabled": 0, "bike_id": "645755f47892f457964d46271fe59773", "lon": -77.03178366666667, "rental_uris": {"android": "https://dc.lft.to/lastmile_qr_scan", "ios": "https://dc.lft.to/lastmile_qr_scan"}, "fusion_lon": 0.0, "is_reserved": 0}, {"lat": 38.91416, "fusion_lat": 0.0, "type": "electric_scooter", "name": "4f68959ff5a03f0712e53201870c8f6a", "is_disabled": 0, "bike_id": "4f68959ff5a03f0712e53201870c8f6a", "lon": -77.02212033333333, "rental_uris": {"android": "https://dc.lft.to/lastmile_qr_scan", "ios": "https://dc.lft.to/lastmile_qr_scan"}, "fusion_lon": 0.0, "is_reserved": 0}, {"lat": 38.897435333333334, "fusion_lat": 0.0, "type": "electric_scooter", "name": "01348d08a703760c5a8b25bdb2aa0073", "is_disabled": 0, "bike_id": "01348d08a703760c5a8b25bdb2aa0073", "lon": -77.05006316666666, "rental_uris": {"android": "https://dc.lft.to/lastmile_qr_scan", "ios": "https://dc.lft.to/lastmile_qr_scan"}, "fusion_lon": 0.0, "is_reserved": 0}, {"lat": 38.9333125, "fusion_lat": 0.0, "type": "electric_scooter", "name": "36cafdfdcb1e3cc1c1a4fd776039d03e", "is_disabled": 0, "bike_id": "36cafdfdcb1e3cc1c1a4fd776039d03e", "lon": -77.0326595, "rental_uris": {"android": "https://dc.lft.to/lastmile_qr_scan", "ios": "https://dc.lft.to/lastmile_qr_scan"}, "fusion_lon": 0.0, "is_reserved": 0}, {"lat": 38.9167265, "fusion_lat": 0.0, "type": "electric_scooter", "name": "153864a9dc230e46445ce70fd7ec6d27", "is_disabled": 0, "bike_id": "153864a9dc230e46445ce70fd7ec6d27", "lon": -77.03225633333334, "rental_uris": {"android": "https://dc.lft.to/lastmile_qr_scan", "ios": "https://dc.lft.to/lastmile_qr_scan"}, "fusion_lon": 0.0, "is_reserved": 0}, {"lat": 38.913249, "fusion_lat": 0.0, "type": "electric_scooter", "name": "36268bceb3cac922e1b0029e0de35638", "is_disabled": 0, "bike_id": "36268bceb3cac922e1b0029e0de35638", "lon": -77.03184166666666, "rental_uris": {"android": "https://dc.lft.to/lastmile_qr_scan", "ios": "https://dc.lft.to/lastmile_qr_scan"}, "fusion_lon": 0.0, "is_reserved": 0}, {"lat": 38.926962, "fusion_lat": 0.0, "type": "electric_scooter", "name": "cff915322919075d5d2c7ce3b7c4cf6a", "is_disabled": 0, "bike_id": "cff915322919075d5d2c7ce3b7c4cf6a", "lon": -77.03565566666667, "rental_uris": {"android": "https://dc.lft.to/lastmile_qr_scan", "ios": "https://dc.lft.to/lastmile_qr_scan"}, "fusion_lon": 0.0, "is_reserved": 0}, {"lat": 38.90723083333334, "fusion_lat": 0.0, "type": "electric_scooter", "name": "23ec3889e415ffc55b7036d3410ec67c", "is_disabled": 0, "bike_id": "23ec3889e415ffc55b7036d3410ec67c", "lon": -77.04272666666667, "rental_uris": {"android": "https://dc.lft.to/lastmile_qr_scan", "ios": "https://dc.lft.to/lastmile_qr_scan"}, "fusion_lon": 0.0, "is_reserved": 0}, {"lat": 38.865645666666666, "fusion_lat": 0.0, "type": "electric_scooter", "name": "b0db2d570b009a3252952deba6699849", "is_disabled": 0, "bike_id": "b0db2d570b009a3252952deba6699849", "lon": -76.98333, "rental_uris": {"android": "https://dc.lft.to/lastmile_qr_scan", "ios": "https://dc.lft.to/lastmile_qr_scan"}, "fusion_lon": 0.0, "is_reserved": 0}, {"lat": 38.892223, "fusion_lat": 0.0, "type": "electric_scooter", "name": "dabf2e6d4f33d1dabb75c19f49f345cc", "is_disabled": 0, "bike_id": "dabf2e6d4f33d1dabb75c19f49f345cc", "lon": -77.04690833333333, "rental_uris": {"android": "https://dc.lft.to/lastmile_qr_scan", "ios": "https://dc.lft.to/lastmile_qr_scan"}, "fusion_lon": 0.0, "is_reserved": 0}, {"lat": 38.91110166666667, "fusion_lat": 0.0, "type": "electric_scooter", "name": "fada05947380bc64f5a131ddbe6492d5", "is_disabled": 0, "bike_id": "fada05947380bc64f5a131ddbe6492d5", "lon": -77.03830733333334, "rental_uris": {"android": "https://dc.lft.to/lastmile_qr_scan", "ios": "https://dc.lft.to/lastmile_qr_scan"}, "fusion_lon": 0.0, "is_reserved": 0}, {"lat": 38.92293866666667, "fusion_lat": 0.0, "type": "electric_scooter", "name": "812c728e8b88275ccc79fad6fa50b1cd", "is_disabled": 0, "bike_id": "812c728e8b88275ccc79fad6fa50b1cd", "lon": -77.02524666666666, "rental_uris": {"android": "https://dc.lft.to/lastmile_qr_scan", "ios": "https://dc.lft.to/lastmile_qr_scan"}, "fusion_lon": 0.0, "is_reserved": 0}, {"lat": 38.920829, "fusion_lat": 0.0, "type": "electric_scooter", "name": "f5d95db5a359efaad96687726687f840", "is_disabled": 0, "bike_id": "f5d95db5a359efaad96687726687f840", "lon": -77.02292983333334, "rental_uris": {"android": "https://dc.lft.to/lastmile_qr_scan", "ios": "https://dc.lft.to/lastmile_qr_scan"}, "fusion_lon": 0.0, "is_reserved": 0}, {"lat": 38.902969, "fusion_lat": 0.0, "type": "electric_scooter", "name": "9657461c02ef46fa2fb5bea832b8ec5d", "is_disabled": 0, "bike_id": "9657461c02ef46fa2fb5bea832b8ec5d", "lon": -77.03455133333334, "rental_uris": {"android": "https://dc.lft.to/lastmile_qr_scan", "ios": "https://dc.lft.to/lastmile_qr_scan"}, "fusion_lon": 0.0, "is_reserved": 0}, {"lat": 38.90476683333333, "fusion_lat": 0.0, "type": "electric_bike", "name": "7915fae7a8fe375975b2ba112c0e1a2e", "is_disabled": 0, "bike_id": "7915fae7a8fe375975b2ba112c0e1a2e", "lon": -77.054872, "rental_uris": {"android": "https://dc.lft.to/lastmile_qr_scan", "ios": "https://dc.lft.to/lastmile_qr_scan"}, "fusion_lon": 0.0, "is_reserved": 0}, {"lat": 38.91466783333333, "fusion_lat": 0.0, "type": "electric_scooter", "name": "cf4b668c41e777fbc04476d37d137587", "is_disabled": 0, "bike_id": "cf4b668c41e777fbc04476d37d137587", "lon": -77.01424433333334, "rental_uris": {"android": "https://dc.lft.to/lastmile_qr_scan", "ios": "https://dc.lft.to/lastmile_qr_scan"}, "fusion_lon": 0.0, "is_reserved": 0}, {"lat": 38.892203333333335, "fusion_lat": 0.0, "type": "electric_scooter", "name": "daef9a91aab4a1bb9b0fee9ffef63d68", "is_disabled": 0, "bike_id": "daef9a91aab4a1bb9b0fee9ffef63d68", "lon": -77.0451275, "rental_uris": {"android": "https://dc.lft.to/lastmile_qr_scan", "ios": "https://dc.lft.to/lastmile_qr_scan"}, "fusion_lon": 0.0, "is_reserved": 0}, {"lat": 38.903937, "fusion_lat": 0.0, "type": "electric_scooter", "name": "0f0008ae1f25d672d21031084e0a041a", "is_disabled": 0, "bike_id": "0f0008ae1f25d672d21031084e0a041a", "lon": -77.04324216666667, "rental_uris": {"android": "https://dc.lft.to/lastmile_qr_scan", "ios": "https://dc.lft.to/lastmile_qr_scan"}, "fusion_lon": 0.0, "is_reserved": 0}, {"lat": 38.90452366666667, "fusion_lat": 0.0, "type": "electric_scooter", "name": "0e9bb927bcfaf7014d08d7660a583d08", "is_disabled": 0, "bike_id": "0e9bb927bcfaf7014d08d7660a583d08", "lon": -77.03119783333334, "rental_uris": {"android": "https://dc.lft.to/lastmile_qr_scan", "ios": "https://dc.lft.to/lastmile_qr_scan"}, "fusion_lon": 0.0, "is_reserved": 0}, {"lat": 38.92043233333333, "fusion_lat": 0.0, "type": "electric_scooter", "name": "d35e52f6e16ba3d8bdd7a32ca76a6c1c", "is_disabled": 0, "bike_id": "d35e52f6e16ba3d8bdd7a32ca76a6c1c", "lon": -77.04202833333333, "rental_uris": {"android": "https://dc.lft.to/lastmile_qr_scan", "ios": "https://dc.lft.to/lastmile_qr_scan"}, "fusion_lon": 0.0, "is_reserved": 0}, {"lat": 38.92090966666667, "fusion_lat": 0.0, "type": "electric_scooter", "name": "538a4ef33dc01ba56fed579d999d1b56", "is_disabled": 0, "bike_id": "538a4ef33dc01ba56fed579d999d1b56", "lon": -77.02035733333334, "rental_uris": {"android": "https://dc.lft.to/lastmile_qr_scan", "ios": "https://dc.lft.to/lastmile_qr_scan"}, "fusion_lon": 0.0, "is_reserved": 0}, {"lat": 38.874654, "fusion_lat": 0.0, "type": "electric_scooter", "name": "cd5bfe543c814457a5a54abcaa0316b7", "is_disabled": 0, "bike_id": "cd5bfe543c814457a5a54abcaa0316b7", "lon": -77.00500516666666, "rental_uris": {"android": "https://dc.lft.to/lastmile_qr_scan", "ios": "https://dc.lft.to/lastmile_qr_scan"}, "fusion_lon": 0.0, "is_reserved": 0}, {"lat": 38.866892666666665, "fusion_lat": 0.0, "type": "electric_scooter", "name": "9dd17caf02c8a3f29b01436696322835", "is_disabled": 0, "bike_id": "9dd17caf02c8a3f29b01436696322835", "lon": -76.98542266666666, "rental_uris": {"android": "https://dc.lft.to/lastmile_qr_scan", "ios": "https://dc.lft.to/lastmile_qr_scan"}, "fusion_lon": 0.0, "is_reserved": 0},