{"data": {"bikes": [{"lon": -77.06765933333334, "bike_id": "c90b11f62d9fa0dc2d099d53553ca5ec", "lat": 38.90395433333333, "fusion_lon": 0.0, "fusion_lat": 0.0, "type": "electric_scooter", "name": "c90b11f62d9fa0dc2d099d53553ca5ec", "is_disabled": 0, "rental_uris": {"ios": "https://dc.lft.to/lastmile_qr_scan", "android": "https://dc.lft.to/lastmile_qr_scan"}, "is_reserved": 0}, {"lon": -77.0218665, "bike_id": "edc8ea2f51f8c94fb5133234116ff982", "lat": 38.91128783333333, "fusion_lon": 0.0, "fusion_lat": 0.0, "type": "electric_scooter", "name": "edc8ea2f51f8c94fb5133234116ff982", "is_disabled": 0, "rental_uris": {"ios": "https://dc.lft.to/lastmile_qr_scan", "android": "https://dc.lft.to/lastmile_qr_scan"}, "is_reserved": 0}, {"lon": -76.96780383333333, "bike_id": "b30b8877a8fcacc16a405fdf1401505a", "lat": 38.86849133333333, "fusion_lon": 0.0, "fusion_lat": 0.0, "type": "electric_scooter", "name": "b30b8877a8fcacc16a405fdf1401505a", "is_disabled": 0, "rental_uris": {"ios": "https://dc.lft.to/lastmile_qr_scan", "android": "https://dc.lft.to/lastmile_qr_scan"}, "is_reserved": 0}, {"lon": -77.0466885, "bike_id": "e2e28cfc868f4b8c7aa2f5557223a07b", "lat": 38.896578833333336, "fusion_lon": 0.0, "fusion_lat": 0.0, "type": "electric_scooter", "name": "e2e28cfc868f4b8c7aa2f5557223a07b", "is_disabled": 0, "rental_uris": {"ios": "https://dc.lft.to/lastmile_qr_scan", "android": "https://dc.lft.to/lastmile_qr_scan"}, "is_reserved": 0}, {"lon": -77.03935983333334, "bike_id": "5fa2bbeedccb7d0dc34e7bf25928a1f1", "lat": 38.91701883333333, "fusion_lon": 0.0, "fusion_lat": 0.0, "type": "electric_scooter", "name": "5fa2bbeedccb7d0dc34e7bf25928a1f1", "is_disabled": 0, "rental_uris": {"ios": "https://dc.lft.to/lastmile_qr_scan", "android": "https://dc.lft.to/lastmile_qr_scan"}, "is_reserved": 0}, {"lon": -77.0334295, "bike_id": "10f550431f4a403a21e07be6d86c22b1", "lat": 38.90162, "fusion_lon": 0.0, "fusion_lat": 0.0, "type": "electric_scooter", "name": "10f550431f4a403a21e07be6d86c22b1", "is_disabled": 0, "rental_uris": {"ios": "https://dc.lft.to/lastmile_qr_scan", "android": "https://dc.lft.to/lastmile_qr_scan"}, "is_reserved": 0}, {"lon": -76.9938275, "bike_id": "064d7111d6aa1d8264c4607e0acd953a", "lat": 38.88345666666667, "fusion_lon": 0.0, "fusion_lat": 0.0, "type": "electric_scooter", "name": "064d7111d6aa1d8264c4607e0acd953a", "is_disabled": 0, "rental_uris": {"ios": "https://dc.lft.to/lastmile_qr_scan", "android": "https://dc.lft.to/lastmile_qr_scan"}, "is_reserved": 0}, {"lon": -77.04594233333333, "bike_id": "7966d61d10b9a2b54e8bbc35094ef5b1", "lat": 38.915859166666664, "fusion_lon": 0.0, "fusion_lat": 0.0, "type": "electric_scooter", "name": "7966d61d10b9a2b54e8bbc35094ef5b1", "is_disabled": 0, "rental_uris": {"ios": "https://dc.lft.to/lastmile_qr_scan", "android": "https://dc.lft.to/lastmile_qr_scan"}, "is_reserved": 0}, {"lon": -76.96152316666667, "bike_id": "74c202b316c941388ec2c8b589c02482", "lat": 38.88356183333333, "fusion_lon": 0.0, "fusion_lat": 0.0, "type": "electric_scooter", "name": "74c202b316c941388ec2c8b589c02482", "is_disabled": 0, "rental_uris": {"ios": "https://dc.lft.to/lastmile_qr_scan", "android": "https://dc.lft.to/lastmile_qr_scan"}, "is_reserved": 0}, {"lon": -77.05949783333334, "bike_id": "aa35f454a0ab307df1fe81c33ca3f73e", "lat": 38.9183455, "fusion_lon": 0.0, "fusion_lat": 0.0, "type": "electric_scooter", "name": "aa35f454a0ab307df1fe81c33ca3f73e", "is_disabled": 0, "rental_uris": {"ios": "https://dc.lft.to/lastmile_qr_scan", "android": "https://dc.lft.to/lastmile_qr_scan"}, "is_reserved": 0}, {"lon": -77.021847, "bike_id": "e92611fa8a1d077e970917d00b32a9e5", "lat": 38.909446, "fusion_lon": 0.0, "fusion_lat": 0.0, "type": "electric_scooter", "name": "e92611fa8a1d077e970917d00b32a9e5", "is_disabled": 0, "rental_uris": {"ios": "https://dc.lft.to/lastmile_qr_scan", "android": "https://dc.lft.to/lastmile_qr_scan"}, "is_reserved": 0}, {"lon": -77.03662716666666, "bike_id": "f4e47144faf832e68c7ac68754c3418f", "lat": 38.918096166666665, "fusion_lon": 0.0, "fusion_lat": 0.0, "type": "electric_scooter", "name": "f4e47144faf832e68c7ac68754c3418f", "is_disabled": 0, "rental_uris": {"ios": "https://dc.lft.to/lastmile_qr_scan", "android": "https://dc.lft.to/lastmile_qr_scan"}, "is_reserved": 0}, {"lon": -77.03683933333333, "bike_id": "cd6b67785886d6d201de93a922973ad1", "lat": 38.908300833333335, "fusion_lon": 0.0, "fusion_lat": 0.0, "type": "electric_scooter", "name": "cd6b67785886d6d201de93a922973ad1", "is_disabled": 0, "rental_uris": {"ios": "https://dc.lft.to/lastmile_qr_scan", "android": "https://dc.lft.to/lastmile_qr_scan"}, "is_reserved": 0}, {"lon": -76.99734733333334, "bike_id": "eaf2911dc7559abff197840eed60fedf", "lat": 39.04234183333333, "fusion_lon": 0.0, "fusion_lat": 0.0, "type": "electric_bike", "name": "eaf2911dc7559abff197840eed60fedf", "is_disabled": 0, "rental_uris": {"ios": "https://dc.lft.to/lastmile_qr_scan", "android": "https://dc.lft.to/lastmile_qr_scan"}, "is_reserved": 0}, {"lon": -77.02403683333333, "bike_id": "2eec371770fee98fae21ad65137a7362", "lat": 38.8828375, "fusion_lon": 0.0, "fusion_lat": 0.0, "type": "electric_scooter", "name": "2eec371770fee98fae21ad65137a7362", "is_disabled": 0, "rental_uris": {"ios": "https://dc.lft.to/lastmile_qr_scan", "android": "https://dc.lft.to/lastmile_qr_scan"}, "is_reserved": 0}, {"lon": -77.11593166666667, "bike_id": "18a695a19de5b94757cc430c9a89cb45", "lat": 39.07493483333333, "fusion_lon": 0.0, "fusion_lat": 0.0, "type": "electric_bike", "name": "18a695a19de5b94757cc430c9a89cb45", "is_disabled": 0, "rental_uris": {"ios": "https://dc.lft.to/lastmile_qr_scan", "android": "https://dc.lft.to/lastmile_qr_scan"}, "is_reserved": 0}, {"lon": -77.00806433333334, "bike_id": "db25063ef352738da2b5137c2e26bbc3", "lat": 38.877747666666664, "fusion_lon": 0.0, "fusion_lat": 0.0, "type": "electric_scooter", "name": "db25063ef352738da2b5137c2e26bbc3", "is_disabled": 0, "rental_uris": {"ios": "https://dc.lft.to/lastmile_qr_scan", "android": "https://dc.lft.to/lastmile_qr_scan"}, "is_reserved": 0}, {"lon": -76.96907316666666, "bike_id": "f557763275b039cea2b90ec22c0aef5b", "lat": 38.846076333333336, "fusion_lon": 0.0, "fusion_lat": 0.0, "type": "electric_bike", "name": "f557763275b039cea2b90ec22c0aef5b", "is_disabled": 0, "rental_uris": {"ios": "https://dc.lft.to/lastmile_qr_scan", "android": "https://dc.lft.to/lastmile_qr_scan"}, "is_reserved": 0}, {"lon": -77.06299216666666, "bike_id": "a39bcc31fe5e04a395ae638b132d0bb7", "lat": 38.906062166666665, "fusion_lon": 0.0, "fusion_lat": 0.0, "type": "electric_scooter", "name": "a39bcc31fe5e04a395ae638b132d0bb7", "is_disabled": 0, "rental_uris": {"ios": "https://dc.lft.to/lastmile_qr_scan", "android": "https://dc.lft.to/lastmile_qr_scan"}, "is_reserved": 0}, {"lon": -76.99925733333333, "bike_id": "0c6a806603e0b4f672ada9aecdc3b10c", "lat": 38.843154, "fusion_lon": 0.0, "fusion_lat": 0.0, "type": "electric_scooter", "name": "0c6a806603e0b4f672ada9aecdc3b10c", "is_disabled": 0, "rental_uris": {"ios": "https://dc.lft.to/lastmile_qr_scan", "android": "https://dc.lft.to/lastmile_qr_scan"}, "is_reserved": 0}, {"lon": -77.03211983333334, "bike_id": "1bc5258e5a91a012af0b7b7f5b622e40", "lat": 38.89245666666667, "fusion_lon": 0.0, "fusion_lat": 0.0, "type": "electric_scooter", "name": "1bc5258e5a91a012af0b7b7f5b622e40", "is_disabled": 0, "rental_uris": {"ios": "https://dc.lft.to/lastmile_qr_scan", "android": "https://dc.lft.to/lastmile_qr_scan"}, "is_reserved": 0}, {"lon": -77.032119, "bike_id": "0c6246e9ed97bff42324657ab057f688", "lat": 38.90892133333333, "fusion_lon": 0.0, "fusion_lat": 0.0, "type": "electric_scooter", "name": "0c6246e9ed97bff42324657ab057f688", "is_disabled": 0, "rental_uris": {"ios": "https://dc.lft.to/lastmile_qr_scan", "android": "https://dc.lft.to/lastmile_qr_scan"}, "is_reserved": 0}, {"lon": -77.02978633333333, "bike_id": "48ccaa85a19c1745800fddb19f743e9b", "lat": 38.916314166666666, "fusion_lon": 0.0, "fusion_lat": 0.0, "type": "electric_scooter", "name": "48ccaa85a19c1745800fddb19f743e9b", "is_disabled": 0, "rental_uris": {"ios": "https://dc.lft.to/lastmile_qr_scan", "android": "https://dc.lft.to/lastmile_qr_scan"}, "is_reserved": 0}, {"lon": -77.02681016666666, "bike_id": "3070eaac815aaf6fb96d67e63d750098", "lat": 38.90959133333333, "fusion_lon": 0.0, "fusion_lat": 0.0, "type": "electric_scooter", "name": "3070eaac815aaf6fb96d67e63d750098", "is_disabled": 0, "rental_uris": {"ios": "https://dc.lft.to/lastmile_qr_scan", "android": "https://dc.lft.to/lastmile_qr_scan"}, "is_reserved": 0}, {"lon": -76.99057683333334, "bike_id": "5da9f37231f7786242f83c520afcaaa1", "lat": 38.86379616666667, "fusion_lon": 0.0, "fusion_lat": 0.0, "type": "electric_scooter", "name": "5da9f37231f7786242f83c520afcaaa1", "is_disabled": 0, "rental_uris": {"ios": "https://dc.lft.to/lastmile_qr_scan", "android": "https://dc.lft.to/lastmile_qr_scan"}, "is_reserved": 0}, {"lon": -77.0311865, "bike_id": "4018927897a6492ab095ef8464b6b530", "lat": 38.91261933333333, "fusion_lon": 0.0, "fusion_lat": 0.0, "type": "electric_scooter", "name": "4018927897a6492ab095ef8464b6b530", "is_disabled": 0, "rental_uris": {"ios": "https://dc.lft.to/lastmile_qr_scan", "android": "https://dc.lft.to/lastmile_qr_scan"}, "is_reserved": 0}, {"lon": -76.9906715, "bike_id": "484ea6e94aba8e19be41651156efb0db", "lat": 38.92748566666667, "fusion_lon": 0.0, "fusion_lat": 0.0, "type": "electric_scooter", "name": "484ea6e94aba8e19be41651156efb0db", "is_disabled": 0, "rental_uris": {"ios": "https://dc.lft.to/lastmile_qr_scan", "android": "https://dc.lft.to/lastmile_qr_scan"}, "is_reserved": 0}, {"lon": -77.04133183333333, "bike_id": "32fc6521b0fb7d385a526e2a265b70ad", "lat": 38.9265025, "fusion_lon": 0.0, "fusion_lat": 0.0, "type": "electric_scooter", "name": "32fc6521b0fb7d385a526e2a265b70ad", "is_disabled": 0, "rental_uris": {"ios": "https://dc.lft.to/lastmile_qr_scan", "android": "https://dc.lft.to/lastmile_qr_scan"}, "is_reserved": 0}, {"lon": -76.94921533333333, "bike_id": "2ffadd12b8753430734bed90de1515b1", "lat": 38.89353966666667, "fusion_lon": 0.0, "fusion_lat": 0.0, "type": "electric_scooter", "name": "2ffadd12b8753430734bed90de1515b1", "is_disabled": 0, "rental_uris": {"ios": "https://dc.lft.to/lastmile_qr_scan", "android": "https://dc.lft.to/lastmile_qr_scan"}, "is_reserved": 0}, {"lon": -76.98942816666667, "bike_id": "7e61293f8e790a06e837d2d4f568b92b", "lat": 38.903887833333336, "fusion_lon": 0.0, "fusion_lat": 0.0, "type": "electric_scooter", "name": "7e61293f8e790a06e837d2d4f568b92b", "is_disabled": 0, "rental_uris": {"ios": "https://dc.lft.to/lastmile_qr_scan", "android": "https://dc.lft.to/lastmile_qr_scan"}, "is_reserved": 0}, {"lon": -77.0097255, "bike_id": "04a9a6fcd7eede1412b752102e1c3ddb", "lat": 38.8948295, "fusion_lon": 0.0, "fusion_lat": 0.0, "type": "electric_scooter", "name": "04a9a6fcd7eede1412b752102e1c3ddb", "is_disabled": 0, "rental_uris": {"ios": "https://dc.lft.to/lastmile_qr_scan", "android": "https://dc.lft.to/lastmile_qr_scan"}, "is_reserved": 0}, {"lon": -77.064042, "bike_id": "4ae0b8c8e90af3a5ad5c1712e9456450", "lat": 38.90782566666667, "fusion_lon": 0.0, "fusion_lat": 0.0, "type": "electric_scooter", "name": "4ae0b8c8e90af3a5ad5c1712e9456450", "is_disabled": 0, "rental_uris": {"ios": "https://dc.lft.to/lastmile_qr_scan", "android": "https://dc.lft.to/lastmile_qr_scan"}, "is_reserved": 0}, {"lon": -77.05857983333334, "bike_id": "f33769198bb4bf74844e543c69aad068", "lat": 38.93607083333333, "fusion_lon": 0.0, "fusion_lat": 0.0, "type": "electric_scooter", "name": "f33769198bb4bf74844e543c69aad068", "is_disabled": 0, "rental_uris": {"ios": "https://dc.lft.to/lastmile_qr_scan", "android": "https://dc.lft.to/lastmile_qr_scan"}, "is_reserved": 0}, {"lon": -76.98716283333333, "bike_id": "0d6f944ee79af303c64351d2248306ea", "lat": 38.866284666666665, "fusion_lon": 0.0, "fusion_lat": 0.0, "type": "electric_scooter", "name": "0d6f944ee79af303c64351d2248306ea", "is_disabled": 0, "rental_uris": {"ios": "https://dc.lft.to/lastmile_qr_scan", "android": "https://dc.lft.to/lastmile_qr_scan"}, "is_reserved": 0}, {"lon": -77.04757683333334, "bike_id": "c1d072d431b9ce710294cae390894d87", "lat": 38.90955116666667, "fusion_lon": 0.0, "fusion_lat": 0.0, "type": "electric_scooter", "name": "c1d072d431b9ce710294cae390894d87", "is_disabled": 0, "rental_uris": {"ios": "https://dc.lft.to/lastmile_qr_scan", "android": "https://dc.lft.to/lastmile_qr_scan"}, "is_reserved": 0}, {"lon": -77.07433166666667, "bike_id": "a5c881cee898a5d351e15c9f0d37764f", "lat": 38.99946833333333, "fusion_lon": 0.0, "fusion_lat": 0.0, "type": "electric_bike", "name": "a5c881cee898a5d351e15c9f0d37764f", "is_disabled": 0, "rental_uris": {"ios": "https://dc.lft.to/lastmile_qr_scan", "android": "https://dc.lft.to/lastmile_qr_scan"}, "is_reserved": 0}, {"lon": -77.02855066666666, "bike_id": "34b1ea67f6fe1e1ccdf086473d2ce4f6", "lat": 38.93343766666667, "fusion_lon": 0.0, "fusion_lat": 0.0, "type": "electric_scooter", "name": "34b1ea67f6fe1e1ccdf086473d2ce4f6", "is_disabled": 0, "rental_uris": {"ios": "https://dc.lft.to/lastmile_qr_scan", "android": "https://dc.lft.to/lastmile_qr_scan"}, "is_reserved": 0}, {"lon": -77.05807016666667, "bike_id": "f4807524655a802feeb839370fbaba1b", "lat": 38.82389766666667, "fusion_lon": 0.0, "fusion_lat": 0.0, "type": "electric_bike", "name": "f4807524655a802feeb839370fbaba1b", "is_disabled": 0, "rental_uris": {"ios": "https://dc.lft.to/lastmile_qr_scan", "android": "https://dc.lft.to/lastmile_qr_scan"}, "is_reserved": 0}, {"lon": -77.0201005, "bike_id": "995f12477a15c5d316ce653add1cc26d", "lat": 38.92420633333333, "fusion_lon": 0.0, "fusion_lat": 0.0, "type": "electric_scooter", "name": "995f12477a15c5d316ce653add1cc26d", "is_disabled": 0, "rental_uris": {"ios": "https://dc.lft.to/lastmile_qr_scan", "android": "https://dc.lft.to/lastmile_qr_scan"}, "is_reserved": 0}, {"lon": -77.0398925, "bike_id": "9ef3a3ab42ce487dd74e1632794f5dd2", "lat": 38.93336333333333, "fusion_lon": 0.0, "fusion_lat": 0.0, "type": "electric_scooter", "name": "9ef3a3ab42ce487dd74e1632794f5dd2", "is_disabled": 0, "rental_uris": {"ios": "https://dc.lft.to/lastmile_qr_scan", "android": "https://dc.lft.to/lastmile_qr_scan"}, "is_reserved": 0}, {"lon": -76.994919, "bike_id": "7ab1c78402917221499ba98be9a87983", "lat": 38.86244083333333, "fusion_lon": 0.0, "fusion_lat": 0.0, "type": "electric_scooter", "name": "7ab1c78402917221499ba98be9a87983", "is_disabled": 0, "rental_uris": {"ios": "https://dc.lft.to/lastmile_qr_scan", "android": "https://dc.lft.to/lastmile_qr_scan"}, "is_reserved": 0}, {"lon": -77.00593383333333, "bike_id": "cc1aaa2bb0a9d9d405e96c0e6e15bf98", "lat": 38.90645583333333, "fusion_lon": 0.0, "fusion_lat": 0.0, "type": "electric_scooter", "name": "cc1aaa2bb0a9d9d405e96c0e6e15bf98", "is_disabled": 0, "rental_uris": {"ios": "https://dc.lft.to/lastmile_qr_scan", "android": "https://dc.lft.to/lastmile_qr_scan"}, "is_reserved": 0}, {"lon": -77.04435766666667, "bike_id": "86dfcb798ceb4bf5d3586232a3232aef", "lat": 38.921652, "fusion_lon": 0.0, "fusion_lat": 0.0, "type": "electric_scooter", "name": "86dfcb798ceb4bf5d3586232a3232aef", "is_disabled": 0, "rental_uris": {"ios": "https://dc.lft.to/lastmile_qr_scan", "android": "https://dc.lft.to/lastmile_qr_scan"}, "is_reserved": 0}, {"lon": -77.05152883333334, "bike_id": "4c7a24edcf9fe738c60c79b8d014d3c6", "lat": 38.905365333333336, "fusion_lon": 0.0, "fusion_lat": 0.0, "type": "electric_scooter", "name": "4c7a24edcf9fe738c60c79b8d014d3c6", "is_disabled": 0, "rental_uris": {"ios": "https://dc.lft.to/lastmile_qr_scan", "android": "https://dc.lft.to/lastmile_qr_scan"}, "is_reserved": 0}, {"lon": -77.04143666666667, "bike_id": "ff457090e367c50cecb11b863799c6f7", "lat": 38.92299116666667, "fusion_lon": 0.0, "fusion_lat": 0.0, "type": "electric_scooter", "name": "ff457090e367c50cecb11b863799c6f7", "is_disabled": 0, "rental_uris": {"ios": "https://dc.lft.to/lastmile_qr_scan", "android": "https://dc.lft.to/lastmile_qr_scan"}, "is_reserved": 0}, {"lon": -77.039824, "bike_id": "d9b97270cfb5ee53c9be6cbcc9499bcf", "lat": 38.8922075, "fusion_lon": 0.0, "fusion_lat": 0.0, "type": "electric_scooter", "name": "d9b97270cfb5ee53c9be6cbcc9499bcf", "is_disabled": 0, "rental_uris": {"ios": "https://dc.lft.to/lastmile_qr_scan", "android": "https://dc.lft.to/lastmile_qr_scan"}, "is_reserved": 0}, {"lon": -77.032743, "bike_id": "1f355269ef91dd6b049be1dcd4b06789", "lat": 38.9293875, "fusion_lon": 0.0, "fusion_lat": 0.0, "type": "electric_scooter", "name": "1f355269ef91dd6b049be1dcd4b06789", "is_disabled": 0, "rental_uris": {"ios": "https://dc.lft.to/lastmile_qr_scan", "android": "https://dc.lft.to/lastmile_qr_scan"}, "is_reserved": 0}, {"lon": -77.01464083333333, "bike_id": "22bb506bebe5b4f18bb9ad2d12868429", "lat": 38.91473666666667, "fusion_lon": 0.0, "fusion_lat": 0.0, "type": "electric_scooter", "name": "22bb506bebe5b4f18bb9ad2d12868429", "is_disabled": 0, "rental_uris": {"ios": "https://dc.lft.to/lastmile_qr_scan", "android": "https://dc.lft.to/lastmile_qr_scan"}, "is_reserved": 0}, {"lon": -77.056923, "bike_id": "ed49bd9c944f533804fab9a47b1d695c", "lat": 38.905080166666664, "fusion_lon": 0.0, "fusion_lat": 0.0, "type": "electric_bike", "name": "ed49bd9c944f533804fab9a47b1d695c", "is_disabled": 0, "rental_uris": {"ios": "https://dc.lft.to/lastmile_qr_scan", "android": "https://dc.lft.to/lastmile_qr_scan"}, "is_reserved": 0}, {"lon": -77.041678, "bike_id": "8767f1a2f659ef8f967b718d577a602a", "lat": 38.919718333333336, "fusion_lon": 0.0, "fusion_lat": 0.0, "type": "electric_scooter", "name": "8767f1a2f659ef8f967b718d577a602a", "is_disabled": 0, "rental_uris": {"ios": "https://dc.lft.to/lastmile_qr_scan", "android": "https://dc.lft.to/lastmile_qr_scan"}, "is_reserved": 0}, {"lon": -77.06331583333333, "bike_id": "390e79d7a82927b78eaacfa3baefd7f5", "lat": 38.9068765, "fusion_lon": 0.0, "fusion_lat": 0.0, "type": "electric_bike", "name": "390e79d7a82927b78eaacfa3baefd7f5", "is_disabled": 0, "rental_uris": {"ios": "https://dc.lft.to/lastmile_qr_scan", "android": "https://dc.lft.to/lastmile_qr_scan"}, "is_reserved": 0}, {"lon": -77.11779983333334, "bike_id": "fea25dc3a51f97d894d0f44a265ab701", "lat": 39.0549275, "fusion_lon": 0.0, "fusion_lat": 0.0, "type": "electric_bike", "name": "fea25dc3a51f97d894d0f44a265ab701", "is_disabled": 0, "rental_uris": {"ios": "https://dc.lft.to/lastmile_qr_scan", "android": "https://dc.lft.to/lastmile_qr_scan"}, "is_reserved": 0}, {"lon": -77.0328875, "bike_id": "668f35169aff26a3db4ca0b9d143001d", "lat": 38.956532333333335, "fusion_lon": 0.0, "fusion_lat": 0.0, "type": "electric_scooter", "name": "668f35169aff26a3db4ca0b9d143001d", "is_disabled": 0, "rental_uris": {"ios": "https://dc.lft.to/lastmile_qr_scan", "android": "https://dc.lft.to/lastmile_qr_scan"}, "is_reserved": 0}, {"lon": -77.0121195, "bike_id": "9ea8e66478128684aa27ffb8080f27ed", "lat": 38.9196575, "fusion_lon": 0.0, "fusion_lat": 0.0, "type": "electric_scooter", "name": "9ea8e66478128684aa27ffb8080f27ed", "is_disabled": 0, "rental_uris": {"ios": "https://dc.lft.to/lastmile_qr_scan", "android": "https://dc.lft.to/lastmile_qr_scan"}, "is_reserved": 0}, {"lon": -77.04480383333333, "bike_id": "9c8780b4c193e775130c8b0ef061e23a", "lat": 38.924247666666666, "fusion_lon": 0.0, "fusion_lat": 0.0, "type": "electric_scooter", "name": "9c8780b4c193e775130c8b0ef061e23a", "is_disabled": 0, "rental_uris": {"ios": "https://dc.lft.to/lastmile_qr_scan", "android": "https://dc.lft.to/lastmile_qr_scan"}, "is_reserved": 0}, {"lon": -77.033857, "bike_id": "4630a827cb6923e07fd4823bb5961a76", "lat": 38.899528333333336, "fusion_lon": 0.0, "fusion_lat": 0.0, "type": "electric_scooter", "name": "4630a827cb6923e07fd4823bb5961a76", "is_disabled": 0, "rental_uris": {"ios": "https://dc.lft.to/lastmile_qr_scan", "android": "https://dc.lft.to/lastmile_qr_scan"}, "is_reserved": 0}, {"lon": -77.00199416666666, "bike_id": "49daff293d60aa299ad055f662433be9", "lat": 38.902417, "fusion_lon": 0.0, "fusion_lat": 0.0, "type": "electric_scooter", "name": "49daff293d60aa299ad055f662433be9", "is_disabled": 0, "rental_uris": {"ios": "https://dc.lft.to/lastmile_qr_scan", "android": "https://dc.lft.to/lastmile_qr_scan"}, "is_reserved": 0}, {"lon": -77.052009, "bike_id": "5fd89f060b75972a9d7436754a8100b4", "lat": 38.899517333333336, "fusion_lon": 0.0, "fusion_lat": 0.0, "type": "electric_scooter", "name": "5fd89f060b75972a9d7436754a8100b4", "is_disabled": 0, "rental_uris": {"ios": "https://dc.lft.to/lastmile_qr_scan", "android": "https://dc.lft.to/lastmile_qr_scan"}, "is_reserved": 0}, {"lon": -77.017285, "bike_id": "c494a9768ac7a6497378c2733871d40b", "lat": 38.8934875, "fusion_lon": 0.0, "fusion_lat": 0.0, "type": "electric_bike", "name": "c494a9768ac7a6497378c2733871d40b", "is_disabled": 0, "rental_uris": {"ios": "https://dc.lft.to/lastmile_qr_scan", "android": "https://dc.lft.to/lastmile_qr_scan"}, "is_reserved": 0}, {"lon": -77.0433095, "bike_id": "335febc0d86a89e8fe5a073671ef763f", "lat": 38.90018116666667, "fusion_lon": 0.0, "fusion_lat": 0.0, "type": "electric_scooter", "name": "335febc0d86a89e8fe5a073671ef763f", "is_disabled": 0, "rental_uris": {"ios": "https://dc.lft.to/lastmile_qr_scan", "android": "https://dc.lft.to/lastmile_qr_scan"}, "is_reserved": 0}, {"lon": -77.04276083333333, "bike_id": "ce917e198fa23514f2387985371a90a7", "lat": 38.900141833333336, "fusion_lon": 0.0, "fusion_lat": 0.0, "type": "electric_scooter", "name": "ce917e198fa23514f2387985371a90a7", "is_disabled": 0, "rental_uris": {"ios": "https://dc.lft.to/lastmile_qr_scan", "android": "https://dc.lft.to/lastmile_qr_scan"}, "is_reserved": 0}, {"lon": -77.0384185, "bike_id": "6ded468fc9301d9d586742d2d1d8060e", "lat": 38.910035666666666, "fusion_lon": 0.0, "fusion_lat": 0.0, "type": "electric_scooter", "name": "6ded468fc9301d9d586742d2d1d8060e", "is_disabled": 0, "rental_uris": {"ios": "https://dc.lft.to/lastmile_qr_scan", "android": "https://dc.lft.to/lastmile_qr_scan"}, "is_reserved": 0}, {"lon": -77.0358625, "bike_id": "583784000c2b604c70e0c07c5f0fbf2a", "lat": 38.992293, "fusion_lon": 0.0, "fusion_lat": 0.0, "type": "electric_scooter", "name": "583784000c2b604c70e0c07c5f0fbf2a", "is_disabled": 0, "rental_uris": {"ios": "https://dc.lft.to/lastmile_qr_scan", "android": "https://dc.lft.to/lastmile_qr_scan"}, "is_reserved": 0}, {"lon": -77.03522966666667, "bike_id": "8ac22e17db89e91eae834276cd1b1a8d", "lat": 38.927281666666666, "fusion_lon": 0.0, "fusion_lat": 0.0, "type": "electric_scooter", "name": "8ac22e17db89e91eae834276cd1b1a8d", "is_disabled": 0, "rental_uris": {"ios": "https://dc.lft.to/lastmile_qr_scan", "android": "https://dc.lft.to/lastmile_qr_scan"}, "is_reserved": 0}, {"lon": -77.02511533333333, "bike_id": "18f8b8f48eb2df6aa68aa6ab7e1d4bd6", "lat": 38.90438866666667, "fusion_lon": 0.0, "fusion_lat": 0.0, "type": "electric_scooter", "name": "18f8b8f48eb2df6aa68aa6ab7e1d4bd6", "is_disabled": 0, "rental_uris": {"ios": "https://dc.lft.to/lastmile_qr_scan", "android": "https://dc.lft.to/lastmile_qr_scan"}, "is_reserved": 0}, {"lon": -77.00922366666667, "bike_id": "6e6cc9bd086206be41bb3b5970e20751", "lat": 38.89969283333333, "fusion_lon": 0.0, "fusion_lat": 0.0, "type": "electric_scooter", "name": "6e6cc9bd086206be41bb3b5970e20751", "is_disabled": 0, "rental_uris": {"ios": "https://dc.lft.to/lastmile_qr_scan", "android": "https://dc.lft.to/lastmile_qr_scan"}, "is_reserved": 0}, {"lon": -77.0332515, "bike_id": "dd66960d5dfe99476fa93a935b5ca9d1", "lat": 38.921624333333334, "fusion_lon": 0.0, "fusion_lat": 0.0, "type": "electric_scooter", "name": "dd66960d5dfe99476fa93a935b5ca9d1", "is_disabled": 0, "rental_uris": {"ios": "https://dc.lft.to/lastmile_qr_scan", "android": "https://dc.lft.to/lastmile_qr_scan"}, "is_reserved": 0}, {"lon": -77.04171066666666, "bike_id": "9ef0039cd39dbafe55b1d01aa46d87f2", "lat": 38.913933166666666, "fusion_lon": 0.0, "fusion_lat": 0.0, "type": "electric_scooter", "name": "9ef0039cd39dbafe55b1d01aa46d87f2", "is_disabled": 0, "rental_uris": {"ios": "https://dc.lft.to/lastmile_qr_scan", "android": "https://dc.lft.to/lastmile_qr_scan"}, "is_reserved": 0}, {"lon": -77.0833285, "bike_id": "7b1b73c2201fa7f0e1619b8c13310076", "lat": 38.854402, "fusion_lon": 0.0, "fusion_lat": 0.0, "type": "electric_bike", "name": "7b1b73c2201fa7f0e1619b8c13310076", "is_disabled": 0, "rental_uris": {"ios": "https://dc.lft.to/lastmile_qr_scan", "android": "https://dc.lft.to/lastmile_qr_scan"}, "is_reserved": 0}, {"lon": -77.03206333333333, "bike_id": "8dc62774b84c3c5d3626cc38bdc2583d", "lat": 38.909529, "fusion_lon": 0.0, "fusion_lat": 0.0, "type": "electric_scooter", "name": "8dc62774b84c3c5d3626cc38bdc2583d", "is_disabled": 0, "rental_uris": {"ios": "https://dc.lft.to/lastmile_qr_scan", "android": "https://dc.lft.to/lastmile_qr_scan"}, "is_reserved": 0}, {"lon": -76.9782655, "bike_id": "90a41f1835cf0b207654e59ba534b44e", "lat": 38.84369983333333, "fusion_lon": 0.0, "fusion_lat": 0.0, "type": "electric_bike", "name": "90a41f1835cf0b207654e59ba534b44e", "is_disabled": 0, "rental_uris": {"ios": "https://dc.lft.to/lastmile_qr_scan", "android": "https://dc.lft.to/lastmile_qr_scan"}, "is_reserved": 0}, {"lon": -77.017245, "bike_id": "93e093b15f5bf635cf0018c48b1c6bc3", "lat": 38.905658833333334, "fusion_lon": 0.0, "fusion_lat": 0.0, "type": "electric_scooter", "name": "93e093b15f5bf635cf0018c48b1c6bc3", "is_disabled": 0, "rental_uris": {"ios": "https://dc.lft.to/lastmile_qr_scan", "android": "https://dc.lft.to/lastmile_qr_scan"}, "is_reserved": 0}, {"lon": -77.03173133333334, "bike_id": "4c804ee597d11edaa747231d1c5e02e3", "lat": 38.91842333333334, "fusion_lon": 0.0, "fusion_lat": 0.0, "type": "electric_scooter", "name": "4c804ee597d11edaa747231d1c5e02e3", "is_disabled": 0, "rental_uris": {"ios": "https://dc.lft.to/lastmile_qr_scan", "android": "https://dc.lft.to/lastmile_qr_scan"}, "is_reserved": 0}, {"lon": -76.942908, "bike_id": "a786bcd56cf157f6cfef12e3f33014d0", "lat": 38.93868466666667, "fusion_lon": 0.0, "fusion_lat": 0.0, "type": "electric_bike", "name": "a786bcd56cf157f6cfef12e3f33014d0", "is_disabled": 0, "rental_uris": {"ios": "https://dc.lft.to/lastmile_qr_scan", "android": "https://dc.lft.to/lastmile_qr_scan"}, "is_reserved": 0}, {"lon": -77.02624983333334, "bike_id": "dfb215c0f1020af98f35947ff67a42f1", "lat": 38.962269666666664, "fusion_lon": 0.0, "fusion_lat": 0.0, "type": "electric_bike", "name": "dfb215c0f1020af98f35947ff67a42f1", "is_disabled": 0, "rental_uris": {"ios": "https://dc.lft.to/lastmile_qr_scan", "android": "https://dc.lft.to/lastmile_qr_scan"}, "is_reserved": 0}, {"lon": -77.03533916666666, "bike_id": "267637b2bcca1d5e5c7a1a34015a5533", "lat": 38.926321, "fusion_lon": 0.0, "fusion_lat": 0.0, "type": "electric_scooter", "name": "267637b2bcca1d5e5c7a1a34015a5533", "is_disabled": 0, "rental_uris": {"ios": "https://dc.lft.to/lastmile_qr_scan", "android": "https://dc.lft.to/lastmile_qr_scan"}, "is_reserved": 0}, {"lon": -76.99183316666667, "bike_id": "f25ed385b00183600a88e103a68f5ebe", "lat": 38.889728166666664, "fusion_lon": 0.0, "fusion_lat": 0.0, "type": "electric_scooter", "name": "f25ed385b00183600a88e103a68f5ebe", "is_disabled": 0, "rental_uris": {"ios": "https://dc.lft.to/lastmile_qr_scan", "android": "https://dc.lft.to/lastmile_qr_scan"}, "is_reserved": 0}, {"lon": -76.98882183333333, "bike_id": "70b708d7778f7e2c85cb632514ed56db", "lat": 38.866532666666664, "fusion_lon": 0.0, "fusion_lat": 0.0, "type": "electric_scooter", "name": "70b708d7778f7e2c85cb632514ed56db", "is_disabled": 0, "rental_uris": {"ios": "https://dc.lft.to/lastmile_qr_scan", "android": "https://dc.lft.to/lastmile_qr_scan"}, "is_reserved": 0}, {"lon": -77.0625215, "bike_id": "3d572222dcf044a2e70a5a4ca260e9e0", "lat": 38.944161, "fusion_lon": 0.0, "fusion_lat": 0.0, "type": "electric_scooter", "name": "3d572222dcf044a2e70a5a4ca260e9e0", "is_disabled": 0, "rental_uris": {"ios": "https://dc.lft.to/lastmile_qr_scan", "android": "https://dc.lft.to/lastmile_qr_scan"}, "is_reserved": 0}, {"lon": -77.023039, "bike_id": "8be840eac3f8ad059a72fcf6ce4932bb", "lat": 38.91778083333333, "fusion_lon": 0.0, "fusion_lat": 0.0, "type": "electric_scooter", "name": "8be840eac3f8ad059a72fcf6ce4932bb", "is_disabled": 0, "rental_uris": {"ios": "https://dc.lft.to/lastmile_qr_scan", "android": "https://dc.lft.to/lastmile_qr_scan"}, "is_reserved": 0}, {"lon": -76.9825945, "bike_id": "5f863b2342fa3445ea152f56b8463d4e", "lat": 38.90852616666667, "fusion_lon": 0.0, "fusion_lat": 0.0, "type": "electric_scooter", "name": "5f863b2342fa3445ea152f56b8463d4e", "is_disabled": 0, "rental_uris": {"ios": "https://dc.lft.to/lastmile_qr_scan", "android": "https://dc.lft.to/lastmile_qr_scan"}, "is_reserved": 0}, {"lon": -77.03652816666667, "bike_id": "60193961a9277087efeace9eb7be26b2", "lat": 38.94179316666666, "fusion_lon": 0.0, "fusion_lat": 0.0, "type": "electric_scooter", "name": "60193961a9277087efeace9eb7be26b2", "is_disabled": 0, "rental_uris": {"ios": "https://dc.lft.to/lastmile_qr_scan", "android": "https://dc.lft.to/lastmile_qr_scan"}, "is_reserved": 0}, {"lon": -76.986998, "bike_id": "079ef2b446fdaaf019824903019caf9e", "lat": 38.907059, "fusion_lon": 0.0, "fusion_lat": 0.0, "type": "electric_scooter", "name": "079ef2b446fdaaf019824903019caf9e", "is_disabled": 0, "rental_uris": {"ios": "https://dc.lft.to/lastmile_qr_scan", "android": "https://dc.lft.to/lastmile_qr_scan"}, "is_reserved": 0}, {"lon": -76.9889845, "bike_id": "6994cf173e470adf581b81e2624b74c0", "lat": 38.91345366666667, "fusion_lon": 0.0, "fusion_lat": 0.0, "type": "electric_scooter", "name": "6994cf173e470adf581b81e2624b74c0", "is_disabled": 0, "rental_uris": {"ios": "https://dc.lft.to/lastmile_qr_scan", "android": "https://dc.lft.to/lastmile_qr_scan"}, "is_reserved": 0}, {"lon": -76.994856, "bike_id": "7d9f59cf2cccb2ec993eeb24adf08873", "lat": 38.915698, "fusion_lon": 0.0, "fusion_lat": 0.0, "type": "electric_scooter", "name": "7d9f59cf2cccb2ec993eeb24adf08873", "is_disabled": 0, "rental_uris": {"ios": "https://dc.lft.to/lastmile_qr_scan", "android": "https://dc.lft.to/lastmile_qr_scan"}, "is_reserved": 0}, {"lon": -77.0419025, "bike_id": "b9b837f697b0e7f37048904e275403f0", "lat": 38.899914333333335, "fusion_lon": 0.0, "fusion_lat": 0.0, "type": "electric_scooter", "name": "b9b837f697b0e7f37048904e275403f0", "is_disabled": 0, "rental_uris": {"ios": "https://dc.lft.to/lastmile_qr_scan", "android": "https://dc.lft.to/lastmile_qr_scan"}, "is_reserved": 0}, {"lon": -77.002261, "bike_id": "c92452a1b8bd28835bfad1e7fc22c662", "lat": 38.9001815, "fusion_lon": 0.0, "fusion_lat": 0.0, "type": "electric_scooter", "name": "c92452a1b8bd28835bfad1e7fc22c662", "is_disabled": 0, "rental_uris": {"ios": "https://dc.lft.to/lastmile_qr_scan", "android": "https://dc.lft.to/lastmile_qr_scan"}, "is_reserved": 0}, {"lon": -76.933677, "bike_id": "2e604ae5cb50bebfceabfa2f7c056905", "lat": 38.899105666666664, "fusion_lon": 0.0, "fusion_lat": 0.0, "type": "electric_scooter", "name": "2e604ae5cb50bebfceabfa2f7c056905", "is_disabled": 0, "rental_uris": {"ios": "https://dc.lft.to/lastmile_qr_scan", "android": "https://dc.lft.to/lastmile_qr_scan"}, "is_reserved": 0}, {"lon": -76.95469333333334, "bike_id": "43a0cbe1133b57d48fd3de9d0ebc898d", "lat": 38.884617166666665, "fusion_lon": 0.0, "fusion_lat": 0.0, "type": "electric_scooter", "name": "43a0cbe1133b57d48fd3de9d0ebc898d", "is_disabled": 0, "rental_uris": {"ios": "https://dc.lft.to/lastmile_qr_scan", "android": "https://dc.lft.to/lastmile_qr_scan"}, "is_reserved": 0}, {"lon": -77.01165733333333, "bike_id": "ac73afab4ae5864674afc87bb76af0ad", "lat": 38.8723865, "fusion_lon": 0.0, "fusion_lat": 0.0, "type": "electric_bike", "name": "ac73afab4ae5864674afc87bb76af0ad", "is_disabled": 0, "rental_uris": {"ios": "https://dc.lft.to/lastmile_qr_scan", "android": "https://dc.lft.to/lastmile_qr_scan"}, "is_reserved": 0}, {"lon": -77.10090333333333, "bike_id": "0ac9075c9ea58a09c2e83b3e0d741bb4", "lat": 38.95955816666667, "fusion_lon": 0.0, "fusion_lat": 0.0, "type": "electric_bike", "name": "0ac9075c9ea58a09c2e83b3e0d741bb4", "is_disabled": 0, "rental_uris": {"ios": "https://dc.lft.to/lastmile_qr_scan", "android": "https://dc.lft.to/lastmile_qr_scan"}, "is_reserved": 0}, {"lon": -77.07376133333334, "bike_id": "137a0298fb02039022d5f21f7bca78c1", "lat": 38.96223666666667, "fusion_lon": 0.0, "fusion_lat": 0.0, "type": "electric_scooter", "name": "137a0298fb02039022d5f21f7bca78c1", "is_disabled": 0, "rental_uris": {"ios": "https://dc.lft.to/lastmile_qr_scan", "android": "https://dc.lft.to/lastmile_qr_scan"}, "is_reserved": 0}, {"lon": -77.025534, "bike_id": "7491041001c5ebf85e97aa38663d5694", "lat": 38.909652, "fusion_lon": 0.0, "fusion_lat": 0.0, "type": "electric_scooter", "name": "7491041001c5ebf85e97aa38663d5694", "is_disabled": 0, "rental_uris": {"ios": "https://dc.lft.to/lastmile_qr_scan", "android": "https://dc.lft.to/lastmile_qr_scan"}, "is_reserved": 0}, {"lon": -77.009602, "bike_id": "acb3882547924d7250aca790c3c75e8f", "lat": 38.95345533333333, "fusion_lon": 0.0, "fusion_lat": 0.0, "type": "electric_bike", "name": "acb3882547924d7250aca790c3c75e8f", "is_disabled": 0, "rental_uris": {"ios": "https://dc.lft.to/lastmile_qr_scan", "android": "https://dc.lft.to/lastmile_qr_scan"}, "is_reserved": 0}, {"lon": -76.9852505, "bike_id": "d507ca694c2c9090142bbfbc59fcb681", "lat": 38.866892166666666, "fusion_lon": 0.0, "fusion_lat": 0.0, "type": "electric_scooter", "name": "d507ca694c2c9090142bbfbc59fcb681", "is_disabled": 0, "rental_uris": {"ios": "https://dc.lft.to/lastmile_qr_scan", "android": "https://dc.lft.to/lastmile_qr_scan"}, "is_reserved": 0}, {"lon": -76.9858525, "bike_id": "984692011b17e54730f61eadb37f3e80", "lat": 38.866827, "fusion_lon": 0.0, "fusion_lat": 0.0, "type": "electric_scooter", "name": "984692011b17e54730f61eadb37f3e80", "is_disabled": 0, "rental_uris": {"ios": "https://dc.lft.to/lastmile_qr_scan", "android": "https://dc.lft.to/lastmile_qr_scan"}, "is_reserved": 0}, {"lon": -77.03954533333334, "bike_id": "eaa6b0b69d3411afbfdbf43e401a1e69", "lat": 38.91557266666667, "fusion_lon": 0.0, "fusion_lat": 0.0, "type": "electric_scooter", "name": "eaa6b0b69d3411afbfdbf43e401a1e69", "is_disabled": 0, "rental_uris": {"ios": "https://dc.lft.to/lastmile_qr_scan", "android": "https://dc.lft.to/lastmile_qr_scan"}, "is_reserved": 0}, {"lon": -77.0266915, "bike_id": "4e0816de816ffcb56d213d45cf3cef7a", "lat": 38.902542, "fusion_lon": 0.0, "fusion_lat": 0.0, "type": "electric_scooter", "name": "4e0816de816ffcb56d213d45cf3cef7a", "is_disabled": 0, "rental_uris": {"ios": "https://dc.lft.to/lastmile_qr_scan", "android": "https://dc.lft.to/lastmile_qr_scan"}, "is_reserved": 0}, {"lon": -77.11575883333333, "bike_id": "6fc8af9d11b301a65aa5003eb0257fd3", "lat": 38.9934135, "fusion_lon": 0.0, "fusion_lat": 0.0, "type": "electric_bike", "name": "6fc8af9d11b301a65aa5003eb0257fd3", "is_disabled": 0, "rental_uris": {"ios": "https://dc.lft.to/lastmile_qr_scan", "android": "https://dc.lft.to/lastmile_qr_scan"}, "is_reserved": 0}, {"lon": -77.02921766666667, "bike_id": "1d0f268ac1e0cf5d2a9d48eb6b8b1ddf", "lat": 38.9169435, "fusion_lon": 0.0, "fusion_lat": 0.0, "type": "electric_scooter", "name": "1d0f268ac1e0cf5d2a9d48eb6b8b1ddf", "is_disabled": 0, "rental_uris": {"ios": "https://dc.lft.to/lastmile_qr_scan", "android": "https://dc.lft.to/lastmile_qr_scan"}, "is_reserved": 0}, {"lon": -77.056091, "bike_id": "cb5f425fa8fd8fd81815e280e0fe3176", "lat": 38.93159983333334, "fusion_lon": 0.0, "fusion_lat": 0.0, "type": "electric_scooter", "name": "cb5f425fa8fd8fd81815e280e0fe3176", "is_disabled": 0, "rental_uris": {"ios": "https://dc.lft.to/lastmile_qr_scan", "android": "https://dc.lft.to/lastmile_qr_scan"}, "is_reserved": 0}, {"lon": -77.01444666666667, "bike_id": "a83df575a3619cb8394bc9eb5ecea5c5", "lat": 38.920717, "fusion_lon": 0.0, "fusion_lat": 0.0, "type": "electric_scooter", "name": "a83df575a3619cb8394bc9eb5ecea5c5", "is_disabled": 0, "rental_uris": {"ios": "https://dc.lft.to/lastmile_qr_scan", "android": "https://dc.lft.to/lastmile_qr_scan"}, "is_reserved": 0}, {"lon": -77.03001216666667, "bike_id": "ed5230c75be5299a24ea42613f1985fa", "lat": 38.91698866666667, "fusion_lon": 0.0, "fusion_lat": 0.0, "type": "electric_scooter", "name": "ed5230c75be5299a24ea42613f1985fa", "is_disabled": 0, "rental_uris": {"ios": "https://dc.lft.to/lastmile_qr_scan", "android": "https://dc.lft.to/lastmile_qr_scan"}, "is_reserved": 0}, {"lon": -77.02365816666666, "bike_id": "33d6d4071d141b6baea2bcbc178651b9", "lat": 38.884817166666664, "fusion_lon": 0.0, "fusion_lat": 0.0, "type": "electric_scooter", "name": "33d6d4071d141b6baea2bcbc178651b9", "is_disabled": 0, "rental_uris": {"ios": "https://dc.lft.to/lastmile_qr_scan", "android": "https://dc.lft.to/lastmile_qr_scan"}, "is_reserved": 0}, {"lon": -77.00371483333333, "bike_id": "8bc3c6f2f5dc72eaefec519d4a50910c", "lat": 38.8952265, "fusion_lon": 0.0, "fusion_lat": 0.0, "type": "electric_scooter", "name": "8bc3c6f2f5dc72eaefec519d4a50910c", "is_disabled": 0, "rental_uris": {"ios": "https://dc.lft.to/lastmile_qr_scan", "android": "https://dc.lft.to/lastmile_qr_scan"}, "is_reserved": 0}, {"lon": -77.061116, "bike_id": "2923d6199ad27f2af6778b82b98ca97c", "lat": 38.943679833333334, "fusion_lon": 0.0, "fusion_lat": 0.0, "type": "electric_scooter", "name": "2923d6199ad27f2af6778b82b98ca97c", "is_disabled": 0, "rental_uris": {"ios": "https://dc.lft.to/lastmile_qr_scan", "android": "https://dc.lft.to/lastmile_qr_scan"}, "is_reserved": 0}, {"lon": -77.03182716666667, "bike_id": "3f4f251019fbb3dfbd6c9a9a999b7520", "lat": 38.93611966666667, "fusion_lon": 0.0, "fusion_lat": 0.0, "type": "electric_scooter", "name": "3f4f251019fbb3dfbd6c9a9a999b7520", "is_disabled": 0, "rental_uris": {"ios": "https://dc.lft.to/lastmile_qr_scan", "android": "https://dc.lft.to/lastmile_qr_scan"}, "is_reserved": 0}, {"lon": -77.033404, "bike_id": "38f990baa8096a4d4ac9460c8fb2c95b", "lat": 38.919204, "fusion_lon": 0.0, "fusion_lat": 0.0, "type": "electric_scooter", "name": "38f990baa8096a4d4ac9460c8fb2c95b", "is_disabled": 0, "rental_uris": {"ios": "https://dc.lft.to/lastmile_qr_scan", "android": "https://dc.lft.to/lastmile_qr_scan"}, "is_reserved": 0}, {"lon": -77.04238066666667, "bike_id": "864d4d83b765ad9729fdacc3615b9140", "lat": 38.916461, "fusion_lon": 0.0, "fusion_lat": 0.0, "type": "electric_scooter", "name": "864d4d83b765ad9729fdacc3615b9140", "is_disabled": 0, "rental_uris": {"ios": "https://dc.lft.to/lastmile_qr_scan", "android": "https://dc.lft.to/lastmile_qr_scan"}, "is_reserved": 0}, {"lon": -77.0468255, "bike_id": "9612004a0b41d89b96418bf81eb196b8", "lat": 38.8973795, "fusion_lon": 0.0, "fusion_lat": 0.0, "type": "electric_scooter", "name": "9612004a0b41d89b96418bf81eb196b8", "is_disabled": 0, "rental_uris": {"ios": "https://dc.lft.to/lastmile_qr_scan", "android": "https://dc.lft.to/lastmile_qr_scan"}, "is_reserved": 0}, {"lon": -76.983694, "bike_id": "876737dc654491d8a0adefef9be38750", "lat": 38.914948333333335, "fusion_lon": 0.0, "fusion_lat": 0.0, "type": "electric_scooter", "name": "876737dc654491d8a0adefef9be38750", "is_disabled": 0, "rental_uris": {"ios": "https://dc.lft.to/lastmile_qr_scan", "android": "https://dc.lft.to/lastmile_qr_scan"}, "is_reserved": 0}, {"lon": -76.99472483333334, "bike_id": "0b334bb5da49e92a53f4cd3c7a8ee83e", "lat": 38.86216866666667, "fusion_lon": 0.0, "fusion_lat": 0.0, "type": "electric_scooter", "name": "0b334bb5da49e92a53f4cd3c7a8ee83e", "is_disabled": 0, "rental_uris": {"ios": "https://dc.lft.to/lastmile_qr_scan", "android": "https://dc.lft.to/lastmile_qr_scan"}, "is_reserved": 0}, {"lon": -76.9837325, "bike_id": "a0b320deadf13f8ab884bd7341e4b5b6", "lat": 38.8914305, "fusion_lon": 0.0, "fusion_lat": 0.0, "type": "electric_scooter", "name": "a0b320deadf13f8ab884bd7341e4b5b6", "is_disabled": 0, "rental_uris": {"ios": "https://dc.lft.to/lastmile_qr_scan", "android": "https://dc.lft.to/lastmile_qr_scan"}, "is_reserved": 0}, {"lon": -76.98833816666667, "bike_id": "72654d4c7a06d94b891ac6415cb9981d", "lat": 38.90069866666666, "fusion_lon": 0.0, "fusion_lat": 0.0, "type": "electric_scooter", "name": "72654d4c7a06d94b891ac6415cb9981d", "is_disabled": 0, "rental_uris": {"ios": "https://dc.lft.to/lastmile_qr_scan", "android": "https://dc.lft.to/lastmile_qr_scan"}, "is_reserved": 0}, {"lon": -77.04103666666667, "bike_id": "7b91aa301060fc985834b5235b30ea37", "lat": 38.923126, "fusion_lon": 0.0, "fusion_lat": 0.0, "type": "electric_scooter", "name": "7b91aa301060fc985834b5235b30ea37", "is_disabled": 0, "rental_uris": {"ios": "https://dc.lft.to/lastmile_qr_scan", "android": "https://dc.lft.to/lastmile_qr_scan"}, "is_reserved": 0}, {"lon": -76.989245, "bike_id": "ff55ac7864b34ef68f39cef3667cb3f2", "lat": 38.901848666666666, "fusion_lon": 0.0, "fusion_lat": 0.0, "type": "electric_scooter", "name": "ff55ac7864b34ef68f39cef3667cb3f2", "is_disabled": 0, "rental_uris": {"ios": "https://dc.lft.to/lastmile_qr_scan", "android": "https://dc.lft.to/lastmile_qr_scan"}, "is_reserved": 0}, {"lon": -76.9574915, "bike_id": "130d1b6b9a24ddcd5b97782449a61214", "lat": 38.88427633333333, "fusion_lon": 0.0, "fusion_lat": 0.0, "type": "electric_scooter", "name": "130d1b6b9a24ddcd5b97782449a61214", "is_disabled": 0, "rental_uris": {"ios": "https://dc.lft.to/lastmile_qr_scan", "android": "https://dc.lft.to/lastmile_qr_scan"}, "is_reserved": 0}, {"lon": -77.02967283333334, "bike_id": "cf6bdf25ad88e8c87e268463bf245cd7", "lat": 38.912470666666664, "fusion_lon": 0.0, "fusion_lat": 0.0, "type": "electric_scooter", "name": "cf6bdf25ad88e8c87e268463bf245cd7", "is_disabled": 0, "rental_uris": {"ios": "https://dc.lft.to/lastmile_qr_scan", "android": "https://dc.lft.to/lastmile_qr_scan"}, "is_reserved": 0}, {"lon": -77.05009266666667, "bike_id": "2205932fa7a8e195d3b9fb6e5daff6f6", "lat": 38.901822333333335, "fusion_lon": 0.0, "fusion_lat": 0.0, "type": "electric_scooter", "name": "2205932fa7a8e195d3b9fb6e5daff6f6", "is_disabled": 0, "rental_uris": {"ios": "https://dc.lft.to/lastmile_qr_scan", "android": "https://dc.lft.to/lastmile_qr_scan"}, "is_reserved": 0}, {"lon": -77.0304555, "bike_id": "578e914a5a52a915333a62023a060371", "lat": 38.88430816666666, "fusion_lon": 0.0, "fusion_lat": 0.0, "type": "electric_scooter", "name": "578e914a5a52a915333a62023a060371", "is_disabled": 0, "rental_uris": {"ios": "https://dc.lft.to/lastmile_qr_scan", "android": "https://dc.lft.to/lastmile_qr_scan"}, "is_reserved": 0}, {"lon": -77.06880933333333, "bike_id": "e614436cda89dda99f6deb04db76979d", "lat": 38.903885833333334, "fusion_lon": 0.0, "fusion_lat": 0.0, "type": "electric_bike", "name": "e614436cda89dda99f6deb04db76979d", "is_disabled": 0, "rental_uris": {"ios": "https://dc.lft.to/lastmile_qr_scan", "android": "https://dc.lft.to/lastmile_qr_scan"}, "is_reserved": 0}, {"lon": -77.04159516666667, "bike_id": "45a0425f124e763055476586982c0841", "lat": 38.912554166666666, "fusion_lon": 0.0, "fusion_lat": 0.0, "type": "electric_scooter", "name": "45a0425f124e763055476586982c0841", "is_disabled": 0, "rental_uris": {"ios": "https://dc.lft.to/lastmile_qr_scan", "android": "https://dc.lft.to/lastmile_qr_scan"}, "is_reserved": 0}, {"lon": -76.937344, "bike_id": "d5582cad326b211eca9baf39e0068dd8", "lat": 38.890139, "fusion_lon": 0.0, "fusion_lat": 0.0, "type": "electric_scooter", "name": "d5582cad326b211eca9baf39e0068dd8", "is_disabled": 0, "rental_uris": {"ios": "https://dc.lft.to/lastmile_qr_scan", "android": "https://dc.lft.to/lastmile_qr_scan"}, "is_reserved": 0}, {"lon": -77.04170866666666, "bike_id": "a46ebe71c97fd1b3e68f9ad2f553b117", "lat": 38.923148833333336, "fusion_lon": 0.0, "fusion_lat": 0.0, "type": "electric_scooter", "name": "a46ebe71c97fd1b3e68f9ad2f553b117", "is_disabled": 0, "rental_uris": {"ios": "https://dc.lft.to/lastmile_qr_scan", "android": "https://dc.lft.to/lastmile_qr_scan"}, "is_reserved": 0}, {"lon": -77.053839, "bike_id": "7a14f2b1a9810747e9052451a12ac00a", "lat": 38.90394716666667, "fusion_lon": 0.0, "fusion_lat": 0.0, "type": "electric_scooter", "name": "7a14f2b1a9810747e9052451a12ac00a", "is_disabled": 0, "rental_uris": {"ios": "https://dc.lft.to/lastmile_qr_scan", "android": "https://dc.lft.to/lastmile_qr_scan"}, "is_reserved": 0}, {"lon": -77.030874, "bike_id": "4e994153a4528703ddf4f0bf5a05dcf7", "lat": 38.909944, "fusion_lon": 0.0, "fusion_lat": 0.0, "type": "electric_scooter", "name": "4e994153a4528703ddf4f0bf5a05dcf7", "is_disabled": 0, "rental_uris": {"ios": "https://dc.lft.to/lastmile_qr_scan", "android": "https://dc.lft.to/lastmile_qr_scan"}, "is_reserved": 0}, {"lon": -77.04154833333334, "bike_id": "2a03c1cc03a7d3d89d11026baa90c8f6", "lat": 38.923358666666665, "fusion_lon": 0.0, "fusion_lat": 0.0, "type": "electric_scooter", "name": "2a03c1cc03a7d3d89d11026baa90c8f6", "is_disabled": 0, "rental_uris": {"ios": "https://dc.lft.to/lastmile_qr_scan", "android": "https://dc.lft.to/lastmile_qr_scan"}, "is_reserved": 0}, {"lon": -77.02390816666667, "bike_id": "eba532adad0475ffb3bdd7fc8869f3ca", "lat": 38.90017433333333, "fusion_lon": 0.0, "fusion_lat": 0.0, "type": "electric_scooter", "name": "eba532adad0475ffb3bdd7fc8869f3ca", "is_disabled": 0, "rental_uris": {"ios": "https://dc.lft.to/lastmile_qr_scan", "android": "https://dc.lft.to/lastmile_qr_scan"}, "is_reserved": 0}, {"lon": -76.99000716666667, "bike_id": "997a6cd242ed9ba6fcf4877290c948d5", "lat": 38.865046666666665, "fusion_lon": 0.0, "fusion_lat": 0.0, "type": "electric_scooter", "name": "997a6cd242ed9ba6fcf4877290c948d5", "is_disabled": 0, "rental_uris": {"ios": "https://dc.lft.to/lastmile_qr_scan", "android": "https://dc.lft.to/lastmile_qr_scan"}, "is_reserved": 0}, {"lon": -77.0344405, "bike_id": "1a2a991e26216db465ea7f4cf8b7e14c", "lat": 38.909764, "fusion_lon": 0.0, "fusion_lat": 0.0, "type": "electric_scooter", "name": "1a2a991e26216db465ea7f4cf8b7e14c", "is_disabled": 0, "rental_uris": {"ios": "https://dc.lft.to/lastmile_qr_scan", "android": "https://dc.lft.to/lastmile_qr_scan"}, "is_reserved": 0}, {"lon": -77.06141616666666, "bike_id": "9c495b622f596dc51f4ada8bdf30fbb6", "lat": 38.94358966666667, "fusion_lon": 0.0, "fusion_lat": 0.0, "type": "electric_scooter", "name": "9c495b622f596dc51f4ada8bdf30fbb6", "is_disabled": 0, "rental_uris": {"ios": "https://dc.lft.to/lastmile_qr_scan", "android": "https://dc.lft.to/lastmile_qr_scan"}, "is_reserved": 0}, {"lon": -77.02426883333334, "bike_id": "0aff70bc91c45b49e5bdc32777a14775", "lat": 38.92290783333333, "fusion_lon": 0.0, "fusion_lat": 0.0, "type": "electric_scooter", "name": "0aff70bc91c45b49e5bdc32777a14775", "is_disabled": 0, "rental_uris": {"ios": "https://dc.lft.to/lastmile_qr_scan", "android": "https://dc.lft.to/lastmile_qr_scan"}, "is_reserved": 0}, {"lon": -77.03590383333334, "bike_id": "f8917135bfde0d32aa66228f06ec9e6b", "lat": 38.9097485, "fusion_lon": 0.0, "fusion_lat": 0.0, "type": "electric_scooter", "name": "f8917135bfde0d32aa66228f06ec9e6b", "is_disabled": 0, "rental_uris": {"ios": "https://dc.lft.to/lastmile_qr_scan", "android": "https://dc.lft.to/lastmile_qr_scan"}, "is_reserved": 0}, {"lon": -77.00193216666666, "bike_id": "6f6fa2bb48fd70a089f3c253135b5642", "lat": 38.89099066666667, "fusion_lon": 0.0, "fusion_lat": 0.0, "type": "electric_scooter", "name": "6f6fa2bb48fd70a089f3c253135b5642", "is_disabled": 0, "rental_uris": {"ios": "https://dc.lft.to/lastmile_qr_scan", "android": "https://dc.lft.to/lastmile_qr_scan"}, "is_reserved": 0}, {"lon": -77.02694133333334, "bike_id": "42f4cbda6904134d84fca1a632951b10", "lat": 38.902376333333336, "fusion_lon": 0.0, "fusion_lat": 0.0, "type": "electric_scooter", "name": "42f4cbda6904134d84fca1a632951b10", "is_disabled": 0, "rental_uris": {"ios": "https://dc.lft.to/lastmile_qr_scan", "android": "https://dc.lft.to/lastmile_qr_scan"}, "is_reserved": 0}, {"lon": -77.04979516666667, "bike_id": "b19d2ec230f0a59c9413c4bab01c94b4", "lat": 38.899963, "fusion_lon": 0.0, "fusion_lat": 0.0, "type": "electric_scooter", "name": "b19d2ec230f0a59c9413c4bab01c94b4", "is_disabled": 0, "rental_uris": {"ios": "https://dc.lft.to/lastmile_qr_scan", "android": "https://dc.lft.to/lastmile_qr_scan"}, "is_reserved": 0}, {"lon": -77.07795033333333, "bike_id": "05f73a9b6de65d00d4c57b41fb2a2f83", "lat": 38.99602733333333, "fusion_lon": 0.0, "fusion_lat": 0.0, "type": "electric_bike", "name": "05f73a9b6de65d00d4c57b41fb2a2f83", "is_disabled": 0, "rental_uris": {"ios": "https://dc.lft.to/lastmile_qr_scan", "android": "https://dc.lft.to/lastmile_qr_scan"}, "is_reserved": 0}, {"lon": -77.052745, "bike_id": "27183b990839be21a06c41859dbcdfd5", "lat": 38.899721, "fusion_lon": 0.0, "fusion_lat": 0.0, "type": "electric_scooter", "name": "27183b990839be21a06c41859dbcdfd5", "is_disabled": 0, "rental_uris": {"ios": "https://dc.lft.to/lastmile_qr_scan", "android": "https://dc.lft.to/lastmile_qr_scan"}, "is_reserved": 0}, {"lon": -76.95332316666666, "bike_id": "503b51cba374fb15e334d37e85706310", "lat": 38.8893275, "fusion_lon": 0.0, "fusion_lat": 0.0, "type": "electric_scooter", "name": "503b51cba374fb15e334d37e85706310", "is_disabled": 0, "rental_uris": {"ios": "https://dc.lft.to/lastmile_qr_scan", "android": "https://dc.lft.to/lastmile_qr_scan"}, "is_reserved": 0}, {"lon": -77.030028, "bike_id": "8efe307e4a5edd185838db78a29ab3ac", "lat": 39.041942666666664, "fusion_lon": 0.0, "fusion_lat": 0.0, "type": "electric_bike", "name": "8efe307e4a5edd185838db78a29ab3ac", "is_disabled": 0, "rental_uris": {"ios": "https://dc.lft.to/lastmile_qr_scan", "android": "https://dc.lft.to/lastmile_qr_scan"}, "is_reserved": 0}, {"lon": -76.977462, "bike_id": "3ec45704c37da79ab9b2211e5db94ae4", "lat": 38.89898083333333, "fusion_lon": 0.0, "fusion_lat": 0.0, "type": "electric_scooter", "name": "3ec45704c37da79ab9b2211e5db94ae4", "is_disabled": 0, "rental_uris": {"ios": "https://dc.lft.to/lastmile_qr_scan", "android": "https://dc.lft.to/lastmile_qr_scan"}, "is_reserved": 0}, {"lon": -77.04390016666666, "bike_id": "607ad41f1de7e1b32392e14bda6046cb", "lat": 38.9057815, "fusion_lon": 0.0, "fusion_lat": 0.0, "type": "electric_scooter", "name": "607ad41f1de7e1b32392e14bda6046cb", "is_disabled": 0, "rental_uris": {"ios": "https://dc.lft.to/lastmile_qr_scan", "android": "https://dc.lft.to/lastmile_qr_scan"}, "is_reserved": 0}, {"lon": -77.01984916666666, "bike_id": "827e640e7145983ff4f463c98882132f", "lat": 38.8860315, "fusion_lon": 0.0, "fusion_lat": 0.0, "type": "electric_scooter", "name": "827e640e7145983ff4f463c98882132f", "is_disabled": 0, "rental_uris": {"ios": "https://dc.lft.to/lastmile_qr_scan", "android": "https://dc.lft.to/lastmile_qr_scan"}, "is_reserved": 0}, {"lon": -77.02480133333333, "bike_id": "3f09fabb9386066660041fd9b5252881", "lat": 38.90393433333333, "fusion_lon": 0.0, "fusion_lat": 0.0, "type": "electric_scooter", "name": "3f09fabb9386066660041fd9b5252881", "is_disabled": 0, "rental_uris": {"ios": "https://dc.lft.to/lastmile_qr_scan", "android": "https://dc.lft.to/lastmile_qr_scan"}, "is_reserved": 0}, {"lon": -77.02307883333333, "bike_id": "388bbd49078385528bf45474b16a4128", "lat": 38.91590433333333, "fusion_lon": 0.0, "fusion_lat": 0.0, "type": "electric_bike", "name": "388bbd49078385528bf45474b16a4128", "is_disabled": 0, "rental_uris": {"ios": "https://dc.lft.to/lastmile_qr_scan", "android": "https://dc.lft.to/lastmile_qr_scan"}, "is_reserved": 0}, {"lon": -77.00596183333333, "bike_id": "2670f6265688b219da196b6a37e369ab", "lat": 38.871825, "fusion_lon": 0.0, "fusion_lat": 0.0, "type": "electric_bike", "name": "2670f6265688b219da196b6a37e369ab", "is_disabled": 0, "rental_uris": {"ios": "https://dc.lft.to/lastmile_qr_scan", "android": "https://dc.lft.to/lastmile_qr_scan"}, "is_reserved": 0}, {"lon": -76.94634333333333, "bike_id": "430fd48f6cfcf5a9d0427a4311dd31b6", "lat": 38.89833433333333, "fusion_lon": 0.0, "fusion_lat": 0.0, "type": "electric_scooter", "name": "430fd48f6cfcf5a9d0427a4311dd31b6", "is_disabled": 0, "rental_uris": {"ios": "https://dc.lft.to/lastmile_qr_scan", "android": "https://dc.lft.to/lastmile_qr_scan"}, "is_reserved": 0}, {"lon": -77.084541, "bike_id": "9ff64167989536b4a23fbe835981d7a5", "lat": 38.84818083333333, "fusion_lon": 0.0, "fusion_lat": 0.0, "type": "electric_bike", "name": "9ff64167989536b4a23fbe835981d7a5", "is_disabled": 0, "rental_uris": {"ios": "https://dc.lft.to/lastmile_qr_scan", "android": "https://dc.lft.to/lastmile_qr_scan"}, "is_reserved": 0}, {"lon": -77.03413416666666, "bike_id": "c05cc1b960c73e1f47f9fae03183203a", "lat": 38.922440333333334, "fusion_lon": 0.0, "fusion_lat": 0.0, "type": "electric_scooter", "name": "c05cc1b960c73e1f47f9fae03183203a", "is_disabled": 0, "rental_uris": {"ios": "https://dc.lft.to/lastmile_qr_scan", "android": "https://dc.lft.to/lastmile_qr_scan"}, "is_reserved": 0}, {"lon": -77.0634005, "bike_id": "56ba73a91d74a8f1af2eef91414ae582", "lat": 38.90682783333333, "fusion_lon": 0.0, "fusion_lat": 0.0, "type": "electric_scooter", "name": "56ba73a91d74a8f1af2eef91414ae582", "is_disabled": 0, "rental_uris": {"ios": "https://dc.lft.to/lastmile_qr_scan", "android": "https://dc.lft.to/lastmile_qr_scan"}, "is_reserved": 0}, {"lon": -77.05535233333333, "bike_id": "f82ba36dde59f956b97d81bedce9456f", "lat": 38.934351, "fusion_lon": 0.0, "fusion_lat": 0.0, "type": "electric_scooter", "name": "f82ba36dde59f956b97d81bedce9456f", "is_disabled": 0, "rental_uris": {"ios": "https://dc.lft.to/lastmile_qr_scan", "android": "https://dc.lft.to/lastmile_qr_scan"}, "is_reserved": 0}, {"lon": -77.02687016666667, "bike_id": "d4f3d9c8a9b203c86ad8d5506ae208f0", "lat": 38.8969725, "fusion_lon": 0.0, "fusion_lat": 0.0, "type": "electric_scooter", "name": "d4f3d9c8a9b203c86ad8d5506ae208f0", "is_disabled": 0, "rental_uris": {"ios": "https://dc.lft.to/lastmile_qr_scan", "android": "https://dc.lft.to/lastmile_qr_scan"}, "is_reserved": 0}, {"lon": -77.03402566666666, "bike_id": "1561d67dcd30d9ca557573f9c6d470f2", "lat": 38.90962116666667, "fusion_lon": 0.0, "fusion_lat": 0.0, "type": "electric_scooter", "name": "1561d67dcd30d9ca557573f9c6d470f2", "is_disabled": 0, "rental_uris": {"ios": "https://dc.lft.to/lastmile_qr_scan", "android": "https://dc.lft.to/lastmile_qr_scan"}, "is_reserved": 0}, {"lon": -76.97391516666667, "bike_id": "5aa1806231046991efa75310e3d6675a", "lat": 38.90557833333333, "fusion_lon": 0.0, "fusion_lat": 0.0, "type": "electric_scooter", "name": "5aa1806231046991efa75310e3d6675a", "is_disabled": 0, "rental_uris": {"ios": "https://dc.lft.to/lastmile_qr_scan", "android": "https://dc.lft.to/lastmile_qr_scan"}, "is_reserved": 0}, {"lon": -77.03504083333333, "bike_id": "52c90dd2113b119d0f97f9757f8cf2f8", "lat": 38.937488, "fusion_lon": 0.0, "fusion_lat": 0.0, "type": "electric_scooter", "name": "52c90dd2113b119d0f97f9757f8cf2f8", "is_disabled": 0, "rental_uris": {"ios": "https://dc.lft.to/lastmile_qr_scan", "android": "https://dc.lft.to/lastmile_qr_scan"}, "is_reserved": 0}, {"lon": -77.03896033333334, "bike_id": "1578db8a73f4c259bc5a508cdf038c16", "lat": 38.923615166666664, "fusion_lon": 0.0, "fusion_lat": 0.0, "type": "electric_scooter", "name": "1578db8a73f4c259bc5a508cdf038c16", "is_disabled": 0, "rental_uris": {"ios": "https://dc.lft.to/lastmile_qr_scan", "android": "https://dc.lft.to/lastmile_qr_scan"}, "is_reserved": 0}, {"lon": -77.04569316666667, "bike_id": "b19e726a4451afbba429624affd99de6", "lat": 38.91405683333333, "fusion_lon": 0.0, "fusion_lat": 0.0, "type": "electric_scooter", "name": "b19e726a4451afbba429624affd99de6", "is_disabled": 0, "rental_uris": {"ios": "https://dc.lft.to/lastmile_qr_scan", "android": "https://dc.lft.to/lastmile_qr_scan"}, "is_reserved": 0}, {"lon": -76.975462, "bike_id": "254dcb8ee397bf06fa4e4d6b3a401a02", "lat": 38.90320616666666, "fusion_lon": 0.0, "fusion_lat": 0.0, "type": "electric_scooter", "name": "254dcb8ee397bf06fa4e4d6b3a401a02", "is_disabled": 0, "rental_uris": {"ios": "https://dc.lft.to/lastmile_qr_scan", "android": "https://dc.lft.to/lastmile_qr_scan"}, "is_reserved": 0}, {"lon": -76.9835115, "bike_id": "eede1e03d2883914719ae0d01c72086a", "lat": 38.887706, "fusion_lon": 0.0, "fusion_lat": 0.0, "type": "electric_scooter", "name": "eede1e03d2883914719ae0d01c72086a", "is_disabled": 0, "rental_uris": {"ios": "https://dc.lft.to/lastmile_qr_scan", "android": "https://dc.lft.to/lastmile_qr_scan"}, "is_reserved": 0}, {"lon": -77.04383333333334, "bike_id": "ca80d60901ffefe0200a28d5e9111518", "lat": 38.918806000000004, "fusion_lon": 0.0, "fusion_lat": 0.0, "type": "electric_scooter", "name": "ca80d60901ffefe0200a28d5e9111518", "is_disabled": 0, "rental_uris": {"ios": "https://dc.lft.to/lastmile_qr_scan", "android": "https://dc.lft.to/lastmile_qr_scan"}, "is_reserved": 0}, {"lon": -77.0320265, "bike_id": "df018d9a7a1d0aa5402edadc25b8eee6", "lat": 38.91689566666667, "fusion_lon": 0.0, "fusion_lat": 0.0, "type": "electric_scooter", "name": "df018d9a7a1d0aa5402edadc25b8eee6", "is_disabled": 0, "rental_uris": {"ios": "https://dc.lft.to/lastmile_qr_scan", "android": "https://dc.lft.to/lastmile_qr_scan"}, "is_reserved": 0}, {"lon": -77.03185183333333, "bike_id": "f59f9340c69617bd2b4b293897c8ffba", "lat": 38.917439, "fusion_lon": 0.0, "fusion_lat": 0.0, "type": "electric_scooter", "name": "f59f9340c69617bd2b4b293897c8ffba", "is_disabled": 0, "rental_uris": {"ios": "https://dc.lft.to/lastmile_qr_scan", "android": "https://dc.lft.to/lastmile_qr_scan"}, "is_reserved": 0}, {"lon": -77.04854866666666, "bike_id": "64e709277494fce23eb3c62de373ddc7", "lat": 38.9161355, "fusion_lon": 0.0, "fusion_lat": 0.0, "type": "electric_scooter", "name": "64e709277494fce23eb3c62de373ddc7", "is_disabled": 0, "rental_uris": {"ios": "https://dc.lft.to/lastmile_qr_scan", "android": "https://dc.lft.to/lastmile_qr_scan"}, "is_reserved": 0}, {"lon": -76.98353533333334, "bike_id": "7625a4f73df7e203b889b8de3da8b3bd", "lat": 38.862605333333335, "fusion_lon": 0.0, "fusion_lat": 0.0, "type": "electric_bike", "name": "7625a4f73df7e203b889b8de3da8b3bd", "is_disabled": 0, "rental_uris": {"ios": "https://dc.lft.to/lastmile_qr_scan", "android": "https://dc.lft.to/lastmile_qr_scan"}, "is_reserved": 0}, {"lon": -77.00067533333333, "bike_id": "735717cec5da5e7d880f425b3155b4e0", "lat": 38.899958, "fusion_lon": 0.0, "fusion_lat": 0.0, "type": "electric_scooter", "name": "735717cec5da5e7d880f425b3155b4e0", "is_disabled": 0, "rental_uris": {"ios": "https://dc.lft.to/lastmile_qr_scan", "android": "https://dc.lft.to/lastmile_qr_scan"}, "is_reserved": 0}, {"lon": -77.01850333333333, "bike_id": "c822a8174764ee2689fbefba4452e43b", "lat": 38.912633666666665, "fusion_lon": 0.0, "fusion_lat": 0.0, "type": "electric_scooter", "name": "c822a8174764ee2689fbefba4452e43b", "is_disabled": 0, "rental_uris": {"ios": "https://dc.lft.to/lastmile_qr_scan", "android": "https://dc.lft.to/lastmile_qr_scan"}, "is_reserved": 0}, {"lon": -77.01097766666666, "bike_id": "53686831a6eb9ec4da82f48c5db96e0e", "lat": 38.903731, "fusion_lon": 0.0, "fusion_lat": 0.0, "type": "electric_scooter", "name": "53686831a6eb9ec4da82f48c5db96e0e", "is_disabled": 0, "rental_uris": {"ios": "https://dc.lft.to/lastmile_qr_scan", "android": "https://dc.lft.to/lastmile_qr_scan"}, "is_reserved": 0}, {"lon": -77.05803166666666, "bike_id": "1181f80d502d961ca9ba78de588fecc8", "lat": 38.90503316666667, "fusion_lon": 0.0, "fusion_lat": 0.0, "type": "electric_scooter", "name": "1181f80d502d961ca9ba78de588fecc8", "is_disabled": 0, "rental_uris": {"ios": "https://dc.lft.to/lastmile_qr_scan", "android": "https://dc.lft.to/lastmile_qr_scan"}, "is_reserved": 0}, {"lon": -77.00843133333333, "bike_id": "b74ce13b472a6e1bd36affc4c2652aa3", "lat": 38.8790595, "fusion_lon": 0.0, "fusion_lat": 0.0, "type": "electric_scooter", "name": "b74ce13b472a6e1bd36affc4c2652aa3", "is_disabled": 0, "rental_uris": {"ios": "https://dc.lft.to/lastmile_qr_scan", "android": "https://dc.lft.to/lastmile_qr_scan"}, "is_reserved": 0}, {"lon": -77.02443883333333, "bike_id": "de5a87d12360563a0379365526bdaa8b", "lat": 38.914058833333335, "fusion_lon": 0.0, "fusion_lat": 0.0, "type": "electric_scooter", "name": "de5a87d12360563a0379365526bdaa8b", "is_disabled": 0, "rental_uris": {"ios": "https://dc.lft.to/lastmile_qr_scan", "android": "https://dc.lft.to/lastmile_qr_scan"}, "is_reserved": 0}, {"lon": -77.03913366666667, "bike_id": "c8a81018a1551d82ffcca47a06eef6f4", "lat": 38.92320616666667, "fusion_lon": 0.0, "fusion_lat": 0.0, "type": "electric_scooter", "name": "c8a81018a1551d82ffcca47a06eef6f4", "is_disabled": 0, "rental_uris": {"ios": "https://dc.lft.to/lastmile_qr_scan", "android": "https://dc.lft.to/lastmile_qr_scan"}, "is_reserved": 0}, {"lon": -77.04350766666667, "bike_id": "2acba1453551f015a60b1df0a1b59514", "lat": 38.921484166666666, "fusion_lon": 0.0, "fusion_lat": 0.0, "type": "electric_scooter", "name": "2acba1453551f015a60b1df0a1b59514", "is_disabled": 0, "rental_uris": {"ios": "https://dc.lft.to/lastmile_qr_scan", "android": "https://dc.lft.to/lastmile_qr_scan"}, "is_reserved": 0}, {"lon": -77.02978383333334, "bike_id": "d7cb9a43b7f51bf8a456e31372df5f16", "lat": 38.932480166666664, "fusion_lon": 0.0, "fusion_lat": 0.0, "type": "electric_scooter", "name": "d7cb9a43b7f51bf8a456e31372df5f16", "is_disabled": 0, "rental_uris": {"ios": "https://dc.lft.to/lastmile_qr_scan", "android": "https://dc.lft.to/lastmile_qr_scan"}, "is_reserved": 0}, {"lon": -77.01619966666667, "bike_id": "c7fdd77cb814d25a761b507862a46afe", "lat": 38.903467666666664, "fusion_lon": 0.0, "fusion_lat": 0.0, "type": "electric_scooter", "name": "c7fdd77cb814d25a761b507862a46afe", "is_disabled": 0, "rental_uris": {"ios": "https://dc.lft.to/lastmile_qr_scan", "android": "https://dc.lft.to/lastmile_qr_scan"}, "is_reserved": 0}, {"lon": -77.0239295, "bike_id": "a535602f1b896bb71545b6054edbc309", "lat": 38.91997166666667, "fusion_lon": 0.0, "fusion_lat": 0.0, "type": "electric_scooter", "name": "a535602f1b896bb71545b6054edbc309", "is_disabled": 0, "rental_uris": {"ios": "https://dc.lft.to/lastmile_qr_scan", "android": "https://dc.lft.to/lastmile_qr_scan"}, "is_reserved": 0}, {"lon": -77.02119783333333, "bike_id": "93b77ba6cca48151908f724b7499b198", "lat": 38.936978, "fusion_lon": 0.0, "fusion_lat": 0.0, "type": "electric_scooter", "name": "93b77ba6cca48151908f724b7499b198", "is_disabled": 0, "rental_uris": {"ios": "https://dc.lft.to/lastmile_qr_scan", "android": "https://dc.lft.to/lastmile_qr_scan"}, "is_reserved": 0}, {"lon": -76.97238383333334, "bike_id": "816605120e450a3f28a331b53e3a3c1d", "lat": 38.90351116666667, "fusion_lon": 0.0, "fusion_lat": 0.0, "type": "electric_scooter", "name": "816605120e450a3f28a331b53e3a3c1d", "is_disabled": 0, "rental_uris": {"ios": "https://dc.lft.to/lastmile_qr_scan", "android": "https://dc.lft.to/lastmile_qr_scan"}, "is_reserved": 0}, {"lon": -77.04818016666667, "bike_id": "2c4115a8954136bc277b50dcdba524d7", "lat": 38.8972275, "fusion_lon": 0.0, "fusion_lat": 0.0, "type": "electric_scooter", "name": "2c4115a8954136bc277b50dcdba524d7", "is_disabled": 0, "rental_uris": {"ios": "https://dc.lft.to/lastmile_qr_scan", "android": "https://dc.lft.to/lastmile_qr_scan"}, "is_reserved": 0}, {"lon": -77.0759495, "bike_id": "5aa13a12f2804e15ce200cda245cbc11", "lat": 38.912147166666664, "fusion_lon": 0.0, "fusion_lat": 0.0, "type": "electric_scooter", "name": "5aa13a12f2804e15ce200cda245cbc11", "is_disabled": 0, "rental_uris": {"ios": "https://dc.lft.to/lastmile_qr_scan", "android": "https://dc.lft.to/lastmile_qr_scan"}, "is_reserved": 0}, {"lon": -77.0199855, "bike_id": "262d1a52665d00fb4a3dda96746bee35", "lat": 38.9662595, "fusion_lon": 0.0, "fusion_lat": 0.0, "type": "electric_scooter", "name": "262d1a52665d00fb4a3dda96746bee35", "is_disabled": 0, "rental_uris": {"ios": "https://dc.lft.to/lastmile_qr_scan", "android": "https://dc.lft.to/lastmile_qr_scan"}, "is_reserved": 0}, {"lon": -77.03131533333334, "bike_id": "668c193b2820e128b067ea34a26268f2", "lat": 38.92033833333333, "fusion_lon": 0.0, "fusion_lat": 0.0, "type": "electric_scooter", "name": "668c193b2820e128b067ea34a26268f2", "is_disabled": 0, "rental_uris": {"ios": "https://dc.lft.to/lastmile_qr_scan", "android": "https://dc.lft.to/lastmile_qr_scan"}, "is_reserved": 0}, {"lon": -77.02805333333333, "bike_id": "61602d6a580bf004755d5a507b1b2277", "lat": 38.9142575, "fusion_lon": 0.0, "fusion_lat": 0.0, "type": "electric_scooter", "name": "61602d6a580bf004755d5a507b1b2277", "is_disabled": 0, "rental_uris": {"ios": "https://dc.lft.to/lastmile_qr_scan", "android": "https://dc.lft.to/lastmile_qr_scan"}, "is_reserved": 0}, {"lon": -77.03215483333334, "bike_id": "abfa7c8991116d603ed8d2574065bc7c", "lat": 38.892252166666665, "fusion_lon": 0.0, "fusion_lat": 0.0, "type": "electric_scooter", "name": "abfa7c8991116d603ed8d2574065bc7c", "is_disabled": 0, "rental_uris": {"ios": "https://dc.lft.to/lastmile_qr_scan", "android": "https://dc.lft.to/lastmile_qr_scan"}, "is_reserved": 0}, {"lon": -76.99459883333333, "bike_id": "bf5b4b8a1c2d8dc08afd11d2b9b47d9c", "lat": 38.9037525, "fusion_lon": 0.0, "fusion_lat": 0.0, "type": "electric_scooter", "name": "bf5b4b8a1c2d8dc08afd11d2b9b47d9c", "is_disabled": 0, "rental_uris": {"ios": "https://dc.lft.to/lastmile_qr_scan", "android": "https://dc.lft.to/lastmile_qr_scan"}, "is_reserved": 0}, {"lon": -77.03980266666667, "bike_id": "c77e53f16a50d176dfed69199549a13c", "lat": 38.89221833333333, "fusion_lon": 0.0, "fusion_lat": 0.0, "type": "electric_scooter", "name": "c77e53f16a50d176dfed69199549a13c", "is_disabled": 0, "rental_uris": {"ios": "https://dc.lft.to/lastmile_qr_scan", "android": "https://dc.lft.to/lastmile_qr_scan"}, "is_reserved": 0}, {"lon": -77.02308383333333, "bike_id": "79048d9242d20db496e73fcd81962aa7", "lat": 38.94200583333333, "fusion_lon": 0.0, "fusion_lat": 0.0, "type": "electric_scooter", "name": "79048d9242d20db496e73fcd81962aa7", "is_disabled": 0, "rental_uris": {"ios": "https://dc.lft.to/lastmile_qr_scan", "android": "https://dc.lft.to/lastmile_qr_scan"}, "is_reserved": 0}, {"lon": -77.07234966666667, "bike_id": "00a4fa48c00f95661bc7bdcd57df94a1", "lat": 38.898908666666664, "fusion_lon": 0.0, "fusion_lat": 0.0, "type": "electric_scooter", "name": "00a4fa48c00f95661bc7bdcd57df94a1", "is_disabled": 0, "rental_uris": {"ios": "https://dc.lft.to/lastmile_qr_scan", "android": "https://dc.lft.to/lastmile_qr_scan"}, "is_reserved": 0}, {"lon": -77.049178, "bike_id": "b3891890c53564c1aa08273f9b224f32", "lat": 38.908672333333335, "fusion_lon": 0.0, "fusion_lat": 0.0, "type": "electric_scooter", "name": "b3891890c53564c1aa08273f9b224f32", "is_disabled": 0, "rental_uris": {"ios": "https://dc.lft.to/lastmile_qr_scan", "android": "https://dc.lft.to/lastmile_qr_scan"}, "is_reserved": 0}, {"lon": -77.026986, "bike_id": "229016b035bc04965d2f90ed861613da", "lat": 38.90842716666667, "fusion_lon": 0.0, "fusion_lat": 0.0, "type": "electric_scooter", "name": "229016b035bc04965d2f90ed861613da", "is_disabled": 0, "rental_uris": {"ios": "https://dc.lft.to/lastmile_qr_scan", "android": "https://dc.lft.to/lastmile_qr_scan"}, "is_reserved": 0}, {"lon": -76.9884145, "bike_id": "81c2236136d84466d44a5ca004fb9c34", "lat": 38.84276366666667, "fusion_lon": 0.0, "fusion_lat": 0.0, "type": "electric_bike", "name": "81c2236136d84466d44a5ca004fb9c34", "is_disabled": 0, "rental_uris": {"ios": "https://dc.lft.to/lastmile_qr_scan", "android": "https://dc.lft.to/lastmile_qr_scan"}, "is_reserved": 0}, {"lon": -77.01796116666667, "bike_id": "ac8f371ecaccf1b25d8c74e9db311b1b", "lat": 38.97346366666667, "fusion_lon": 0.0, "fusion_lat": 0.0, "type": "electric_bike", "name": "ac8f371ecaccf1b25d8c74e9db311b1b", "is_disabled": 0, "rental_uris": {"ios": "https://dc.lft.to/lastmile_qr_scan", "android": "https://dc.lft.to/lastmile_qr_scan"}, "is_reserved": 0}, {"lon": -77.04767433333333, "bike_id": "e572cb7843dfc22cb40d757cb5b50ad2", "lat": 38.89604416666667, "fusion_lon": 0.0, "fusion_lat": 0.0, "type": "electric_scooter", "name": "e572cb7843dfc22cb40d757cb5b50ad2", "is_disabled": 0, "rental_uris": {"ios": "https://dc.lft.to/lastmile_qr_scan", "android": "https://dc.lft.to/lastmile_qr_scan"}, "is_reserved": 0}, {"lon": -76.9967695, "bike_id": "3f26f03ad6f953e428c4470f32ca8fbe", "lat": 38.86020366666666, "fusion_lon": 0.0, "fusion_lat": 0.0, "type": "electric_scooter", "name": "3f26f03ad6f953e428c4470f32ca8fbe", "is_disabled": 0, "rental_uris": {"ios": "https://dc.lft.to/lastmile_qr_scan", "android": "https://dc.lft.to/lastmile_qr_scan"}, "is_reserved": 0}, {"lon": -77.072822, "bike_id": "8639f093fbdc1ff6b973a6091a24f0be", "lat": 38.93190933333333, "fusion_lon": 0.0, "fusion_lat": 0.0, "type": "electric_scooter", "name": "8639f093fbdc1ff6b973a6091a24f0be", "is_disabled": 0, "rental_uris": {"ios": "https://dc.lft.to/lastmile_qr_scan", "android": "https://dc.lft.to/lastmile_qr_scan"}, "is_reserved": 0}, {"lon": -77.03526983333333, "bike_id": "27d1660884d83351e793e251624c5a02", "lat": 38.91845266666667, "fusion_lon": 0.0, "fusion_lat": 0.0, "type": "electric_scooter", "name": "27d1660884d83351e793e251624c5a02", "is_disabled": 0, "rental_uris": {"ios": "https://dc.lft.to/lastmile_qr_scan", "android": "https://dc.lft.to/lastmile_qr_scan"}, "is_reserved": 0}, {"lon": -77.05051466666667, "bike_id": "a39999543a8fb2df9a411e210e844f4b", "lat": 38.9070565, "fusion_lon": 0.0, "fusion_lat": 0.0, "type": "electric_scooter", "name": "a39999543a8fb2df9a411e210e844f4b", "is_disabled": 0, "rental_uris": {"ios": "https://dc.lft.to/lastmile_qr_scan", "android": "https://dc.lft.to/lastmile_qr_scan"}, "is_reserved": 0}, {"lon": -77.02920133333333, "bike_id": "edc1a4761c2664e9067a54dc117be5fe", "lat": 38.904758666666666, "fusion_lon": 0.0, "fusion_lat": 0.0, "type": "electric_scooter", "name": "edc1a4761c2664e9067a54dc117be5fe", "is_disabled": 0, "rental_uris": {"ios": "https://dc.lft.to/lastmile_qr_scan", "android": "https://dc.lft.to/lastmile_qr_scan"}, "is_reserved": 0}, {"lon": -77.02374083333333, "bike_id": "d2058d9543594953ed68ad62c7e8d5f1", "lat": 38.89221533333333, "fusion_lon": 0.0, "fusion_lat": 0.0, "type": "electric_scooter", "name": "d2058d9543594953ed68ad62c7e8d5f1", "is_disabled": 0, "rental_uris": {"ios": "https://dc.lft.to/lastmile_qr_scan", "android": "https://dc.lft.to/lastmile_qr_scan"}, "is_reserved": 0}, {"lon": -76.97522483333333, "bike_id": "c5800c75737aafa5e06962b68b7044eb", "lat": 38.96693233333333, "fusion_lon": 0.0, "fusion_lat": 0.0, "type": "electric_bike", "name": "c5800c75737aafa5e06962b68b7044eb", "is_disabled": 0, "rental_uris": {"ios": "https://dc.lft.to/lastmile_qr_scan", "android": "https://dc.lft.to/lastmile_qr_scan"}, "is_reserved": 0}, {"lon": -77.0208515, "bike_id": "a2ea9171c97132fd5e0e110f7e7a9b1e", "lat": 38.957528, "fusion_lon": 0.0, "fusion_lat": 0.0, "type": "electric_scooter", "name": "a2ea9171c97132fd5e0e110f7e7a9b1e", "is_disabled": 0, "rental_uris": {"ios": "https://dc.lft.to/lastmile_qr_scan", "android": "https://dc.lft.to/lastmile_qr_scan"}, "is_reserved": 0}, {"lon": -77.0338015, "bike_id": "320f23e53166f94c5c505bafdade43e7", "lat": 38.90962433333333, "fusion_lon": 0.0, "fusion_lat": 0.0, "type": "electric_scooter", "name": "320f23e53166f94c5c505bafdade43e7", "is_disabled": 0, "rental_uris": {"ios": "https://dc.lft.to/lastmile_qr_scan", "android": "https://dc.lft.to/lastmile_qr_scan"}, "is_reserved": 0}, {"lon": -77.03865783333333, "bike_id": "d38bc516f27bc206b6856fba1d6f3b1b", "lat": 38.9117215, "fusion_lon": 0.0, "fusion_lat": 0.0, "type": "electric_scooter", "name": "d38bc516f27bc206b6856fba1d6f3b1b", "is_disabled": 0, "rental_uris": {"ios": "https://dc.lft.to/lastmile_qr_scan", "android": "https://dc.lft.to/lastmile_qr_scan"}, "is_reserved": 0}, {"lon": -77.0199735, "bike_id": "9aaf2e60936d4da5f53dfac445b742c7", "lat": 38.913627166666664, "fusion_lon": 0.0, "fusion_lat": 0.0, "type": "electric_scooter", "name": "9aaf2e60936d4da5f53dfac445b742c7", "is_disabled": 0, "rental_uris": {"ios": "https://dc.lft.to/lastmile_qr_scan", "android": "https://dc.lft.to/lastmile_qr_scan"}, "is_reserved": 0}, {"lon": -77.01931933333333, "bike_id": "f038f2c8e513edde61b6a2cace144349", "lat": 38.894411833333336, "fusion_lon": 0.0, "fusion_lat": 0.0, "type": "electric_scooter", "name": "f038f2c8e513edde61b6a2cace144349", "is_disabled": 0, "rental_uris": {"ios": "https://dc.lft.to/lastmile_qr_scan", "android": "https://dc.lft.to/lastmile_qr_scan"}, "is_reserved": 0}, {"lon": -77.02985116666666, "bike_id": "004930edf528345da4c3034fe915ecdb", "lat": 38.924705833333334, "fusion_lon": 0.0, "fusion_lat": 0.0, "type": "electric_scooter", "name": "004930edf528345da4c3034fe915ecdb", "is_disabled": 0, "rental_uris": {"ios": "https://dc.lft.to/lastmile_qr_scan", "android": "https://dc.lft.to/lastmile_qr_scan"}, "is_reserved": 0}, {"lon": -76.98847966666666, "bike_id": "669e255851eac883ffa4a0f7cbb2fa4c", "lat": 38.901318, "fusion_lon": 0.0, "fusion_lat": 0.0, "type": "electric_scooter", "name": "669e255851eac883ffa4a0f7cbb2fa4c", "is_disabled": 0, "rental_uris": {"ios": "https://dc.lft.to/lastmile_qr_scan", "android": "https://dc.lft.to/lastmile_qr_scan"}, "is_reserved": 0}, {"lon": -76.99698816666667, "bike_id": "a76bfe09cabda34817c8e56f1f189784", "lat": 38.90831433333334, "fusion_lon": 0.0, "fusion_lat": 0.0, "type": "electric_scooter", "name": "a76bfe09cabda34817c8e56f1f189784", "is_disabled": 0, "rental_uris": {"ios": "https://dc.lft.to/lastmile_qr_scan", "android": "https://dc.lft.to/lastmile_qr_scan"}, "is_reserved": 0}, {"lon": -76.97739833333333, "bike_id": "c0123fcb886f2a14f7529dff57c03abd", "lat": 38.86471383333333, "fusion_lon": 0.0, "fusion_lat": 0.0, "type": "electric_scooter", "name": "c0123fcb886f2a14f7529dff57c03abd", "is_disabled": 0, "rental_uris": {"ios": "https://dc.lft.to/lastmile_qr_scan", "android": "https://dc.lft.to/lastmile_qr_scan"}, "is_reserved": 0}, {"lon": -77.03550216666666, "bike_id": "de9fd40435219ceec9e25debb4c18608", "lat": 38.924088166666664, "fusion_lon": 0.0, "fusion_lat": 0.0, "type": "electric_scooter", "name": "de9fd40435219ceec9e25debb4c18608", "is_disabled": 0, "rental_uris": {"ios": "https://dc.lft.to/lastmile_qr_scan", "android": "https://dc.lft.to/lastmile_qr_scan"}, "is_reserved": 0}, {"lon": -77.0280685, "bike_id": "4a7263333a9ae04a577b69a66b3f3e9c", "lat": 38.930792, "fusion_lon": 0.0, "fusion_lat": 0.0, "type": "electric_scooter", "name": "4a7263333a9ae04a577b69a66b3f3e9c", "is_disabled": 0, "rental_uris": {"ios": "https://dc.lft.to/lastmile_qr_scan", "android": "https://dc.lft.to/lastmile_qr_scan"}, "is_reserved": 0}, {"lon": -76.9837425, "bike_id": "3da9be70ada61222f167f3e73d5fa81b", "lat": 38.90647766666667, "fusion_lon": 0.0, "fusion_lat": 0.0, "type": "electric_scooter", "name": "3da9be70ada61222f167f3e73d5fa81b", "is_disabled": 0, "rental_uris": {"ios": "https://dc.lft.to/lastmile_qr_scan", "android": "https://dc.lft.to/lastmile_qr_scan"}, "is_reserved": 0}, {"lon": -77.03641083333333, "bike_id": "086681976e50c9165387c6a3af796096", "lat": 38.911817166666665, "fusion_lon": 0.0, "fusion_lat": 0.0, "type": "electric_scooter", "name": "086681976e50c9165387c6a3af796096", "is_disabled": 0, "rental_uris": {"ios": "https://dc.lft.to/lastmile_qr_scan", "android": "https://dc.lft.to/lastmile_qr_scan"}, "is_reserved": 0}, {"lon": -77.0231255, "bike_id": "f7e317ff8989ce7631034138031149e1", "lat": 38.878874333333336, "fusion_lon": 0.0, "fusion_lat": 0.0, "type": "electric_scooter", "name": "f7e317ff8989ce7631034138031149e1", "is_disabled": 0, "rental_uris": {"ios": "https://dc.lft.to/lastmile_qr_scan", "android": "https://dc.lft.to/lastmile_qr_scan"}, "is_reserved": 0}, {"lon": -77.02118516666667, "bike_id": "70ecfa3a07a19a46775712a08d6fe12e", "lat": 38.930182, "fusion_lon": 0.0, "fusion_lat": 0.0, "type": "electric_scooter", "name": "70ecfa3a07a19a46775712a08d6fe12e", "is_disabled": 0, "rental_uris": {"ios": "https://dc.lft.to/lastmile_qr_scan", "android": "https://dc.lft.to/lastmile_qr_scan"}, "is_reserved": 0}, {"lon": -77.03080483333333, "bike_id": "c6cc0fae3454c3d6b34bdc88744bf32f", "lat": 38.9100365, "fusion_lon": 0.0, "fusion_lat": 0.0, "type": "electric_scooter", "name": "c6cc0fae3454c3d6b34bdc88744bf32f", "is_disabled": 0, "rental_uris": {"ios": "https://dc.lft.to/lastmile_qr_scan", "android": "https://dc.lft.to/lastmile_qr_scan"}, "is_reserved": 0}, {"lon": -77.08591883333334, "bike_id": "c9022b0b70023462424c90d41a6f2a34", "lat": 38.908723, "fusion_lon": 0.0, "fusion_lat": 0.0, "type": "electric_scooter", "name": "c9022b0b70023462424c90d41a6f2a34", "is_disabled": 0, "rental_uris": {"ios": "https://dc.lft.to/lastmile_qr_scan", "android": "https://dc.lft.to/lastmile_qr_scan"}, "is_reserved": 0}, {"lon": -76.9463385, "bike_id": "600051230127ab510eaa859fdb39c16a", "lat": 38.89833766666667, "fusion_lon": 0.0, "fusion_lat": 0.0, "type": "electric_scooter", "name": "600051230127ab510eaa859fdb39c16a", "is_disabled": 0, "rental_uris": {"ios": "https://dc.lft.to/lastmile_qr_scan", "android": "https://dc.lft.to/lastmile_qr_scan"}, "is_reserved": 0}, {"lon": -77.00053966666667, "bike_id": "6541476353da607486c25feb6547b8c5", "lat": 38.906881, "fusion_lon": 0.0, "fusion_lat": 0.0, "type": "electric_scooter", "name": "6541476353da607486c25feb6547b8c5", "is_disabled": 0, "rental_uris": {"ios": "https://dc.lft.to/lastmile_qr_scan", "android": "https://dc.lft.to/lastmile_qr_scan"}, "is_reserved": 0}, {"lon": -77.02056383333333, "bike_id": "ac1bb2c72080c715eb8c0df6ca5dafa2", "lat": 38.92354433333333, "fusion_lon": 0.0, "fusion_lat": 0.0, "type": "electric_scooter", "name": "ac1bb2c72080c715eb8c0df6ca5dafa2", "is_disabled": 0, "rental_uris": {"ios": "https://dc.lft.to/lastmile_qr_scan", "android": "https://dc.lft.to/lastmile_qr_scan"}, "is_reserved": 0}, {"lon": -77.00311083333334, "bike_id": "4d6d7361a77d2c1825290c77fc64a0fc", "lat": 38.923575666666665, "fusion_lon": 0.0, "fusion_lat": 0.0, "type": "electric_scooter", "name": "4d6d7361a77d2c1825290c77fc64a0fc", "is_disabled": 0, "rental_uris": {"ios": "https://dc.lft.to/lastmile_qr_scan", "android": "https://dc.lft.to/lastmile_qr_scan"}, "is_reserved": 0}, {"lon": -77.03260533333334, "bike_id": "b190fb5fe74a0c4617011fc78b495840", "lat": 38.9377385, "fusion_lon": 0.0, "fusion_lat": 0.0, "type": "electric_scooter", "name": "b190fb5fe74a0c4617011fc78b495840", "is_disabled": 0, "rental_uris": {"ios": "https://dc.lft.to/lastmile_qr_scan", "android": "https://dc.lft.to/lastmile_qr_scan"}, "is_reserved": 0}, {"lon": -77.04651883333334, "bike_id": "fddface631399c525def5e4d64aaf11c", "lat": 38.90965416666667, "fusion_lon": 0.0, "fusion_lat": 0.0, "type": "electric_scooter", "name": "fddface631399c525def5e4d64aaf11c", "is_disabled": 0, "rental_uris": {"ios": "https://dc.lft.to/lastmile_qr_scan", "android": "https://dc.lft.to/lastmile_qr_scan"}, "is_reserved": 0}, {"lon": -77.0448815, "bike_id": "62f319c86cec1ba7720a4dee6407b8c9", "lat": 38.91366516666667, "fusion_lon": 0.0, "fusion_lat": 0.0, "type": "electric_scooter", "name": "62f319c86cec1ba7720a4dee6407b8c9", "is_disabled": 0, "rental_uris": {"ios": "https://dc.lft.to/lastmile_qr_scan", "android": "https://dc.lft.to/lastmile_qr_scan"}, "is_reserved": 0}, {"lon": -77.050191, "bike_id": "c1c2f1caa270a5a8671425c6b6440189", "lat": 38.91575516666666, "fusion_lon": 0.0, "fusion_lat": 0.0, "type": "electric_scooter", "name": "c1c2f1caa270a5a8671425c6b6440189", "is_disabled": 0, "rental_uris": {"ios": "https://dc.lft.to/lastmile_qr_scan", "android": "https://dc.lft.to/lastmile_qr_scan"}, "is_reserved": 0}, {"lon": -77.02514883333333, "bike_id": "82e3f42ed41b60460dc48c6574a91190", "lat": 38.91687316666667, "fusion_lon": 0.0, "fusion_lat": 0.0, "type": "electric_scooter", "name": "82e3f42ed41b60460dc48c6574a91190", "is_disabled": 0, "rental_uris": {"ios": "https://dc.lft.to/lastmile_qr_scan", "android": "https://dc.lft.to/lastmile_qr_scan"}, "is_reserved": 0}, {"lon": -77.02406, "bike_id": "ced9f54db6951c9c224338aa134608e9", "lat": 38.8982275, "fusion_lon": 0.0, "fusion_lat": 0.0, "type": "electric_scooter", "name": "ced9f54db6951c9c224338aa134608e9", "is_disabled": 0, "rental_uris": {"ios": "https://dc.lft.to/lastmile_qr_scan", "android": "https://dc.lft.to/lastmile_qr_scan"}, "is_reserved": 0}, {"lon": -76.94416766666667, "bike_id": "319f8b5c38f29817def4c7b8af19070b", "lat": 38.886174833333335, "fusion_lon": 0.0, "fusion_lat": 0.0, "type": "electric_scooter", "name": "319f8b5c38f29817def4c7b8af19070b", "is_disabled": 0, "rental_uris": {"ios": "https://dc.lft.to/lastmile_qr_scan", "android": "https://dc.lft.to/lastmile_qr_scan"}, "is_reserved": 0}, {"lon": -76.98494566666666, "bike_id": "d4ea8526438e1fcb003a00893fe5d2f3", "lat": 38.878426833333336, "fusion_lon": 0.0, "fusion_lat": 0.0, "type": "electric_scooter", "name": "d4ea8526438e1fcb003a00893fe5d2f3", "is_disabled": 0, "rental_uris": {"ios": "https://dc.lft.to/lastmile_qr_scan", "android": "https://dc.lft.to/lastmile_qr_scan"}, "is_reserved": 0}, {"lon": -77.06009783333333, "bike_id": "d5df03e4739598fe01d604963f63d440", "lat": 38.901164333333334, "fusion_lon": 0.0, "fusion_lat": 0.0, "type": "electric_scooter", "name": "d5df03e4739598fe01d604963f63d440", "is_disabled": 0, "rental_uris": {"ios": "https://dc.lft.to/lastmile_qr_scan", "android": "https://dc.lft.to/lastmile_qr_scan"}, "is_reserved": 0}, {"lon": -76.96526766666666, "bike_id": "eae0d706cc84e20ff8b362b34054c7e0", "lat": 38.87627416666667, "fusion_lon": 0.0, "fusion_lat": 0.0, "type": "electric_scooter", "name": "eae0d706cc84e20ff8b362b34054c7e0", "is_disabled": 0, "rental_uris": {"ios": "https://dc.lft.to/lastmile_qr_scan", "android": "https://dc.lft.to/lastmile_qr_scan"}, "is_reserved": 0}, {"lon": -77.03215516666667, "bike_id": "413f8f9e939de209cf75f0a8a1320a45", "lat": 38.91407783333333, "fusion_lon": 0.0, "fusion_lat": 0.0, "type": "electric_scooter", "name": "413f8f9e939de209cf75f0a8a1320a45", "is_disabled": 0, "rental_uris": {"ios": "https://dc.lft.to/lastmile_qr_scan", "android": "https://dc.lft.to/lastmile_qr_scan"}, "is_reserved": 0}, {"lon": -77.05053383333333, "bike_id": "bc9794f34480dcd2780c2a73e26bfdd8", "lat": 38.923659, "fusion_lon": 0.0, "fusion_lat": 0.0, "type": "electric_scooter", "name": "bc9794f34480dcd2780c2a73e26bfdd8", "is_disabled": 0, "rental_uris": {"ios": "https://dc.lft.to/lastmile_qr_scan", "android": "https://dc.lft.to/lastmile_qr_scan"}, "is_reserved": 0}, {"lon": -77.044397, "bike_id": "6dc66c96e350a20940f1fe7373e8ec02", "lat": 38.9056925, "fusion_lon": 0.0, "fusion_lat": 0.0, "type": "electric_bike", "name": "6dc66c96e350a20940f1fe7373e8ec02", "is_disabled": 0, "rental_uris": {"ios": "https://dc.lft.to/lastmile_qr_scan", "android": "https://dc.lft.to/lastmile_qr_scan"}, "is_reserved": 0}, {"lon": -76.995339, "bike_id": "321df6fa559a29e8f7fb1dc61964ded7", "lat": 38.88376733333333, "fusion_lon": 0.0, "fusion_lat": 0.0, "type": "electric_scooter", "name": "321df6fa559a29e8f7fb1dc61964ded7", "is_disabled": 0, "rental_uris": {"ios": "https://dc.lft.to/lastmile_qr_scan", "android": "https://dc.lft.to/lastmile_qr_scan"}, "is_reserved": 0}, {"lon": -76.93119666666666, "bike_id": "3f6b95e93630333839c9c34537353dbb", "lat": 38.90139816666667, "fusion_lon": 0.0, "fusion_lat": 0.0, "type": "electric_scooter", "name": "3f6b95e93630333839c9c34537353dbb", "is_disabled": 0, "rental_uris": {"ios": "https://dc.lft.to/lastmile_qr_scan", "android": "https://dc.lft.to/lastmile_qr_scan"}, "is_reserved": 0}, {"lon": -77.02514583333334, "bike_id": "112fead4e0702098df5a4eb2fe5c251f", "lat": 38.916888666666665, "fusion_lon": 0.0, "fusion_lat": 0.0, "type": "electric_scooter", "name": "112fead4e0702098df5a4eb2fe5c251f", "is_disabled": 0, "rental_uris": {"ios": "https://dc.lft.to/lastmile_qr_scan", "android": "https://dc.lft.to/lastmile_qr_scan"}, "is_reserved": 0}, {"lon": -77.02813983333333, "bike_id": "4a1a77e8d696b1010c9ecdd14988d62f", "lat": 38.88185716666667, "fusion_lon": 0.0, "fusion_lat": 0.0, "type": "electric_bike", "name": "4a1a77e8d696b1010c9ecdd14988d62f", "is_disabled": 0, "rental_uris": {"ios": "https://dc.lft.to/lastmile_qr_scan", "android": "https://dc.lft.to/lastmile_qr_scan"}, "is_reserved": 0}, {"lon": -77.03859966666667, "bike_id": "208418d8f0e34f23519b24152385a1d9", "lat": 38.9178025, "fusion_lon": 0.0, "fusion_lat": 0.0, "type": "electric_scooter", "name": "208418d8f0e34f23519b24152385a1d9", "is_disabled": 0, "rental_uris": {"ios": "https://dc.lft.to/lastmile_qr_scan", "android": "https://dc.lft.to/lastmile_qr_scan"}, "is_reserved": 0}, {"lon": -76.99489966666667, "bike_id": "29f521438b2d663f87dbfb75a0f16f0e", "lat": 38.862431, "fusion_lon": 0.0, "fusion_lat": 0.0, "type": "electric_scooter", "name": "29f521438b2d663f87dbfb75a0f16f0e", "is_disabled": 0, "rental_uris": {"ios": "https://dc.lft.to/lastmile_qr_scan", "android": "https://dc.lft.to/lastmile_qr_scan"}, "is_reserved": 0}, {"lon": -77.01940166666667, "bike_id": "8b8bad96605b7c872945576b3d0af973", "lat": 38.93688483333333, "fusion_lon": 0.0, "fusion_lat": 0.0, "type": "electric_scooter", "name": "8b8bad96605b7c872945576b3d0af973", "is_disabled": 0, "rental_uris": {"ios": "https://dc.lft.to/lastmile_qr_scan", "android": "https://dc.lft.to/lastmile_qr_scan"}, "is_reserved": 0}, {"lon": -77.0527045, "bike_id": "1472cedf4b4e99805a62401689cb47c4", "lat": 38.8996455, "fusion_lon": 0.0, "fusion_lat": 0.0, "type": "electric_scooter", "name": "1472cedf4b4e99805a62401689cb47c4", "is_disabled": 0, "rental_uris": {"ios": "https://dc.lft.to/lastmile_qr_scan", "android": "https://dc.lft.to/lastmile_qr_scan"}, "is_reserved": 0}, {"lon": -76.98540116666666, "bike_id": "205de71c8b95ab6f75a23bae75fa33ab", "lat": 38.896518666666665, "fusion_lon": 0.0, "fusion_lat": 0.0, "type": "electric_scooter", "name": "205de71c8b95ab6f75a23bae75fa33ab", "is_disabled": 0, "rental_uris": {"ios": "https://dc.lft.to/lastmile_qr_scan", "android": "https://dc.lft.to/lastmile_qr_scan"}, "is_reserved": 0}, {"lon": -77.026323, "bike_id": "9f026afba650597f1c67f1697d14433f", "lat": 38.91697283333333, "fusion_lon": 0.0, "fusion_lat": 0.0, "type": "electric_scooter", "name": "9f026afba650597f1c67f1697d14433f", "is_disabled": 0, "rental_uris": {"ios": "https://dc.lft.to/lastmile_qr_scan", "android": "https://dc.lft.to/lastmile_qr_scan"}, "is_reserved": 0}, {"lon": -77.03308416666667, "bike_id": "c0ef5cb1555ccf05b97a971356535378", "lat": 38.92545783333333, "fusion_lon": 0.0, "fusion_lat": 0.0, "type": "electric_scooter", "name": "c0ef5cb1555ccf05b97a971356535378", "is_disabled": 0, "rental_uris": {"ios": "https://dc.lft.to/lastmile_qr_scan", "android": "https://dc.lft.to/lastmile_qr_scan"}, "is_reserved": 0}, {"lon": -77.041599, "bike_id": "e261d2925e3ede7848ab1a98fa40740b", "lat": 38.912491333333335, "fusion_lon": 0.0, "fusion_lat": 0.0, "type": "electric_scooter", "name": "e261d2925e3ede7848ab1a98fa40740b", "is_disabled": 0, "rental_uris": {"ios": "https://dc.lft.to/lastmile_qr_scan", "android": "https://dc.lft.to/lastmile_qr_scan"}, "is_reserved": 0}, {"lon": -77.04768883333334, "bike_id": "149932a93a7b93289843455cff52908d", "lat": 38.921369166666665, "fusion_lon": 0.0, "fusion_lat": 0.0, "type": "electric_scooter", "name": "149932a93a7b93289843455cff52908d", "is_disabled": 0, "rental_uris": {"ios": "https://dc.lft.to/lastmile_qr_scan", "android": "https://dc.lft.to/lastmile_qr_scan"}, "is_reserved": 0}, {"lon": -77.00560533333334, "bike_id": "fefd811d9d7ec2c69ed2cc7926b59b7d", "lat": 38.89610616666667, "fusion_lon": 0.0, "fusion_lat": 0.0, "type": "electric_scooter", "name": "fefd811d9d7ec2c69ed2cc7926b59b7d", "is_disabled": 0, "rental_uris": {"ios": "https://dc.lft.to/lastmile_qr_scan", "android": "https://dc.lft.to/lastmile_qr_scan"}, "is_reserved": 0}, {"lon": -77.01392183333333, "bike_id": "6254cbfc2e6f5b72f8a967e7371aa3e1", "lat": 38.928446, "fusion_lon": 0.0, "fusion_lat": 0.0, "type": "electric_scooter", "name": "6254cbfc2e6f5b72f8a967e7371aa3e1", "is_disabled": 0, "rental_uris": {"ios": "https://dc.lft.to/lastmile_qr_scan", "android": "https://dc.lft.to/lastmile_qr_scan"}, "is_reserved": 0}, {"lon": -77.040176, "bike_id": "b5074ef9157a93b172299805d1141319", "lat": 38.91112733333333, "fusion_lon": 0.0, "fusion_lat": 0.0, "type": "electric_scooter", "name": "b5074ef9157a93b172299805d1141319", "is_disabled": 0, "rental_uris": {"ios": "https://dc.lft.to/lastmile_qr_scan", "android": "https://dc.lft.to/lastmile_qr_scan"}, "is_reserved": 0}, {"lon": -77.02713116666666, "bike_id": "d79fc871d61fa6add8b6808b589313ec", "lat": 38.925923833333336, "fusion_lon": 0.0, "fusion_lat": 0.0, "type": "electric_scooter", "name": "d79fc871d61fa6add8b6808b589313ec", "is_disabled": 0, "rental_uris": {"ios": "https://dc.lft.to/lastmile_qr_scan", "android": "https://dc.lft.to/lastmile_qr_scan"}, "is_reserved": 0}, {"lon": -77.10920783333333, "bike_id": "9a6656e8300cf1deb2d11db7b6cda7c5", "lat": 39.051983166666666, "fusion_lon": 0.0, "fusion_lat": 0.0, "type": "electric_bike", "name": "9a6656e8300cf1deb2d11db7b6cda7c5", "is_disabled": 0, "rental_uris": {"ios": "https://dc.lft.to/lastmile_qr_scan", "android": "https://dc.lft.to/lastmile_qr_scan"}, "is_reserved": 0}, {"lon": -77.0171815, "bike_id": "bbe53a5b22ce70c173453e239268ee71", "lat": 38.916193166666666, "fusion_lon": 0.0, "fusion_lat": 0.0, "type": "electric_bike", "name": "bbe53a5b22ce70c173453e239268ee71", "is_disabled": 0, "rental_uris": {"ios": "https://dc.lft.to/lastmile_qr_scan", "android": "https://dc.lft.to/lastmile_qr_scan"}, "is_reserved": 0}, {"lon": -77.03172483333333, "bike_id": "6ce2d6018a7efa27ab3ed73ef91d2aeb", "lat": 38.91118766666666, "fusion_lon": 0.0, "fusion_lat": 0.0, "type": "electric_scooter", "name": "6ce2d6018a7efa27ab3ed73ef91d2aeb", "is_disabled": 0, "rental_uris": {"ios": "https://dc.lft.to/lastmile_qr_scan", "android": "https://dc.lft.to/lastmile_qr_scan"}, "is_reserved": 0}, {"lon": -77.03210783333333, "bike_id": "e2be5dcaadc232437037824e1e09c00b", "lat": 38.9153715, "fusion_lon": 0.0, "fusion_lat": 0.0, "type": "electric_scooter", "name": "e2be5dcaadc232437037824e1e09c00b", "is_disabled": 0, "rental_uris": {"ios": "https://dc.lft.to/lastmile_qr_scan", "android": "https://dc.lft.to/lastmile_qr_scan"}, "is_reserved": 0}, {"lon": -77.0321585, "bike_id": "b24dbea5f7724836da7744e1605baf70", "lat": 38.8964565, "fusion_lon": 0.0, "fusion_lat": 0.0, "type": "electric_scooter", "name": "b24dbea5f7724836da7744e1605baf70", "is_disabled": 0, "rental_uris": {"ios": "https://dc.lft.to/lastmile_qr_scan", "android": "https://dc.lft.to/lastmile_qr_scan"}, "is_reserved": 0}, {"lon": -76.9300025, "bike_id": "a339f124d7e8565b30b1864f784ec272", "lat": 38.901817666666666, "fusion_lon": 0.0, "fusion_lat": 0.0, "type": "electric_scooter", "name": "a339f124d7e8565b30b1864f784ec272", "is_disabled": 0, "rental_uris": {"ios": "https://dc.lft.to/lastmile_qr_scan", "android": "https://dc.lft.to/lastmile_qr_scan"}, "is_reserved": 0}, {"lon": -77.0348695, "bike_id": "dc87257efe35b406b45358ca084635ba", "lat": 38.934534, "fusion_lon": 0.0, "fusion_lat": 0.0, "type": "electric_scooter", "name": "dc87257efe35b406b45358ca084635ba", "is_disabled": 0, "rental_uris": {"ios": "https://dc.lft.to/lastmile_qr_scan", "android": "https://dc.lft.to/lastmile_qr_scan"}, "is_reserved": 0}, {"lon": -77.0325935, "bike_id": "e9b59dbb42d55f542b3cba8789ec0b98", "lat": 38.93774583333333, "fusion_lon": 0.0, "fusion_lat": 0.0, "type": "electric_scooter", "name": "e9b59dbb42d55f542b3cba8789ec0b98", "is_disabled": 0, "rental_uris": {"ios": "https://dc.lft.to/lastmile_qr_scan", "android": "https://dc.lft.to/lastmile_qr_scan"}, "is_reserved": 0}, {"lon": -77.04419933333334, "bike_id": "9c13c277a7d5ca656c7eb5d4c8904b6b", "lat": 38.911258, "fusion_lon": 0.0, "fusion_lat": 0.0, "type": "electric_scooter", "name": "9c13c277a7d5ca656c7eb5d4c8904b6b", "is_disabled": 0, "rental_uris": {"ios": "https://dc.lft.to/lastmile_qr_scan", "android": "https://dc.lft.to/lastmile_qr_scan"}, "is_reserved": 0}, {"lon": -76.992937, "bike_id": "585a6a0084008ab782a215cc8c66f809", "lat": 38.89887233333334, "fusion_lon": 0.0, "fusion_lat": 0.0, "type": "electric_scooter", "name": "585a6a0084008ab782a215cc8c66f809", "is_disabled": 0, "rental_uris": {"ios": "https://dc.lft.to/lastmile_qr_scan", "android": "https://dc.lft.to/lastmile_qr_scan"}, "is_reserved": 0}, {"lon": -77.0275605, "bike_id": "43414c0e9a0769ec218dc17baeecae85", "lat": 38.917006666666666, "fusion_lon": 0.0, "fusion_lat": 0.0, "type": "electric_scooter", "name": "43414c0e9a0769ec218dc17baeecae85", "is_disabled": 0, "rental_uris": {"ios": "https://dc.lft.to/lastmile_qr_scan", "android": "https://dc.lft.to/lastmile_qr_scan"}, "is_reserved": 0}, {"lon": -77.0532995, "bike_id": "9026fe6dc731541396cf0da64c08ec2a", "lat": 38.90412033333333, "fusion_lon": 0.0, "fusion_lat": 0.0, "type": "electric_scooter", "name": "9026fe6dc731541396cf0da64c08ec2a", "is_disabled": 0, "rental_uris": {"ios": "https://dc.lft.to/lastmile_qr_scan", "android": "https://dc.lft.to/lastmile_qr_scan"}, "is_reserved": 0}, {"lon": -77.04225783333334, "bike_id": "dd75758470b4215390324820b1fdc4c3", "lat": 38.91339583333333, "fusion_lon": 0.0, "fusion_lat": 0.0, "type": "electric_scooter", "name": "dd75758470b4215390324820b1fdc4c3", "is_disabled": 0, "rental_uris": {"ios": "https://dc.lft.to/lastmile_qr_scan", "android": "https://dc.lft.to/lastmile_qr_scan"}, "is_reserved": 0}, {"lon": -77.00382816666666, "bike_id": "e324dc9afa09dea293da02c10cdd38f6", "lat": 38.83605416666666, "fusion_lon": 0.0, "fusion_lat": 0.0, "type": "electric_bike", "name": "e324dc9afa09dea293da02c10cdd38f6", "is_disabled": 0, "rental_uris": {"ios": "https://dc.lft.to/lastmile_qr_scan", "android": "https://dc.lft.to/lastmile_qr_scan"}, "is_reserved": 0}, {"lon": -77.03477283333334, "bike_id": "916391e6ce9a5734ae2f27e4a27b86e7", "lat": 38.9077595, "fusion_lon": 0.0, "fusion_lat": 0.0, "type": "electric_scooter", "name": "916391e6ce9a5734ae2f27e4a27b86e7", "is_disabled": 0, "rental_uris": {"ios": "https://dc.lft.to/lastmile_qr_scan", "android": "https://dc.lft.to/lastmile_qr_scan"}, "is_reserved": 0}, {"lon": -77.035578, "bike_id": "147dce2aa2f7d2a483bb7aefadd521c9", "lat": 38.924822, "fusion_lon": 0.0, "fusion_lat": 0.0, "type": "electric_scooter", "name": "147dce2aa2f7d2a483bb7aefadd521c9", "is_disabled": 0, "rental_uris": {"ios": "https://dc.lft.to/lastmile_qr_scan", "android": "https://dc.lft.to/lastmile_qr_scan"}, "is_reserved": 0}, {"lon": -77.02170383333333, "bike_id": "a7b7771f1223a71842c8754fede4d102", "lat": 38.92996866666667, "fusion_lon": 0.0, "fusion_lat": 0.0, "type": "electric_scooter", "name": "a7b7771f1223a71842c8754fede4d102", "is_disabled": 0, "rental_uris": {"ios": "https://dc.lft.to/lastmile_qr_scan", "android": "https://dc.lft.to/lastmile_qr_scan"}, "is_reserved": 0}, {"lon": -77.02608333333333, "bike_id": "b5160ba1a3a4151ad3ff7a40da58a3b6", "lat": 38.934888, "fusion_lon": 0.0, "fusion_lat": 0.0, "type": "electric_scooter", "name": "b5160ba1a3a4151ad3ff7a40da58a3b6", "is_disabled": 0, "rental_uris": {"ios": "https://dc.lft.to/lastmile_qr_scan", "android": "https://dc.lft.to/lastmile_qr_scan"}, "is_reserved": 0}, {"lon": -77.03436666666667, "bike_id": "2a2182d6e57ec2f004cb9d8d8f18ecb1", "lat": 38.90520683333333, "fusion_lon": 0.0, "fusion_lat": 0.0, "type": "electric_scooter", "name": "2a2182d6e57ec2f004cb9d8d8f18ecb1", "is_disabled": 0, "rental_uris": {"ios": "https://dc.lft.to/lastmile_qr_scan", "android": "https://dc.lft.to/lastmile_qr_scan"}, "is_reserved": 0}, {"lon": -77.03262366666667, "bike_id": "3f9c9245d1a3a18db25a8730f0bba3f3", "lat": 38.93209383333333, "fusion_lon": 0.0, "fusion_lat": 0.0, "type": "electric_scooter", "name": "3f9c9245d1a3a18db25a8730f0bba3f3", "is_disabled": 0, "rental_uris": {"ios": "https://dc.lft.to/lastmile_qr_scan", "android": "https://dc.lft.to/lastmile_qr_scan"}, "is_reserved": 0}, {"lon": -77.035787, "bike_id": "94f25c96be7f530e5c3bf9d722ff8406", "lat": 38.91044133333333, "fusion_lon": 0.0, "fusion_lat": 0.0, "type": "electric_scooter", "name": "94f25c96be7f530e5c3bf9d722ff8406", "is_disabled": 0, "rental_uris": {"ios": "https://dc.lft.to/lastmile_qr_scan", "android": "https://dc.lft.to/lastmile_qr_scan"}, "is_reserved": 0}, {"lon": -77.03193083333333, "bike_id": "12ccd20232dd74c54088c4101e912427", "lat": 38.91737633333334, "fusion_lon": 0.0, "fusion_lat": 0.0, "type": "electric_scooter", "name": "12ccd20232dd74c54088c4101e912427", "is_disabled": 0, "rental_uris": {"ios": "https://dc.lft.to/lastmile_qr_scan", "android": "https://dc.lft.to/lastmile_qr_scan"}, "is_reserved": 0}, {"lon": -76.98880883333334, "bike_id": "0adbe184d6557f6778e7675ac1afb3d7", "lat": 38.8665425, "fusion_lon": 0.0, "fusion_lat": 0.0, "type": "electric_scooter", "name": "0adbe184d6557f6778e7675ac1afb3d7", "is_disabled": 0, "rental_uris": {"ios": "https://dc.lft.to/lastmile_qr_scan", "android": "https://dc.lft.to/lastmile_qr_scan"}, "is_reserved": 0}, {"lon": -77.03698383333334, "bike_id": "158fd40d3b37258e86e05dcb28c53efb", "lat": 38.926429, "fusion_lon": 0.0, "fusion_lat": 0.0, "type": "electric_scooter", "name": "158fd40d3b37258e86e05dcb28c53efb", "is_disabled": 0, "rental_uris": {"ios": "https://dc.lft.to/lastmile_qr_scan", "android": "https://dc.lft.to/lastmile_qr_scan"}, "is_reserved": 0}, {"lon": -76.987164, "bike_id": "9eb41379aaa68985fcfe1431b2466781", "lat": 38.866235833333334, "fusion_lon": 0.0, "fusion_lat": 0.0, "type": "electric_scooter", "name": "9eb41379aaa68985fcfe1431b2466781", "is_disabled": 0, "rental_uris": {"ios": "https://dc.lft.to/lastmile_qr_scan", "android": "https://dc.lft.to/lastmile_qr_scan"}, "is_reserved": 0}, {"lon": -76.995028, "bike_id": "4974ecbc376e774eaf003ea1cd1f3031", "lat": 38.88191833333333, "fusion_lon": 0.0, "fusion_lat": 0.0, "type": "electric_bike", "name": "4974ecbc376e774eaf003ea1cd1f3031", "is_disabled": 0, "rental_uris": {"ios": "https://dc.lft.to/lastmile_qr_scan", "android": "https://dc.lft.to/lastmile_qr_scan"}, "is_reserved": 0}, {"lon": -76.92768616666666, "bike_id": "a722844034f0076363400a7d36794f7c", "lat": 38.900848833333335, "fusion_lon": 0.0, "fusion_lat": 0.0, "type": "electric_scooter", "name": "a722844034f0076363400a7d36794f7c", "is_disabled": 0, "rental_uris": {"ios": "https://dc.lft.to/lastmile_qr_scan", "android": "https://dc.lft.to/lastmile_qr_scan"}, "is_reserved": 0}, {"lon": -76.9790915, "bike_id": "40d3ef57952c874f24df29db3eed7169", "lat": 38.863673166666665, "fusion_lon": 0.0, "fusion_lat": 0.0, "type": "electric_scooter", "name": "40d3ef57952c874f24df29db3eed7169", "is_disabled": 0, "rental_uris": {"ios": "https://dc.lft.to/lastmile_qr_scan", "android": "https://dc.lft.to/lastmile_qr_scan"}, "is_reserved": 0}, {"lon": -77.036596, "bike_id": "bf425f5f2cda81e0345ad73898579095", "lat": 38.917196, "fusion_lon": 0.0, "fusion_lat": 0.0, "type": "electric_scooter", "name": "bf425f5f2cda81e0345ad73898579095", "is_disabled": 0, "rental_uris": {"ios": "https://dc.lft.to/lastmile_qr_scan", "android": "https://dc.lft.to/lastmile_qr_scan"}, "is_reserved": 0}, {"lon": -77.03611833333333, "bike_id": "09a7ae790aeb61016ce4525208903ece", "lat": 38.887730833333336, "fusion_lon": 0.0, "fusion_lat": 0.0, "type": "electric_scooter", "name": "09a7ae790aeb61016ce4525208903ece", "is_disabled": 0, "rental_uris": {"ios": "https://dc.lft.to/lastmile_qr_scan", "android": "https://dc.lft.to/lastmile_qr_scan"}, "is_reserved": 0}, {"lon": -77.00204083333334, "bike_id": "aa73a182ab5369bea1dbaf425c79ff3e", "lat": 38.900239, "fusion_lon": 0.0, "fusion_lat": 0.0, "type": "electric_scooter", "name": "aa73a182ab5369bea1dbaf425c79ff3e", "is_disabled": 0, "rental_uris": {"ios": "https://dc.lft.to/lastmile_qr_scan", "android": "https://dc.lft.to/lastmile_qr_scan"}, "is_reserved": 0}, {"lon": -77.0275375, "bike_id": "e04606014cd9e0319a36665231a93b28", "lat": 38.95778633333333, "fusion_lon": 0.0, "fusion_lat": 0.0, "type": "electric_scooter", "name": "e04606014cd9e0319a36665231a93b28", "is_disabled": 0, "rental_uris": {"ios": "https://dc.lft.to/lastmile_qr_scan", "android": "https://dc.lft.to/lastmile_qr_scan"}, "is_reserved": 0},