{"data": {"bikes": [{"lat": 38.92208016666667, "is_reserved": 0, "lon": -77.03400216666667, "fusion_lon": 0.0, "fusion_lat": 0.0, "is_disabled": 0, "type": "electric_scooter", "bike_id": "6b8c7f4a35cb9e525d1d2ab73710cc0a", "rental_uris": {"android": "https://dc.lft.to/lastmile_qr_scan", "ios": "https://dc.lft.to/lastmile_qr_scan"}, "name": "6b8c7f4a35cb9e525d1d2ab73710cc0a"}, {"lat": 38.91949866666667, "is_reserved": 0, "lon": -77.04156133333333, "fusion_lon": 0.0, "fusion_lat": 0.0, "is_disabled": 0, "type": "electric_scooter", "bike_id": "53eccb0806b44f08287dee82fd7ab647", "rental_uris": {"android": "https://dc.lft.to/lastmile_qr_scan", "ios": "https://dc.lft.to/lastmile_qr_scan"}, "name": "53eccb0806b44f08287dee82fd7ab647"}, {"lat": 38.927564, "is_reserved": 0, "lon": -77.05394216666667, "fusion_lon": 0.0, "fusion_lat": 0.0, "is_disabled": 0, "type": "electric_scooter", "bike_id": "ec8b6d520c7ed3c4a23eeb0519335e8e", "rental_uris": {"android": "https://dc.lft.to/lastmile_qr_scan", "ios": "https://dc.lft.to/lastmile_qr_scan"}, "name": "ec8b6d520c7ed3c4a23eeb0519335e8e"}, {"lat": 38.92195, "is_reserved": 0, "lon": -77.03516566666667, "fusion_lon": 0.0, "fusion_lat": 0.0, "is_disabled": 0, "type": "electric_scooter", "bike_id": "5b35aa133a1cdfabd621fcb67142acfe", "rental_uris": {"android": "https://dc.lft.to/lastmile_qr_scan", "ios": "https://dc.lft.to/lastmile_qr_scan"}, "name": "5b35aa133a1cdfabd621fcb67142acfe"}, {"lat": 38.91626433333333, "is_reserved": 0, "lon": -77.03043866666667, "fusion_lon": 0.0, "fusion_lat": 0.0, "is_disabled": 0, "type": "electric_scooter", "bike_id": "b25ef1ca41bc1f91022abd8274287452", "rental_uris": {"android": "https://dc.lft.to/lastmile_qr_scan", "ios": "https://dc.lft.to/lastmile_qr_scan"}, "name": "b25ef1ca41bc1f91022abd8274287452"}, {"lat": 38.90853516666667, "is_reserved": 0, "lon": -77.04265883333333, "fusion_lon": 0.0, "fusion_lat": 0.0, "is_disabled": 0, "type": "electric_scooter", "bike_id": "f3759941c20de5db99eedbb6c40bb147", "rental_uris": {"android": "https://dc.lft.to/lastmile_qr_scan", "ios": "https://dc.lft.to/lastmile_qr_scan"}, "name": "f3759941c20de5db99eedbb6c40bb147"}, {"lat": 38.91817, "is_reserved": 0, "lon": -77.02716383333333, "fusion_lon": 0.0, "fusion_lat": 0.0, "is_disabled": 0, "type": "electric_scooter", "bike_id": "a672039ebee1569ade84dfbd55f8c21a", "rental_uris": {"android": "https://dc.lft.to/lastmile_qr_scan", "ios": "https://dc.lft.to/lastmile_qr_scan"}, "name": "a672039ebee1569ade84dfbd55f8c21a"}, {"lat": 38.87372766666667, "is_reserved": 0, "lon": -77.00067016666667, "fusion_lon": 0.0, "fusion_lat": 0.0, "is_disabled": 0, "type": "electric_scooter", "bike_id": "6be8e9eb7797b9e25e843a10f6c528d1", "rental_uris": {"android": "https://dc.lft.to/lastmile_qr_scan", "ios": "https://dc.lft.to/lastmile_qr_scan"}, "name": "6be8e9eb7797b9e25e843a10f6c528d1"}, {"lat": 38.902815, "is_reserved": 0, "lon": -77.04697283333333, "fusion_lon": 0.0, "fusion_lat": 0.0, "is_disabled": 0, "type": "electric_scooter", "bike_id": "c7091048ef99fb14f3d154eb7eb716a7", "rental_uris": {"android": "https://dc.lft.to/lastmile_qr_scan", "ios": "https://dc.lft.to/lastmile_qr_scan"}, "name": "c7091048ef99fb14f3d154eb7eb716a7"}, {"lat": 38.90573766666667, "is_reserved": 0, "lon": -77.01503983333333, "fusion_lon": 0.0, "fusion_lat": 0.0, "is_disabled": 0, "type": "electric_scooter", "bike_id": "451872d04734e0d35b7c1edf3b00a9ba", "rental_uris": {"android": "https://dc.lft.to/lastmile_qr_scan", "ios": "https://dc.lft.to/lastmile_qr_scan"}, "name": "451872d04734e0d35b7c1edf3b00a9ba"}, {"lat": 38.8810565, "is_reserved": 0, "lon": -77.01637533333333, "fusion_lon": 0.0, "fusion_lat": 0.0, "is_disabled": 0, "type": "electric_scooter", "bike_id": "9c8de55e7f2313801235750a1efbab36", "rental_uris": {"android": "https://dc.lft.to/lastmile_qr_scan", "ios": "https://dc.lft.to/lastmile_qr_scan"}, "name": "9c8de55e7f2313801235750a1efbab36"}, {"lat": 38.913153333333334, "is_reserved": 0, "lon": -77.01891983333333, "fusion_lon": 0.0, "fusion_lat": 0.0, "is_disabled": 0, "type": "electric_scooter", "bike_id": "a05d8fde238b7bd62bb2c351b9f4838a", "rental_uris": {"android": "https://dc.lft.to/lastmile_qr_scan", "ios": "https://dc.lft.to/lastmile_qr_scan"}, "name": "a05d8fde238b7bd62bb2c351b9f4838a"}, {"lat": 38.898315833333335, "is_reserved": 0, "lon": -77.045383, "fusion_lon": 0.0, "fusion_lat": 0.0, "is_disabled": 0, "type": "electric_scooter", "bike_id": "ecf1f69e8d944907574b7ecae416b263", "rental_uris": {"android": "https://dc.lft.to/lastmile_qr_scan", "ios": "https://dc.lft.to/lastmile_qr_scan"}, "name": "ecf1f69e8d944907574b7ecae416b263"}, {"lat": 38.916014, "is_reserved": 0, "lon": -77.01736433333333, "fusion_lon": 0.0, "fusion_lat": 0.0, "is_disabled": 0, "type": "electric_scooter", "bike_id": "5af684337b788a57c4072b74f5a3a303", "rental_uris": {"android": "https://dc.lft.to/lastmile_qr_scan", "ios": "https://dc.lft.to/lastmile_qr_scan"}, "name": "5af684337b788a57c4072b74f5a3a303"}, {"lat": 38.91989733333333, "is_reserved": 0, "lon": -77.03801566666667, "fusion_lon": 0.0, "fusion_lat": 0.0, "is_disabled": 0, "type": "electric_scooter", "bike_id": "ecdcf4e41d4602d3455c58fc11335671", "rental_uris": {"android": "https://dc.lft.to/lastmile_qr_scan", "ios": "https://dc.lft.to/lastmile_qr_scan"}, "name": "ecdcf4e41d4602d3455c58fc11335671"}, {"lat": 38.916874666666665, "is_reserved": 0, "lon": -77.035018, "fusion_lon": 0.0, "fusion_lat": 0.0, "is_disabled": 0, "type": "electric_scooter", "bike_id": "00de6ba484fd539fc3bfe18ce6527a79", "rental_uris": {"android": "https://dc.lft.to/lastmile_qr_scan", "ios": "https://dc.lft.to/lastmile_qr_scan"}, "name": "00de6ba484fd539fc3bfe18ce6527a79"}, {"lat": 38.91487883333333, "is_reserved": 0, "lon": -77.025883, "fusion_lon": 0.0, "fusion_lat": 0.0, "is_disabled": 0, "type": "electric_scooter", "bike_id": "b2a97a53205659e99ae6214e1e7d6ea7", "rental_uris": {"android": "https://dc.lft.to/lastmile_qr_scan", "ios": "https://dc.lft.to/lastmile_qr_scan"}, "name": "b2a97a53205659e99ae6214e1e7d6ea7"}, {"lat": 38.8959115, "is_reserved": 0, "lon": -77.04451666666667, "fusion_lon": 0.0, "fusion_lat": 0.0, "is_disabled": 0, "type": "electric_scooter", "bike_id": "67947a28ba1b65d9da00a26c18d2946e", "rental_uris": {"android": "https://dc.lft.to/lastmile_qr_scan", "ios": "https://dc.lft.to/lastmile_qr_scan"}, "name": "67947a28ba1b65d9da00a26c18d2946e"}, {"lat": 38.91412583333333, "is_reserved": 0, "lon": -77.02815083333333, "fusion_lon": 0.0, "fusion_lat": 0.0, "is_disabled": 0, "type": "electric_scooter", "bike_id": "7500a643382800baff4fc422fc7e4eb2", "rental_uris": {"android": "https://dc.lft.to/lastmile_qr_scan", "ios": "https://dc.lft.to/lastmile_qr_scan"}, "name": "7500a643382800baff4fc422fc7e4eb2"}, {"lat": 38.91617, "is_reserved": 0, "lon": -77.04178016666667, "fusion_lon": 0.0, "fusion_lat": 0.0, "is_disabled": 0, "type": "electric_scooter", "bike_id": "b49082c00917e651dff41fdb4a07ff8c", "rental_uris": {"android": "https://dc.lft.to/lastmile_qr_scan", "ios": "https://dc.lft.to/lastmile_qr_scan"}, "name": "b49082c00917e651dff41fdb4a07ff8c"}, {"lat": 38.92745816666667, "is_reserved": 0, "lon": -77.03271216666667, "fusion_lon": 0.0, "fusion_lat": 0.0, "is_disabled": 0, "type": "electric_scooter", "bike_id": "97a56ecb1362875daf6a0376f504a033", "rental_uris": {"android": "https://dc.lft.to/lastmile_qr_scan", "ios": "https://dc.lft.to/lastmile_qr_scan"}, "name": "97a56ecb1362875daf6a0376f504a033"}, {"lat": 38.9000725, "is_reserved": 0, "lon": -77.0458845, "fusion_lon": 0.0, "fusion_lat": 0.0, "is_disabled": 0, "type": "electric_scooter", "bike_id": "1282f5f55ec865c96a674186f7b15dab", "rental_uris": {"android": "https://dc.lft.to/lastmile_qr_scan", "ios": "https://dc.lft.to/lastmile_qr_scan"}, "name": "1282f5f55ec865c96a674186f7b15dab"}, {"lat": 38.9314465, "is_reserved": 0, "lon": -77.03838383333333, "fusion_lon": 0.0, "fusion_lat": 0.0, "is_disabled": 0, "type": "electric_scooter", "bike_id": "a378381b6c8692f5acd9e5cf865eb65f", "rental_uris": {"android": "https://dc.lft.to/lastmile_qr_scan", "ios": "https://dc.lft.to/lastmile_qr_scan"}, "name": "a378381b6c8692f5acd9e5cf865eb65f"}, {"lat": 38.922647833333336, "is_reserved": 0, "lon": -77.0368875, "fusion_lon": 0.0, "fusion_lat": 0.0, "is_disabled": 0, "type": "electric_scooter", "bike_id": "47892affd29cec89281c45830e85e1f5", "rental_uris": {"android": "https://dc.lft.to/lastmile_qr_scan", "ios": "https://dc.lft.to/lastmile_qr_scan"}, "name": "47892affd29cec89281c45830e85e1f5"}, {"lat": 38.8999125, "is_reserved": 0, "lon": -77.02684083333334, "fusion_lon": 0.0, "fusion_lat": 0.0, "is_disabled": 0, "type": "electric_scooter", "bike_id": "266e28abcfe4243816b1d56e9b8441de", "rental_uris": {"android": "https://dc.lft.to/lastmile_qr_scan", "ios": "https://dc.lft.to/lastmile_qr_scan"}, "name": "266e28abcfe4243816b1d56e9b8441de"}, {"lat": 38.90876466666667, "is_reserved": 0, "lon": -77.04342266666667, "fusion_lon": 0.0, "fusion_lat": 0.0, "is_disabled": 0, "type": "electric_scooter", "bike_id": "6d95af8d1d3a7dcc2c83b746c25452fc", "rental_uris": {"android": "https://dc.lft.to/lastmile_qr_scan", "ios": "https://dc.lft.to/lastmile_qr_scan"}, "name": "6d95af8d1d3a7dcc2c83b746c25452fc"}, {"lat": 38.862438833333336, "is_reserved": 0, "lon": -76.99499666666667, "fusion_lon": 0.0, "fusion_lat": 0.0, "is_disabled": 0, "type": "electric_scooter", "bike_id": "8a5c98dc3ded5ae0958258bd0899d322", "rental_uris": {"android": "https://dc.lft.to/lastmile_qr_scan", "ios": "https://dc.lft.to/lastmile_qr_scan"}, "name": "8a5c98dc3ded5ae0958258bd0899d322"}, {"lat": 38.945506333333334, "is_reserved": 0, "lon": -77.02535816666666, "fusion_lon": 0.0, "fusion_lat": 0.0, "is_disabled": 0, "type": "electric_scooter", "bike_id": "b37ed0aa57836752f6e08afb7b7ef02b", "rental_uris": {"android": "https://dc.lft.to/lastmile_qr_scan", "ios": "https://dc.lft.to/lastmile_qr_scan"}, "name": "b37ed0aa57836752f6e08afb7b7ef02b"}, {"lat": 38.927804333333334, "is_reserved": 0, "lon": -77.020741, "fusion_lon": 0.0, "fusion_lat": 0.0, "is_disabled": 0, "type": "electric_scooter", "bike_id": "3a2a21befed9666d442a4e25fa3a2d00", "rental_uris": {"android": "https://dc.lft.to/lastmile_qr_scan", "ios": "https://dc.lft.to/lastmile_qr_scan"}, "name": "3a2a21befed9666d442a4e25fa3a2d00"}, {"lat": 38.920576833333335, "is_reserved": 0, "lon": -77.03238383333333, "fusion_lon": 0.0, "fusion_lat": 0.0, "is_disabled": 0, "type": "electric_scooter", "bike_id": "ee8d8e5639c6f7422eefa76b0c39d8be", "rental_uris": {"android": "https://dc.lft.to/lastmile_qr_scan", "ios": "https://dc.lft.to/lastmile_qr_scan"}, "name": "ee8d8e5639c6f7422eefa76b0c39d8be"}, {"lat": 38.90843383333333, "is_reserved": 0, "lon": -77.043509, "fusion_lon": 0.0, "fusion_lat": 0.0, "is_disabled": 0, "type": "electric_scooter", "bike_id": "a9f8af60c87e8289a537192e32e59269", "rental_uris": {"android": "https://dc.lft.to/lastmile_qr_scan", "ios": "https://dc.lft.to/lastmile_qr_scan"}, "name": "a9f8af60c87e8289a537192e32e59269"}, {"lat": 38.921838, "is_reserved": 0, "lon": -77.037865, "fusion_lon": 0.0, "fusion_lat": 0.0, "is_disabled": 0, "type": "electric_scooter", "bike_id": "73b489b89e0a701d082c1717ae801e67", "rental_uris": {"android": "https://dc.lft.to/lastmile_qr_scan", "ios": "https://dc.lft.to/lastmile_qr_scan"}, "name": "73b489b89e0a701d082c1717ae801e67"}, {"lat": 39.0121815, "is_reserved": 0, "lon": -77.11089733333333, "fusion_lon": 0.0, "fusion_lat": 0.0, "is_disabled": 0, "type": "electric_bike", "bike_id": "6c1dbeba0ca1229e7f01b3ecff8625ec", "rental_uris": {"android": "https://dc.lft.to/lastmile_qr_scan", "ios": "https://dc.lft.to/lastmile_qr_scan"}, "name": "6c1dbeba0ca1229e7f01b3ecff8625ec"}, {"lat": 38.87169983333333, "is_reserved": 0, "lon": -77.006823, "fusion_lon": 0.0, "fusion_lat": 0.0, "is_disabled": 0, "type": "electric_scooter", "bike_id": "1d1af0b5f8a2d67db7a618f6e7c718be", "rental_uris": {"android": "https://dc.lft.to/lastmile_qr_scan", "ios": "https://dc.lft.to/lastmile_qr_scan"}, "name": "1d1af0b5f8a2d67db7a618f6e7c718be"}, {"lat": 38.90499616666666, "is_reserved": 0, "lon": -76.979553, "fusion_lon": 0.0, "fusion_lat": 0.0, "is_disabled": 0, "type": "electric_scooter", "bike_id": "59da03b24fc2c76e28b557c4c54144f5", "rental_uris": {"android": "https://dc.lft.to/lastmile_qr_scan", "ios": "https://dc.lft.to/lastmile_qr_scan"}, "name": "59da03b24fc2c76e28b557c4c54144f5"}, {"lat": 38.9178705, "is_reserved": 0, "lon": -77.0229, "fusion_lon": 0.0, "fusion_lat": 0.0, "is_disabled": 0, "type": "electric_scooter", "bike_id": "54437d06db75e00b1e49d98f584eed24", "rental_uris": {"android": "https://dc.lft.to/lastmile_qr_scan", "ios": "https://dc.lft.to/lastmile_qr_scan"}, "name": "54437d06db75e00b1e49d98f584eed24"}, {"lat": 38.94418366666667, "is_reserved": 0, "lon": -77.06392983333333, "fusion_lon": 0.0, "fusion_lat": 0.0, "is_disabled": 0, "type": "electric_scooter", "bike_id": "b57dd60fce03e17560cef4adccd92a7f", "rental_uris": {"android": "https://dc.lft.to/lastmile_qr_scan", "ios": "https://dc.lft.to/lastmile_qr_scan"}, "name": "b57dd60fce03e17560cef4adccd92a7f"}, {"lat": 38.93767016666666, "is_reserved": 0, "lon": -77.019127, "fusion_lon": 0.0, "fusion_lat": 0.0, "is_disabled": 0, "type": "electric_bike", "bike_id": "a649534c4e0065801be1a729ce0760a0", "rental_uris": {"android": "https://dc.lft.to/lastmile_qr_scan", "ios": "https://dc.lft.to/lastmile_qr_scan"}, "name": "a649534c4e0065801be1a729ce0760a0"}, {"lat": 38.915799, "is_reserved": 0, "lon": -77.02307283333333, "fusion_lon": 0.0, "fusion_lat": 0.0, "is_disabled": 0, "type": "electric_scooter", "bike_id": "c294df10225ad3b63680cc6aa4094060", "rental_uris": {"android": "https://dc.lft.to/lastmile_qr_scan", "ios": "https://dc.lft.to/lastmile_qr_scan"}, "name": "c294df10225ad3b63680cc6aa4094060"}, {"lat": 38.909815, "is_reserved": 0, "lon": -77.02187983333333, "fusion_lon": 0.0, "fusion_lat": 0.0, "is_disabled": 0, "type": "electric_scooter", "bike_id": "42a985292ad77e61937a106b7f0d5f47", "rental_uris": {"android": "https://dc.lft.to/lastmile_qr_scan", "ios": "https://dc.lft.to/lastmile_qr_scan"}, "name": "42a985292ad77e61937a106b7f0d5f47"}, {"lat": 38.9110465, "is_reserved": 0, "lon": -77.034078, "fusion_lon": 0.0, "fusion_lat": 0.0, "is_disabled": 0, "type": "electric_scooter", "bike_id": "69fb5d9c45c8059e8e8bbd3b6e1b1025", "rental_uris": {"android": "https://dc.lft.to/lastmile_qr_scan", "ios": "https://dc.lft.to/lastmile_qr_scan"}, "name": "69fb5d9c45c8059e8e8bbd3b6e1b1025"}, {"lat": 38.8998925, "is_reserved": 0, "lon": -77.04888083333333, "fusion_lon": 0.0, "fusion_lat": 0.0, "is_disabled": 0, "type": "electric_scooter", "bike_id": "1baeaac0567c50a426cddc6f10ebd43d", "rental_uris": {"android": "https://dc.lft.to/lastmile_qr_scan", "ios": "https://dc.lft.to/lastmile_qr_scan"}, "name": "1baeaac0567c50a426cddc6f10ebd43d"}, {"lat": 38.894999166666665, "is_reserved": 0, "lon": -76.949448, "fusion_lon": 0.0, "fusion_lat": 0.0, "is_disabled": 0, "type": "electric_scooter", "bike_id": "0fd7bf9a4a90cd4777e3babf3f937f62", "rental_uris": {"android": "https://dc.lft.to/lastmile_qr_scan", "ios": "https://dc.lft.to/lastmile_qr_scan"}, "name": "0fd7bf9a4a90cd4777e3babf3f937f62"}, {"lat": 38.92518233333333, "is_reserved": 0, "lon": -77.040938, "fusion_lon": 0.0, "fusion_lat": 0.0, "is_disabled": 0, "type": "electric_scooter", "bike_id": "4efaafc15ae1ffd6620531dc125fc18b", "rental_uris": {"android": "https://dc.lft.to/lastmile_qr_scan", "ios": "https://dc.lft.to/lastmile_qr_scan"}, "name": "4efaafc15ae1ffd6620531dc125fc18b"}, {"lat": 38.912273166666665, "is_reserved": 0, "lon": -76.98791366666667, "fusion_lon": 0.0, "fusion_lat": 0.0, "is_disabled": 0, "type": "electric_scooter", "bike_id": "17adc9441b86affafcfa5c20ce709aa9", "rental_uris": {"android": "https://dc.lft.to/lastmile_qr_scan", "ios": "https://dc.lft.to/lastmile_qr_scan"}, "name": "17adc9441b86affafcfa5c20ce709aa9"}, {"lat": 38.90094966666667, "is_reserved": 0, "lon": -77.00651766666667, "fusion_lon": 0.0, "fusion_lat": 0.0, "is_disabled": 0, "type": "electric_scooter", "bike_id": "9e7f7119bd445fd50207561bd02e03b4", "rental_uris": {"android": "https://dc.lft.to/lastmile_qr_scan", "ios": "https://dc.lft.to/lastmile_qr_scan"}, "name": "9e7f7119bd445fd50207561bd02e03b4"}, {"lat": 38.933166666666665, "is_reserved": 0, "lon": -77.0820875, "fusion_lon": 0.0, "fusion_lat": 0.0, "is_disabled": 0, "type": "electric_scooter", "bike_id": "ac725c0e673a41e3aa977f64577fb515", "rental_uris": {"android": "https://dc.lft.to/lastmile_qr_scan", "ios": "https://dc.lft.to/lastmile_qr_scan"}, "name": "ac725c0e673a41e3aa977f64577fb515"}, {"lat": 38.914101, "is_reserved": 0, "lon": -77.02617766666667, "fusion_lon": 0.0, "fusion_lat": 0.0, "is_disabled": 0, "type": "electric_scooter", "bike_id": "5303c6e79d51e2c7829b1230a45a4018", "rental_uris": {"android": "https://dc.lft.to/lastmile_qr_scan", "ios": "https://dc.lft.to/lastmile_qr_scan"}, "name": "5303c6e79d51e2c7829b1230a45a4018"}, {"lat": 38.89968233333333, "is_reserved": 0, "lon": -77.05566583333334, "fusion_lon": 0.0, "fusion_lat": 0.0, "is_disabled": 0, "type": "electric_scooter", "bike_id": "bd13e6db225fac072cfe2d27ed4a94fb", "rental_uris": {"android": "https://dc.lft.to/lastmile_qr_scan", "ios": "https://dc.lft.to/lastmile_qr_scan"}, "name": "bd13e6db225fac072cfe2d27ed4a94fb"}, {"lat": 38.916756166666666, "is_reserved": 0, "lon": -77.02397333333333, "fusion_lon": 0.0, "fusion_lat": 0.0, "is_disabled": 0, "type": "electric_scooter", "bike_id": "ca7866cb1402e872fdc69de09509a567", "rental_uris": {"android": "https://dc.lft.to/lastmile_qr_scan", "ios": "https://dc.lft.to/lastmile_qr_scan"}, "name": "ca7866cb1402e872fdc69de09509a567"}, {"lat": 38.9248755, "is_reserved": 0, "lon": -77.04138483333334, "fusion_lon": 0.0, "fusion_lat": 0.0, "is_disabled": 0, "type": "electric_scooter", "bike_id": "a2ca79773d6f04170de3073aa937979f", "rental_uris": {"android": "https://dc.lft.to/lastmile_qr_scan", "ios": "https://dc.lft.to/lastmile_qr_scan"}, "name": "a2ca79773d6f04170de3073aa937979f"}, {"lat": 38.917086166666664, "is_reserved": 0, "lon": -77.02789683333333, "fusion_lon": 0.0, "fusion_lat": 0.0, "is_disabled": 0, "type": "electric_scooter", "bike_id": "aed65bec682ef6826583e052eead1946", "rental_uris": {"android": "https://dc.lft.to/lastmile_qr_scan", "ios": "https://dc.lft.to/lastmile_qr_scan"}, "name": "aed65bec682ef6826583e052eead1946"}, {"lat": 38.908462, "is_reserved": 0, "lon": -77.03970283333334, "fusion_lon": 0.0, "fusion_lat": 0.0, "is_disabled": 0, "type": "electric_scooter", "bike_id": "fb80f5e7cf3642c41cb7593e8b2f6f80", "rental_uris": {"android": "https://dc.lft.to/lastmile_qr_scan", "ios": "https://dc.lft.to/lastmile_qr_scan"}, "name": "fb80f5e7cf3642c41cb7593e8b2f6f80"}, {"lat": 38.90946866666667, "is_reserved": 0, "lon": -77.0343085, "fusion_lon": 0.0, "fusion_lat": 0.0, "is_disabled": 0, "type": "electric_scooter", "bike_id": "cafd316ba127cd115cd253093c5c57ff", "rental_uris": {"android": "https://dc.lft.to/lastmile_qr_scan", "ios": "https://dc.lft.to/lastmile_qr_scan"}, "name": "cafd316ba127cd115cd253093c5c57ff"}, {"lat": 38.93966266666666, "is_reserved": 0, "lon": -77.02453066666666, "fusion_lon": 0.0, "fusion_lat": 0.0, "is_disabled": 0, "type": "electric_scooter", "bike_id": "0bc7b0d2dfc894f1b8e5fc268ab690ef", "rental_uris": {"android": "https://dc.lft.to/lastmile_qr_scan", "ios": "https://dc.lft.to/lastmile_qr_scan"}, "name": "0bc7b0d2dfc894f1b8e5fc268ab690ef"}, {"lat": 38.85756266666667, "is_reserved": 0, "lon": -76.9930325, "fusion_lon": 0.0, "fusion_lat": 0.0, "is_disabled": 0, "type": "electric_scooter", "bike_id": "33295fcb8c68e993dc625162e3345157", "rental_uris": {"android": "https://dc.lft.to/lastmile_qr_scan", "ios": "https://dc.lft.to/lastmile_qr_scan"}, "name": "33295fcb8c68e993dc625162e3345157"}, {"lat": 38.895008833333335, "is_reserved": 0, "lon": -77.02295633333334, "fusion_lon": 0.0, "fusion_lat": 0.0, "is_disabled": 0, "type": "electric_scooter", "bike_id": "0d8b7b5d4eb1a75fd1c08808715b985e", "rental_uris": {"android": "https://dc.lft.to/lastmile_qr_scan", "ios": "https://dc.lft.to/lastmile_qr_scan"}, "name": "0d8b7b5d4eb1a75fd1c08808715b985e"}, {"lat": 38.90010016666667, "is_reserved": 0, "lon": -77.04360933333334, "fusion_lon": 0.0, "fusion_lat": 0.0, "is_disabled": 0, "type": "electric_scooter", "bike_id": "cd89f3eb334f170b97eb14c8d6507e88", "rental_uris": {"android": "https://dc.lft.to/lastmile_qr_scan", "ios": "https://dc.lft.to/lastmile_qr_scan"}, "name": "cd89f3eb334f170b97eb14c8d6507e88"}, {"lat": 38.90971566666666, "is_reserved": 0, "lon": -77.0345975, "fusion_lon": 0.0, "fusion_lat": 0.0, "is_disabled": 0, "type": "electric_scooter", "bike_id": "9336267a7c73d80303ea210d526e81e3", "rental_uris": {"android": "https://dc.lft.to/lastmile_qr_scan", "ios": "https://dc.lft.to/lastmile_qr_scan"}, "name": "9336267a7c73d80303ea210d526e81e3"}, {"lat": 38.98465816666667, "is_reserved": 0, "lon": -77.02639, "fusion_lon": 0.0, "fusion_lat": 0.0, "is_disabled": 0, "type": "electric_scooter", "bike_id": "34f7711a33d25ac12bb81005994cdf59", "rental_uris": {"android": "https://dc.lft.to/lastmile_qr_scan", "ios": "https://dc.lft.to/lastmile_qr_scan"}, "name": "34f7711a33d25ac12bb81005994cdf59"}, {"lat": 38.91691183333333, "is_reserved": 0, "lon": -77.03937333333333, "fusion_lon": 0.0, "fusion_lat": 0.0, "is_disabled": 0, "type": "electric_scooter", "bike_id": "02b63fa8a71839af2aafaafec0e70ae6", "rental_uris": {"android": "https://dc.lft.to/lastmile_qr_scan", "ios": "https://dc.lft.to/lastmile_qr_scan"}, "name": "02b63fa8a71839af2aafaafec0e70ae6"}, {"lat": 38.924531333333334, "is_reserved": 0, "lon": -77.0399925, "fusion_lon": 0.0, "fusion_lat": 0.0, "is_disabled": 0, "type": "electric_scooter", "bike_id": "219fe6918bb1615ecec465454bfec88c", "rental_uris": {"android": "https://dc.lft.to/lastmile_qr_scan", "ios": "https://dc.lft.to/lastmile_qr_scan"}, "name": "219fe6918bb1615ecec465454bfec88c"}, {"lat": 38.9307945, "is_reserved": 0, "lon": -77.02812416666667, "fusion_lon": 0.0, "fusion_lat": 0.0, "is_disabled": 0, "type": "electric_scooter", "bike_id": "e63e2b3945d6bdc44c20af0edf9845ba", "rental_uris": {"android": "https://dc.lft.to/lastmile_qr_scan", "ios": "https://dc.lft.to/lastmile_qr_scan"}, "name": "e63e2b3945d6bdc44c20af0edf9845ba"}, {"lat": 38.875695666666665, "is_reserved": 0, "lon": -77.0057875, "fusion_lon": 0.0, "fusion_lat": 0.0, "is_disabled": 0, "type": "electric_scooter", "bike_id": "cd845d95e7f52c2586550b4a866549b7", "rental_uris": {"android": "https://dc.lft.to/lastmile_qr_scan", "ios": "https://dc.lft.to/lastmile_qr_scan"}, "name": "cd845d95e7f52c2586550b4a866549b7"}, {"lat": 38.89716416666667, "is_reserved": 0, "lon": -77.02733316666666, "fusion_lon": 0.0, "fusion_lat": 0.0, "is_disabled": 0, "type": "electric_scooter", "bike_id": "21f1145d50c1e85e11b4460cae83224c", "rental_uris": {"android": "https://dc.lft.to/lastmile_qr_scan", "ios": "https://dc.lft.to/lastmile_qr_scan"}, "name": "21f1145d50c1e85e11b4460cae83224c"}, {"lat": 38.91714183333333, "is_reserved": 0, "lon": -77.03859466666667, "fusion_lon": 0.0, "fusion_lat": 0.0, "is_disabled": 0, "type": "electric_scooter", "bike_id": "5da82a4ed7459297bd39ed0b064800d4", "rental_uris": {"android": "https://dc.lft.to/lastmile_qr_scan", "ios": "https://dc.lft.to/lastmile_qr_scan"}, "name": "5da82a4ed7459297bd39ed0b064800d4"}, {"lat": 38.90359216666667, "is_reserved": 0, "lon": -77.025459, "fusion_lon": 0.0, "fusion_lat": 0.0, "is_disabled": 0, "type": "electric_scooter", "bike_id": "5c65aa84c15b137ba09aa43f24e98ca5", "rental_uris": {"android": "https://dc.lft.to/lastmile_qr_scan", "ios": "https://dc.lft.to/lastmile_qr_scan"}, "name": "5c65aa84c15b137ba09aa43f24e98ca5"}, {"lat": 38.99702966666667, "is_reserved": 0, "lon": -77.02545983333333, "fusion_lon": 0.0, "fusion_lat": 0.0, "is_disabled": 0, "type": "electric_bike", "bike_id": "bc83e7dd5a9aef4eea5becbe66a70256", "rental_uris": {"android": "https://dc.lft.to/lastmile_qr_scan", "ios": "https://dc.lft.to/lastmile_qr_scan"}, "name": "bc83e7dd5a9aef4eea5becbe66a70256"}, {"lat": 38.90605766666667, "is_reserved": 0, "lon": -77.0132635, "fusion_lon": 0.0, "fusion_lat": 0.0, "is_disabled": 0, "type": "electric_scooter", "bike_id": "22eac357f9c7066786d3f7c7ab0a0821", "rental_uris": {"android": "https://dc.lft.to/lastmile_qr_scan", "ios": "https://dc.lft.to/lastmile_qr_scan"}, "name": "22eac357f9c7066786d3f7c7ab0a0821"}, {"lat": 38.86625633333333, "is_reserved": 0, "lon": -76.9871765, "fusion_lon": 0.0, "fusion_lat": 0.0, "is_disabled": 0, "type": "electric_scooter", "bike_id": "246d3db82fdff9827a4c12c5dd672302", "rental_uris": {"android": "https://dc.lft.to/lastmile_qr_scan", "ios": "https://dc.lft.to/lastmile_qr_scan"}, "name": "246d3db82fdff9827a4c12c5dd672302"}, {"lat": 38.91166316666666, "is_reserved": 0, "lon": -77.0114145, "fusion_lon": 0.0, "fusion_lat": 0.0, "is_disabled": 0, "type": "electric_scooter", "bike_id": "8c431bae09dfcca7f788d6e0715c9035", "rental_uris": {"android": "https://dc.lft.to/lastmile_qr_scan", "ios": "https://dc.lft.to/lastmile_qr_scan"}, "name": "8c431bae09dfcca7f788d6e0715c9035"}, {"lat": 38.9174475, "is_reserved": 0, "lon": -77.0364285, "fusion_lon": 0.0, "fusion_lat": 0.0, "is_disabled": 0, "type": "electric_scooter", "bike_id": "0bb82380d499e5a08ef14985f61810a2", "rental_uris": {"android": "https://dc.lft.to/lastmile_qr_scan", "ios": "https://dc.lft.to/lastmile_qr_scan"}, "name": "0bb82380d499e5a08ef14985f61810a2"}, {"lat": 38.91574333333333, "is_reserved": 0, "lon": -77.03196533333333, "fusion_lon": 0.0, "fusion_lat": 0.0, "is_disabled": 0, "type": "electric_scooter", "bike_id": "c01f796cf098722eb331c23b6372ed0c", "rental_uris": {"android": "https://dc.lft.to/lastmile_qr_scan", "ios": "https://dc.lft.to/lastmile_qr_scan"}, "name": "c01f796cf098722eb331c23b6372ed0c"}, {"lat": 38.927218, "is_reserved": 0, "lon": -77.02305933333334, "fusion_lon": 0.0, "fusion_lat": 0.0, "is_disabled": 0, "type": "electric_scooter", "bike_id": "75572f9af5a5a377f87aaf26f2662038", "rental_uris": {"android": "https://dc.lft.to/lastmile_qr_scan", "ios": "https://dc.lft.to/lastmile_qr_scan"}, "name": "75572f9af5a5a377f87aaf26f2662038"}, {"lat": 38.89988966666667, "is_reserved": 0, "lon": -77.0112985, "fusion_lon": 0.0, "fusion_lat": 0.0, "is_disabled": 0, "type": "electric_scooter", "bike_id": "fa5a6a4cafb6da3783074cba21af09c7", "rental_uris": {"android": "https://dc.lft.to/lastmile_qr_scan", "ios": "https://dc.lft.to/lastmile_qr_scan"}, "name": "fa5a6a4cafb6da3783074cba21af09c7"}, {"lat": 38.931531166666666, "is_reserved": 0, "lon": -77.04538383333333, "fusion_lon": 0.0, "fusion_lat": 0.0, "is_disabled": 0, "type": "electric_scooter", "bike_id": "8dba4df5880af848ed4924db6abf2b69", "rental_uris": {"android": "https://dc.lft.to/lastmile_qr_scan", "ios": "https://dc.lft.to/lastmile_qr_scan"}, "name": "8dba4df5880af848ed4924db6abf2b69"}, {"lat": 38.887631666666664, "is_reserved": 0, "lon": -76.95590466666667, "fusion_lon": 0.0, "fusion_lat": 0.0, "is_disabled": 0, "type": "electric_scooter", "bike_id": "00a5fd2c077039353aaee2e3b696bcd4", "rental_uris": {"android": "https://dc.lft.to/lastmile_qr_scan", "ios": "https://dc.lft.to/lastmile_qr_scan"}, "name": "00a5fd2c077039353aaee2e3b696bcd4"}, {"lat": 38.896574666666666, "is_reserved": 0, "lon": -77.07081116666667, "fusion_lon": 0.0, "fusion_lat": 0.0, "is_disabled": 0, "type": "electric_scooter", "bike_id": "4cf76cd4c3b3cb462a4c4c8f3151629d", "rental_uris": {"android": "https://dc.lft.to/lastmile_qr_scan", "ios": "https://dc.lft.to/lastmile_qr_scan"}, "name": "4cf76cd4c3b3cb462a4c4c8f3151629d"}, {"lat": 38.93097083333333, "is_reserved": 0, "lon": -77.02459566666667, "fusion_lon": 0.0, "fusion_lat": 0.0, "is_disabled": 0, "type": "electric_scooter", "bike_id": "6b5ec5f08b2ffc2b0f2703a40fc20d6e", "rental_uris": {"android": "https://dc.lft.to/lastmile_qr_scan", "ios": "https://dc.lft.to/lastmile_qr_scan"}, "name": "6b5ec5f08b2ffc2b0f2703a40fc20d6e"}, {"lat": 38.86504766666667, "is_reserved": 0, "lon": -76.99005966666667, "fusion_lon": 0.0, "fusion_lat": 0.0, "is_disabled": 0, "type": "electric_scooter", "bike_id": "3030ddb9dcbb94e8bbe370e551f453c2", "rental_uris": {"android": "https://dc.lft.to/lastmile_qr_scan", "ios": "https://dc.lft.to/lastmile_qr_scan"}, "name": "3030ddb9dcbb94e8bbe370e551f453c2"}, {"lat": 38.881067333333334, "is_reserved": 0, "lon": -77.016679, "fusion_lon": 0.0, "fusion_lat": 0.0, "is_disabled": 0, "type": "electric_bike", "bike_id": "e4776339c62f6cf4e1fd9c68d76cd276", "rental_uris": {"android": "https://dc.lft.to/lastmile_qr_scan", "ios": "https://dc.lft.to/lastmile_qr_scan"}, "name": "e4776339c62f6cf4e1fd9c68d76cd276"}, {"lat": 38.92875216666667, "is_reserved": 0, "lon": -77.02708083333333, "fusion_lon": 0.0, "fusion_lat": 0.0, "is_disabled": 0, "type": "electric_scooter", "bike_id": "bdf19897ddb41d76e58bd15c35bf602f", "rental_uris": {"android": "https://dc.lft.to/lastmile_qr_scan", "ios": "https://dc.lft.to/lastmile_qr_scan"}, "name": "bdf19897ddb41d76e58bd15c35bf602f"}, {"lat": 38.92174333333333, "is_reserved": 0, "lon": -77.03326283333334, "fusion_lon": 0.0, "fusion_lat": 0.0, "is_disabled": 0, "type": "electric_scooter", "bike_id": "e8c6f63e0b7f2f37fca1785c5a67c43b", "rental_uris": {"android": "https://dc.lft.to/lastmile_qr_scan", "ios": "https://dc.lft.to/lastmile_qr_scan"}, "name": "e8c6f63e0b7f2f37fca1785c5a67c43b"}, {"lat": 38.90366916666667, "is_reserved": 0, "lon": -77.0357145, "fusion_lon": 0.0, "fusion_lat": 0.0, "is_disabled": 0, "type": "electric_scooter", "bike_id": "3f6f7607d7494f7b2589710c2aa2be66", "rental_uris": {"android": "https://dc.lft.to/lastmile_qr_scan", "ios": "https://dc.lft.to/lastmile_qr_scan"}, "name": "3f6f7607d7494f7b2589710c2aa2be66"}, {"lat": 38.89790583333333, "is_reserved": 0, "lon": -77.0121785, "fusion_lon": 0.0, "fusion_lat": 0.0, "is_disabled": 0, "type": "electric_scooter", "bike_id": "921b04e8e45a67498a7abe48ac1d5fc4", "rental_uris": {"android": "https://dc.lft.to/lastmile_qr_scan", "ios": "https://dc.lft.to/lastmile_qr_scan"}, "name": "921b04e8e45a67498a7abe48ac1d5fc4"}, {"lat": 38.922483166666666, "is_reserved": 0, "lon": -77.04275133333333, "fusion_lon": 0.0, "fusion_lat": 0.0, "is_disabled": 0, "type": "electric_scooter", "bike_id": "b8481ddfc8acb0a313cb56edfcf70f0c", "rental_uris": {"android": "https://dc.lft.to/lastmile_qr_scan", "ios": "https://dc.lft.to/lastmile_qr_scan"}, "name": "b8481ddfc8acb0a313cb56edfcf70f0c"}, {"lat": 38.887397, "is_reserved": 0, "lon": -77.02855566666666, "fusion_lon": 0.0, "fusion_lat": 0.0, "is_disabled": 0, "type": "electric_scooter", "bike_id": "98658fd8bbdc79521dc2150056c407d7", "rental_uris": {"android": "https://dc.lft.to/lastmile_qr_scan", "ios": "https://dc.lft.to/lastmile_qr_scan"}, "name": "98658fd8bbdc79521dc2150056c407d7"}, {"lat": 38.91266366666667, "is_reserved": 0, "lon": -77.0319515, "fusion_lon": 0.0, "fusion_lat": 0.0, "is_disabled": 0, "type": "electric_scooter", "bike_id": "8728c24e80217148e191582b7509829b", "rental_uris": {"android": "https://dc.lft.to/lastmile_qr_scan", "ios": "https://dc.lft.to/lastmile_qr_scan"}, "name": "8728c24e80217148e191582b7509829b"}, {"lat": 38.89714983333333, "is_reserved": 0, "lon": -77.0314615, "fusion_lon": 0.0, "fusion_lat": 0.0, "is_disabled": 0, "type": "electric_scooter", "bike_id": "612ff7f9eaac3842a82e3107f36e3944", "rental_uris": {"android": "https://dc.lft.to/lastmile_qr_scan", "ios": "https://dc.lft.to/lastmile_qr_scan"}, "name": "612ff7f9eaac3842a82e3107f36e3944"}, {"lat": 38.93709616666666, "is_reserved": 0, "lon": -77.02483966666667, "fusion_lon": 0.0, "fusion_lat": 0.0, "is_disabled": 0, "type": "electric_scooter", "bike_id": "b0224c8ff39d341a8496781a17448ad9", "rental_uris": {"android": "https://dc.lft.to/lastmile_qr_scan", "ios": "https://dc.lft.to/lastmile_qr_scan"}, "name": "b0224c8ff39d341a8496781a17448ad9"}, {"lat": 38.9141035, "is_reserved": 0, "lon": -77.03179566666667, "fusion_lon": 0.0, "fusion_lat": 0.0, "is_disabled": 0, "type": "electric_scooter", "bike_id": "d0b85ecaf25737ca466242e1a79ce479", "rental_uris": {"android": "https://dc.lft.to/lastmile_qr_scan", "ios": "https://dc.lft.to/lastmile_qr_scan"}, "name": "d0b85ecaf25737ca466242e1a79ce479"}, {"lat": 38.896209166666665, "is_reserved": 0, "lon": -77.02973366666667, "fusion_lon": 0.0, "fusion_lat": 0.0, "is_disabled": 0, "type": "electric_scooter", "bike_id": "b86c982598b851e5f87dcf698564385d", "rental_uris": {"android": "https://dc.lft.to/lastmile_qr_scan", "ios": "https://dc.lft.to/lastmile_qr_scan"}, "name": "b86c982598b851e5f87dcf698564385d"}, {"lat": 38.90371583333334, "is_reserved": 0, "lon": -77.01642066666666, "fusion_lon": 0.0, "fusion_lat": 0.0, "is_disabled": 0, "type": "electric_scooter", "bike_id": "6a18d41c058246bf628c6f61aacadfe2", "rental_uris": {"android": "https://dc.lft.to/lastmile_qr_scan", "ios": "https://dc.lft.to/lastmile_qr_scan"}, "name": "6a18d41c058246bf628c6f61aacadfe2"}, {"lat": 38.92123483333334, "is_reserved": 0, "lon": -77.03667033333333, "fusion_lon": 0.0, "fusion_lat": 0.0, "is_disabled": 0, "type": "electric_scooter", "bike_id": "027cbb0bf8862e36f16ef51500d9e35b", "rental_uris": {"android": "https://dc.lft.to/lastmile_qr_scan", "ios": "https://dc.lft.to/lastmile_qr_scan"}, "name": "027cbb0bf8862e36f16ef51500d9e35b"}, {"lat": 38.898682666666666, "is_reserved": 0, "lon": -76.94635916666667, "fusion_lon": 0.0, "fusion_lat": 0.0, "is_disabled": 0, "type": "electric_scooter", "bike_id": "61ed87be251bc2796fa1607a43a2f19a", "rental_uris": {"android": "https://dc.lft.to/lastmile_qr_scan", "ios": "https://dc.lft.to/lastmile_qr_scan"}, "name": "61ed87be251bc2796fa1607a43a2f19a"}, {"lat": 38.91181566666667, "is_reserved": 0, "lon": -77.0449375, "fusion_lon": 0.0, "fusion_lat": 0.0, "is_disabled": 0, "type": "electric_scooter", "bike_id": "3285730c833b6525cdc0db1f5bf28800", "rental_uris": {"android": "https://dc.lft.to/lastmile_qr_scan", "ios": "https://dc.lft.to/lastmile_qr_scan"}, "name": "3285730c833b6525cdc0db1f5bf28800"}, {"lat": 38.9346995, "is_reserved": 0, "lon": -77.022349, "fusion_lon": 0.0, "fusion_lat": 0.0, "is_disabled": 0, "type": "electric_scooter", "bike_id": "25e290236a3638794066be43d145a638", "rental_uris": {"android": "https://dc.lft.to/lastmile_qr_scan", "ios": "https://dc.lft.to/lastmile_qr_scan"}, "name": "25e290236a3638794066be43d145a638"}, {"lat": 38.900829333333334, "is_reserved": 0, "lon": -77.0475445, "fusion_lon": 0.0, "fusion_lat": 0.0, "is_disabled": 0, "type": "electric_scooter", "bike_id": "2a7de3fa10d70a386d1911ea22c6f7d2", "rental_uris": {"android": "https://dc.lft.to/lastmile_qr_scan", "ios": "https://dc.lft.to/lastmile_qr_scan"}, "name": "2a7de3fa10d70a386d1911ea22c6f7d2"}, {"lat": 38.914999, "is_reserved": 0, "lon": -77.0219845, "fusion_lon": 0.0, "fusion_lat": 0.0, "is_disabled": 0, "type": "electric_scooter", "bike_id": "9f92961739225506dd4db3c95753d717", "rental_uris": {"android": "https://dc.lft.to/lastmile_qr_scan", "ios": "https://dc.lft.to/lastmile_qr_scan"}, "name": "9f92961739225506dd4db3c95753d717"}, {"lat": 38.9227345, "is_reserved": 0, "lon": -77.03283233333333, "fusion_lon": 0.0, "fusion_lat": 0.0, "is_disabled": 0, "type": "electric_scooter", "bike_id": "921344d0069806d6efffe28dc09c0c7f", "rental_uris": {"android": "https://dc.lft.to/lastmile_qr_scan", "ios": "https://dc.lft.to/lastmile_qr_scan"}, "name": "921344d0069806d6efffe28dc09c0c7f"}, {"lat": 38.96438533333333, "is_reserved": 0, "lon": -77.03153116666667, "fusion_lon": 0.0, "fusion_lat": 0.0, "is_disabled": 0, "type": "electric_bike", "bike_id": "8a713fa2bf13d9c3b723e3eb3cfedaa0", "rental_uris": {"android": "https://dc.lft.to/lastmile_qr_scan", "ios": "https://dc.lft.to/lastmile_qr_scan"}, "name": "8a713fa2bf13d9c3b723e3eb3cfedaa0"}, {"lat": 38.9069455, "is_reserved": 0, "lon": -76.95255833333333, "fusion_lon": 0.0, "fusion_lat": 0.0, "is_disabled": 0, "type": "electric_bike", "bike_id": "ab12e54b1f12e9c10fc990850dd84ced", "rental_uris": {"android": "https://dc.lft.to/lastmile_qr_scan", "ios": "https://dc.lft.to/lastmile_qr_scan"}, "name": "ab12e54b1f12e9c10fc990850dd84ced"}, {"lat": 38.89326333333333, "is_reserved": 0, "lon": -77.04677416666667, "fusion_lon": 0.0, "fusion_lat": 0.0, "is_disabled": 0, "type": "electric_scooter", "bike_id": "b09713454a3745e1e356d73cd7bbbb29", "rental_uris": {"android": "https://dc.lft.to/lastmile_qr_scan", "ios": "https://dc.lft.to/lastmile_qr_scan"}, "name": "b09713454a3745e1e356d73cd7bbbb29"}, {"lat": 38.87057983333333, "is_reserved": 0, "lon": -76.97099583333333, "fusion_lon": 0.0, "fusion_lat": 0.0, "is_disabled": 0, "type": "electric_scooter", "bike_id": "01d6dcc2ca0a6e8c94f954e519b468fc", "rental_uris": {"android": "https://dc.lft.to/lastmile_qr_scan", "ios": "https://dc.lft.to/lastmile_qr_scan"}, "name": "01d6dcc2ca0a6e8c94f954e519b468fc"}, {"lat": 38.92098283333333, "is_reserved": 0, "lon": -77.04201733333333, "fusion_lon": 0.0, "fusion_lat": 0.0, "is_disabled": 0, "type": "electric_scooter", "bike_id": "9bda33bb177fa249acbe1e5366f2d241", "rental_uris": {"android": "https://dc.lft.to/lastmile_qr_scan", "ios": "https://dc.lft.to/lastmile_qr_scan"}, "name": "9bda33bb177fa249acbe1e5366f2d241"}, {"lat": 38.9221835, "is_reserved": 0, "lon": -77.2014135, "fusion_lon": 0.0, "fusion_lat": 0.0, "is_disabled": 0, "type": "electric_bike", "bike_id": "95d8f260723d4ce0fd94becfaf9cc2be", "rental_uris": {"android": "https://dc.lft.to/lastmile_qr_scan", "ios": "https://dc.lft.to/lastmile_qr_scan"}, "name": "95d8f260723d4ce0fd94becfaf9cc2be"}, {"lat": 38.92172816666667, "is_reserved": 0, "lon": -77.038401, "fusion_lon": 0.0, "fusion_lat": 0.0, "is_disabled": 0, "type": "electric_scooter", "bike_id": "c40d99d74067c40e9c28a23cdfbb6c0b", "rental_uris": {"android": "https://dc.lft.to/lastmile_qr_scan", "ios": "https://dc.lft.to/lastmile_qr_scan"}, "name": "c40d99d74067c40e9c28a23cdfbb6c0b"}, {"lat": 38.885107, "is_reserved": 0, "lon": -77.021088, "fusion_lon": 0.0, "fusion_lat": 0.0, "is_disabled": 0, "type": "electric_scooter", "bike_id": "86a33eacaf831aeacbd76244f59f1468", "rental_uris": {"android": "https://dc.lft.to/lastmile_qr_scan", "ios": "https://dc.lft.to/lastmile_qr_scan"}, "name": "86a33eacaf831aeacbd76244f59f1468"}, {"lat": 38.8517635, "is_reserved": 0, "lon": -76.99578716666667, "fusion_lon": 0.0, "fusion_lat": 0.0, "is_disabled": 0, "type": "electric_scooter", "bike_id": "06fc4fe6c37393d83287784858df6631", "rental_uris": {"android": "https://dc.lft.to/lastmile_qr_scan", "ios": "https://dc.lft.to/lastmile_qr_scan"}, "name": "06fc4fe6c37393d83287784858df6631"}, {"lat": 38.924682833333335, "is_reserved": 0, "lon": -77.02830966666667, "fusion_lon": 0.0, "fusion_lat": 0.0, "is_disabled": 0, "type": "electric_scooter", "bike_id": "be27d002cc10cb3abb8b0f93442e4f64", "rental_uris": {"android": "https://dc.lft.to/lastmile_qr_scan", "ios": "https://dc.lft.to/lastmile_qr_scan"}, "name": "be27d002cc10cb3abb8b0f93442e4f64"}, {"lat": 38.918151, "is_reserved": 0, "lon": -77.0029575, "fusion_lon": 0.0, "fusion_lat": 0.0, "is_disabled": 0, "type": "electric_scooter", "bike_id": "bf72a1a3a408dcdfdb651e6b909a20e9", "rental_uris": {"android": "https://dc.lft.to/lastmile_qr_scan", "ios": "https://dc.lft.to/lastmile_qr_scan"}, "name": "bf72a1a3a408dcdfdb651e6b909a20e9"}, {"lat": 38.87480866666667, "is_reserved": 0, "lon": -77.0024115, "fusion_lon": 0.0, "fusion_lat": 0.0, "is_disabled": 0, "type": "electric_scooter", "bike_id": "d414cea836a2f9d158d3ef15eb3601d4", "rental_uris": {"android": "https://dc.lft.to/lastmile_qr_scan", "ios": "https://dc.lft.to/lastmile_qr_scan"}, "name": "d414cea836a2f9d158d3ef15eb3601d4"}, {"lat": 38.9169685, "is_reserved": 0, "lon": -77.04110216666666, "fusion_lon": 0.0, "fusion_lat": 0.0, "is_disabled": 0, "type": "electric_scooter", "bike_id": "6cfcfd9e747b812c45c621557e82f07e", "rental_uris": {"android": "https://dc.lft.to/lastmile_qr_scan", "ios": "https://dc.lft.to/lastmile_qr_scan"}, "name": "6cfcfd9e747b812c45c621557e82f07e"}, {"lat": 38.9068495, "is_reserved": 0, "lon": -77.0607435, "fusion_lon": 0.0, "fusion_lat": 0.0, "is_disabled": 0, "type": "electric_scooter", "bike_id": "ffd52b5c0b78557978aa199bcecc09db", "rental_uris": {"android": "https://dc.lft.to/lastmile_qr_scan", "ios": "https://dc.lft.to/lastmile_qr_scan"}, "name": "ffd52b5c0b78557978aa199bcecc09db"}, {"lat": 38.9247505, "is_reserved": 0, "lon": -77.0221635, "fusion_lon": 0.0, "fusion_lat": 0.0, "is_disabled": 0, "type": "electric_scooter", "bike_id": "174f79808f76a66c2eea325ab8768561", "rental_uris": {"android": "https://dc.lft.to/lastmile_qr_scan", "ios": "https://dc.lft.to/lastmile_qr_scan"}, "name": "174f79808f76a66c2eea325ab8768561"}, {"lat": 38.91905166666667, "is_reserved": 0, "lon": -77.041769, "fusion_lon": 0.0, "fusion_lat": 0.0, "is_disabled": 0, "type": "electric_scooter", "bike_id": "44231386911988daafd1775c4dfe9753", "rental_uris": {"android": "https://dc.lft.to/lastmile_qr_scan", "ios": "https://dc.lft.to/lastmile_qr_scan"}, "name": "44231386911988daafd1775c4dfe9753"}, {"lat": 38.916579166666665, "is_reserved": 0, "lon": -77.041795, "fusion_lon": 0.0, "fusion_lat": 0.0, "is_disabled": 0, "type": "electric_scooter", "bike_id": "cc33af93de421c4ff987aef038100754", "rental_uris": {"android": "https://dc.lft.to/lastmile_qr_scan", "ios": "https://dc.lft.to/lastmile_qr_scan"}, "name": "cc33af93de421c4ff987aef038100754"}, {"lat": 38.88413283333333, "is_reserved": 0, "lon": -76.95417933333333, "fusion_lon": 0.0, "fusion_lat": 0.0, "is_disabled": 0, "type": "electric_bike", "bike_id": "7e0e66d81180bcc4830572fdc8931aee", "rental_uris": {"android": "https://dc.lft.to/lastmile_qr_scan", "ios": "https://dc.lft.to/lastmile_qr_scan"}, "name": "7e0e66d81180bcc4830572fdc8931aee"}, {"lat": 38.93050983333333, "is_reserved": 0, "lon": -77.058508, "fusion_lon": 0.0, "fusion_lat": 0.0, "is_disabled": 0, "type": "electric_scooter", "bike_id": "ed3f21f94f5182e44d9a806400cb0e7c", "rental_uris": {"android": "https://dc.lft.to/lastmile_qr_scan", "ios": "https://dc.lft.to/lastmile_qr_scan"}, "name": "ed3f21f94f5182e44d9a806400cb0e7c"}, {"lat": 38.916594, "is_reserved": 0, "lon": -77.029682, "fusion_lon": 0.0, "fusion_lat": 0.0, "is_disabled": 0, "type": "electric_scooter", "bike_id": "c63215ef5a4ececb9a539d83eb202534", "rental_uris": {"android": "https://dc.lft.to/lastmile_qr_scan", "ios": "https://dc.lft.to/lastmile_qr_scan"}, "name": "c63215ef5a4ececb9a539d83eb202534"}, {"lat": 38.90334033333333, "is_reserved": 0, "lon": -77.0618725, "fusion_lon": 0.0, "fusion_lat": 0.0, "is_disabled": 0, "type": "electric_scooter", "bike_id": "709f51cb6476638c58f22b14127e6708", "rental_uris": {"android": "https://dc.lft.to/lastmile_qr_scan", "ios": "https://dc.lft.to/lastmile_qr_scan"}, "name": "709f51cb6476638c58f22b14127e6708"}, {"lat": 38.915663, "is_reserved": 0, "lon": -77.02080933333333, "fusion_lon": 0.0, "fusion_lat": 0.0, "is_disabled": 0, "type": "electric_scooter", "bike_id": "5f3705e9b5280f5f338853ade5b2505c", "rental_uris": {"android": "https://dc.lft.to/lastmile_qr_scan", "ios": "https://dc.lft.to/lastmile_qr_scan"}, "name": "5f3705e9b5280f5f338853ade5b2505c"}, {"lat": 38.898483, "is_reserved": 0, "lon": -77.0263505, "fusion_lon": 0.0, "fusion_lat": 0.0, "is_disabled": 0, "type": "electric_scooter", "bike_id": "9fae254ecdeb5e9707b350e671cb60d1", "rental_uris": {"android": "https://dc.lft.to/lastmile_qr_scan", "ios": "https://dc.lft.to/lastmile_qr_scan"}, "name": "9fae254ecdeb5e9707b350e671cb60d1"}, {"lat": 38.90963983333333, "is_reserved": 0, "lon": -77.0326235, "fusion_lon": 0.0, "fusion_lat": 0.0, "is_disabled": 0, "type": "electric_scooter", "bike_id": "3a174d1790a9a800d6d249b5ff721a2d", "rental_uris": {"android": "https://dc.lft.to/lastmile_qr_scan", "ios": "https://dc.lft.to/lastmile_qr_scan"}, "name": "3a174d1790a9a800d6d249b5ff721a2d"}, {"lat": 38.87944366666667, "is_reserved": 0, "lon": -77.00874683333333, "fusion_lon": 0.0, "fusion_lat": 0.0, "is_disabled": 0, "type": "electric_scooter", "bike_id": "e37db2598dd39be3f6171b7fbaba6647", "rental_uris": {"android": "https://dc.lft.to/lastmile_qr_scan", "ios": "https://dc.lft.to/lastmile_qr_scan"}, "name": "e37db2598dd39be3f6171b7fbaba6647"}, {"lat": 38.90872066666667, "is_reserved": 0, "lon": -76.99794916666667, "fusion_lon": 0.0, "fusion_lat": 0.0, "is_disabled": 0, "type": "electric_scooter", "bike_id": "e31acbe7f868edd7866171faa9f57816", "rental_uris": {"android": "https://dc.lft.to/lastmile_qr_scan", "ios": "https://dc.lft.to/lastmile_qr_scan"}, "name": "e31acbe7f868edd7866171faa9f57816"}, {"lat": 38.906308, "is_reserved": 0, "lon": -77.00600116666666, "fusion_lon": 0.0, "fusion_lat": 0.0, "is_disabled": 0, "type": "electric_scooter", "bike_id": "836cd1529fb75f3954920878e288ad39", "rental_uris": {"android": "https://dc.lft.to/lastmile_qr_scan", "ios": "https://dc.lft.to/lastmile_qr_scan"}, "name": "836cd1529fb75f3954920878e288ad39"}, {"lat": 38.8850765, "is_reserved": 0, "lon": -77.02104583333333, "fusion_lon": 0.0, "fusion_lat": 0.0, "is_disabled": 0, "type": "electric_scooter", "bike_id": "8a5369d9c335e173a0ee06877e17be2a", "rental_uris": {"android": "https://dc.lft.to/lastmile_qr_scan", "ios": "https://dc.lft.to/lastmile_qr_scan"}, "name": "8a5369d9c335e173a0ee06877e17be2a"}, {"lat": 38.90114116666667, "is_reserved": 0, "lon": -76.9806605, "fusion_lon": 0.0, "fusion_lat": 0.0, "is_disabled": 0, "type": "electric_bike", "bike_id": "b5e55c0633a43c5310a12a9db750117a", "rental_uris": {"android": "https://dc.lft.to/lastmile_qr_scan", "ios": "https://dc.lft.to/lastmile_qr_scan"}, "name": "b5e55c0633a43c5310a12a9db750117a"}, {"lat": 38.920838, "is_reserved": 0, "lon": -77.02545083333334, "fusion_lon": 0.0, "fusion_lat": 0.0, "is_disabled": 0, "type": "electric_scooter", "bike_id": "9f1e6efc5e2b4650d6a0af9a090757cc", "rental_uris": {"android": "https://dc.lft.to/lastmile_qr_scan", "ios": "https://dc.lft.to/lastmile_qr_scan"}, "name": "9f1e6efc5e2b4650d6a0af9a090757cc"}, {"lat": 38.90043083333333, "is_reserved": 0, "lon": -77.01649183333333, "fusion_lon": 0.0, "fusion_lat": 0.0, "is_disabled": 0, "type": "electric_scooter", "bike_id": "6a87c2a904b637867ef371790907cb37", "rental_uris": {"android": "https://dc.lft.to/lastmile_qr_scan", "ios": "https://dc.lft.to/lastmile_qr_scan"}, "name": "6a87c2a904b637867ef371790907cb37"}, {"lat": 38.91786583333333, "is_reserved": 0, "lon": -77.02298433333333, "fusion_lon": 0.0, "fusion_lat": 0.0, "is_disabled": 0, "type": "electric_scooter", "bike_id": "39fae99f829ce1c2a50880c1e1ad78cc", "rental_uris": {"android": "https://dc.lft.to/lastmile_qr_scan", "ios": "https://dc.lft.to/lastmile_qr_scan"}, "name": "39fae99f829ce1c2a50880c1e1ad78cc"}, {"lat": 38.877063666666665, "is_reserved": 0, "lon": -77.017811, "fusion_lon": 0.0, "fusion_lat": 0.0, "is_disabled": 0, "type": "electric_scooter", "bike_id": "629cc78e7c441a87a2a1a6de74ccd2dc", "rental_uris": {"android": "https://dc.lft.to/lastmile_qr_scan", "ios": "https://dc.lft.to/lastmile_qr_scan"}, "name": "629cc78e7c441a87a2a1a6de74ccd2dc"}, {"lat": 38.95101366666667, "is_reserved": 0, "lon": -77.097145, "fusion_lon": 0.0, "fusion_lat": 0.0, "is_disabled": 0, "type": "electric_scooter", "bike_id": "9f567e723713e9c980a184cdadfe1e45", "rental_uris": {"android": "https://dc.lft.to/lastmile_qr_scan", "ios": "https://dc.lft.to/lastmile_qr_scan"}, "name": "9f567e723713e9c980a184cdadfe1e45"}, {"lat": 38.91608433333333, "is_reserved": 0, "lon": -77.0417045, "fusion_lon": 0.0, "fusion_lat": 0.0, "is_disabled": 0, "type": "electric_scooter", "bike_id": "078e4c73c34e20d45c09cfa8f87c8937", "rental_uris": {"android": "https://dc.lft.to/lastmile_qr_scan", "ios": "https://dc.lft.to/lastmile_qr_scan"}, "name": "078e4c73c34e20d45c09cfa8f87c8937"}, {"lat": 38.900329166666666, "is_reserved": 0, "lon": -77.01218666666666, "fusion_lon": 0.0, "fusion_lat": 0.0, "is_disabled": 0, "type": "electric_scooter", "bike_id": "db91529f173dea03278c77e44dacebce", "rental_uris": {"android": "https://dc.lft.to/lastmile_qr_scan", "ios": "https://dc.lft.to/lastmile_qr_scan"}, "name": "db91529f173dea03278c77e44dacebce"}, {"lat": 38.873871666666666, "is_reserved": 0, "lon": -77.00027516666667, "fusion_lon": 0.0, "fusion_lat": 0.0, "is_disabled": 0, "type": "electric_scooter", "bike_id": "346bad88e5bebf4cf3f8bd0e5b6edf54", "rental_uris": {"android": "https://dc.lft.to/lastmile_qr_scan", "ios": "https://dc.lft.to/lastmile_qr_scan"}, "name": "346bad88e5bebf4cf3f8bd0e5b6edf54"}, {"lat": 38.941830833333334, "is_reserved": 0, "lon": -77.02489466666667, "fusion_lon": 0.0, "fusion_lat": 0.0, "is_disabled": 0, "type": "electric_scooter", "bike_id": "9d43539b94a5790493acd4099d42f39c", "rental_uris": {"android": "https://dc.lft.to/lastmile_qr_scan", "ios": "https://dc.lft.to/lastmile_qr_scan"}, "name": "9d43539b94a5790493acd4099d42f39c"}, {"lat": 38.90287583333333, "is_reserved": 0, "lon": -77.03373683333334, "fusion_lon": 0.0, "fusion_lat": 0.0, "is_disabled": 0, "type": "electric_scooter", "bike_id": "03e41de22f1c4f5df12931a7fa0f5d03", "rental_uris": {"android": "https://dc.lft.to/lastmile_qr_scan", "ios": "https://dc.lft.to/lastmile_qr_scan"}, "name": "03e41de22f1c4f5df12931a7fa0f5d03"}, {"lat": 38.91344733333333, "is_reserved": 0, "lon": -77.0466765, "fusion_lon": 0.0, "fusion_lat": 0.0, "is_disabled": 0, "type": "electric_scooter", "bike_id": "a6ac6a14332795c35dbc1702e67c2ca0", "rental_uris": {"android": "https://dc.lft.to/lastmile_qr_scan", "ios": "https://dc.lft.to/lastmile_qr_scan"}, "name": "a6ac6a14332795c35dbc1702e67c2ca0"}, {"lat": 38.956497166666665, "is_reserved": 0, "lon": -77.01967516666667, "fusion_lon": 0.0, "fusion_lat": 0.0, "is_disabled": 0, "type": "electric_scooter", "bike_id": "d94b0e5ca88cc07aec6e4423f87587b7", "rental_uris": {"android": "https://dc.lft.to/lastmile_qr_scan", "ios": "https://dc.lft.to/lastmile_qr_scan"}, "name": "d94b0e5ca88cc07aec6e4423f87587b7"}, {"lat": 38.946171, "is_reserved": 0, "lon": -77.02534733333333, "fusion_lon": 0.0, "fusion_lat": 0.0, "is_disabled": 0, "type": "electric_scooter", "bike_id": "b8d43975972798bdb5243e5fcf93a4cd", "rental_uris": {"android": "https://dc.lft.to/lastmile_qr_scan", "ios": "https://dc.lft.to/lastmile_qr_scan"}, "name": "b8d43975972798bdb5243e5fcf93a4cd"}, {"lat": 38.985047, "is_reserved": 0, "lon": -76.98202316666666, "fusion_lon": 0.0, "fusion_lat": 0.0, "is_disabled": 0, "type": "electric_bike", "bike_id": "840ed6c24449eddd62f940bbfe4c2231", "rental_uris": {"android": "https://dc.lft.to/lastmile_qr_scan", "ios": "https://dc.lft.to/lastmile_qr_scan"}, "name": "840ed6c24449eddd62f940bbfe4c2231"}, {"lat": 38.86032383333333, "is_reserved": 0, "lon": -76.96714333333334, "fusion_lon": 0.0, "fusion_lat": 0.0, "is_disabled": 0, "type": "electric_scooter", "bike_id": "ffcb981b7f53d3bfae30eb2ff4360ec2", "rental_uris": {"android": "https://dc.lft.to/lastmile_qr_scan", "ios": "https://dc.lft.to/lastmile_qr_scan"}, "name": "ffcb981b7f53d3bfae30eb2ff4360ec2"}, {"lat": 38.90440783333333, "is_reserved": 0, "lon": -77.02899416666666, "fusion_lon": 0.0, "fusion_lat": 0.0, "is_disabled": 0, "type": "electric_scooter", "bike_id": "087f3bd32591f52d2960f534e58fa788", "rental_uris": {"android": "https://dc.lft.to/lastmile_qr_scan", "ios": "https://dc.lft.to/lastmile_qr_scan"}, "name": "087f3bd32591f52d2960f534e58fa788"}, {"lat": 38.922927666666666, "is_reserved": 0, "lon": -77.04149533333333, "fusion_lon": 0.0, "fusion_lat": 0.0, "is_disabled": 0, "type": "electric_scooter", "bike_id": "04de99008d0bd861c8a072ba44d93f43", "rental_uris": {"android": "https://dc.lft.to/lastmile_qr_scan", "ios": "https://dc.lft.to/lastmile_qr_scan"}, "name": "04de99008d0bd861c8a072ba44d93f43"}, {"lat": 38.90371416666667, "is_reserved": 0, "lon": -77.03567133333334, "fusion_lon": 0.0, "fusion_lat": 0.0, "is_disabled": 0, "type": "electric_scooter", "bike_id": "3831cf699fa3d0c3b436f9ff5f8ffb4e", "rental_uris": {"android": "https://dc.lft.to/lastmile_qr_scan", "ios": "https://dc.lft.to/lastmile_qr_scan"}, "name": "3831cf699fa3d0c3b436f9ff5f8ffb4e"}, {"lat": 38.876261, "is_reserved": 0, "lon": -76.9652755, "fusion_lon": 0.0, "fusion_lat": 0.0, "is_disabled": 0, "type": "electric_scooter", "bike_id": "3cf53294be2c0f05163b613d00c04fec", "rental_uris": {"android": "https://dc.lft.to/lastmile_qr_scan", "ios": "https://dc.lft.to/lastmile_qr_scan"}, "name": "3cf53294be2c0f05163b613d00c04fec"}, {"lat": 38.910617, "is_reserved": 0, "lon": -77.02000733333334, "fusion_lon": 0.0, "fusion_lat": 0.0, "is_disabled": 0, "type": "electric_bike", "bike_id": "9ea50619f7ca668018900af6fea0dc56", "rental_uris": {"android": "https://dc.lft.to/lastmile_qr_scan", "ios": "https://dc.lft.to/lastmile_qr_scan"}, "name": "9ea50619f7ca668018900af6fea0dc56"}, {"lat": 38.881801, "is_reserved": 0, "lon": -77.02090716666666, "fusion_lon": 0.0, "fusion_lat": 0.0, "is_disabled": 0, "type": "electric_scooter", "bike_id": "c32f929e8e438b3a8034099efae1bef4", "rental_uris": {"android": "https://dc.lft.to/lastmile_qr_scan", "ios": "https://dc.lft.to/lastmile_qr_scan"}, "name": "c32f929e8e438b3a8034099efae1bef4"}, {"lat": 38.89855216666667, "is_reserved": 0, "lon": -76.94634316666667, "fusion_lon": 0.0, "fusion_lat": 0.0, "is_disabled": 0, "type": "electric_scooter", "bike_id": "f52b2634bd976580555cdcc62a90285e", "rental_uris": {"android": "https://dc.lft.to/lastmile_qr_scan", "ios": "https://dc.lft.to/lastmile_qr_scan"}, "name": "f52b2634bd976580555cdcc62a90285e"}, {"lat": 38.90870283333334, "is_reserved": 0, "lon": -77.00366983333333, "fusion_lon": 0.0, "fusion_lat": 0.0, "is_disabled": 0, "type": "electric_scooter", "bike_id": "e48b55e177beeda23b8e32d2b4415f74", "rental_uris": {"android": "https://dc.lft.to/lastmile_qr_scan", "ios": "https://dc.lft.to/lastmile_qr_scan"}, "name": "e48b55e177beeda23b8e32d2b4415f74"}, {"lat": 38.878300333333335, "is_reserved": 0, "lon": -77.00202716666666, "fusion_lon": 0.0, "fusion_lat": 0.0, "is_disabled": 0, "type": "electric_scooter", "bike_id": "724ce5879a6caace60150875aba746a7", "rental_uris": {"android": "https://dc.lft.to/lastmile_qr_scan", "ios": "https://dc.lft.to/lastmile_qr_scan"}, "name": "724ce5879a6caace60150875aba746a7"}, {"lat": 38.902814166666666, "is_reserved": 0, "lon": -77.0386245, "fusion_lon": 0.0, "fusion_lat": 0.0, "is_disabled": 0, "type": "electric_scooter", "bike_id": "4a76b5990b81801ea601900b37c08295", "rental_uris": {"android": "https://dc.lft.to/lastmile_qr_scan", "ios": "https://dc.lft.to/lastmile_qr_scan"}, "name": "4a76b5990b81801ea601900b37c08295"}, {"lat": 38.90011066666667, "is_reserved": 0, "lon": -76.98601833333333, "fusion_lon": 0.0, "fusion_lat": 0.0, "is_disabled": 0, "type": "electric_scooter", "bike_id": "52fb6940100bfb8302f250a38e2ffd3f", "rental_uris": {"android": "https://dc.lft.to/lastmile_qr_scan", "ios": "https://dc.lft.to/lastmile_qr_scan"}, "name": "52fb6940100bfb8302f250a38e2ffd3f"}, {"lat": 38.918102166666664, "is_reserved": 0, "lon": -77.0317395, "fusion_lon": 0.0, "fusion_lat": 0.0, "is_disabled": 0, "type": "electric_scooter", "bike_id": "8134cc0645f2d48572a8ceb6d701d62e", "rental_uris": {"android": "https://dc.lft.to/lastmile_qr_scan", "ios": "https://dc.lft.to/lastmile_qr_scan"}, "name": "8134cc0645f2d48572a8ceb6d701d62e"}, {"lat": 38.9016855, "is_reserved": 0, "lon": -76.92657433333333, "fusion_lon": 0.0, "fusion_lat": 0.0, "is_disabled": 0, "type": "electric_scooter", "bike_id": "ae17e8d5b7c0fe00bf13ed8d5afe14b7", "rental_uris": {"android": "https://dc.lft.to/lastmile_qr_scan", "ios": "https://dc.lft.to/lastmile_qr_scan"}, "name": "ae17e8d5b7c0fe00bf13ed8d5afe14b7"}, {"lat": 38.973683, "is_reserved": 0, "lon": -77.01852533333333, "fusion_lon": 0.0, "fusion_lat": 0.0, "is_disabled": 0, "type": "electric_scooter", "bike_id": "897a4ba56f45eea16efd5b88bcd7bf5e", "rental_uris": {"android": "https://dc.lft.to/lastmile_qr_scan", "ios": "https://dc.lft.to/lastmile_qr_scan"}, "name": "897a4ba56f45eea16efd5b88bcd7bf5e"}, {"lat": 38.898137, "is_reserved": 0, "lon": -77.0294115, "fusion_lon": 0.0, "fusion_lat": 0.0, "is_disabled": 0, "type": "electric_scooter", "bike_id": "5ec840c0ab2b0eccf980df00e47722ae", "rental_uris": {"android": "https://dc.lft.to/lastmile_qr_scan", "ios": "https://dc.lft.to/lastmile_qr_scan"}, "name": "5ec840c0ab2b0eccf980df00e47722ae"}, {"lat": 38.90559366666667, "is_reserved": 0, "lon": -77.02505583333334, "fusion_lon": 0.0, "fusion_lat": 0.0, "is_disabled": 0, "type": "electric_scooter", "bike_id": "4a52cde645e9d261e451e37cb1571dcc", "rental_uris": {"android": "https://dc.lft.to/lastmile_qr_scan", "ios": "https://dc.lft.to/lastmile_qr_scan"}, "name": "4a52cde645e9d261e451e37cb1571dcc"}, {"lat": 38.92026833333333, "is_reserved": 0, "lon": -77.010281, "fusion_lon": 0.0, "fusion_lat": 0.0, "is_disabled": 0, "type": "electric_scooter", "bike_id": "a2779c0651760b969c8a34e361a14f24", "rental_uris": {"android": "https://dc.lft.to/lastmile_qr_scan", "ios": "https://dc.lft.to/lastmile_qr_scan"}, "name": "a2779c0651760b969c8a34e361a14f24"}, {"lat": 38.900392833333335, "is_reserved": 0, "lon": -76.99853083333333, "fusion_lon": 0.0, "fusion_lat": 0.0, "is_disabled": 0, "type": "electric_scooter", "bike_id": "008db14d8c4140d3e2c8e3101e145f2c", "rental_uris": {"android": "https://dc.lft.to/lastmile_qr_scan", "ios": "https://dc.lft.to/lastmile_qr_scan"}, "name": "008db14d8c4140d3e2c8e3101e145f2c"}, {"lat": 38.91695516666667, "is_reserved": 0, "lon": -77.0119205, "fusion_lon": 0.0, "fusion_lat": 0.0, "is_disabled": 0, "type": "electric_scooter", "bike_id": "ede87b2f5a43706424b96a65a3b2510b", "rental_uris": {"android": "https://dc.lft.to/lastmile_qr_scan", "ios": "https://dc.lft.to/lastmile_qr_scan"}, "name": "ede87b2f5a43706424b96a65a3b2510b"}, {"lat": 38.920450333333335, "is_reserved": 0, "lon": -77.03357683333333, "fusion_lon": 0.0, "fusion_lat": 0.0, "is_disabled": 0, "type": "electric_scooter", "bike_id": "7ca3dca9ca7895a9c399897b8942647e", "rental_uris": {"android": "https://dc.lft.to/lastmile_qr_scan", "ios": "https://dc.lft.to/lastmile_qr_scan"}, "name": "7ca3dca9ca7895a9c399897b8942647e"}, {"lat": 38.9071895, "is_reserved": 0, "lon": -77.01461433333333, "fusion_lon": 0.0, "fusion_lat": 0.0, "is_disabled": 0, "type": "electric_scooter", "bike_id": "05452862c253dc15318b695f193db396", "rental_uris": {"android": "https://dc.lft.to/lastmile_qr_scan", "ios": "https://dc.lft.to/lastmile_qr_scan"}, "name": "05452862c253dc15318b695f193db396"}, {"lat": 38.89926416666667, "is_reserved": 0, "lon": -77.02798033333333, "fusion_lon": 0.0, "fusion_lat": 0.0, "is_disabled": 0, "type": "electric_scooter", "bike_id": "f14ea3069a91e56e80fed50763924823", "rental_uris": {"android": "https://dc.lft.to/lastmile_qr_scan", "ios": "https://dc.lft.to/lastmile_qr_scan"}, "name": "f14ea3069a91e56e80fed50763924823"}, {"lat": 38.91708333333333, "is_reserved": 0, "lon": -77.02459783333333, "fusion_lon": 0.0, "fusion_lat": 0.0, "is_disabled": 0, "type": "electric_scooter", "bike_id": "0b4d04d845a19800d36b562349c0e6c1", "rental_uris": {"android": "https://dc.lft.to/lastmile_qr_scan", "ios": "https://dc.lft.to/lastmile_qr_scan"}, "name": "0b4d04d845a19800d36b562349c0e6c1"}, {"lat": 38.8954375, "is_reserved": 0, "lon": -76.982528, "fusion_lon": 0.0, "fusion_lat": 0.0, "is_disabled": 0, "type": "electric_scooter", "bike_id": "4aa8bb19ddb08ee40cc2478975d8fae4", "rental_uris": {"android": "https://dc.lft.to/lastmile_qr_scan", "ios": "https://dc.lft.to/lastmile_qr_scan"}, "name": "4aa8bb19ddb08ee40cc2478975d8fae4"}, {"lat": 38.923612166666665, "is_reserved": 0, "lon": -77.01953016666667, "fusion_lon": 0.0, "fusion_lat": 0.0, "is_disabled": 0, "type": "electric_scooter", "bike_id": "011e1a9736d4a0691793fc591c978b0b", "rental_uris": {"android": "https://dc.lft.to/lastmile_qr_scan", "ios": "https://dc.lft.to/lastmile_qr_scan"}, "name": "011e1a9736d4a0691793fc591c978b0b"}, {"lat": 38.900726666666664, "is_reserved": 0, "lon": -77.027077, "fusion_lon": 0.0, "fusion_lat": 0.0, "is_disabled": 0, "type": "electric_scooter", "bike_id": "da2cb4a0c8f5c51fbafe7d9f721d86e1", "rental_uris": {"android": "https://dc.lft.to/lastmile_qr_scan", "ios": "https://dc.lft.to/lastmile_qr_scan"}, "name": "da2cb4a0c8f5c51fbafe7d9f721d86e1"}, {"lat": 38.897413666666665, "is_reserved": 0, "lon": -77.02500883333333, "fusion_lon": 0.0, "fusion_lat": 0.0, "is_disabled": 0, "type": "electric_scooter", "bike_id": "d567e488a0c0f7fe45a668e738dc2b49", "rental_uris": {"android": "https://dc.lft.to/lastmile_qr_scan", "ios": "https://dc.lft.to/lastmile_qr_scan"}, "name": "d567e488a0c0f7fe45a668e738dc2b49"}, {"lat": 38.8872055, "is_reserved": 0, "lon": -77.00181883333333, "fusion_lon": 0.0, "fusion_lat": 0.0, "is_disabled": 0, "type": "electric_scooter", "bike_id": "c051f06ccb29fd2784a048b83e67a727", "rental_uris": {"android": "https://dc.lft.to/lastmile_qr_scan", "ios": "https://dc.lft.to/lastmile_qr_scan"}, "name": "c051f06ccb29fd2784a048b83e67a727"}, {"lat": 38.921037166666665, "is_reserved": 0, "lon": -77.01815066666667, "fusion_lon": 0.0, "fusion_lat": 0.0, "is_disabled": 0, "type": "electric_scooter", "bike_id": "68ecc28ee40af74832b4a719e665dee8", "rental_uris": {"android": "https://dc.lft.to/lastmile_qr_scan", "ios": "https://dc.lft.to/lastmile_qr_scan"}, "name": "68ecc28ee40af74832b4a719e665dee8"}, {"lat": 38.9141075, "is_reserved": 0, "lon": -77.02108766666667, "fusion_lon": 0.0, "fusion_lat": 0.0, "is_disabled": 0, "type": "electric_scooter", "bike_id": "0490a08ab20c8a9c382be894ea61afdd", "rental_uris": {"android": "https://dc.lft.to/lastmile_qr_scan", "ios": "https://dc.lft.to/lastmile_qr_scan"}, "name": "0490a08ab20c8a9c382be894ea61afdd"}, {"lat": 38.903172833333336, "is_reserved": 0, "lon": -77.04893333333334, "fusion_lon": 0.0, "fusion_lat": 0.0, "is_disabled": 0, "type": "electric_scooter", "bike_id": "5b2789370f7cbedcc1a266e33e9bd254", "rental_uris": {"android": "https://dc.lft.to/lastmile_qr_scan", "ios": "https://dc.lft.to/lastmile_qr_scan"}, "name": "5b2789370f7cbedcc1a266e33e9bd254"}, {"lat": 38.863723, "is_reserved": 0, "lon": -76.99063033333333, "fusion_lon": 0.0, "fusion_lat": 0.0, "is_disabled": 0, "type": "electric_scooter", "bike_id": "9ef64a2b272cf11d10cf682b432f40d8", "rental_uris": {"android": "https://dc.lft.to/lastmile_qr_scan", "ios": "https://dc.lft.to/lastmile_qr_scan"}, "name": "9ef64a2b272cf11d10cf682b432f40d8"}, {"lat": 38.96734633333333, "is_reserved": 0, "lon": -76.960495, "fusion_lon": 0.0, "fusion_lat": 0.0, "is_disabled": 0, "type": "electric_bike", "bike_id": "b555e732254632ae9bb01fabde33812d", "rental_uris": {"android": "https://dc.lft.to/lastmile_qr_scan", "ios": "https://dc.lft.to/lastmile_qr_scan"}, "name": "b555e732254632ae9bb01fabde33812d"}, {"lat": 38.92331, "is_reserved": 0, "lon": -77.05367166666667, "fusion_lon": 0.0, "fusion_lat": 0.0, "is_disabled": 0, "type": "electric_bike", "bike_id": "9ba6231e2a048171335ff3bd27e2b4a9", "rental_uris": {"android": "https://dc.lft.to/lastmile_qr_scan", "ios": "https://dc.lft.to/lastmile_qr_scan"}, "name": "9ba6231e2a048171335ff3bd27e2b4a9"}, {"lat": 38.93305933333333, "is_reserved": 0, "lon": -77.02921083333334, "fusion_lon": 0.0, "fusion_lat": 0.0, "is_disabled": 0, "type": "electric_scooter", "bike_id": "f42a7b882e78006217db4004fcb3c2c4", "rental_uris": {"android": "https://dc.lft.to/lastmile_qr_scan", "ios": "https://dc.lft.to/lastmile_qr_scan"}, "name": "f42a7b882e78006217db4004fcb3c2c4"}, {"lat": 38.8870885, "is_reserved": 0, "lon": -77.01780266666667, "fusion_lon": 0.0, "fusion_lat": 0.0, "is_disabled": 0, "type": "electric_scooter", "bike_id": "38fc5c6adc89282fa880992fc3b0a6eb", "rental_uris": {"android": "https://dc.lft.to/lastmile_qr_scan", "ios": "https://dc.lft.to/lastmile_qr_scan"}, "name": "38fc5c6adc89282fa880992fc3b0a6eb"}, {"lat": 38.88740033333333, "is_reserved": 0, "lon": -77.01535166666666, "fusion_lon": 0.0, "fusion_lat": 0.0, "is_disabled": 0, "type": "electric_scooter", "bike_id": "3069413aaacd90f345b9db578a956fc1", "rental_uris": {"android": "https://dc.lft.to/lastmile_qr_scan", "ios": "https://dc.lft.to/lastmile_qr_scan"}, "name": "3069413aaacd90f345b9db578a956fc1"}, {"lat": 38.90395383333333, "is_reserved": 0, "lon": -76.9894425, "fusion_lon": 0.0, "fusion_lat": 0.0, "is_disabled": 0, "type": "electric_scooter", "bike_id": "9d3e44a7f6250dd363f5a57ea0de8a68", "rental_uris": {"android": "https://dc.lft.to/lastmile_qr_scan", "ios": "https://dc.lft.to/lastmile_qr_scan"}, "name": "9d3e44a7f6250dd363f5a57ea0de8a68"}, {"lat": 38.92130783333333, "is_reserved": 0, "lon": -77.01809883333334, "fusion_lon": 0.0, "fusion_lat": 0.0, "is_disabled": 0, "type": "electric_scooter", "bike_id": "ca8129b00026256863ad3aaaae2b9bb1", "rental_uris": {"android": "https://dc.lft.to/lastmile_qr_scan", "ios": "https://dc.lft.to/lastmile_qr_scan"}, "name": "ca8129b00026256863ad3aaaae2b9bb1"}, {"lat": 38.904598166666666, "is_reserved": 0, "lon": -77.0195215, "fusion_lon": 0.0, "fusion_lat": 0.0, "is_disabled": 0, "type": "electric_scooter", "bike_id": "32eedcb7a68e1829da229c98b68f3e73", "rental_uris": {"android": "https://dc.lft.to/lastmile_qr_scan", "ios": "https://dc.lft.to/lastmile_qr_scan"}, "name": "32eedcb7a68e1829da229c98b68f3e73"}, {"lat": 38.91424766666667, "is_reserved": 0, "lon": -77.0198775, "fusion_lon": 0.0, "fusion_lat": 0.0, "is_disabled": 0, "type": "electric_scooter", "bike_id": "798f122fa92e4efe131d73381527ce06", "rental_uris": {"android": "https://dc.lft.to/lastmile_qr_scan", "ios": "https://dc.lft.to/lastmile_qr_scan"}, "name": "798f122fa92e4efe131d73381527ce06"}, {"lat": 38.930580166666665, "is_reserved": 0, "lon": -77.03638383333333, "fusion_lon": 0.0, "fusion_lat": 0.0, "is_disabled": 0, "type": "electric_scooter", "bike_id": "91934f6388f9f40a4c4d04d8c3b9536c", "rental_uris": {"android": "https://dc.lft.to/lastmile_qr_scan", "ios": "https://dc.lft.to/lastmile_qr_scan"}, "name": "91934f6388f9f40a4c4d04d8c3b9536c"}, {"lat": 38.88032583333333, "is_reserved": 0, "lon": -77.0197955, "fusion_lon": 0.0, "fusion_lat": 0.0, "is_disabled": 0, "type": "electric_scooter", "bike_id": "f8527fa7b25b83e3373e21eb25211ea7", "rental_uris": {"android": "https://dc.lft.to/lastmile_qr_scan", "ios": "https://dc.lft.to/lastmile_qr_scan"}, "name": "f8527fa7b25b83e3373e21eb25211ea7"}, {"lat": 38.93673366666667, "is_reserved": 0, "lon": -76.99068216666667, "fusion_lon": 0.0, "fusion_lat": 0.0, "is_disabled": 0, "type": "electric_bike", "bike_id": "16098439bb9d487c89476c48d84080eb", "rental_uris": {"android": "https://dc.lft.to/lastmile_qr_scan", "ios": "https://dc.lft.to/lastmile_qr_scan"}, "name": "16098439bb9d487c89476c48d84080eb"}, {"lat": 38.92879216666667, "is_reserved": 0, "lon": -77.03284283333333, "fusion_lon": 0.0, "fusion_lat": 0.0, "is_disabled": 0, "type": "electric_scooter", "bike_id": "5f567ed461c7d29791deb1e93d8bd8d0", "rental_uris": {"android": "https://dc.lft.to/lastmile_qr_scan", "ios": "https://dc.lft.to/lastmile_qr_scan"}, "name": "5f567ed461c7d29791deb1e93d8bd8d0"}, {"lat": 38.90551, "is_reserved": 0, "lon": -77.02721666666666, "fusion_lon": 0.0, "fusion_lat": 0.0, "is_disabled": 0, "type": "electric_scooter", "bike_id": "4c21b3b622c4b779bcef4be15fe5978b", "rental_uris": {"android": "https://dc.lft.to/lastmile_qr_scan", "ios": "https://dc.lft.to/lastmile_qr_scan"}, "name": "4c21b3b622c4b779bcef4be15fe5978b"}, {"lat": 38.90381, "is_reserved": 0, "lon": -77.03977116666667, "fusion_lon": 0.0, "fusion_lat": 0.0, "is_disabled": 0, "type": "electric_scooter", "bike_id": "a7608a3e1ae363712355ca566e73e19f", "rental_uris": {"android": "https://dc.lft.to/lastmile_qr_scan", "ios": "https://dc.lft.to/lastmile_qr_scan"}, "name": "a7608a3e1ae363712355ca566e73e19f"}, {"lat": 38.910099, "is_reserved": 0, "lon": -77.03449466666666, "fusion_lon": 0.0, "fusion_lat": 0.0, "is_disabled": 0, "type": "electric_scooter", "bike_id": "ca404586f6273a2ac08539c497b5b75c", "rental_uris": {"android": "https://dc.lft.to/lastmile_qr_scan", "ios": "https://dc.lft.to/lastmile_qr_scan"}, "name": "ca404586f6273a2ac08539c497b5b75c"}, {"lat": 38.9343565, "is_reserved": 0, "lon": -77.03301966666666, "fusion_lon": 0.0, "fusion_lat": 0.0, "is_disabled": 0, "type": "electric_scooter", "bike_id": "162d4dbd847bac2a601803a98a4dd0ba", "rental_uris": {"android": "https://dc.lft.to/lastmile_qr_scan", "ios": "https://dc.lft.to/lastmile_qr_scan"}, "name": "162d4dbd847bac2a601803a98a4dd0ba"}, {"lat": 38.90037433333333, "is_reserved": 0, "lon": -76.99851083333333, "fusion_lon": 0.0, "fusion_lat": 0.0, "is_disabled": 0, "type": "electric_scooter", "bike_id": "2ed6072b426ef9f85e17f847b7815551", "rental_uris": {"android": "https://dc.lft.to/lastmile_qr_scan", "ios": "https://dc.lft.to/lastmile_qr_scan"}, "name": "2ed6072b426ef9f85e17f847b7815551"}, {"lat": 38.881159, "is_reserved": 0, "lon": -77.01650216666667, "fusion_lon": 0.0, "fusion_lat": 0.0, "is_disabled": 0, "type": "electric_scooter", "bike_id": "b2b714f707c29f98bc4c698b765dbac8", "rental_uris": {"android": "https://dc.lft.to/lastmile_qr_scan", "ios": "https://dc.lft.to/lastmile_qr_scan"}, "name": "b2b714f707c29f98bc4c698b765dbac8"}, {"lat": 38.90538316666667, "is_reserved": 0, "lon": -77.041089, "fusion_lon": 0.0, "fusion_lat": 0.0, "is_disabled": 0, "type": "electric_scooter", "bike_id": "88665f313f515af8dfaf5a9cc86c2d49", "rental_uris": {"android": "https://dc.lft.to/lastmile_qr_scan", "ios": "https://dc.lft.to/lastmile_qr_scan"}, "name": "88665f313f515af8dfaf5a9cc86c2d49"}, {"lat": 38.9176695, "is_reserved": 0, "lon": -77.01503033333333, "fusion_lon": 0.0, "fusion_lat": 0.0, "is_disabled": 0, "type": "electric_scooter", "bike_id": "bd05b5a4e9ba15399808be8ea299d3fb", "rental_uris": {"android": "https://dc.lft.to/lastmile_qr_scan", "ios": "https://dc.lft.to/lastmile_qr_scan"}, "name": "bd05b5a4e9ba15399808be8ea299d3fb"}, {"lat": 38.899025333333334, "is_reserved": 0, "lon": -77.0450585, "fusion_lon": 0.0, "fusion_lat": 0.0, "is_disabled": 0, "type": "electric_scooter", "bike_id": "43de5ca10d00c3b606b240ab28f5c89a", "rental_uris": {"android": "https://dc.lft.to/lastmile_qr_scan", "ios": "https://dc.lft.to/lastmile_qr_scan"}, "name": "43de5ca10d00c3b606b240ab28f5c89a"}, {"lat": 38.924541, "is_reserved": 0, "lon": -77.02715, "fusion_lon": 0.0, "fusion_lat": 0.0, "is_disabled": 0, "type": "electric_scooter", "bike_id": "3b161751a9254d00c7a4cd8091be923d", "rental_uris": {"android": "https://dc.lft.to/lastmile_qr_scan", "ios": "https://dc.lft.to/lastmile_qr_scan"}, "name": "3b161751a9254d00c7a4cd8091be923d"}, {"lat": 38.916917833333336, "is_reserved": 0, "lon": -77.026549, "fusion_lon": 0.0, "fusion_lat": 0.0, "is_disabled": 0, "type": "electric_scooter", "bike_id": "8ccf98ed786e133caf75f4048d38111c", "rental_uris": {"android": "https://dc.lft.to/lastmile_qr_scan", "ios": "https://dc.lft.to/lastmile_qr_scan"}, "name": "8ccf98ed786e133caf75f4048d38111c"}, {"lat": 38.92656266666667, "is_reserved": 0, "lon": -77.03729266666667, "fusion_lon": 0.0, "fusion_lat": 0.0, "is_disabled": 0, "type": "electric_scooter", "bike_id": "b222dc387c2360c91f96d4a61f36f870", "rental_uris": {"android": "https://dc.lft.to/lastmile_qr_scan", "ios": "https://dc.lft.to/lastmile_qr_scan"}, "name": "b222dc387c2360c91f96d4a61f36f870"}, {"lat": 38.9922675, "is_reserved": 0, "lon": -77.0358605, "fusion_lon": 0.0, "fusion_lat": 0.0, "is_disabled": 0, "type": "electric_scooter", "bike_id": "2481789d1968ad839e21a6d69759aaed", "rental_uris": {"android": "https://dc.lft.to/lastmile_qr_scan", "ios": "https://dc.lft.to/lastmile_qr_scan"}, "name": "2481789d1968ad839e21a6d69759aaed"}, {"lat": 38.9015745, "is_reserved": 0, "lon": -77.03251533333334, "fusion_lon": 0.0, "fusion_lat": 0.0, "is_disabled": 0, "type": "electric_scooter", "bike_id": "e2b7134063306d438cf958d762e06eaa", "rental_uris": {"android": "https://dc.lft.to/lastmile_qr_scan", "ios": "https://dc.lft.to/lastmile_qr_scan"}, "name": "e2b7134063306d438cf958d762e06eaa"}, {"lat": 38.8910115, "is_reserved": 0, "lon": -77.00199583333334, "fusion_lon": 0.0, "fusion_lat": 0.0, "is_disabled": 0, "type": "electric_scooter", "bike_id": "626d71892b765cca86d038c3a6b8aec0", "rental_uris": {"android": "https://dc.lft.to/lastmile_qr_scan", "ios": "https://dc.lft.to/lastmile_qr_scan"}, "name": "626d71892b765cca86d038c3a6b8aec0"}, {"lat": 39.051036833333335, "is_reserved": 0, "lon": -77.11749783333333, "fusion_lon": 0.0, "fusion_lat": 0.0, "is_disabled": 0, "type": "electric_bike", "bike_id": "bac2e56374b4e6b2e1c242e3157dd867", "rental_uris": {"android": "https://dc.lft.to/lastmile_qr_scan", "ios": "https://dc.lft.to/lastmile_qr_scan"}, "name": "bac2e56374b4e6b2e1c242e3157dd867"}, {"lat": 38.9278245, "is_reserved": 0, "lon": -77.04295366666666, "fusion_lon": 0.0, "fusion_lat": 0.0, "is_disabled": 0, "type": "electric_scooter", "bike_id": "0df95ab3b2bdc14902c6319b98993a53", "rental_uris": {"android": "https://dc.lft.to/lastmile_qr_scan", "ios": "https://dc.lft.to/lastmile_qr_scan"}, "name": "0df95ab3b2bdc14902c6319b98993a53"}, {"lat": 38.90903633333333, "is_reserved": 0, "lon": -77.03215533333334, "fusion_lon": 0.0, "fusion_lat": 0.0, "is_disabled": 0, "type": "electric_scooter", "bike_id": "3b962d313acbb6d725e06bf3557ef056", "rental_uris": {"android": "https://dc.lft.to/lastmile_qr_scan", "ios": "https://dc.lft.to/lastmile_qr_scan"}, "name": "3b962d313acbb6d725e06bf3557ef056"}, {"lat": 38.90953233333333, "is_reserved": 0, "lon": -77.05465966666667, "fusion_lon": 0.0, "fusion_lat": 0.0, "is_disabled": 0, "type": "electric_scooter", "bike_id": "e11efc3d3189a8a2ad87213220a8f636", "rental_uris": {"android": "https://dc.lft.to/lastmile_qr_scan", "ios": "https://dc.lft.to/lastmile_qr_scan"}, "name": "e11efc3d3189a8a2ad87213220a8f636"}, {"lat": 38.90260583333333, "is_reserved": 0, "lon": -77.03845033333333, "fusion_lon": 0.0, "fusion_lat": 0.0, "is_disabled": 0, "type": "electric_scooter", "bike_id": "2c7383c0332dc115732848072a540e95", "rental_uris": {"android": "https://dc.lft.to/lastmile_qr_scan", "ios": "https://dc.lft.to/lastmile_qr_scan"}, "name": "2c7383c0332dc115732848072a540e95"}, {"lat": 38.918106, "is_reserved": 0, "lon": -77.0397865, "fusion_lon": 0.0, "fusion_lat": 0.0, "is_disabled": 0, "type": "electric_scooter", "bike_id": "a2644a396afcb231a2bdce68e287f7d9", "rental_uris": {"android": "https://dc.lft.to/lastmile_qr_scan", "ios": "https://dc.lft.to/lastmile_qr_scan"}, "name": "a2644a396afcb231a2bdce68e287f7d9"}, {"lat": 38.8839755, "is_reserved": 0, "lon": -76.960551, "fusion_lon": 0.0, "fusion_lat": 0.0, "is_disabled": 0, "type": "electric_bike", "bike_id": "7916e5f5e538f88956d0229996b6823c", "rental_uris": {"android": "https://dc.lft.to/lastmile_qr_scan", "ios": "https://dc.lft.to/lastmile_qr_scan"}, "name": "7916e5f5e538f88956d0229996b6823c"}, {"lat": 38.935267833333334, "is_reserved": 0, "lon": -77.023468, "fusion_lon": 0.0, "fusion_lat": 0.0, "is_disabled": 0, "type": "electric_scooter", "bike_id": "71fd300cd3e2cb14be7e68f8aad92754", "rental_uris": {"android": "https://dc.lft.to/lastmile_qr_scan", "ios": "https://dc.lft.to/lastmile_qr_scan"}, "name": "71fd300cd3e2cb14be7e68f8aad92754"}, {"lat": 38.939021333333336, "is_reserved": 0, "lon": -77.08486033333334, "fusion_lon": 0.0, "fusion_lat": 0.0, "is_disabled": 0, "type": "electric_scooter", "bike_id": "8567f2a324e3aa6e887b6a6e9cd73ada", "rental_uris": {"android": "https://dc.lft.to/lastmile_qr_scan", "ios": "https://dc.lft.to/lastmile_qr_scan"}, "name": "8567f2a324e3aa6e887b6a6e9cd73ada"}, {"lat": 38.91735166666667, "is_reserved": 0, "lon": -77.0320465, "fusion_lon": 0.0, "fusion_lat": 0.0, "is_disabled": 0, "type": "electric_scooter", "bike_id": "60a1ccc483d651876ae7df350cbcb0d5", "rental_uris": {"android": "https://dc.lft.to/lastmile_qr_scan", "ios": "https://dc.lft.to/lastmile_qr_scan"}, "name": "60a1ccc483d651876ae7df350cbcb0d5"}, {"lat": 38.90459666666667, "is_reserved": 0, "lon": -77.03138683333333, "fusion_lon": 0.0, "fusion_lat": 0.0, "is_disabled": 0, "type": "electric_scooter", "bike_id": "9e674aebb42b95c4920cd3ee988a82a5", "rental_uris": {"android": "https://dc.lft.to/lastmile_qr_scan", "ios": "https://dc.lft.to/lastmile_qr_scan"}, "name": "9e674aebb42b95c4920cd3ee988a82a5"}, {"lat": 38.917727166666666, "is_reserved": 0, "lon": -77.03860966666667, "fusion_lon": 0.0, "fusion_lat": 0.0, "is_disabled": 0, "type": "electric_scooter", "bike_id": "72b79111480425253ce272849b88ebf1", "rental_uris": {"android": "https://dc.lft.to/lastmile_qr_scan", "ios": "https://dc.lft.to/lastmile_qr_scan"}, "name": "72b79111480425253ce272849b88ebf1"}, {"lat": 38.903590333333334, "is_reserved": 0, "lon": -77.0353205, "fusion_lon": 0.0, "fusion_lat": 0.0, "is_disabled": 0, "type": "electric_scooter", "bike_id": "6e37a0bcc44820c7dcafbd9c54c4e27f", "rental_uris": {"android": "https://dc.lft.to/lastmile_qr_scan", "ios": "https://dc.lft.to/lastmile_qr_scan"}, "name": "6e37a0bcc44820c7dcafbd9c54c4e27f"}, {"lat": 38.880269, "is_reserved": 0, "lon": -77.0250615, "fusion_lon": 0.0, "fusion_lat": 0.0, "is_disabled": 0, "type": "electric_scooter", "bike_id": "b7ac25090d8e4458be7dfc08ce72e25c", "rental_uris": {"android": "https://dc.lft.to/lastmile_qr_scan", "ios": "https://dc.lft.to/lastmile_qr_scan"}, "name": "b7ac25090d8e4458be7dfc08ce72e25c"}, {"lat": 38.9208895, "is_reserved": 0, "lon": -77.02309933333333, "fusion_lon": 0.0, "fusion_lat": 0.0, "is_disabled": 0, "type": "electric_scooter", "bike_id": "7bbf8c863ec175434ffda688c7090d8a", "rental_uris": {"android": "https://dc.lft.to/lastmile_qr_scan", "ios": "https://dc.lft.to/lastmile_qr_scan"}, "name": "7bbf8c863ec175434ffda688c7090d8a"}, {"lat": 38.8850955, "is_reserved": 0, "lon": -77.00231116666667, "fusion_lon": 0.0, "fusion_lat": 0.0, "is_disabled": 0, "type": "electric_scooter", "bike_id": "6f12f50dbda5647045d8731bb8d797fd", "rental_uris": {"android": "https://dc.lft.to/lastmile_qr_scan", "ios": "https://dc.lft.to/lastmile_qr_scan"}, "name": "6f12f50dbda5647045d8731bb8d797fd"}, {"lat": 38.85892666666667, "is_reserved": 0, "lon": -77.118614, "fusion_lon": 0.0, "fusion_lat": 0.0, "is_disabled": 0, "type": "electric_bike", "bike_id": "3dacda09461e701dcb686e6c9aaf56f9", "rental_uris": {"android": "https://dc.lft.to/lastmile_qr_scan", "ios": "https://dc.lft.to/lastmile_qr_scan"}, "name": "3dacda09461e701dcb686e6c9aaf56f9"}, {"lat": 38.92790466666667, "is_reserved": 0, "lon": -77.02211716666666, "fusion_lon": 0.0, "fusion_lat": 0.0, "is_disabled": 0, "type": "electric_scooter", "bike_id": "1e4113fd9a8bd4ce1ecf8e7ab3061ebb", "rental_uris": {"android": "https://dc.lft.to/lastmile_qr_scan", "ios": "https://dc.lft.to/lastmile_qr_scan"}, "name": "1e4113fd9a8bd4ce1ecf8e7ab3061ebb"}, {"lat": 38.907539166666666, "is_reserved": 0, "lon": -77.00011516666666, "fusion_lon": 0.0, "fusion_lat": 0.0, "is_disabled": 0, "type": "electric_scooter", "bike_id": "21e25af659511f1ae4ad77b0e5f45518", "rental_uris": {"android": "https://dc.lft.to/lastmile_qr_scan", "ios": "https://dc.lft.to/lastmile_qr_scan"}, "name": "21e25af659511f1ae4ad77b0e5f45518"}, {"lat": 38.89735683333333, "is_reserved": 0, "lon": -77.009521, "fusion_lon": 0.0, "fusion_lat": 0.0, "is_disabled": 0, "type": "electric_scooter", "bike_id": "1c5b76c132e44581ab103b03f50794e4", "rental_uris": {"android": "https://dc.lft.to/lastmile_qr_scan", "ios": "https://dc.lft.to/lastmile_qr_scan"}, "name": "1c5b76c132e44581ab103b03f50794e4"}, {"lat": 38.919897666666664, "is_reserved": 0, "lon": -77.0327255, "fusion_lon": 0.0, "fusion_lat": 0.0, "is_disabled": 0, "type": "electric_scooter", "bike_id": "595353cf72746f57852de6e23893fec0", "rental_uris": {"android": "https://dc.lft.to/lastmile_qr_scan", "ios": "https://dc.lft.to/lastmile_qr_scan"}, "name": "595353cf72746f57852de6e23893fec0"}, {"lat": 38.9032885, "is_reserved": 0, "lon": -77.0161755, "fusion_lon": 0.0, "fusion_lat": 0.0, "is_disabled": 0, "type": "electric_scooter", "bike_id": "cfd0f51964d628f9bb030709831b27f7", "rental_uris": {"android": "https://dc.lft.to/lastmile_qr_scan", "ios": "https://dc.lft.to/lastmile_qr_scan"}, "name": "cfd0f51964d628f9bb030709831b27f7"}, {"lat": 38.8746115, "is_reserved": 0, "lon": -77.00492433333334, "fusion_lon": 0.0, "fusion_lat": 0.0, "is_disabled": 0, "type": "electric_scooter", "bike_id": "0f7e3726a55a496def1f5695387ed44c", "rental_uris": {"android": "https://dc.lft.to/lastmile_qr_scan", "ios": "https://dc.lft.to/lastmile_qr_scan"}, "name": "0f7e3726a55a496def1f5695387ed44c"}, {"lat": 38.866877333333335, "is_reserved": 0, "lon": -76.98540816666667, "fusion_lon": 0.0, "fusion_lat": 0.0, "is_disabled": 0, "type": "electric_scooter", "bike_id": "e318a9be517335135baf27edd3906a1f", "rental_uris": {"android": "https://dc.lft.to/lastmile_qr_scan", "ios": "https://dc.lft.to/lastmile_qr_scan"}, "name": "e318a9be517335135baf27edd3906a1f"}, {"lat": 38.89994816666667, "is_reserved": 0, "lon": -76.98563883333334, "fusion_lon": 0.0, "fusion_lat": 0.0, "is_disabled": 0, "type": "electric_scooter", "bike_id": "fb66e1ab66c96feb92ea01472b91a240", "rental_uris": {"android": "https://dc.lft.to/lastmile_qr_scan", "ios": "https://dc.lft.to/lastmile_qr_scan"}, "name": "fb66e1ab66c96feb92ea01472b91a240"}, {"lat": 38.90678233333333, "is_reserved": 0, "lon": -76.9799455, "fusion_lon": 0.0, "fusion_lat": 0.0, "is_disabled": 0, "type": "electric_scooter", "bike_id": "650784bcbdb48527d480861ce07c865c", "rental_uris": {"android": "https://dc.lft.to/lastmile_qr_scan", "ios": "https://dc.lft.to/lastmile_qr_scan"}, "name": "650784bcbdb48527d480861ce07c865c"}, {"lat": 38.92058516666667, "is_reserved": 0, "lon": -77.029397, "fusion_lon": 0.0, "fusion_lat": 0.0, "is_disabled": 0, "type": "electric_scooter", "bike_id": "2c6cdb82df970af8ccc23d58b0cf8667", "rental_uris": {"android": "https://dc.lft.to/lastmile_qr_scan", "ios": "https://dc.lft.to/lastmile_qr_scan"}, "name": "2c6cdb82df970af8ccc23d58b0cf8667"}, {"lat": 38.873735333333336, "is_reserved": 0, "lon": -77.00117683333333, "fusion_lon": 0.0, "fusion_lat": 0.0, "is_disabled": 0, "type": "electric_scooter", "bike_id": "4449ea6f737311aba6a2ede85c3ec770", "rental_uris": {"android": "https://dc.lft.to/lastmile_qr_scan", "ios": "https://dc.lft.to/lastmile_qr_scan"}, "name": "4449ea6f737311aba6a2ede85c3ec770"}, {"lat": 38.91458183333334, "is_reserved": 0, "lon": -77.002151, "fusion_lon": 0.0, "fusion_lat": 0.0, "is_disabled": 0, "type": "electric_scooter", "bike_id": "e79dd2be8e1e8cb17bd887daa0945ff0", "rental_uris": {"android": "https://dc.lft.to/lastmile_qr_scan", "ios": "https://dc.lft.to/lastmile_qr_scan"}, "name": "e79dd2be8e1e8cb17bd887daa0945ff0"}, {"lat": 38.905092833333335, "is_reserved": 0, "lon": -77.0013645, "fusion_lon": 0.0, "fusion_lat": 0.0, "is_disabled": 0, "type": "electric_scooter", "bike_id": "cdf18849d41287baed1b68fe206cfe64", "rental_uris": {"android": "https://dc.lft.to/lastmile_qr_scan", "ios": "https://dc.lft.to/lastmile_qr_scan"}, "name": "cdf18849d41287baed1b68fe206cfe64"}, {"lat": 38.90520516666667, "is_reserved": 0, "lon": -77.06096333333333, "fusion_lon": 0.0, "fusion_lat": 0.0, "is_disabled": 0, "type": "electric_scooter", "bike_id": "971a8650e0918ca1db75d5a3dce806fa", "rental_uris": {"android": "https://dc.lft.to/lastmile_qr_scan", "ios": "https://dc.lft.to/lastmile_qr_scan"}, "name": "971a8650e0918ca1db75d5a3dce806fa"}, {"lat": 38.92911866666667, "is_reserved": 0, "lon": -77.023695, "fusion_lon": 0.0, "fusion_lat": 0.0, "is_disabled": 0, "type": "electric_scooter", "bike_id": "82ee5fc0c0c6fc19e52e8dbf817627f1", "rental_uris": {"android": "https://dc.lft.to/lastmile_qr_scan", "ios": "https://dc.lft.to/lastmile_qr_scan"}, "name": "82ee5fc0c0c6fc19e52e8dbf817627f1"}, {"lat": 38.8852295, "is_reserved": 0, "lon": -76.95628066666667, "fusion_lon": 0.0, "fusion_lat": 0.0, "is_disabled": 0, "type": "electric_bike", "bike_id": "479abd6be4924cdc8d2f839b27831d39", "rental_uris": {"android": "https://dc.lft.to/lastmile_qr_scan", "ios": "https://dc.lft.to/lastmile_qr_scan"}, "name": "479abd6be4924cdc8d2f839b27831d39"}, {"lat": 38.881099, "is_reserved": 0, "lon": -77.01650383333333, "fusion_lon": 0.0, "fusion_lat": 0.0, "is_disabled": 0, "type": "electric_scooter", "bike_id": "46822f296c81b4617cdc451464360e6c", "rental_uris": {"android": "https://dc.lft.to/lastmile_qr_scan", "ios": "https://dc.lft.to/lastmile_qr_scan"}, "name": "46822f296c81b4617cdc451464360e6c"}, {"lat": 38.900281666666665, "is_reserved": 0, "lon": -77.04337816666667, "fusion_lon": 0.0, "fusion_lat": 0.0, "is_disabled": 0, "type": "electric_scooter", "bike_id": "c82d8b8326e7e3d380caef6db69cbef1", "rental_uris": {"android": "https://dc.lft.to/lastmile_qr_scan", "ios": "https://dc.lft.to/lastmile_qr_scan"}, "name": "c82d8b8326e7e3d380caef6db69cbef1"}, {"lat": 38.92472633333333, "is_reserved": 0, "lon": -77.02202316666667, "fusion_lon": 0.0, "fusion_lat": 0.0, "is_disabled": 0, "type": "electric_scooter", "bike_id": "899f28eb7f8c11e10e4531d7d5fe79b9", "rental_uris": {"android": "https://dc.lft.to/lastmile_qr_scan", "ios": "https://dc.lft.to/lastmile_qr_scan"}, "name": "899f28eb7f8c11e10e4531d7d5fe79b9"}, {"lat": 38.908591666666666, "is_reserved": 0, "lon": -77.04685666666667, "fusion_lon": 0.0, "fusion_lat": 0.0, "is_disabled": 0, "type": "electric_scooter", "bike_id": "87171f2338c211ba33a5d4cacf305b3d", "rental_uris": {"android": "https://dc.lft.to/lastmile_qr_scan", "ios": "https://dc.lft.to/lastmile_qr_scan"}, "name": "87171f2338c211ba33a5d4cacf305b3d"}, {"lat": 38.894022166666666, "is_reserved": 0, "lon": -77.04426316666667, "fusion_lon": 0.0, "fusion_lat": 0.0, "is_disabled": 0, "type": "electric_scooter", "bike_id": "2e725d810bf8007957b2c14ab87cad2b", "rental_uris": {"android": "https://dc.lft.to/lastmile_qr_scan", "ios": "https://dc.lft.to/lastmile_qr_scan"}, "name": "2e725d810bf8007957b2c14ab87cad2b"}, {"lat": 38.892161333333334, "is_reserved": 0, "lon": -77.0138515, "fusion_lon": 0.0, "fusion_lat": 0.0, "is_disabled": 0, "type": "electric_scooter", "bike_id": "2dd67d53a3d2e1aefe45e4da52b4e6bf", "rental_uris": {"android": "https://dc.lft.to/lastmile_qr_scan", "ios": "https://dc.lft.to/lastmile_qr_scan"}, "name": "2dd67d53a3d2e1aefe45e4da52b4e6bf"}, {"lat": 38.9149045, "is_reserved": 0, "lon": -77.03710533333333, "fusion_lon": 0.0, "fusion_lat": 0.0, "is_disabled": 0, "type": "electric_scooter", "bike_id": "e8d076b01a8fb0ec8b9d19be0ec9f8e3", "rental_uris": {"android": "https://dc.lft.to/lastmile_qr_scan", "ios": "https://dc.lft.to/lastmile_qr_scan"}, "name": "e8d076b01a8fb0ec8b9d19be0ec9f8e3"}, {"lat": 38.81335216666667, "is_reserved": 0, "lon": -77.0511945, "fusion_lon": 0.0, "fusion_lat": 0.0, "is_disabled": 0, "type": "electric_bike", "bike_id": "597df026a4c9345f62ade0ff96ec7eb0", "rental_uris": {"android": "https://dc.lft.to/lastmile_qr_scan", "ios": "https://dc.lft.to/lastmile_qr_scan"}, "name": "597df026a4c9345f62ade0ff96ec7eb0"}, {"lat": 38.8981845, "is_reserved": 0, "lon": -77.04502133333334, "fusion_lon": 0.0, "fusion_lat": 0.0, "is_disabled": 0, "type": "electric_scooter", "bike_id": "ad8653f5d7427187492845ac9a6738df", "rental_uris": {"android": "https://dc.lft.to/lastmile_qr_scan", "ios": "https://dc.lft.to/lastmile_qr_scan"}, "name": "ad8653f5d7427187492845ac9a6738df"}, {"lat": 38.872997166666664, "is_reserved": 0, "lon": -76.96905616666666, "fusion_lon": 0.0, "fusion_lat": 0.0, "is_disabled": 0, "type": "electric_scooter", "bike_id": "a58304e252748d08f8135a03946e75cb", "rental_uris": {"android": "https://dc.lft.to/lastmile_qr_scan", "ios": "https://dc.lft.to/lastmile_qr_scan"}, "name": "a58304e252748d08f8135a03946e75cb"}, {"lat": 38.87502333333333, "is_reserved": 0, "lon": -77.00934566666666, "fusion_lon": 0.0, "fusion_lat": 0.0, "is_disabled": 0, "type": "electric_scooter", "bike_id": "a64a47298c9bd306e6957f45c88fb065", "rental_uris": {"android": "https://dc.lft.to/lastmile_qr_scan", "ios": "https://dc.lft.to/lastmile_qr_scan"}, "name": "a64a47298c9bd306e6957f45c88fb065"}, {"lat": 38.8846855, "is_reserved": 0, "lon": -77.0322115, "fusion_lon": 0.0, "fusion_lat": 0.0, "is_disabled": 0, "type": "electric_scooter", "bike_id": "fdccaec95157e522f40af268bfd563b4", "rental_uris": {"android": "https://dc.lft.to/lastmile_qr_scan", "ios": "https://dc.lft.to/lastmile_qr_scan"}, "name": "fdccaec95157e522f40af268bfd563b4"}, {"lat": 38.895103666666664, "is_reserved": 0, "lon": -77.02294783333333, "fusion_lon": 0.0, "fusion_lat": 0.0, "is_disabled": 0, "type": "electric_scooter", "bike_id": "2d512b6899fcc59706b99b8f2444e347", "rental_uris": {"android": "https://dc.lft.to/lastmile_qr_scan", "ios": "https://dc.lft.to/lastmile_qr_scan"}, "name": "2d512b6899fcc59706b99b8f2444e347"}, {"lat": 38.92823383333333, "is_reserved": 0, "lon": -77.02258266666666, "fusion_lon": 0.0, "fusion_lat": 0.0, "is_disabled": 0, "type": "electric_scooter", "bike_id": "ebc7a62a21e2645609c88ecd0873608b", "rental_uris": {"android": "https://dc.lft.to/lastmile_qr_scan", "ios": "https://dc.lft.to/lastmile_qr_scan"}, "name": "ebc7a62a21e2645609c88ecd0873608b"}, {"lat": 38.87717033333333, "is_reserved": 0, "lon": -77.017539, "fusion_lon": 0.0, "fusion_lat": 0.0, "is_disabled": 0, "type": "electric_scooter", "bike_id": "7a356470c539fb99abddde2d8bb5a870", "rental_uris": {"android": "https://dc.lft.to/lastmile_qr_scan", "ios": "https://dc.lft.to/lastmile_qr_scan"}, "name": "7a356470c539fb99abddde2d8bb5a870"}, {"lat": 38.924121666666665, "is_reserved": 0, "lon": -77.050534, "fusion_lon": 0.0, "fusion_lat": 0.0, "is_disabled": 0, "type": "electric_bike", "bike_id": "88435104977ee297ee541d4bf3e744c7", "rental_uris": {"android": "https://dc.lft.to/lastmile_qr_scan", "ios": "https://dc.lft.to/lastmile_qr_scan"}, "name": "88435104977ee297ee541d4bf3e744c7"}, {"lat": 38.928606333333335, "is_reserved": 0, "lon": -77.03287033333334, "fusion_lon": 0.0, "fusion_lat": 0.0, "is_disabled": 0, "type": "electric_scooter", "bike_id": "26383a92a843e492e791baa7c691f2b7", "rental_uris": {"android": "https://dc.lft.to/lastmile_qr_scan", "ios": "https://dc.lft.to/lastmile_qr_scan"}, "name": "26383a92a843e492e791baa7c691f2b7"}, {"lat": 38.92039616666667, "is_reserved": 0, "lon": -77.04204433333334, "fusion_lon": 0.0, "fusion_lat": 0.0, "is_disabled": 0, "type": "electric_scooter", "bike_id": "71c6b2484becae44baa7ab9ae6b4a7f9", "rental_uris": {"android": "https://dc.lft.to/lastmile_qr_scan", "ios": "https://dc.lft.to/lastmile_qr_scan"}, "name": "71c6b2484becae44baa7ab9ae6b4a7f9"}, {"lat": 38.905187166666664, "is_reserved": 0, "lon": -77.06157783333333, "fusion_lon": 0.0, "fusion_lat": 0.0, "is_disabled": 0, "type": "electric_scooter", "bike_id": "11121126a7e0a38d096c203be5d038d0", "rental_uris": {"android": "https://dc.lft.to/lastmile_qr_scan", "ios": "https://dc.lft.to/lastmile_qr_scan"}, "name": "11121126a7e0a38d096c203be5d038d0"}, {"lat": 38.92125566666667, "is_reserved": 0, "lon": -77.03183033333333, "fusion_lon": 0.0, "fusion_lat": 0.0, "is_disabled": 0, "type": "electric_scooter", "bike_id": "5e4dff38ea06bfcad05796c6eb8f48de", "rental_uris": {"android": "https://dc.lft.to/lastmile_qr_scan", "ios": "https://dc.lft.to/lastmile_qr_scan"}, "name": "5e4dff38ea06bfcad05796c6eb8f48de"}, {"lat": 38.90969183333333, "is_reserved": 0, "lon": -77.01105233333334, "fusion_lon": 0.0, "fusion_lat": 0.0, "is_disabled": 0, "type": "electric_scooter", "bike_id": "322a4db9298d53e2c8c419f5853bb475", "rental_uris": {"android": "https://dc.lft.to/lastmile_qr_scan", "ios": "https://dc.lft.to/lastmile_qr_scan"}, "name": "322a4db9298d53e2c8c419f5853bb475"}, {"lat": 38.89837133333333, "is_reserved": 0, "lon": -77.049862, "fusion_lon": 0.0, "fusion_lat": 0.0, "is_disabled": 0, "type": "electric_scooter", "bike_id": "a32700f0a792c49ed634d93e4b448998", "rental_uris": {"android": "https://dc.lft.to/lastmile_qr_scan", "ios": "https://dc.lft.to/lastmile_qr_scan"}, "name": "a32700f0a792c49ed634d93e4b448998"}, {"lat": 38.908432833333336, "is_reserved": 0, "lon": -77.01255666666667, "fusion_lon": 0.0, "fusion_lat": 0.0, "is_disabled": 0, "type": "electric_scooter", "bike_id": "b629eddf436595676ce26d6f6a9d3b8a", "rental_uris": {"android": "https://dc.lft.to/lastmile_qr_scan", "ios": "https://dc.lft.to/lastmile_qr_scan"}, "name": "b629eddf436595676ce26d6f6a9d3b8a"}, {"lat": 38.953705666666664, "is_reserved": 0, "lon": -76.97973033333334, "fusion_lon": 0.0, "fusion_lat": 0.0, "is_disabled": 0, "type": "electric_bike", "bike_id": "4e85d1ee2411761619f9719844646f54", "rental_uris": {"android": "https://dc.lft.to/lastmile_qr_scan", "ios": "https://dc.lft.to/lastmile_qr_scan"}, "name": "4e85d1ee2411761619f9719844646f54"}, {"lat": 38.88022983333333, "is_reserved": 0, "lon": -77.02233383333333, "fusion_lon": 0.0, "fusion_lat": 0.0, "is_disabled": 0, "type": "electric_scooter", "bike_id": "089ca3e5da3cc7c39f88461bebd96a61", "rental_uris": {"android": "https://dc.lft.to/lastmile_qr_scan", "ios": "https://dc.lft.to/lastmile_qr_scan"}, "name": "089ca3e5da3cc7c39f88461bebd96a61"}, {"lat": 38.90157133333334, "is_reserved": 0, "lon": -76.97630216666667, "fusion_lon": 0.0, "fusion_lat": 0.0, "is_disabled": 0, "type": "electric_scooter", "bike_id": "8236636f93b343f4e350e6c5c4e6c5f6", "rental_uris": {"android": "https://dc.lft.to/lastmile_qr_scan", "ios": "https://dc.lft.to/lastmile_qr_scan"}, "name": "8236636f93b343f4e350e6c5c4e6c5f6"}, {"lat": 38.896027, "is_reserved": 0, "lon": -76.98747366666667, "fusion_lon": 0.0, "fusion_lat": 0.0, "is_disabled": 0, "type": "electric_bike", "bike_id": "857023cda36da7381cebb1fae8cee993", "rental_uris": {"android": "https://dc.lft.to/lastmile_qr_scan", "ios": "https://dc.lft.to/lastmile_qr_scan"}, "name": "857023cda36da7381cebb1fae8cee993"}, {"lat": 38.908735166666666, "is_reserved": 0, "lon": -77.0410525, "fusion_lon": 0.0, "fusion_lat": 0.0, "is_disabled": 0, "type": "electric_scooter", "bike_id": "da7a3a9ccb1362b175c66023027b55e6", "rental_uris": {"android": "https://dc.lft.to/lastmile_qr_scan", "ios": "https://dc.lft.to/lastmile_qr_scan"}, "name": "da7a3a9ccb1362b175c66023027b55e6"}, {"lat": 38.9141335, "is_reserved": 0, "lon": -77.02404266666667, "fusion_lon": 0.0, "fusion_lat": 0.0, "is_disabled": 0, "type": "electric_scooter", "bike_id": "c638162ec6979968a4e665046dc6a59b", "rental_uris": {"android": "https://dc.lft.to/lastmile_qr_scan", "ios": "https://dc.lft.to/lastmile_qr_scan"}, "name": "c638162ec6979968a4e665046dc6a59b"}, {"lat": 38.90003466666667, "is_reserved": 0, "lon": -76.98094466666667, "fusion_lon": 0.0, "fusion_lat": 0.0, "is_disabled": 0, "type": "electric_scooter", "bike_id": "bd02efc91c223816ead51b77715cdd06", "rental_uris": {"android": "https://dc.lft.to/lastmile_qr_scan", "ios": "https://dc.lft.to/lastmile_qr_scan"}, "name": "bd02efc91c223816ead51b77715cdd06"}, {"lat": 38.89728433333333, "is_reserved": 0, "lon": -77.04870216666667, "fusion_lon": 0.0, "fusion_lat": 0.0, "is_disabled": 0, "type": "electric_scooter", "bike_id": "da2213455dd999e3a0bc61e611648b35", "rental_uris": {"android": "https://dc.lft.to/lastmile_qr_scan", "ios": "https://dc.lft.to/lastmile_qr_scan"}, "name": "da2213455dd999e3a0bc61e611648b35"}, {"lat": 38.9358395, "is_reserved": 0, "lon": -77.02447216666667, "fusion_lon": 0.0, "fusion_lat": 0.0, "is_disabled": 0, "type": "electric_scooter", "bike_id": "72d9285e21835a28d2c520e4fff5086d", "rental_uris": {"android": "https://dc.lft.to/lastmile_qr_scan", "ios": "https://dc.lft.to/lastmile_qr_scan"}, "name": "72d9285e21835a28d2c520e4fff5086d"}, {"lat": 38.90457133333334, "is_reserved": 0, "lon": -77.0463305, "fusion_lon": 0.0, "fusion_lat": 0.0, "is_disabled": 0, "type": "electric_scooter", "bike_id": "9c9788e1e65526143b139d1423d0eb9d", "rental_uris": {"android": "https://dc.lft.to/lastmile_qr_scan", "ios": "https://dc.lft.to/lastmile_qr_scan"}, "name": "9c9788e1e65526143b139d1423d0eb9d"}, {"lat": 38.8991615, "is_reserved": 0, "lon": -77.03306733333334, "fusion_lon": 0.0, "fusion_lat": 0.0, "is_disabled": 0, "type": "electric_scooter", "bike_id": "31a32e3c521b9fe6b4dc65a325a554c2", "rental_uris": {"android": "https://dc.lft.to/lastmile_qr_scan", "ios": "https://dc.lft.to/lastmile_qr_scan"}, "name": "31a32e3c521b9fe6b4dc65a325a554c2"}, {"lat": 38.897674333333335, "is_reserved": 0, "lon": -77.02970933333333, "fusion_lon": 0.0, "fusion_lat": 0.0, "is_disabled": 0, "type": "electric_scooter", "bike_id": "45fc75d3edede68a0b55c174f8e0f91a", "rental_uris": {"android": "https://dc.lft.to/lastmile_qr_scan", "ios": "https://dc.lft.to/lastmile_qr_scan"}, "name": "45fc75d3edede68a0b55c174f8e0f91a"}, {"lat": 38.91112866666667, "is_reserved": 0, "lon": -77.04081816666667, "fusion_lon": 0.0, "fusion_lat": 0.0, "is_disabled": 0, "type": "electric_scooter", "bike_id": "9c8801eb43186802803cd6c686d582e7", "rental_uris": {"android": "https://dc.lft.to/lastmile_qr_scan", "ios": "https://dc.lft.to/lastmile_qr_scan"}, "name": "9c8801eb43186802803cd6c686d582e7"}, {"lat": 38.80444416666667, "is_reserved": 0, "lon": -77.05393983333333, "fusion_lon": 0.0, "fusion_lat": 0.0, "is_disabled": 0, "type": "electric_bike", "bike_id": "d07feb65c609f352560fbbf41d3db378", "rental_uris": {"android": "https://dc.lft.to/lastmile_qr_scan", "ios": "https://dc.lft.to/lastmile_qr_scan"}, "name": "d07feb65c609f352560fbbf41d3db378"}, {"lat": 38.8941615, "is_reserved": 0, "lon": -77.000373, "fusion_lon": 0.0, "fusion_lat": 0.0, "is_disabled": 0, "type": "electric_scooter", "bike_id": "a86442e74e746281d8c3cc2cc64e56d1", "rental_uris": {"android": "https://dc.lft.to/lastmile_qr_scan", "ios": "https://dc.lft.to/lastmile_qr_scan"}, "name": "a86442e74e746281d8c3cc2cc64e56d1"}, {"lat": 38.9205825, "is_reserved": 0, "lon": -77.0422935, "fusion_lon": 0.0, "fusion_lat": 0.0, "is_disabled": 0, "type": "electric_scooter", "bike_id": "4fe1cb9471016e3a290ab690ada8158c", "rental_uris": {"android": "https://dc.lft.to/lastmile_qr_scan", "ios": "https://dc.lft.to/lastmile_qr_scan"}, "name": "4fe1cb9471016e3a290ab690ada8158c"}, {"lat": 38.94409266666667, "is_reserved": 0, "lon": -77.06385616666667, "fusion_lon": 0.0, "fusion_lat": 0.0, "is_disabled": 0, "type": "electric_scooter", "bike_id": "8d9f44d05faf085099b626a5f0d5bd01", "rental_uris": {"android": "https://dc.lft.to/lastmile_qr_scan", "ios": "https://dc.lft.to/lastmile_qr_scan"}, "name": "8d9f44d05faf085099b626a5f0d5bd01"}, {"lat": 38.908953, "is_reserved": 0, "lon": -77.02804966666666, "fusion_lon": 0.0, "fusion_lat": 0.0, "is_disabled": 0, "type": "electric_scooter", "bike_id": "bab0afdd69b68061d56437a7b33bc450", "rental_uris": {"android": "https://dc.lft.to/lastmile_qr_scan", "ios": "https://dc.lft.to/lastmile_qr_scan"}, "name": "bab0afdd69b68061d56437a7b33bc450"}, {"lat": 38.917920333333335, "is_reserved": 0, "lon": -77.034513, "fusion_lon": 0.0, "fusion_lat": 0.0, "is_disabled": 0, "type": "electric_scooter", "bike_id": "fe35bb5b85e0a6878d6c80867b55f9d5", "rental_uris": {"android": "https://dc.lft.to/lastmile_qr_scan", "ios": "https://dc.lft.to/lastmile_qr_scan"}, "name": "fe35bb5b85e0a6878d6c80867b55f9d5"}, {"lat": 38.8972135, "is_reserved": 0, "lon": -77.019699, "fusion_lon": 0.0, "fusion_lat": 0.0, "is_disabled": 0, "type": "electric_scooter", "bike_id": "c867ae417b672fa471b354f2d23d07b7", "rental_uris": {"android": "https://dc.lft.to/lastmile_qr_scan", "ios": "https://dc.lft.to/lastmile_qr_scan"}, "name": "c867ae417b672fa471b354f2d23d07b7"}, {"lat": 38.8989415, "is_reserved": 0, "lon": -77.03326316666667, "fusion_lon": 0.0, "fusion_lat": 0.0, "is_disabled": 0, "type": "electric_scooter", "bike_id": "f49c436457ef4669a34e4204af0ece14", "rental_uris": {"android": "https://dc.lft.to/lastmile_qr_scan", "ios": "https://dc.lft.to/lastmile_qr_scan"}, "name": "f49c436457ef4669a34e4204af0ece14"}, {"lat": 38.931719333333334, "is_reserved": 0, "lon": -77.05628616666667, "fusion_lon": 0.0, "fusion_lat": 0.0, "is_disabled": 0, "type": "electric_scooter", "bike_id": "d34084d5e79479d092c860875a8e1e05", "rental_uris": {"android": "https://dc.lft.to/lastmile_qr_scan", "ios": "https://dc.lft.to/lastmile_qr_scan"}, "name": "d34084d5e79479d092c860875a8e1e05"},