{"data": {"bikes": [{"is_disabled": 0, "lat": 38.92297516666667, "bike_id": "d25e3a29da436c0b5bb690c8f16b6617", "fusion_lon": 0.0, "is_reserved": 0, "type": "electric_scooter", "name": "d25e3a29da436c0b5bb690c8f16b6617", "lon": -77.04269733333334, "rental_uris": {"android": "https://dc.lft.to/lastmile_qr_scan", "ios": "https://dc.lft.to/lastmile_qr_scan"}, "fusion_lat": 0.0}, {"is_disabled": 0, "lat": 38.923354833333335, "bike_id": "471f67d2cf0ebc8bf7d624936f395ba6", "fusion_lon": 0.0, "is_reserved": 0, "type": "electric_scooter", "name": "471f67d2cf0ebc8bf7d624936f395ba6", "lon": -77.04301366666667, "rental_uris": {"android": "https://dc.lft.to/lastmile_qr_scan", "ios": "https://dc.lft.to/lastmile_qr_scan"}, "fusion_lat": 0.0}, {"is_disabled": 0, "lat": 38.8964825, "bike_id": "88672e4dbb0a90680b4712f1a9fc1e1b", "fusion_lon": 0.0, "is_reserved": 0, "type": "electric_scooter", "name": "88672e4dbb0a90680b4712f1a9fc1e1b", "lon": -77.00922483333333, "rental_uris": {"android": "https://dc.lft.to/lastmile_qr_scan", "ios": "https://dc.lft.to/lastmile_qr_scan"}, "fusion_lat": 0.0}, {"is_disabled": 0, "lat": 38.905381, "bike_id": "d693132a475d57a2e878ff7b04239b58", "fusion_lon": 0.0, "is_reserved": 0, "type": "electric_scooter", "name": "d693132a475d57a2e878ff7b04239b58", "lon": -77.005631, "rental_uris": {"android": "https://dc.lft.to/lastmile_qr_scan", "ios": "https://dc.lft.to/lastmile_qr_scan"}, "fusion_lat": 0.0}, {"is_disabled": 0, "lat": 38.90656233333333, "bike_id": "f795c48c18f54c319f5ceecd690e8979", "fusion_lon": 0.0, "is_reserved": 0, "type": "electric_scooter", "name": "f795c48c18f54c319f5ceecd690e8979", "lon": -77.042458, "rental_uris": {"android": "https://dc.lft.to/lastmile_qr_scan", "ios": "https://dc.lft.to/lastmile_qr_scan"}, "fusion_lat": 0.0}, {"is_disabled": 0, "lat": 38.88678633333333, "bike_id": "14cb87d274f3e48cb1b02f127e2cf1f7", "fusion_lon": 0.0, "is_reserved": 0, "type": "electric_bike", "name": "14cb87d274f3e48cb1b02f127e2cf1f7", "lon": -76.99848, "rental_uris": {"android": "https://dc.lft.to/lastmile_qr_scan", "ios": "https://dc.lft.to/lastmile_qr_scan"}, "fusion_lat": 0.0}, {"is_disabled": 0, "lat": 38.92323416666667, "bike_id": "b80d9b7e9e240e529fad14e2b87cb747", "fusion_lon": 0.0, "is_reserved": 0, "type": "electric_scooter", "name": "b80d9b7e9e240e529fad14e2b87cb747", "lon": -77.05614833333334, "rental_uris": {"android": "https://dc.lft.to/lastmile_qr_scan", "ios": "https://dc.lft.to/lastmile_qr_scan"}, "fusion_lat": 0.0}, {"is_disabled": 0, "lat": 38.932050333333336, "bike_id": "629cdd1771987f0dfa7b495fd1444fe2", "fusion_lon": 0.0, "is_reserved": 0, "type": "electric_scooter", "name": "629cdd1771987f0dfa7b495fd1444fe2", "lon": -77.02833666666666, "rental_uris": {"android": "https://dc.lft.to/lastmile_qr_scan", "ios": "https://dc.lft.to/lastmile_qr_scan"}, "fusion_lat": 0.0}, {"is_disabled": 0, "lat": 38.90776566666667, "bike_id": "2599dd520654afdcd9f349828cd76d00", "fusion_lon": 0.0, "is_reserved": 0, "type": "electric_scooter", "name": "2599dd520654afdcd9f349828cd76d00", "lon": -76.99854466666666, "rental_uris": {"android": "https://dc.lft.to/lastmile_qr_scan", "ios": "https://dc.lft.to/lastmile_qr_scan"}, "fusion_lat": 0.0}, {"is_disabled": 0, "lat": 38.90326233333333, "bike_id": "a935a77221bb49896cf59fffe35492de", "fusion_lon": 0.0, "is_reserved": 0, "type": "electric_scooter", "name": "a935a77221bb49896cf59fffe35492de", "lon": -77.028932, "rental_uris": {"android": "https://dc.lft.to/lastmile_qr_scan", "ios": "https://dc.lft.to/lastmile_qr_scan"}, "fusion_lat": 0.0}, {"is_disabled": 0, "lat": 38.92683483333333, "bike_id": "5ac61a83d1b4b3bfbe6a8162f8d62836", "fusion_lon": 0.0, "is_reserved": 0, "type": "electric_scooter", "name": "5ac61a83d1b4b3bfbe6a8162f8d62836", "lon": -77.014796, "rental_uris": {"android": "https://dc.lft.to/lastmile_qr_scan", "ios": "https://dc.lft.to/lastmile_qr_scan"}, "fusion_lat": 0.0}, {"is_disabled": 0, "lat": 38.94130083333334, "bike_id": "428dc15867108f451e4490e840c4daba", "fusion_lon": 0.0, "is_reserved": 0, "type": "electric_scooter", "name": "428dc15867108f451e4490e840c4daba", "lon": -77.0190365, "rental_uris": {"android": "https://dc.lft.to/lastmile_qr_scan", "ios": "https://dc.lft.to/lastmile_qr_scan"}, "fusion_lat": 0.0}, {"is_disabled": 0, "lat": 38.91802333333333, "bike_id": "b165e087c720f345406203a0f89d7c56", "fusion_lon": 0.0, "is_reserved": 0, "type": "electric_scooter", "name": "b165e087c720f345406203a0f89d7c56", "lon": -77.03191566666666, "rental_uris": {"android": "https://dc.lft.to/lastmile_qr_scan", "ios": "https://dc.lft.to/lastmile_qr_scan"}, "fusion_lat": 0.0}, {"is_disabled": 0, "lat": 38.91340983333333, "bike_id": "4f78dbdad45c23b9080062c14d9b9a09", "fusion_lon": 0.0, "is_reserved": 0, "type": "electric_scooter", "name": "4f78dbdad45c23b9080062c14d9b9a09", "lon": -77.0466315, "rental_uris": {"android": "https://dc.lft.to/lastmile_qr_scan", "ios": "https://dc.lft.to/lastmile_qr_scan"}, "fusion_lat": 0.0}, {"is_disabled": 0, "lat": 38.9289725, "bike_id": "1c5a0f50979bfcb9b8481145f630dfd8", "fusion_lon": 0.0, "is_reserved": 0, "type": "electric_scooter", "name": "1c5a0f50979bfcb9b8481145f630dfd8", "lon": -77.03257383333333, "rental_uris": {"android": "https://dc.lft.to/lastmile_qr_scan", "ios": "https://dc.lft.to/lastmile_qr_scan"}, "fusion_lat": 0.0}, {"is_disabled": 0, "lat": 38.917064, "bike_id": "99bd0a67a9244388a9cc365e053bbbe8", "fusion_lon": 0.0, "is_reserved": 0, "type": "electric_scooter", "name": "99bd0a67a9244388a9cc365e053bbbe8", "lon": -77.0107365, "rental_uris": {"android": "https://dc.lft.to/lastmile_qr_scan", "ios": "https://dc.lft.to/lastmile_qr_scan"}, "fusion_lat": 0.0}, {"is_disabled": 0, "lat": 38.893309, "bike_id": "967af43639961e990f05ea0b4028d985", "fusion_lon": 0.0, "is_reserved": 0, "type": "electric_scooter", "name": "967af43639961e990f05ea0b4028d985", "lon": -76.92995, "rental_uris": {"android": "https://dc.lft.to/lastmile_qr_scan", "ios": "https://dc.lft.to/lastmile_qr_scan"}, "fusion_lat": 0.0}, {"is_disabled": 0, "lat": 38.866561, "bike_id": "44428f558adfbb5efc902447c0aa76a2", "fusion_lon": 0.0, "is_reserved": 0, "type": "electric_scooter", "name": "44428f558adfbb5efc902447c0aa76a2", "lon": -76.98885233333333, "rental_uris": {"android": "https://dc.lft.to/lastmile_qr_scan", "ios": "https://dc.lft.to/lastmile_qr_scan"}, "fusion_lat": 0.0}, {"is_disabled": 0, "lat": 38.896427, "bike_id": "0d4f2dc3b4a85551b058864dded17a05", "fusion_lon": 0.0, "is_reserved": 0, "type": "electric_scooter", "name": "0d4f2dc3b4a85551b058864dded17a05", "lon": -76.99945566666666, "rental_uris": {"android": "https://dc.lft.to/lastmile_qr_scan", "ios": "https://dc.lft.to/lastmile_qr_scan"}, "fusion_lat": 0.0}, {"is_disabled": 0, "lat": 38.916497, "bike_id": "50ed55dc8e462c3506bcb94301da9017", "fusion_lon": 0.0, "is_reserved": 0, "type": "electric_scooter", "name": "50ed55dc8e462c3506bcb94301da9017", "lon": -76.98246883333333, "rental_uris": {"android": "https://dc.lft.to/lastmile_qr_scan", "ios": "https://dc.lft.to/lastmile_qr_scan"}, "fusion_lat": 0.0}, {"is_disabled": 0, "lat": 38.90233666666666, "bike_id": "32b3014aa6c6f1e1bd06914c0c9e5f79", "fusion_lon": 0.0, "is_reserved": 0, "type": "electric_scooter", "name": "32b3014aa6c6f1e1bd06914c0c9e5f79", "lon": -77.0213465, "rental_uris": {"android": "https://dc.lft.to/lastmile_qr_scan", "ios": "https://dc.lft.to/lastmile_qr_scan"}, "fusion_lat": 0.0}, {"is_disabled": 0, "lat": 38.9257065, "bike_id": "da55c0e5120719e414b08f28331531e3", "fusion_lon": 0.0, "is_reserved": 0, "type": "electric_scooter", "name": "da55c0e5120719e414b08f28331531e3", "lon": -77.03776466666666, "rental_uris": {"android": "https://dc.lft.to/lastmile_qr_scan", "ios": "https://dc.lft.to/lastmile_qr_scan"}, "fusion_lat": 0.0}, {"is_disabled": 0, "lat": 38.9237245, "bike_id": "7eb57b7736685d9c88eea7deb915a70d", "fusion_lon": 0.0, "is_reserved": 0, "type": "electric_scooter", "name": "7eb57b7736685d9c88eea7deb915a70d", "lon": -77.05034866666666, "rental_uris": {"android": "https://dc.lft.to/lastmile_qr_scan", "ios": "https://dc.lft.to/lastmile_qr_scan"}, "fusion_lat": 0.0}, {"is_disabled": 0, "lat": 38.924734666666666, "bike_id": "ff83cad681a725966cf688c014f155a5", "fusion_lon": 0.0, "is_reserved": 0, "type": "electric_scooter", "name": "ff83cad681a725966cf688c014f155a5", "lon": -77.03917966666667, "rental_uris": {"android": "https://dc.lft.to/lastmile_qr_scan", "ios": "https://dc.lft.to/lastmile_qr_scan"}, "fusion_lat": 0.0}, {"is_disabled": 0, "lat": 38.92652133333333, "bike_id": "f18fc552ea49668ac77bde205efe008a", "fusion_lon": 0.0, "is_reserved": 0, "type": "electric_scooter", "name": "f18fc552ea49668ac77bde205efe008a", "lon": -77.043194, "rental_uris": {"android": "https://dc.lft.to/lastmile_qr_scan", "ios": "https://dc.lft.to/lastmile_qr_scan"}, "fusion_lat": 0.0}, {"is_disabled": 0, "lat": 38.896737333333334, "bike_id": "ae97a890e5aecdb903ea5601a3467440", "fusion_lon": 0.0, "is_reserved": 0, "type": "electric_scooter", "name": "ae97a890e5aecdb903ea5601a3467440", "lon": -77.05077283333334, "rental_uris": {"android": "https://dc.lft.to/lastmile_qr_scan", "ios": "https://dc.lft.to/lastmile_qr_scan"}, "fusion_lat": 0.0}, {"is_disabled": 0, "lat": 38.8849245, "bike_id": "1fc1801bdb013d07473ae3f6f72903d7", "fusion_lon": 0.0, "is_reserved": 0, "type": "electric_scooter", "name": "1fc1801bdb013d07473ae3f6f72903d7", "lon": -77.0072825, "rental_uris": {"android": "https://dc.lft.to/lastmile_qr_scan", "ios": "https://dc.lft.to/lastmile_qr_scan"}, "fusion_lat": 0.0}, {"is_disabled": 0, "lat": 38.894498166666665, "bike_id": "cd62551d69c2c6a29b2aca2db7d4a095", "fusion_lon": 0.0, "is_reserved": 0, "type": "electric_scooter", "name": "cd62551d69c2c6a29b2aca2db7d4a095", "lon": -77.02422566666667, "rental_uris": {"android": "https://dc.lft.to/lastmile_qr_scan", "ios": "https://dc.lft.to/lastmile_qr_scan"}, "fusion_lat": 0.0}, {"is_disabled": 0, "lat": 38.920515, "bike_id": "cc98d99b4931cfcc1ef4d264dd4d720f", "fusion_lon": 0.0, "is_reserved": 0, "type": "electric_scooter", "name": "cc98d99b4931cfcc1ef4d264dd4d720f", "lon": -77.02438416666666, "rental_uris": {"android": "https://dc.lft.to/lastmile_qr_scan", "ios": "https://dc.lft.to/lastmile_qr_scan"}, "fusion_lat": 0.0}, {"is_disabled": 0, "lat": 38.895492833333336, "bike_id": "c3540215df1df89b47ab670e4a7c809d", "fusion_lon": 0.0, "is_reserved": 0, "type": "electric_scooter", "name": "c3540215df1df89b47ab670e4a7c809d", "lon": -76.94878033333333, "rental_uris": {"android": "https://dc.lft.to/lastmile_qr_scan", "ios": "https://dc.lft.to/lastmile_qr_scan"}, "fusion_lat": 0.0}, {"is_disabled": 0, "lat": 38.90828033333333, "bike_id": "4d5d5946bd36c3e9526eeb3f3aefef9a", "fusion_lon": 0.0, "is_reserved": 0, "type": "electric_scooter", "name": "4d5d5946bd36c3e9526eeb3f3aefef9a", "lon": -76.94158916666666, "rental_uris": {"android": "https://dc.lft.to/lastmile_qr_scan", "ios": "https://dc.lft.to/lastmile_qr_scan"}, "fusion_lat": 0.0}, {"is_disabled": 0, "lat": 38.906713, "bike_id": "d902a911c60128ce92f96883c9049379", "fusion_lon": 0.0, "is_reserved": 0, "type": "electric_scooter", "name": "d902a911c60128ce92f96883c9049379", "lon": -77.05020833333333, "rental_uris": {"android": "https://dc.lft.to/lastmile_qr_scan", "ios": "https://dc.lft.to/lastmile_qr_scan"}, "fusion_lat": 0.0}, {"is_disabled": 0, "lat": 38.9540665, "bike_id": "c74e5c21d7e2656a6613cc6630ba91b2", "fusion_lon": 0.0, "is_reserved": 0, "type": "electric_scooter", "name": "c74e5c21d7e2656a6613cc6630ba91b2", "lon": -77.02700966666667, "rental_uris": {"android": "https://dc.lft.to/lastmile_qr_scan", "ios": "https://dc.lft.to/lastmile_qr_scan"}, "fusion_lat": 0.0}, {"is_disabled": 0, "lat": 38.90410633333333, "bike_id": "526cf869ca74ac11269edca41d8ccf05", "fusion_lon": 0.0, "is_reserved": 0, "type": "electric_scooter", "name": "526cf869ca74ac11269edca41d8ccf05", "lon": -76.98100733333334, "rental_uris": {"android": "https://dc.lft.to/lastmile_qr_scan", "ios": "https://dc.lft.to/lastmile_qr_scan"}, "fusion_lat": 0.0}, {"is_disabled": 0, "lat": 38.91676066666667, "bike_id": "6fc1f6e55c1d12d5dd163fbeb6b93cf5", "fusion_lon": 0.0, "is_reserved": 0, "type": "electric_scooter", "name": "6fc1f6e55c1d12d5dd163fbeb6b93cf5", "lon": -77.0369055, "rental_uris": {"android": "https://dc.lft.to/lastmile_qr_scan", "ios": "https://dc.lft.to/lastmile_qr_scan"}, "fusion_lat": 0.0}, {"is_disabled": 0, "lat": 38.89829866666667, "bike_id": "7682d9d97c0e3f6fe6db84ed015915fa", "fusion_lon": 0.0, "is_reserved": 0, "type": "electric_scooter", "name": "7682d9d97c0e3f6fe6db84ed015915fa", "lon": -77.0270215, "rental_uris": {"android": "https://dc.lft.to/lastmile_qr_scan", "ios": "https://dc.lft.to/lastmile_qr_scan"}, "fusion_lat": 0.0}, {"is_disabled": 0, "lat": 38.89767233333333, "bike_id": "0527a06ec30e66872e21b0d397244e13", "fusion_lon": 0.0, "is_reserved": 0, "type": "electric_scooter", "name": "0527a06ec30e66872e21b0d397244e13", "lon": -76.99268866666667, "rental_uris": {"android": "https://dc.lft.to/lastmile_qr_scan", "ios": "https://dc.lft.to/lastmile_qr_scan"}, "fusion_lat": 0.0}, {"is_disabled": 0, "lat": 38.87756816666667, "bike_id": "aab08aa34794d0a45f6e9458b38a1762", "fusion_lon": 0.0, "is_reserved": 0, "type": "electric_scooter", "name": "aab08aa34794d0a45f6e9458b38a1762", "lon": -77.004303, "rental_uris": {"android": "https://dc.lft.to/lastmile_qr_scan", "ios": "https://dc.lft.to/lastmile_qr_scan"}, "fusion_lat": 0.0}, {"is_disabled": 0, "lat": 38.89889183333333, "bike_id": "a0ca00b7b826b1369eb76587a4a500e5", "fusion_lon": 0.0, "is_reserved": 0, "type": "electric_scooter", "name": "a0ca00b7b826b1369eb76587a4a500e5", "lon": -76.9769505, "rental_uris": {"android": "https://dc.lft.to/lastmile_qr_scan", "ios": "https://dc.lft.to/lastmile_qr_scan"}, "fusion_lat": 0.0}, {"is_disabled": 0, "lat": 38.91131816666667, "bike_id": "7ef10ba86012d2e2047e360a31f4634e", "fusion_lon": 0.0, "is_reserved": 0, "type": "electric_scooter", "name": "7ef10ba86012d2e2047e360a31f4634e", "lon": -77.02692233333333, "rental_uris": {"android": "https://dc.lft.to/lastmile_qr_scan", "ios": "https://dc.lft.to/lastmile_qr_scan"}, "fusion_lat": 0.0}, {"is_disabled": 0, "lat": 38.917122166666665, "bike_id": "e6bfb9047b5bb5a91224293460514143", "fusion_lon": 0.0, "is_reserved": 0, "type": "electric_scooter", "name": "e6bfb9047b5bb5a91224293460514143", "lon": -77.033233, "rental_uris": {"android": "https://dc.lft.to/lastmile_qr_scan", "ios": "https://dc.lft.to/lastmile_qr_scan"}, "fusion_lat": 0.0}, {"is_disabled": 0, "lat": 38.897394, "bike_id": "1fb7f21bdb311574a220116ef0274d3d", "fusion_lon": 0.0, "is_reserved": 0, "type": "electric_scooter", "name": "1fb7f21bdb311574a220116ef0274d3d", "lon": -77.00784633333333, "rental_uris": {"android": "https://dc.lft.to/lastmile_qr_scan", "ios": "https://dc.lft.to/lastmile_qr_scan"}, "fusion_lat": 0.0}, {"is_disabled": 0, "lat": 38.86570966666667, "bike_id": "e34e767ff6ebe84ec794cecc78e4f393", "fusion_lon": 0.0, "is_reserved": 0, "type": "electric_bike", "name": "e34e767ff6ebe84ec794cecc78e4f393", "lon": -76.99042183333333, "rental_uris": {"android": "https://dc.lft.to/lastmile_qr_scan", "ios": "https://dc.lft.to/lastmile_qr_scan"}, "fusion_lat": 0.0}, {"is_disabled": 0, "lat": 38.931526, "bike_id": "b9152fbfd549b1b2e14593a79b00b595", "fusion_lon": 0.0, "is_reserved": 0, "type": "electric_scooter", "name": "b9152fbfd549b1b2e14593a79b00b595", "lon": -77.039546, "rental_uris": {"android": "https://dc.lft.to/lastmile_qr_scan", "ios": "https://dc.lft.to/lastmile_qr_scan"}, "fusion_lat": 0.0}, {"is_disabled": 0, "lat": 38.90541, "bike_id": "963ffa274acd60ba6505e6e9f5eddfe3", "fusion_lon": 0.0, "is_reserved": 0, "type": "electric_scooter", "name": "963ffa274acd60ba6505e6e9f5eddfe3", "lon": -77.022143, "rental_uris": {"android": "https://dc.lft.to/lastmile_qr_scan", "ios": "https://dc.lft.to/lastmile_qr_scan"}, "fusion_lat": 0.0}, {"is_disabled": 0, "lat": 38.9033725, "bike_id": "37dc4cf4b14fe2b336097012e1497aa9", "fusion_lon": 0.0, "is_reserved": 0, "type": "electric_scooter", "name": "37dc4cf4b14fe2b336097012e1497aa9", "lon": -77.0402475, "rental_uris": {"android": "https://dc.lft.to/lastmile_qr_scan", "ios": "https://dc.lft.to/lastmile_qr_scan"}, "fusion_lat": 0.0}, {"is_disabled": 0, "lat": 38.928703166666665, "bike_id": "8e0ad7b3bc56af0eea8384dcdc7113b0", "fusion_lon": 0.0, "is_reserved": 0, "type": "electric_scooter", "name": "8e0ad7b3bc56af0eea8384dcdc7113b0", "lon": -77.0331095, "rental_uris": {"android": "https://dc.lft.to/lastmile_qr_scan", "ios": "https://dc.lft.to/lastmile_qr_scan"}, "fusion_lat": 0.0}, {"is_disabled": 0, "lat": 38.921840333333336, "bike_id": "860d3f9def347d95246a28e04d8cf030", "fusion_lon": 0.0, "is_reserved": 0, "type": "electric_scooter", "name": "860d3f9def347d95246a28e04d8cf030", "lon": -77.0460975, "rental_uris": {"android": "https://dc.lft.to/lastmile_qr_scan", "ios": "https://dc.lft.to/lastmile_qr_scan"}, "fusion_lat": 0.0}, {"is_disabled": 0, "lat": 38.8790925, "bike_id": "f39fc18bcb6d9b2df0065afcd5a4c732", "fusion_lon": 0.0, "is_reserved": 0, "type": "electric_scooter", "name": "f39fc18bcb6d9b2df0065afcd5a4c732", "lon": -76.9415415, "rental_uris": {"android": "https://dc.lft.to/lastmile_qr_scan", "ios": "https://dc.lft.to/lastmile_qr_scan"}, "fusion_lat": 0.0}, {"is_disabled": 0, "lat": 38.923142166666665, "bike_id": "427c5d05fdb23a2955ef040df3dbc14d", "fusion_lon": 0.0, "is_reserved": 0, "type": "electric_scooter", "name": "427c5d05fdb23a2955ef040df3dbc14d", "lon": -77.042056, "rental_uris": {"android": "https://dc.lft.to/lastmile_qr_scan", "ios": "https://dc.lft.to/lastmile_qr_scan"}, "fusion_lat": 0.0}, {"is_disabled": 0, "lat": 38.90958166666667, "bike_id": "e313749dd1e73e6dfb90c4566f36cd2f", "fusion_lon": 0.0, "is_reserved": 0, "type": "electric_scooter", "name": "e313749dd1e73e6dfb90c4566f36cd2f", "lon": -77.00535933333333, "rental_uris": {"android": "https://dc.lft.to/lastmile_qr_scan", "ios": "https://dc.lft.to/lastmile_qr_scan"}, "fusion_lat": 0.0}, {"is_disabled": 0, "lat": 38.921416666666666, "bike_id": "89c200e12e25489adebcc03d3844b919", "fusion_lon": 0.0, "is_reserved": 0, "type": "electric_scooter", "name": "89c200e12e25489adebcc03d3844b919", "lon": -77.0446885, "rental_uris": {"android": "https://dc.lft.to/lastmile_qr_scan", "ios": "https://dc.lft.to/lastmile_qr_scan"}, "fusion_lat": 0.0}, {"is_disabled": 0, "lat": 38.912834833333335, "bike_id": "9b981c743cf236f8eac3c179f303752e", "fusion_lon": 0.0, "is_reserved": 0, "type": "electric_scooter", "name": "9b981c743cf236f8eac3c179f303752e", "lon": -77.01755166666666, "rental_uris": {"android": "https://dc.lft.to/lastmile_qr_scan", "ios": "https://dc.lft.to/lastmile_qr_scan"}, "fusion_lat": 0.0}, {"is_disabled": 0, "lat": 38.90769216666666, "bike_id": "09f2412f7ecaaac0dc6c9a3186fef22d", "fusion_lon": 0.0, "is_reserved": 0, "type": "electric_scooter", "name": "09f2412f7ecaaac0dc6c9a3186fef22d", "lon": -76.99930483333333, "rental_uris": {"android": "https://dc.lft.to/lastmile_qr_scan", "ios": "https://dc.lft.to/lastmile_qr_scan"}, "fusion_lat": 0.0}, {"is_disabled": 0, "lat": 38.915561833333335, "bike_id": "e145daa08f5dd98c4b1f7e861b71a4ec", "fusion_lon": 0.0, "is_reserved": 0, "type": "electric_scooter", "name": "e145daa08f5dd98c4b1f7e861b71a4ec", "lon": -77.05315366666666, "rental_uris": {"android": "https://dc.lft.to/lastmile_qr_scan", "ios": "https://dc.lft.to/lastmile_qr_scan"}, "fusion_lat": 0.0}, {"is_disabled": 0, "lat": 38.892286, "bike_id": "6c829f30eb9adaee6fd9c7cc0d3e9c9f", "fusion_lon": 0.0, "is_reserved": 0, "type": "electric_scooter", "name": "6c829f30eb9adaee6fd9c7cc0d3e9c9f", "lon": -77.04328083333333, "rental_uris": {"android": "https://dc.lft.to/lastmile_qr_scan", "ios": "https://dc.lft.to/lastmile_qr_scan"}, "fusion_lat": 0.0}, {"is_disabled": 0, "lat": 38.89497433333333, "bike_id": "afd9b0f7c4031d1b1b1c30376f39bf24", "fusion_lon": 0.0, "is_reserved": 0, "type": "electric_scooter", "name": "afd9b0f7c4031d1b1b1c30376f39bf24", "lon": -77.01133766666666, "rental_uris": {"android": "https://dc.lft.to/lastmile_qr_scan", "ios": "https://dc.lft.to/lastmile_qr_scan"}, "fusion_lat": 0.0}, {"is_disabled": 0, "lat": 38.91695566666667, "bike_id": "7f794c1f71d1be4a51f18770c484e240", "fusion_lon": 0.0, "is_reserved": 0, "type": "electric_scooter", "name": "7f794c1f71d1be4a51f18770c484e240", "lon": -77.0271375, "rental_uris": {"android": "https://dc.lft.to/lastmile_qr_scan", "ios": "https://dc.lft.to/lastmile_qr_scan"}, "fusion_lat": 0.0}, {"is_disabled": 0, "lat": 38.88430533333333, "bike_id": "75cd3a01a06ef48a5cbe0c4e8473117c", "fusion_lon": 0.0, "is_reserved": 0, "type": "electric_scooter", "name": "75cd3a01a06ef48a5cbe0c4e8473117c", "lon": -76.95755833333334, "rental_uris": {"android": "https://dc.lft.to/lastmile_qr_scan", "ios": "https://dc.lft.to/lastmile_qr_scan"}, "fusion_lat": 0.0}, {"is_disabled": 0, "lat": 38.918181833333335, "bike_id": "b52410a75142fec5b7fe3568204c4605", "fusion_lon": 0.0, "is_reserved": 0, "type": "electric_scooter", "name": "b52410a75142fec5b7fe3568204c4605", "lon": -77.03999216666666, "rental_uris": {"android": "https://dc.lft.to/lastmile_qr_scan", "ios": "https://dc.lft.to/lastmile_qr_scan"}, "fusion_lat": 0.0}, {"is_disabled": 0, "lat": 38.916722166666666, "bike_id": "d3469145844d9b78a85a46d5744e687e", "fusion_lon": 0.0, "is_reserved": 0, "type": "electric_scooter", "name": "d3469145844d9b78a85a46d5744e687e", "lon": -77.02959766666666, "rental_uris": {"android": "https://dc.lft.to/lastmile_qr_scan", "ios": "https://dc.lft.to/lastmile_qr_scan"}, "fusion_lat": 0.0}, {"is_disabled": 0, "lat": 38.864567666666666, "bike_id": "8f83cc018ff8c73a355f8b3197605b14", "fusion_lon": 0.0, "is_reserved": 0, "type": "electric_scooter", "name": "8f83cc018ff8c73a355f8b3197605b14", "lon": -76.97645783333333, "rental_uris": {"android": "https://dc.lft.to/lastmile_qr_scan", "ios": "https://dc.lft.to/lastmile_qr_scan"}, "fusion_lat": 0.0}, {"is_disabled": 0, "lat": 38.89609033333333, "bike_id": "da2dbe2ef2d0511fba771b8c7b1bb380", "fusion_lon": 0.0, "is_reserved": 0, "type": "electric_scooter", "name": "da2dbe2ef2d0511fba771b8c7b1bb380", "lon": -77.00927783333333, "rental_uris": {"android": "https://dc.lft.to/lastmile_qr_scan", "ios": "https://dc.lft.to/lastmile_qr_scan"}, "fusion_lat": 0.0}, {"is_disabled": 0, "lat": 38.924170333333336, "bike_id": "03a9f9e5bf85330b7d668b7a3752dd67", "fusion_lon": 0.0, "is_reserved": 0, "type": "electric_scooter", "name": "03a9f9e5bf85330b7d668b7a3752dd67", "lon": -77.02008183333334, "rental_uris": {"android": "https://dc.lft.to/lastmile_qr_scan", "ios": "https://dc.lft.to/lastmile_qr_scan"}, "fusion_lat": 0.0}, {"is_disabled": 0, "lat": 38.8408925, "bike_id": "c419ba15e82b250d4381b6c5e184ba85", "fusion_lon": 0.0, "is_reserved": 0, "type": "electric_bike", "name": "c419ba15e82b250d4381b6c5e184ba85", "lon": -77.07697266666666, "rental_uris": {"android": "https://dc.lft.to/lastmile_qr_scan", "ios": "https://dc.lft.to/lastmile_qr_scan"}, "fusion_lat": 0.0}, {"is_disabled": 0, "lat": 38.918063, "bike_id": "611af703a0712a0e068c60494659e05f", "fusion_lon": 0.0, "is_reserved": 0, "type": "electric_scooter", "name": "611af703a0712a0e068c60494659e05f", "lon": -77.0317695, "rental_uris": {"android": "https://dc.lft.to/lastmile_qr_scan", "ios": "https://dc.lft.to/lastmile_qr_scan"}, "fusion_lat": 0.0}, {"is_disabled": 0, "lat": 38.92045183333333, "bike_id": "1ef1e49a42851a8a95fa84a524e5b525", "fusion_lon": 0.0, "is_reserved": 0, "type": "electric_scooter", "name": "1ef1e49a42851a8a95fa84a524e5b525", "lon": -77.03004066666666, "rental_uris": {"android": "https://dc.lft.to/lastmile_qr_scan", "ios": "https://dc.lft.to/lastmile_qr_scan"}, "fusion_lat": 0.0}, {"is_disabled": 0, "lat": 38.87839916666667, "bike_id": "9d3b61e6c5c1d7ee80f266f0a73f4437", "fusion_lon": 0.0, "is_reserved": 0, "type": "electric_scooter", "name": "9d3b61e6c5c1d7ee80f266f0a73f4437", "lon": -76.99501983333333, "rental_uris": {"android": "https://dc.lft.to/lastmile_qr_scan", "ios": "https://dc.lft.to/lastmile_qr_scan"}, "fusion_lat": 0.0}, {"is_disabled": 0, "lat": 38.89591683333333, "bike_id": "b097bca1b7e1df23e6e7701734e46c73", "fusion_lon": 0.0, "is_reserved": 0, "type": "electric_scooter", "name": "b097bca1b7e1df23e6e7701734e46c73", "lon": -77.0290675, "rental_uris": {"android": "https://dc.lft.to/lastmile_qr_scan", "ios": "https://dc.lft.to/lastmile_qr_scan"}, "fusion_lat": 0.0}, {"is_disabled": 0, "lat": 38.92228716666666, "bike_id": "949d23dd63d49085ec65d4e0ef082776", "fusion_lon": 0.0, "is_reserved": 0, "type": "electric_bike", "name": "949d23dd63d49085ec65d4e0ef082776", "lon": -77.0433865, "rental_uris": {"android": "https://dc.lft.to/lastmile_qr_scan", "ios": "https://dc.lft.to/lastmile_qr_scan"}, "fusion_lat": 0.0}, {"is_disabled": 0, "lat": 38.937097333333334, "bike_id": "b36236d7604500b21b5757b15d56b636", "fusion_lon": 0.0, "is_reserved": 0, "type": "electric_scooter", "name": "b36236d7604500b21b5757b15d56b636", "lon": -77.02440733333333, "rental_uris": {"android": "https://dc.lft.to/lastmile_qr_scan", "ios": "https://dc.lft.to/lastmile_qr_scan"}, "fusion_lat": 0.0}, {"is_disabled": 0, "lat": 38.906857333333335, "bike_id": "f2ff457e40e7155327c1df17ef756844", "fusion_lon": 0.0, "is_reserved": 0, "type": "electric_scooter", "name": "f2ff457e40e7155327c1df17ef756844", "lon": -77.06101766666667, "rental_uris": {"android": "https://dc.lft.to/lastmile_qr_scan", "ios": "https://dc.lft.to/lastmile_qr_scan"}, "fusion_lat": 0.0}, {"is_disabled": 0, "lat": 38.905247333333335, "bike_id": "19f6861e46f9dad88c0143b2123f1a2a", "fusion_lon": 0.0, "is_reserved": 0, "type": "electric_scooter", "name": "19f6861e46f9dad88c0143b2123f1a2a", "lon": -77.06244066666666, "rental_uris": {"android": "https://dc.lft.to/lastmile_qr_scan", "ios": "https://dc.lft.to/lastmile_qr_scan"}, "fusion_lat": 0.0}, {"is_disabled": 0, "lat": 38.89237466666667, "bike_id": "46ab14b9666ae421b6863fbd257cb6c6", "fusion_lon": 0.0, "is_reserved": 0, "type": "electric_scooter", "name": "46ab14b9666ae421b6863fbd257cb6c6", "lon": -77.01363866666667, "rental_uris": {"android": "https://dc.lft.to/lastmile_qr_scan", "ios": "https://dc.lft.to/lastmile_qr_scan"}, "fusion_lat": 0.0}, {"is_disabled": 0, "lat": 38.875888333333336, "bike_id": "52a86ca78e4acaa8ff98b7b356a3fd2b", "fusion_lon": 0.0, "is_reserved": 0, "type": "electric_scooter", "name": "52a86ca78e4acaa8ff98b7b356a3fd2b", "lon": -77.01989966666666, "rental_uris": {"android": "https://dc.lft.to/lastmile_qr_scan", "ios": "https://dc.lft.to/lastmile_qr_scan"}, "fusion_lat": 0.0}, {"is_disabled": 0, "lat": 38.88614483333333, "bike_id": "06ef09254117cc3c04d10f38d90d1688", "fusion_lon": 0.0, "is_reserved": 0, "type": "electric_scooter", "name": "06ef09254117cc3c04d10f38d90d1688", "lon": -76.98743733333333, "rental_uris": {"android": "https://dc.lft.to/lastmile_qr_scan", "ios": "https://dc.lft.to/lastmile_qr_scan"}, "fusion_lat": 0.0}, {"is_disabled": 0, "lat": 38.921684, "bike_id": "0add0bf1883e0f1d5b09c19195f0095d", "fusion_lon": 0.0, "is_reserved": 0, "type": "electric_scooter", "name": "0add0bf1883e0f1d5b09c19195f0095d", "lon": -77.03819266666666, "rental_uris": {"android": "https://dc.lft.to/lastmile_qr_scan", "ios": "https://dc.lft.to/lastmile_qr_scan"}, "fusion_lat": 0.0}, {"is_disabled": 0, "lat": 38.907859333333334, "bike_id": "0831ea9bb729cdb3113a1859040594fa", "fusion_lon": 0.0, "is_reserved": 0, "type": "electric_scooter", "name": "0831ea9bb729cdb3113a1859040594fa", "lon": -77.046624, "rental_uris": {"android": "https://dc.lft.to/lastmile_qr_scan", "ios": "https://dc.lft.to/lastmile_qr_scan"}, "fusion_lat": 0.0}, {"is_disabled": 0, "lat": 38.922386333333336, "bike_id": "cfaf583dd2dedee3050fecfec6da0696", "fusion_lon": 0.0, "is_reserved": 0, "type": "electric_scooter", "name": "cfaf583dd2dedee3050fecfec6da0696", "lon": -77.03896016666667, "rental_uris": {"android": "https://dc.lft.to/lastmile_qr_scan", "ios": "https://dc.lft.to/lastmile_qr_scan"}, "fusion_lat": 0.0}, {"is_disabled": 0, "lat": 38.905583, "bike_id": "e07917ae566367b79d4bbd1f9b1ce84f", "fusion_lon": 0.0, "is_reserved": 0, "type": "electric_scooter", "name": "e07917ae566367b79d4bbd1f9b1ce84f", "lon": -77.04465183333333, "rental_uris": {"android": "https://dc.lft.to/lastmile_qr_scan", "ios": "https://dc.lft.to/lastmile_qr_scan"}, "fusion_lat": 0.0}, {"is_disabled": 0, "lat": 38.9157465, "bike_id": "9c73b1a971051cda10af3c51d39bf994", "fusion_lon": 0.0, "is_reserved": 0, "type": "electric_scooter", "name": "9c73b1a971051cda10af3c51d39bf994", "lon": -77.019931, "rental_uris": {"android": "https://dc.lft.to/lastmile_qr_scan", "ios": "https://dc.lft.to/lastmile_qr_scan"}, "fusion_lat": 0.0}, {"is_disabled": 0, "lat": 38.866594166666665, "bike_id": "ee7ab287acc999606a5a0c5319fe5b02", "fusion_lon": 0.0, "is_reserved": 0, "type": "electric_scooter", "name": "ee7ab287acc999606a5a0c5319fe5b02", "lon": -76.98884616666666, "rental_uris": {"android": "https://dc.lft.to/lastmile_qr_scan", "ios": "https://dc.lft.to/lastmile_qr_scan"}, "fusion_lat": 0.0}, {"is_disabled": 0, "lat": 38.9122215, "bike_id": "281074cf85431d4aac6034cba1f67eca", "fusion_lon": 0.0, "is_reserved": 0, "type": "electric_scooter", "name": "281074cf85431d4aac6034cba1f67eca", "lon": -77.07598983333334, "rental_uris": {"android": "https://dc.lft.to/lastmile_qr_scan", "ios": "https://dc.lft.to/lastmile_qr_scan"}, "fusion_lat": 0.0}, {"is_disabled": 0, "lat": 38.8991765, "bike_id": "cdf40417b6806e13a8a8798d6a23c940", "fusion_lon": 0.0, "is_reserved": 0, "type": "electric_scooter", "name": "cdf40417b6806e13a8a8798d6a23c940", "lon": -77.03304683333333, "rental_uris": {"android": "https://dc.lft.to/lastmile_qr_scan", "ios": "https://dc.lft.to/lastmile_qr_scan"}, "fusion_lat": 0.0}, {"is_disabled": 0, "lat": 38.86369083333334, "bike_id": "c5b2edae81dd002a28a6a1d74447f586", "fusion_lon": 0.0, "is_reserved": 0, "type": "electric_bike", "name": "c5b2edae81dd002a28a6a1d74447f586", "lon": -76.97009266666667, "rental_uris": {"android": "https://dc.lft.to/lastmile_qr_scan", "ios": "https://dc.lft.to/lastmile_qr_scan"}, "fusion_lat": 0.0}, {"is_disabled": 0, "lat": 38.920580666666666, "bike_id": "84f6e2acd9faa3275b331cf45f9e992f", "fusion_lon": 0.0, "is_reserved": 0, "type": "electric_scooter", "name": "84f6e2acd9faa3275b331cf45f9e992f", "lon": -77.0236995, "rental_uris": {"android": "https://dc.lft.to/lastmile_qr_scan", "ios": "https://dc.lft.to/lastmile_qr_scan"}, "fusion_lat": 0.0}, {"is_disabled": 0, "lat": 38.914158, "bike_id": "b0820eb4666e4e3eac6b2c1c8f7285da", "fusion_lon": 0.0, "is_reserved": 0, "type": "electric_scooter", "name": "b0820eb4666e4e3eac6b2c1c8f7285da", "lon": -77.018759, "rental_uris": {"android": "https://dc.lft.to/lastmile_qr_scan", "ios": "https://dc.lft.to/lastmile_qr_scan"}, "fusion_lat": 0.0}, {"is_disabled": 0, "lat": 38.8862675, "bike_id": "da86578c85128748ce410cc18b19a89a", "fusion_lon": 0.0, "is_reserved": 0, "type": "electric_scooter", "name": "da86578c85128748ce410cc18b19a89a", "lon": -76.996099, "rental_uris": {"android": "https://dc.lft.to/lastmile_qr_scan", "ios": "https://dc.lft.to/lastmile_qr_scan"}, "fusion_lat": 0.0}, {"is_disabled": 0, "lat": 38.921038, "bike_id": "48a1d08058567094fa19ad9df4227aba", "fusion_lon": 0.0, "is_reserved": 0, "type": "electric_bike", "name": "48a1d08058567094fa19ad9df4227aba", "lon": -77.03146833333334, "rental_uris": {"android": "https://dc.lft.to/lastmile_qr_scan", "ios": "https://dc.lft.to/lastmile_qr_scan"}, "fusion_lat": 0.0}, {"is_disabled": 0, "lat": 38.93601266666667, "bike_id": "fe53dc8bbdcbb7bd92794f5ac5e13a79", "fusion_lon": 0.0, "is_reserved": 0, "type": "electric_scooter", "name": "fe53dc8bbdcbb7bd92794f5ac5e13a79", "lon": -77.03173816666667, "rental_uris": {"android": "https://dc.lft.to/lastmile_qr_scan", "ios": "https://dc.lft.to/lastmile_qr_scan"}, "fusion_lat": 0.0}, {"is_disabled": 0, "lat": 38.915376333333334, "bike_id": "c3e63df5a29690771d84672d363c48cf", "fusion_lon": 0.0, "is_reserved": 0, "type": "electric_scooter", "name": "c3e63df5a29690771d84672d363c48cf", "lon": -77.03190683333334, "rental_uris": {"android": "https://dc.lft.to/lastmile_qr_scan", "ios": "https://dc.lft.to/lastmile_qr_scan"}, "fusion_lat": 0.0}, {"is_disabled": 0, "lat": 38.918337, "bike_id": "dad51b02886d7d1c7bce28ee2c4c9f61", "fusion_lon": 0.0, "is_reserved": 0, "type": "electric_scooter", "name": "dad51b02886d7d1c7bce28ee2c4c9f61", "lon": -77.03198733333333, "rental_uris": {"android": "https://dc.lft.to/lastmile_qr_scan", "ios": "https://dc.lft.to/lastmile_qr_scan"}, "fusion_lat": 0.0}, {"is_disabled": 0, "lat": 38.9157225, "bike_id": "cb60b28cb0dddac3162800a1e6c9ec79", "fusion_lon": 0.0, "is_reserved": 0, "type": "electric_scooter", "name": "cb60b28cb0dddac3162800a1e6c9ec79", "lon": -77.03189316666666, "rental_uris": {"android": "https://dc.lft.to/lastmile_qr_scan", "ios": "https://dc.lft.to/lastmile_qr_scan"}, "fusion_lat": 0.0}, {"is_disabled": 0, "lat": 38.89983683333333, "bike_id": "13b3eaeb3c9836037263c64d32288361", "fusion_lon": 0.0, "is_reserved": 0, "type": "electric_scooter", "name": "13b3eaeb3c9836037263c64d32288361", "lon": -77.05552716666666, "rental_uris": {"android": "https://dc.lft.to/lastmile_qr_scan", "ios": "https://dc.lft.to/lastmile_qr_scan"}, "fusion_lat": 0.0}, {"is_disabled": 0, "lat": 38.939709666666666, "bike_id": "0bcfb7d30680cf51469aa55b95bb43b3", "fusion_lon": 0.0, "is_reserved": 0, "type": "electric_scooter", "name": "0bcfb7d30680cf51469aa55b95bb43b3", "lon": -77.03257366666666, "rental_uris": {"android": "https://dc.lft.to/lastmile_qr_scan", "ios": "https://dc.lft.to/lastmile_qr_scan"}, "fusion_lat": 0.0}, {"is_disabled": 0, "lat": 38.8865765, "bike_id": "6f59380f0af6b1c732b39fed130fcaf8", "fusion_lon": 0.0, "is_reserved": 0, "type": "electric_scooter", "name": "6f59380f0af6b1c732b39fed130fcaf8", "lon": -77.01536433333334, "rental_uris": {"android": "https://dc.lft.to/lastmile_qr_scan", "ios": "https://dc.lft.to/lastmile_qr_scan"}, "fusion_lat": 0.0}, {"is_disabled": 0, "lat": 38.9231925, "bike_id": "1f5083c1fad663a532d1b496e86f8071", "fusion_lon": 0.0, "is_reserved": 0, "type": "electric_scooter", "name": "1f5083c1fad663a532d1b496e86f8071", "lon": -77.04625266666666, "rental_uris": {"android": "https://dc.lft.to/lastmile_qr_scan", "ios": "https://dc.lft.to/lastmile_qr_scan"}, "fusion_lat": 0.0}, {"is_disabled": 0, "lat": 38.886111666666665, "bike_id": "804fdd7bbb8c330b7350b2d750e72984", "fusion_lon": 0.0, "is_reserved": 0, "type": "electric_scooter", "name": "804fdd7bbb8c330b7350b2d750e72984", "lon": -77.0125355, "rental_uris": {"android": "https://dc.lft.to/lastmile_qr_scan", "ios": "https://dc.lft.to/lastmile_qr_scan"}, "fusion_lat": 0.0}, {"is_disabled": 0, "lat": 38.93538733333333, "bike_id": "19fd7105184d581b7ae9f85390c46a3a", "fusion_lon": 0.0, "is_reserved": 0, "type": "electric_scooter", "name": "19fd7105184d581b7ae9f85390c46a3a", "lon": -77.03473166666667, "rental_uris": {"android": "https://dc.lft.to/lastmile_qr_scan", "ios": "https://dc.lft.to/lastmile_qr_scan"}, "fusion_lat": 0.0}, {"is_disabled": 0, "lat": 38.897163666666664, "bike_id": "8666b6838fc217acd1a3cf9b96cca462", "fusion_lon": 0.0, "is_reserved": 0, "type": "electric_scooter", "name": "8666b6838fc217acd1a3cf9b96cca462", "lon": -77.02441966666666, "rental_uris": {"android": "https://dc.lft.to/lastmile_qr_scan", "ios": "https://dc.lft.to/lastmile_qr_scan"}, "fusion_lat": 0.0}, {"is_disabled": 0, "lat": 38.91652966666667, "bike_id": "71034a6a63526b49acbfc369a0dfb7f0", "fusion_lon": 0.0, "is_reserved": 0, "type": "electric_scooter", "name": "71034a6a63526b49acbfc369a0dfb7f0", "lon": -77.0429275, "rental_uris": {"android": "https://dc.lft.to/lastmile_qr_scan", "ios": "https://dc.lft.to/lastmile_qr_scan"}, "fusion_lat": 0.0}, {"is_disabled": 0, "lat": 38.91572883333333, "bike_id": "3d6f2051a161150cf8c55d60acc45998", "fusion_lon": 0.0, "is_reserved": 0, "type": "electric_scooter", "name": "3d6f2051a161150cf8c55d60acc45998", "lon": -77.038364, "rental_uris": {"android": "https://dc.lft.to/lastmile_qr_scan", "ios": "https://dc.lft.to/lastmile_qr_scan"}, "fusion_lat": 0.0}, {"is_disabled": 0, "lat": 38.892175333333334, "bike_id": "f25664d27c6bdf353ff41026b9e8d58c", "fusion_lon": 0.0, "is_reserved": 0, "type": "electric_scooter", "name": "f25664d27c6bdf353ff41026b9e8d58c", "lon": -77.02654583333333, "rental_uris": {"android": "https://dc.lft.to/lastmile_qr_scan", "ios": "https://dc.lft.to/lastmile_qr_scan"}, "fusion_lat": 0.0}, {"is_disabled": 0, "lat": 38.90731733333333, "bike_id": "56b7c08b9bf40679db24d06216a32f17", "fusion_lon": 0.0, "is_reserved": 0, "type": "electric_scooter", "name": "56b7c08b9bf40679db24d06216a32f17", "lon": -77.02664633333333, "rental_uris": {"android": "https://dc.lft.to/lastmile_qr_scan", "ios": "https://dc.lft.to/lastmile_qr_scan"}, "fusion_lat": 0.0}, {"is_disabled": 0, "lat": 38.908677833333336, "bike_id": "4e0c68921c3b06545e42ef214feec747", "fusion_lon": 0.0, "is_reserved": 0, "type": "electric_scooter", "name": "4e0c68921c3b06545e42ef214feec747", "lon": -77.04287183333334, "rental_uris": {"android": "https://dc.lft.to/lastmile_qr_scan", "ios": "https://dc.lft.to/lastmile_qr_scan"}, "fusion_lat": 0.0}, {"is_disabled": 0, "lat": 38.92269866666667, "bike_id": "e2fd042ea68dee2ba61b293a0baa6c60", "fusion_lon": 0.0, "is_reserved": 0, "type": "electric_scooter", "name": "e2fd042ea68dee2ba61b293a0baa6c60", "lon": -77.04129733333333, "rental_uris": {"android": "https://dc.lft.to/lastmile_qr_scan", "ios": "https://dc.lft.to/lastmile_qr_scan"}, "fusion_lat": 0.0}, {"is_disabled": 0, "lat": 38.900195833333335, "bike_id": "e95a3365be515ce09838bceb4813729b", "fusion_lon": 0.0, "is_reserved": 0, "type": "electric_scooter", "name": "e95a3365be515ce09838bceb4813729b", "lon": -76.99929833333333, "rental_uris": {"android": "https://dc.lft.to/lastmile_qr_scan", "ios": "https://dc.lft.to/lastmile_qr_scan"}, "fusion_lat": 0.0}, {"is_disabled": 0, "lat": 38.925138, "bike_id": "e27d27d2801da02a87cdff4f4ccd3722", "fusion_lon": 0.0, "is_reserved": 0, "type": "electric_scooter", "name": "e27d27d2801da02a87cdff4f4ccd3722", "lon": -77.052319, "rental_uris": {"android": "https://dc.lft.to/lastmile_qr_scan", "ios": "https://dc.lft.to/lastmile_qr_scan"}, "fusion_lat": 0.0}, {"is_disabled": 0, "lat": 38.93748266666667, "bike_id": "5c1a005f8d7029d4746113dcf3c9af09", "fusion_lon": 0.0, "is_reserved": 0, "type": "electric_bike", "name": "5c1a005f8d7029d4746113dcf3c9af09", "lon": -76.9457115, "rental_uris": {"android": "https://dc.lft.to/lastmile_qr_scan", "ios": "https://dc.lft.to/lastmile_qr_scan"}, "fusion_lat": 0.0}, {"is_disabled": 0, "lat": 38.895391333333336, "bike_id": "9a6fac23f49341be98486add73fc5611", "fusion_lon": 0.0, "is_reserved": 0, "type": "electric_scooter", "name": "9a6fac23f49341be98486add73fc5611", "lon": -77.02010083333333, "rental_uris": {"android": "https://dc.lft.to/lastmile_qr_scan", "ios": "https://dc.lft.to/lastmile_qr_scan"}, "fusion_lat": 0.0}, {"is_disabled": 0, "lat": 38.91801433333333, "bike_id": "c2c651d6a3efed0082c45b27139bcdfa", "fusion_lon": 0.0, "is_reserved": 0, "type": "electric_scooter", "name": "c2c651d6a3efed0082c45b27139bcdfa", "lon": -77.03197483333334, "rental_uris": {"android": "https://dc.lft.to/lastmile_qr_scan", "ios": "https://dc.lft.to/lastmile_qr_scan"}, "fusion_lat": 0.0}, {"is_disabled": 0, "lat": 38.91536266666667, "bike_id": "931624e9e621f7fe04bc99abf5ae0aee", "fusion_lon": 0.0, "is_reserved": 0, "type": "electric_scooter", "name": "931624e9e621f7fe04bc99abf5ae0aee", "lon": -77.03187016666666, "rental_uris": {"android": "https://dc.lft.to/lastmile_qr_scan", "ios": "https://dc.lft.to/lastmile_qr_scan"}, "fusion_lat": 0.0}, {"is_disabled": 0, "lat": 38.89221883333333, "bike_id": "a62e72a4973445388d7f8006f4db6f60", "fusion_lon": 0.0, "is_reserved": 0, "type": "electric_scooter", "name": "a62e72a4973445388d7f8006f4db6f60", "lon": -77.048661, "rental_uris": {"android": "https://dc.lft.to/lastmile_qr_scan", "ios": "https://dc.lft.to/lastmile_qr_scan"}, "fusion_lat": 0.0}, {"is_disabled": 0, "lat": 38.907166, "bike_id": "08551480788d64f7a6b48d0c1df5df89", "fusion_lon": 0.0, "is_reserved": 0, "type": "electric_scooter", "name": "08551480788d64f7a6b48d0c1df5df89", "lon": -77.04082366666667, "rental_uris": {"android": "https://dc.lft.to/lastmile_qr_scan", "ios": "https://dc.lft.to/lastmile_qr_scan"}, "fusion_lat": 0.0}, {"is_disabled": 0, "lat": 38.89632533333333, "bike_id": "f3aac56f816573200706b6371a790c15", "fusion_lon": 0.0, "is_reserved": 0, "type": "electric_scooter", "name": "f3aac56f816573200706b6371a790c15", "lon": -77.02657666666667, "rental_uris": {"android": "https://dc.lft.to/lastmile_qr_scan", "ios": "https://dc.lft.to/lastmile_qr_scan"}, "fusion_lat": 0.0}, {"is_disabled": 0, "lat": 38.906643, "bike_id": "88094cc56185a2904829ab5e1de9205b", "fusion_lon": 0.0, "is_reserved": 0, "type": "electric_scooter", "name": "88094cc56185a2904829ab5e1de9205b", "lon": -77.03885233333334, "rental_uris": {"android": "https://dc.lft.to/lastmile_qr_scan", "ios": "https://dc.lft.to/lastmile_qr_scan"}, "fusion_lat": 0.0}, {"is_disabled": 0, "lat": 38.91704716666667, "bike_id": "ea513bb5b704fc927505fe049f9202c7", "fusion_lon": 0.0, "is_reserved": 0, "type": "electric_scooter", "name": "ea513bb5b704fc927505fe049f9202c7", "lon": -77.02825066666666, "rental_uris": {"android": "https://dc.lft.to/lastmile_qr_scan", "ios": "https://dc.lft.to/lastmile_qr_scan"}, "fusion_lat": 0.0}, {"is_disabled": 0, "lat": 38.955263333333335, "bike_id": "50b7c7a82dad9b2e4ceb71c5136f5afb", "fusion_lon": 0.0, "is_reserved": 0, "type": "electric_scooter", "name": "50b7c7a82dad9b2e4ceb71c5136f5afb", "lon": -77.02318233333334, "rental_uris": {"android": "https://dc.lft.to/lastmile_qr_scan", "ios": "https://dc.lft.to/lastmile_qr_scan"}, "fusion_lat": 0.0}, {"is_disabled": 0, "lat": 38.916988, "bike_id": "59f4dae47fb70bc62f4635e2c7faae77", "fusion_lon": 0.0, "is_reserved": 0, "type": "electric_scooter", "name": "59f4dae47fb70bc62f4635e2c7faae77", "lon": -77.03421216666666, "rental_uris": {"android": "https://dc.lft.to/lastmile_qr_scan", "ios": "https://dc.lft.to/lastmile_qr_scan"}, "fusion_lat": 0.0}, {"is_disabled": 0, "lat": 38.921781833333334, "bike_id": "d3190ca0067fea2c6d1ce9de4d5f275a", "fusion_lon": 0.0, "is_reserved": 0, "type": "electric_scooter", "name": "d3190ca0067fea2c6d1ce9de4d5f275a", "lon": -76.9979215, "rental_uris": {"android": "https://dc.lft.to/lastmile_qr_scan", "ios": "https://dc.lft.to/lastmile_qr_scan"}, "fusion_lat": 0.0}, {"is_disabled": 0, "lat": 38.90280283333333, "bike_id": "8d27e3ac22ee3b4e0fbc15e4bcac145d", "fusion_lon": 0.0, "is_reserved": 0, "type": "electric_scooter", "name": "8d27e3ac22ee3b4e0fbc15e4bcac145d", "lon": -77.03850533333333, "rental_uris": {"android": "https://dc.lft.to/lastmile_qr_scan", "ios": "https://dc.lft.to/lastmile_qr_scan"}, "fusion_lat": 0.0}, {"is_disabled": 0, "lat": 38.88771116666667, "bike_id": "18ca4c1c975e1089069099d2f0fa0fb0", "fusion_lon": 0.0, "is_reserved": 0, "type": "electric_scooter", "name": "18ca4c1c975e1089069099d2f0fa0fb0", "lon": -76.95533266666666, "rental_uris": {"android": "https://dc.lft.to/lastmile_qr_scan", "ios": "https://dc.lft.to/lastmile_qr_scan"}, "fusion_lat": 0.0}, {"is_disabled": 0, "lat": 38.9564465, "bike_id": "b7feecd25dfa981c13faf9d012aa59c0", "fusion_lon": 0.0, "is_reserved": 0, "type": "electric_bike", "name": "b7feecd25dfa981c13faf9d012aa59c0", "lon": -76.997932, "rental_uris": {"android": "https://dc.lft.to/lastmile_qr_scan", "ios": "https://dc.lft.to/lastmile_qr_scan"}, "fusion_lat": 0.0}, {"is_disabled": 0, "lat": 38.8747525, "bike_id": "ae6fa34e22d85f53fce4d2b3fc376b86", "fusion_lon": 0.0, "is_reserved": 0, "type": "electric_scooter", "name": "ae6fa34e22d85f53fce4d2b3fc376b86", "lon": -77.00481033333334, "rental_uris": {"android": "https://dc.lft.to/lastmile_qr_scan", "ios": "https://dc.lft.to/lastmile_qr_scan"}, "fusion_lat": 0.0}, {"is_disabled": 0, "lat": 38.918700333333334, "bike_id": "e15e6088d677c91a423332a4e3897b67", "fusion_lon": 0.0, "is_reserved": 0, "type": "electric_scooter", "name": "e15e6088d677c91a423332a4e3897b67", "lon": -77.03469783333334, "rental_uris": {"android": "https://dc.lft.to/lastmile_qr_scan", "ios": "https://dc.lft.to/lastmile_qr_scan"}, "fusion_lat": 0.0}, {"is_disabled": 0, "lat": 38.8947105, "bike_id": "6ef4e0e3bcf3f61bc96432c0b6ad0efe", "fusion_lon": 0.0, "is_reserved": 0, "type": "electric_scooter", "name": "6ef4e0e3bcf3f61bc96432c0b6ad0efe", "lon": -77.00189616666667, "rental_uris": {"android": "https://dc.lft.to/lastmile_qr_scan", "ios": "https://dc.lft.to/lastmile_qr_scan"}, "fusion_lat": 0.0}, {"is_disabled": 0, "lat": 38.88622133333333, "bike_id": "4d8d8af7bb263de9964b00c319fee0d9", "fusion_lon": 0.0, "is_reserved": 0, "type": "electric_scooter", "name": "4d8d8af7bb263de9964b00c319fee0d9", "lon": -77.00341616666667, "rental_uris": {"android": "https://dc.lft.to/lastmile_qr_scan", "ios": "https://dc.lft.to/lastmile_qr_scan"}, "fusion_lat": 0.0}, {"is_disabled": 0, "lat": 38.921132, "bike_id": "58c1b3ab45cd25307f83950708f0e22d", "fusion_lon": 0.0, "is_reserved": 0, "type": "electric_bike", "name": "58c1b3ab45cd25307f83950708f0e22d", "lon": -76.98090116666667, "rental_uris": {"android": "https://dc.lft.to/lastmile_qr_scan", "ios": "https://dc.lft.to/lastmile_qr_scan"}, "fusion_lat": 0.0}, {"is_disabled": 0, "lat": 38.909239166666666, "bike_id": "1d7aba1047125026befee9da6f2a2278", "fusion_lon": 0.0, "is_reserved": 0, "type": "electric_scooter", "name": "1d7aba1047125026befee9da6f2a2278", "lon": -77.00579616666667, "rental_uris": {"android": "https://dc.lft.to/lastmile_qr_scan", "ios": "https://dc.lft.to/lastmile_qr_scan"}, "fusion_lat": 0.0}, {"is_disabled": 0, "lat": 38.905088166666665, "bike_id": "331a56167d43c7e5b13a9880b65ea2e7", "fusion_lon": 0.0, "is_reserved": 0, "type": "electric_scooter", "name": "331a56167d43c7e5b13a9880b65ea2e7", "lon": -77.051423, "rental_uris": {"android": "https://dc.lft.to/lastmile_qr_scan", "ios": "https://dc.lft.to/lastmile_qr_scan"}, "fusion_lat": 0.0}, {"is_disabled": 0, "lat": 38.902625666666665, "bike_id": "f4d6e7db12d5635117c26e4d7d8226c1", "fusion_lon": 0.0, "is_reserved": 0, "type": "electric_scooter", "name": "f4d6e7db12d5635117c26e4d7d8226c1", "lon": -77.0281485, "rental_uris": {"android": "https://dc.lft.to/lastmile_qr_scan", "ios": "https://dc.lft.to/lastmile_qr_scan"}, "fusion_lat": 0.0}, {"is_disabled": 0, "lat": 38.917062333333334, "bike_id": "9e55031afe094b187da077feb9985be8", "fusion_lon": 0.0, "is_reserved": 0, "type": "electric_scooter", "name": "9e55031afe094b187da077feb9985be8", "lon": -77.0288085, "rental_uris": {"android": "https://dc.lft.to/lastmile_qr_scan", "ios": "https://dc.lft.to/lastmile_qr_scan"}, "fusion_lat": 0.0}, {"is_disabled": 0, "lat": 38.89224333333333, "bike_id": "0bbad2ff3d45a3741192336c1f45cf4a", "fusion_lon": 0.0, "is_reserved": 0, "type": "electric_scooter", "name": "0bbad2ff3d45a3741192336c1f45cf4a", "lon": -77.043236, "rental_uris": {"android": "https://dc.lft.to/lastmile_qr_scan", "ios": "https://dc.lft.to/lastmile_qr_scan"}, "fusion_lat": 0.0}, {"is_disabled": 0, "lat": 38.900054, "bike_id": "11991433662e7e233e47ed24cde78d39", "fusion_lon": 0.0, "is_reserved": 0, "type": "electric_scooter", "name": "11991433662e7e233e47ed24cde78d39", "lon": -76.998395, "rental_uris": {"android": "https://dc.lft.to/lastmile_qr_scan", "ios": "https://dc.lft.to/lastmile_qr_scan"}, "fusion_lat": 0.0}, {"is_disabled": 0, "lat": 38.91682433333333, "bike_id": "0508da22bad3f649cb78709a806d341d", "fusion_lon": 0.0, "is_reserved": 0, "type": "electric_scooter", "name": "0508da22bad3f649cb78709a806d341d", "lon": -77.02968, "rental_uris": {"android": "https://dc.lft.to/lastmile_qr_scan", "ios": "https://dc.lft.to/lastmile_qr_scan"}, "fusion_lat": 0.0}, {"is_disabled": 0, "lat": 38.89554, "bike_id": "869a72116235b1b50a52314bd20a36a7", "fusion_lon": 0.0, "is_reserved": 0, "type": "electric_scooter", "name": "869a72116235b1b50a52314bd20a36a7", "lon": -77.0092805, "rental_uris": {"android": "https://dc.lft.to/lastmile_qr_scan", "ios": "https://dc.lft.to/lastmile_qr_scan"}, "fusion_lat": 0.0}, {"is_disabled": 0, "lat": 38.92469633333333, "bike_id": "951b876a8c92a4248dfe2bc2ec81fd6f", "fusion_lon": 0.0, "is_reserved": 0, "type": "electric_scooter", "name": "951b876a8c92a4248dfe2bc2ec81fd6f", "lon": -77.02264083333333, "rental_uris": {"android": "https://dc.lft.to/lastmile_qr_scan", "ios": "https://dc.lft.to/lastmile_qr_scan"}, "fusion_lat": 0.0}, {"is_disabled": 0, "lat": 38.88313483333334, "bike_id": "83d5ba0139324082509dd3db3e161f31", "fusion_lon": 0.0, "is_reserved": 0, "type": "electric_scooter", "name": "83d5ba0139324082509dd3db3e161f31", "lon": -77.00936833333333, "rental_uris": {"android": "https://dc.lft.to/lastmile_qr_scan", "ios": "https://dc.lft.to/lastmile_qr_scan"}, "fusion_lat": 0.0}, {"is_disabled": 0, "lat": 38.927991666666664, "bike_id": "1f418c08e8dd1a2a22d77c111eaeb897", "fusion_lon": 0.0, "is_reserved": 0, "type": "electric_scooter", "name": "1f418c08e8dd1a2a22d77c111eaeb897", "lon": -77.04110966666667, "rental_uris": {"android": "https://dc.lft.to/lastmile_qr_scan", "ios": "https://dc.lft.to/lastmile_qr_scan"}, "fusion_lat": 0.0}, {"is_disabled": 0, "lat": 38.89731233333333, "bike_id": "1be5461cb97bad04caac8653c976994b", "fusion_lon": 0.0, "is_reserved": 0, "type": "electric_scooter", "name": "1be5461cb97bad04caac8653c976994b", "lon": -77.02718266666666, "rental_uris": {"android": "https://dc.lft.to/lastmile_qr_scan", "ios": "https://dc.lft.to/lastmile_qr_scan"}, "fusion_lat": 0.0}, {"is_disabled": 0, "lat": 38.90239833333333, "bike_id": "770d0164b157e2250fb23c5defb15ae4", "fusion_lon": 0.0, "is_reserved": 0, "type": "electric_scooter", "name": "770d0164b157e2250fb23c5defb15ae4", "lon": -77.00199016666667, "rental_uris": {"android": "https://dc.lft.to/lastmile_qr_scan", "ios": "https://dc.lft.to/lastmile_qr_scan"}, "fusion_lat": 0.0}, {"is_disabled": 0, "lat": 38.902726666666666, "bike_id": "ba3a0f6fc8aaa1d7fb6ff46d90f1385d", "fusion_lon": 0.0, "is_reserved": 0, "type": "electric_scooter", "name": "ba3a0f6fc8aaa1d7fb6ff46d90f1385d", "lon": -77.03348216666667, "rental_uris": {"android": "https://dc.lft.to/lastmile_qr_scan", "ios": "https://dc.lft.to/lastmile_qr_scan"}, "fusion_lat": 0.0}, {"is_disabled": 0, "lat": 38.852928166666665, "bike_id": "f9e36ad041c48d7bce310ac662ecb01b", "fusion_lon": 0.0, "is_reserved": 0, "type": "electric_bike", "name": "f9e36ad041c48d7bce310ac662ecb01b", "lon": -76.99578783333334, "rental_uris": {"android": "https://dc.lft.to/lastmile_qr_scan", "ios": "https://dc.lft.to/lastmile_qr_scan"}, "fusion_lat": 0.0}, {"is_disabled": 0, "lat": 38.90556983333333, "bike_id": "a0a078008e4d85d31fdcd70b140ce70a", "fusion_lon": 0.0, "is_reserved": 0, "type": "electric_scooter", "name": "a0a078008e4d85d31fdcd70b140ce70a", "lon": -77.005518, "rental_uris": {"android": "https://dc.lft.to/lastmile_qr_scan", "ios": "https://dc.lft.to/lastmile_qr_scan"}, "fusion_lat": 0.0}, {"is_disabled": 0, "lat": 38.89587483333333, "bike_id": "76cbc65530140dd9d9c003e22272bf11", "fusion_lon": 0.0, "is_reserved": 0, "type": "electric_scooter", "name": "76cbc65530140dd9d9c003e22272bf11", "lon": -77.0247205, "rental_uris": {"android": "https://dc.lft.to/lastmile_qr_scan", "ios": "https://dc.lft.to/lastmile_qr_scan"}, "fusion_lat": 0.0}, {"is_disabled": 0, "lat": 38.90722816666667, "bike_id": "88aca67a50c5e21e1258a11f417eda25", "fusion_lon": 0.0, "is_reserved": 0, "type": "electric_scooter", "name": "88aca67a50c5e21e1258a11f417eda25", "lon": -77.03429933333334, "rental_uris": {"android": "https://dc.lft.to/lastmile_qr_scan", "ios": "https://dc.lft.to/lastmile_qr_scan"}, "fusion_lat": 0.0}, {"is_disabled": 0, "lat": 38.89037016666666, "bike_id": "331644666b1099a87f8cceafd3b8e234", "fusion_lon": 0.0, "is_reserved": 0, "type": "electric_scooter", "name": "331644666b1099a87f8cceafd3b8e234", "lon": -77.02975533333333, "rental_uris": {"android": "https://dc.lft.to/lastmile_qr_scan", "ios": "https://dc.lft.to/lastmile_qr_scan"}, "fusion_lat": 0.0}, {"is_disabled": 0, "lat": 38.902868166666664, "bike_id": "be5d73c28621faebd8a249ea70bbf1ca", "fusion_lon": 0.0, "is_reserved": 0, "type": "electric_scooter", "name": "be5d73c28621faebd8a249ea70bbf1ca", "lon": -77.03459933333333, "rental_uris": {"android": "https://dc.lft.to/lastmile_qr_scan", "ios": "https://dc.lft.to/lastmile_qr_scan"}, "fusion_lat": 0.0}, {"is_disabled": 0, "lat": 38.9017405, "bike_id": "3c1dc445743390bde4c82eeaaa635f98", "fusion_lon": 0.0, "is_reserved": 0, "type": "electric_scooter", "name": "3c1dc445743390bde4c82eeaaa635f98", "lon": -77.02005233333334, "rental_uris": {"android": "https://dc.lft.to/lastmile_qr_scan", "ios": "https://dc.lft.to/lastmile_qr_scan"}, "fusion_lat": 0.0}, {"is_disabled": 0, "lat": 38.91836683333333, "bike_id": "899a479cd20a80d6ee9da29d2f72acac", "fusion_lon": 0.0, "is_reserved": 0, "type": "electric_scooter", "name": "899a479cd20a80d6ee9da29d2f72acac", "lon": -76.98932366666666, "rental_uris": {"android": "https://dc.lft.to/lastmile_qr_scan", "ios": "https://dc.lft.to/lastmile_qr_scan"}, "fusion_lat": 0.0}, {"is_disabled": 0, "lat": 38.898627, "bike_id": "519c52268b98bf23d1d0c2a6b7d6b30b", "fusion_lon": 0.0, "is_reserved": 0, "type": "electric_scooter", "name": "519c52268b98bf23d1d0c2a6b7d6b30b", "lon": -77.05145983333334, "rental_uris": {"android": "https://dc.lft.to/lastmile_qr_scan", "ios": "https://dc.lft.to/lastmile_qr_scan"}, "fusion_lat": 0.0}, {"is_disabled": 0, "lat": 38.9049695, "bike_id": "537060cd2a1407a7abbc7b84a1a3f6b0", "fusion_lon": 0.0, "is_reserved": 0, "type": "electric_scooter", "name": "537060cd2a1407a7abbc7b84a1a3f6b0", "lon": -77.02588016666667, "rental_uris": {"android": "https://dc.lft.to/lastmile_qr_scan", "ios": "https://dc.lft.to/lastmile_qr_scan"}, "fusion_lat": 0.0}, {"is_disabled": 0, "lat": 38.93868916666667, "bike_id": "e24f1c1ceca2708d56ea2a7b5775dbbd", "fusion_lon": 0.0, "is_reserved": 0, "type": "electric_scooter", "name": "e24f1c1ceca2708d56ea2a7b5775dbbd", "lon": -77.02487316666667, "rental_uris": {"android": "https://dc.lft.to/lastmile_qr_scan", "ios": "https://dc.lft.to/lastmile_qr_scan"}, "fusion_lat": 0.0}, {"is_disabled": 0, "lat": 38.92087133333333, "bike_id": "15734532d957ba48c7d60888dc99f54b", "fusion_lon": 0.0, "is_reserved": 0, "type": "electric_scooter", "name": "15734532d957ba48c7d60888dc99f54b", "lon": -77.03152316666667, "rental_uris": {"android": "https://dc.lft.to/lastmile_qr_scan", "ios": "https://dc.lft.to/lastmile_qr_scan"}, "fusion_lat": 0.0}, {"is_disabled": 0, "lat": 38.91656566666666, "bike_id": "6aaffb0d8e5ed8a2f3a17be05a23bfd1", "fusion_lon": 0.0, "is_reserved": 0, "type": "electric_scooter", "name": "6aaffb0d8e5ed8a2f3a17be05a23bfd1", "lon": -77.04390433333333, "rental_uris": {"android": "https://dc.lft.to/lastmile_qr_scan", "ios": "https://dc.lft.to/lastmile_qr_scan"}, "fusion_lat": 0.0}, {"is_disabled": 0, "lat": 38.921093, "bike_id": "b491a346c6b70450300c94cbfa70ae5b", "fusion_lon": 0.0, "is_reserved": 0, "type": "electric_scooter", "name": "b491a346c6b70450300c94cbfa70ae5b", "lon": -77.04388983333334, "rental_uris": {"android": "https://dc.lft.to/lastmile_qr_scan", "ios": "https://dc.lft.to/lastmile_qr_scan"}, "fusion_lat": 0.0}, {"is_disabled": 0, "lat": 38.90354683333333, "bike_id": "78660886c7e8369cf200dd9215256c7a", "fusion_lon": 0.0, "is_reserved": 0, "type": "electric_scooter", "name": "78660886c7e8369cf200dd9215256c7a", "lon": -77.06609116666667, "rental_uris": {"android": "https://dc.lft.to/lastmile_qr_scan", "ios": "https://dc.lft.to/lastmile_qr_scan"}, "fusion_lat": 0.0}, {"is_disabled": 0, "lat": 38.885872, "bike_id": "dfcfe216b8afff793a58652725658a67", "fusion_lon": 0.0, "is_reserved": 0, "type": "electric_scooter", "name": "dfcfe216b8afff793a58652725658a67", "lon": -77.01752916666666, "rental_uris": {"android": "https://dc.lft.to/lastmile_qr_scan", "ios": "https://dc.lft.to/lastmile_qr_scan"}, "fusion_lat": 0.0}, {"is_disabled": 0, "lat": 38.887385, "bike_id": "6b8297287d3233af3aff9d293c0d8380", "fusion_lon": 0.0, "is_reserved": 0, "type": "electric_scooter", "name": "6b8297287d3233af3aff9d293c0d8380", "lon": -77.015333, "rental_uris": {"android": "https://dc.lft.to/lastmile_qr_scan", "ios": "https://dc.lft.to/lastmile_qr_scan"}, "fusion_lat": 0.0}, {"is_disabled": 0, "lat": 38.885196, "bike_id": "375f6dcd804fde3cbc995c9b9e5a3a8e", "fusion_lon": 0.0, "is_reserved": 0, "type": "electric_scooter", "name": "375f6dcd804fde3cbc995c9b9e5a3a8e", "lon": -77.00596633333333, "rental_uris": {"android": "https://dc.lft.to/lastmile_qr_scan", "ios": "https://dc.lft.to/lastmile_qr_scan"}, "fusion_lat": 0.0}, {"is_disabled": 0, "lat": 38.89243783333333, "bike_id": "5e3fdc2df13f0f9a1a2cd6c4dfc014b1", "fusion_lon": 0.0, "is_reserved": 0, "type": "electric_scooter", "name": "5e3fdc2df13f0f9a1a2cd6c4dfc014b1", "lon": -77.01517366666667, "rental_uris": {"android": "https://dc.lft.to/lastmile_qr_scan", "ios": "https://dc.lft.to/lastmile_qr_scan"}, "fusion_lat": 0.0}, {"is_disabled": 0, "lat": 38.92163816666667, "bike_id": "fc5c9a83a960fae3d5ff788f02ff5023", "fusion_lon": 0.0, "is_reserved": 0, "type": "electric_scooter", "name": "fc5c9a83a960fae3d5ff788f02ff5023", "lon": -77.042359, "rental_uris": {"android": "https://dc.lft.to/lastmile_qr_scan", "ios": "https://dc.lft.to/lastmile_qr_scan"}, "fusion_lat": 0.0}, {"is_disabled": 0, "lat": 38.910985333333336, "bike_id": "9e205b5f9058fc9ae1f474ddc9e942b9", "fusion_lon": 0.0, "is_reserved": 0, "type": "electric_scooter", "name": "9e205b5f9058fc9ae1f474ddc9e942b9", "lon": -77.0448825, "rental_uris": {"android": "https://dc.lft.to/lastmile_qr_scan", "ios": "https://dc.lft.to/lastmile_qr_scan"}, "fusion_lat": 0.0}, {"is_disabled": 0, "lat": 38.950878, "bike_id": "4249e779285f588c90f0475c670a85b1", "fusion_lon": 0.0, "is_reserved": 0, "type": "electric_bike", "name": "4249e779285f588c90f0475c670a85b1", "lon": -76.997906, "rental_uris": {"android": "https://dc.lft.to/lastmile_qr_scan", "ios": "https://dc.lft.to/lastmile_qr_scan"}, "fusion_lat": 0.0}, {"is_disabled": 0, "lat": 38.902918666666665, "bike_id": "dd02d5aebda8ba440566ccb2d0bc23c5", "fusion_lon": 0.0, "is_reserved": 0, "type": "electric_scooter", "name": "dd02d5aebda8ba440566ccb2d0bc23c5", "lon": -77.032588, "rental_uris": {"android": "https://dc.lft.to/lastmile_qr_scan", "ios": "https://dc.lft.to/lastmile_qr_scan"}, "fusion_lat": 0.0}, {"is_disabled": 0, "lat": 38.89730866666667, "bike_id": "a837dc339f2eaad4a00ac1f44721bd60", "fusion_lon": 0.0, "is_reserved": 0, "type": "electric_scooter", "name": "a837dc339f2eaad4a00ac1f44721bd60", "lon": -77.049946, "rental_uris": {"android": "https://dc.lft.to/lastmile_qr_scan", "ios": "https://dc.lft.to/lastmile_qr_scan"}, "fusion_lat": 0.0}, {"is_disabled": 0, "lat": 38.9057505, "bike_id": "48feed829af7bddce2e2b4761f71c8b1", "fusion_lon": 0.0, "is_reserved": 0, "type": "electric_scooter", "name": "48feed829af7bddce2e2b4761f71c8b1", "lon": -76.9762665, "rental_uris": {"android": "https://dc.lft.to/lastmile_qr_scan", "ios": "https://dc.lft.to/lastmile_qr_scan"}, "fusion_lat": 0.0}, {"is_disabled": 0, "lat": 38.894819166666665, "bike_id": "7e36d45f9a588ec939482313b53bd25f", "fusion_lon": 0.0, "is_reserved": 0, "type": "electric_scooter", "name": "7e36d45f9a588ec939482313b53bd25f", "lon": -77.07507, "rental_uris": {"android": "https://dc.lft.to/lastmile_qr_scan", "ios": "https://dc.lft.to/lastmile_qr_scan"}, "fusion_lat": 0.0}, {"is_disabled": 0, "lat": 38.91524366666667, "bike_id": "9f45d7a0f49eb64e774ffdc1ec6ffdf4", "fusion_lon": 0.0, "is_reserved": 0, "type": "electric_scooter", "name": "9f45d7a0f49eb64e774ffdc1ec6ffdf4", "lon": -77.02393216666667, "rental_uris": {"android": "https://dc.lft.to/lastmile_qr_scan", "ios": "https://dc.lft.to/lastmile_qr_scan"}, "fusion_lat": 0.0}, {"is_disabled": 0, "lat": 38.9561745, "bike_id": "52e1e272a597bfb6dcb4e48681666255", "fusion_lon": 0.0, "is_reserved": 0, "type": "electric_scooter", "name": "52e1e272a597bfb6dcb4e48681666255", "lon": -77.0330855, "rental_uris": {"android": "https://dc.lft.to/lastmile_qr_scan", "ios": "https://dc.lft.to/lastmile_qr_scan"}, "fusion_lat": 0.0}, {"is_disabled": 0, "lat": 39.0563375, "bike_id": "7306dff1c91777463a03f344537426d6", "fusion_lon": 0.0, "is_reserved": 0, "type": "electric_bike", "name": "7306dff1c91777463a03f344537426d6", "lon": -77.12528166666667, "rental_uris": {"android": "https://dc.lft.to/lastmile_qr_scan", "ios": "https://dc.lft.to/lastmile_qr_scan"}, "fusion_lat": 0.0}, {"is_disabled": 0, "lat": 38.92044833333333, "bike_id": "3d4d4de876650b60baefe55535460fcb", "fusion_lon": 0.0, "is_reserved": 0, "type": "electric_scooter", "name": "3d4d4de876650b60baefe55535460fcb", "lon": -77.02440933333334, "rental_uris": {"android": "https://dc.lft.to/lastmile_qr_scan", "ios": "https://dc.lft.to/lastmile_qr_scan"}, "fusion_lat": 0.0}, {"is_disabled": 0, "lat": 38.909636666666664, "bike_id": "ab81f21383c15f573ff612681f4ef9b5", "fusion_lon": 0.0, "is_reserved": 0, "type": "electric_scooter", "name": "ab81f21383c15f573ff612681f4ef9b5", "lon": -77.03243116666667, "rental_uris": {"android": "https://dc.lft.to/lastmile_qr_scan", "ios": "https://dc.lft.to/lastmile_qr_scan"}, "fusion_lat": 0.0}, {"is_disabled": 0, "lat": 38.873932, "bike_id": "de4c42be9e4abab47008095904a3f397", "fusion_lon": 0.0, "is_reserved": 0, "type": "electric_scooter", "name": "de4c42be9e4abab47008095904a3f397", "lon": -77.00027183333333, "rental_uris": {"android": "https://dc.lft.to/lastmile_qr_scan", "ios": "https://dc.lft.to/lastmile_qr_scan"}, "fusion_lat": 0.0}, {"is_disabled": 0, "lat": 38.909621333333334, "bike_id": "d45cebdee7238f9036f1d3fce0aa3e84", "fusion_lon": 0.0, "is_reserved": 0, "type": "electric_scooter", "name": "d45cebdee7238f9036f1d3fce0aa3e84", "lon": -77.0317575, "rental_uris": {"android": "https://dc.lft.to/lastmile_qr_scan", "ios": "https://dc.lft.to/lastmile_qr_scan"}, "fusion_lat": 0.0}, {"is_disabled": 0, "lat": 38.90751366666667, "bike_id": "0ebf81c4072cf631591cf8281e851166", "fusion_lon": 0.0, "is_reserved": 0, "type": "electric_scooter", "name": "0ebf81c4072cf631591cf8281e851166", "lon": -77.026066, "rental_uris": {"android": "https://dc.lft.to/lastmile_qr_scan", "ios": "https://dc.lft.to/lastmile_qr_scan"}, "fusion_lat": 0.0}, {"is_disabled": 0, "lat": 38.901216, "bike_id": "947b319e7ac016fc66af4243138f1afd", "fusion_lon": 0.0, "is_reserved": 0, "type": "electric_scooter", "name": "947b319e7ac016fc66af4243138f1afd", "lon": -76.99143966666666, "rental_uris": {"android": "https://dc.lft.to/lastmile_qr_scan", "ios": "https://dc.lft.to/lastmile_qr_scan"}, "fusion_lat": 0.0}, {"is_disabled": 0, "lat": 38.917057166666666, "bike_id": "7d940eb8772f81b241773ba9ff584908", "fusion_lon": 0.0, "is_reserved": 0, "type": "electric_scooter", "name": "7d940eb8772f81b241773ba9ff584908", "lon": -77.03874983333333, "rental_uris": {"android": "https://dc.lft.to/lastmile_qr_scan", "ios": "https://dc.lft.to/lastmile_qr_scan"}, "fusion_lat": 0.0}, {"is_disabled": 0, "lat": 38.906633166666666, "bike_id": "ae46b863bc06c7376aea70524d38c1dd", "fusion_lon": 0.0, "is_reserved": 0, "type": "electric_scooter", "name": "ae46b863bc06c7376aea70524d38c1dd", "lon": -77.02693966666666, "rental_uris": {"android": "https://dc.lft.to/lastmile_qr_scan", "ios": "https://dc.lft.to/lastmile_qr_scan"}, "fusion_lat": 0.0}, {"is_disabled": 0, "lat": 38.914115833333334, "bike_id": "b174a7d9f25348296cb9b1aca54c15ab", "fusion_lon": 0.0, "is_reserved": 0, "type": "electric_scooter", "name": "b174a7d9f25348296cb9b1aca54c15ab", "lon": -77.00973016666667, "rental_uris": {"android": "https://dc.lft.to/lastmile_qr_scan", "ios": "https://dc.lft.to/lastmile_qr_scan"}, "fusion_lat": 0.0}, {"is_disabled": 0, "lat": 38.89044116666667, "bike_id": "c54a3f50940021a937b893ad9fb1fc93", "fusion_lon": 0.0, "is_reserved": 0, "type": "electric_scooter", "name": "c54a3f50940021a937b893ad9fb1fc93", "lon": -76.93755083333333, "rental_uris": {"android": "https://dc.lft.to/lastmile_qr_scan", "ios": "https://dc.lft.to/lastmile_qr_scan"}, "fusion_lat": 0.0}, {"is_disabled": 0, "lat": 38.909018333333336, "bike_id": "aa522ba2741652552126e3df367a607c", "fusion_lon": 0.0, "is_reserved": 0, "type": "electric_scooter", "name": "aa522ba2741652552126e3df367a607c", "lon": -77.04385616666667, "rental_uris": {"android": "https://dc.lft.to/lastmile_qr_scan", "ios": "https://dc.lft.to/lastmile_qr_scan"}, "fusion_lat": 0.0}, {"is_disabled": 0, "lat": 38.91639383333333, "bike_id": "7a1dae2fd5faa1ff62f71b28f063a79f", "fusion_lon": 0.0, "is_reserved": 0, "type": "electric_scooter", "name": "7a1dae2fd5faa1ff62f71b28f063a79f", "lon": -77.03214316666667, "rental_uris": {"android": "https://dc.lft.to/lastmile_qr_scan", "ios": "https://dc.lft.to/lastmile_qr_scan"}, "fusion_lat": 0.0}, {"is_disabled": 0, "lat": 38.914201166666665, "bike_id": "bc51f7155370b22a48453866dab7c3aa", "fusion_lon": 0.0, "is_reserved": 0, "type": "electric_scooter", "name": "bc51f7155370b22a48453866dab7c3aa", "lon": -77.0239, "rental_uris": {"android": "https://dc.lft.to/lastmile_qr_scan", "ios": "https://dc.lft.to/lastmile_qr_scan"}, "fusion_lat": 0.0}, {"is_disabled": 0, "lat": 38.8999195, "bike_id": "839d9227d86e77e8574cf12b75c87e1e", "fusion_lon": 0.0, "is_reserved": 0, "type": "electric_scooter", "name": "839d9227d86e77e8574cf12b75c87e1e", "lon": -77.02160533333333, "rental_uris": {"android": "https://dc.lft.to/lastmile_qr_scan", "ios": "https://dc.lft.to/lastmile_qr_scan"}, "fusion_lat": 0.0}, {"is_disabled": 0, "lat": 38.931706166666665, "bike_id": "01ab6a17254b3d29c91b8f7618474dfb", "fusion_lon": 0.0, "is_reserved": 0, "type": "electric_scooter", "name": "01ab6a17254b3d29c91b8f7618474dfb", "lon": -77.07075633333334, "rental_uris": {"android": "https://dc.lft.to/lastmile_qr_scan", "ios": "https://dc.lft.to/lastmile_qr_scan"}, "fusion_lat": 0.0}, {"is_disabled": 0, "lat": 38.9307855, "bike_id": "c1733f1f5b76ec851b8f15fe070158a5", "fusion_lon": 0.0, "is_reserved": 0, "type": "electric_scooter", "name": "c1733f1f5b76ec851b8f15fe070158a5", "lon": -77.02353716666667, "rental_uris": {"android": "https://dc.lft.to/lastmile_qr_scan", "ios": "https://dc.lft.to/lastmile_qr_scan"}, "fusion_lat": 0.0}, {"is_disabled": 0, "lat": 38.919265, "bike_id": "1c92e2f409ad8340b2f94d9ce46d357c", "fusion_lon": 0.0, "is_reserved": 0, "type": "electric_scooter", "name": "1c92e2f409ad8340b2f94d9ce46d357c", "lon": -77.02422616666666, "rental_uris": {"android": "https://dc.lft.to/lastmile_qr_scan", "ios": "https://dc.lft.to/lastmile_qr_scan"}, "fusion_lat": 0.0}, {"is_disabled": 0, "lat": 38.90646233333333, "bike_id": "9f2e0ff90a6691c075593e471421f2f7", "fusion_lon": 0.0, "is_reserved": 0, "type": "electric_scooter", "name": "9f2e0ff90a6691c075593e471421f2f7", "lon": -77.0386245, "rental_uris": {"android": "https://dc.lft.to/lastmile_qr_scan", "ios": "https://dc.lft.to/lastmile_qr_scan"}, "fusion_lat": 0.0}, {"is_disabled": 0, "lat": 38.89927816666667, "bike_id": "e5ff39915c506e69a45e06caae698467", "fusion_lon": 0.0, "is_reserved": 0, "type": "electric_scooter", "name": "e5ff39915c506e69a45e06caae698467", "lon": -77.00053416666667, "rental_uris": {"android": "https://dc.lft.to/lastmile_qr_scan", "ios": "https://dc.lft.to/lastmile_qr_scan"}, "fusion_lat": 0.0}, {"is_disabled": 0, "lat": 38.892243, "bike_id": "476df289c1ef2fd2cf9df4a26518bca2", "fusion_lon": 0.0, "is_reserved": 0, "type": "electric_scooter", "name": "476df289c1ef2fd2cf9df4a26518bca2", "lon": -77.02641116666666, "rental_uris": {"android": "https://dc.lft.to/lastmile_qr_scan", "ios": "https://dc.lft.to/lastmile_qr_scan"}, "fusion_lat": 0.0}, {"is_disabled": 0, "lat": 38.86626183333333, "bike_id": "470fb2648aa30878558e7021f5afeb3d", "fusion_lon": 0.0, "is_reserved": 0, "type": "electric_scooter", "name": "470fb2648aa30878558e7021f5afeb3d", "lon": -76.98718033333333, "rental_uris": {"android": "https://dc.lft.to/lastmile_qr_scan", "ios": "https://dc.lft.to/lastmile_qr_scan"}, "fusion_lat": 0.0}, {"is_disabled": 0, "lat": 38.914082666666665, "bike_id": "42128198659da91990637b86f58f284f", "fusion_lon": 0.0, "is_reserved": 0, "type": "electric_scooter", "name": "42128198659da91990637b86f58f284f", "lon": -77.02118266666666, "rental_uris": {"android": "https://dc.lft.to/lastmile_qr_scan", "ios": "https://dc.lft.to/lastmile_qr_scan"}, "fusion_lat": 0.0}, {"is_disabled": 0, "lat": 38.905539833333336, "bike_id": "1b9259f51142fe69d6ab85ef0e8df556", "fusion_lon": 0.0, "is_reserved": 0, "type": "electric_scooter", "name": "1b9259f51142fe69d6ab85ef0e8df556", "lon": -77.0399745, "rental_uris": {"android": "https://dc.lft.to/lastmile_qr_scan", "ios": "https://dc.lft.to/lastmile_qr_scan"}, "fusion_lat": 0.0}, {"is_disabled": 0, "lat": 38.916275166666665, "bike_id": "e917222fe204196bdebc5cd4bc0cd546", "fusion_lon": 0.0, "is_reserved": 0, "type": "electric_scooter", "name": "e917222fe204196bdebc5cd4bc0cd546", "lon": -77.00736683333334, "rental_uris": {"android": "https://dc.lft.to/lastmile_qr_scan", "ios": "https://dc.lft.to/lastmile_qr_scan"}, "fusion_lat": 0.0}, {"is_disabled": 0, "lat": 38.99945366666667, "bike_id": "228734d333e31193ce3233ea4a256d15", "fusion_lon": 0.0, "is_reserved": 0, "type": "electric_bike", "name": "228734d333e31193ce3233ea4a256d15", "lon": -77.074358, "rental_uris": {"android": "https://dc.lft.to/lastmile_qr_scan", "ios": "https://dc.lft.to/lastmile_qr_scan"}, "fusion_lat": 0.0}, {"is_disabled": 0, "lat": 38.9100415, "bike_id": "e54b3a77fe694048865ec61d9661cd71", "fusion_lon": 0.0, "is_reserved": 0, "type": "electric_bike", "name": "e54b3a77fe694048865ec61d9661cd71", "lon": -77.04615766666667, "rental_uris": {"android": "https://dc.lft.to/lastmile_qr_scan", "ios": "https://dc.lft.to/lastmile_qr_scan"}, "fusion_lat": 0.0}, {"is_disabled": 0, "lat": 38.905589666666664, "bike_id": "0fc498d567245753a7ba9b2d9c917e92", "fusion_lon": 0.0, "is_reserved": 0, "type": "electric_scooter", "name": "0fc498d567245753a7ba9b2d9c917e92", "lon": -77.00583783333333, "rental_uris": {"android": "https://dc.lft.to/lastmile_qr_scan", "ios": "https://dc.lft.to/lastmile_qr_scan"}, "fusion_lat": 0.0}, {"is_disabled": 0, "lat": 38.904038666666665, "bike_id": "8cce824d2ddcd698bcedab685a608ae6", "fusion_lon": 0.0, "is_reserved": 0, "type": "electric_scooter", "name": "8cce824d2ddcd698bcedab685a608ae6", "lon": -76.9742295, "rental_uris": {"android": "https://dc.lft.to/lastmile_qr_scan", "ios": "https://dc.lft.to/lastmile_qr_scan"}, "fusion_lat": 0.0}, {"is_disabled": 0, "lat": 38.8626165, "bike_id": "0f03b020ca29b2929312722389f6eaac", "fusion_lon": 0.0, "is_reserved": 0, "type": "electric_bike", "name": "0f03b020ca29b2929312722389f6eaac", "lon": -77.09062766666666, "rental_uris": {"android": "https://dc.lft.to/lastmile_qr_scan", "ios": "https://dc.lft.to/lastmile_qr_scan"}, "fusion_lat": 0.0}, {"is_disabled": 0, "lat": 38.90713733333333, "bike_id": "c8342433d0ee5278aa5834b7ef2a9b81", "fusion_lon": 0.0, "is_reserved": 0, "type": "electric_scooter", "name": "c8342433d0ee5278aa5834b7ef2a9b81", "lon": -77.04348516666667, "rental_uris": {"android": "https://dc.lft.to/lastmile_qr_scan", "ios": "https://dc.lft.to/lastmile_qr_scan"}, "fusion_lat": 0.0}, {"is_disabled": 0, "lat": 38.918747333333336, "bike_id": "1907acf4bac9d9530be48bb37da0ed82", "fusion_lon": 0.0, "is_reserved": 0, "type": "electric_scooter", "name": "1907acf4bac9d9530be48bb37da0ed82", "lon": -77.03469316666667, "rental_uris": {"android": "https://dc.lft.to/lastmile_qr_scan", "ios": "https://dc.lft.to/lastmile_qr_scan"}, "fusion_lat": 0.0}, {"is_disabled": 0, "lat": 38.901162166666666, "bike_id": "6d3737342bba7fa9df10bdce230c94b2", "fusion_lon": 0.0, "is_reserved": 0, "type": "electric_scooter", "name": "6d3737342bba7fa9df10bdce230c94b2", "lon": -76.98625666666666, "rental_uris": {"android": "https://dc.lft.to/lastmile_qr_scan", "ios": "https://dc.lft.to/lastmile_qr_scan"}, "fusion_lat": 0.0}, {"is_disabled": 0, "lat": 38.937161, "bike_id": "23f59a022108109ee0ea13adff1306fd", "fusion_lon": 0.0, "is_reserved": 0, "type": "electric_scooter", "name": "23f59a022108109ee0ea13adff1306fd", "lon": -77.02425433333333, "rental_uris": {"android": "https://dc.lft.to/lastmile_qr_scan", "ios": "https://dc.lft.to/lastmile_qr_scan"}, "fusion_lat": 0.0}, {"is_disabled": 0, "lat": 38.8436685, "bike_id": "f6316496bfabac5d0116cfad896af693", "fusion_lon": 0.0, "is_reserved": 0, "type": "electric_bike", "name": "f6316496bfabac5d0116cfad896af693", "lon": -76.97829916666667, "rental_uris": {"android": "https://dc.lft.to/lastmile_qr_scan", "ios": "https://dc.lft.to/lastmile_qr_scan"}, "fusion_lat": 0.0}, {"is_disabled": 0, "lat": 38.84434566666667, "bike_id": "c978638edbd63e4447009bc8465005aa", "fusion_lon": 0.0, "is_reserved": 0, "type": "electric_scooter", "name": "c978638edbd63e4447009bc8465005aa", "lon": -76.99777516666667, "rental_uris": {"android": "https://dc.lft.to/lastmile_qr_scan", "ios": "https://dc.lft.to/lastmile_qr_scan"}, "fusion_lat": 0.0}, {"is_disabled": 0, "lat": 38.91553183333333, "bike_id": "da5e743fa0c23af1a00966533f2788d3", "fusion_lon": 0.0, "is_reserved": 0, "type": "electric_scooter", "name": "da5e743fa0c23af1a00966533f2788d3", "lon": -77.03227883333334, "rental_uris": {"android": "https://dc.lft.to/lastmile_qr_scan", "ios": "https://dc.lft.to/lastmile_qr_scan"}, "fusion_lat": 0.0}, {"is_disabled": 0, "lat": 38.914202333333336, "bike_id": "a1e358905d5223eb938fac3ea85d73a6", "fusion_lon": 0.0, "is_reserved": 0, "type": "electric_bike", "name": "a1e358905d5223eb938fac3ea85d73a6", "lon": -77.0216215, "rental_uris": {"android": "https://dc.lft.to/lastmile_qr_scan", "ios": "https://dc.lft.to/lastmile_qr_scan"}, "fusion_lat": 0.0}, {"is_disabled": 0, "lat": 38.893237, "bike_id": "304af2b01a9c18162b85678e5e2e35c7", "fusion_lon": 0.0, "is_reserved": 0, "type": "electric_scooter", "name": "304af2b01a9c18162b85678e5e2e35c7", "lon": -76.94381233333333, "rental_uris": {"android": "https://dc.lft.to/lastmile_qr_scan", "ios": "https://dc.lft.to/lastmile_qr_scan"}, "fusion_lat": 0.0}, {"is_disabled": 0, "lat": 38.92349266666667, "bike_id": "06cff648751d0775ae7e10780dea8a74", "fusion_lon": 0.0, "is_reserved": 0, "type": "electric_scooter", "name": "06cff648751d0775ae7e10780dea8a74", "lon": -77.05357933333333, "rental_uris": {"android": "https://dc.lft.to/lastmile_qr_scan", "ios": "https://dc.lft.to/lastmile_qr_scan"}, "fusion_lat": 0.0}, {"is_disabled": 0, "lat": 38.9235835, "bike_id": "f789c77dba6c07e7acf779a7df95d40a", "fusion_lon": 0.0, "is_reserved": 0, "type": "electric_scooter", "name": "f789c77dba6c07e7acf779a7df95d40a", "lon": -77.020566, "rental_uris": {"android": "https://dc.lft.to/lastmile_qr_scan", "ios": "https://dc.lft.to/lastmile_qr_scan"}, "fusion_lat": 0.0}, {"is_disabled": 0, "lat": 38.9077845, "bike_id": "ac470cc393bdd6d61a77daf9481b6c7b", "fusion_lon": 0.0, "is_reserved": 0, "type": "electric_scooter", "name": "ac470cc393bdd6d61a77daf9481b6c7b", "lon": -76.99998283333333, "rental_uris": {"android": "https://dc.lft.to/lastmile_qr_scan", "ios": "https://dc.lft.to/lastmile_qr_scan"}, "fusion_lat": 0.0}, {"is_disabled": 0, "lat": 38.9060695, "bike_id": "102d17918ded29ea78eb6a268dd2cd9e", "fusion_lon": 0.0, "is_reserved": 0, "type": "electric_scooter", "name": "102d17918ded29ea78eb6a268dd2cd9e", "lon": -77.031593, "rental_uris": {"android": "https://dc.lft.to/lastmile_qr_scan", "ios": "https://dc.lft.to/lastmile_qr_scan"}, "fusion_lat": 0.0}, {"is_disabled": 0, "lat": 38.9067765, "bike_id": "5a394b6d9407a8c6ce6ad3e82d4f3edf", "fusion_lon": 0.0, "is_reserved": 0, "type": "electric_scooter", "name": "5a394b6d9407a8c6ce6ad3e82d4f3edf", "lon": -77.03554033333333, "rental_uris": {"android": "https://dc.lft.to/lastmile_qr_scan", "ios": "https://dc.lft.to/lastmile_qr_scan"}, "fusion_lat": 0.0}, {"is_disabled": 0, "lat": 38.90963983333333, "bike_id": "94d5352fbbc99486239ac1997aa91d4b", "fusion_lon": 0.0, "is_reserved": 0, "type": "electric_scooter", "name": "94d5352fbbc99486239ac1997aa91d4b", "lon": -77.03348533333333, "rental_uris": {"android": "https://dc.lft.to/lastmile_qr_scan", "ios": "https://dc.lft.to/lastmile_qr_scan"}, "fusion_lat": 0.0}, {"is_disabled": 0, "lat": 38.925244666666664, "bike_id": "2970f9f6b76ba3ed2cd2947094bffe20", "fusion_lon": 0.0, "is_reserved": 0, "type": "electric_scooter", "name": "2970f9f6b76ba3ed2cd2947094bffe20", "lon": -77.02257866666666, "rental_uris": {"android": "https://dc.lft.to/lastmile_qr_scan", "ios": "https://dc.lft.to/lastmile_qr_scan"}, "fusion_lat": 0.0}, {"is_disabled": 0, "lat": 38.907309, "bike_id": "d6ffbb303556efad2acc3b7613f5f062", "fusion_lon": 0.0, "is_reserved": 0, "type": "electric_scooter", "name": "d6ffbb303556efad2acc3b7613f5f062", "lon": -77.026689, "rental_uris": {"android": "https://dc.lft.to/lastmile_qr_scan", "ios": "https://dc.lft.to/lastmile_qr_scan"}, "fusion_lat": 0.0}, {"is_disabled": 0, "lat": 38.862593, "bike_id": "be59c5c25ba960e676bbad57a97864a9", "fusion_lon": 0.0, "is_reserved": 0, "type": "electric_scooter", "name": "be59c5c25ba960e676bbad57a97864a9", "lon": -76.9870085, "rental_uris": {"android": "https://dc.lft.to/lastmile_qr_scan", "ios": "https://dc.lft.to/lastmile_qr_scan"}, "fusion_lat": 0.0}, {"is_disabled": 0, "lat": 38.8058475, "bike_id": "a0dbcd514677db13a4a9e0e493cd921a", "fusion_lon": 0.0, "is_reserved": 0, "type": "electric_bike", "name": "a0dbcd514677db13a4a9e0e493cd921a", "lon": -77.13247116666666, "rental_uris": {"android": "https://dc.lft.to/lastmile_qr_scan", "ios": "https://dc.lft.to/lastmile_qr_scan"}, "fusion_lat": 0.0}, {"is_disabled": 0, "lat": 38.954255833333335, "bike_id": "37251903c9684b03b4d44fa447ca0dcd", "fusion_lon": 0.0, "is_reserved": 0, "type": "electric_scooter", "name": "37251903c9684b03b4d44fa447ca0dcd", "lon": -77.027645, "rental_uris": {"android": "https://dc.lft.to/lastmile_qr_scan", "ios": "https://dc.lft.to/lastmile_qr_scan"}, "fusion_lat": 0.0}, {"is_disabled": 0, "lat": 38.92384233333333, "bike_id": "808196f9e3b57b2c1e32efa9ec730623", "fusion_lon": 0.0, "is_reserved": 0, "type": "electric_scooter", "name": "808196f9e3b57b2c1e32efa9ec730623", "lon": -77.0504485, "rental_uris": {"android": "https://dc.lft.to/lastmile_qr_scan", "ios": "https://dc.lft.to/lastmile_qr_scan"}, "fusion_lat": 0.0}, {"is_disabled": 0, "lat": 38.900197, "bike_id": "fa0ab6e22ac16152c336687593c13492", "fusion_lon": 0.0, "is_reserved": 0, "type": "electric_scooter", "name": "fa0ab6e22ac16152c336687593c13492", "lon": -77.01109, "rental_uris": {"android": "https://dc.lft.to/lastmile_qr_scan", "ios": "https://dc.lft.to/lastmile_qr_scan"}, "fusion_lat": 0.0}, {"is_disabled": 0, "lat": 38.905167166666665, "bike_id": "8bde1f70c29cc4f2e5abe80d390b43c0", "fusion_lon": 0.0, "is_reserved": 0, "type": "electric_scooter", "name": "8bde1f70c29cc4f2e5abe80d390b43c0", "lon": -77.04818133333333, "rental_uris": {"android": "https://dc.lft.to/lastmile_qr_scan", "ios": "https://dc.lft.to/lastmile_qr_scan"}, "fusion_lat": 0.0}, {"is_disabled": 0, "lat": 38.91740033333333, "bike_id": "057013e5eca4c7082d575eb57d9ef9e0", "fusion_lon": 0.0, "is_reserved": 0, "type": "electric_scooter", "name": "057013e5eca4c7082d575eb57d9ef9e0", "lon": -77.02112083333333, "rental_uris": {"android": "https://dc.lft.to/lastmile_qr_scan", "ios": "https://dc.lft.to/lastmile_qr_scan"}, "fusion_lat": 0.0}, {"is_disabled": 0, "lat": 38.8854905, "bike_id": "dc9d8bbf4bc0d274d4c576e07653e406", "fusion_lon": 0.0, "is_reserved": 0, "type": "electric_scooter", "name": "dc9d8bbf4bc0d274d4c576e07653e406", "lon": -77.0111835, "rental_uris": {"android": "https://dc.lft.to/lastmile_qr_scan", "ios": "https://dc.lft.to/lastmile_qr_scan"}, "fusion_lat": 0.0}, {"is_disabled": 0, "lat": 38.903756666666666, "bike_id": "266b4063c3955ff161e99b080579231e", "fusion_lon": 0.0, "is_reserved": 0, "type": "electric_scooter", "name": "266b4063c3955ff161e99b080579231e", "lon": -77.0417525, "rental_uris": {"android": "https://dc.lft.to/lastmile_qr_scan", "ios": "https://dc.lft.to/lastmile_qr_scan"}, "fusion_lat": 0.0}, {"is_disabled": 0, "lat": 38.905431, "bike_id": "46eab0fce28c75f428b0adb9b026667c", "fusion_lon": 0.0, "is_reserved": 0, "type": "electric_scooter", "name": "46eab0fce28c75f428b0adb9b026667c", "lon": -77.041888, "rental_uris": {"android": "https://dc.lft.to/lastmile_qr_scan", "ios": "https://dc.lft.to/lastmile_qr_scan"}, "fusion_lat": 0.0}, {"is_disabled": 0, "lat": 38.92840316666667, "bike_id": "43e7b97ce317e2e48ca462b09ecadd2e", "fusion_lon": 0.0, "is_reserved": 0, "type": "electric_scooter", "name": "43e7b97ce317e2e48ca462b09ecadd2e", "lon": -77.01423233333334, "rental_uris": {"android": "https://dc.lft.to/lastmile_qr_scan", "ios": "https://dc.lft.to/lastmile_qr_scan"}, "fusion_lat": 0.0}, {"is_disabled": 0, "lat": 38.92475816666666, "bike_id": "89f9df5553c46b649032c88fd3695559", "fusion_lon": 0.0, "is_reserved": 0, "type": "electric_scooter", "name": "89f9df5553c46b649032c88fd3695559", "lon": -77.02832533333333, "rental_uris": {"android": "https://dc.lft.to/lastmile_qr_scan", "ios": "https://dc.lft.to/lastmile_qr_scan"}, "fusion_lat": 0.0}, {"is_disabled": 0, "lat": 38.91242316666667, "bike_id": "a24d78d9f1bbfac4b46b78582674217f", "fusion_lon": 0.0, "is_reserved": 0, "type": "electric_scooter", "name": "a24d78d9f1bbfac4b46b78582674217f", "lon": -77.05931633333333, "rental_uris": {"android": "https://dc.lft.to/lastmile_qr_scan", "ios": "https://dc.lft.to/lastmile_qr_scan"}, "fusion_lat": 0.0}, {"is_disabled": 0, "lat": 39.051958666666664, "bike_id": "54ea50698ca6ba2c973a695d67a7aa6d", "fusion_lon": 0.0, "is_reserved": 0, "type": "electric_bike", "name": "54ea50698ca6ba2c973a695d67a7aa6d", "lon": -77.10925466666667, "rental_uris": {"android": "https://dc.lft.to/lastmile_qr_scan", "ios": "https://dc.lft.to/lastmile_qr_scan"}, "fusion_lat": 0.0}, {"is_disabled": 0, "lat": 38.913113, "bike_id": "21c74e8df92ac3674cf8e9dd938d27e4", "fusion_lon": 0.0, "is_reserved": 0, "type": "electric_scooter", "name": "21c74e8df92ac3674cf8e9dd938d27e4", "lon": -77.00827666666666, "rental_uris": {"android": "https://dc.lft.to/lastmile_qr_scan", "ios": "https://dc.lft.to/lastmile_qr_scan"}, "fusion_lat": 0.0}, {"is_disabled": 0, "lat": 38.911037, "bike_id": "e51c843c74f426e1739da376fe9b8c5b", "fusion_lon": 0.0, "is_reserved": 0, "type": "electric_scooter", "name": "e51c843c74f426e1739da376fe9b8c5b", "lon": -76.9971635, "rental_uris": {"android": "https://dc.lft.to/lastmile_qr_scan", "ios": "https://dc.lft.to/lastmile_qr_scan"}, "fusion_lat": 0.0}, {"is_disabled": 0, "lat": 38.896310166666666, "bike_id": "bc11269ac47770d50646952cded794fd", "fusion_lon": 0.0, "is_reserved": 0, "type": "electric_scooter", "name": "bc11269ac47770d50646952cded794fd", "lon": -77.04004433333333, "rental_uris": {"android": "https://dc.lft.to/lastmile_qr_scan", "ios": "https://dc.lft.to/lastmile_qr_scan"}, "fusion_lat": 0.0}, {"is_disabled": 0, "lat": 38.89813616666667, "bike_id": "63ab46ffd415f70c0fddf152b17d390e", "fusion_lon": 0.0, "is_reserved": 0, "type": "electric_scooter", "name": "63ab46ffd415f70c0fddf152b17d390e", "lon": -77.0269165, "rental_uris": {"android": "https://dc.lft.to/lastmile_qr_scan", "ios": "https://dc.lft.to/lastmile_qr_scan"}, "fusion_lat": 0.0}, {"is_disabled": 0, "lat": 38.901875, "bike_id": "1da2ef51e4374448d4056bbf75da5afb", "fusion_lon": 0.0, "is_reserved": 0, "type": "electric_scooter", "name": "1da2ef51e4374448d4056bbf75da5afb", "lon": -76.92997433333333, "rental_uris": {"android": "https://dc.lft.to/lastmile_qr_scan", "ios": "https://dc.lft.to/lastmile_qr_scan"}, "fusion_lat": 0.0}, {"is_disabled": 0, "lat": 38.903571, "bike_id": "f63d5fa471489ded064cd177560af1c5", "fusion_lon": 0.0, "is_reserved": 0, "type": "electric_scooter", "name": "f63d5fa471489ded064cd177560af1c5", "lon": -77.0466985, "rental_uris": {"android": "https://dc.lft.to/lastmile_qr_scan", "ios": "https://dc.lft.to/lastmile_qr_scan"}, "fusion_lat": 0.0}, {"is_disabled": 0, "lat": 38.89959666666667, "bike_id": "888f2ca0dc098ce1c4446cab2c7faec2", "fusion_lon": 0.0, "is_reserved": 0, "type": "electric_scooter", "name": "888f2ca0dc098ce1c4446cab2c7faec2", "lon": -76.97618016666667, "rental_uris": {"android": "https://dc.lft.to/lastmile_qr_scan", "ios": "https://dc.lft.to/lastmile_qr_scan"}, "fusion_lat": 0.0}, {"is_disabled": 0, "lat": 38.906165, "bike_id": "d218c520448c9fda706e99905eeb2d87", "fusion_lon": 0.0, "is_reserved": 0, "type": "electric_scooter", "name": "d218c520448c9fda706e99905eeb2d87", "lon": -76.98650866666667, "rental_uris": {"android": "https://dc.lft.to/lastmile_qr_scan", "ios": "https://dc.lft.to/lastmile_qr_scan"}, "fusion_lat": 0.0}, {"is_disabled": 0, "lat": 38.935247833333335, "bike_id": "21db18a8783641faa3a0c9522391d20a", "fusion_lon": 0.0, "is_reserved": 0, "type": "electric_scooter", "name": "21db18a8783641faa3a0c9522391d20a", "lon": -77.03263116666666, "rental_uris": {"android": "https://dc.lft.to/lastmile_qr_scan", "ios": "https://dc.lft.to/lastmile_qr_scan"}, "fusion_lat": 0.0}, {"is_disabled": 0, "lat": 38.887777166666666, "bike_id": "3b877a8e1839c64f9f8e403f44f75214", "fusion_lon": 0.0, "is_reserved": 0, "type": "electric_scooter", "name": "3b877a8e1839c64f9f8e403f44f75214", "lon": -76.97713433333334, "rental_uris": {"android": "https://dc.lft.to/lastmile_qr_scan", "ios": "https://dc.lft.to/lastmile_qr_scan"}, "fusion_lat": 0.0}, {"is_disabled": 0, "lat": 38.897442833333336, "bike_id": "a711e6dad83ec01099e557fba180aaa7", "fusion_lon": 0.0, "is_reserved": 0, "type": "electric_scooter", "name": "a711e6dad83ec01099e557fba180aaa7", "lon": -77.01883533333333, "rental_uris": {"android": "https://dc.lft.to/lastmile_qr_scan", "ios": "https://dc.lft.to/lastmile_qr_scan"}, "fusion_lat": 0.0}, {"is_disabled": 0, "lat": 38.91320866666667, "bike_id": "0bb6080a41b7255f477c912d77270352", "fusion_lon": 0.0, "is_reserved": 0, "type": "electric_scooter", "name": "0bb6080a41b7255f477c912d77270352", "lon": -77.0188735, "rental_uris": {"android": "https://dc.lft.to/lastmile_qr_scan", "ios": "https://dc.lft.to/lastmile_qr_scan"}, "fusion_lat": 0.0}, {"is_disabled": 0, "lat": 38.8954365, "bike_id": "4f5db50e4900678ae81a31b6e4709153", "fusion_lon": 0.0, "is_reserved": 0, "type": "electric_scooter", "name": "4f5db50e4900678ae81a31b6e4709153", "lon": -76.99522733333333, "rental_uris": {"android": "https://dc.lft.to/lastmile_qr_scan", "ios": "https://dc.lft.to/lastmile_qr_scan"}, "fusion_lat": 0.0}, {"is_disabled": 0, "lat": 38.940038333333334, "bike_id": "51b6918525756655ff3c022e864709d2", "fusion_lon": 0.0, "is_reserved": 0, "type": "electric_scooter", "name": "51b6918525756655ff3c022e864709d2", "lon": -77.07235716666666, "rental_uris": {"android": "https://dc.lft.to/lastmile_qr_scan", "ios": "https://dc.lft.to/lastmile_qr_scan"}, "fusion_lat": 0.0}, {"is_disabled": 0, "lat": 38.896468166666665, "bike_id": "cd1620c59069f780caf48855621a4aec", "fusion_lon": 0.0, "is_reserved": 0, "type": "electric_scooter", "name": "cd1620c59069f780caf48855621a4aec", "lon": -77.00795383333333, "rental_uris": {"android": "https://dc.lft.to/lastmile_qr_scan", "ios": "https://dc.lft.to/lastmile_qr_scan"}, "fusion_lat": 0.0}, {"is_disabled": 0, "lat": 38.8592305, "bike_id": "85277d7bc4ce84fcf57c2f2c7b688af4", "fusion_lon": 0.0, "is_reserved": 0, "type": "electric_scooter", "name": "85277d7bc4ce84fcf57c2f2c7b688af4", "lon": -76.96773733333333, "rental_uris": {"android": "https://dc.lft.to/lastmile_qr_scan", "ios": "https://dc.lft.to/lastmile_qr_scan"}, "fusion_lat": 0.0}, {"is_disabled": 0, "lat": 38.897308333333335, "bike_id": "4d13746b52ea9eecf92341038aa92ac6", "fusion_lon": 0.0, "is_reserved": 0, "type": "electric_scooter", "name": "4d13746b52ea9eecf92341038aa92ac6", "lon": -77.02718466666667, "rental_uris": {"android": "https://dc.lft.to/lastmile_qr_scan", "ios": "https://dc.lft.to/lastmile_qr_scan"}, "fusion_lat": 0.0}, {"is_disabled": 0, "lat": 38.88304983333333, "bike_id": "15160a9d97d6dc601f4e028db85933e2", "fusion_lon": 0.0, "is_reserved": 0, "type": "electric_scooter", "name": "15160a9d97d6dc601f4e028db85933e2", "lon": -76.97868133333333, "rental_uris": {"android": "https://dc.lft.to/lastmile_qr_scan", "ios": "https://dc.lft.to/lastmile_qr_scan"}, "fusion_lat": 0.0}, {"is_disabled": 0, "lat": 38.97811983333333, "bike_id": "548dd0e4e6199f8e2d7da42e58cb122f", "fusion_lon": 0.0, "is_reserved": 0, "type": "electric_scooter", "name": "548dd0e4e6199f8e2d7da42e58cb122f", "lon": -77.0264355, "rental_uris": {"android": "https://dc.lft.to/lastmile_qr_scan", "ios": "https://dc.lft.to/lastmile_qr_scan"}, "fusion_lat": 0.0}, {"is_disabled": 0, "lat": 38.901195333333334, "bike_id": "b56994f178412b78d3ca049a97ad30eb", "fusion_lon": 0.0, "is_reserved": 0, "type": "electric_scooter", "name": "b56994f178412b78d3ca049a97ad30eb", "lon": -77.048718, "rental_uris": {"android": "https://dc.lft.to/lastmile_qr_scan", "ios": "https://dc.lft.to/lastmile_qr_scan"}, "fusion_lat": 0.0}, {"is_disabled": 0, "lat": 38.838999, "bike_id": "4634545fb274fa5c18146f8e92ecd2ee", "fusion_lon": 0.0, "is_reserved": 0, "type": "electric_bike", "name": "4634545fb274fa5c18146f8e92ecd2ee", "lon": -77.08773383333333, "rental_uris": {"android": "https://dc.lft.to/lastmile_qr_scan", "ios": "https://dc.lft.to/lastmile_qr_scan"}, "fusion_lat": 0.0}, {"is_disabled": 0, "lat": 38.9169935, "bike_id": "892920b23645cfa658a30c796e62e196", "fusion_lon": 0.0, "is_reserved": 0, "type": "electric_scooter", "name": "892920b23645cfa658a30c796e62e196", "lon": -77.035873, "rental_uris": {"android": "https://dc.lft.to/lastmile_qr_scan", "ios": "https://dc.lft.to/lastmile_qr_scan"}, "fusion_lat": 0.0}, {"is_disabled": 0, "lat": 38.88556583333333, "bike_id": "a102cfe58497e83cbc06d251c5719159", "fusion_lon": 0.0, "is_reserved": 0, "type": "electric_scooter", "name": "a102cfe58497e83cbc06d251c5719159", "lon": -76.9962055, "rental_uris": {"android": "https://dc.lft.to/lastmile_qr_scan", "ios": "https://dc.lft.to/lastmile_qr_scan"}, "fusion_lat": 0.0}, {"is_disabled": 0, "lat": 38.92843466666667, "bike_id": "85c5862e0430af430a1041d6f7955c16", "fusion_lon": 0.0, "is_reserved": 0, "type": "electric_scooter", "name": "85c5862e0430af430a1041d6f7955c16", "lon": -77.0329255, "rental_uris": {"android": "https://dc.lft.to/lastmile_qr_scan", "ios": "https://dc.lft.to/lastmile_qr_scan"}, "fusion_lat": 0.0}, {"is_disabled": 0, "lat": 38.861135833333336, "bike_id": "4e63370a7de8709eecc187fc4ef0a802", "fusion_lon": 0.0, "is_reserved": 0, "type": "electric_scooter", "name": "4e63370a7de8709eecc187fc4ef0a802", "lon": -76.98373633333334, "rental_uris": {"android": "https://dc.lft.to/lastmile_qr_scan", "ios": "https://dc.lft.to/lastmile_qr_scan"}, "fusion_lat": 0.0}, {"is_disabled": 0, "lat": 38.905813333333334, "bike_id": "e4f2b9c995fcec366ff003472648ec94", "fusion_lon": 0.0, "is_reserved": 0, "type": "electric_scooter", "name": "e4f2b9c995fcec366ff003472648ec94", "lon": -77.06271883333334, "rental_uris": {"android": "https://dc.lft.to/lastmile_qr_scan", "ios": "https://dc.lft.to/lastmile_qr_scan"}, "fusion_lat": 0.0}, {"is_disabled": 0, "lat": 38.9414045, "bike_id": "decb31a62f182d1f3ea51379cf0a190b", "fusion_lon": 0.0, "is_reserved": 0, "type": "electric_scooter", "name": "decb31a62f182d1f3ea51379cf0a190b", "lon": -77.025505, "rental_uris": {"android": "https://dc.lft.to/lastmile_qr_scan", "ios": "https://dc.lft.to/lastmile_qr_scan"}, "fusion_lat": 0.0}, {"is_disabled": 0, "lat": 38.9084515, "bike_id": "b55fb00df45c942996bee60f0be585b2", "fusion_lon": 0.0, "is_reserved": 0, "type": "electric_scooter", "name": "b55fb00df45c942996bee60f0be585b2", "lon": -77.0319985, "rental_uris": {"android": "https://dc.lft.to/lastmile_qr_scan", "ios": "https://dc.lft.to/lastmile_qr_scan"}, "fusion_lat": 0.0}, {"is_disabled": 0, "lat": 38.92098283333333, "bike_id": "5beddfcccdab94797677068bafb48a0c", "fusion_lon": 0.0, "is_reserved": 0, "type": "electric_bike", "name": "5beddfcccdab94797677068bafb48a0c", "lon": -77.06333766666667, "rental_uris": {"android": "https://dc.lft.to/lastmile_qr_scan", "ios": "https://dc.lft.to/lastmile_qr_scan"}, "fusion_lat": 0.0}, {"is_disabled": 0, "lat": 38.9002865, "bike_id": "03c37985c15d99a6866914e6069180a6", "fusion_lon": 0.0, "is_reserved": 0, "type": "electric_scooter", "name": "03c37985c15d99a6866914e6069180a6", "lon": -76.99744633333333, "rental_uris": {"android": "https://dc.lft.to/lastmile_qr_scan", "ios": "https://dc.lft.to/lastmile_qr_scan"}, "fusion_lat": 0.0}, {"is_disabled": 0, "lat": 38.84298183333333, "bike_id": "97c635f635732183d6e50524c51abac4", "fusion_lon": 0.0, "is_reserved": 0, "type": "electric_scooter", "name": "97c635f635732183d6e50524c51abac4", "lon": -76.99933, "rental_uris": {"android": "https://dc.lft.to/lastmile_qr_scan", "ios": "https://dc.lft.to/lastmile_qr_scan"}, "fusion_lat": 0.0}, {"is_disabled": 0, "lat": 38.9289815, "bike_id": "26cbaa5c9be3a3f5f1d8b253a0a58b63", "fusion_lon": 0.0, "is_reserved": 0, "type": "electric_scooter", "name": "26cbaa5c9be3a3f5f1d8b253a0a58b63", "lon": -77.05940816666667, "rental_uris": {"android": "https://dc.lft.to/lastmile_qr_scan", "ios": "https://dc.lft.to/lastmile_qr_scan"}, "fusion_lat": 0.0}, {"is_disabled": 0, "lat": 38.895233166666664, "bike_id": "1fbdd744176262694524871714944eb4", "fusion_lon": 0.0, "is_reserved": 0, "type": "electric_scooter", "name": "1fbdd744176262694524871714944eb4", "lon": -77.00342216666667, "rental_uris": {"android": "https://dc.lft.to/lastmile_qr_scan", "ios": "https://dc.lft.to/lastmile_qr_scan"}, "fusion_lat": 0.0}, {"is_disabled": 0, "lat": 38.89549733333333, "bike_id": "d20bd43a18c00c770980d66dd8fb79eb", "fusion_lon": 0.0, "is_reserved": 0, "type": "electric_scooter", "name": "d20bd43a18c00c770980d66dd8fb79eb", "lon": -76.94877633333333, "rental_uris": {"android": "https://dc.lft.to/lastmile_qr_scan", "ios": "https://dc.lft.to/lastmile_qr_scan"}, "fusion_lat": 0.0}, {"is_disabled": 0, "lat": 38.90549133333333, "bike_id": "292d33139d25f562cabf504a71934bc0", "fusion_lon": 0.0, "is_reserved": 0, "type": "electric_scooter", "name": "292d33139d25f562cabf504a71934bc0", "lon": -77.047499, "rental_uris": {"android": "https://dc.lft.to/lastmile_qr_scan", "ios": "https://dc.lft.to/lastmile_qr_scan"}, "fusion_lat": 0.0}, {"is_disabled": 0, "lat": 38.971893666666666, "bike_id": "a966ca0b6f4d5186b4bffc66e8c477d7", "fusion_lon": 0.0, "is_reserved": 0, "type": "electric_bike", "name": "a966ca0b6f4d5186b4bffc66e8c477d7", "lon": -76.99378166666666, "rental_uris": {"android": "https://dc.lft.to/lastmile_qr_scan", "ios": "https://dc.lft.to/lastmile_qr_scan"}, "fusion_lat": 0.0}, {"is_disabled": 0, "lat": 38.900192833333335, "bike_id": "a3b4d764cd3a71f7f0f07e3ac5fac489", "fusion_lon": 0.0, "is_reserved": 0, "type": "electric_scooter", "name": "a3b4d764cd3a71f7f0f07e3ac5fac489", "lon": -76.99632566666666, "rental_uris": {"android": "https://dc.lft.to/lastmile_qr_scan", "ios": "https://dc.lft.to/lastmile_qr_scan"}, "fusion_lat": 0.0}, {"is_disabled": 0, "lat": 38.97368866666667, "bike_id": "256d869361314d2abb151d2ae15f6353", "fusion_lon": 0.0, "is_reserved": 0, "type": "electric_scooter", "name": "256d869361314d2abb151d2ae15f6353", "lon": -77.01864366666666, "rental_uris": {"android": "https://dc.lft.to/lastmile_qr_scan", "ios": "https://dc.lft.to/lastmile_qr_scan"}, "fusion_lat": 0.0}, {"is_disabled": 0, "lat": 38.91971433333333, "bike_id": "566d6f5ceebc7cbe275b1672d2adebf8", "fusion_lon": 0.0, "is_reserved": 0, "type": "electric_scooter", "name": "566d6f5ceebc7cbe275b1672d2adebf8", "lon": -77.0419905, "rental_uris": {"android": "https://dc.lft.to/lastmile_qr_scan", "ios": "https://dc.lft.to/lastmile_qr_scan"}, "fusion_lat": 0.0}, {"is_disabled": 0, "lat": 38.917660833333336, "bike_id": "c3f6cc2e3ccb6dbd47586fb6ba3ad7de", "fusion_lon": 0.0, "is_reserved": 0, "type": "electric_scooter", "name": "c3f6cc2e3ccb6dbd47586fb6ba3ad7de", "lon": -77.01075733333333, "rental_uris": {"android": "https://dc.lft.to/lastmile_qr_scan", "ios": "https://dc.lft.to/lastmile_qr_scan"}, "fusion_lat": 0.0}, {"is_disabled": 0, "lat": 38.93602, "bike_id": "91bfcf51312ca9e62cca6529038914d0", "fusion_lon": 0.0, "is_reserved": 0, "type": "electric_scooter", "name": "91bfcf51312ca9e62cca6529038914d0", "lon": -77.03159183333334, "rental_uris": {"android": "https://dc.lft.to/lastmile_qr_scan", "ios": "https://dc.lft.to/lastmile_qr_scan"}, "fusion_lat": 0.0}, {"is_disabled": 0, "lat": 38.9105285, "bike_id": "a85d3ca8369ede8977ccb21fe7a0d22c", "fusion_lon": 0.0, "is_reserved": 0, "type": "electric_bike", "name": "a85d3ca8369ede8977ccb21fe7a0d22c", "lon": -77.0557505, "rental_uris": {"android": "https://dc.lft.to/lastmile_qr_scan", "ios": "https://dc.lft.to/lastmile_qr_scan"}, "fusion_lat": 0.0}, {"is_disabled": 0, "lat": 38.908797166666666, "bike_id": "7d231d2d90c1bf9a270dce40750d6f67", "fusion_lon": 0.0, "is_reserved": 0, "type": "electric_bike", "name": "7d231d2d90c1bf9a270dce40750d6f67", "lon": -77.06418966666666, "rental_uris": {"android": "https://dc.lft.to/lastmile_qr_scan", "ios": "https://dc.lft.to/lastmile_qr_scan"}, "fusion_lat": 0.0}, {"is_disabled": 0, "lat": 38.896187, "bike_id": "5f43370310c6cc2d7d760f98722cd6a1", "fusion_lon": 0.0, "is_reserved": 0, "type": "electric_scooter", "name": "5f43370310c6cc2d7d760f98722cd6a1", "lon": -77.02384316666667, "rental_uris": {"android": "https://dc.lft.to/lastmile_qr_scan", "ios": "https://dc.lft.to/lastmile_qr_scan"}, "fusion_lat": 0.0}, {"is_disabled": 0, "lat": 38.92204433333333, "bike_id": "73ac013c6f9061b98c4892e993a4d95e", "fusion_lon": 0.0, "is_reserved": 0, "type": "electric_scooter", "name": "73ac013c6f9061b98c4892e993a4d95e", "lon": -77.04339783333333, "rental_uris": {"android": "https://dc.lft.to/lastmile_qr_scan", "ios": "https://dc.lft.to/lastmile_qr_scan"}, "fusion_lat": 0.0}, {"is_disabled": 0, "lat": 38.930698166666666, "bike_id": "b149f03603037c1e6d611ef245185cdc", "fusion_lon": 0.0, "is_reserved": 0, "type": "electric_scooter", "name": "b149f03603037c1e6d611ef245185cdc", "lon": -77.038033, "rental_uris": {"android": "https://dc.lft.to/lastmile_qr_scan", "ios": "https://dc.lft.to/lastmile_qr_scan"}, "fusion_lat": 0.0}, {"is_disabled": 0, "lat": 38.88740383333333, "bike_id": "9d7ac436e0080e538e1837eea14eed5a", "fusion_lon": 0.0, "is_reserved": 0, "type": "electric_scooter", "name": "9d7ac436e0080e538e1837eea14eed5a", "lon": -77.01532633333333, "rental_uris": {"android": "https://dc.lft.to/lastmile_qr_scan", "ios": "https://dc.lft.to/lastmile_qr_scan"}, "fusion_lat": 0.0}, {"is_disabled": 0, "lat": 38.8937595, "bike_id": "d8aeee882831e113b7e22e28ef9c85af", "fusion_lon": 0.0, "is_reserved": 0, "type": "electric_scooter", "name": "d8aeee882831e113b7e22e28ef9c85af", "lon": -76.94195216666667, "rental_uris": {"android": "https://dc.lft.to/lastmile_qr_scan", "ios": "https://dc.lft.to/lastmile_qr_scan"}, "fusion_lat": 0.0}, {"is_disabled": 0, "lat": 38.886299666666666, "bike_id": "72a7bd20b23bc8898eb73c009076bf00", "fusion_lon": 0.0, "is_reserved": 0, "type": "electric_scooter", "name": "72a7bd20b23bc8898eb73c009076bf00", "lon": -76.94682833333333, "rental_uris": {"android": "https://dc.lft.to/lastmile_qr_scan", "ios": "https://dc.lft.to/lastmile_qr_scan"}, "fusion_lat": 0.0}, {"is_disabled": 0, "lat": 38.8877065, "bike_id": "e80f4dff5da12ab3b1366ddbb1dd2545", "fusion_lon": 0.0, "is_reserved": 0, "type": "electric_scooter", "name": "e80f4dff5da12ab3b1366ddbb1dd2545", "lon": -76.99756583333334, "rental_uris": {"android": "https://dc.lft.to/lastmile_qr_scan", "ios": "https://dc.lft.to/lastmile_qr_scan"}, "fusion_lat": 0.0}, {"is_disabled": 0, "lat": 38.91523566666667, "bike_id": "620a59356684c29e7f3bb4866ce661fd", "fusion_lon": 0.0, "is_reserved": 0, "type": "electric_scooter", "name": "620a59356684c29e7f3bb4866ce661fd", "lon": -77.0318605, "rental_uris": {"android": "https://dc.lft.to/lastmile_qr_scan", "ios": "https://dc.lft.to/lastmile_qr_scan"}, "fusion_lat": 0.0},