{"data": {"bikes": [{"is_disabled": 0, "is_reserved": 0, "fusion_lat": 0.0, "lat": 38.89224683333333, "fusion_lon": 0.0, "rental_uris": {"ios": "https://dc.lft.to/lastmile_qr_scan", "android": "https://dc.lft.to/lastmile_qr_scan"}, "lon": -77.0433405, "bike_id": "5e31db12b7d4cb0b940a7ac6add55db1", "type": "electric_scooter", "name": "5e31db12b7d4cb0b940a7ac6add55db1"}, {"is_disabled": 0, "is_reserved": 0, "fusion_lat": 0.0, "lat": 38.920465166666666, "fusion_lon": 0.0, "rental_uris": {"ios": "https://dc.lft.to/lastmile_qr_scan", "android": "https://dc.lft.to/lastmile_qr_scan"}, "lon": -77.02575133333333, "bike_id": "b51003b7c0c41d8fddb1f8765da7743b", "type": "electric_scooter", "name": "b51003b7c0c41d8fddb1f8765da7743b"}, {"is_disabled": 0, "is_reserved": 0, "fusion_lat": 0.0, "lat": 38.824315666666664, "fusion_lon": 0.0, "rental_uris": {"ios": "https://dc.lft.to/lastmile_qr_scan", "android": "https://dc.lft.to/lastmile_qr_scan"}, "lon": -77.1204425, "bike_id": "4044a9f2ff17e3f99b6d705759cb9f85", "type": "electric_bike", "name": "4044a9f2ff17e3f99b6d705759cb9f85"}, {"is_disabled": 0, "is_reserved": 0, "fusion_lat": 0.0, "lat": 38.8655875, "fusion_lon": 0.0, "rental_uris": {"ios": "https://dc.lft.to/lastmile_qr_scan", "android": "https://dc.lft.to/lastmile_qr_scan"}, "lon": -76.97469316666667, "bike_id": "c2c826eb4d98a919bed5bfab6cf63fbc", "type": "electric_bike", "name": "c2c826eb4d98a919bed5bfab6cf63fbc"}, {"is_disabled": 0, "is_reserved": 0, "fusion_lat": 0.0, "lat": 38.882174666666664, "fusion_lon": 0.0, "rental_uris": {"ios": "https://dc.lft.to/lastmile_qr_scan", "android": "https://dc.lft.to/lastmile_qr_scan"}, "lon": -76.99735916666667, "bike_id": "8ea92a869d8709f50db9c5f6471141bc", "type": "electric_scooter", "name": "8ea92a869d8709f50db9c5f6471141bc"}, {"is_disabled": 0, "is_reserved": 0, "fusion_lat": 0.0, "lat": 38.945969833333336, "fusion_lon": 0.0, "rental_uris": {"ios": "https://dc.lft.to/lastmile_qr_scan", "android": "https://dc.lft.to/lastmile_qr_scan"}, "lon": -77.02665983333333, "bike_id": "5233155fd1264337390b9cbf4032379e", "type": "electric_scooter", "name": "5233155fd1264337390b9cbf4032379e"}, {"is_disabled": 0, "is_reserved": 0, "fusion_lat": 0.0, "lat": 38.873014166666664, "fusion_lon": 0.0, "rental_uris": {"ios": "https://dc.lft.to/lastmile_qr_scan", "android": "https://dc.lft.to/lastmile_qr_scan"}, "lon": -77.0106895, "bike_id": "780f94086ad550befe02ad514ad69d88", "type": "electric_scooter", "name": "780f94086ad550befe02ad514ad69d88"}, {"is_disabled": 0, "is_reserved": 0, "fusion_lat": 0.0, "lat": 38.85640466666667, "fusion_lon": 0.0, "rental_uris": {"ios": "https://dc.lft.to/lastmile_qr_scan", "android": "https://dc.lft.to/lastmile_qr_scan"}, "lon": -77.06834783333333, "bike_id": "da1a5a5394e0c5e41793d55ae4ccf88d", "type": "electric_bike", "name": "da1a5a5394e0c5e41793d55ae4ccf88d"}, {"is_disabled": 0, "is_reserved": 0, "fusion_lat": 0.0, "lat": 38.9171475, "fusion_lon": 0.0, "rental_uris": {"ios": "https://dc.lft.to/lastmile_qr_scan", "android": "https://dc.lft.to/lastmile_qr_scan"}, "lon": -77.02297733333333, "bike_id": "6251489de2af676f4e68f48f5a9a6b05", "type": "electric_scooter", "name": "6251489de2af676f4e68f48f5a9a6b05"}, {"is_disabled": 0, "is_reserved": 0, "fusion_lat": 0.0, "lat": 38.91693, "fusion_lon": 0.0, "rental_uris": {"ios": "https://dc.lft.to/lastmile_qr_scan", "android": "https://dc.lft.to/lastmile_qr_scan"}, "lon": -77.03760083333333, "bike_id": "0113d54880ed798658e9d666133b3c22", "type": "electric_scooter", "name": "0113d54880ed798658e9d666133b3c22"}, {"is_disabled": 0, "is_reserved": 0, "fusion_lat": 0.0, "lat": 38.9001355, "fusion_lon": 0.0, "rental_uris": {"ios": "https://dc.lft.to/lastmile_qr_scan", "android": "https://dc.lft.to/lastmile_qr_scan"}, "lon": -77.00673766666667, "bike_id": "09a1ed181742400841a332ad3b9484d9", "type": "electric_scooter", "name": "09a1ed181742400841a332ad3b9484d9"}, {"is_disabled": 0, "is_reserved": 0, "fusion_lat": 0.0, "lat": 38.891980833333335, "fusion_lon": 0.0, "rental_uris": {"ios": "https://dc.lft.to/lastmile_qr_scan", "android": "https://dc.lft.to/lastmile_qr_scan"}, "lon": -77.031758, "bike_id": "ac97c58f045785d88f4618155fb9f078", "type": "electric_scooter", "name": "ac97c58f045785d88f4618155fb9f078"}, {"is_disabled": 0, "is_reserved": 0, "fusion_lat": 0.0, "lat": 38.92988733333333, "fusion_lon": 0.0, "rental_uris": {"ios": "https://dc.lft.to/lastmile_qr_scan", "android": "https://dc.lft.to/lastmile_qr_scan"}, "lon": -77.03884216666667, "bike_id": "90533da4ab09439fd7a23eea92d19583", "type": "electric_scooter", "name": "90533da4ab09439fd7a23eea92d19583"}, {"is_disabled": 0, "is_reserved": 0, "fusion_lat": 0.0, "lat": 38.91031533333334, "fusion_lon": 0.0, "rental_uris": {"ios": "https://dc.lft.to/lastmile_qr_scan", "android": "https://dc.lft.to/lastmile_qr_scan"}, "lon": -76.9233315, "bike_id": "c10a48ef75b2ca71136cc7bd8b7a9c05", "type": "electric_bike", "name": "c10a48ef75b2ca71136cc7bd8b7a9c05"}, {"is_disabled": 0, "is_reserved": 0, "fusion_lat": 0.0, "lat": 38.92263166666667, "fusion_lon": 0.0, "rental_uris": {"ios": "https://dc.lft.to/lastmile_qr_scan", "android": "https://dc.lft.to/lastmile_qr_scan"}, "lon": -77.03639366666667, "bike_id": "4718e81a585c73135400f8fb36ef4894", "type": "electric_scooter", "name": "4718e81a585c73135400f8fb36ef4894"}, {"is_disabled": 0, "is_reserved": 0, "fusion_lat": 0.0, "lat": 38.8848785, "fusion_lon": 0.0, "rental_uris": {"ios": "https://dc.lft.to/lastmile_qr_scan", "android": "https://dc.lft.to/lastmile_qr_scan"}, "lon": -77.03472866666667, "bike_id": "6f7d47f5b475c0158fca646065061776", "type": "electric_scooter", "name": "6f7d47f5b475c0158fca646065061776"}, {"is_disabled": 0, "is_reserved": 0, "fusion_lat": 0.0, "lat": 38.913520166666665, "fusion_lon": 0.0, "rental_uris": {"ios": "https://dc.lft.to/lastmile_qr_scan", "android": "https://dc.lft.to/lastmile_qr_scan"}, "lon": -76.97137816666667, "bike_id": "8770ab3a413b5b82f0ceb3f47e8f3b17", "type": "electric_scooter", "name": "8770ab3a413b5b82f0ceb3f47e8f3b17"}, {"is_disabled": 0, "is_reserved": 0, "fusion_lat": 0.0, "lat": 38.92505416666667, "fusion_lon": 0.0, "rental_uris": {"ios": "https://dc.lft.to/lastmile_qr_scan", "android": "https://dc.lft.to/lastmile_qr_scan"}, "lon": -77.02356916666666, "bike_id": "050fd55f5662f56aead81a0941201327", "type": "electric_scooter", "name": "050fd55f5662f56aead81a0941201327"}, {"is_disabled": 0, "is_reserved": 0, "fusion_lat": 0.0, "lat": 38.89120616666666, "fusion_lon": 0.0, "rental_uris": {"ios": "https://dc.lft.to/lastmile_qr_scan", "android": "https://dc.lft.to/lastmile_qr_scan"}, "lon": -76.9994745, "bike_id": "0ade1d00e646607bdee2373b4a3a42a9", "type": "electric_scooter", "name": "0ade1d00e646607bdee2373b4a3a42a9"}, {"is_disabled": 0, "is_reserved": 0, "fusion_lat": 0.0, "lat": 38.86468983333334, "fusion_lon": 0.0, "rental_uris": {"ios": "https://dc.lft.to/lastmile_qr_scan", "android": "https://dc.lft.to/lastmile_qr_scan"}, "lon": -76.97751216666667, "bike_id": "7a0fa52c8b8024fb6669c1d8e25a9fef", "type": "electric_scooter", "name": "7a0fa52c8b8024fb6669c1d8e25a9fef"}, {"is_disabled": 0, "is_reserved": 0, "fusion_lat": 0.0, "lat": 38.8763825, "fusion_lon": 0.0, "rental_uris": {"ios": "https://dc.lft.to/lastmile_qr_scan", "android": "https://dc.lft.to/lastmile_qr_scan"}, "lon": -76.99296166666667, "bike_id": "c1d54a7406cf8aa797c11bedb45340d1", "type": "electric_scooter", "name": "c1d54a7406cf8aa797c11bedb45340d1"}, {"is_disabled": 0, "is_reserved": 0, "fusion_lat": 0.0, "lat": 38.954316, "fusion_lon": 0.0, "rental_uris": {"ios": "https://dc.lft.to/lastmile_qr_scan", "android": "https://dc.lft.to/lastmile_qr_scan"}, "lon": -76.98796883333333, "bike_id": "e25e4b3e07a77b1e1633226b9a71d556", "type": "electric_scooter", "name": "e25e4b3e07a77b1e1633226b9a71d556"}, {"is_disabled": 0, "is_reserved": 0, "fusion_lat": 0.0, "lat": 38.92877333333333, "fusion_lon": 0.0, "rental_uris": {"ios": "https://dc.lft.to/lastmile_qr_scan", "android": "https://dc.lft.to/lastmile_qr_scan"}, "lon": -77.01378783333334, "bike_id": "c9d7f85ba26efd03c647ea4efb08d22d", "type": "electric_scooter", "name": "c9d7f85ba26efd03c647ea4efb08d22d"}, {"is_disabled": 0, "is_reserved": 0, "fusion_lat": 0.0, "lat": 38.91568633333333, "fusion_lon": 0.0, "rental_uris": {"ios": "https://dc.lft.to/lastmile_qr_scan", "android": "https://dc.lft.to/lastmile_qr_scan"}, "lon": -77.03188033333333, "bike_id": "dbad8da1644b7d02e2de75c6a3fb20a2", "type": "electric_scooter", "name": "dbad8da1644b7d02e2de75c6a3fb20a2"}, {"is_disabled": 0, "is_reserved": 0, "fusion_lat": 0.0, "lat": 38.905347666666664, "fusion_lon": 0.0, "rental_uris": {"ios": "https://dc.lft.to/lastmile_qr_scan", "android": "https://dc.lft.to/lastmile_qr_scan"}, "lon": -77.05906816666666, "bike_id": "4ae588bf8ca38af7719155809e34cea9", "type": "electric_bike", "name": "4ae588bf8ca38af7719155809e34cea9"}, {"is_disabled": 0, "is_reserved": 0, "fusion_lat": 0.0, "lat": 38.90637483333333, "fusion_lon": 0.0, "rental_uris": {"ios": "https://dc.lft.to/lastmile_qr_scan", "android": "https://dc.lft.to/lastmile_qr_scan"}, "lon": -77.0689705, "bike_id": "39717366f8931588303865ee31d9ac49", "type": "electric_scooter", "name": "39717366f8931588303865ee31d9ac49"}, {"is_disabled": 0, "is_reserved": 0, "fusion_lat": 0.0, "lat": 38.90591333333333, "fusion_lon": 0.0, "rental_uris": {"ios": "https://dc.lft.to/lastmile_qr_scan", "android": "https://dc.lft.to/lastmile_qr_scan"}, "lon": -77.03205933333334, "bike_id": "90a967c99243c9776ed9f27d6b514522", "type": "electric_scooter", "name": "90a967c99243c9776ed9f27d6b514522"}, {"is_disabled": 0, "is_reserved": 0, "fusion_lat": 0.0, "lat": 38.91803133333333, "fusion_lon": 0.0, "rental_uris": {"ios": "https://dc.lft.to/lastmile_qr_scan", "android": "https://dc.lft.to/lastmile_qr_scan"}, "lon": -77.03202583333334, "bike_id": "cf688efd013a89a81c118c1cceee9155", "type": "electric_scooter", "name": "cf688efd013a89a81c118c1cceee9155"}, {"is_disabled": 0, "is_reserved": 0, "fusion_lat": 0.0, "lat": 39.02517516666666, "fusion_lon": 0.0, "rental_uris": {"ios": "https://dc.lft.to/lastmile_qr_scan", "android": "https://dc.lft.to/lastmile_qr_scan"}, "lon": -77.0196815, "bike_id": "514de38cf17e80ebf8a8f48ed1693749", "type": "electric_bike", "name": "514de38cf17e80ebf8a8f48ed1693749"}, {"is_disabled": 0, "is_reserved": 0, "fusion_lat": 0.0, "lat": 38.921713, "fusion_lon": 0.0, "rental_uris": {"ios": "https://dc.lft.to/lastmile_qr_scan", "android": "https://dc.lft.to/lastmile_qr_scan"}, "lon": -77.040289, "bike_id": "6436b9daae42f3641f7ce5e0f4f8d244", "type": "electric_scooter", "name": "6436b9daae42f3641f7ce5e0f4f8d244"}, {"is_disabled": 0, "is_reserved": 0, "fusion_lat": 0.0, "lat": 38.90605733333334, "fusion_lon": 0.0, "rental_uris": {"ios": "https://dc.lft.to/lastmile_qr_scan", "android": "https://dc.lft.to/lastmile_qr_scan"}, "lon": -77.00699166666666, "bike_id": "2f99174df0e2b414b094675d402337f6", "type": "electric_scooter", "name": "2f99174df0e2b414b094675d402337f6"}, {"is_disabled": 0, "is_reserved": 0, "fusion_lat": 0.0, "lat": 38.894658666666665, "fusion_lon": 0.0, "rental_uris": {"ios": "https://dc.lft.to/lastmile_qr_scan", "android": "https://dc.lft.to/lastmile_qr_scan"}, "lon": -77.0022485, "bike_id": "2840ca869d94d48b905da582245e1fa7", "type": "electric_scooter", "name": "2840ca869d94d48b905da582245e1fa7"}, {"is_disabled": 0, "is_reserved": 0, "fusion_lat": 0.0, "lat": 38.89970483333333, "fusion_lon": 0.0, "rental_uris": {"ios": "https://dc.lft.to/lastmile_qr_scan", "android": "https://dc.lft.to/lastmile_qr_scan"}, "lon": -76.926271, "bike_id": "022488b181880995b917152238687df3", "type": "electric_scooter", "name": "022488b181880995b917152238687df3"}, {"is_disabled": 0, "is_reserved": 0, "fusion_lat": 0.0, "lat": 38.888824666666665, "fusion_lon": 0.0, "rental_uris": {"ios": "https://dc.lft.to/lastmile_qr_scan", "android": "https://dc.lft.to/lastmile_qr_scan"}, "lon": -76.99031266666667, "bike_id": "262bc0a345b64444d4005fcde88e03d4", "type": "electric_scooter", "name": "262bc0a345b64444d4005fcde88e03d4"}, {"is_disabled": 0, "is_reserved": 0, "fusion_lat": 0.0, "lat": 38.903110166666664, "fusion_lon": 0.0, "rental_uris": {"ios": "https://dc.lft.to/lastmile_qr_scan", "android": "https://dc.lft.to/lastmile_qr_scan"}, "lon": -77.031904, "bike_id": "b4ca8891e844576a80b1a1d0b8737cf0", "type": "electric_scooter", "name": "b4ca8891e844576a80b1a1d0b8737cf0"}, {"is_disabled": 0, "is_reserved": 0, "fusion_lat": 0.0, "lat": 38.9234825, "fusion_lon": 0.0, "rental_uris": {"ios": "https://dc.lft.to/lastmile_qr_scan", "android": "https://dc.lft.to/lastmile_qr_scan"}, "lon": -76.97208266666667, "bike_id": "a22a7543f95e9956d3825b3f427d2a17", "type": "electric_scooter", "name": "a22a7543f95e9956d3825b3f427d2a17"}, {"is_disabled": 0, "is_reserved": 0, "fusion_lat": 0.0, "lat": 38.9534565, "fusion_lon": 0.0, "rental_uris": {"ios": "https://dc.lft.to/lastmile_qr_scan", "android": "https://dc.lft.to/lastmile_qr_scan"}, "lon": -77.081524, "bike_id": "320608a2f3abfd5323c84c5da322795c", "type": "electric_scooter", "name": "320608a2f3abfd5323c84c5da322795c"}, {"is_disabled": 0, "is_reserved": 0, "fusion_lat": 0.0, "lat": 39.084743833333334, "fusion_lon": 0.0, "rental_uris": {"ios": "https://dc.lft.to/lastmile_qr_scan", "android": "https://dc.lft.to/lastmile_qr_scan"}, "lon": -76.950661, "bike_id": "7f3f14294544b379fa8da5d3b805df20", "type": "electric_bike", "name": "7f3f14294544b379fa8da5d3b805df20"}, {"is_disabled": 0, "is_reserved": 0, "fusion_lat": 0.0, "lat": 38.908374, "fusion_lon": 0.0, "rental_uris": {"ios": "https://dc.lft.to/lastmile_qr_scan", "android": "https://dc.lft.to/lastmile_qr_scan"}, "lon": -77.02694033333333, "bike_id": "c72860d53fa23b602fc1ecdc1fca1fa3", "type": "electric_scooter", "name": "c72860d53fa23b602fc1ecdc1fca1fa3"}, {"is_disabled": 0, "is_reserved": 0, "fusion_lat": 0.0, "lat": 38.92033133333334, "fusion_lon": 0.0, "rental_uris": {"ios": "https://dc.lft.to/lastmile_qr_scan", "android": "https://dc.lft.to/lastmile_qr_scan"}, "lon": -77.02590233333333, "bike_id": "21352e63fa50ba0bb224da301685967a", "type": "electric_scooter", "name": "21352e63fa50ba0bb224da301685967a"}, {"is_disabled": 0, "is_reserved": 0, "fusion_lat": 0.0, "lat": 38.92117533333333, "fusion_lon": 0.0, "rental_uris": {"ios": "https://dc.lft.to/lastmile_qr_scan", "android": "https://dc.lft.to/lastmile_qr_scan"}, "lon": -77.03657983333333, "bike_id": "838420ddf1fd1927064cd6ed86cc9346", "type": "electric_scooter", "name": "838420ddf1fd1927064cd6ed86cc9346"}, {"is_disabled": 0, "is_reserved": 0, "fusion_lat": 0.0, "lat": 38.89545666666667, "fusion_lon": 0.0, "rental_uris": {"ios": "https://dc.lft.to/lastmile_qr_scan", "android": "https://dc.lft.to/lastmile_qr_scan"}, "lon": -77.01666433333334, "bike_id": "35bafb468b3a8b4fea9e0ba69c1a4bae", "type": "electric_scooter", "name": "35bafb468b3a8b4fea9e0ba69c1a4bae"}, {"is_disabled": 0, "is_reserved": 0, "fusion_lat": 0.0, "lat": 38.923410833333335, "fusion_lon": 0.0, "rental_uris": {"ios": "https://dc.lft.to/lastmile_qr_scan", "android": "https://dc.lft.to/lastmile_qr_scan"}, "lon": -77.03512766666667, "bike_id": "c062156692323d8d82d831e93d77f065", "type": "electric_scooter", "name": "c062156692323d8d82d831e93d77f065"}, {"is_disabled": 0, "is_reserved": 0, "fusion_lat": 0.0, "lat": 38.9210475, "fusion_lon": 0.0, "rental_uris": {"ios": "https://dc.lft.to/lastmile_qr_scan", "android": "https://dc.lft.to/lastmile_qr_scan"}, "lon": -77.01773883333334, "bike_id": "92d89f08787d10dfb30f0f512dae937f", "type": "electric_scooter", "name": "92d89f08787d10dfb30f0f512dae937f"}, {"is_disabled": 0, "is_reserved": 0, "fusion_lat": 0.0, "lat": 38.876917666666664, "fusion_lon": 0.0, "rental_uris": {"ios": "https://dc.lft.to/lastmile_qr_scan", "android": "https://dc.lft.to/lastmile_qr_scan"}, "lon": -77.01757466666666, "bike_id": "6de997c1e8d87df8cec1c1b9ccb515a4", "type": "electric_scooter", "name": "6de997c1e8d87df8cec1c1b9ccb515a4"}, {"is_disabled": 0, "is_reserved": 0, "fusion_lat": 0.0, "lat": 38.951078, "fusion_lon": 0.0, "rental_uris": {"ios": "https://dc.lft.to/lastmile_qr_scan", "android": "https://dc.lft.to/lastmile_qr_scan"}, "lon": -77.0188745, "bike_id": "9ec1de246a50b94d188f3700564f0491", "type": "electric_scooter", "name": "9ec1de246a50b94d188f3700564f0491"}, {"is_disabled": 0, "is_reserved": 0, "fusion_lat": 0.0, "lat": 38.92612483333333, "fusion_lon": 0.0, "rental_uris": {"ios": "https://dc.lft.to/lastmile_qr_scan", "android": "https://dc.lft.to/lastmile_qr_scan"}, "lon": -77.0065145, "bike_id": "5217538e2aba018a63fce1fa176250c6", "type": "electric_scooter", "name": "5217538e2aba018a63fce1fa176250c6"}, {"is_disabled": 0, "is_reserved": 0, "fusion_lat": 0.0, "lat": 38.893679, "fusion_lon": 0.0, "rental_uris": {"ios": "https://dc.lft.to/lastmile_qr_scan", "android": "https://dc.lft.to/lastmile_qr_scan"}, "lon": -77.0429045, "bike_id": "987d9d50bf99bacb7cc621b7ef113d3a", "type": "electric_scooter", "name": "987d9d50bf99bacb7cc621b7ef113d3a"}, {"is_disabled": 0, "is_reserved": 0, "fusion_lat": 0.0, "lat": 38.92356216666667, "fusion_lon": 0.0, "rental_uris": {"ios": "https://dc.lft.to/lastmile_qr_scan", "android": "https://dc.lft.to/lastmile_qr_scan"}, "lon": -77.05237933333333, "bike_id": "0a023651ed84ed9506c61369e9252c86", "type": "electric_scooter", "name": "0a023651ed84ed9506c61369e9252c86"}, {"is_disabled": 0, "is_reserved": 0, "fusion_lat": 0.0, "lat": 38.936073, "fusion_lon": 0.0, "rental_uris": {"ios": "https://dc.lft.to/lastmile_qr_scan", "android": "https://dc.lft.to/lastmile_qr_scan"}, "lon": -77.05585916666666, "bike_id": "da36851207c804682b9d70bdddf201c1", "type": "electric_scooter", "name": "da36851207c804682b9d70bdddf201c1"}, {"is_disabled": 0, "is_reserved": 0, "fusion_lat": 0.0, "lat": 38.921558833333336, "fusion_lon": 0.0, "rental_uris": {"ios": "https://dc.lft.to/lastmile_qr_scan", "android": "https://dc.lft.to/lastmile_qr_scan"}, "lon": -77.0365205, "bike_id": "53d36bb1de08a95c0485ce1be7156274", "type": "electric_scooter", "name": "53d36bb1de08a95c0485ce1be7156274"}, {"is_disabled": 0, "is_reserved": 0, "fusion_lat": 0.0, "lat": 38.90511466666667, "fusion_lon": 0.0, "rental_uris": {"ios": "https://dc.lft.to/lastmile_qr_scan", "android": "https://dc.lft.to/lastmile_qr_scan"}, "lon": -77.06398166666666, "bike_id": "1404e8d03b64e545a5c1ea7599e80a16", "type": "electric_bike", "name": "1404e8d03b64e545a5c1ea7599e80a16"}, {"is_disabled": 0, "is_reserved": 0, "fusion_lat": 0.0, "lat": 38.927786833333336, "fusion_lon": 0.0, "rental_uris": {"ios": "https://dc.lft.to/lastmile_qr_scan", "android": "https://dc.lft.to/lastmile_qr_scan"}, "lon": -77.0525795, "bike_id": "4384e8aa34a6b512002e9e563ce199bd", "type": "electric_scooter", "name": "4384e8aa34a6b512002e9e563ce199bd"}, {"is_disabled": 0, "is_reserved": 0, "fusion_lat": 0.0, "lat": 38.87838683333333, "fusion_lon": 0.0, "rental_uris": {"ios": "https://dc.lft.to/lastmile_qr_scan", "android": "https://dc.lft.to/lastmile_qr_scan"}, "lon": -76.98605866666666, "bike_id": "727b384b8cdb27b8327ed23211caeac1", "type": "electric_scooter", "name": "727b384b8cdb27b8327ed23211caeac1"}, {"is_disabled": 0, "is_reserved": 0, "fusion_lat": 0.0, "lat": 38.982072333333335, "fusion_lon": 0.0, "rental_uris": {"ios": "https://dc.lft.to/lastmile_qr_scan", "android": "https://dc.lft.to/lastmile_qr_scan"}, "lon": -76.97818516666666, "bike_id": "a323c841cf127765cab2e0b771c43abd", "type": "electric_bike", "name": "a323c841cf127765cab2e0b771c43abd"}, {"is_disabled": 0, "is_reserved": 0, "fusion_lat": 0.0, "lat": 38.870999166666664, "fusion_lon": 0.0, "rental_uris": {"ios": "https://dc.lft.to/lastmile_qr_scan", "android": "https://dc.lft.to/lastmile_qr_scan"}, "lon": -77.012064, "bike_id": "eda24df56a6a62e024a55117245ea5ce", "type": "electric_scooter", "name": "eda24df56a6a62e024a55117245ea5ce"}, {"is_disabled": 0, "is_reserved": 0, "fusion_lat": 0.0, "lat": 38.884756333333335, "fusion_lon": 0.0, "rental_uris": {"ios": "https://dc.lft.to/lastmile_qr_scan", "android": "https://dc.lft.to/lastmile_qr_scan"}, "lon": -77.02365116666667, "bike_id": "86db5a9fc9cfff5a5e4bc5f4b6b27a31", "type": "electric_scooter", "name": "86db5a9fc9cfff5a5e4bc5f4b6b27a31"}, {"is_disabled": 0, "is_reserved": 0, "fusion_lat": 0.0, "lat": 38.94850433333333, "fusion_lon": 0.0, "rental_uris": {"ios": "https://dc.lft.to/lastmile_qr_scan", "android": "https://dc.lft.to/lastmile_qr_scan"}, "lon": -77.021131, "bike_id": "22d94b7c1d888f2036d0b72aba2e09b9", "type": "electric_scooter", "name": "22d94b7c1d888f2036d0b72aba2e09b9"}, {"is_disabled": 0, "is_reserved": 0, "fusion_lat": 0.0, "lat": 38.92101366666667, "fusion_lon": 0.0, "rental_uris": {"ios": "https://dc.lft.to/lastmile_qr_scan", "android": "https://dc.lft.to/lastmile_qr_scan"}, "lon": -77.01743766666667, "bike_id": "442934e202b81a944f1e7b9dc0e77b79", "type": "electric_scooter", "name": "442934e202b81a944f1e7b9dc0e77b79"}, {"is_disabled": 0, "is_reserved": 0, "fusion_lat": 0.0, "lat": 38.908655, "fusion_lon": 0.0, "rental_uris": {"ios": "https://dc.lft.to/lastmile_qr_scan", "android": "https://dc.lft.to/lastmile_qr_scan"}, "lon": -77.01623483333333, "bike_id": "2ac75266889dcfc7750d5ed0b8f751b4", "type": "electric_scooter", "name": "2ac75266889dcfc7750d5ed0b8f751b4"}, {"is_disabled": 0, "is_reserved": 0, "fusion_lat": 0.0, "lat": 38.89331083333333, "fusion_lon": 0.0, "rental_uris": {"ios": "https://dc.lft.to/lastmile_qr_scan", "android": "https://dc.lft.to/lastmile_qr_scan"}, "lon": -76.92885233333334, "bike_id": "091276f4e162f6c7143efd4ca83fb98a", "type": "electric_scooter", "name": "091276f4e162f6c7143efd4ca83fb98a"}, {"is_disabled": 0, "is_reserved": 0, "fusion_lat": 0.0, "lat": 38.91799866666667, "fusion_lon": 0.0, "rental_uris": {"ios": "https://dc.lft.to/lastmile_qr_scan", "android": "https://dc.lft.to/lastmile_qr_scan"}, "lon": -77.032073, "bike_id": "f5bcc37620849e2238508a8ae4c70e31", "type": "electric_scooter", "name": "f5bcc37620849e2238508a8ae4c70e31"}, {"is_disabled": 0, "is_reserved": 0, "fusion_lat": 0.0, "lat": 38.9299765, "fusion_lon": 0.0, "rental_uris": {"ios": "https://dc.lft.to/lastmile_qr_scan", "android": "https://dc.lft.to/lastmile_qr_scan"}, "lon": -77.037968, "bike_id": "4d1091b37c044e44dff2f718777d5837", "type": "electric_scooter", "name": "4d1091b37c044e44dff2f718777d5837"}, {"is_disabled": 0, "is_reserved": 0, "fusion_lat": 0.0, "lat": 38.91185866666667, "fusion_lon": 0.0, "rental_uris": {"ios": "https://dc.lft.to/lastmile_qr_scan", "android": "https://dc.lft.to/lastmile_qr_scan"}, "lon": -77.02980833333334, "bike_id": "2810f544406530c5ea250c3106f98c4e", "type": "electric_scooter", "name": "2810f544406530c5ea250c3106f98c4e"}, {"is_disabled": 0, "is_reserved": 0, "fusion_lat": 0.0, "lat": 38.892503833333336, "fusion_lon": 0.0, "rental_uris": {"ios": "https://dc.lft.to/lastmile_qr_scan", "android": "https://dc.lft.to/lastmile_qr_scan"}, "lon": -77.046551, "bike_id": "4ab3d2a12391683e7a215f2e299901c7", "type": "electric_scooter", "name": "4ab3d2a12391683e7a215f2e299901c7"}, {"is_disabled": 0, "is_reserved": 0, "fusion_lat": 0.0, "lat": 38.921496833333336, "fusion_lon": 0.0, "rental_uris": {"ios": "https://dc.lft.to/lastmile_qr_scan", "android": "https://dc.lft.to/lastmile_qr_scan"}, "lon": -77.03371516666667, "bike_id": "aa7b1a0025ffbef69169e389b9869184", "type": "electric_scooter", "name": "aa7b1a0025ffbef69169e389b9869184"}, {"is_disabled": 0, "is_reserved": 0, "fusion_lat": 0.0, "lat": 38.895242333333336, "fusion_lon": 0.0, "rental_uris": {"ios": "https://dc.lft.to/lastmile_qr_scan", "android": "https://dc.lft.to/lastmile_qr_scan"}, "lon": -77.02301366666667, "bike_id": "9769a2c74e9d6459263b1e7c74b36800", "type": "electric_scooter", "name": "9769a2c74e9d6459263b1e7c74b36800"}, {"is_disabled": 0, "is_reserved": 0, "fusion_lat": 0.0, "lat": 38.920635, "fusion_lon": 0.0, "rental_uris": {"ios": "https://dc.lft.to/lastmile_qr_scan", "android": "https://dc.lft.to/lastmile_qr_scan"}, "lon": -77.02936883333334, "bike_id": "e3a2609d323573a7e1919632134d76d6", "type": "electric_scooter", "name": "e3a2609d323573a7e1919632134d76d6"}, {"is_disabled": 0, "is_reserved": 0, "fusion_lat": 0.0, "lat": 38.90498816666667, "fusion_lon": 0.0, "rental_uris": {"ios": "https://dc.lft.to/lastmile_qr_scan", "android": "https://dc.lft.to/lastmile_qr_scan"}, "lon": -77.02952866666666, "bike_id": "696907dc0ce364bd7e085d989515352a", "type": "electric_scooter", "name": "696907dc0ce364bd7e085d989515352a"}, {"is_disabled": 0, "is_reserved": 0, "fusion_lat": 0.0, "lat": 38.846029333333334, "fusion_lon": 0.0, "rental_uris": {"ios": "https://dc.lft.to/lastmile_qr_scan", "android": "https://dc.lft.to/lastmile_qr_scan"}, "lon": -76.974175, "bike_id": "9abeca1d6615b35698a6b0fe0efeaea2", "type": "electric_scooter", "name": "9abeca1d6615b35698a6b0fe0efeaea2"}, {"is_disabled": 0, "is_reserved": 0, "fusion_lat": 0.0, "lat": 38.912643333333335, "fusion_lon": 0.0, "rental_uris": {"ios": "https://dc.lft.to/lastmile_qr_scan", "android": "https://dc.lft.to/lastmile_qr_scan"}, "lon": -77.03142066666666, "bike_id": "a962a7c32dcfd591ae6b34789b66b676", "type": "electric_scooter", "name": "a962a7c32dcfd591ae6b34789b66b676"}, {"is_disabled": 0, "is_reserved": 0, "fusion_lat": 0.0, "lat": 38.92986616666666, "fusion_lon": 0.0, "rental_uris": {"ios": "https://dc.lft.to/lastmile_qr_scan", "android": "https://dc.lft.to/lastmile_qr_scan"}, "lon": -77.03471366666666, "bike_id": "0f88306beeabfc180d25521d642bb9cc", "type": "electric_scooter", "name": "0f88306beeabfc180d25521d642bb9cc"}, {"is_disabled": 0, "is_reserved": 0, "fusion_lat": 0.0, "lat": 38.90270116666667, "fusion_lon": 0.0, "rental_uris": {"ios": "https://dc.lft.to/lastmile_qr_scan", "android": "https://dc.lft.to/lastmile_qr_scan"}, "lon": -77.03967183333333, "bike_id": "ff3f51ef266ef6cc63c03ba6ba54d488", "type": "electric_scooter", "name": "ff3f51ef266ef6cc63c03ba6ba54d488"}, {"is_disabled": 0, "is_reserved": 0, "fusion_lat": 0.0, "lat": 38.91183483333333, "fusion_lon": 0.0, "rental_uris": {"ios": "https://dc.lft.to/lastmile_qr_scan", "android": "https://dc.lft.to/lastmile_qr_scan"}, "lon": -77.01212333333334, "bike_id": "2c19ab975c3437ede196699bf3564238", "type": "electric_scooter", "name": "2c19ab975c3437ede196699bf3564238"}, {"is_disabled": 0, "is_reserved": 0, "fusion_lat": 0.0, "lat": 38.91805633333333, "fusion_lon": 0.0, "rental_uris": {"ios": "https://dc.lft.to/lastmile_qr_scan", "android": "https://dc.lft.to/lastmile_qr_scan"}, "lon": -77.000057, "bike_id": "f640d9ffbc7deedc507f2664133f7439", "type": "electric_scooter", "name": "f640d9ffbc7deedc507f2664133f7439"}, {"is_disabled": 0, "is_reserved": 0, "fusion_lat": 0.0, "lat": 38.8897155, "fusion_lon": 0.0, "rental_uris": {"ios": "https://dc.lft.to/lastmile_qr_scan", "android": "https://dc.lft.to/lastmile_qr_scan"}, "lon": -76.98174766666666, "bike_id": "066d582462ba1ccd929ea033833938b1", "type": "electric_scooter", "name": "066d582462ba1ccd929ea033833938b1"}, {"is_disabled": 0, "is_reserved": 0, "fusion_lat": 0.0, "lat": 38.924333, "fusion_lon": 0.0, "rental_uris": {"ios": "https://dc.lft.to/lastmile_qr_scan", "android": "https://dc.lft.to/lastmile_qr_scan"}, "lon": -77.0194735, "bike_id": "adb21ce8d70fdc773642c5058f6f7834", "type": "electric_scooter", "name": "adb21ce8d70fdc773642c5058f6f7834"}, {"is_disabled": 0, "is_reserved": 0, "fusion_lat": 0.0, "lat": 38.928271333333335, "fusion_lon": 0.0, "rental_uris": {"ios": "https://dc.lft.to/lastmile_qr_scan", "android": "https://dc.lft.to/lastmile_qr_scan"}, "lon": -77.05969366666666, "bike_id": "1169dbe8a94d0288ec5c4df8836335ac", "type": "electric_bike", "name": "1169dbe8a94d0288ec5c4df8836335ac"}, {"is_disabled": 0, "is_reserved": 0, "fusion_lat": 0.0, "lat": 38.89933833333333, "fusion_lon": 0.0, "rental_uris": {"ios": "https://dc.lft.to/lastmile_qr_scan", "android": "https://dc.lft.to/lastmile_qr_scan"}, "lon": -76.93760966666666, "bike_id": "53d0c0e2632b307015b9c15f481f8024", "type": "electric_scooter", "name": "53d0c0e2632b307015b9c15f481f8024"}, {"is_disabled": 0, "is_reserved": 0, "fusion_lat": 0.0, "lat": 38.888600833333335, "fusion_lon": 0.0, "rental_uris": {"ios": "https://dc.lft.to/lastmile_qr_scan", "android": "https://dc.lft.to/lastmile_qr_scan"}, "lon": -77.001851, "bike_id": "d2581093ad906d949b904c72a698dc95", "type": "electric_scooter", "name": "d2581093ad906d949b904c72a698dc95"}, {"is_disabled": 0, "is_reserved": 0, "fusion_lat": 0.0, "lat": 38.904987166666665, "fusion_lon": 0.0, "rental_uris": {"ios": "https://dc.lft.to/lastmile_qr_scan", "android": "https://dc.lft.to/lastmile_qr_scan"}, "lon": -77.02957566666667, "bike_id": "6cadfa75cb2d3b124e44e94c4dd1b485", "type": "electric_scooter", "name": "6cadfa75cb2d3b124e44e94c4dd1b485"}, {"is_disabled": 0, "is_reserved": 0, "fusion_lat": 0.0, "lat": 38.8900325, "fusion_lon": 0.0, "rental_uris": {"ios": "https://dc.lft.to/lastmile_qr_scan", "android": "https://dc.lft.to/lastmile_qr_scan"}, "lon": -77.0489075, "bike_id": "5b195643db9c6adaeed8e576b6da1af2", "type": "electric_scooter", "name": "5b195643db9c6adaeed8e576b6da1af2"}, {"is_disabled": 0, "is_reserved": 0, "fusion_lat": 0.0, "lat": 38.91745216666666, "fusion_lon": 0.0, "rental_uris": {"ios": "https://dc.lft.to/lastmile_qr_scan", "android": "https://dc.lft.to/lastmile_qr_scan"}, "lon": -77.01082333333333, "bike_id": "ffef11437ebb4bcd241aa81bdea1b7b8", "type": "electric_scooter", "name": "ffef11437ebb4bcd241aa81bdea1b7b8"}, {"is_disabled": 0, "is_reserved": 0, "fusion_lat": 0.0, "lat": 38.876225166666664, "fusion_lon": 0.0, "rental_uris": {"ios": "https://dc.lft.to/lastmile_qr_scan", "android": "https://dc.lft.to/lastmile_qr_scan"}, "lon": -77.00212816666667, "bike_id": "05da820a742aaf1d7e86af108fe72e17", "type": "electric_scooter", "name": "05da820a742aaf1d7e86af108fe72e17"}, {"is_disabled": 0, "is_reserved": 0, "fusion_lat": 0.0, "lat": 38.9266825, "fusion_lon": 0.0, "rental_uris": {"ios": "https://dc.lft.to/lastmile_qr_scan", "android": "https://dc.lft.to/lastmile_qr_scan"}, "lon": -77.03022466666667, "bike_id": "e7d907f91d5b005f056d41629062175e", "type": "electric_scooter", "name": "e7d907f91d5b005f056d41629062175e"}, {"is_disabled": 0, "is_reserved": 0, "fusion_lat": 0.0, "lat": 38.93528216666667, "fusion_lon": 0.0, "rental_uris": {"ios": "https://dc.lft.to/lastmile_qr_scan", "android": "https://dc.lft.to/lastmile_qr_scan"}, "lon": -77.02842633333333, "bike_id": "c47dab0521c1093b1835a251bcd2eb48", "type": "electric_scooter", "name": "c47dab0521c1093b1835a251bcd2eb48"}, {"is_disabled": 0, "is_reserved": 0, "fusion_lat": 0.0, "lat": 38.919509166666664, "fusion_lon": 0.0, "rental_uris": {"ios": "https://dc.lft.to/lastmile_qr_scan", "android": "https://dc.lft.to/lastmile_qr_scan"}, "lon": -77.02301566666667, "bike_id": "8aae157814383c9c15d103db9f5339a0", "type": "electric_scooter", "name": "8aae157814383c9c15d103db9f5339a0"}, {"is_disabled": 0, "is_reserved": 0, "fusion_lat": 0.0, "lat": 38.9003155, "fusion_lon": 0.0, "rental_uris": {"ios": "https://dc.lft.to/lastmile_qr_scan", "android": "https://dc.lft.to/lastmile_qr_scan"}, "lon": -77.0036345, "bike_id": "71873e4c558188c14d4ba6e91179340d", "type": "electric_scooter", "name": "71873e4c558188c14d4ba6e91179340d"}, {"is_disabled": 0, "is_reserved": 0, "fusion_lat": 0.0, "lat": 38.9174585, "fusion_lon": 0.0, "rental_uris": {"ios": "https://dc.lft.to/lastmile_qr_scan", "android": "https://dc.lft.to/lastmile_qr_scan"}, "lon": -77.040634, "bike_id": "1a4ea35f1ebf16c68f6274a931469523", "type": "electric_scooter", "name": "1a4ea35f1ebf16c68f6274a931469523"}, {"is_disabled": 0, "is_reserved": 0, "fusion_lat": 0.0, "lat": 38.896049833333336, "fusion_lon": 0.0, "rental_uris": {"ios": "https://dc.lft.to/lastmile_qr_scan", "android": "https://dc.lft.to/lastmile_qr_scan"}, "lon": -76.99802083333333, "bike_id": "77f1142b9d6fc52c80d1da203194c924", "type": "electric_scooter", "name": "77f1142b9d6fc52c80d1da203194c924"}, {"is_disabled": 0, "is_reserved": 0, "fusion_lat": 0.0, "lat": 38.9286, "fusion_lon": 0.0, "rental_uris": {"ios": "https://dc.lft.to/lastmile_qr_scan", "android": "https://dc.lft.to/lastmile_qr_scan"}, "lon": -77.0140505, "bike_id": "d6177caae51fbdbca0bcdd7b6d6cb822", "type": "electric_scooter", "name": "d6177caae51fbdbca0bcdd7b6d6cb822"}, {"is_disabled": 0, "is_reserved": 0, "fusion_lat": 0.0, "lat": 38.9035775, "fusion_lon": 0.0, "rental_uris": {"ios": "https://dc.lft.to/lastmile_qr_scan", "android": "https://dc.lft.to/lastmile_qr_scan"}, "lon": -77.02978633333333, "bike_id": "341914d4d2d12662680b7b944d7293e7", "type": "electric_scooter", "name": "341914d4d2d12662680b7b944d7293e7"}, {"is_disabled": 0, "is_reserved": 0, "fusion_lat": 0.0, "lat": 38.911086833333336, "fusion_lon": 0.0, "rental_uris": {"ios": "https://dc.lft.to/lastmile_qr_scan", "android": "https://dc.lft.to/lastmile_qr_scan"}, "lon": -77.011547, "bike_id": "9213831cd49944a6b6603cb949dd20f3", "type": "electric_scooter", "name": "9213831cd49944a6b6603cb949dd20f3"}, {"is_disabled": 0, "is_reserved": 0, "fusion_lat": 0.0, "lat": 38.92337933333334, "fusion_lon": 0.0, "rental_uris": {"ios": "https://dc.lft.to/lastmile_qr_scan", "android": "https://dc.lft.to/lastmile_qr_scan"}, "lon": -77.019021, "bike_id": "42d1d819badb94ab4e452cd17e005361", "type": "electric_scooter", "name": "42d1d819badb94ab4e452cd17e005361"}, {"is_disabled": 0, "is_reserved": 0, "fusion_lat": 0.0, "lat": 38.915371, "fusion_lon": 0.0, "rental_uris": {"ios": "https://dc.lft.to/lastmile_qr_scan", "android": "https://dc.lft.to/lastmile_qr_scan"}, "lon": -77.00921066666666, "bike_id": "88d6acaa563fe86fa6a96f4420541fa9", "type": "electric_scooter", "name": "88d6acaa563fe86fa6a96f4420541fa9"}, {"is_disabled": 0, "is_reserved": 0, "fusion_lat": 0.0, "lat": 38.941396833333336, "fusion_lon": 0.0, "rental_uris": {"ios": "https://dc.lft.to/lastmile_qr_scan", "android": "https://dc.lft.to/lastmile_qr_scan"}, "lon": -77.02323866666667, "bike_id": "f39a93ceccd200559492eec653e1faa7", "type": "electric_scooter", "name": "f39a93ceccd200559492eec653e1faa7"}, {"is_disabled": 0, "is_reserved": 0, "fusion_lat": 0.0, "lat": 39.074411166666664, "fusion_lon": 0.0, "rental_uris": {"ios": "https://dc.lft.to/lastmile_qr_scan", "android": "https://dc.lft.to/lastmile_qr_scan"}, "lon": -77.11523533333333, "bike_id": "efefb64ddc9c29715d2557004025ddd8", "type": "electric_bike", "name": "efefb64ddc9c29715d2557004025ddd8"}, {"is_disabled": 0, "is_reserved": 0, "fusion_lat": 0.0, "lat": 38.908048, "fusion_lon": 0.0, "rental_uris": {"ios": "https://dc.lft.to/lastmile_qr_scan", "android": "https://dc.lft.to/lastmile_qr_scan"}, "lon": -77.03834016666667, "bike_id": "d7d93f2db395ac3fed81daafded961ca", "type": "electric_scooter", "name": "d7d93f2db395ac3fed81daafded961ca"}, {"is_disabled": 0, "is_reserved": 0, "fusion_lat": 0.0, "lat": 38.91813583333333, "fusion_lon": 0.0, "rental_uris": {"ios": "https://dc.lft.to/lastmile_qr_scan", "android": "https://dc.lft.to/lastmile_qr_scan"}, "lon": -77.02520616666666, "bike_id": "0b04997237eab7a4c87a34faa98b9faf", "type": "electric_scooter", "name": "0b04997237eab7a4c87a34faa98b9faf"}, {"is_disabled": 0, "is_reserved": 0, "fusion_lat": 0.0, "lat": 38.890007833333335, "fusion_lon": 0.0, "rental_uris": {"ios": "https://dc.lft.to/lastmile_qr_scan", "android": "https://dc.lft.to/lastmile_qr_scan"}, "lon": -77.04893833333334, "bike_id": "d3262cc851dfd726fba71a9a21abde91", "type": "electric_scooter", "name": "d3262cc851dfd726fba71a9a21abde91"}, {"is_disabled": 0, "is_reserved": 0, "fusion_lat": 0.0, "lat": 38.920247833333335, "fusion_lon": 0.0, "rental_uris": {"ios": "https://dc.lft.to/lastmile_qr_scan", "android": "https://dc.lft.to/lastmile_qr_scan"}, "lon": -77.0111615, "bike_id": "82e466bd817a91cee4ee0d1b08965160", "type": "electric_scooter", "name": "82e466bd817a91cee4ee0d1b08965160"}, {"is_disabled": 0, "is_reserved": 0, "fusion_lat": 0.0, "lat": 38.961615333333334, "fusion_lon": 0.0, "rental_uris": {"ios": "https://dc.lft.to/lastmile_qr_scan", "android": "https://dc.lft.to/lastmile_qr_scan"}, "lon": -77.02784783333334, "bike_id": "fa24865bcae4b884093e3260eb340dcf", "type": "electric_scooter", "name": "fa24865bcae4b884093e3260eb340dcf"}, {"is_disabled": 0, "is_reserved": 0, "fusion_lat": 0.0, "lat": 38.90612683333333, "fusion_lon": 0.0, "rental_uris": {"ios": "https://dc.lft.to/lastmile_qr_scan", "android": "https://dc.lft.to/lastmile_qr_scan"}, "lon": -77.0297115, "bike_id": "82e52992f567bf21e076b480e2cfdcd0", "type": "electric_scooter", "name": "82e52992f567bf21e076b480e2cfdcd0"}, {"is_disabled": 0, "is_reserved": 0, "fusion_lat": 0.0, "lat": 38.80408366666666, "fusion_lon": 0.0, "rental_uris": {"ios": "https://dc.lft.to/lastmile_qr_scan", "android": "https://dc.lft.to/lastmile_qr_scan"}, "lon": -77.11331966666667, "bike_id": "761479196eb661e29d3592d873505944", "type": "electric_bike", "name": "761479196eb661e29d3592d873505944"}, {"is_disabled": 0, "is_reserved": 0, "fusion_lat": 0.0, "lat": 38.85594583333334, "fusion_lon": 0.0, "rental_uris": {"ios": "https://dc.lft.to/lastmile_qr_scan", "android": "https://dc.lft.to/lastmile_qr_scan"}, "lon": -76.97284266666666, "bike_id": "f48f9b00de92d6479039dfcee662345a", "type": "electric_bike", "name": "f48f9b00de92d6479039dfcee662345a"}, {"is_disabled": 0, "is_reserved": 0, "fusion_lat": 0.0, "lat": 38.892216166666664, "fusion_lon": 0.0, "rental_uris": {"ios": "https://dc.lft.to/lastmile_qr_scan", "android": "https://dc.lft.to/lastmile_qr_scan"}, "lon": -77.045046, "bike_id": "c6075cf3fe52eebf3e0eaf8ebb3f35b2", "type": "electric_scooter", "name": "c6075cf3fe52eebf3e0eaf8ebb3f35b2"}, {"is_disabled": 0, "is_reserved": 0, "fusion_lat": 0.0, "lat": 38.920791, "fusion_lon": 0.0, "rental_uris": {"ios": "https://dc.lft.to/lastmile_qr_scan", "android": "https://dc.lft.to/lastmile_qr_scan"}, "lon": -77.023576, "bike_id": "43d54aaeb6d60a981b35022aa102d942", "type": "electric_scooter", "name": "43d54aaeb6d60a981b35022aa102d942"}, {"is_disabled": 0, "is_reserved": 0, "fusion_lat": 0.0, "lat": 38.92657533333333, "fusion_lon": 0.0, "rental_uris": {"ios": "https://dc.lft.to/lastmile_qr_scan", "android": "https://dc.lft.to/lastmile_qr_scan"}, "lon": -77.02448483333333, "bike_id": "dc94b516e5a95259b74a4bd4822039c3", "type": "electric_scooter", "name": "dc94b516e5a95259b74a4bd4822039c3"}, {"is_disabled": 0, "is_reserved": 0, "fusion_lat": 0.0, "lat": 38.936986, "fusion_lon": 0.0, "rental_uris": {"ios": "https://dc.lft.to/lastmile_qr_scan", "android": "https://dc.lft.to/lastmile_qr_scan"}, "lon": -77.0559895, "bike_id": "abb62e447fe500dcbef4aa44ca26876d", "type": "electric_scooter", "name": "abb62e447fe500dcbef4aa44ca26876d"}, {"is_disabled": 0, "is_reserved": 0, "fusion_lat": 0.0, "lat": 38.931253, "fusion_lon": 0.0, "rental_uris": {"ios": "https://dc.lft.to/lastmile_qr_scan", "android": "https://dc.lft.to/lastmile_qr_scan"}, "lon": -77.02070183333333, "bike_id": "3412b50b5ae369ad2fc5da14831895c4", "type": "electric_scooter", "name": "3412b50b5ae369ad2fc5da14831895c4"}, {"is_disabled": 0, "is_reserved": 0, "fusion_lat": 0.0, "lat": 38.92654116666667, "fusion_lon": 0.0, "rental_uris": {"ios": "https://dc.lft.to/lastmile_qr_scan", "android": "https://dc.lft.to/lastmile_qr_scan"}, "lon": -77.0242145, "bike_id": "d4155d2c693dd322843fab7bfdafc982", "type": "electric_scooter", "name": "d4155d2c693dd322843fab7bfdafc982"}, {"is_disabled": 0, "is_reserved": 0, "fusion_lat": 0.0, "lat": 38.91109, "fusion_lon": 0.0, "rental_uris": {"ios": "https://dc.lft.to/lastmile_qr_scan", "android": "https://dc.lft.to/lastmile_qr_scan"}, "lon": -77.00376783333333, "bike_id": "b1eac68c096c0fe7256c57d5e20b7d44", "type": "electric_scooter", "name": "b1eac68c096c0fe7256c57d5e20b7d44"}, {"is_disabled": 0, "is_reserved": 0, "fusion_lat": 0.0, "lat": 38.90798516666667, "fusion_lon": 0.0, "rental_uris": {"ios": "https://dc.lft.to/lastmile_qr_scan", "android": "https://dc.lft.to/lastmile_qr_scan"}, "lon": -77.049861, "bike_id": "c4aabe3f272a5e5759846bcdc1cdfe56", "type": "electric_scooter", "name": "c4aabe3f272a5e5759846bcdc1cdfe56"}, {"is_disabled": 0, "is_reserved": 0, "fusion_lat": 0.0, "lat": 38.923527, "fusion_lon": 0.0, "rental_uris": {"ios": "https://dc.lft.to/lastmile_qr_scan", "android": "https://dc.lft.to/lastmile_qr_scan"}, "lon": -77.07308966666666, "bike_id": "80969c90c76eb5a1cc8f422cc20b9b36", "type": "electric_scooter", "name": "80969c90c76eb5a1cc8f422cc20b9b36"}, {"is_disabled": 0, "is_reserved": 0, "fusion_lat": 0.0, "lat": 38.9133805, "fusion_lon": 0.0, "rental_uris": {"ios": "https://dc.lft.to/lastmile_qr_scan", "android": "https://dc.lft.to/lastmile_qr_scan"}, "lon": -77.01627883333333, "bike_id": "759cd454b16871d907c694517842571a", "type": "electric_scooter", "name": "759cd454b16871d907c694517842571a"}, {"is_disabled": 0, "is_reserved": 0, "fusion_lat": 0.0, "lat": 38.88528316666667, "fusion_lon": 0.0, "rental_uris": {"ios": "https://dc.lft.to/lastmile_qr_scan", "android": "https://dc.lft.to/lastmile_qr_scan"}, "lon": -76.98053616666667, "bike_id": "c5ff0a7d06865585905fa5a38bc4f51d", "type": "electric_scooter", "name": "c5ff0a7d06865585905fa5a38bc4f51d"}, {"is_disabled": 0, "is_reserved": 0, "fusion_lat": 0.0, "lat": 38.95690283333333, "fusion_lon": 0.0, "rental_uris": {"ios": "https://dc.lft.to/lastmile_qr_scan", "android": "https://dc.lft.to/lastmile_qr_scan"}, "lon": -77.02235783333333, "bike_id": "955d1c80f6ba8f0076c88157448b7a07", "type": "electric_scooter", "name": "955d1c80f6ba8f0076c88157448b7a07"}, {"is_disabled": 0, "is_reserved": 0, "fusion_lat": 0.0, "lat": 38.876621666666665, "fusion_lon": 0.0, "rental_uris": {"ios": "https://dc.lft.to/lastmile_qr_scan", "android": "https://dc.lft.to/lastmile_qr_scan"}, "lon": -76.99624983333334, "bike_id": "5e801cd0ff3e1b75b193585fa7932d1c", "type": "electric_scooter", "name": "5e801cd0ff3e1b75b193585fa7932d1c"}, {"is_disabled": 0, "is_reserved": 0, "fusion_lat": 0.0, "lat": 38.916571, "fusion_lon": 0.0, "rental_uris": {"ios": "https://dc.lft.to/lastmile_qr_scan", "android": "https://dc.lft.to/lastmile_qr_scan"}, "lon": -77.02381783333334, "bike_id": "8a310b216d406a8144963ffcc29ce6ea", "type": "electric_scooter", "name": "8a310b216d406a8144963ffcc29ce6ea"}, {"is_disabled": 0, "is_reserved": 0, "fusion_lat": 0.0, "lat": 38.957543333333334, "fusion_lon": 0.0, "rental_uris": {"ios": "https://dc.lft.to/lastmile_qr_scan", "android": "https://dc.lft.to/lastmile_qr_scan"}, "lon": -77.02213116666667, "bike_id": "e80aa58a20fb573b2e58f830aee197dd", "type": "electric_scooter", "name": "e80aa58a20fb573b2e58f830aee197dd"}, {"is_disabled": 0, "is_reserved": 0, "fusion_lat": 0.0, "lat": 38.922117166666666, "fusion_lon": 0.0, "rental_uris": {"ios": "https://dc.lft.to/lastmile_qr_scan", "android": "https://dc.lft.to/lastmile_qr_scan"}, "lon": -77.0818775, "bike_id": "daa462e5b4d0fd962d3768a586fb16dc", "type": "electric_bike", "name": "daa462e5b4d0fd962d3768a586fb16dc"}, {"is_disabled": 0, "is_reserved": 0, "fusion_lat": 0.0, "lat": 38.92297583333333, "fusion_lon": 0.0, "rental_uris": {"ios": "https://dc.lft.to/lastmile_qr_scan", "android": "https://dc.lft.to/lastmile_qr_scan"}, "lon": -77.0297865, "bike_id": "c64f88f99beefa02ac89ea100ff12171", "type": "electric_scooter", "name": "c64f88f99beefa02ac89ea100ff12171"}, {"is_disabled": 0, "is_reserved": 0, "fusion_lat": 0.0, "lat": 38.89618866666667, "fusion_lon": 0.0, "rental_uris": {"ios": "https://dc.lft.to/lastmile_qr_scan", "android": "https://dc.lft.to/lastmile_qr_scan"}, "lon": -76.90754533333333, "bike_id": "0cc5a7767fde825f8e192799282a3877", "type": "electric_bike", "name": "0cc5a7767fde825f8e192799282a3877"}, {"is_disabled": 0, "is_reserved": 0, "fusion_lat": 0.0, "lat": 38.9084825, "fusion_lon": 0.0, "rental_uris": {"ios": "https://dc.lft.to/lastmile_qr_scan", "android": "https://dc.lft.to/lastmile_qr_scan"}, "lon": -76.99792883333333, "bike_id": "58128c9e9500293d5e03a98d2e78badc", "type": "electric_scooter", "name": "58128c9e9500293d5e03a98d2e78badc"}, {"is_disabled": 0, "is_reserved": 0, "fusion_lat": 0.0, "lat": 38.97476866666667, "fusion_lon": 0.0, "rental_uris": {"ios": "https://dc.lft.to/lastmile_qr_scan", "android": "https://dc.lft.to/lastmile_qr_scan"}, "lon": -76.98665616666666, "bike_id": "12777f3731fe097be33841661f58007c", "type": "electric_bike", "name": "12777f3731fe097be33841661f58007c"}, {"is_disabled": 0, "is_reserved": 0, "fusion_lat": 0.0, "lat": 38.905744, "fusion_lon": 0.0, "rental_uris": {"ios": "https://dc.lft.to/lastmile_qr_scan", "android": "https://dc.lft.to/lastmile_qr_scan"}, "lon": -77.05691683333333, "bike_id": "5b0d7978b8b0310c6cedaa3dc43764b9", "type": "electric_bike", "name": "5b0d7978b8b0310c6cedaa3dc43764b9"}, {"is_disabled": 0, "is_reserved": 0, "fusion_lat": 0.0, "lat": 38.83492733333333, "fusion_lon": 0.0, "rental_uris": {"ios": "https://dc.lft.to/lastmile_qr_scan", "android": "https://dc.lft.to/lastmile_qr_scan"}, "lon": -77.00435833333333, "bike_id": "9c2cad08f7818d7ee6fee5d9ee315f9b", "type": "electric_bike", "name": "9c2cad08f7818d7ee6fee5d9ee315f9b"}, {"is_disabled": 0, "is_reserved": 0, "fusion_lat": 0.0, "lat": 38.8985195, "fusion_lon": 0.0, "rental_uris": {"ios": "https://dc.lft.to/lastmile_qr_scan", "android": "https://dc.lft.to/lastmile_qr_scan"}, "lon": -77.00196333333334, "bike_id": "c197e59bbb54097ab80586d4fca02463", "type": "electric_scooter", "name": "c197e59bbb54097ab80586d4fca02463"}, {"is_disabled": 0, "is_reserved": 0, "fusion_lat": 0.0, "lat": 38.90464266666667, "fusion_lon": 0.0, "rental_uris": {"ios": "https://dc.lft.to/lastmile_qr_scan", "android": "https://dc.lft.to/lastmile_qr_scan"}, "lon": -77.02947366666666, "bike_id": "9e79fa08720109f6e033294303b5249f", "type": "electric_scooter", "name": "9e79fa08720109f6e033294303b5249f"}, {"is_disabled": 0, "is_reserved": 0, "fusion_lat": 0.0, "lat": 38.846324333333335, "fusion_lon": 0.0, "rental_uris": {"ios": "https://dc.lft.to/lastmile_qr_scan", "android": "https://dc.lft.to/lastmile_qr_scan"}, "lon": -76.96899416666666, "bike_id": "11e2ab162131f1ef72cf740a6d8b1f13", "type": "electric_bike", "name": "11e2ab162131f1ef72cf740a6d8b1f13"}, {"is_disabled": 0, "is_reserved": 0, "fusion_lat": 0.0, "lat": 38.917667333333334, "fusion_lon": 0.0, "rental_uris": {"ios": "https://dc.lft.to/lastmile_qr_scan", "android": "https://dc.lft.to/lastmile_qr_scan"}, "lon": -77.04056916666667, "bike_id": "32dceedf55381c50f57113b716c2d8b2", "type": "electric_scooter", "name": "32dceedf55381c50f57113b716c2d8b2"}, {"is_disabled": 0, "is_reserved": 0, "fusion_lat": 0.0, "lat": 38.92061283333334, "fusion_lon": 0.0, "rental_uris": {"ios": "https://dc.lft.to/lastmile_qr_scan", "android": "https://dc.lft.to/lastmile_qr_scan"}, "lon": -77.04536583333334, "bike_id": "6fe4785012c6ef3aa45c2a629856f806", "type": "electric_scooter", "name": "6fe4785012c6ef3aa45c2a629856f806"}, {"is_disabled": 0, "is_reserved": 0, "fusion_lat": 0.0, "lat": 39.0229375, "fusion_lon": 0.0, "rental_uris": {"ios": "https://dc.lft.to/lastmile_qr_scan", "android": "https://dc.lft.to/lastmile_qr_scan"}, "lon": -77.021048, "bike_id": "fb9729449f6d831ef8fc66987afdafe7", "type": "electric_bike", "name": "fb9729449f6d831ef8fc66987afdafe7"}, {"is_disabled": 0, "is_reserved": 0, "fusion_lat": 0.0, "lat": 38.92849916666667, "fusion_lon": 0.0, "rental_uris": {"ios": "https://dc.lft.to/lastmile_qr_scan", "android": "https://dc.lft.to/lastmile_qr_scan"}, "lon": -77.0372925, "bike_id": "b594d5383eb437bd25bdeb5c6005d3b4", "type": "electric_scooter", "name": "b594d5383eb437bd25bdeb5c6005d3b4"}, {"is_disabled": 0, "is_reserved": 0, "fusion_lat": 0.0, "lat": 38.93660333333333, "fusion_lon": 0.0, "rental_uris": {"ios": "https://dc.lft.to/lastmile_qr_scan", "android": "https://dc.lft.to/lastmile_qr_scan"}, "lon": -77.06606233333333, "bike_id": "1269d29bfe5de05f643f985c5ec3d01e", "type": "electric_scooter", "name": "1269d29bfe5de05f643f985c5ec3d01e"}, {"is_disabled": 0, "is_reserved": 0, "fusion_lat": 0.0, "lat": 38.92891266666667, "fusion_lon": 0.0, "rental_uris": {"ios": "https://dc.lft.to/lastmile_qr_scan", "android": "https://dc.lft.to/lastmile_qr_scan"}, "lon": -77.01938733333333, "bike_id": "6c8fb52a36163a5f1aee8bc6979fc2fa", "type": "electric_scooter", "name": "6c8fb52a36163a5f1aee8bc6979fc2fa"}, {"is_disabled": 0, "is_reserved": 0, "fusion_lat": 0.0, "lat": 38.89515433333333, "fusion_lon": 0.0, "rental_uris": {"ios": "https://dc.lft.to/lastmile_qr_scan", "android": "https://dc.lft.to/lastmile_qr_scan"}, "lon": -77.02301633333333, "bike_id": "3892fe24a2eb0e77a782e5e8f8a8f52e", "type": "electric_scooter", "name": "3892fe24a2eb0e77a782e5e8f8a8f52e"}, {"is_disabled": 0, "is_reserved": 0, "fusion_lat": 0.0, "lat": 38.920440666666664, "fusion_lon": 0.0, "rental_uris": {"ios": "https://dc.lft.to/lastmile_qr_scan", "android": "https://dc.lft.to/lastmile_qr_scan"}, "lon": -77.02353583333333, "bike_id": "e6accbf8ee9a5a45dcd76c7bda0e966d", "type": "electric_scooter", "name": "e6accbf8ee9a5a45dcd76c7bda0e966d"}, {"is_disabled": 0, "is_reserved": 0, "fusion_lat": 0.0, "lat": 38.922578333333334, "fusion_lon": 0.0, "rental_uris": {"ios": "https://dc.lft.to/lastmile_qr_scan", "android": "https://dc.lft.to/lastmile_qr_scan"}, "lon": -77.036559, "bike_id": "e60c936acdfc8bc74eb6ef9c69d1f4c6", "type": "electric_scooter", "name": "e60c936acdfc8bc74eb6ef9c69d1f4c6"}, {"is_disabled": 0, "is_reserved": 0, "fusion_lat": 0.0, "lat": 38.914137, "fusion_lon": 0.0, "rental_uris": {"ios": "https://dc.lft.to/lastmile_qr_scan", "android": "https://dc.lft.to/lastmile_qr_scan"}, "lon": -77.03236733333334, "bike_id": "2e5f950b9fa716ef5318c961040c2040", "type": "electric_scooter", "name": "2e5f950b9fa716ef5318c961040c2040"}, {"is_disabled": 0, "is_reserved": 0, "fusion_lat": 0.0, "lat": 38.90691316666667, "fusion_lon": 0.0, "rental_uris": {"ios": "https://dc.lft.to/lastmile_qr_scan", "android": "https://dc.lft.to/lastmile_qr_scan"}, "lon": -77.06325116666666, "bike_id": "498201d5279faab60e7b3e60d5f180e6", "type": "electric_scooter", "name": "498201d5279faab60e7b3e60d5f180e6"}, {"is_disabled": 0, "is_reserved": 0, "fusion_lat": 0.0, "lat": 38.89482816666667, "fusion_lon": 0.0, "rental_uris": {"ios": "https://dc.lft.to/lastmile_qr_scan", "android": "https://dc.lft.to/lastmile_qr_scan"}, "lon": -76.97880616666667, "bike_id": "9c85f548b77aad40d3e5f32ce6f55b45", "type": "electric_scooter", "name": "9c85f548b77aad40d3e5f32ce6f55b45"}, {"is_disabled": 0, "is_reserved": 0, "fusion_lat": 0.0, "lat": 38.9313155, "fusion_lon": 0.0, "rental_uris": {"ios": "https://dc.lft.to/lastmile_qr_scan", "android": "https://dc.lft.to/lastmile_qr_scan"}, "lon": -77.02343866666666, "bike_id": "d0c887f3a5dba7775e04f13b88bba9c8", "type": "electric_scooter", "name": "d0c887f3a5dba7775e04f13b88bba9c8"}, {"is_disabled": 0, "is_reserved": 0, "fusion_lat": 0.0, "lat": 38.91568616666667, "fusion_lon": 0.0, "rental_uris": {"ios": "https://dc.lft.to/lastmile_qr_scan", "android": "https://dc.lft.to/lastmile_qr_scan"}, "lon": -77.031812, "bike_id": "2dce95f270205a7ba72fe32a19a833f6", "type": "electric_scooter", "name": "2dce95f270205a7ba72fe32a19a833f6"}, {"is_disabled": 0, "is_reserved": 0, "fusion_lat": 0.0, "lat": 38.90069066666667, "fusion_lon": 0.0, "rental_uris": {"ios": "https://dc.lft.to/lastmile_qr_scan", "android": "https://dc.lft.to/lastmile_qr_scan"}, "lon": -77.006502, "bike_id": "8ba7c45ba90e9276b2d8acd202ea8f34", "type": "electric_scooter", "name": "8ba7c45ba90e9276b2d8acd202ea8f34"}, {"is_disabled": 0, "is_reserved": 0, "fusion_lat": 0.0, "lat": 38.8922065, "fusion_lon": 0.0, "rental_uris": {"ios": "https://dc.lft.to/lastmile_qr_scan", "android": "https://dc.lft.to/lastmile_qr_scan"}, "lon": -77.03337983333333, "bike_id": "d74e867c5555eca13e74c53d5c960bce", "type": "electric_scooter", "name": "d74e867c5555eca13e74c53d5c960bce"}, {"is_disabled": 0, "is_reserved": 0, "fusion_lat": 0.0, "lat": 38.90440916666667, "fusion_lon": 0.0, "rental_uris": {"ios": "https://dc.lft.to/lastmile_qr_scan", "android": "https://dc.lft.to/lastmile_qr_scan"}, "lon": -76.99628866666667, "bike_id": "a0b709d6a72eb49cb1ebf99c55c7094b", "type": "electric_scooter", "name": "a0b709d6a72eb49cb1ebf99c55c7094b"}, {"is_disabled": 0, "is_reserved": 0, "fusion_lat": 0.0, "lat": 38.876302833333334, "fusion_lon": 0.0, "rental_uris": {"ios": "https://dc.lft.to/lastmile_qr_scan", "android": "https://dc.lft.to/lastmile_qr_scan"}, "lon": -77.00955966666666, "bike_id": "bed0e3d25cba1a71e19a02f2f1215ffe", "type": "electric_scooter", "name": "bed0e3d25cba1a71e19a02f2f1215ffe"}, {"is_disabled": 0, "is_reserved": 0, "fusion_lat": 0.0, "lat": 38.8857555, "fusion_lon": 0.0, "rental_uris": {"ios": "https://dc.lft.to/lastmile_qr_scan", "android": "https://dc.lft.to/lastmile_qr_scan"}, "lon": -77.01212183333334, "bike_id": "7b0a0246742c34990a64b8a5b380e70d", "type": "electric_scooter", "name": "7b0a0246742c34990a64b8a5b380e70d"}, {"is_disabled": 0, "is_reserved": 0, "fusion_lat": 0.0, "lat": 38.921691, "fusion_lon": 0.0, "rental_uris": {"ios": "https://dc.lft.to/lastmile_qr_scan", "android": "https://dc.lft.to/lastmile_qr_scan"}, "lon": -77.0326405, "bike_id": "4e3edfdd764c0587b7c5a4cabe893111", "type": "electric_scooter", "name": "4e3edfdd764c0587b7c5a4cabe893111"}, {"is_disabled": 0, "is_reserved": 0, "fusion_lat": 0.0, "lat": 38.9318785, "fusion_lon": 0.0, "rental_uris": {"ios": "https://dc.lft.to/lastmile_qr_scan", "android": "https://dc.lft.to/lastmile_qr_scan"}, "lon": -77.03448633333333, "bike_id": "5cf07e8860d8aeed8d226a1fd918961d", "type": "electric_scooter", "name": "5cf07e8860d8aeed8d226a1fd918961d"}, {"is_disabled": 0, "is_reserved": 0, "fusion_lat": 0.0, "lat": 38.910560333333336, "fusion_lon": 0.0, "rental_uris": {"ios": "https://dc.lft.to/lastmile_qr_scan", "android": "https://dc.lft.to/lastmile_qr_scan"}, "lon": -77.02303183333333, "bike_id": "3017436d3ff4bc81a4ef1b7fd6344296", "type": "electric_scooter", "name": "3017436d3ff4bc81a4ef1b7fd6344296"}, {"is_disabled": 0, "is_reserved": 0, "fusion_lat": 0.0, "lat": 38.92817433333333, "fusion_lon": 0.0, "rental_uris": {"ios": "https://dc.lft.to/lastmile_qr_scan", "android": "https://dc.lft.to/lastmile_qr_scan"}, "lon": -77.04353766666667, "bike_id": "a3ebc00ad6596c3eeb3f8b6e973fb4a4", "type": "electric_scooter", "name": "a3ebc00ad6596c3eeb3f8b6e973fb4a4"}, {"is_disabled": 0, "is_reserved": 0, "fusion_lat": 0.0, "lat": 38.896051166666666, "fusion_lon": 0.0, "rental_uris": {"ios": "https://dc.lft.to/lastmile_qr_scan", "android": "https://dc.lft.to/lastmile_qr_scan"}, "lon": -77.046856, "bike_id": "e4a98786b3d58bf4e71281689781d2e6", "type": "electric_scooter", "name": "e4a98786b3d58bf4e71281689781d2e6"}, {"is_disabled": 0, "is_reserved": 0, "fusion_lat": 0.0, "lat": 38.92104033333333, "fusion_lon": 0.0, "rental_uris": {"ios": "https://dc.lft.to/lastmile_qr_scan", "android": "https://dc.lft.to/lastmile_qr_scan"}, "lon": -77.04167516666666, "bike_id": "3ffc4970c942f076646f71cde1dbdd09", "type": "electric_scooter", "name": "3ffc4970c942f076646f71cde1dbdd09"}, {"is_disabled": 0, "is_reserved": 0, "fusion_lat": 0.0, "lat": 38.902427333333335, "fusion_lon": 0.0, "rental_uris": {"ios": "https://dc.lft.to/lastmile_qr_scan", "android": "https://dc.lft.to/lastmile_qr_scan"}, "lon": -77.0076915, "bike_id": "7eb87c46d0d1effb2798296102fdb3ea", "type": "electric_scooter", "name": "7eb87c46d0d1effb2798296102fdb3ea"}, {"is_disabled": 0, "is_reserved": 0, "fusion_lat": 0.0, "lat": 38.901617, "fusion_lon": 0.0, "rental_uris": {"ios": "https://dc.lft.to/lastmile_qr_scan", "android": "https://dc.lft.to/lastmile_qr_scan"}, "lon": -77.02512066666667, "bike_id": "3be4d14a4011b73a0a5ac34c4d17f9c1", "type": "electric_scooter", "name": "3be4d14a4011b73a0a5ac34c4d17f9c1"}, {"is_disabled": 0, "is_reserved": 0, "fusion_lat": 0.0, "lat": 38.89243916666667, "fusion_lon": 0.0, "rental_uris": {"ios": "https://dc.lft.to/lastmile_qr_scan", "android": "https://dc.lft.to/lastmile_qr_scan"}, "lon": -77.03959533333334, "bike_id": "323e6603c4b10cc19aa7c7f52b7b85b6", "type": "electric_scooter", "name": "323e6603c4b10cc19aa7c7f52b7b85b6"}, {"is_disabled": 0, "is_reserved": 0, "fusion_lat": 0.0, "lat": 38.9279035, "fusion_lon": 0.0, "rental_uris": {"ios": "https://dc.lft.to/lastmile_qr_scan", "android": "https://dc.lft.to/lastmile_qr_scan"}, "lon": -77.02723283333333, "bike_id": "0c9f433829d44c0e6a86c967b7f9466c", "type": "electric_scooter", "name": "0c9f433829d44c0e6a86c967b7f9466c"}, {"is_disabled": 0, "is_reserved": 0, "fusion_lat": 0.0, "lat": 38.8765885, "fusion_lon": 0.0, "rental_uris": {"ios": "https://dc.lft.to/lastmile_qr_scan", "android": "https://dc.lft.to/lastmile_qr_scan"}, "lon": -77.00882383333334, "bike_id": "5b5c4f2e1f8ee82d028d4f5fcb7935fa", "type": "electric_scooter", "name": "5b5c4f2e1f8ee82d028d4f5fcb7935fa"}, {"is_disabled": 0, "is_reserved": 0, "fusion_lat": 0.0, "lat": 38.9025875, "fusion_lon": 0.0, "rental_uris": {"ios": "https://dc.lft.to/lastmile_qr_scan", "android": "https://dc.lft.to/lastmile_qr_scan"}, "lon": -76.92845683333333, "bike_id": "e05e43288a23b222ab4ec19cab3f9e7a", "type": "electric_scooter", "name": "e05e43288a23b222ab4ec19cab3f9e7a"}, {"is_disabled": 0, "is_reserved": 0, "fusion_lat": 0.0, "lat": 38.883602333333336, "fusion_lon": 0.0, "rental_uris": {"ios": "https://dc.lft.to/lastmile_qr_scan", "android": "https://dc.lft.to/lastmile_qr_scan"}, "lon": -76.9278945, "bike_id": "a7eafdd68b63add0ebc34d3093befebb", "type": "electric_scooter", "name": "a7eafdd68b63add0ebc34d3093befebb"}, {"is_disabled": 0, "is_reserved": 0, "fusion_lat": 0.0, "lat": 38.9131205, "fusion_lon": 0.0, "rental_uris": {"ios": "https://dc.lft.to/lastmile_qr_scan", "android": "https://dc.lft.to/lastmile_qr_scan"}, "lon": -77.032651, "bike_id": "2c69971304083193828a27553cbf9bf0", "type": "electric_scooter", "name": "2c69971304083193828a27553cbf9bf0"}, {"is_disabled": 0, "is_reserved": 0, "fusion_lat": 0.0, "lat": 38.928616833333336, "fusion_lon": 0.0, "rental_uris": {"ios": "https://dc.lft.to/lastmile_qr_scan", "android": "https://dc.lft.to/lastmile_qr_scan"}, "lon": -77.07886216666667, "bike_id": "724726f2ef89059bfb4d8379e050970a", "type": "electric_scooter", "name": "724726f2ef89059bfb4d8379e050970a"}, {"is_disabled": 0, "is_reserved": 0, "fusion_lat": 0.0, "lat": 38.903851, "fusion_lon": 0.0, "rental_uris": {"ios": "https://dc.lft.to/lastmile_qr_scan", "android": "https://dc.lft.to/lastmile_qr_scan"}, "lon": -77.018549, "bike_id": "5e332eafb12fa89ed9bf2a23d6a24177", "type": "electric_scooter", "name": "5e332eafb12fa89ed9bf2a23d6a24177"}, {"is_disabled": 0, "is_reserved": 0, "fusion_lat": 0.0, "lat": 38.93206416666666, "fusion_lon": 0.0, "rental_uris": {"ios": "https://dc.lft.to/lastmile_qr_scan", "android": "https://dc.lft.to/lastmile_qr_scan"}, "lon": -77.022817, "bike_id": "4c43a339c35c34c779f92dda403f6cfb", "type": "electric_scooter", "name": "4c43a339c35c34c779f92dda403f6cfb"}, {"is_disabled": 0, "is_reserved": 0, "fusion_lat": 0.0, "lat": 38.8047975, "fusion_lon": 0.0, "rental_uris": {"ios": "https://dc.lft.to/lastmile_qr_scan", "android": "https://dc.lft.to/lastmile_qr_scan"}, "lon": -76.99102516666666, "bike_id": "202e8b4b3324935d75c3ab1ff2272512", "type": "electric_bike", "name": "202e8b4b3324935d75c3ab1ff2272512"}, {"is_disabled": 0, "is_reserved": 0, "fusion_lat": 0.0, "lat": 38.902439, "fusion_lon": 0.0, "rental_uris": {"ios": "https://dc.lft.to/lastmile_qr_scan", "android": "https://dc.lft.to/lastmile_qr_scan"}, "lon": -77.06064333333333, "bike_id": "6eef57f7062b19f666d7cec71abfbc4b", "type": "electric_scooter", "name": "6eef57f7062b19f666d7cec71abfbc4b"}, {"is_disabled": 0, "is_reserved": 0, "fusion_lat": 0.0, "lat": 38.9226585, "fusion_lon": 0.0, "rental_uris": {"ios": "https://dc.lft.to/lastmile_qr_scan", "android": "https://dc.lft.to/lastmile_qr_scan"}, "lon": -77.0363855, "bike_id": "5a46d7ec2053567a56158742a955e6d4", "type": "electric_scooter", "name": "5a46d7ec2053567a56158742a955e6d4"}, {"is_disabled": 0, "is_reserved": 0, "fusion_lat": 0.0, "lat": 39.00096933333333, "fusion_lon": 0.0, "rental_uris": {"ios": "https://dc.lft.to/lastmile_qr_scan", "android": "https://dc.lft.to/lastmile_qr_scan"}, "lon": -76.90982633333333, "bike_id": "f8e82aae88017ab2ce8e118d466fd75a", "type": "electric_bike", "name": "f8e82aae88017ab2ce8e118d466fd75a"}, {"is_disabled": 0, "is_reserved": 0, "fusion_lat": 0.0, "lat": 38.91537266666667, "fusion_lon": 0.0, "rental_uris": {"ios": "https://dc.lft.to/lastmile_qr_scan", "android": "https://dc.lft.to/lastmile_qr_scan"}, "lon": -77.0319175, "bike_id": "64d4dc650a062deed220a6e2056219d0", "type": "electric_scooter", "name": "64d4dc650a062deed220a6e2056219d0"}, {"is_disabled": 0, "is_reserved": 0, "fusion_lat": 0.0, "lat": 38.91554, "fusion_lon": 0.0, "rental_uris": {"ios": "https://dc.lft.to/lastmile_qr_scan", "android": "https://dc.lft.to/lastmile_qr_scan"}, "lon": -77.02335616666667, "bike_id": "0480463f447e3c68b45e0b1465fdc1e2", "type": "electric_scooter", "name": "0480463f447e3c68b45e0b1465fdc1e2"}, {"is_disabled": 0, "is_reserved": 0, "fusion_lat": 0.0, "lat": 38.877317833333336, "fusion_lon": 0.0, "rental_uris": {"ios": "https://dc.lft.to/lastmile_qr_scan", "android": "https://dc.lft.to/lastmile_qr_scan"}, "lon": -77.11846866666667, "bike_id": "80ab043117eb1017511ba52921a2d8db", "type": "electric_bike", "name": "80ab043117eb1017511ba52921a2d8db"}, {"is_disabled": 0, "is_reserved": 0, "fusion_lat": 0.0, "lat": 38.92903833333333, "fusion_lon": 0.0, "rental_uris": {"ios": "https://dc.lft.to/lastmile_qr_scan", "android": "https://dc.lft.to/lastmile_qr_scan"}, "lon": -77.05983083333334, "bike_id": "80de308e89dfa9fb98fe00f07387d9e9", "type": "electric_scooter", "name": "80de308e89dfa9fb98fe00f07387d9e9"}, {"is_disabled": 0, "is_reserved": 0, "fusion_lat": 0.0, "lat": 38.93687666666667, "fusion_lon": 0.0, "rental_uris": {"ios": "https://dc.lft.to/lastmile_qr_scan", "android": "https://dc.lft.to/lastmile_qr_scan"}, "lon": -77.03628683333334, "bike_id": "b4c37cdd92c1bdc8b2c115b3eaa42632", "type": "electric_scooter", "name": "b4c37cdd92c1bdc8b2c115b3eaa42632"}, {"is_disabled": 0, "is_reserved": 0, "fusion_lat": 0.0, "lat": 38.906048166666665, "fusion_lon": 0.0, "rental_uris": {"ios": "https://dc.lft.to/lastmile_qr_scan", "android": "https://dc.lft.to/lastmile_qr_scan"}, "lon": -77.0239925, "bike_id": "ab8d6c98daad4b2bdb2b751cbe93b88d", "type": "electric_scooter", "name": "ab8d6c98daad4b2bdb2b751cbe93b88d"}, {"is_disabled": 0, "is_reserved": 0, "fusion_lat": 0.0, "lat": 38.907513333333334, "fusion_lon": 0.0, "rental_uris": {"ios": "https://dc.lft.to/lastmile_qr_scan", "android": "https://dc.lft.to/lastmile_qr_scan"}, "lon": -77.032047, "bike_id": "919713791f8f80fac415a3ee85452bc8", "type": "electric_scooter", "name": "919713791f8f80fac415a3ee85452bc8"}, {"is_disabled": 0, "is_reserved": 0, "fusion_lat": 0.0, "lat": 38.884265, "fusion_lon": 0.0, "rental_uris": {"ios": "https://dc.lft.to/lastmile_qr_scan", "android": "https://dc.lft.to/lastmile_qr_scan"}, "lon": -77.02984866666667, "bike_id": "5b7c32ee3e3f6a4aab5dfafa9b6aed1c", "type": "electric_scooter", "name": "5b7c32ee3e3f6a4aab5dfafa9b6aed1c"}, {"is_disabled": 0, "is_reserved": 0, "fusion_lat": 0.0, "lat": 38.915624666666666, "fusion_lon": 0.0, "rental_uris": {"ios": "https://dc.lft.to/lastmile_qr_scan", "android": "https://dc.lft.to/lastmile_qr_scan"}, "lon": -77.03635816666667, "bike_id": "43903b257dd242f052e54b9d5abdf757", "type": "electric_scooter", "name": "43903b257dd242f052e54b9d5abdf757"}, {"is_disabled": 0, "is_reserved": 0, "fusion_lat": 0.0, "lat": 38.918222666666665, "fusion_lon": 0.0, "rental_uris": {"ios": "https://dc.lft.to/lastmile_qr_scan", "android": "https://dc.lft.to/lastmile_qr_scan"}, "lon": -77.02424633333334, "bike_id": "4a9d44b2876c268eddf81ae9457b6e9b", "type": "electric_scooter", "name": "4a9d44b2876c268eddf81ae9457b6e9b"}, {"is_disabled": 0, "is_reserved": 0, "fusion_lat": 0.0, "lat": 38.89713033333334, "fusion_lon": 0.0, "rental_uris": {"ios": "https://dc.lft.to/lastmile_qr_scan", "android": "https://dc.lft.to/lastmile_qr_scan"}, "lon": -77.024096, "bike_id": "c1f85fecc360af9e05926cb6061c4500", "type": "electric_scooter", "name": "c1f85fecc360af9e05926cb6061c4500"}, {"is_disabled": 0, "is_reserved": 0, "fusion_lat": 0.0, "lat": 38.919500166666666, "fusion_lon": 0.0, "rental_uris": {"ios": "https://dc.lft.to/lastmile_qr_scan", "android": "https://dc.lft.to/lastmile_qr_scan"}, "lon": -77.02299366666666, "bike_id": "0a77d8ce66804581b95c98184f56d6fe", "type": "electric_scooter", "name": "0a77d8ce66804581b95c98184f56d6fe"}, {"is_disabled": 0, "is_reserved": 0, "fusion_lat": 0.0, "lat": 38.89884683333333, "fusion_lon": 0.0, "rental_uris": {"ios": "https://dc.lft.to/lastmile_qr_scan", "android": "https://dc.lft.to/lastmile_qr_scan"}, "lon": -77.03993816666667, "bike_id": "867ea9a73a3674900115a4b3fda36aa7", "type": "electric_scooter", "name": "867ea9a73a3674900115a4b3fda36aa7"}, {"is_disabled": 0, "is_reserved": 0, "fusion_lat": 0.0, "lat": 38.9444485, "fusion_lon": 0.0, "rental_uris": {"ios": "https://dc.lft.to/lastmile_qr_scan", "android": "https://dc.lft.to/lastmile_qr_scan"}, "lon": -77.03280366666667, "bike_id": "e22e2dcc1fa622bc9299536e5fa45fb6", "type": "electric_scooter", "name": "e22e2dcc1fa622bc9299536e5fa45fb6"}, {"is_disabled": 0, "is_reserved": 0, "fusion_lat": 0.0, "lat": 38.90647833333333, "fusion_lon": 0.0, "rental_uris": {"ios": "https://dc.lft.to/lastmile_qr_scan", "android": "https://dc.lft.to/lastmile_qr_scan"}, "lon": -76.97934133333334, "bike_id": "c283060c8e71acd6ffa717231b40b122", "type": "electric_scooter", "name": "c283060c8e71acd6ffa717231b40b122"}, {"is_disabled": 0, "is_reserved": 0, "fusion_lat": 0.0, "lat": 38.90393683333333, "fusion_lon": 0.0, "rental_uris": {"ios": "https://dc.lft.to/lastmile_qr_scan", "android": "https://dc.lft.to/lastmile_qr_scan"}, "lon": -77.06294416666667, "bike_id": "7ab8da2c3d55ef974c70dafc12428a9f", "type": "electric_scooter", "name": "7ab8da2c3d55ef974c70dafc12428a9f"}, {"is_disabled": 0, "is_reserved": 0, "fusion_lat": 0.0, "lat": 38.922354, "fusion_lon": 0.0, "rental_uris": {"ios": "https://dc.lft.to/lastmile_qr_scan", "android": "https://dc.lft.to/lastmile_qr_scan"}, "lon": -77.03517733333334, "bike_id": "514bdba8be0f41d873576204db6c3156", "type": "electric_scooter", "name": "514bdba8be0f41d873576204db6c3156"}, {"is_disabled": 0, "is_reserved": 0, "fusion_lat": 0.0, "lat": 38.9041845, "fusion_lon": 0.0, "rental_uris": {"ios": "https://dc.lft.to/lastmile_qr_scan", "android": "https://dc.lft.to/lastmile_qr_scan"}, "lon": -77.0296795, "bike_id": "113a8b3b0245634b0e18a900ac07112f", "type": "electric_scooter", "name": "113a8b3b0245634b0e18a900ac07112f"}, {"is_disabled": 0, "is_reserved": 0, "fusion_lat": 0.0, "lat": 38.90509983333333, "fusion_lon": 0.0, "rental_uris": {"ios": "https://dc.lft.to/lastmile_qr_scan", "android": "https://dc.lft.to/lastmile_qr_scan"}, "lon": -77.00915866666666, "bike_id": "432e908607e109d0f359adce00c75ca1", "type": "electric_scooter", "name": "432e908607e109d0f359adce00c75ca1"}, {"is_disabled": 0, "is_reserved": 0, "fusion_lat": 0.0, "lat": 38.904258666666664, "fusion_lon": 0.0, "rental_uris": {"ios": "https://dc.lft.to/lastmile_qr_scan", "android": "https://dc.lft.to/lastmile_qr_scan"}, "lon": -77.06111533333333, "bike_id": "8e0e51129ab99cc15c3b363cea39ebaf", "type": "electric_scooter", "name": "8e0e51129ab99cc15c3b363cea39ebaf"}, {"is_disabled": 0, "is_reserved": 0, "fusion_lat": 0.0, "lat": 38.928637333333334, "fusion_lon": 0.0, "rental_uris": {"ios": "https://dc.lft.to/lastmile_qr_scan", "android": "https://dc.lft.to/lastmile_qr_scan"}, "lon": -77.01397966666667, "bike_id": "23cc9a8213b81893b18e06233e4c97c7", "type": "electric_scooter", "name": "23cc9a8213b81893b18e06233e4c97c7"}, {"is_disabled": 0, "is_reserved": 0, "fusion_lat": 0.0, "lat": 38.949760166666664, "fusion_lon": 0.0, "rental_uris": {"ios": "https://dc.lft.to/lastmile_qr_scan", "android": "https://dc.lft.to/lastmile_qr_scan"}, "lon": -77.02449333333334, "bike_id": "45763cecf6e32aebfd5becb32dee669a", "type": "electric_scooter", "name": "45763cecf6e32aebfd5becb32dee669a"}, {"is_disabled": 0, "is_reserved": 0, "fusion_lat": 0.0, "lat": 38.952307166666664, "fusion_lon": 0.0, "rental_uris": {"ios": "https://dc.lft.to/lastmile_qr_scan", "android": "https://dc.lft.to/lastmile_qr_scan"}, "lon": -77.00243783333333, "bike_id": "48f620c29858c4651d39a6373fc2fbe6", "type": "electric_bike", "name": "48f620c29858c4651d39a6373fc2fbe6"}, {"is_disabled": 0, "is_reserved": 0, "fusion_lat": 0.0, "lat": 38.88135883333333, "fusion_lon": 0.0, "rental_uris": {"ios": "https://dc.lft.to/lastmile_qr_scan", "android": "https://dc.lft.to/lastmile_qr_scan"}, "lon": -77.02274783333333, "bike_id": "caab574cd51b02845afbcbea485fbd17", "type": "electric_scooter", "name": "caab574cd51b02845afbcbea485fbd17"}, {"is_disabled": 0, "is_reserved": 0, "fusion_lat": 0.0, "lat": 38.89846466666667, "fusion_lon": 0.0, "rental_uris": {"ios": "https://dc.lft.to/lastmile_qr_scan", "android": "https://dc.lft.to/lastmile_qr_scan"}, "lon": -77.02859333333333, "bike_id": "844ded04d92973023210a308c3a40b8f", "type": "electric_scooter", "name": "844ded04d92973023210a308c3a40b8f"}, {"is_disabled": 0, "is_reserved": 0, "fusion_lat": 0.0, "lat": 38.8844975, "fusion_lon": 0.0, "rental_uris": {"ios": "https://dc.lft.to/lastmile_qr_scan", "android": "https://dc.lft.to/lastmile_qr_scan"}, "lon": -76.95096033333333, "bike_id": "364e8979b5b60108e7b2fe147905df3e", "type": "electric_scooter", "name": "364e8979b5b60108e7b2fe147905df3e"}, {"is_disabled": 0, "is_reserved": 0, "fusion_lat": 0.0, "lat": 38.9081745, "fusion_lon": 0.0, "rental_uris": {"ios": "https://dc.lft.to/lastmile_qr_scan", "android": "https://dc.lft.to/lastmile_qr_scan"}, "lon": -77.0385965, "bike_id": "ab356508b48d6579982320fbda51cbc0", "type": "electric_scooter", "name": "ab356508b48d6579982320fbda51cbc0"}, {"is_disabled": 0, "is_reserved": 0, "fusion_lat": 0.0, "lat": 38.914035166666665, "fusion_lon": 0.0, "rental_uris": {"ios": "https://dc.lft.to/lastmile_qr_scan", "android": "https://dc.lft.to/lastmile_qr_scan"}, "lon": -77.03958283333333, "bike_id": "cde17ab031d2b851341b1d1f162c9c45", "type": "electric_scooter", "name": "cde17ab031d2b851341b1d1f162c9c45"}, {"is_disabled": 0, "is_reserved": 0, "fusion_lat": 0.0, "lat": 38.8955125, "fusion_lon": 0.0, "rental_uris": {"ios": "https://dc.lft.to/lastmile_qr_scan", "android": "https://dc.lft.to/lastmile_qr_scan"}, "lon": -77.02705016666667, "bike_id": "0eb703bebfbd50f1d248a42db7180eb4", "type": "electric_scooter", "name": "0eb703bebfbd50f1d248a42db7180eb4"}, {"is_disabled": 0, "is_reserved": 0, "fusion_lat": 0.0, "lat": 38.9023395, "fusion_lon": 0.0, "rental_uris": {"ios": "https://dc.lft.to/lastmile_qr_scan", "android": "https://dc.lft.to/lastmile_qr_scan"}, "lon": -77.05332333333334, "bike_id": "ae7c9cb3ab88188cc7dc356c4035fe45", "type": "electric_scooter", "name": "ae7c9cb3ab88188cc7dc356c4035fe45"}, {"is_disabled": 0, "is_reserved": 0, "fusion_lat": 0.0, "lat": 38.8922425, "fusion_lon": 0.0, "rental_uris": {"ios": "https://dc.lft.to/lastmile_qr_scan", "android": "https://dc.lft.to/lastmile_qr_scan"}, "lon": -77.02966266666667, "bike_id": "54823d944e5ed194b403c21740950071", "type": "electric_scooter", "name": "54823d944e5ed194b403c21740950071"}, {"is_disabled": 0, "is_reserved": 0, "fusion_lat": 0.0, "lat": 38.91048383333333, "fusion_lon": 0.0, "rental_uris": {"ios": "https://dc.lft.to/lastmile_qr_scan", "android": "https://dc.lft.to/lastmile_qr_scan"}, "lon": -77.04340883333333, "bike_id": "945be1dfbde05b756eb7cf65463750b3", "type": "electric_scooter", "name": "945be1dfbde05b756eb7cf65463750b3"}, {"is_disabled": 0, "is_reserved": 0, "fusion_lat": 0.0, "lat": 38.92853216666666, "fusion_lon": 0.0, "rental_uris": {"ios": "https://dc.lft.to/lastmile_qr_scan", "android": "https://dc.lft.to/lastmile_qr_scan"}, "lon": -77.02873066666666, "bike_id": "773e784cc50779331799a8759cc40ad1", "type": "electric_scooter", "name": "773e784cc50779331799a8759cc40ad1"}, {"is_disabled": 0, "is_reserved": 0, "fusion_lat": 0.0, "lat": 38.936047, "fusion_lon": 0.0, "rental_uris": {"ios": "https://dc.lft.to/lastmile_qr_scan", "android": "https://dc.lft.to/lastmile_qr_scan"}, "lon": -77.0387755, "bike_id": "8ca087f4508464015a3baae4fd09ea3c", "type": "electric_scooter", "name": "8ca087f4508464015a3baae4fd09ea3c"}, {"is_disabled": 0, "is_reserved": 0, "fusion_lat": 0.0, "lat": 38.9000585, "fusion_lon": 0.0, "rental_uris": {"ios": "https://dc.lft.to/lastmile_qr_scan", "android": "https://dc.lft.to/lastmile_qr_scan"}, "lon": -77.02189366666667, "bike_id": "c2f1fb6d5275d4085789a2289be8b94a", "type": "electric_scooter", "name": "c2f1fb6d5275d4085789a2289be8b94a"}, {"is_disabled": 0, "is_reserved": 0, "fusion_lat": 0.0, "lat": 38.9341375, "fusion_lon": 0.0, "rental_uris": {"ios": "https://dc.lft.to/lastmile_qr_scan", "android": "https://dc.lft.to/lastmile_qr_scan"}, "lon": -77.0427605, "bike_id": "13d475dd5cb15409d2dce7924903656c", "type": "electric_scooter", "name": "13d475dd5cb15409d2dce7924903656c"}, {"is_disabled": 0, "is_reserved": 0, "fusion_lat": 0.0, "lat": 38.929891, "fusion_lon": 0.0, "rental_uris": {"ios": "https://dc.lft.to/lastmile_qr_scan", "android": "https://dc.lft.to/lastmile_qr_scan"}, "lon": -77.03470116666666, "bike_id": "bb170b0eaff35a380dd5434024324359", "type": "electric_scooter", "name": "bb170b0eaff35a380dd5434024324359"}, {"is_disabled": 0, "is_reserved": 0, "fusion_lat": 0.0, "lat": 38.921201333333336, "fusion_lon": 0.0, "rental_uris": {"ios": "https://dc.lft.to/lastmile_qr_scan", "android": "https://dc.lft.to/lastmile_qr_scan"}, "lon": -77.03661583333333, "bike_id": "5b9e839a90ed83ea78db77537de5dd21", "type": "electric_scooter", "name": "5b9e839a90ed83ea78db77537de5dd21"}, {"is_disabled": 0, "is_reserved": 0, "fusion_lat": 0.0, "lat": 38.92239333333333, "fusion_lon": 0.0, "rental_uris": {"ios": "https://dc.lft.to/lastmile_qr_scan", "android": "https://dc.lft.to/lastmile_qr_scan"}, "lon": -77.0226985, "bike_id": "376e46824e9f9f3c0e2b63b11fa3586e", "type": "electric_scooter", "name": "376e46824e9f9f3c0e2b63b11fa3586e"}, {"is_disabled": 0, "is_reserved": 0, "fusion_lat": 0.0, "lat": 38.90894316666667, "fusion_lon": 0.0, "rental_uris": {"ios": "https://dc.lft.to/lastmile_qr_scan", "android": "https://dc.lft.to/lastmile_qr_scan"}, "lon": -76.99796883333333, "bike_id": "2c1a56a0f1a4fc235149d7c94c19f079", "type": "electric_scooter", "name": "2c1a56a0f1a4fc235149d7c94c19f079"}, {"is_disabled": 0, "is_reserved": 0, "fusion_lat": 0.0, "lat": 38.842773333333334, "fusion_lon": 0.0, "rental_uris": {"ios": "https://dc.lft.to/lastmile_qr_scan", "android": "https://dc.lft.to/lastmile_qr_scan"}, "lon": -76.98838566666667, "bike_id": "e1d531c12e404b2570dbff73b3009f27", "type": "electric_bike", "name": "e1d531c12e404b2570dbff73b3009f27"}, {"is_disabled": 0, "is_reserved": 0, "fusion_lat": 0.0, "lat": 38.89514883333333, "fusion_lon": 0.0, "rental_uris": {"ios": "https://dc.lft.to/lastmile_qr_scan", "android": "https://dc.lft.to/lastmile_qr_scan"}, "lon": -77.02587883333334, "bike_id": "3d90fc3e0d6a6cb635b6ecf6a6c2c2a3", "type": "electric_scooter", "name": "3d90fc3e0d6a6cb635b6ecf6a6c2c2a3"}, {"is_disabled": 0, "is_reserved": 0, "fusion_lat": 0.0, "lat": 38.924145833333334, "fusion_lon": 0.0, "rental_uris": {"ios": "https://dc.lft.to/lastmile_qr_scan", "android": "https://dc.lft.to/lastmile_qr_scan"}, "lon": -77.02128933333333, "bike_id": "d0793b5d4db8514a89759ccbd7a893a0", "type": "electric_scooter", "name": "d0793b5d4db8514a89759ccbd7a893a0"}, {"is_disabled": 0, "is_reserved": 0, "fusion_lat": 0.0, "lat": 38.919990166666665, "fusion_lon": 0.0, "rental_uris": {"ios": "https://dc.lft.to/lastmile_qr_scan", "android": "https://dc.lft.to/lastmile_qr_scan"}, "lon": -77.03197883333333, "bike_id": "dcad11457348c77142412cda9d7e55fd", "type": "electric_scooter", "name": "dcad11457348c77142412cda9d7e55fd"}, {"is_disabled": 0, "is_reserved": 0, "fusion_lat": 0.0, "lat": 38.911789666666664, "fusion_lon": 0.0, "rental_uris": {"ios": "https://dc.lft.to/lastmile_qr_scan", "android": "https://dc.lft.to/lastmile_qr_scan"}, "lon": -77.02693533333333, "bike_id": "6b6e8371c57370b68e207b96a9a1517f", "type": "electric_bike", "name": "6b6e8371c57370b68e207b96a9a1517f"}, {"is_disabled": 0, "is_reserved": 0, "fusion_lat": 0.0, "lat": 38.89793733333333, "fusion_lon": 0.0, "rental_uris": {"ios": "https://dc.lft.to/lastmile_qr_scan", "android": "https://dc.lft.to/lastmile_qr_scan"}, "lon": -76.9716705, "bike_id": "733ac220191733984776e00b662ca127", "type": "electric_scooter", "name": "733ac220191733984776e00b662ca127"}, {"is_disabled": 0, "is_reserved": 0, "fusion_lat": 0.0, "lat": 38.90220983333333, "fusion_lon": 0.0, "rental_uris": {"ios": "https://dc.lft.to/lastmile_qr_scan", "android": "https://dc.lft.to/lastmile_qr_scan"}, "lon": -76.9317415, "bike_id": "0b5026592a473c809aa39c333f6966f7", "type": "electric_bike", "name": "0b5026592a473c809aa39c333f6966f7"}, {"is_disabled": 0, "is_reserved": 0, "fusion_lat": 0.0, "lat": 38.8799505, "fusion_lon": 0.0, "rental_uris": {"ios": "https://dc.lft.to/lastmile_qr_scan", "android": "https://dc.lft.to/lastmile_qr_scan"}, "lon": -77.037389, "bike_id": "1683441c332f1d7ea8a5c1797ba44841", "type": "electric_scooter", "name": "1683441c332f1d7ea8a5c1797ba44841"}, {"is_disabled": 0, "is_reserved": 0, "fusion_lat": 0.0, "lat": 38.9246245, "fusion_lon": 0.0, "rental_uris": {"ios": "https://dc.lft.to/lastmile_qr_scan", "android": "https://dc.lft.to/lastmile_qr_scan"}, "lon": -77.057648, "bike_id": "bfe92889ffb217d3a0ef278f57b13e45", "type": "electric_scooter", "name": "bfe92889ffb217d3a0ef278f57b13e45"}, {"is_disabled": 0, "is_reserved": 0, "fusion_lat": 0.0, "lat": 38.85783966666666, "fusion_lon": 0.0, "rental_uris": {"ios": "https://dc.lft.to/lastmile_qr_scan", "android": "https://dc.lft.to/lastmile_qr_scan"}, "lon": -76.98745233333334, "bike_id": "98b9b13cb31d1facb35ceee13b59cb28", "type": "electric_bike", "name": "98b9b13cb31d1facb35ceee13b59cb28"}, {"is_disabled": 0, "is_reserved": 0, "fusion_lat": 0.0, "lat": 38.9232065, "fusion_lon": 0.0, "rental_uris": {"ios": "https://dc.lft.to/lastmile_qr_scan", "android": "https://dc.lft.to/lastmile_qr_scan"}, "lon": -77.0279955, "bike_id": "4e309e517460aad11562058d88272280", "type": "electric_scooter", "name": "4e309e517460aad11562058d88272280"}, {"is_disabled": 0, "is_reserved": 0, "fusion_lat": 0.0, "lat": 38.91401783333333, "fusion_lon": 0.0, "rental_uris": {"ios": "https://dc.lft.to/lastmile_qr_scan", "android": "https://dc.lft.to/lastmile_qr_scan"}, "lon": -77.04581066666667, "bike_id": "49dacd4085ce3025c0bc04da5a193558", "type": "electric_scooter", "name": "49dacd4085ce3025c0bc04da5a193558"}, {"is_disabled": 0, "is_reserved": 0, "fusion_lat": 0.0, "lat": 38.92415283333333, "fusion_lon": 0.0, "rental_uris": {"ios": "https://dc.lft.to/lastmile_qr_scan", "android": "https://dc.lft.to/lastmile_qr_scan"}, "lon": -77.02010216666666, "bike_id": "f75720befe36f5de45cc43e76ac8f673", "type": "electric_scooter", "name": "f75720befe36f5de45cc43e76ac8f673"}, {"is_disabled": 0, "is_reserved": 0, "fusion_lat": 0.0, "lat": 38.85837733333334, "fusion_lon": 0.0, "rental_uris": {"ios": "https://dc.lft.to/lastmile_qr_scan", "android": "https://dc.lft.to/lastmile_qr_scan"}, "lon": -76.9883325, "bike_id": "2fd8234d9de294ddb1d3ede96420a8ec", "type": "electric_scooter", "name": "2fd8234d9de294ddb1d3ede96420a8ec"}, {"is_disabled": 0, "is_reserved": 0, "fusion_lat": 0.0, "lat": 38.99850566666667, "fusion_lon": 0.0, "rental_uris": {"ios": "https://dc.lft.to/lastmile_qr_scan", "android": "https://dc.lft.to/lastmile_qr_scan"}, "lon": -77.00248016666667, "bike_id": "e6e1a048c6fe6dd8c66c350cd8acfcc1", "type": "electric_bike", "name": "e6e1a048c6fe6dd8c66c350cd8acfcc1"}, {"is_disabled": 0, "is_reserved": 0, "fusion_lat": 0.0, "lat": 38.8756555, "fusion_lon": 0.0, "rental_uris": {"ios": "https://dc.lft.to/lastmile_qr_scan", "android": "https://dc.lft.to/lastmile_qr_scan"}, "lon": -77.04706816666666, "bike_id": "0f5d256e12d034f8d738aea9ff462b1c", "type": "electric_bike", "name": "0f5d256e12d034f8d738aea9ff462b1c"}, {"is_disabled": 0, "is_reserved": 0, "fusion_lat": 0.0, "lat": 38.892234, "fusion_lon": 0.0, "rental_uris": {"ios": "https://dc.lft.to/lastmile_qr_scan", "android": "https://dc.lft.to/lastmile_qr_scan"}, "lon": -77.043337, "bike_id": "ee45276cf702595fc035bda7001f26d1", "type": "electric_scooter", "name": "ee45276cf702595fc035bda7001f26d1"}, {"is_disabled": 0, "is_reserved": 0, "fusion_lat": 0.0, "lat": 39.042354333333336, "fusion_lon": 0.0, "rental_uris": {"ios": "https://dc.lft.to/lastmile_qr_scan", "android": "https://dc.lft.to/lastmile_qr_scan"}, "lon": -76.9973525, "bike_id": "1281326220ebcd300fdc81f441c6fa88", "type": "electric_bike", "name": "1281326220ebcd300fdc81f441c6fa88"}, {"is_disabled": 0, "is_reserved": 0, "fusion_lat": 0.0, "lat": 38.894726666666664, "fusion_lon": 0.0, "rental_uris": {"ios": "https://dc.lft.to/lastmile_qr_scan", "android": "https://dc.lft.to/lastmile_qr_scan"}, "lon": -77.0026825, "bike_id": "0b6424bd44434c783cee0267a6485ee4", "type": "electric_scooter", "name": "0b6424bd44434c783cee0267a6485ee4"}, {"is_disabled": 0, "is_reserved": 0, "fusion_lat": 0.0, "lat": 38.91272683333333, "fusion_lon": 0.0, "rental_uris": {"ios": "https://dc.lft.to/lastmile_qr_scan", "android": "https://dc.lft.to/lastmile_qr_scan"}, "lon": -77.04657016666667, "bike_id": "9d812a2bf8ad74e1a417d3db5104a819", "type": "electric_scooter", "name": "9d812a2bf8ad74e1a417d3db5104a819"}, {"is_disabled": 0, "is_reserved": 0, "fusion_lat": 0.0, "lat": 38.9119725, "fusion_lon": 0.0, "rental_uris": {"ios": "https://dc.lft.to/lastmile_qr_scan", "android": "https://dc.lft.to/lastmile_qr_scan"}, "lon": -77.00450016666667, "bike_id": "416de9e7effa6d4913e894f1df500108", "type": "electric_scooter", "name": "416de9e7effa6d4913e894f1df500108"}, {"is_disabled": 0, "is_reserved": 0, "fusion_lat": 0.0, "lat": 38.908916, "fusion_lon": 0.0, "rental_uris": {"ios": "https://dc.lft.to/lastmile_qr_scan", "android": "https://dc.lft.to/lastmile_qr_scan"}, "lon": -77.04665283333334, "bike_id": "e8e2e204bd912591b237b887f64be8de", "type": "electric_scooter", "name": "e8e2e204bd912591b237b887f64be8de"}, {"is_disabled": 0, "is_reserved": 0, "fusion_lat": 0.0, "lat": 38.95072916666667, "fusion_lon": 0.0, "rental_uris": {"ios": "https://dc.lft.to/lastmile_qr_scan", "android": "https://dc.lft.to/lastmile_qr_scan"}, "lon": -76.99599883333333, "bike_id": "e5555e5e30cb480bf2faeaf0527feea1", "type": "electric_bike", "name": "e5555e5e30cb480bf2faeaf0527feea1"}, {"is_disabled": 0, "is_reserved": 0, "fusion_lat": 0.0, "lat": 38.9143925, "fusion_lon": 0.0, "rental_uris": {"ios": "https://dc.lft.to/lastmile_qr_scan", "android": "https://dc.lft.to/lastmile_qr_scan"}, "lon": -77.02284316666666, "bike_id": "a46e4d163bff1ea3234e68bd1608a31a", "type": "electric_scooter", "name": "a46e4d163bff1ea3234e68bd1608a31a"}, {"is_disabled": 0, "is_reserved": 0, "fusion_lat": 0.0, "lat": 38.92489916666667, "fusion_lon": 0.0, "rental_uris": {"ios": "https://dc.lft.to/lastmile_qr_scan", "android": "https://dc.lft.to/lastmile_qr_scan"}, "lon": -77.02690916666667, "bike_id": "cc6b3f12b3300c7e7eb845ffa5dd83fd", "type": "electric_scooter", "name": "cc6b3f12b3300c7e7eb845ffa5dd83fd"}, {"is_disabled": 0, "is_reserved": 0, "fusion_lat": 0.0, "lat": 38.91806916666667, "fusion_lon": 0.0, "rental_uris": {"ios": "https://dc.lft.to/lastmile_qr_scan", "android": "https://dc.lft.to/lastmile_qr_scan"}, "lon": -77.032075, "bike_id": "5f1e18491b3fcb82336836690a5b27a7", "type": "electric_scooter", "name": "5f1e18491b3fcb82336836690a5b27a7"}, {"is_disabled": 0, "is_reserved": 0, "fusion_lat": 0.0, "lat": 38.896208666666666, "fusion_lon": 0.0, "rental_uris": {"ios": "https://dc.lft.to/lastmile_qr_scan", "android": "https://dc.lft.to/lastmile_qr_scan"}, "lon": -77.023173, "bike_id": "b63c212ff9d31ee54030bb0eb7e2373b", "type": "electric_scooter", "name": "b63c212ff9d31ee54030bb0eb7e2373b"}, {"is_disabled": 0, "is_reserved": 0, "fusion_lat": 0.0, "lat": 38.880401666666664, "fusion_lon": 0.0, "rental_uris": {"ios": "https://dc.lft.to/lastmile_qr_scan", "android": "https://dc.lft.to/lastmile_qr_scan"}, "lon": -76.92724666666666, "bike_id": "1592e967313a9b936fe117e36f574d04", "type": "electric_scooter", "name": "1592e967313a9b936fe117e36f574d04"}, {"is_disabled": 0, "is_reserved": 0, "fusion_lat": 0.0, "lat": 38.8757745, "fusion_lon": 0.0, "rental_uris": {"ios": "https://dc.lft.to/lastmile_qr_scan", "android": "https://dc.lft.to/lastmile_qr_scan"}, "lon": -77.23408316666666, "bike_id": "0aae9a093ab6bc968b134ee5e22c4073", "type": "electric_bike", "name": "0aae9a093ab6bc968b134ee5e22c4073"}, {"is_disabled": 0, "is_reserved": 0, "fusion_lat": 0.0, "lat": 38.870650166666664, "fusion_lon": 0.0, "rental_uris": {"ios": "https://dc.lft.to/lastmile_qr_scan", "android": "https://dc.lft.to/lastmile_qr_scan"}, "lon": -76.98127516666666, "bike_id": "4015eee488c2a783996121bfa346ad13", "type": "electric_scooter", "name": "4015eee488c2a783996121bfa346ad13"}, {"is_disabled": 0, "is_reserved": 0, "fusion_lat": 0.0, "lat": 38.9421725, "fusion_lon": 0.0, "rental_uris": {"ios": "https://dc.lft.to/lastmile_qr_scan", "android": "https://dc.lft.to/lastmile_qr_scan"}, "lon": -76.96133033333334, "bike_id": "40282bb5791512576d8e92f06913f9ea", "type": "electric_bike", "name": "40282bb5791512576d8e92f06913f9ea"}, {"is_disabled": 0, "is_reserved": 0, "fusion_lat": 0.0, "lat": 38.905248, "fusion_lon": 0.0, "rental_uris": {"ios": "https://dc.lft.to/lastmile_qr_scan", "android": "https://dc.lft.to/lastmile_qr_scan"}, "lon": -77.06258616666666, "bike_id": "f7a4557f7a7e1c859a0dfd80b9573310", "type": "electric_scooter", "name": "f7a4557f7a7e1c859a0dfd80b9573310"}, {"is_disabled": 0, "is_reserved": 0, "fusion_lat": 0.0, "lat": 38.92758533333333, "fusion_lon": 0.0, "rental_uris": {"ios": "https://dc.lft.to/lastmile_qr_scan", "android": "https://dc.lft.to/lastmile_qr_scan"}, "lon": -77.03273866666666, "bike_id": "e17185087ab557e69d610b3a5663786c", "type": "electric_scooter", "name": "e17185087ab557e69d610b3a5663786c"}, {"is_disabled": 0, "is_reserved": 0, "fusion_lat": 0.0, "lat": 38.9101075, "fusion_lon": 0.0, "rental_uris": {"ios": "https://dc.lft.to/lastmile_qr_scan", "android": "https://dc.lft.to/lastmile_qr_scan"}, "lon": -77.04397833333333, "bike_id": "c0df2a6c38197c89c9792c277175b44b", "type": "electric_scooter", "name": "c0df2a6c38197c89c9792c277175b44b"}, {"is_disabled": 0, "is_reserved": 0, "fusion_lat": 0.0, "lat": 38.92531866666667, "fusion_lon": 0.0, "rental_uris": {"ios": "https://dc.lft.to/lastmile_qr_scan", "android": "https://dc.lft.to/lastmile_qr_scan"}, "lon": -77.02560766666667, "bike_id": "cd8a218f7e4d6a90b3d7749389ec762d", "type": "electric_scooter", "name": "cd8a218f7e4d6a90b3d7749389ec762d"}, {"is_disabled": 0, "is_reserved": 0, "fusion_lat": 0.0, "lat": 38.88715033333333, "fusion_lon": 0.0, "rental_uris": {"ios": "https://dc.lft.to/lastmile_qr_scan", "android": "https://dc.lft.to/lastmile_qr_scan"}, "lon": -77.03187283333334, "bike_id": "a2a5885ce95fc5201ca9b5fe1a798e4b", "type": "electric_scooter", "name": "a2a5885ce95fc5201ca9b5fe1a798e4b"}, {"is_disabled": 0, "is_reserved": 0, "fusion_lat": 0.0, "lat": 38.80979116666666, "fusion_lon": 0.0, "rental_uris": {"ios": "https://dc.lft.to/lastmile_qr_scan", "android": "https://dc.lft.to/lastmile_qr_scan"}, "lon": -77.07657766666667, "bike_id": "8124f8cd992b08214aae38ed04ddcedc", "type": "electric_bike", "name": "8124f8cd992b08214aae38ed04ddcedc"}, {"is_disabled": 0, "is_reserved": 0, "fusion_lat": 0.0, "lat": 38.898710666666666, "fusion_lon": 0.0, "rental_uris": {"ios": "https://dc.lft.to/lastmile_qr_scan", "android": "https://dc.lft.to/lastmile_qr_scan"}, "lon": -77.050025, "bike_id": "df69f52a35dea6004c60270375cbd85d", "type": "electric_scooter", "name": "df69f52a35dea6004c60270375cbd85d"}, {"is_disabled": 0, "is_reserved": 0, "fusion_lat": 0.0, "lat": 38.9017995, "fusion_lon": 0.0, "rental_uris": {"ios": "https://dc.lft.to/lastmile_qr_scan", "android": "https://dc.lft.to/lastmile_qr_scan"}, "lon": -76.97671883333334, "bike_id": "3f644403f36f58ce6ba48d09a9098beb", "type": "electric_scooter", "name": "3f644403f36f58ce6ba48d09a9098beb"}, {"is_disabled": 0, "is_reserved": 0, "fusion_lat": 0.0, "lat": 38.899711, "fusion_lon": 0.0, "rental_uris": {"ios": "https://dc.lft.to/lastmile_qr_scan", "android": "https://dc.lft.to/lastmile_qr_scan"}, "lon": -77.01598116666666, "bike_id": "3c87cdadc6a96c2ea499b7446cc5dd71", "type": "electric_scooter", "name": "3c87cdadc6a96c2ea499b7446cc5dd71"}, {"is_disabled": 0, "is_reserved": 0, "fusion_lat": 0.0, "lat": 38.8900885, "fusion_lon": 0.0, "rental_uris": {"ios": "https://dc.lft.to/lastmile_qr_scan", "android": "https://dc.lft.to/lastmile_qr_scan"}, "lon": -77.03321166666667, "bike_id": "848d888a236ff0b121b7c34fb67978d9", "type": "electric_scooter", "name": "848d888a236ff0b121b7c34fb67978d9"}, {"is_disabled": 0, "is_reserved": 0, "fusion_lat": 0.0, "lat": 38.88709633333333, "fusion_lon": 0.0, "rental_uris": {"ios": "https://dc.lft.to/lastmile_qr_scan", "android": "https://dc.lft.to/lastmile_qr_scan"}, "lon": -76.98381183333333, "bike_id": "9416e7ba8d58cceddcabbc6af828d652", "type": "electric_scooter", "name": "9416e7ba8d58cceddcabbc6af828d652"}, {"is_disabled": 0, "is_reserved": 0, "fusion_lat": 0.0, "lat": 38.878930833333335, "fusion_lon": 0.0, "rental_uris": {"ios": "https://dc.lft.to/lastmile_qr_scan", "android": "https://dc.lft.to/lastmile_qr_scan"}, "lon": -76.93532783333333, "bike_id": "38beb4b173a1d8779103138086b8a8ec", "type": "electric_scooter", "name": "38beb4b173a1d8779103138086b8a8ec"}, {"is_disabled": 0, "is_reserved": 0, "fusion_lat": 0.0, "lat": 38.915567333333335, "fusion_lon": 0.0, "rental_uris": {"ios": "https://dc.lft.to/lastmile_qr_scan", "android": "https://dc.lft.to/lastmile_qr_scan"}, "lon": -77.03816633333334, "bike_id": "f63259af9017fb64e6c6298e022223b3", "type": "electric_scooter", "name": "f63259af9017fb64e6c6298e022223b3"}, {"is_disabled": 0, "is_reserved": 0, "fusion_lat": 0.0, "lat": 38.92223516666667, "fusion_lon": 0.0, "rental_uris": {"ios": "https://dc.lft.to/lastmile_qr_scan", "android": "https://dc.lft.to/lastmile_qr_scan"}, "lon": -77.03891366666667, "bike_id": "53e4785828e1da04b3f1a95b976dacea", "type": "electric_scooter", "name": "53e4785828e1da04b3f1a95b976dacea"}, {"is_disabled": 0, "is_reserved": 0, "fusion_lat": 0.0, "lat": 38.914727166666665, "fusion_lon": 0.0, "rental_uris": {"ios": "https://dc.lft.to/lastmile_qr_scan", "android": "https://dc.lft.to/lastmile_qr_scan"}, "lon": -77.03183, "bike_id": "5b723cec45dd52f4227585b2d09c77a6", "type": "electric_scooter", "name": "5b723cec45dd52f4227585b2d09c77a6"}, {"is_disabled": 0, "is_reserved": 0, "fusion_lat": 0.0, "lat": 38.80523216666667, "fusion_lon": 0.0, "rental_uris": {"ios": "https://dc.lft.to/lastmile_qr_scan", "android": "https://dc.lft.to/lastmile_qr_scan"}, "lon": -77.04339016666667, "bike_id": "dc48b39ad3c81c141acb45cbc2de7057", "type": "electric_bike", "name": "dc48b39ad3c81c141acb45cbc2de7057"}, {"is_disabled": 0, "is_reserved": 0, "fusion_lat": 0.0, "lat": 38.895232666666665, "fusion_lon": 0.0, "rental_uris": {"ios": "https://dc.lft.to/lastmile_qr_scan", "android": "https://dc.lft.to/lastmile_qr_scan"}, "lon": -77.023034, "bike_id": "9327ecc92c901ef28788bb6fe14ebc77", "type": "electric_scooter", "name": "9327ecc92c901ef28788bb6fe14ebc77"}, {"is_disabled": 0, "is_reserved": 0, "fusion_lat": 0.0, "lat": 38.8649495, "fusion_lon": 0.0, "rental_uris": {"ios": "https://dc.lft.to/lastmile_qr_scan", "android": "https://dc.lft.to/lastmile_qr_scan"}, "lon": -76.96983016666667, "bike_id": "38ff4a1b449a278e90b966b81e8e104b", "type": "electric_bike", "name": "38ff4a1b449a278e90b966b81e8e104b"}, {"is_disabled": 0, "is_reserved": 0, "fusion_lat": 0.0, "lat": 38.89738233333333, "fusion_lon": 0.0, "rental_uris": {"ios": "https://dc.lft.to/lastmile_qr_scan", "android": "https://dc.lft.to/lastmile_qr_scan"}, "lon": -77.0175995, "bike_id": "04035553ba0fc3c377a70ab26452b8ba", "type": "electric_scooter", "name": "04035553ba0fc3c377a70ab26452b8ba"}, {"is_disabled": 0, "is_reserved": 0, "fusion_lat": 0.0, "lat": 38.92259816666667, "fusion_lon": 0.0, "rental_uris": {"ios": "https://dc.lft.to/lastmile_qr_scan", "android": "https://dc.lft.to/lastmile_qr_scan"}, "lon": -77.07278816666667, "bike_id": "e345ca8794c6b78c7dc6dba01a1ee427", "type": "electric_scooter", "name": "e345ca8794c6b78c7dc6dba01a1ee427"}, {"is_disabled": 0, "is_reserved": 0, "fusion_lat": 0.0, "lat": 38.927597166666665, "fusion_lon": 0.0, "rental_uris": {"ios": "https://dc.lft.to/lastmile_qr_scan", "android": "https://dc.lft.to/lastmile_qr_scan"}, "lon": -77.0294295, "bike_id": "b96f6acb3b5d41cc918a34c97fa00f3e", "type": "electric_scooter", "name": "b96f6acb3b5d41cc918a34c97fa00f3e"}, {"is_disabled": 0, "is_reserved": 0, "fusion_lat": 0.0, "lat": 38.896053, "fusion_lon": 0.0, "rental_uris": {"ios": "https://dc.lft.to/lastmile_qr_scan", "android": "https://dc.lft.to/lastmile_qr_scan"}, "lon": -77.00332916666666, "bike_id": "df50365e70b5019a3f96391bd8e6e343", "type": "electric_scooter", "name": "df50365e70b5019a3f96391bd8e6e343"}, {"is_disabled": 0, "is_reserved": 0, "fusion_lat": 0.0, "lat": 38.92873066666667, "fusion_lon": 0.0, "rental_uris": {"ios": "https://dc.lft.to/lastmile_qr_scan", "android": "https://dc.lft.to/lastmile_qr_scan"}, "lon": -77.05652116666667, "bike_id": "377be9bc45ad89ca2b1875b77962c933", "type": "electric_scooter", "name": "377be9bc45ad89ca2b1875b77962c933"}, {"is_disabled": 0, "is_reserved": 0, "fusion_lat": 0.0, "lat": 38.92015966666666, "fusion_lon": 0.0, "rental_uris": {"ios": "https://dc.lft.to/lastmile_qr_scan", "android": "https://dc.lft.to/lastmile_qr_scan"}, "lon": -77.03153266666666, "bike_id": "fc6f6ffb4c72795e6410eac8e00e9aed", "type": "electric_scooter", "name": "fc6f6ffb4c72795e6410eac8e00e9aed"}, {"is_disabled": 0, "is_reserved": 0, "fusion_lat": 0.0, "lat": 38.899151833333335, "fusion_lon": 0.0, "rental_uris": {"ios": "https://dc.lft.to/lastmile_qr_scan", "android": "https://dc.lft.to/lastmile_qr_scan"}, "lon": -76.93387266666667, "bike_id": "d310a96f2aa2fb0106ea4fd2aff8d28b", "type": "electric_scooter", "name": "d310a96f2aa2fb0106ea4fd2aff8d28b"}, {"is_disabled": 0, "is_reserved": 0, "fusion_lat": 0.0, "lat": 38.82923016666667, "fusion_lon": 0.0, "rental_uris": {"ios": "https://dc.lft.to/lastmile_qr_scan", "android": "https://dc.lft.to/lastmile_qr_scan"}, "lon": -77.0687025, "bike_id": "ba41cce8e6b53a775a5c57fba63895be", "type": "electric_bike", "name": "ba41cce8e6b53a775a5c57fba63895be"}, {"is_disabled": 0, "is_reserved": 0, "fusion_lat": 0.0, "lat": 38.91266666666667, "fusion_lon": 0.0, "rental_uris": {"ios": "https://dc.lft.to/lastmile_qr_scan", "android": "https://dc.lft.to/lastmile_qr_scan"}, "lon": -77.016079, "bike_id": "fe611fdd4f54c511f0b4fb6765952622", "type": "electric_scooter", "name": "fe611fdd4f54c511f0b4fb6765952622"}, {"is_disabled": 0, "is_reserved": 0, "fusion_lat": 0.0, "lat": 38.8803815, "fusion_lon": 0.0, "rental_uris": {"ios": "https://dc.lft.to/lastmile_qr_scan", "android": "https://dc.lft.to/lastmile_qr_scan"}, "lon": -76.92724016666666, "bike_id": "51dc6495e0fc0ab71aaed66cee3f7437", "type": "electric_scooter", "name": "51dc6495e0fc0ab71aaed66cee3f7437"}, {"is_disabled": 0, "is_reserved": 0, "fusion_lat": 0.0, "lat": 38.89904466666667, "fusion_lon": 0.0, "rental_uris": {"ios": "https://dc.lft.to/lastmile_qr_scan", "android": "https://dc.lft.to/lastmile_qr_scan"}, "lon": -77.03974933333333, "bike_id": "72b1f895c6fa038028982957f56d6406", "type": "electric_scooter", "name": "72b1f895c6fa038028982957f56d6406"}, {"is_disabled": 0, "is_reserved": 0, "fusion_lat": 0.0, "lat": 38.902827333333335, "fusion_lon": 0.0, "rental_uris": {"ios": "https://dc.lft.to/lastmile_qr_scan", "android": "https://dc.lft.to/lastmile_qr_scan"}, "lon": -77.02412666666666, "bike_id": "10388665b26d91e855deff669c06f6ec", "type": "electric_scooter", "name": "10388665b26d91e855deff669c06f6ec"}, {"is_disabled": 0, "is_reserved": 0, "fusion_lat": 0.0, "lat": 38.895016166666665, "fusion_lon": 0.0, "rental_uris": {"ios": "https://dc.lft.to/lastmile_qr_scan", "android": "https://dc.lft.to/lastmile_qr_scan"}, "lon": -77.03958233333333, "bike_id": "d180c3b22458929f640582f8bf3bd463", "type": "electric_scooter", "name": "d180c3b22458929f640582f8bf3bd463"}, {"is_disabled": 0, "is_reserved": 0, "fusion_lat": 0.0, "lat": 38.88509966666667, "fusion_lon": 0.0, "rental_uris": {"ios": "https://dc.lft.to/lastmile_qr_scan", "android": "https://dc.lft.to/lastmile_qr_scan"}, "lon": -77.01115183333333, "bike_id": "ab9a7868c4c3a0910b76d85d91e95857", "type": "electric_scooter", "name": "ab9a7868c4c3a0910b76d85d91e95857"}, {"is_disabled": 0, "is_reserved": 0, "fusion_lat": 0.0, "lat": 38.943692166666665, "fusion_lon": 0.0, "rental_uris": {"ios": "https://dc.lft.to/lastmile_qr_scan", "android": "https://dc.lft.to/lastmile_qr_scan"}, "lon": -77.06094683333333, "bike_id": "a32a1563f7ecbeb87ba1305f621001ff", "type": "electric_scooter", "name": "a32a1563f7ecbeb87ba1305f621001ff"}, {"is_disabled": 0, "is_reserved": 0, "fusion_lat": 0.0, "lat": 38.9617265, "fusion_lon": 0.0, "rental_uris": {"ios": "https://dc.lft.to/lastmile_qr_scan", "android": "https://dc.lft.to/lastmile_qr_scan"}, "lon": -77.03225033333334, "bike_id": "42c8cd7ad25f23698ccaec289dba7828", "type": "electric_scooter", "name": "42c8cd7ad25f23698ccaec289dba7828"}, {"is_disabled": 0, "is_reserved": 0, "fusion_lat": 0.0, "lat": 38.94973183333333, "fusion_lon": 0.0, "rental_uris": {"ios": "https://dc.lft.to/lastmile_qr_scan", "android": "https://dc.lft.to/lastmile_qr_scan"}, "lon": -77.02443833333334, "bike_id": "1b05de9e4c56105e4335f7d8db4d565f", "type": "electric_scooter", "name": "1b05de9e4c56105e4335f7d8db4d565f"}, {"is_disabled": 0, "is_reserved": 0, "fusion_lat": 0.0, "lat": 38.9370275, "fusion_lon": 0.0, "rental_uris": {"ios": "https://dc.lft.to/lastmile_qr_scan", "android": "https://dc.lft.to/lastmile_qr_scan"}, "lon": -77.05683083333334, "bike_id": "f5f54093717bcb13d75554459b02fad6", "type": "electric_scooter", "name": "f5f54093717bcb13d75554459b02fad6"}, {"is_disabled": 0, "is_reserved": 0, "fusion_lat": 0.0, "lat": 38.932117166666664, "fusion_lon": 0.0, "rental_uris": {"ios": "https://dc.lft.to/lastmile_qr_scan", "android": "https://dc.lft.to/lastmile_qr_scan"}, "lon": -77.03651516666666, "bike_id": "ebd79872378b06ad3d43e6ddf9fa63aa", "type": "electric_scooter", "name": "ebd79872378b06ad3d43e6ddf9fa63aa"}, {"is_disabled": 0, "is_reserved": 0, "fusion_lat": 0.0, "lat": 38.894253166666665, "fusion_lon": 0.0, "rental_uris": {"ios": "https://dc.lft.to/lastmile_qr_scan", "android": "https://dc.lft.to/lastmile_qr_scan"}, "lon": -77.02130933333333, "bike_id": "965925becf5e90fee4a6fafd10c98e8b", "type": "electric_scooter", "name": "965925becf5e90fee4a6fafd10c98e8b"}, {"is_disabled": 0, "is_reserved": 0, "fusion_lat": 0.0, "lat": 38.906400833333336, "fusion_lon": 0.0, "rental_uris": {"ios": "https://dc.lft.to/lastmile_qr_scan", "android": "https://dc.lft.to/lastmile_qr_scan"}, "lon": -77.06898116666666, "bike_id": "08ebad29f978bdcbf4b856b5557f52cf", "type": "electric_scooter", "name": "08ebad29f978bdcbf4b856b5557f52cf"}, {"is_disabled": 0, "is_reserved": 0, "fusion_lat": 0.0, "lat": 38.89422016666666, "fusion_lon": 0.0, "rental_uris": {"ios": "https://dc.lft.to/lastmile_qr_scan", "android": "https://dc.lft.to/lastmile_qr_scan"}, "lon": -77.05596033333333, "bike_id": "a9857dc0d980894177c703a93f62d796", "type": "electric_scooter", "name": "a9857dc0d980894177c703a93f62d796"}, {"is_disabled": 0, "is_reserved": 0, "fusion_lat": 0.0, "lat": 38.89603366666667, "fusion_lon": 0.0, "rental_uris": {"ios": "https://dc.lft.to/lastmile_qr_scan", "android": "https://dc.lft.to/lastmile_qr_scan"}, "lon": -77.03172483333333, "bike_id": "773ea92ae2729ce85fdd4141ea53e10a", "type": "electric_scooter", "name": "773ea92ae2729ce85fdd4141ea53e10a"},