{"data": {"bikes": [{"rental_uris": {"ios": "https://dc.lft.to/lastmile_qr_scan", "android": "https://dc.lft.to/lastmile_qr_scan"}, "lon": -77.01126233333333, "type": "electric_scooter", "fusion_lat": 0.0, "lat": 38.89503233333333, "name": "3124f94b784db7ec1ad07588be82a4fa", "fusion_lon": 0.0, "bike_id": "3124f94b784db7ec1ad07588be82a4fa", "is_disabled": 0, "is_reserved": 0}, {"rental_uris": {"ios": "https://dc.lft.to/lastmile_qr_scan", "android": "https://dc.lft.to/lastmile_qr_scan"}, "lon": -77.04893533333333, "type": "electric_scooter", "fusion_lat": 0.0, "lat": 38.918826, "name": "dfe4077ddda82b2f54a6f9a00681bbe6", "fusion_lon": 0.0, "bike_id": "dfe4077ddda82b2f54a6f9a00681bbe6", "is_disabled": 0, "is_reserved": 0}, {"rental_uris": {"ios": "https://dc.lft.to/lastmile_qr_scan", "android": "https://dc.lft.to/lastmile_qr_scan"}, "lon": -76.97552716666667, "type": "electric_scooter", "fusion_lat": 0.0, "lat": 38.9043975, "name": "daf81adcdc146a937ed8491411e73118", "fusion_lon": 0.0, "bike_id": "daf81adcdc146a937ed8491411e73118", "is_disabled": 0, "is_reserved": 0}, {"rental_uris": {"ios": "https://dc.lft.to/lastmile_qr_scan", "android": "https://dc.lft.to/lastmile_qr_scan"}, "lon": -76.99609383333333, "type": "electric_scooter", "fusion_lat": 0.0, "lat": 38.88623833333333, "name": "023745b4a4d60c29456c520099173e65", "fusion_lon": 0.0, "bike_id": "023745b4a4d60c29456c520099173e65", "is_disabled": 0, "is_reserved": 0}, {"rental_uris": {"ios": "https://dc.lft.to/lastmile_qr_scan", "android": "https://dc.lft.to/lastmile_qr_scan"}, "lon": -77.00366466666667, "type": "electric_scooter", "fusion_lat": 0.0, "lat": 38.907303166666665, "name": "2b5442a1a798fabcb5b928872638bea1", "fusion_lon": 0.0, "bike_id": "2b5442a1a798fabcb5b928872638bea1", "is_disabled": 0, "is_reserved": 0}, {"rental_uris": {"ios": "https://dc.lft.to/lastmile_qr_scan", "android": "https://dc.lft.to/lastmile_qr_scan"}, "lon": -77.03327466666667, "type": "electric_scooter", "fusion_lat": 0.0, "lat": 38.903592833333335, "name": "18fe4e4e33ee4bb5ca1797d237465063", "fusion_lon": 0.0, "bike_id": "18fe4e4e33ee4bb5ca1797d237465063", "is_disabled": 0, "is_reserved": 0}, {"rental_uris": {"ios": "https://dc.lft.to/lastmile_qr_scan", "android": "https://dc.lft.to/lastmile_qr_scan"}, "lon": -77.042286, "type": "electric_scooter", "fusion_lat": 0.0, "lat": 38.921299166666664, "name": "c060c38deddc2ab0548cd08c9bbd1a4a", "fusion_lon": 0.0, "bike_id": "c060c38deddc2ab0548cd08c9bbd1a4a", "is_disabled": 0, "is_reserved": 0}, {"rental_uris": {"ios": "https://dc.lft.to/lastmile_qr_scan", "android": "https://dc.lft.to/lastmile_qr_scan"}, "lon": -77.05043866666666, "type": "electric_scooter", "fusion_lat": 0.0, "lat": 38.90008616666667, "name": "846512b86b3bebf6482748210c1ed3ec", "fusion_lon": 0.0, "bike_id": "846512b86b3bebf6482748210c1ed3ec", "is_disabled": 0, "is_reserved": 0}, {"rental_uris": {"ios": "https://dc.lft.to/lastmile_qr_scan", "android": "https://dc.lft.to/lastmile_qr_scan"}, "lon": -76.97325316666667, "type": "electric_scooter", "fusion_lat": 0.0, "lat": 38.930329, "name": "d6246891daef6bd63911f256332441b4", "fusion_lon": 0.0, "bike_id": "d6246891daef6bd63911f256332441b4", "is_disabled": 0, "is_reserved": 0}, {"rental_uris": {"ios": "https://dc.lft.to/lastmile_qr_scan", "android": "https://dc.lft.to/lastmile_qr_scan"}, "lon": -77.03839583333334, "type": "electric_scooter", "fusion_lat": 0.0, "lat": 38.9311345, "name": "6b6813467e93bc893013e01ea988143a", "fusion_lon": 0.0, "bike_id": "6b6813467e93bc893013e01ea988143a", "is_disabled": 0, "is_reserved": 0}, {"rental_uris": {"ios": "https://dc.lft.to/lastmile_qr_scan", "android": "https://dc.lft.to/lastmile_qr_scan"}, "lon": -76.9978395, "type": "electric_bike", "fusion_lat": 0.0, "lat": 38.90930933333333, "name": "b4991e8e7cccdba7a1cc85130a31c9e7", "fusion_lon": 0.0, "bike_id": "b4991e8e7cccdba7a1cc85130a31c9e7", "is_disabled": 0, "is_reserved": 0}, {"rental_uris": {"ios": "https://dc.lft.to/lastmile_qr_scan", "android": "https://dc.lft.to/lastmile_qr_scan"}, "lon": -77.04500983333334, "type": "electric_scooter", "fusion_lat": 0.0, "lat": 38.91941516666667, "name": "0575f8718f126ed96341987621729105", "fusion_lon": 0.0, "bike_id": "0575f8718f126ed96341987621729105", "is_disabled": 0, "is_reserved": 0}, {"rental_uris": {"ios": "https://dc.lft.to/lastmile_qr_scan", "android": "https://dc.lft.to/lastmile_qr_scan"}, "lon": -76.98886366666666, "type": "electric_scooter", "fusion_lat": 0.0, "lat": 38.86657433333333, "name": "fadcca1f0271af2a4fc2c7e851a2619f", "fusion_lon": 0.0, "bike_id": "fadcca1f0271af2a4fc2c7e851a2619f", "is_disabled": 0, "is_reserved": 0}, {"rental_uris": {"ios": "https://dc.lft.to/lastmile_qr_scan", "android": "https://dc.lft.to/lastmile_qr_scan"}, "lon": -76.98579166666667, "type": "electric_scooter", "fusion_lat": 0.0, "lat": 38.86149866666667, "name": "8c6c0d6eb57339afa2876137b05fa447", "fusion_lon": 0.0, "bike_id": "8c6c0d6eb57339afa2876137b05fa447", "is_disabled": 0, "is_reserved": 0}, {"rental_uris": {"ios": "https://dc.lft.to/lastmile_qr_scan", "android": "https://dc.lft.to/lastmile_qr_scan"}, "lon": -77.04851216666667, "type": "electric_scooter", "fusion_lat": 0.0, "lat": 38.90981433333333, "name": "45ea0ee42e468b30f082fb3ac75b3364", "fusion_lon": 0.0, "bike_id": "45ea0ee42e468b30f082fb3ac75b3364", "is_disabled": 0, "is_reserved": 0}, {"rental_uris": {"ios": "https://dc.lft.to/lastmile_qr_scan", "android": "https://dc.lft.to/lastmile_qr_scan"}, "lon": -77.04612933333334, "type": "electric_scooter", "fusion_lat": 0.0, "lat": 38.90201233333333, "name": "18b0b810b04223add24a3022444842a2", "fusion_lon": 0.0, "bike_id": "18b0b810b04223add24a3022444842a2", "is_disabled": 0, "is_reserved": 0}, {"rental_uris": {"ios": "https://dc.lft.to/lastmile_qr_scan", "android": "https://dc.lft.to/lastmile_qr_scan"}, "lon": -77.03802366666666, "type": "electric_scooter", "fusion_lat": 0.0, "lat": 38.92191483333333, "name": "ab59ac5423fdfc1a218647c1f5db33e6", "fusion_lon": 0.0, "bike_id": "ab59ac5423fdfc1a218647c1f5db33e6", "is_disabled": 0, "is_reserved": 0}, {"rental_uris": {"ios": "https://dc.lft.to/lastmile_qr_scan", "android": "https://dc.lft.to/lastmile_qr_scan"}, "lon": -77.0529265, "type": "electric_scooter", "fusion_lat": 0.0, "lat": 38.910184666666666, "name": "c441bcea08505d5832c5d1dc107a7dd3", "fusion_lon": 0.0, "bike_id": "c441bcea08505d5832c5d1dc107a7dd3", "is_disabled": 0, "is_reserved": 0}, {"rental_uris": {"ios": "https://dc.lft.to/lastmile_qr_scan", "android": "https://dc.lft.to/lastmile_qr_scan"}, "lon": -77.025785, "type": "electric_scooter", "fusion_lat": 0.0, "lat": 38.91819016666667, "name": "77c29fbfb7c4f4ea45927be30697f8d0", "fusion_lon": 0.0, "bike_id": "77c29fbfb7c4f4ea45927be30697f8d0", "is_disabled": 0, "is_reserved": 0}, {"rental_uris": {"ios": "https://dc.lft.to/lastmile_qr_scan", "android": "https://dc.lft.to/lastmile_qr_scan"}, "lon": -77.03972116666667, "type": "electric_scooter", "fusion_lat": 0.0, "lat": 38.90259183333333, "name": "f76859af2b2f2187460d1dfac42845a1", "fusion_lon": 0.0, "bike_id": "f76859af2b2f2187460d1dfac42845a1", "is_disabled": 0, "is_reserved": 0}, {"rental_uris": {"ios": "https://dc.lft.to/lastmile_qr_scan", "android": "https://dc.lft.to/lastmile_qr_scan"}, "lon": -77.05034216666667, "type": "electric_scooter", "fusion_lat": 0.0, "lat": 38.89656, "name": "77eaf8fc9b8221503b8dba3c47da81b1", "fusion_lon": 0.0, "bike_id": "77eaf8fc9b8221503b8dba3c47da81b1", "is_disabled": 0, "is_reserved": 0}, {"rental_uris": {"ios": "https://dc.lft.to/lastmile_qr_scan", "android": "https://dc.lft.to/lastmile_qr_scan"}, "lon": -77.03669683333334, "type": "electric_scooter", "fusion_lat": 0.0, "lat": 38.929903, "name": "8547ce1cce2f12f271fa5572f0f3bf31", "fusion_lon": 0.0, "bike_id": "8547ce1cce2f12f271fa5572f0f3bf31", "is_disabled": 0, "is_reserved": 0}, {"rental_uris": {"ios": "https://dc.lft.to/lastmile_qr_scan", "android": "https://dc.lft.to/lastmile_qr_scan"}, "lon": -77.02455816666667, "type": "electric_scooter", "fusion_lat": 0.0, "lat": 38.97935583333334, "name": "0ac455dd54ff3a8be434dcaa4e554009", "fusion_lon": 0.0, "bike_id": "0ac455dd54ff3a8be434dcaa4e554009", "is_disabled": 0, "is_reserved": 0}, {"rental_uris": {"ios": "https://dc.lft.to/lastmile_qr_scan", "android": "https://dc.lft.to/lastmile_qr_scan"}, "lon": -77.04129016666667, "type": "electric_scooter", "fusion_lat": 0.0, "lat": 38.923503833333335, "name": "5aa54c66a7cf3c48f61cd9433ed1eb00", "fusion_lon": 0.0, "bike_id": "5aa54c66a7cf3c48f61cd9433ed1eb00", "is_disabled": 0, "is_reserved": 0}, {"rental_uris": {"ios": "https://dc.lft.to/lastmile_qr_scan", "android": "https://dc.lft.to/lastmile_qr_scan"}, "lon": -77.0310695, "type": "electric_scooter", "fusion_lat": 0.0, "lat": 38.9046155, "name": "d5889de377409675532185b1612766ab", "fusion_lon": 0.0, "bike_id": "d5889de377409675532185b1612766ab", "is_disabled": 0, "is_reserved": 0}, {"rental_uris": {"ios": "https://dc.lft.to/lastmile_qr_scan", "android": "https://dc.lft.to/lastmile_qr_scan"}, "lon": -76.973294, "type": "electric_bike", "fusion_lat": 0.0, "lat": 38.85062, "name": "f18b8716d6df6551d21c7a05feac694a", "fusion_lon": 0.0, "bike_id": "f18b8716d6df6551d21c7a05feac694a", "is_disabled": 0, "is_reserved": 0}, {"rental_uris": {"ios": "https://dc.lft.to/lastmile_qr_scan", "android": "https://dc.lft.to/lastmile_qr_scan"}, "lon": -77.04796783333333, "type": "electric_scooter", "fusion_lat": 0.0, "lat": 38.90719816666667, "name": "38343c873bc3d2707a748d7c371e42a5", "fusion_lon": 0.0, "bike_id": "38343c873bc3d2707a748d7c371e42a5", "is_disabled": 0, "is_reserved": 0}, {"rental_uris": {"ios": "https://dc.lft.to/lastmile_qr_scan", "android": "https://dc.lft.to/lastmile_qr_scan"}, "lon": -77.023316, "type": "electric_scooter", "fusion_lat": 0.0, "lat": 38.9304995, "name": "7013dcfbf46f8b7ca1058e120571a723", "fusion_lon": 0.0, "bike_id": "7013dcfbf46f8b7ca1058e120571a723", "is_disabled": 0, "is_reserved": 0}, {"rental_uris": {"ios": "https://dc.lft.to/lastmile_qr_scan", "android": "https://dc.lft.to/lastmile_qr_scan"}, "lon": -77.02417616666666, "type": "electric_scooter", "fusion_lat": 0.0, "lat": 38.918220166666664, "name": "532557d4c1f72e96f12f37f3c0cf95ca", "fusion_lon": 0.0, "bike_id": "532557d4c1f72e96f12f37f3c0cf95ca", "is_disabled": 0, "is_reserved": 0}, {"rental_uris": {"ios": "https://dc.lft.to/lastmile_qr_scan", "android": "https://dc.lft.to/lastmile_qr_scan"}, "lon": -77.05968733333333, "type": "electric_scooter", "fusion_lat": 0.0, "lat": 38.9053155, "name": "80d16251fb537f1bc2a85073fc0e5ff6", "fusion_lon": 0.0, "bike_id": "80d16251fb537f1bc2a85073fc0e5ff6", "is_disabled": 0, "is_reserved": 0}, {"rental_uris": {"ios": "https://dc.lft.to/lastmile_qr_scan", "android": "https://dc.lft.to/lastmile_qr_scan"}, "lon": -77.027034, "type": "electric_scooter", "fusion_lat": 0.0, "lat": 38.9186745, "name": "d36a7cbbd0e42bd6cc48ef5ca5b1002c", "fusion_lon": 0.0, "bike_id": "d36a7cbbd0e42bd6cc48ef5ca5b1002c", "is_disabled": 0, "is_reserved": 0}, {"rental_uris": {"ios": "https://dc.lft.to/lastmile_qr_scan", "android": "https://dc.lft.to/lastmile_qr_scan"}, "lon": -77.02975433333333, "type": "electric_scooter", "fusion_lat": 0.0, "lat": 38.9162665, "name": "3eaa606f89c9db764eabf148f38e0aa8", "fusion_lon": 0.0, "bike_id": "3eaa606f89c9db764eabf148f38e0aa8", "is_disabled": 0, "is_reserved": 0}, {"rental_uris": {"ios": "https://dc.lft.to/lastmile_qr_scan", "android": "https://dc.lft.to/lastmile_qr_scan"}, "lon": -77.015827, "type": "electric_scooter", "fusion_lat": 0.0, "lat": 38.88743366666667, "name": "5532c3499c4e53eec186477cad0470bb", "fusion_lon": 0.0, "bike_id": "5532c3499c4e53eec186477cad0470bb", "is_disabled": 0, "is_reserved": 0}, {"rental_uris": {"ios": "https://dc.lft.to/lastmile_qr_scan", "android": "https://dc.lft.to/lastmile_qr_scan"}, "lon": -77.0276375, "type": "electric_scooter", "fusion_lat": 0.0, "lat": 38.91687816666666, "name": "edf9c4863765bfc3c241f0c8026ce41c", "fusion_lon": 0.0, "bike_id": "edf9c4863765bfc3c241f0c8026ce41c", "is_disabled": 0, "is_reserved": 0}, {"rental_uris": {"ios": "https://dc.lft.to/lastmile_qr_scan", "android": "https://dc.lft.to/lastmile_qr_scan"}, "lon": -77.06299266666667, "type": "electric_scooter", "fusion_lat": 0.0, "lat": 38.90396633333334, "name": "78a245acc0ceb88b1186e1cf0d670a01", "fusion_lon": 0.0, "bike_id": "78a245acc0ceb88b1186e1cf0d670a01", "is_disabled": 0, "is_reserved": 0}, {"rental_uris": {"ios": "https://dc.lft.to/lastmile_qr_scan", "android": "https://dc.lft.to/lastmile_qr_scan"}, "lon": -77.02968233333333, "type": "electric_scooter", "fusion_lat": 0.0, "lat": 38.9252575, "name": "3471e35304d473aff45c907c8b61c17f", "fusion_lon": 0.0, "bike_id": "3471e35304d473aff45c907c8b61c17f", "is_disabled": 0, "is_reserved": 0}, {"rental_uris": {"ios": "https://dc.lft.to/lastmile_qr_scan", "android": "https://dc.lft.to/lastmile_qr_scan"}, "lon": -77.02704566666667, "type": "electric_scooter", "fusion_lat": 0.0, "lat": 38.918043833333336, "name": "4dd13aa8538a2e4e860a05d7dbff1dcb", "fusion_lon": 0.0, "bike_id": "4dd13aa8538a2e4e860a05d7dbff1dcb", "is_disabled": 0, "is_reserved": 0}, {"rental_uris": {"ios": "https://dc.lft.to/lastmile_qr_scan", "android": "https://dc.lft.to/lastmile_qr_scan"}, "lon": -77.04795733333333, "type": "electric_scooter", "fusion_lat": 0.0, "lat": 38.897255333333334, "name": "88e369d3de6b3251b8faf8c79ebc63c0", "fusion_lon": 0.0, "bike_id": "88e369d3de6b3251b8faf8c79ebc63c0", "is_disabled": 0, "is_reserved": 0}, {"rental_uris": {"ios": "https://dc.lft.to/lastmile_qr_scan", "android": "https://dc.lft.to/lastmile_qr_scan"}, "lon": -76.99158866666667, "type": "electric_scooter", "fusion_lat": 0.0, "lat": 38.89339833333333, "name": "84552897719a8520d439d3138a72a1b5", "fusion_lon": 0.0, "bike_id": "84552897719a8520d439d3138a72a1b5", "is_disabled": 0, "is_reserved": 0}, {"rental_uris": {"ios": "https://dc.lft.to/lastmile_qr_scan", "android": "https://dc.lft.to/lastmile_qr_scan"}, "lon": -77.04221266666667, "type": "electric_scooter", "fusion_lat": 0.0, "lat": 38.907188166666664, "name": "6fdfbbe5c79d65646e004500bd8ac54d", "fusion_lon": 0.0, "bike_id": "6fdfbbe5c79d65646e004500bd8ac54d", "is_disabled": 0, "is_reserved": 0}, {"rental_uris": {"ios": "https://dc.lft.to/lastmile_qr_scan", "android": "https://dc.lft.to/lastmile_qr_scan"}, "lon": -77.01216483333333, "type": "electric_scooter", "fusion_lat": 0.0, "lat": 38.9203445, "name": "b1a799d798f531dbde7e4c2c9d96da02", "fusion_lon": 0.0, "bike_id": "b1a799d798f531dbde7e4c2c9d96da02", "is_disabled": 0, "is_reserved": 0}, {"rental_uris": {"ios": "https://dc.lft.to/lastmile_qr_scan", "android": "https://dc.lft.to/lastmile_qr_scan"}, "lon": -77.023983, "type": "electric_scooter", "fusion_lat": 0.0, "lat": 38.91419916666667, "name": "fadbc533aa9ed05cd55849ef3fa7c824", "fusion_lon": 0.0, "bike_id": "fadbc533aa9ed05cd55849ef3fa7c824", "is_disabled": 0, "is_reserved": 0}, {"rental_uris": {"ios": "https://dc.lft.to/lastmile_qr_scan", "android": "https://dc.lft.to/lastmile_qr_scan"}, "lon": -77.05518666666667, "type": "electric_scooter", "fusion_lat": 0.0, "lat": 38.9106165, "name": "d5d86e6a71af63659f96457dbd6f052e", "fusion_lon": 0.0, "bike_id": "d5d86e6a71af63659f96457dbd6f052e", "is_disabled": 0, "is_reserved": 0}, {"rental_uris": {"ios": "https://dc.lft.to/lastmile_qr_scan", "android": "https://dc.lft.to/lastmile_qr_scan"}, "lon": -76.89539466666666, "type": "electric_bike", "fusion_lat": 0.0, "lat": 38.945564, "name": "89ebaddb303e4c14014a6f3c86fa30fe", "fusion_lon": 0.0, "bike_id": "89ebaddb303e4c14014a6f3c86fa30fe", "is_disabled": 0, "is_reserved": 0}, {"rental_uris": {"ios": "https://dc.lft.to/lastmile_qr_scan", "android": "https://dc.lft.to/lastmile_qr_scan"}, "lon": -76.99364266666667, "type": "electric_scooter", "fusion_lat": 0.0, "lat": 38.90037483333333, "name": "5c5af1dd9386132b6f2ea83de7734b05", "fusion_lon": 0.0, "bike_id": "5c5af1dd9386132b6f2ea83de7734b05", "is_disabled": 0, "is_reserved": 0}, {"rental_uris": {"ios": "https://dc.lft.to/lastmile_qr_scan", "android": "https://dc.lft.to/lastmile_qr_scan"}, "lon": -76.9843765, "type": "electric_scooter", "fusion_lat": 0.0, "lat": 38.914727666666664, "name": "60c057da8ce9aaa9c702e0e2b9b0a312", "fusion_lon": 0.0, "bike_id": "60c057da8ce9aaa9c702e0e2b9b0a312", "is_disabled": 0, "is_reserved": 0}, {"rental_uris": {"ios": "https://dc.lft.to/lastmile_qr_scan", "android": "https://dc.lft.to/lastmile_qr_scan"}, "lon": -76.9980495, "type": "electric_scooter", "fusion_lat": 0.0, "lat": 38.900095, "name": "dd25c7198d4b247d9941628d39103193", "fusion_lon": 0.0, "bike_id": "dd25c7198d4b247d9941628d39103193", "is_disabled": 0, "is_reserved": 0}, {"rental_uris": {"ios": "https://dc.lft.to/lastmile_qr_scan", "android": "https://dc.lft.to/lastmile_qr_scan"}, "lon": -77.05760583333333, "type": "electric_scooter", "fusion_lat": 0.0, "lat": 38.9245945, "name": "dc4699140ce8ca36001d7296dc09bd4c", "fusion_lon": 0.0, "bike_id": "dc4699140ce8ca36001d7296dc09bd4c", "is_disabled": 0, "is_reserved": 0}, {"rental_uris": {"ios": "https://dc.lft.to/lastmile_qr_scan", "android": "https://dc.lft.to/lastmile_qr_scan"}, "lon": -77.03211666666667, "type": "electric_scooter", "fusion_lat": 0.0, "lat": 38.92072616666667, "name": "1f95eef3d2a3aae8f13fa23f64da189b", "fusion_lon": 0.0, "bike_id": "1f95eef3d2a3aae8f13fa23f64da189b", "is_disabled": 0, "is_reserved": 0}, {"rental_uris": {"ios": "https://dc.lft.to/lastmile_qr_scan", "android": "https://dc.lft.to/lastmile_qr_scan"}, "lon": -77.03644966666667, "type": "electric_scooter", "fusion_lat": 0.0, "lat": 38.903309, "name": "4eb684ab6d3650e1accb977d4dc0e67d", "fusion_lon": 0.0, "bike_id": "4eb684ab6d3650e1accb977d4dc0e67d", "is_disabled": 0, "is_reserved": 0}, {"rental_uris": {"ios": "https://dc.lft.to/lastmile_qr_scan", "android": "https://dc.lft.to/lastmile_qr_scan"}, "lon": -77.03955733333333, "type": "electric_scooter", "fusion_lat": 0.0, "lat": 38.9261295, "name": "62ca182f590165c4c6700e1b4a7211e3", "fusion_lon": 0.0, "bike_id": "62ca182f590165c4c6700e1b4a7211e3", "is_disabled": 0, "is_reserved": 0}, {"rental_uris": {"ios": "https://dc.lft.to/lastmile_qr_scan", "android": "https://dc.lft.to/lastmile_qr_scan"}, "lon": -77.04188766666667, "type": "electric_scooter", "fusion_lat": 0.0, "lat": 38.922049666666666, "name": "6ee01aa05c102904b6bf5d6bfcd64830", "fusion_lon": 0.0, "bike_id": "6ee01aa05c102904b6bf5d6bfcd64830", "is_disabled": 0, "is_reserved": 0}, {"rental_uris": {"ios": "https://dc.lft.to/lastmile_qr_scan", "android": "https://dc.lft.to/lastmile_qr_scan"}, "lon": -77.0531625, "type": "electric_scooter", "fusion_lat": 0.0, "lat": 38.90183566666666, "name": "6d304c3c72fd9e1dc74473e6da3599a5", "fusion_lon": 0.0, "bike_id": "6d304c3c72fd9e1dc74473e6da3599a5", "is_disabled": 0, "is_reserved": 0}, {"rental_uris": {"ios": "https://dc.lft.to/lastmile_qr_scan", "android": "https://dc.lft.to/lastmile_qr_scan"}, "lon": -76.99144933333334, "type": "electric_scooter", "fusion_lat": 0.0, "lat": 38.900385666666665, "name": "70957976aa461eb39ab8bd7c3dd5e5ab", "fusion_lon": 0.0, "bike_id": "70957976aa461eb39ab8bd7c3dd5e5ab", "is_disabled": 0, "is_reserved": 0}, {"rental_uris": {"ios": "https://dc.lft.to/lastmile_qr_scan", "android": "https://dc.lft.to/lastmile_qr_scan"}, "lon": -77.0275285, "type": "electric_scooter", "fusion_lat": 0.0, "lat": 38.97146866666667, "name": "def166f8542ab14e409539cd619dc5e7", "fusion_lon": 0.0, "bike_id": "def166f8542ab14e409539cd619dc5e7", "is_disabled": 0, "is_reserved": 0}, {"rental_uris": {"ios": "https://dc.lft.to/lastmile_qr_scan", "android": "https://dc.lft.to/lastmile_qr_scan"}, "lon": -77.05042883333333, "type": "electric_scooter", "fusion_lat": 0.0, "lat": 38.92365016666667, "name": "13501f8b455d7d83cddd9b0f4271539b", "fusion_lon": 0.0, "bike_id": "13501f8b455d7d83cddd9b0f4271539b", "is_disabled": 0, "is_reserved": 0}, {"rental_uris": {"ios": "https://dc.lft.to/lastmile_qr_scan", "android": "https://dc.lft.to/lastmile_qr_scan"}, "lon": -77.0256635, "type": "electric_scooter", "fusion_lat": 0.0, "lat": 38.908529, "name": "c0d01a6675a220b31307594df74d880c", "fusion_lon": 0.0, "bike_id": "c0d01a6675a220b31307594df74d880c", "is_disabled": 0, "is_reserved": 0}, {"rental_uris": {"ios": "https://dc.lft.to/lastmile_qr_scan", "android": "https://dc.lft.to/lastmile_qr_scan"}, "lon": -76.9323985, "type": "electric_bike", "fusion_lat": 0.0, "lat": 38.882826666666666, "name": "1f792420ee7eaa22bd34489b45ac7ea2", "fusion_lon": 0.0, "bike_id": "1f792420ee7eaa22bd34489b45ac7ea2", "is_disabled": 0, "is_reserved": 0}, {"rental_uris": {"ios": "https://dc.lft.to/lastmile_qr_scan", "android": "https://dc.lft.to/lastmile_qr_scan"}, "lon": -77.03656416666666, "type": "electric_scooter", "fusion_lat": 0.0, "lat": 38.92120716666667, "name": "79c59b6d4189e10444d221f07822b8a0", "fusion_lon": 0.0, "bike_id": "79c59b6d4189e10444d221f07822b8a0", "is_disabled": 0, "is_reserved": 0}, {"rental_uris": {"ios": "https://dc.lft.to/lastmile_qr_scan", "android": "https://dc.lft.to/lastmile_qr_scan"}, "lon": -77.0709805, "type": "electric_scooter", "fusion_lat": 0.0, "lat": 38.93370516666667, "name": "0504c73c67363b24c919a81da731ae7f", "fusion_lon": 0.0, "bike_id": "0504c73c67363b24c919a81da731ae7f", "is_disabled": 0, "is_reserved": 0}, {"rental_uris": {"ios": "https://dc.lft.to/lastmile_qr_scan", "android": "https://dc.lft.to/lastmile_qr_scan"}, "lon": -76.98206533333334, "type": "electric_scooter", "fusion_lat": 0.0, "lat": 38.89089716666667, "name": "7a84d0cb6b965112dfd6665b8a28fe73", "fusion_lon": 0.0, "bike_id": "7a84d0cb6b965112dfd6665b8a28fe73", "is_disabled": 0, "is_reserved": 0}, {"rental_uris": {"ios": "https://dc.lft.to/lastmile_qr_scan", "android": "https://dc.lft.to/lastmile_qr_scan"}, "lon": -77.05504166666667, "type": "electric_scooter", "fusion_lat": 0.0, "lat": 38.92970783333333, "name": "d5c3664266fcff7eb34b68174cee69d7", "fusion_lon": 0.0, "bike_id": "d5c3664266fcff7eb34b68174cee69d7", "is_disabled": 0, "is_reserved": 0}, {"rental_uris": {"ios": "https://dc.lft.to/lastmile_qr_scan", "android": "https://dc.lft.to/lastmile_qr_scan"}, "lon": -77.02782216666667, "type": "electric_scooter", "fusion_lat": 0.0, "lat": 38.961322333333335, "name": "780d34f441c42812ecc12b074527b6f2", "fusion_lon": 0.0, "bike_id": "780d34f441c42812ecc12b074527b6f2", "is_disabled": 0, "is_reserved": 0}, {"rental_uris": {"ios": "https://dc.lft.to/lastmile_qr_scan", "android": "https://dc.lft.to/lastmile_qr_scan"}, "lon": -77.12963216666667, "type": "electric_bike", "fusion_lat": 0.0, "lat": 38.80791816666667, "name": "3cea3ec27a9b0997697d0283bfe394cc", "fusion_lon": 0.0, "bike_id": "3cea3ec27a9b0997697d0283bfe394cc", "is_disabled": 0, "is_reserved": 0}, {"rental_uris": {"ios": "https://dc.lft.to/lastmile_qr_scan", "android": "https://dc.lft.to/lastmile_qr_scan"}, "lon": -77.04489933333333, "type": "electric_scooter", "fusion_lat": 0.0, "lat": 38.91104816666667, "name": "e7bb4147db4fb525723020d722a6e4d1", "fusion_lon": 0.0, "bike_id": "e7bb4147db4fb525723020d722a6e4d1", "is_disabled": 0, "is_reserved": 0}, {"rental_uris": {"ios": "https://dc.lft.to/lastmile_qr_scan", "android": "https://dc.lft.to/lastmile_qr_scan"}, "lon": -77.03204233333334, "type": "electric_scooter", "fusion_lat": 0.0, "lat": 38.89230833333333, "name": "de4068ddc85c85fe9e69a652bf16a969", "fusion_lon": 0.0, "bike_id": "de4068ddc85c85fe9e69a652bf16a969", "is_disabled": 0, "is_reserved": 0}, {"rental_uris": {"ios": "https://dc.lft.to/lastmile_qr_scan", "android": "https://dc.lft.to/lastmile_qr_scan"}, "lon": -77.01285583333333, "type": "electric_bike", "fusion_lat": 0.0, "lat": 39.003816666666665, "name": "9997f6bac30e87065ab343398c49473f", "fusion_lon": 0.0, "bike_id": "9997f6bac30e87065ab343398c49473f", "is_disabled": 0, "is_reserved": 0}, {"rental_uris": {"ios": "https://dc.lft.to/lastmile_qr_scan", "android": "https://dc.lft.to/lastmile_qr_scan"}, "lon": -77.0302705, "type": "electric_scooter", "fusion_lat": 0.0, "lat": 38.89608716666667, "name": "1681646858e5342df89b19f6a5ec8271", "fusion_lon": 0.0, "bike_id": "1681646858e5342df89b19f6a5ec8271", "is_disabled": 0, "is_reserved": 0}, {"rental_uris": {"ios": "https://dc.lft.to/lastmile_qr_scan", "android": "https://dc.lft.to/lastmile_qr_scan"}, "lon": -77.0488665, "type": "electric_scooter", "fusion_lat": 0.0, "lat": 38.90193883333333, "name": "1bf1b1a76dbce2839dbc961df269ceb1", "fusion_lon": 0.0, "bike_id": "1bf1b1a76dbce2839dbc961df269ceb1", "is_disabled": 0, "is_reserved": 0}, {"rental_uris": {"ios": "https://dc.lft.to/lastmile_qr_scan", "android": "https://dc.lft.to/lastmile_qr_scan"}, "lon": -77.03930283333334, "type": "electric_scooter", "fusion_lat": 0.0, "lat": 38.921142, "name": "c58f34c8becc0e7dfce6d80e89a81c95", "fusion_lon": 0.0, "bike_id": "c58f34c8becc0e7dfce6d80e89a81c95", "is_disabled": 0, "is_reserved": 0}, {"rental_uris": {"ios": "https://dc.lft.to/lastmile_qr_scan", "android": "https://dc.lft.to/lastmile_qr_scan"}, "lon": -77.01592616666667, "type": "electric_scooter", "fusion_lat": 0.0, "lat": 38.901807166666664, "name": "81817df0a6efb8ac4d9eb6cd783debef", "fusion_lon": 0.0, "bike_id": "81817df0a6efb8ac4d9eb6cd783debef", "is_disabled": 0, "is_reserved": 0}, {"rental_uris": {"ios": "https://dc.lft.to/lastmile_qr_scan", "android": "https://dc.lft.to/lastmile_qr_scan"}, "lon": -77.04070933333334, "type": "electric_scooter", "fusion_lat": 0.0, "lat": 38.92005833333333, "name": "a500b145ec39d101b193fb64066d5e89", "fusion_lon": 0.0, "bike_id": "a500b145ec39d101b193fb64066d5e89", "is_disabled": 0, "is_reserved": 0}, {"rental_uris": {"ios": "https://dc.lft.to/lastmile_qr_scan", "android": "https://dc.lft.to/lastmile_qr_scan"}, "lon": -77.05522466666666, "type": "electric_scooter", "fusion_lat": 0.0, "lat": 38.89724833333333, "name": "293a2c00c1569f989562d8aee19a36a0", "fusion_lon": 0.0, "bike_id": "293a2c00c1569f989562d8aee19a36a0", "is_disabled": 0, "is_reserved": 0}, {"rental_uris": {"ios": "https://dc.lft.to/lastmile_qr_scan", "android": "https://dc.lft.to/lastmile_qr_scan"}, "lon": -77.04666733333333, "type": "electric_scooter", "fusion_lat": 0.0, "lat": 38.933004, "name": "15cd70cc8d90e1a3322f5c04987869cd", "fusion_lon": 0.0, "bike_id": "15cd70cc8d90e1a3322f5c04987869cd", "is_disabled": 0, "is_reserved": 0}, {"rental_uris": {"ios": "https://dc.lft.to/lastmile_qr_scan", "android": "https://dc.lft.to/lastmile_qr_scan"}, "lon": -76.9324535, "type": "electric_scooter", "fusion_lat": 0.0, "lat": 38.89405516666667, "name": "0e50f4ca7ee37296d2b643707ac583cb", "fusion_lon": 0.0, "bike_id": "0e50f4ca7ee37296d2b643707ac583cb", "is_disabled": 0, "is_reserved": 0}, {"rental_uris": {"ios": "https://dc.lft.to/lastmile_qr_scan", "android": "https://dc.lft.to/lastmile_qr_scan"}, "lon": -76.990691, "type": "electric_scooter", "fusion_lat": 0.0, "lat": 38.86355066666667, "name": "d1da7aa29d074e96ebade71506c8f0d1", "fusion_lon": 0.0, "bike_id": "d1da7aa29d074e96ebade71506c8f0d1", "is_disabled": 0, "is_reserved": 0}, {"rental_uris": {"ios": "https://dc.lft.to/lastmile_qr_scan", "android": "https://dc.lft.to/lastmile_qr_scan"}, "lon": -77.0464545, "type": "electric_bike", "fusion_lat": 0.0, "lat": 38.852104, "name": "ac58d53dcc8115fd2a7ff6a03f209050", "fusion_lon": 0.0, "bike_id": "ac58d53dcc8115fd2a7ff6a03f209050", "is_disabled": 0, "is_reserved": 0}, {"rental_uris": {"ios": "https://dc.lft.to/lastmile_qr_scan", "android": "https://dc.lft.to/lastmile_qr_scan"}, "lon": -77.04042166666666, "type": "electric_scooter", "fusion_lat": 0.0, "lat": 38.903699333333336, "name": "c925a7ae6a8e38ceba4b0f533046b792", "fusion_lon": 0.0, "bike_id": "c925a7ae6a8e38ceba4b0f533046b792", "is_disabled": 0, "is_reserved": 0}, {"rental_uris": {"ios": "https://dc.lft.to/lastmile_qr_scan", "android": "https://dc.lft.to/lastmile_qr_scan"}, "lon": -77.03657416666667, "type": "electric_scooter", "fusion_lat": 0.0, "lat": 38.90276816666667, "name": "2fdeacf5481123d64baa4007e6b82f67", "fusion_lon": 0.0, "bike_id": "2fdeacf5481123d64baa4007e6b82f67", "is_disabled": 0, "is_reserved": 0}, {"rental_uris": {"ios": "https://dc.lft.to/lastmile_qr_scan", "android": "https://dc.lft.to/lastmile_qr_scan"}, "lon": -77.041474, "type": "electric_scooter", "fusion_lat": 0.0, "lat": 38.9229835, "name": "3e2ec0fbe6feac5fa746728ef636798e", "fusion_lon": 0.0, "bike_id": "3e2ec0fbe6feac5fa746728ef636798e", "is_disabled": 0, "is_reserved": 0}, {"rental_uris": {"ios": "https://dc.lft.to/lastmile_qr_scan", "android": "https://dc.lft.to/lastmile_qr_scan"}, "lon": -77.042196, "type": "electric_scooter", "fusion_lat": 0.0, "lat": 38.921161166666664, "name": "eda6f0e62afad29009f016125275bbbf", "fusion_lon": 0.0, "bike_id": "eda6f0e62afad29009f016125275bbbf", "is_disabled": 0, "is_reserved": 0}, {"rental_uris": {"ios": "https://dc.lft.to/lastmile_qr_scan", "android": "https://dc.lft.to/lastmile_qr_scan"}, "lon": -77.023945, "type": "electric_scooter", "fusion_lat": 0.0, "lat": 38.93765533333333, "name": "a3d9d8057592a48b94a35345a423a0fc", "fusion_lon": 0.0, "bike_id": "a3d9d8057592a48b94a35345a423a0fc", "is_disabled": 0, "is_reserved": 0}, {"rental_uris": {"ios": "https://dc.lft.to/lastmile_qr_scan", "android": "https://dc.lft.to/lastmile_qr_scan"}, "lon": -77.048602, "type": "electric_scooter", "fusion_lat": 0.0, "lat": 38.9063335, "name": "74eead0371fca526a108baf03b9952e5", "fusion_lon": 0.0, "bike_id": "74eead0371fca526a108baf03b9952e5", "is_disabled": 0, "is_reserved": 0}, {"rental_uris": {"ios": "https://dc.lft.to/lastmile_qr_scan", "android": "https://dc.lft.to/lastmile_qr_scan"}, "lon": -77.001401, "type": "electric_scooter", "fusion_lat": 0.0, "lat": 38.919091333333334, "name": "63cc385266b041290797a0516269f014", "fusion_lon": 0.0, "bike_id": "63cc385266b041290797a0516269f014", "is_disabled": 0, "is_reserved": 0}, {"rental_uris": {"ios": "https://dc.lft.to/lastmile_qr_scan", "android": "https://dc.lft.to/lastmile_qr_scan"}, "lon": -76.99383233333333, "type": "electric_scooter", "fusion_lat": 0.0, "lat": 38.8874915, "name": "8a4002e19df868effd9518bb258776ab", "fusion_lon": 0.0, "bike_id": "8a4002e19df868effd9518bb258776ab", "is_disabled": 0, "is_reserved": 0}, {"rental_uris": {"ios": "https://dc.lft.to/lastmile_qr_scan", "android": "https://dc.lft.to/lastmile_qr_scan"}, "lon": -76.944215, "type": "electric_scooter", "fusion_lat": 0.0, "lat": 38.89793233333333, "name": "e119068d1f7784aee7173184ab9aaa99", "fusion_lon": 0.0, "bike_id": "e119068d1f7784aee7173184ab9aaa99", "is_disabled": 0, "is_reserved": 0}, {"rental_uris": {"ios": "https://dc.lft.to/lastmile_qr_scan", "android": "https://dc.lft.to/lastmile_qr_scan"}, "lon": -76.9836155, "type": "electric_scooter", "fusion_lat": 0.0, "lat": 38.9153185, "name": "06428f38eb61b601e031e3128dab34e5", "fusion_lon": 0.0, "bike_id": "06428f38eb61b601e031e3128dab34e5", "is_disabled": 0, "is_reserved": 0}, {"rental_uris": {"ios": "https://dc.lft.to/lastmile_qr_scan", "android": "https://dc.lft.to/lastmile_qr_scan"}, "lon": -77.03451116666666, "type": "electric_scooter", "fusion_lat": 0.0, "lat": 38.91878883333333, "name": "f4d98383a270b340a18c133687ac63de", "fusion_lon": 0.0, "bike_id": "f4d98383a270b340a18c133687ac63de", "is_disabled": 0, "is_reserved": 0}, {"rental_uris": {"ios": "https://dc.lft.to/lastmile_qr_scan", "android": "https://dc.lft.to/lastmile_qr_scan"}, "lon": -77.0313015, "type": "electric_scooter", "fusion_lat": 0.0, "lat": 38.9238195, "name": "9ebed93c55a135ff72c09607cb090e17", "fusion_lon": 0.0, "bike_id": "9ebed93c55a135ff72c09607cb090e17", "is_disabled": 0, "is_reserved": 0}, {"rental_uris": {"ios": "https://dc.lft.to/lastmile_qr_scan", "android": "https://dc.lft.to/lastmile_qr_scan"}, "lon": -77.06490716666667, "type": "electric_bike", "fusion_lat": 0.0, "lat": 38.9649595, "name": "d4fbfa78aa9ba2fcfd4d47077cad1fff", "fusion_lon": 0.0, "bike_id": "d4fbfa78aa9ba2fcfd4d47077cad1fff", "is_disabled": 0, "is_reserved": 0}, {"rental_uris": {"ios": "https://dc.lft.to/lastmile_qr_scan", "android": "https://dc.lft.to/lastmile_qr_scan"}, "lon": -77.02952583333334, "type": "electric_scooter", "fusion_lat": 0.0, "lat": 38.90524166666667, "name": "3b93f9f458b7996ec16da9d84cbdb6f8", "fusion_lon": 0.0, "bike_id": "3b93f9f458b7996ec16da9d84cbdb6f8", "is_disabled": 0, "is_reserved": 0}, {"rental_uris": {"ios": "https://dc.lft.to/lastmile_qr_scan", "android": "https://dc.lft.to/lastmile_qr_scan"}, "lon": -77.006558, "type": "electric_scooter", "fusion_lat": 0.0, "lat": 38.94463283333333, "name": "3d25c78420b97aded0eeb9e705a02dac", "fusion_lon": 0.0, "bike_id": "3d25c78420b97aded0eeb9e705a02dac", "is_disabled": 0, "is_reserved": 0}, {"rental_uris": {"ios": "https://dc.lft.to/lastmile_qr_scan", "android": "https://dc.lft.to/lastmile_qr_scan"}, "lon": -77.04330933333334, "type": "electric_scooter", "fusion_lat": 0.0, "lat": 38.8958605, "name": "91499ea77f91c457e8f6a98597a71ac6", "fusion_lon": 0.0, "bike_id": "91499ea77f91c457e8f6a98597a71ac6", "is_disabled": 0, "is_reserved": 0}, {"rental_uris": {"ios": "https://dc.lft.to/lastmile_qr_scan", "android": "https://dc.lft.to/lastmile_qr_scan"}, "lon": -77.10683666666667, "type": "electric_bike", "fusion_lat": 0.0, "lat": 38.935830333333335, "name": "bdf2f4ce315d4a051c5b281e8b718872", "fusion_lon": 0.0, "bike_id": "bdf2f4ce315d4a051c5b281e8b718872", "is_disabled": 0, "is_reserved": 0}, {"rental_uris": {"ios": "https://dc.lft.to/lastmile_qr_scan", "android": "https://dc.lft.to/lastmile_qr_scan"}, "lon": -77.03267633333333, "type": "electric_scooter", "fusion_lat": 0.0, "lat": 38.9254855, "name": "a915234f4b5088a2b5cabf03499f5f62", "fusion_lon": 0.0, "bike_id": "a915234f4b5088a2b5cabf03499f5f62", "is_disabled": 0, "is_reserved": 0}, {"rental_uris": {"ios": "https://dc.lft.to/lastmile_qr_scan", "android": "https://dc.lft.to/lastmile_qr_scan"}, "lon": -77.03453866666666, "type": "electric_scooter", "fusion_lat": 0.0, "lat": 38.9168235, "name": "912794eada554bc44cf6e50cad9058c3", "fusion_lon": 0.0, "bike_id": "912794eada554bc44cf6e50cad9058c3", "is_disabled": 0, "is_reserved": 0}, {"rental_uris": {"ios": "https://dc.lft.to/lastmile_qr_scan", "android": "https://dc.lft.to/lastmile_qr_scan"}, "lon": -77.04666933333333, "type": "electric_scooter", "fusion_lat": 0.0, "lat": 38.91475716666667, "name": "ae3896067a38e027c18bda3f470d645e", "fusion_lon": 0.0, "bike_id": "ae3896067a38e027c18bda3f470d645e", "is_disabled": 0, "is_reserved": 0}, {"rental_uris": {"ios": "https://dc.lft.to/lastmile_qr_scan", "android": "https://dc.lft.to/lastmile_qr_scan"}, "lon": -77.0918895, "type": "electric_scooter", "fusion_lat": 0.0, "lat": 38.91365283333333, "name": "4f57ccd021305b344349334954602d78", "fusion_lon": 0.0, "bike_id": "4f57ccd021305b344349334954602d78", "is_disabled": 0, "is_reserved": 0}, {"rental_uris": {"ios": "https://dc.lft.to/lastmile_qr_scan", "android": "https://dc.lft.to/lastmile_qr_scan"}, "lon": -77.04660233333334, "type": "electric_scooter", "fusion_lat": 0.0, "lat": 38.89337183333333, "name": "0f72c5fe93b41e57bc611c19d36a15f7", "fusion_lon": 0.0, "bike_id": "0f72c5fe93b41e57bc611c19d36a15f7", "is_disabled": 0, "is_reserved": 0}, {"rental_uris": {"ios": "https://dc.lft.to/lastmile_qr_scan", "android": "https://dc.lft.to/lastmile_qr_scan"}, "lon": -76.9488025, "type": "electric_scooter", "fusion_lat": 0.0, "lat": 38.89500983333333, "name": "f9f39244ad6c8a3b658f4c30200f5f73", "fusion_lon": 0.0, "bike_id": "f9f39244ad6c8a3b658f4c30200f5f73", "is_disabled": 0, "is_reserved": 0}, {"rental_uris": {"ios": "https://dc.lft.to/lastmile_qr_scan", "android": "https://dc.lft.to/lastmile_qr_scan"}, "lon": -77.042728, "type": "electric_scooter", "fusion_lat": 0.0, "lat": 38.902907166666665, "name": "1d0090cbb8ca97f3c5b1a2e5748b365d", "fusion_lon": 0.0, "bike_id": "1d0090cbb8ca97f3c5b1a2e5748b365d", "is_disabled": 0, "is_reserved": 0}, {"rental_uris": {"ios": "https://dc.lft.to/lastmile_qr_scan", "android": "https://dc.lft.to/lastmile_qr_scan"}, "lon": -77.0105135, "type": "electric_scooter", "fusion_lat": 0.0, "lat": 38.87934283333333, "name": "24de987b38d0fb8635bfcc9ecb855ab0", "fusion_lon": 0.0, "bike_id": "24de987b38d0fb8635bfcc9ecb855ab0", "is_disabled": 0, "is_reserved": 0}, {"rental_uris": {"ios": "https://dc.lft.to/lastmile_qr_scan", "android": "https://dc.lft.to/lastmile_qr_scan"}, "lon": -77.00986633333333, "type": "electric_scooter", "fusion_lat": 0.0, "lat": 38.91482516666667, "name": "bfba5d86ce05f87c43524ba41a82ee19", "fusion_lon": 0.0, "bike_id": "bfba5d86ce05f87c43524ba41a82ee19", "is_disabled": 0, "is_reserved": 0}, {"rental_uris": {"ios": "https://dc.lft.to/lastmile_qr_scan", "android": "https://dc.lft.to/lastmile_qr_scan"}, "lon": -76.92891933333334, "type": "electric_scooter", "fusion_lat": 0.0, "lat": 38.893308833333336, "name": "8420ad907e795d3545b025ae97b2a842", "fusion_lon": 0.0, "bike_id": "8420ad907e795d3545b025ae97b2a842", "is_disabled": 0, "is_reserved": 0}, {"rental_uris": {"ios": "https://dc.lft.to/lastmile_qr_scan", "android": "https://dc.lft.to/lastmile_qr_scan"}, "lon": -77.02698733333334, "type": "electric_scooter", "fusion_lat": 0.0, "lat": 38.9498315, "name": "07b8b28d9c49183b70a0dab39c4ecffb", "fusion_lon": 0.0, "bike_id": "07b8b28d9c49183b70a0dab39c4ecffb", "is_disabled": 0, "is_reserved": 0}, {"rental_uris": {"ios": "https://dc.lft.to/lastmile_qr_scan", "android": "https://dc.lft.to/lastmile_qr_scan"}, "lon": -77.03965583333333, "type": "electric_scooter", "fusion_lat": 0.0, "lat": 38.919802833333335, "name": "e14f84f264e5ce9104d2eb487af21286", "fusion_lon": 0.0, "bike_id": "e14f84f264e5ce9104d2eb487af21286", "is_disabled": 0, "is_reserved": 0}, {"rental_uris": {"ios": "https://dc.lft.to/lastmile_qr_scan", "android": "https://dc.lft.to/lastmile_qr_scan"}, "lon": -76.96626066666667, "type": "electric_bike", "fusion_lat": 0.0, "lat": 38.94200883333333, "name": "36e756b670a54ebf58be90df0cbe8c40", "fusion_lon": 0.0, "bike_id": "36e756b670a54ebf58be90df0cbe8c40", "is_disabled": 0, "is_reserved": 0}, {"rental_uris": {"ios": "https://dc.lft.to/lastmile_qr_scan", "android": "https://dc.lft.to/lastmile_qr_scan"}, "lon": -77.02106416666666, "type": "electric_scooter", "fusion_lat": 0.0, "lat": 38.913168666666664, "name": "8e93ea5279d54c5e2deb8cccdd4fa7f8", "fusion_lon": 0.0, "bike_id": "8e93ea5279d54c5e2deb8cccdd4fa7f8", "is_disabled": 0, "is_reserved": 0}, {"rental_uris": {"ios": "https://dc.lft.to/lastmile_qr_scan", "android": "https://dc.lft.to/lastmile_qr_scan"}, "lon": -77.02407333333333, "type": "electric_scooter", "fusion_lat": 0.0, "lat": 38.9207215, "name": "2b7b40d3a2d9e54b1377a4b57c36a7f1", "fusion_lon": 0.0, "bike_id": "2b7b40d3a2d9e54b1377a4b57c36a7f1", "is_disabled": 0, "is_reserved": 0}, {"rental_uris": {"ios": "https://dc.lft.to/lastmile_qr_scan", "android": "https://dc.lft.to/lastmile_qr_scan"}, "lon": -77.032204, "type": "electric_scooter", "fusion_lat": 0.0, "lat": 38.908637, "name": "e5dc2f28162f7358b1354944de0906ab", "fusion_lon": 0.0, "bike_id": "e5dc2f28162f7358b1354944de0906ab", "is_disabled": 0, "is_reserved": 0}, {"rental_uris": {"ios": "https://dc.lft.to/lastmile_qr_scan", "android": "https://dc.lft.to/lastmile_qr_scan"}, "lon": -77.029772, "type": "electric_scooter", "fusion_lat": 0.0, "lat": 38.907301333333336, "name": "d411bd0f6dd5e4023b64f11a399dfb3d", "fusion_lon": 0.0, "bike_id": "d411bd0f6dd5e4023b64f11a399dfb3d", "is_disabled": 0, "is_reserved": 0}, {"rental_uris": {"ios": "https://dc.lft.to/lastmile_qr_scan", "android": "https://dc.lft.to/lastmile_qr_scan"}, "lon": -76.992503, "type": "electric_bike", "fusion_lat": 0.0, "lat": 38.925455166666666, "name": "281e51ff88c1e8df4ec607547d9b78fb", "fusion_lon": 0.0, "bike_id": "281e51ff88c1e8df4ec607547d9b78fb", "is_disabled": 0, "is_reserved": 0}, {"rental_uris": {"ios": "https://dc.lft.to/lastmile_qr_scan", "android": "https://dc.lft.to/lastmile_qr_scan"}, "lon": -77.00981, "type": "electric_scooter", "fusion_lat": 0.0, "lat": 38.915641, "name": "c1b2f525c64123cff9483dc3de251c6e", "fusion_lon": 0.0, "bike_id": "c1b2f525c64123cff9483dc3de251c6e", "is_disabled": 0, "is_reserved": 0}, {"rental_uris": {"ios": "https://dc.lft.to/lastmile_qr_scan", "android": "https://dc.lft.to/lastmile_qr_scan"}, "lon": -76.980195, "type": "electric_scooter", "fusion_lat": 0.0, "lat": 38.88764333333334, "name": "7a2d46c5863ca8065115f9f463ac0927", "fusion_lon": 0.0, "bike_id": "7a2d46c5863ca8065115f9f463ac0927", "is_disabled": 0, "is_reserved": 0}, {"rental_uris": {"ios": "https://dc.lft.to/lastmile_qr_scan", "android": "https://dc.lft.to/lastmile_qr_scan"}, "lon": -77.01759916666667, "type": "electric_scooter", "fusion_lat": 0.0, "lat": 38.876940166666664, "name": "95651f1d266eb2dc7a8584c075ec1380", "fusion_lon": 0.0, "bike_id": "95651f1d266eb2dc7a8584c075ec1380", "is_disabled": 0, "is_reserved": 0}, {"rental_uris": {"ios": "https://dc.lft.to/lastmile_qr_scan", "android": "https://dc.lft.to/lastmile_qr_scan"}, "lon": -76.972796, "type": "electric_bike", "fusion_lat": 0.0, "lat": 38.9197555, "name": "520f7d7c1b2a8ba76654d6a79937f990", "fusion_lon": 0.0, "bike_id": "520f7d7c1b2a8ba76654d6a79937f990", "is_disabled": 0, "is_reserved": 0}, {"rental_uris": {"ios": "https://dc.lft.to/lastmile_qr_scan", "android": "https://dc.lft.to/lastmile_qr_scan"}, "lon": -77.00737466666666, "type": "electric_scooter", "fusion_lat": 0.0, "lat": 38.90585433333333, "name": "3c025d0e3e9c289f7284af696c78141d", "fusion_lon": 0.0, "bike_id": "3c025d0e3e9c289f7284af696c78141d", "is_disabled": 0, "is_reserved": 0}, {"rental_uris": {"ios": "https://dc.lft.to/lastmile_qr_scan", "android": "https://dc.lft.to/lastmile_qr_scan"}, "lon": -77.0237685, "type": "electric_scooter", "fusion_lat": 0.0, "lat": 38.93695666666667, "name": "6753410846d0ef249572164aab29eda1", "fusion_lon": 0.0, "bike_id": "6753410846d0ef249572164aab29eda1", "is_disabled": 0, "is_reserved": 0}, {"rental_uris": {"ios": "https://dc.lft.to/lastmile_qr_scan", "android": "https://dc.lft.to/lastmile_qr_scan"}, "lon": -77.02228466666666, "type": "electric_bike", "fusion_lat": 0.0, "lat": 38.95689266666667, "name": "6171f53c5ac9be3bf5408aa72cefacda", "fusion_lon": 0.0, "bike_id": "6171f53c5ac9be3bf5408aa72cefacda", "is_disabled": 0, "is_reserved": 0}, {"rental_uris": {"ios": "https://dc.lft.to/lastmile_qr_scan", "android": "https://dc.lft.to/lastmile_qr_scan"}, "lon": -77.06357733333333, "type": "electric_scooter", "fusion_lat": 0.0, "lat": 38.94449216666667, "name": "8617aaa40179e9e01f5a559505d1a508", "fusion_lon": 0.0, "bike_id": "8617aaa40179e9e01f5a559505d1a508", "is_disabled": 0, "is_reserved": 0}, {"rental_uris": {"ios": "https://dc.lft.to/lastmile_qr_scan", "android": "https://dc.lft.to/lastmile_qr_scan"}, "lon": -77.03170466666667, "type": "electric_scooter", "fusion_lat": 0.0, "lat": 38.929803, "name": "c1e48571274799dbbd1591a5a9ce68ce", "fusion_lon": 0.0, "bike_id": "c1e48571274799dbbd1591a5a9ce68ce", "is_disabled": 0, "is_reserved": 0}, {"rental_uris": {"ios": "https://dc.lft.to/lastmile_qr_scan", "android": "https://dc.lft.to/lastmile_qr_scan"}, "lon": -77.11061733333334, "type": "electric_bike", "fusion_lat": 0.0, "lat": 38.87073316666667, "name": "1970241b6b4d8cfac093faf039d6e676", "fusion_lon": 0.0, "bike_id": "1970241b6b4d8cfac093faf039d6e676", "is_disabled": 0, "is_reserved": 0}, {"rental_uris": {"ios": "https://dc.lft.to/lastmile_qr_scan", "android": "https://dc.lft.to/lastmile_qr_scan"}, "lon": -76.99000083333334, "type": "electric_scooter", "fusion_lat": 0.0, "lat": 38.865051, "name": "e6119a71fff5d1f7d5c02fbdc59925ce", "fusion_lon": 0.0, "bike_id": "e6119a71fff5d1f7d5c02fbdc59925ce", "is_disabled": 0, "is_reserved": 0}, {"rental_uris": {"ios": "https://dc.lft.to/lastmile_qr_scan", "android": "https://dc.lft.to/lastmile_qr_scan"}, "lon": -77.082534, "type": "electric_scooter", "fusion_lat": 0.0, "lat": 38.93588666666667, "name": "cadfa876044f1d175a0ea23e562a3c0d", "fusion_lon": 0.0, "bike_id": "cadfa876044f1d175a0ea23e562a3c0d", "is_disabled": 0, "is_reserved": 0}, {"rental_uris": {"ios": "https://dc.lft.to/lastmile_qr_scan", "android": "https://dc.lft.to/lastmile_qr_scan"}, "lon": -77.08199983333333, "type": "electric_scooter", "fusion_lat": 0.0, "lat": 38.93332783333334, "name": "a028a4c891473bb62d6bb054d5e1b34c", "fusion_lon": 0.0, "bike_id": "a028a4c891473bb62d6bb054d5e1b34c", "is_disabled": 0, "is_reserved": 0}, {"rental_uris": {"ios": "https://dc.lft.to/lastmile_qr_scan", "android": "https://dc.lft.to/lastmile_qr_scan"}, "lon": -77.040438, "type": "electric_scooter", "fusion_lat": 0.0, "lat": 38.9247185, "name": "bb6b457bf0a135b54f79d22e2c9f4ee2", "fusion_lon": 0.0, "bike_id": "bb6b457bf0a135b54f79d22e2c9f4ee2", "is_disabled": 0, "is_reserved": 0}, {"rental_uris": {"ios": "https://dc.lft.to/lastmile_qr_scan", "android": "https://dc.lft.to/lastmile_qr_scan"}, "lon": -77.03997583333333, "type": "electric_scooter", "fusion_lat": 0.0, "lat": 38.90832066666667, "name": "9ffc7cecc6ecf6692b0517d0ec8b1ebc", "fusion_lon": 0.0, "bike_id": "9ffc7cecc6ecf6692b0517d0ec8b1ebc", "is_disabled": 0, "is_reserved": 0}, {"rental_uris": {"ios": "https://dc.lft.to/lastmile_qr_scan", "android": "https://dc.lft.to/lastmile_qr_scan"}, "lon": -77.00658566666667, "type": "electric_scooter", "fusion_lat": 0.0, "lat": 38.91198, "name": "e37d28c670d6beaea511bfcb3e0927ca", "fusion_lon": 0.0, "bike_id": "e37d28c670d6beaea511bfcb3e0927ca", "is_disabled": 0, "is_reserved": 0}, {"rental_uris": {"ios": "https://dc.lft.to/lastmile_qr_scan", "android": "https://dc.lft.to/lastmile_qr_scan"}, "lon": -76.9967115, "type": "electric_scooter", "fusion_lat": 0.0, "lat": 38.91007316666666, "name": "688f6dede145676166d5ae03d97aaf28", "fusion_lon": 0.0, "bike_id": "688f6dede145676166d5ae03d97aaf28", "is_disabled": 0, "is_reserved": 0}, {"rental_uris": {"ios": "https://dc.lft.to/lastmile_qr_scan", "android": "https://dc.lft.to/lastmile_qr_scan"}, "lon": -77.06101166666667, "type": "electric_scooter", "fusion_lat": 0.0, "lat": 38.93702433333333, "name": "d03b56dcef39852ffa264d87881cebc2", "fusion_lon": 0.0, "bike_id": "d03b56dcef39852ffa264d87881cebc2", "is_disabled": 0, "is_reserved": 0}, {"rental_uris": {"ios": "https://dc.lft.to/lastmile_qr_scan", "android": "https://dc.lft.to/lastmile_qr_scan"}, "lon": -77.02361, "type": "electric_scooter", "fusion_lat": 0.0, "lat": 38.903074333333336, "name": "e6437f72c132c0aa50b17c48aa9f4bf3", "fusion_lon": 0.0, "bike_id": "e6437f72c132c0aa50b17c48aa9f4bf3", "is_disabled": 0, "is_reserved": 0}, {"rental_uris": {"ios": "https://dc.lft.to/lastmile_qr_scan", "android": "https://dc.lft.to/lastmile_qr_scan"}, "lon": -76.99149716666666, "type": "electric_scooter", "fusion_lat": 0.0, "lat": 38.900385, "name": "f824debbb1958056188e1e654bea5739", "fusion_lon": 0.0, "bike_id": "f824debbb1958056188e1e654bea5739", "is_disabled": 0, "is_reserved": 0}, {"rental_uris": {"ios": "https://dc.lft.to/lastmile_qr_scan", "android": "https://dc.lft.to/lastmile_qr_scan"}, "lon": -76.99562083333333, "type": "electric_scooter", "fusion_lat": 0.0, "lat": 38.92872966666667, "name": "99d3043bd53f79757554e3eb7e0f61f4", "fusion_lon": 0.0, "bike_id": "99d3043bd53f79757554e3eb7e0f61f4", "is_disabled": 0, "is_reserved": 0}, {"rental_uris": {"ios": "https://dc.lft.to/lastmile_qr_scan", "android": "https://dc.lft.to/lastmile_qr_scan"}, "lon": -76.93867666666667, "type": "electric_scooter", "fusion_lat": 0.0, "lat": 38.900838666666665, "name": "d67df23b6a2da72555c177c97a63e91a", "fusion_lon": 0.0, "bike_id": "d67df23b6a2da72555c177c97a63e91a", "is_disabled": 0, "is_reserved": 0}, {"rental_uris": {"ios": "https://dc.lft.to/lastmile_qr_scan", "android": "https://dc.lft.to/lastmile_qr_scan"}, "lon": -76.9865375, "type": "electric_scooter", "fusion_lat": 0.0, "lat": 38.85805666666667, "name": "5f0b32d350c22d66cd951cea05297946", "fusion_lon": 0.0, "bike_id": "5f0b32d350c22d66cd951cea05297946", "is_disabled": 0, "is_reserved": 0}, {"rental_uris": {"ios": "https://dc.lft.to/lastmile_qr_scan", "android": "https://dc.lft.to/lastmile_qr_scan"}, "lon": -77.0448865, "type": "electric_scooter", "fusion_lat": 0.0, "lat": 38.900066, "name": "7592b506eca5dc2d4e1156d5fe52b225", "fusion_lon": 0.0, "bike_id": "7592b506eca5dc2d4e1156d5fe52b225", "is_disabled": 0, "is_reserved": 0}, {"rental_uris": {"ios": "https://dc.lft.to/lastmile_qr_scan", "android": "https://dc.lft.to/lastmile_qr_scan"}, "lon": -77.04661516666667, "type": "electric_scooter", "fusion_lat": 0.0, "lat": 38.9075015, "name": "d06a968198135ca9a1c8339d71a58383", "fusion_lon": 0.0, "bike_id": "d06a968198135ca9a1c8339d71a58383", "is_disabled": 0, "is_reserved": 0}, {"rental_uris": {"ios": "https://dc.lft.to/lastmile_qr_scan", "android": "https://dc.lft.to/lastmile_qr_scan"}, "lon": -77.040156, "type": "electric_scooter", "fusion_lat": 0.0, "lat": 38.932549333333334, "name": "fd188587c346453b4d71f50cb097542e", "fusion_lon": 0.0, "bike_id": "fd188587c346453b4d71f50cb097542e", "is_disabled": 0, "is_reserved": 0}, {"rental_uris": {"ios": "https://dc.lft.to/lastmile_qr_scan", "android": "https://dc.lft.to/lastmile_qr_scan"}, "lon": -77.03715516666666, "type": "electric_scooter", "fusion_lat": 0.0, "lat": 38.9104295, "name": "f707a798ea8b23df6de8b1aede13cb73", "fusion_lon": 0.0, "bike_id": "f707a798ea8b23df6de8b1aede13cb73", "is_disabled": 0, "is_reserved": 0}, {"rental_uris": {"ios": "https://dc.lft.to/lastmile_qr_scan", "android": "https://dc.lft.to/lastmile_qr_scan"}, "lon": -77.00557183333333, "type": "electric_scooter", "fusion_lat": 0.0, "lat": 38.90552116666667, "name": "ea1ac56908f0a1c83778d0c6eab193f2", "fusion_lon": 0.0, "bike_id": "ea1ac56908f0a1c83778d0c6eab193f2", "is_disabled": 0, "is_reserved": 0}, {"rental_uris": {"ios": "https://dc.lft.to/lastmile_qr_scan", "android": "https://dc.lft.to/lastmile_qr_scan"}, "lon": -77.0481675, "type": "electric_scooter", "fusion_lat": 0.0, "lat": 38.92032016666667, "name": "69e48baf3a13c3f674624a9dd774c840", "fusion_lon": 0.0, "bike_id": "69e48baf3a13c3f674624a9dd774c840", "is_disabled": 0, "is_reserved": 0}, {"rental_uris": {"ios": "https://dc.lft.to/lastmile_qr_scan", "android": "https://dc.lft.to/lastmile_qr_scan"}, "lon": -76.9967905, "type": "electric_scooter", "fusion_lat": 0.0, "lat": 38.90040666666667, "name": "ca3fa00d6002edaa1103ba8889244461", "fusion_lon": 0.0, "bike_id": "ca3fa00d6002edaa1103ba8889244461", "is_disabled": 0, "is_reserved": 0}, {"rental_uris": {"ios": "https://dc.lft.to/lastmile_qr_scan", "android": "https://dc.lft.to/lastmile_qr_scan"}, "lon": -76.99818233333333, "type": "electric_bike", "fusion_lat": 0.0, "lat": 38.844344166666666, "name": "d839397888d4bd51e05518602def3396", "fusion_lon": 0.0, "bike_id": "d839397888d4bd51e05518602def3396", "is_disabled": 0, "is_reserved": 0}, {"rental_uris": {"ios": "https://dc.lft.to/lastmile_qr_scan", "android": "https://dc.lft.to/lastmile_qr_scan"}, "lon": -76.98584866666667, "type": "electric_scooter", "fusion_lat": 0.0, "lat": 38.899226666666664, "name": "b248de6b25f1d0d982bcda946d725bd5", "fusion_lon": 0.0, "bike_id": "b248de6b25f1d0d982bcda946d725bd5", "is_disabled": 0, "is_reserved": 0}, {"rental_uris": {"ios": "https://dc.lft.to/lastmile_qr_scan", "android": "https://dc.lft.to/lastmile_qr_scan"}, "lon": -77.03187183333333, "type": "electric_scooter", "fusion_lat": 0.0, "lat": 38.9153265, "name": "daa2d1d11631976f529924c609e1e46e", "fusion_lon": 0.0, "bike_id": "daa2d1d11631976f529924c609e1e46e", "is_disabled": 0, "is_reserved": 0}, {"rental_uris": {"ios": "https://dc.lft.to/lastmile_qr_scan", "android": "https://dc.lft.to/lastmile_qr_scan"}, "lon": -77.02970433333333, "type": "electric_scooter", "fusion_lat": 0.0, "lat": 38.90726266666667, "name": "0a991b6061f64b0159d41c01389ade5c", "fusion_lon": 0.0, "bike_id": "0a991b6061f64b0159d41c01389ade5c", "is_disabled": 0, "is_reserved": 0}, {"rental_uris": {"ios": "https://dc.lft.to/lastmile_qr_scan", "android": "https://dc.lft.to/lastmile_qr_scan"}, "lon": -77.02332416666667, "type": "electric_scooter", "fusion_lat": 0.0, "lat": 38.930518, "name": "196142438340512b2fa2e6d7aeac7820", "fusion_lon": 0.0, "bike_id": "196142438340512b2fa2e6d7aeac7820", "is_disabled": 0, "is_reserved": 0}, {"rental_uris": {"ios": "https://dc.lft.to/lastmile_qr_scan", "android": "https://dc.lft.to/lastmile_qr_scan"}, "lon": -77.00067666666666, "type": "electric_scooter", "fusion_lat": 0.0, "lat": 38.92552116666667, "name": "362718fdeecf1d6b93b4a064490aeb28", "fusion_lon": 0.0, "bike_id": "362718fdeecf1d6b93b4a064490aeb28", "is_disabled": 0, "is_reserved": 0}, {"rental_uris": {"ios": "https://dc.lft.to/lastmile_qr_scan", "android": "https://dc.lft.to/lastmile_qr_scan"}, "lon": -77.00574183333333, "type": "electric_scooter", "fusion_lat": 0.0, "lat": 38.87884566666666, "name": "36e2aba3ee57765b242c494588ebbeef", "fusion_lon": 0.0, "bike_id": "36e2aba3ee57765b242c494588ebbeef", "is_disabled": 0, "is_reserved": 0}, {"rental_uris": {"ios": "https://dc.lft.to/lastmile_qr_scan", "android": "https://dc.lft.to/lastmile_qr_scan"}, "lon": -77.19909033333333, "type": "electric_bike", "fusion_lat": 0.0, "lat": 38.87529266666667, "name": "bcf6c1b1ce84279986ecfa7f821faf8f", "fusion_lon": 0.0, "bike_id": "bcf6c1b1ce84279986ecfa7f821faf8f", "is_disabled": 0, "is_reserved": 0}, {"rental_uris": {"ios": "https://dc.lft.to/lastmile_qr_scan", "android": "https://dc.lft.to/lastmile_qr_scan"}, "lon": -77.0318925, "type": "electric_scooter", "fusion_lat": 0.0, "lat": 38.90414333333333, "name": "0795c9d86e29d99bf15317361d458a59", "fusion_lon": 0.0, "bike_id": "0795c9d86e29d99bf15317361d458a59", "is_disabled": 0, "is_reserved": 0}, {"rental_uris": {"ios": "https://dc.lft.to/lastmile_qr_scan", "android": "https://dc.lft.to/lastmile_qr_scan"}, "lon": -77.044151, "type": "electric_scooter", "fusion_lat": 0.0, "lat": 38.903829, "name": "7d670a668c91562b868f49d265b28ef1", "fusion_lon": 0.0, "bike_id": "7d670a668c91562b868f49d265b28ef1", "is_disabled": 0, "is_reserved": 0}, {"rental_uris": {"ios": "https://dc.lft.to/lastmile_qr_scan", "android": "https://dc.lft.to/lastmile_qr_scan"}, "lon": -77.0461375, "type": "electric_scooter", "fusion_lat": 0.0, "lat": 38.91914116666667, "name": "0276a849668074db21dce2e253af9e4d", "fusion_lon": 0.0, "bike_id": "0276a849668074db21dce2e253af9e4d", "is_disabled": 0, "is_reserved": 0}, {"rental_uris": {"ios": "https://dc.lft.to/lastmile_qr_scan", "android": "https://dc.lft.to/lastmile_qr_scan"}, "lon": -77.14994316666667, "type": "electric_bike", "fusion_lat": 0.0, "lat": 39.09460983333334, "name": "bf435eb4a92fa839572863bd1c223c75", "fusion_lon": 0.0, "bike_id": "bf435eb4a92fa839572863bd1c223c75", "is_disabled": 0, "is_reserved": 0}, {"rental_uris": {"ios": "https://dc.lft.to/lastmile_qr_scan", "android": "https://dc.lft.to/lastmile_qr_scan"}, "lon": -76.933669, "type": "electric_scooter", "fusion_lat": 0.0, "lat": 38.899154, "name": "8f4d9fded81d0264508310d670871274", "fusion_lon": 0.0, "bike_id": "8f4d9fded81d0264508310d670871274", "is_disabled": 0, "is_reserved": 0}, {"rental_uris": {"ios": "https://dc.lft.to/lastmile_qr_scan", "android": "https://dc.lft.to/lastmile_qr_scan"}, "lon": -77.02509083333334, "type": "electric_bike", "fusion_lat": 0.0, "lat": 38.934133333333335, "name": "56f8e3b3b3cfa6988181b00a92717e4b", "fusion_lon": 0.0, "bike_id": "56f8e3b3b3cfa6988181b00a92717e4b", "is_disabled": 0, "is_reserved": 0}, {"rental_uris": {"ios": "https://dc.lft.to/lastmile_qr_scan", "android": "https://dc.lft.to/lastmile_qr_scan"}, "lon": -77.03449533333334, "type": "electric_scooter", "fusion_lat": 0.0, "lat": 38.911570166666664, "name": "f1b6fe010f8c2753d1aceede3c4b828b", "fusion_lon": 0.0, "bike_id": "f1b6fe010f8c2753d1aceede3c4b828b", "is_disabled": 0, "is_reserved": 0}, {"rental_uris": {"ios": "https://dc.lft.to/lastmile_qr_scan", "android": "https://dc.lft.to/lastmile_qr_scan"}, "lon": -76.98507466666666, "type": "electric_scooter", "fusion_lat": 0.0, "lat": 38.90088816666667, "name": "82fee7145747217589c1041b6416bed2", "fusion_lon": 0.0, "bike_id": "82fee7145747217589c1041b6416bed2", "is_disabled": 0, "is_reserved": 0}, {"rental_uris": {"ios": "https://dc.lft.to/lastmile_qr_scan", "android": "https://dc.lft.to/lastmile_qr_scan"}, "lon": -77.05409883333333, "type": "electric_scooter", "fusion_lat": 0.0, "lat": 38.90398033333334, "name": "cfbb4ca110395a94bc6187a8a15025bc", "fusion_lon": 0.0, "bike_id": "cfbb4ca110395a94bc6187a8a15025bc", "is_disabled": 0, "is_reserved": 0}, {"rental_uris": {"ios": "https://dc.lft.to/lastmile_qr_scan", "android": "https://dc.lft.to/lastmile_qr_scan"}, "lon": -76.99069633333333, "type": "electric_scooter", "fusion_lat": 0.0, "lat": 38.90418533333333, "name": "cc860dc2722545b95fd68ef892c0a477", "fusion_lon": 0.0, "bike_id": "cc860dc2722545b95fd68ef892c0a477", "is_disabled": 0, "is_reserved": 0}, {"rental_uris": {"ios": "https://dc.lft.to/lastmile_qr_scan", "android": "https://dc.lft.to/lastmile_qr_scan"}, "lon": -77.09158833333333, "type": "electric_bike", "fusion_lat": 0.0, "lat": 38.967622166666665, "name": "f6868ce1675e58891ab2c52c85fbbf48", "fusion_lon": 0.0, "bike_id": "f6868ce1675e58891ab2c52c85fbbf48", "is_disabled": 0, "is_reserved": 0}, {"rental_uris": {"ios": "https://dc.lft.to/lastmile_qr_scan", "android": "https://dc.lft.to/lastmile_qr_scan"}, "lon": -77.01988583333333, "type": "electric_bike", "fusion_lat": 0.0, "lat": 38.95660816666667, "name": "16d33428fcac7cab0d0a0efba2463878", "fusion_lon": 0.0, "bike_id": "16d33428fcac7cab0d0a0efba2463878", "is_disabled": 0, "is_reserved": 0}, {"rental_uris": {"ios": "https://dc.lft.to/lastmile_qr_scan", "android": "https://dc.lft.to/lastmile_qr_scan"}, "lon": -77.02588166666666, "type": "electric_scooter", "fusion_lat": 0.0, "lat": 38.91553533333333, "name": "e0e560ad6a81f57b77d31ebdab03fc56", "fusion_lon": 0.0, "bike_id": "e0e560ad6a81f57b77d31ebdab03fc56", "is_disabled": 0, "is_reserved": 0}, {"rental_uris": {"ios": "https://dc.lft.to/lastmile_qr_scan", "android": "https://dc.lft.to/lastmile_qr_scan"}, "lon": -77.043702, "type": "electric_scooter", "fusion_lat": 0.0, "lat": 38.9206275, "name": "f01e78ce7a27ced0d2866a70edacf37f", "fusion_lon": 0.0, "bike_id": "f01e78ce7a27ced0d2866a70edacf37f", "is_disabled": 0, "is_reserved": 0}, {"rental_uris": {"ios": "https://dc.lft.to/lastmile_qr_scan", "android": "https://dc.lft.to/lastmile_qr_scan"}, "lon": -77.130952, "type": "electric_bike", "fusion_lat": 0.0, "lat": 38.86162683333333, "name": "103a9c4b7c69234b035addfd3b42e6b8", "fusion_lon": 0.0, "bike_id": "103a9c4b7c69234b035addfd3b42e6b8", "is_disabled": 0, "is_reserved": 0}, {"rental_uris": {"ios": "https://dc.lft.to/lastmile_qr_scan", "android": "https://dc.lft.to/lastmile_qr_scan"}, "lon": -77.02333516666667, "type": "electric_scooter", "fusion_lat": 0.0, "lat": 38.883408333333335, "name": "44cffd628a4d2f004ff822735bfa14bb", "fusion_lon": 0.0, "bike_id": "44cffd628a4d2f004ff822735bfa14bb", "is_disabled": 0, "is_reserved": 0}, {"rental_uris": {"ios": "https://dc.lft.to/lastmile_qr_scan", "android": "https://dc.lft.to/lastmile_qr_scan"}, "lon": -77.005739, "type": "electric_scooter", "fusion_lat": 0.0, "lat": 38.905462, "name": "5bbdf5a442e6e40760a20717758b653d", "fusion_lon": 0.0, "bike_id": "5bbdf5a442e6e40760a20717758b653d", "is_disabled": 0, "is_reserved": 0}, {"rental_uris": {"ios": "https://dc.lft.to/lastmile_qr_scan", "android": "https://dc.lft.to/lastmile_qr_scan"}, "lon": -76.98254916666667, "type": "electric_scooter", "fusion_lat": 0.0, "lat": 38.9086475, "name": "a062ac250cc8012170a415fd214827cd", "fusion_lon": 0.0, "bike_id": "a062ac250cc8012170a415fd214827cd", "is_disabled": 0, "is_reserved": 0}, {"rental_uris": {"ios": "https://dc.lft.to/lastmile_qr_scan", "android": "https://dc.lft.to/lastmile_qr_scan"}, "lon": -77.00975083333333, "type": "electric_scooter", "fusion_lat": 0.0, "lat": 38.91921283333333, "name": "b54026382889044420b9b96038b5c09d", "fusion_lon": 0.0, "bike_id": "b54026382889044420b9b96038b5c09d", "is_disabled": 0, "is_reserved": 0}, {"rental_uris": {"ios": "https://dc.lft.to/lastmile_qr_scan", "android": "https://dc.lft.to/lastmile_qr_scan"}, "lon": -76.98181733333334, "type": "electric_scooter", "fusion_lat": 0.0, "lat": 38.89575466666667, "name": "2f0463c3774a00fbcf20dc77901c2740", "fusion_lon": 0.0, "bike_id": "2f0463c3774a00fbcf20dc77901c2740", "is_disabled": 0, "is_reserved": 0}, {"rental_uris": {"ios": "https://dc.lft.to/lastmile_qr_scan", "android": "https://dc.lft.to/lastmile_qr_scan"}, "lon": -77.023566, "type": "electric_scooter", "fusion_lat": 0.0, "lat": 38.9249775, "name": "4f46a45842f5455d70f63682a799495b", "fusion_lon": 0.0, "bike_id": "4f46a45842f5455d70f63682a799495b", "is_disabled": 0, "is_reserved": 0}, {"rental_uris": {"ios": "https://dc.lft.to/lastmile_qr_scan", "android": "https://dc.lft.to/lastmile_qr_scan"}, "lon": -76.9095135, "type": "electric_bike", "fusion_lat": 0.0, "lat": 38.854206833333336, "name": "01a5af1aca4dd2af2c90d3e8c748d7e9", "fusion_lon": 0.0, "bike_id": "01a5af1aca4dd2af2c90d3e8c748d7e9", "is_disabled": 0, "is_reserved": 0}, {"rental_uris": {"ios": "https://dc.lft.to/lastmile_qr_scan", "android": "https://dc.lft.to/lastmile_qr_scan"}, "lon": -77.02730033333333, "type": "electric_scooter", "fusion_lat": 0.0, "lat": 38.916994833333334, "name": "65d935342853186814acd8140802ab7f", "fusion_lon": 0.0, "bike_id": "65d935342853186814acd8140802ab7f", "is_disabled": 0, "is_reserved": 0}, {"rental_uris": {"ios": "https://dc.lft.to/lastmile_qr_scan", "android": "https://dc.lft.to/lastmile_qr_scan"}, "lon": -76.94888116666667, "type": "electric_scooter", "fusion_lat": 0.0, "lat": 38.895284833333335, "name": "267295a1ad3f608f3f6b3fdbca4292c4", "fusion_lon": 0.0, "bike_id": "267295a1ad3f608f3f6b3fdbca4292c4", "is_disabled": 0, "is_reserved": 0}, {"rental_uris": {"ios": "https://dc.lft.to/lastmile_qr_scan", "android": "https://dc.lft.to/lastmile_qr_scan"}, "lon": -77.03140516666667, "type": "electric_scooter", "fusion_lat": 0.0, "lat": 38.91261633333333, "name": "647e2b0bcbc96a03a3c5da6054f68ef5", "fusion_lon": 0.0, "bike_id": "647e2b0bcbc96a03a3c5da6054f68ef5", "is_disabled": 0, "is_reserved": 0}, {"rental_uris": {"ios": "https://dc.lft.to/lastmile_qr_scan", "android": "https://dc.lft.to/lastmile_qr_scan"}, "lon": -77.03440966666666, "type": "electric_scooter", "fusion_lat": 0.0, "lat": 38.90977983333333, "name": "4ddee76394d0ef54171c896b81e04e85", "fusion_lon": 0.0, "bike_id": "4ddee76394d0ef54171c896b81e04e85", "is_disabled": 0, "is_reserved": 0}, {"rental_uris": {"ios": "https://dc.lft.to/lastmile_qr_scan", "android": "https://dc.lft.to/lastmile_qr_scan"}, "lon": -77.03302, "type": "electric_scooter", "fusion_lat": 0.0, "lat": 38.91807433333334, "name": "15f201a1b5c71a90dfade6dcda057516", "fusion_lon": 0.0, "bike_id": "15f201a1b5c71a90dfade6dcda057516", "is_disabled": 0, "is_reserved": 0}, {"rental_uris": {"ios": "https://dc.lft.to/lastmile_qr_scan", "android": "https://dc.lft.to/lastmile_qr_scan"}, "lon": -77.0241375, "type": "electric_scooter", "fusion_lat": 0.0, "lat": 38.9349085, "name": "b81d4af5d34f318104e3fd08bf3f327e", "fusion_lon": 0.0, "bike_id": "b81d4af5d34f318104e3fd08bf3f327e", "is_disabled": 0, "is_reserved": 0}, {"rental_uris": {"ios": "https://dc.lft.to/lastmile_qr_scan", "android": "https://dc.lft.to/lastmile_qr_scan"}, "lon": -77.03504816666667, "type": "electric_scooter", "fusion_lat": 0.0, "lat": 38.91877183333333, "name": "faf50a7e8586e1e354e82fceec1104f4", "fusion_lon": 0.0, "bike_id": "faf50a7e8586e1e354e82fceec1104f4", "is_disabled": 0, "is_reserved": 0}, {"rental_uris": {"ios": "https://dc.lft.to/lastmile_qr_scan", "android": "https://dc.lft.to/lastmile_qr_scan"}, "lon": -77.04490133333333, "type": "electric_scooter", "fusion_lat": 0.0, "lat": 38.911083166666664, "name": "48b1ec79693deeb10eb45038ab5fd8be", "fusion_lon": 0.0, "bike_id": "48b1ec79693deeb10eb45038ab5fd8be", "is_disabled": 0, "is_reserved": 0}, {"rental_uris": {"ios": "https://dc.lft.to/lastmile_qr_scan", "android": "https://dc.lft.to/lastmile_qr_scan"}, "lon": -77.02464866666666, "type": "electric_scooter", "fusion_lat": 0.0, "lat": 38.936331, "name": "283e1c947b0593d146133c768cb352c5", "fusion_lon": 0.0, "bike_id": "283e1c947b0593d146133c768cb352c5", "is_disabled": 0, "is_reserved": 0}, {"rental_uris": {"ios": "https://dc.lft.to/lastmile_qr_scan", "android": "https://dc.lft.to/lastmile_qr_scan"}, "lon": -76.959021, "type": "electric_scooter", "fusion_lat": 0.0, "lat": 38.92690316666667, "name": "be7216a5fa7dd00f723ef449ace6d7cc", "fusion_lon": 0.0, "bike_id": "be7216a5fa7dd00f723ef449ace6d7cc", "is_disabled": 0, "is_reserved": 0}, {"rental_uris": {"ios": "https://dc.lft.to/lastmile_qr_scan", "android": "https://dc.lft.to/lastmile_qr_scan"}, "lon": -77.05261616666667, "type": "electric_scooter", "fusion_lat": 0.0, "lat": 38.93430983333333, "name": "d97c70130e0efa06d5d1a2da59f93c2c", "fusion_lon": 0.0, "bike_id": "d97c70130e0efa06d5d1a2da59f93c2c", "is_disabled": 0, "is_reserved": 0}, {"rental_uris": {"ios": "https://dc.lft.to/lastmile_qr_scan", "android": "https://dc.lft.to/lastmile_qr_scan"}, "lon": -76.98008683333333, "type": "electric_bike", "fusion_lat": 0.0, "lat": 38.90011466666667, "name": "055afeeb28e77f9d1e113b5d7b72611b", "fusion_lon": 0.0, "bike_id": "055afeeb28e77f9d1e113b5d7b72611b", "is_disabled": 0, "is_reserved": 0}, {"rental_uris": {"ios": "https://dc.lft.to/lastmile_qr_scan", "android": "https://dc.lft.to/lastmile_qr_scan"}, "lon": -77.0137085, "type": "electric_scooter", "fusion_lat": 0.0, "lat": 38.8865285, "name": "744ec718d44fe3ca931f63be030a30c8", "fusion_lon": 0.0, "bike_id": "744ec718d44fe3ca931f63be030a30c8", "is_disabled": 0, "is_reserved": 0}, {"rental_uris": {"ios": "https://dc.lft.to/lastmile_qr_scan", "android": "https://dc.lft.to/lastmile_qr_scan"}, "lon": -77.03304783333333, "type": "electric_scooter", "fusion_lat": 0.0, "lat": 38.9082595, "name": "78cf1ab2efd63074c4a08579655d61a2", "fusion_lon": 0.0, "bike_id": "78cf1ab2efd63074c4a08579655d61a2", "is_disabled": 0, "is_reserved": 0}, {"rental_uris": {"ios": "https://dc.lft.to/lastmile_qr_scan", "android": "https://dc.lft.to/lastmile_qr_scan"}, "lon": -76.9518555, "type": "electric_bike", "fusion_lat": 0.0, "lat": 38.906861666666664, "name": "fc398e99fc567c72e8f5436931117cbf", "fusion_lon": 0.0, "bike_id": "fc398e99fc567c72e8f5436931117cbf", "is_disabled": 0, "is_reserved": 0}, {"rental_uris": {"ios": "https://dc.lft.to/lastmile_qr_scan", "android": "https://dc.lft.to/lastmile_qr_scan"}, "lon": -76.93171833333334, "type": "electric_scooter", "fusion_lat": 0.0, "lat": 38.898834666666666, "name": "397b7ea1eea3a2514e8d19856c2c922f", "fusion_lon": 0.0, "bike_id": "397b7ea1eea3a2514e8d19856c2c922f", "is_disabled": 0, "is_reserved": 0}, {"rental_uris": {"ios": "https://dc.lft.to/lastmile_qr_scan", "android": "https://dc.lft.to/lastmile_qr_scan"}, "lon": -77.04288866666667, "type": "electric_scooter", "fusion_lat": 0.0, "lat": 38.895328, "name": "3219061cfe64ee6a0b47e56438ad19a5", "fusion_lon": 0.0, "bike_id": "3219061cfe64ee6a0b47e56438ad19a5", "is_disabled": 0, "is_reserved": 0}, {"rental_uris": {"ios": "https://dc.lft.to/lastmile_qr_scan", "android": "https://dc.lft.to/lastmile_qr_scan"}, "lon": -77.032111, "type": "electric_scooter", "fusion_lat": 0.0, "lat": 38.9075685, "name": "2e1e9ae343dffa9b55a64de8fd7cc865", "fusion_lon": 0.0, "bike_id": "2e1e9ae343dffa9b55a64de8fd7cc865", "is_disabled": 0, "is_reserved": 0}, {"rental_uris": {"ios": "https://dc.lft.to/lastmile_qr_scan", "android": "https://dc.lft.to/lastmile_qr_scan"}, "lon": -77.0328235, "type": "electric_scooter", "fusion_lat": 0.0, "lat": 38.93878466666666, "name": "e8c5113bdd03160e542c97c109a75efe", "fusion_lon": 0.0, "bike_id": "e8c5113bdd03160e542c97c109a75efe", "is_disabled": 0, "is_reserved": 0}, {"rental_uris": {"ios": "https://dc.lft.to/lastmile_qr_scan", "android": "https://dc.lft.to/lastmile_qr_scan"}, "lon": -77.0111265, "type": "electric_scooter", "fusion_lat": 0.0, "lat": 38.90354633333333, "name": "3205c26ddc20efb93d658407b337ec34", "fusion_lon": 0.0, "bike_id": "3205c26ddc20efb93d658407b337ec34", "is_disabled": 0, "is_reserved": 0}, {"rental_uris": {"ios": "https://dc.lft.to/lastmile_qr_scan", "android": "https://dc.lft.to/lastmile_qr_scan"}, "lon": -77.03661533333333, "type": "electric_scooter", "fusion_lat": 0.0, "lat": 38.91868, "name": "384f709c01d8eb04adf34cbbcd19b979", "fusion_lon": 0.0, "bike_id": "384f709c01d8eb04adf34cbbcd19b979", "is_disabled": 0, "is_reserved": 0}, {"rental_uris": {"ios": "https://dc.lft.to/lastmile_qr_scan", "android": "https://dc.lft.to/lastmile_qr_scan"}, "lon": -77.04412633333334, "type": "electric_scooter", "fusion_lat": 0.0, "lat": 38.913032666666666, "name": "c698c48db806b3d7d44987c9e685f24b", "fusion_lon": 0.0, "bike_id": "c698c48db806b3d7d44987c9e685f24b", "is_disabled": 0, "is_reserved": 0}, {"rental_uris": {"ios": "https://dc.lft.to/lastmile_qr_scan", "android": "https://dc.lft.to/lastmile_qr_scan"}, "lon": -77.02963283333334, "type": "electric_scooter", "fusion_lat": 0.0, "lat": 38.9231675, "name": "a320601c0833f2406ac68e5d8d0e576e", "fusion_lon": 0.0, "bike_id": "a320601c0833f2406ac68e5d8d0e576e", "is_disabled": 0, "is_reserved": 0}, {"rental_uris": {"ios": "https://dc.lft.to/lastmile_qr_scan", "android": "https://dc.lft.to/lastmile_qr_scan"}, "lon": -77.01314033333334, "type": "electric_scooter", "fusion_lat": 0.0, "lat": 38.89741133333333, "name": "1a9d0db00004c70b7b0e851a907747ba", "fusion_lon": 0.0, "bike_id": "1a9d0db00004c70b7b0e851a907747ba", "is_disabled": 0, "is_reserved": 0}, {"rental_uris": {"ios": "https://dc.lft.to/lastmile_qr_scan", "android": "https://dc.lft.to/lastmile_qr_scan"}, "lon": -77.03116233333333, "type": "electric_scooter", "fusion_lat": 0.0, "lat": 38.91913133333333, "name": "1796a8af9dda5ea70ff0a6fadad55549", "fusion_lon": 0.0, "bike_id": "1796a8af9dda5ea70ff0a6fadad55549", "is_disabled": 0, "is_reserved": 0}, {"rental_uris": {"ios": "https://dc.lft.to/lastmile_qr_scan", "android": "https://dc.lft.to/lastmile_qr_scan"}, "lon": -76.97888116666667, "type": "electric_scooter", "fusion_lat": 0.0, "lat": 38.916745666666664, "name": "d88eba7306593173d8d4035575dfd41a", "fusion_lon": 0.0, "bike_id": "d88eba7306593173d8d4035575dfd41a", "is_disabled": 0, "is_reserved": 0}, {"rental_uris": {"ios": "https://dc.lft.to/lastmile_qr_scan", "android": "https://dc.lft.to/lastmile_qr_scan"}, "lon": -77.042461, "type": "electric_scooter", "fusion_lat": 0.0, "lat": 38.90813566666667, "name": "886d5a5f50fce44477427c58d7c7e413", "fusion_lon": 0.0, "bike_id": "886d5a5f50fce44477427c58d7c7e413", "is_disabled": 0, "is_reserved": 0}, {"rental_uris": {"ios": "https://dc.lft.to/lastmile_qr_scan", "android": "https://dc.lft.to/lastmile_qr_scan"}, "lon": -76.93796283333333, "type": "electric_scooter", "fusion_lat": 0.0, "lat": 38.91286483333333, "name": "2095a4191a7fd288f62aff5b9992cb8a", "fusion_lon": 0.0, "bike_id": "2095a4191a7fd288f62aff5b9992cb8a", "is_disabled": 0, "is_reserved": 0}, {"rental_uris": {"ios": "https://dc.lft.to/lastmile_qr_scan", "android": "https://dc.lft.to/lastmile_qr_scan"}, "lon": -77.008561, "type": "electric_scooter", "fusion_lat": 0.0, "lat": 38.9259585, "name": "973524fca686fbcb02f651efc1ba604f", "fusion_lon": 0.0, "bike_id": "973524fca686fbcb02f651efc1ba604f", "is_disabled": 0, "is_reserved": 0}, {"rental_uris": {"ios": "https://dc.lft.to/lastmile_qr_scan", "android": "https://dc.lft.to/lastmile_qr_scan"}, "lon": -77.04956716666666, "type": "electric_scooter", "fusion_lat": 0.0, "lat": 38.8965715, "name": "fb3d30e47f07ac3f28a76467b64f146b", "fusion_lon": 0.0, "bike_id": "fb3d30e47f07ac3f28a76467b64f146b", "is_disabled": 0, "is_reserved": 0}, {"rental_uris": {"ios": "https://dc.lft.to/lastmile_qr_scan", "android": "https://dc.lft.to/lastmile_qr_scan"}, "lon": -77.032692, "type": "electric_scooter", "fusion_lat": 0.0, "lat": 38.93739583333333, "name": "0a2ef705d2585e89a70f2d869f6dfb8a", "fusion_lon": 0.0, "bike_id": "0a2ef705d2585e89a70f2d869f6dfb8a", "is_disabled": 0, "is_reserved": 0}, {"rental_uris": {"ios": "https://dc.lft.to/lastmile_qr_scan", "android": "https://dc.lft.to/lastmile_qr_scan"}, "lon": -77.08362266666667, "type": "electric_scooter", "fusion_lat": 0.0, "lat": 38.9302695, "name": "dfaede4f2c6257066d7e2db5ed90d9bc", "fusion_lon": 0.0, "bike_id": "dfaede4f2c6257066d7e2db5ed90d9bc", "is_disabled": 0, "is_reserved": 0}, {"rental_uris": {"ios": "https://dc.lft.to/lastmile_qr_scan", "android": "https://dc.lft.to/lastmile_qr_scan"}, "lon": -76.9954465, "type": "electric_scooter", "fusion_lat": 0.0, "lat": 38.926661333333335, "name": "1fe01accf4f32db32dcfb5d4d640f9b3", "fusion_lon": 0.0, "bike_id": "1fe01accf4f32db32dcfb5d4d640f9b3", "is_disabled": 0, "is_reserved": 0}, {"rental_uris": {"ios": "https://dc.lft.to/lastmile_qr_scan", "android": "https://dc.lft.to/lastmile_qr_scan"}, "lon": -77.03081033333333, "type": "electric_scooter", "fusion_lat": 0.0, "lat": 38.934699333333334, "name": "c754fec2d2c367c7b340af8584ebabfc", "fusion_lon": 0.0, "bike_id": "c754fec2d2c367c7b340af8584ebabfc", "is_disabled": 0, "is_reserved": 0}, {"rental_uris": {"ios": "https://dc.lft.to/lastmile_qr_scan", "android": "https://dc.lft.to/lastmile_qr_scan"}, "lon": -76.98773, "type": "electric_scooter", "fusion_lat": 0.0, "lat": 38.911717, "name": "b9fc343276843d16954073cc2eff1d82", "fusion_lon": 0.0, "bike_id": "b9fc343276843d16954073cc2eff1d82", "is_disabled": 0, "is_reserved": 0}, {"rental_uris": {"ios": "https://dc.lft.to/lastmile_qr_scan", "android": "https://dc.lft.to/lastmile_qr_scan"}, "lon": -77.04828833333333, "type": "electric_scooter", "fusion_lat": 0.0, "lat": 38.896227, "name": "f3547b823ab0897a843b477c78c2efb1", "fusion_lon": 0.0, "bike_id": "f3547b823ab0897a843b477c78c2efb1", "is_disabled": 0, "is_reserved": 0}, {"rental_uris": {"ios": "https://dc.lft.to/lastmile_qr_scan", "android": "https://dc.lft.to/lastmile_qr_scan"}, "lon": -77.02881166666667, "type": "electric_scooter", "fusion_lat": 0.0, "lat": 38.90346066666667, "name": "f01e6936df782f8742b0767cf8a1adc2", "fusion_lon": 0.0, "bike_id": "f01e6936df782f8742b0767cf8a1adc2", "is_disabled": 0, "is_reserved": 0}, {"rental_uris": {"ios": "https://dc.lft.to/lastmile_qr_scan", "android": "https://dc.lft.to/lastmile_qr_scan"}, "lon": -77.01753, "type": "electric_scooter", "fusion_lat": 0.0, "lat": 38.938951333333335, "name": "93c4234eadbdb34ca3bface69bb7926e", "fusion_lon": 0.0, "bike_id": "93c4234eadbdb34ca3bface69bb7926e", "is_disabled": 0, "is_reserved": 0}, {"rental_uris": {"ios": "https://dc.lft.to/lastmile_qr_scan", "android": "https://dc.lft.to/lastmile_qr_scan"}, "lon": -77.12740233333334, "type": "electric_bike", "fusion_lat": 0.0, "lat": 38.888251333333336, "name": "77ec59c33b160b2c292807096a02b286", "fusion_lon": 0.0, "bike_id": "77ec59c33b160b2c292807096a02b286", "is_disabled": 0, "is_reserved": 0}, {"rental_uris": {"ios": "https://dc.lft.to/lastmile_qr_scan", "android": "https://dc.lft.to/lastmile_qr_scan"}, "lon": -77.0449425, "type": "electric_scooter", "fusion_lat": 0.0, "lat": 38.91862583333333, "name": "30d4378734f73a4d8d868e8dff7e8af6", "fusion_lon": 0.0, "bike_id": "30d4378734f73a4d8d868e8dff7e8af6", "is_disabled": 0, "is_reserved": 0}, {"rental_uris": {"ios": "https://dc.lft.to/lastmile_qr_scan", "android": "https://dc.lft.to/lastmile_qr_scan"}, "lon": -77.0478605, "type": "electric_scooter", "fusion_lat": 0.0, "lat": 38.897716833333334, "name": "84d585527564eca6a7e13bc7eadf27e2", "fusion_lon": 0.0, "bike_id": "84d585527564eca6a7e13bc7eadf27e2", "is_disabled": 0, "is_reserved": 0}, {"rental_uris": {"ios": "https://dc.lft.to/lastmile_qr_scan", "android": "https://dc.lft.to/lastmile_qr_scan"}, "lon": -76.9652445, "type": "electric_scooter", "fusion_lat": 0.0, "lat": 38.87627283333333, "name": "259cb6c4ac4f13481827fb1d81afc4d8", "fusion_lon": 0.0, "bike_id": "259cb6c4ac4f13481827fb1d81afc4d8", "is_disabled": 0, "is_reserved": 0}, {"rental_uris": {"ios": "https://dc.lft.to/lastmile_qr_scan", "android": "https://dc.lft.to/lastmile_qr_scan"}, "lon": -77.01867233333333, "type": "electric_scooter", "fusion_lat": 0.0, "lat": 38.94894733333334, "name": "7d1bd7d49f3af3e71f94d10e4caa04fa", "fusion_lon": 0.0, "bike_id": "7d1bd7d49f3af3e71f94d10e4caa04fa", "is_disabled": 0, "is_reserved": 0}, {"rental_uris": {"ios": "https://dc.lft.to/lastmile_qr_scan", "android": "https://dc.lft.to/lastmile_qr_scan"}, "lon": -76.997407, "type": "electric_scooter", "fusion_lat": 0.0, "lat": 38.909438333333334, "name": "7bb809057c62a7b0ddf65e44c4fd81e5", "fusion_lon": 0.0, "bike_id": "7bb809057c62a7b0ddf65e44c4fd81e5", "is_disabled": 0, "is_reserved": 0}, {"rental_uris": {"ios": "https://dc.lft.to/lastmile_qr_scan", "android": "https://dc.lft.to/lastmile_qr_scan"}, "lon": -77.06611216666667, "type": "electric_scooter", "fusion_lat": 0.0, "lat": 38.9053675, "name": "4ba34fc4e888fd037a7ab2265519dfcf", "fusion_lon": 0.0, "bike_id": "4ba34fc4e888fd037a7ab2265519dfcf", "is_disabled": 0, "is_reserved": 0}, {"rental_uris": {"ios": "https://dc.lft.to/lastmile_qr_scan", "android": "https://dc.lft.to/lastmile_qr_scan"}, "lon": -77.05931566666666, "type": "electric_scooter", "fusion_lat": 0.0, "lat": 38.9091645, "name": "91bf8d2158c3eef87451f05aaa8502db", "fusion_lon": 0.0, "bike_id": "91bf8d2158c3eef87451f05aaa8502db", "is_disabled": 0, "is_reserved": 0}, {"rental_uris": {"ios": "https://dc.lft.to/lastmile_qr_scan", "android": "https://dc.lft.to/lastmile_qr_scan"}, "lon": -77.08818183333334, "type": "electric_bike", "fusion_lat": 0.0, "lat": 38.911678333333334, "name": "f7289cbe79c11c792a0bf71e1b7fdced", "fusion_lon": 0.0, "bike_id": "f7289cbe79c11c792a0bf71e1b7fdced", "is_disabled": 0, "is_reserved": 0}, {"rental_uris": {"ios": "https://dc.lft.to/lastmile_qr_scan", "android": "https://dc.lft.to/lastmile_qr_scan"}, "lon": -77.00105016666667, "type": "electric_scooter", "fusion_lat": 0.0, "lat": 38.894319333333335, "name": "5eec3ee8778c4bab1cf3659c00f08fad", "fusion_lon": 0.0, "bike_id": "5eec3ee8778c4bab1cf3659c00f08fad", "is_disabled": 0, "is_reserved": 0}, {"rental_uris": {"ios": "https://dc.lft.to/lastmile_qr_scan", "android": "https://dc.lft.to/lastmile_qr_scan"}, "lon": -76.99635366666666, "type": "electric_bike", "fusion_lat": 0.0, "lat": 38.84664383333333, "name": "8a9af47857617a652ee2a8417e9b00d6", "fusion_lon": 0.0, "bike_id": "8a9af47857617a652ee2a8417e9b00d6", "is_disabled": 0, "is_reserved": 0}, {"rental_uris": {"ios": "https://dc.lft.to/lastmile_qr_scan", "android": "https://dc.lft.to/lastmile_qr_scan"}, "lon": -77.03556233333333, "type": "electric_scooter", "fusion_lat": 0.0, "lat": 38.92746316666667, "name": "12e04468cdfbb37b489977fe9ec90ffc", "fusion_lon": 0.0, "bike_id": "12e04468cdfbb37b489977fe9ec90ffc", "is_disabled": 0, "is_reserved": 0}, {"rental_uris": {"ios": "https://dc.lft.to/lastmile_qr_scan", "android": "https://dc.lft.to/lastmile_qr_scan"}, "lon": -77.03585216666667, "type": "electric_scooter", "fusion_lat": 0.0, "lat": 38.931369, "name": "c1fbc8fca38863ae641f26ee4b19f9e3", "fusion_lon": 0.0, "bike_id": "c1fbc8fca38863ae641f26ee4b19f9e3", "is_disabled": 0, "is_reserved": 0}, {"rental_uris": {"ios": "https://dc.lft.to/lastmile_qr_scan", "android": "https://dc.lft.to/lastmile_qr_scan"}, "lon": -77.032204, "type": "electric_scooter", "fusion_lat": 0.0, "lat": 38.9180805, "name": "1e9609d89cca3962a3419a78ecc32375", "fusion_lon": 0.0, "bike_id": "1e9609d89cca3962a3419a78ecc32375", "is_disabled": 0, "is_reserved": 0}, {"rental_uris": {"ios": "https://dc.lft.to/lastmile_qr_scan", "android": "https://dc.lft.to/lastmile_qr_scan"}, "lon": -77.123737, "type": "electric_bike", "fusion_lat": 0.0, "lat": 38.84739866666666, "name": "7472b134c192f51ace80961c407ab134", "fusion_lon": 0.0, "bike_id": "7472b134c192f51ace80961c407ab134", "is_disabled": 0, "is_reserved": 0}, {"rental_uris": {"ios": "https://dc.lft.to/lastmile_qr_scan", "android": "https://dc.lft.to/lastmile_qr_scan"}, "lon": -77.07061133333333, "type": "electric_scooter", "fusion_lat": 0.0, "lat": 38.90109833333333, "name": "6beff45421f944e201adfcb37962f10f", "fusion_lon": 0.0, "bike_id": "6beff45421f944e201adfcb37962f10f", "is_disabled": 0, "is_reserved": 0}, {"rental_uris": {"ios": "https://dc.lft.to/lastmile_qr_scan", "android": "https://dc.lft.to/lastmile_qr_scan"}, "lon": -77.043665, "type": "electric_scooter", "fusion_lat": 0.0, "lat": 38.93151266666667, "name": "1e842a59488364868b97a6f93ff0e14a", "fusion_lon": 0.0, "bike_id": "1e842a59488364868b97a6f93ff0e14a", "is_disabled": 0, "is_reserved": 0}, {"rental_uris": {"ios": "https://dc.lft.to/lastmile_qr_scan", "android": "https://dc.lft.to/lastmile_qr_scan"}, "lon": -77.04358133333334, "type": "electric_scooter", "fusion_lat": 0.0, "lat": 38.905162, "name": "e872697d98a175e893d43a8c12b8b552", "fusion_lon": 0.0, "bike_id": "e872697d98a175e893d43a8c12b8b552", "is_disabled": 0, "is_reserved": 0}, {"rental_uris": {"ios": "https://dc.lft.to/lastmile_qr_scan", "android": "https://dc.lft.to/lastmile_qr_scan"}, "lon": -77.02952533333334, "type": "electric_scooter", "fusion_lat": 0.0, "lat": 38.91689433333333, "name": "a5f29bb9b06757a2eb9eee4673e23ef6", "fusion_lon": 0.0, "bike_id": "a5f29bb9b06757a2eb9eee4673e23ef6", "is_disabled": 0, "is_reserved": 0}, {"rental_uris": {"ios": "https://dc.lft.to/lastmile_qr_scan", "android": "https://dc.lft.to/lastmile_qr_scan"}, "lon": -76.98831116666666, "type": "electric_scooter", "fusion_lat": 0.0, "lat": 38.880304833333334, "name": "09f04cac4ff3101f519b3c2e51eabb66", "fusion_lon": 0.0, "bike_id": "09f04cac4ff3101f519b3c2e51eabb66", "is_disabled": 0, "is_reserved": 0}, {"rental_uris": {"ios": "https://dc.lft.to/lastmile_qr_scan", "android": "https://dc.lft.to/lastmile_qr_scan"}, "lon": -77.0416565, "type": "electric_scooter", "fusion_lat": 0.0, "lat": 38.91467333333333, "name": "4a10cfc6f36116ecf23db685b0d4ab80", "fusion_lon": 0.0, "bike_id": "4a10cfc6f36116ecf23db685b0d4ab80", "is_disabled": 0, "is_reserved": 0}, {"rental_uris": {"ios": "https://dc.lft.to/lastmile_qr_scan", "android": "https://dc.lft.to/lastmile_qr_scan"}, "lon": -77.034704, "type": "electric_scooter", "fusion_lat": 0.0, "lat": 38.9215605, "name": "ac3479919c16e0f20c37941874d1bd30", "fusion_lon": 0.0, "bike_id": "ac3479919c16e0f20c37941874d1bd30", "is_disabled": 0, "is_reserved": 0}, {"rental_uris": {"ios": "https://dc.lft.to/lastmile_qr_scan", "android": "https://dc.lft.to/lastmile_qr_scan"}, "lon": -77.013435, "type": "electric_bike", "fusion_lat": 0.0, "lat": 38.99996633333333, "name": "ff53197beb453f104d744d255b1e238d", "fusion_lon": 0.0, "bike_id": "ff53197beb453f104d744d255b1e238d", "is_disabled": 0, "is_reserved": 0}, {"rental_uris": {"ios": "https://dc.lft.to/lastmile_qr_scan", "android": "https://dc.lft.to/lastmile_qr_scan"}, "lon": -77.01893483333333, "type": "electric_scooter", "fusion_lat": 0.0, "lat": 38.876613, "name": "d44f6e057e373374964a6af1c2b67561", "fusion_lon": 0.0, "bike_id": "d44f6e057e373374964a6af1c2b67561", "is_disabled": 0, "is_reserved": 0}, {"rental_uris": {"ios": "https://dc.lft.to/lastmile_qr_scan", "android": "https://dc.lft.to/lastmile_qr_scan"}, "lon": -77.02882016666666, "type": "electric_scooter", "fusion_lat": 0.0, "lat": 38.904355333333335, "name": "9946b5faac9f9a46056428a7429b4a53", "fusion_lon": 0.0, "bike_id": "9946b5faac9f9a46056428a7429b4a53", "is_disabled": 0, "is_reserved": 0}, {"rental_uris": {"ios": "https://dc.lft.to/lastmile_qr_scan", "android": "https://dc.lft.to/lastmile_qr_scan"}, "lon": -77.01118883333334, "type": "electric_scooter", "fusion_lat": 0.0, "lat": 38.903619666666664, "name": "891656d5a876c372f80cf329ad154e82", "fusion_lon": 0.0, "bike_id": "891656d5a876c372f80cf329ad154e82", "is_disabled": 0, "is_reserved": 0}, {"rental_uris": {"ios": "https://dc.lft.to/lastmile_qr_scan", "android": "https://dc.lft.to/lastmile_qr_scan"}, "lon": -77.03889016666666, "type": "electric_scooter", "fusion_lat": 0.0, "lat": 38.92184266666667, "name": "5eec1f9ffb857f8cf810856f81cab419", "fusion_lon": 0.0, "bike_id": "5eec1f9ffb857f8cf810856f81cab419", "is_disabled": 0, "is_reserved": 0}, {"rental_uris": {"ios": "https://dc.lft.to/lastmile_qr_scan", "android": "https://dc.lft.to/lastmile_qr_scan"}, "lon": -77.01701916666667, "type": "electric_scooter", "fusion_lat": 0.0, "lat": 38.920248666666666, "name": "86eccf1b27eb6bc1d5a4b92521562c8b", "fusion_lon": 0.0, "bike_id": "86eccf1b27eb6bc1d5a4b92521562c8b", "is_disabled": 0, "is_reserved": 0}, {"rental_uris": {"ios": "https://dc.lft.to/lastmile_qr_scan", "android": "https://dc.lft.to/lastmile_qr_scan"}, "lon": -77.023543, "type": "electric_scooter", "fusion_lat": 0.0, "lat": 38.925052666666666, "name": "8a750c9d643134145d8d511578e1afeb", "fusion_lon": 0.0, "bike_id": "8a750c9d643134145d8d511578e1afeb", "is_disabled": 0, "is_reserved": 0}, {"rental_uris": {"ios": "https://dc.lft.to/lastmile_qr_scan", "android": "https://dc.lft.to/lastmile_qr_scan"}, "lon": -77.02281, "type": "electric_scooter", "fusion_lat": 0.0, "lat": 38.924676, "name": "fdd8a9d62ffaa6d5072f5fc538cea4f5", "fusion_lon": 0.0, "bike_id": "fdd8a9d62ffaa6d5072f5fc538cea4f5", "is_disabled": 0, "is_reserved": 0}, {"rental_uris": {"ios": "https://dc.lft.to/lastmile_qr_scan", "android": "https://dc.lft.to/lastmile_qr_scan"}, "lon": -77.04241283333333, "type": "electric_scooter", "fusion_lat": 0.0, "lat": 38.90591766666667, "name": "eab6d68b1d40184ef5b7a4f3c0c5d74c", "fusion_lon": 0.0, "bike_id": "eab6d68b1d40184ef5b7a4f3c0c5d74c", "is_disabled": 0, "is_reserved": 0}, {"rental_uris": {"ios": "https://dc.lft.to/lastmile_qr_scan", "android": "https://dc.lft.to/lastmile_qr_scan"}, "lon": -77.02581616666667, "type": "electric_scooter", "fusion_lat": 0.0, "lat": 38.918162, "name": "dcf364de0da7b91fe6ffb42d1b95b35e", "fusion_lon": 0.0, "bike_id": "dcf364de0da7b91fe6ffb42d1b95b35e", "is_disabled": 0, "is_reserved": 0}, {"rental_uris": {"ios": "https://dc.lft.to/lastmile_qr_scan", "android": "https://dc.lft.to/lastmile_qr_scan"}, "lon": -77.03418333333333, "type": "electric_scooter", "fusion_lat": 0.0, "lat": 38.93547066666667, "name": "86903e5cc323730ed69ac4de47400565", "fusion_lon": 0.0, "bike_id": "86903e5cc323730ed69ac4de47400565", "is_disabled": 0, "is_reserved": 0}, {"rental_uris": {"ios": "https://dc.lft.to/lastmile_qr_scan", "android": "https://dc.lft.to/lastmile_qr_scan"}, "lon": -77.03343233333334, "type": "electric_scooter", "fusion_lat": 0.0, "lat": 38.93419133333333, "name": "de25e11e30cffe5b07631af839a240b5", "fusion_lon": 0.0, "bike_id": "de25e11e30cffe5b07631af839a240b5", "is_disabled": 0, "is_reserved": 0}, {"rental_uris": {"ios": "https://dc.lft.to/lastmile_qr_scan", "android": "https://dc.lft.to/lastmile_qr_scan"}, "lon": -77.01295866666666, "type": "electric_scooter", "fusion_lat": 0.0, "lat": 38.900589, "name": "028b6032148d82abde55eecf88f47ccb", "fusion_lon": 0.0, "bike_id": "028b6032148d82abde55eecf88f47ccb", "is_disabled": 0, "is_reserved": 0}, {"rental_uris": {"ios": "https://dc.lft.to/lastmile_qr_scan", "android": "https://dc.lft.to/lastmile_qr_scan"}, "lon": -77.02859416666666, "type": "electric_scooter", "fusion_lat": 0.0, "lat": 38.92820483333333, "name": "f506906ad9d0537b3e6422cec1a144fc", "fusion_lon": 0.0, "bike_id": "f506906ad9d0537b3e6422cec1a144fc", "is_disabled": 0, "is_reserved": 0}, {"rental_uris": {"ios": "https://dc.lft.to/lastmile_qr_scan", "android": "https://dc.lft.to/lastmile_qr_scan"}, "lon": -77.0361985, "type": "electric_scooter", "fusion_lat": 0.0, "lat": 38.9326235, "name": "c770fdca5b1be553e20d0aae707b223d", "fusion_lon": 0.0, "bike_id": "c770fdca5b1be553e20d0aae707b223d", "is_disabled": 0, "is_reserved": 0}, {"rental_uris": {"ios": "https://dc.lft.to/lastmile_qr_scan", "android": "https://dc.lft.to/lastmile_qr_scan"}, "lon": -76.95532666666666, "type": "electric_scooter", "fusion_lat": 0.0, "lat": 38.887822, "name": "3d29c565098995c031e040d0b34dfb25", "fusion_lon": 0.0, "bike_id": "3d29c565098995c031e040d0b34dfb25", "is_disabled": 0, "is_reserved": 0}, {"rental_uris": {"ios": "https://dc.lft.to/lastmile_qr_scan", "android": "https://dc.lft.to/lastmile_qr_scan"}, "lon": -77.03741166666667, "type": "electric_scooter", "fusion_lat": 0.0, "lat": 38.92900183333333, "name": "e346b63edd04b5052e20cb999309857a", "fusion_lon": 0.0, "bike_id": "e346b63edd04b5052e20cb999309857a", "is_disabled": 0, "is_reserved": 0}, {"rental_uris": {"ios": "https://dc.lft.to/lastmile_qr_scan", "android": "https://dc.lft.to/lastmile_qr_scan"}, "lon": -77.0600895, "type": "electric_scooter", "fusion_lat": 0.0, "lat": 38.91264966666667, "name": "c997c58bb1305a998ecff3cf6c2f7f45", "fusion_lon": 0.0, "bike_id": "c997c58bb1305a998ecff3cf6c2f7f45", "is_disabled": 0, "is_reserved": 0}, {"rental_uris": {"ios": "https://dc.lft.to/lastmile_qr_scan", "android": "https://dc.lft.to/lastmile_qr_scan"}, "lon": -77.05467733333333, "type": "electric_scooter", "fusion_lat": 0.0, "lat": 38.920955166666666, "name": "80f034c1b7952266ce1b529c26c26eea", "fusion_lon": 0.0, "bike_id": "80f034c1b7952266ce1b529c26c26eea", "is_disabled": 0, "is_reserved": 0}, {"rental_uris": {"ios": "https://dc.lft.to/lastmile_qr_scan", "android": "https://dc.lft.to/lastmile_qr_scan"}, "lon": -76.9871425, "type": "electric_scooter", "fusion_lat": 0.0, "lat": 38.86253383333333, "name": "92055d61771b81cc3a21a08c7f55f1a1", "fusion_lon": 0.0, "bike_id": "92055d61771b81cc3a21a08c7f55f1a1", "is_disabled": 0, "is_reserved": 0}, {"rental_uris": {"ios": "https://dc.lft.to/lastmile_qr_scan", "android": "https://dc.lft.to/lastmile_qr_scan"}, "lon": -76.94182116666667, "type": "electric_scooter", "fusion_lat": 0.0, "lat": 38.882186, "name": "4d814944935b296441f9bf0fdfa2ccb1", "fusion_lon": 0.0, "bike_id": "4d814944935b296441f9bf0fdfa2ccb1", "is_disabled": 0, "is_reserved": 0}, {"rental_uris": {"ios": "https://dc.lft.to/lastmile_qr_scan", "android": "https://dc.lft.to/lastmile_qr_scan"}, "lon": -77.12626216666666, "type": "electric_bike", "fusion_lat": 0.0, "lat": 39.058127666666664, "name": "a48d84131167ae1a9f515de95d75aa44", "fusion_lon": 0.0, "bike_id": "a48d84131167ae1a9f515de95d75aa44", "is_disabled": 0, "is_reserved": 0}, {"rental_uris": {"ios": "https://dc.lft.to/lastmile_qr_scan", "android": "https://dc.lft.to/lastmile_qr_scan"}, "lon": -76.97833216666666, "type": "electric_bike", "fusion_lat": 0.0, "lat": 38.846102333333334, "name": "8104f98bda0d7ba361ac5299c5e37618", "fusion_lon": 0.0, "bike_id": "8104f98bda0d7ba361ac5299c5e37618", "is_disabled": 0, "is_reserved": 0}, {"rental_uris": {"ios": "https://dc.lft.to/lastmile_qr_scan", "android": "https://dc.lft.to/lastmile_qr_scan"}, "lon": -77.1785125, "type": "electric_bike", "fusion_lat": 0.0, "lat": 39.089019666666665, "name": "fe0d1510572af7904349bd233230c71d", "fusion_lon": 0.0, "bike_id": "fe0d1510572af7904349bd233230c71d", "is_disabled": 0, "is_reserved": 0}, {"rental_uris": {"ios": "https://dc.lft.to/lastmile_qr_scan", "android": "https://dc.lft.to/lastmile_qr_scan"}, "lon": -77.014122, "type": "electric_scooter", "fusion_lat": 0.0, "lat": 38.9282535, "name": "1f92610a3df1d80fc383209ebd558fae", "fusion_lon": 0.0, "bike_id": "1f92610a3df1d80fc383209ebd558fae", "is_disabled": 0, "is_reserved": 0}, {"rental_uris": {"ios": "https://dc.lft.to/lastmile_qr_scan", "android": "https://dc.lft.to/lastmile_qr_scan"}, "lon": -77.039245, "type": "electric_scooter", "fusion_lat": 0.0, "lat": 38.921040166666664, "name": "dc05223d70631e2bc2b98a3c78cab9a1", "fusion_lon": 0.0, "bike_id": "dc05223d70631e2bc2b98a3c78cab9a1", "is_disabled": 0, "is_reserved": 0}, {"rental_uris": {"ios": "https://dc.lft.to/lastmile_qr_scan", "android": "https://dc.lft.to/lastmile_qr_scan"}, "lon": -77.00790883333333, "type": "electric_bike", "fusion_lat": 0.0, "lat": 38.949167333333335, "name": "bd88a65d72514f3b7c3dd2f2e9bf9d54", "fusion_lon": 0.0, "bike_id": "bd88a65d72514f3b7c3dd2f2e9bf9d54", "is_disabled": 0, "is_reserved": 0}, {"rental_uris": {"ios": "https://dc.lft.to/lastmile_qr_scan", "android": "https://dc.lft.to/lastmile_qr_scan"}, "lon": -77.041517, "type": "electric_scooter", "fusion_lat": 0.0, "lat": 38.914895, "name": "fecab84d7c87ae3944ea95aee3805bd1", "fusion_lon": 0.0, "bike_id": "fecab84d7c87ae3944ea95aee3805bd1", "is_disabled": 0, "is_reserved": 0}, {"rental_uris": {"ios": "https://dc.lft.to/lastmile_qr_scan", "android": "https://dc.lft.to/lastmile_qr_scan"}, "lon": -77.03225816666667, "type": "electric_scooter", "fusion_lat": 0.0, "lat": 38.9074265, "name": "e43a65a9ae0626e9be5ad115e6107e8a", "fusion_lon": 0.0, "bike_id": "e43a65a9ae0626e9be5ad115e6107e8a", "is_disabled": 0, "is_reserved": 0}, {"rental_uris": {"ios": "https://dc.lft.to/lastmile_qr_scan", "android": "https://dc.lft.to/lastmile_qr_scan"}, "lon": -77.04337233333334, "type": "electric_scooter", "fusion_lat": 0.0, "lat": 38.92791, "name": "d3a40c58b9a3676c38437cc78bce880f", "fusion_lon": 0.0, "bike_id": "d3a40c58b9a3676c38437cc78bce880f", "is_disabled": 0, "is_reserved": 0}, {"rental_uris": {"ios": "https://dc.lft.to/lastmile_qr_scan", "android": "https://dc.lft.to/lastmile_qr_scan"}, "lon": -76.95758166666667, "type": "electric_scooter", "fusion_lat": 0.0, "lat": 38.8868045, "name": "83cd8d725e11766be0b7c068a12b2a35", "fusion_lon": 0.0, "bike_id": "83cd8d725e11766be0b7c068a12b2a35", "is_disabled": 0, "is_reserved": 0}, {"rental_uris": {"ios": "https://dc.lft.to/lastmile_qr_scan", "android": "https://dc.lft.to/lastmile_qr_scan"}, "lon": -77.007273, "type": "electric_scooter", "fusion_lat": 0.0, "lat": 38.8961725, "name": "c2cec41ec007445a5e470668ad66b368", "fusion_lon": 0.0, "bike_id": "c2cec41ec007445a5e470668ad66b368", "is_disabled": 0, "is_reserved": 0}, {"rental_uris": {"ios": "https://dc.lft.to/lastmile_qr_scan", "android": "https://dc.lft.to/lastmile_qr_scan"}, "lon": -76.95884416666667, "type": "electric_scooter", "fusion_lat": 0.0, "lat": 38.858463, "name": "c1a217224698cdc2672d271836b2b3be", "fusion_lon": 0.0, "bike_id": "c1a217224698cdc2672d271836b2b3be", "is_disabled": 0, "is_reserved": 0}, {"rental_uris": {"ios": "https://dc.lft.to/lastmile_qr_scan", "android": "https://dc.lft.to/lastmile_qr_scan"}, "lon": -77.02119433333333, "type": "electric_scooter", "fusion_lat": 0.0, "lat": 38.9369865, "name": "197a3c2190b6c9babc3037b6fafd0fe0", "fusion_lon": 0.0, "bike_id": "197a3c2190b6c9babc3037b6fafd0fe0", "is_disabled": 0, "is_reserved": 0}, {"rental_uris": {"ios": "https://dc.lft.to/lastmile_qr_scan", "android": "https://dc.lft.to/lastmile_qr_scan"}, "lon": -77.06539766666667, "type": "electric_scooter", "fusion_lat": 0.0, "lat": 38.9048385, "name": "6ef434eb734c06d252f5b90f0674d987", "fusion_lon": 0.0, "bike_id": "6ef434eb734c06d252f5b90f0674d987", "is_disabled": 0, "is_reserved": 0}, {"rental_uris": {"ios": "https://dc.lft.to/lastmile_qr_scan", "android": "https://dc.lft.to/lastmile_qr_scan"}, "lon": -76.99682083333333, "type": "electric_scooter", "fusion_lat": 0.0, "lat": 38.8868595, "name": "f0e5d83d8e7446ca73b3ebafdb8b1d53", "fusion_lon": 0.0, "bike_id": "f0e5d83d8e7446ca73b3ebafdb8b1d53", "is_disabled": 0, "is_reserved": 0}, {"rental_uris": {"ios": "https://dc.lft.to/lastmile_qr_scan", "android": "https://dc.lft.to/lastmile_qr_scan"}, "lon": -76.97740866666666, "type": "electric_scooter", "fusion_lat": 0.0, "lat": 38.900099833333336, "name": "1a5ae0c793f10bd4a9ecbc1bb186b8a4", "fusion_lon": 0.0, "bike_id": "1a5ae0c793f10bd4a9ecbc1bb186b8a4", "is_disabled": 0, "is_reserved": 0}, {"rental_uris": {"ios": "https://dc.lft.to/lastmile_qr_scan", "android": "https://dc.lft.to/lastmile_qr_scan"}, "lon": -76.94633133333333, "type": "electric_scooter", "fusion_lat": 0.0, "lat": 38.89833266666667, "name": "ca7be89da0e51af3e9b5f1d626d6117f", "fusion_lon": 0.0, "bike_id": "ca7be89da0e51af3e9b5f1d626d6117f", "is_disabled": 0, "is_reserved": 0}, {"rental_uris": {"ios": "https://dc.lft.to/lastmile_qr_scan", "android": "https://dc.lft.to/lastmile_qr_scan"}, "lon": -77.107385, "type": "electric_bike", "fusion_lat": 0.0, "lat": 38.8552295, "name": "37a509c9a81d9e38702ccbf5e64bda8f", "fusion_lon": 0.0, "bike_id": "37a509c9a81d9e38702ccbf5e64bda8f", "is_disabled": 0, "is_reserved": 0}, {"rental_uris": {"ios": "https://dc.lft.to/lastmile_qr_scan", "android": "https://dc.lft.to/lastmile_qr_scan"}, "lon": -77.02363233333334, "type": "electric_scooter", "fusion_lat": 0.0, "lat": 38.90307, "name": "6f15edad744b76be830746732d3bb347", "fusion_lon": 0.0, "bike_id": "6f15edad744b76be830746732d3bb347", "is_disabled": 0, "is_reserved": 0}, {"rental_uris": {"ios": "https://dc.lft.to/lastmile_qr_scan", "android": "https://dc.lft.to/lastmile_qr_scan"}, "lon": -77.032395, "type": "electric_scooter", "fusion_lat": 0.0, "lat": 38.928839833333335, "name": "60a7e3ff35751c391950afc80621fc0e", "fusion_lon": 0.0, "bike_id": "60a7e3ff35751c391950afc80621fc0e", "is_disabled": 0, "is_reserved": 0}, {"rental_uris": {"ios": "https://dc.lft.to/lastmile_qr_scan", "android": "https://dc.lft.to/lastmile_qr_scan"}, "lon": -77.03788016666667, "type": "electric_scooter", "fusion_lat": 0.0, "lat": 38.92626516666667, "name": "95e323e2b659f50c92fba5aef2320a73", "fusion_lon": 0.0, "bike_id": "95e323e2b659f50c92fba5aef2320a73", "is_disabled": 0, "is_reserved": 0}, {"rental_uris": {"ios": "https://dc.lft.to/lastmile_qr_scan", "android": "https://dc.lft.to/lastmile_qr_scan"}, "lon": -77.034835, "type": "electric_scooter", "fusion_lat": 0.0, "lat": 38.90513933333333, "name": "8be663fe2b4b2ead3d89a7c84c7cb563", "fusion_lon": 0.0, "bike_id": "8be663fe2b4b2ead3d89a7c84c7cb563", "is_disabled": 0, "is_reserved": 0}, {"rental_uris": {"ios": "https://dc.lft.to/lastmile_qr_scan", "android": "https://dc.lft.to/lastmile_qr_scan"}, "lon": -76.87814716666666, "type": "electric_bike", "fusion_lat": 0.0, "lat": 38.9923115, "name": "04b9c6a884f469c80bddf4729f770f20", "fusion_lon": 0.0, "bike_id": "04b9c6a884f469c80bddf4729f770f20", "is_disabled": 0, "is_reserved": 0}, {"rental_uris": {"ios": "https://dc.lft.to/lastmile_qr_scan", "android": "https://dc.lft.to/lastmile_qr_scan"}, "lon": -77.03212133333334, "type": "electric_scooter", "fusion_lat": 0.0, "lat": 38.91598233333333, "name": "cc74636ec6ac47993febdd0923dc0d0e", "fusion_lon": 0.0, "bike_id": "cc74636ec6ac47993febdd0923dc0d0e", "is_disabled": 0, "is_reserved": 0}, {"rental_uris": {"ios": "https://dc.lft.to/lastmile_qr_scan", "android": "https://dc.lft.to/lastmile_qr_scan"}, "lon": -77.002973, "type": "electric_bike", "fusion_lat": 0.0, "lat": 38.91612, "name": "15a85ad6a4ad98d6b22940efe1cf33f7", "fusion_lon": 0.0, "bike_id": "15a85ad6a4ad98d6b22940efe1cf33f7", "is_disabled": 0, "is_reserved": 0}, {"rental_uris": {"ios": "https://dc.lft.to/lastmile_qr_scan", "android": "https://dc.lft.to/lastmile_qr_scan"}, "lon": -76.99365516666667, "type": "electric_scooter", "fusion_lat": 0.0, "lat": 38.900361833333335, "name": "ff0bdaffc07c9a8c0ded0b20790e23df", "fusion_lon": 0.0, "bike_id": "ff0bdaffc07c9a8c0ded0b20790e23df", "is_disabled": 0, "is_reserved": 0}, {"rental_uris": {"ios": "https://dc.lft.to/lastmile_qr_scan", "android": "https://dc.lft.to/lastmile_qr_scan"}, "lon": -76.97616816666667, "type": "electric_scooter", "fusion_lat": 0.0, "lat": 38.9038285, "name": "3b8bab083d213f1caa06f2d49722efac", "fusion_lon": 0.0, "bike_id": "3b8bab083d213f1caa06f2d49722efac", "is_disabled": 0, "is_reserved": 0}, {"rental_uris": {"ios": "https://dc.lft.to/lastmile_qr_scan", "android": "https://dc.lft.to/lastmile_qr_scan"}, "lon": -77.04796516666667, "type": "electric_scooter", "fusion_lat": 0.0, "lat": 38.89365566666667, "name": "3400d815179b0c286b8208845459293d", "fusion_lon": 0.0, "bike_id": "3400d815179b0c286b8208845459293d", "is_disabled": 0, "is_reserved": 0}, {"rental_uris": {"ios": "https://dc.lft.to/lastmile_qr_scan", "android": "https://dc.lft.to/lastmile_qr_scan"}, "lon": -77.03475833333333, "type": "electric_scooter", "fusion_lat": 0.0, "lat": 38.9198415, "name": "856619974a14a1136dd245af39769355", "fusion_lon": 0.0, "bike_id": "856619974a14a1136dd245af39769355", "is_disabled": 0, "is_reserved": 0}, {"rental_uris": {"ios": "https://dc.lft.to/lastmile_qr_scan", "android": "https://dc.lft.to/lastmile_qr_scan"},