{"data": {"bikes": [{"is_disabled": 0, "fusion_lon": 0.0, "fusion_lat": 0.0, "lat": 38.90140816666667, "type": "electric_scooter", "lon": -77.0177875, "bike_id": "46babb7025562f458dbd532f5e693d35", "rental_uris": {"android": "https://dc.lft.to/lastmile_qr_scan", "ios": "https://dc.lft.to/lastmile_qr_scan"}, "name": "46babb7025562f458dbd532f5e693d35", "is_reserved": 0}, {"is_disabled": 0, "fusion_lon": 0.0, "fusion_lat": 0.0, "lat": 38.8802075, "type": "electric_scooter", "lon": -76.98238116666667, "bike_id": "a5efa0fa4718f28bf1d9117cd3df42e5", "rental_uris": {"android": "https://dc.lft.to/lastmile_qr_scan", "ios": "https://dc.lft.to/lastmile_qr_scan"}, "name": "a5efa0fa4718f28bf1d9117cd3df42e5", "is_reserved": 0}, {"is_disabled": 0, "fusion_lon": 0.0, "fusion_lat": 0.0, "lat": 38.883213, "type": "electric_scooter", "lon": -77.01680833333333, "bike_id": "7bcd1264c0c9b421f0b506a196d8c1b5", "rental_uris": {"android": "https://dc.lft.to/lastmile_qr_scan", "ios": "https://dc.lft.to/lastmile_qr_scan"}, "name": "7bcd1264c0c9b421f0b506a196d8c1b5", "is_reserved": 0}, {"is_disabled": 0, "fusion_lon": 0.0, "fusion_lat": 0.0, "lat": 38.91499016666667, "type": "electric_scooter", "lon": -77.0320765, "bike_id": "e0955ff13c41503c1fca0fab094ff8ea", "rental_uris": {"android": "https://dc.lft.to/lastmile_qr_scan", "ios": "https://dc.lft.to/lastmile_qr_scan"}, "name": "e0955ff13c41503c1fca0fab094ff8ea", "is_reserved": 0}, {"is_disabled": 0, "fusion_lon": 0.0, "fusion_lat": 0.0, "lat": 38.90151733333333, "type": "electric_scooter", "lon": -77.03999666666667, "bike_id": "7ce05cf0b601339338a1bf3feec37c03", "rental_uris": {"android": "https://dc.lft.to/lastmile_qr_scan", "ios": "https://dc.lft.to/lastmile_qr_scan"}, "name": "7ce05cf0b601339338a1bf3feec37c03", "is_reserved": 0}, {"is_disabled": 0, "fusion_lon": 0.0, "fusion_lat": 0.0, "lat": 38.94091066666667, "type": "electric_scooter", "lon": -77.03816316666666, "bike_id": "6f345db6518b2dc95dc40b13eed27c77", "rental_uris": {"android": "https://dc.lft.to/lastmile_qr_scan", "ios": "https://dc.lft.to/lastmile_qr_scan"}, "name": "6f345db6518b2dc95dc40b13eed27c77", "is_reserved": 0}, {"is_disabled": 0, "fusion_lon": 0.0, "fusion_lat": 0.0, "lat": 38.905655, "type": "electric_scooter", "lon": -77.00604516666667, "bike_id": "1c45cf28b8022236fbbb544a44b10728", "rental_uris": {"android": "https://dc.lft.to/lastmile_qr_scan", "ios": "https://dc.lft.to/lastmile_qr_scan"}, "name": "1c45cf28b8022236fbbb544a44b10728", "is_reserved": 0}, {"is_disabled": 0, "fusion_lon": 0.0, "fusion_lat": 0.0, "lat": 38.971666, "type": "electric_bike", "lon": -76.98022366666666, "bike_id": "f3e683fc8de9031d5e792c4e1faf9fe4", "rental_uris": {"android": "https://dc.lft.to/lastmile_qr_scan", "ios": "https://dc.lft.to/lastmile_qr_scan"}, "name": "f3e683fc8de9031d5e792c4e1faf9fe4", "is_reserved": 0}, {"is_disabled": 0, "fusion_lon": 0.0, "fusion_lat": 0.0, "lat": 38.89354133333333, "type": "electric_scooter", "lon": -76.98467583333333, "bike_id": "60a7d5c97a828f89f1e95996b8362983", "rental_uris": {"android": "https://dc.lft.to/lastmile_qr_scan", "ios": "https://dc.lft.to/lastmile_qr_scan"}, "name": "60a7d5c97a828f89f1e95996b8362983", "is_reserved": 0}, {"is_disabled": 0, "fusion_lon": 0.0, "fusion_lat": 0.0, "lat": 38.93965466666667, "type": "electric_scooter", "lon": -77.02753033333333, "bike_id": "4063b4b9c4ec5eba9626e4160e328381", "rental_uris": {"android": "https://dc.lft.to/lastmile_qr_scan", "ios": "https://dc.lft.to/lastmile_qr_scan"}, "name": "4063b4b9c4ec5eba9626e4160e328381", "is_reserved": 0}, {"is_disabled": 0, "fusion_lon": 0.0, "fusion_lat": 0.0, "lat": 38.90260116666666, "type": "electric_scooter", "lon": -77.00012366666667, "bike_id": "ddbb8a614bbc9c496662940241f31255", "rental_uris": {"android": "https://dc.lft.to/lastmile_qr_scan", "ios": "https://dc.lft.to/lastmile_qr_scan"}, "name": "ddbb8a614bbc9c496662940241f31255", "is_reserved": 0}, {"is_disabled": 0, "fusion_lon": 0.0, "fusion_lat": 0.0, "lat": 38.86468266666667, "type": "electric_scooter", "lon": -76.9961005, "bike_id": "1a8a6a73759c871c260ea4b12110068b", "rental_uris": {"android": "https://dc.lft.to/lastmile_qr_scan", "ios": "https://dc.lft.to/lastmile_qr_scan"}, "name": "1a8a6a73759c871c260ea4b12110068b", "is_reserved": 0}, {"is_disabled": 0, "fusion_lon": 0.0, "fusion_lat": 0.0, "lat": 38.874998166666664, "type": "electric_scooter", "lon": -76.99797466666666, "bike_id": "e081384afe386d28975f5c81f7461226", "rental_uris": {"android": "https://dc.lft.to/lastmile_qr_scan", "ios": "https://dc.lft.to/lastmile_qr_scan"}, "name": "e081384afe386d28975f5c81f7461226", "is_reserved": 0}, {"is_disabled": 0, "fusion_lon": 0.0, "fusion_lat": 0.0, "lat": 38.921374, "type": "electric_scooter", "lon": -77.0092065, "bike_id": "bf699e7ee53e129b53849222061018a8", "rental_uris": {"android": "https://dc.lft.to/lastmile_qr_scan", "ios": "https://dc.lft.to/lastmile_qr_scan"}, "name": "bf699e7ee53e129b53849222061018a8", "is_reserved": 0}, {"is_disabled": 0, "fusion_lon": 0.0, "fusion_lat": 0.0, "lat": 38.907324333333335, "type": "electric_scooter", "lon": -77.024148, "bike_id": "0b5053f387336268d4a94b085000e0a4", "rental_uris": {"android": "https://dc.lft.to/lastmile_qr_scan", "ios": "https://dc.lft.to/lastmile_qr_scan"}, "name": "0b5053f387336268d4a94b085000e0a4", "is_reserved": 0}, {"is_disabled": 0, "fusion_lon": 0.0, "fusion_lat": 0.0, "lat": 38.91919466666667, "type": "electric_scooter", "lon": -77.0448365, "bike_id": "7f5a9356b635ed611c7db86b7c6947e2", "rental_uris": {"android": "https://dc.lft.to/lastmile_qr_scan", "ios": "https://dc.lft.to/lastmile_qr_scan"}, "name": "7f5a9356b635ed611c7db86b7c6947e2", "is_reserved": 0}, {"is_disabled": 0, "fusion_lon": 0.0, "fusion_lat": 0.0, "lat": 38.9310475, "type": "electric_scooter", "lon": -77.02451833333333, "bike_id": "145c9e3c8179bf5015e248b877636e8f", "rental_uris": {"android": "https://dc.lft.to/lastmile_qr_scan", "ios": "https://dc.lft.to/lastmile_qr_scan"}, "name": "145c9e3c8179bf5015e248b877636e8f", "is_reserved": 0}, {"is_disabled": 0, "fusion_lon": 0.0, "fusion_lat": 0.0, "lat": 38.845135666666664, "type": "electric_scooter", "lon": -76.98153616666667, "bike_id": "dcb020fb5fff79f8c04b23fcc179b173", "rental_uris": {"android": "https://dc.lft.to/lastmile_qr_scan", "ios": "https://dc.lft.to/lastmile_qr_scan"}, "name": "dcb020fb5fff79f8c04b23fcc179b173", "is_reserved": 0}, {"is_disabled": 0, "fusion_lon": 0.0, "fusion_lat": 0.0, "lat": 38.9134065, "type": "electric_scooter", "lon": -77.04224283333333, "bike_id": "d6325e2488b12208461d7a5a94223632", "rental_uris": {"android": "https://dc.lft.to/lastmile_qr_scan", "ios": "https://dc.lft.to/lastmile_qr_scan"}, "name": "d6325e2488b12208461d7a5a94223632", "is_reserved": 0}, {"is_disabled": 0, "fusion_lon": 0.0, "fusion_lat": 0.0, "lat": 38.8872325, "type": "electric_scooter", "lon": -77.02203916666667, "bike_id": "78a4f16269aa1879a03572f4193a1f6c", "rental_uris": {"android": "https://dc.lft.to/lastmile_qr_scan", "ios": "https://dc.lft.to/lastmile_qr_scan"}, "name": "78a4f16269aa1879a03572f4193a1f6c", "is_reserved": 0}, {"is_disabled": 0, "fusion_lon": 0.0, "fusion_lat": 0.0, "lat": 38.92921616666667, "type": "electric_scooter", "lon": -77.021416, "bike_id": "ca218e8e0fdaa7919796cc1b93c8544f", "rental_uris": {"android": "https://dc.lft.to/lastmile_qr_scan", "ios": "https://dc.lft.to/lastmile_qr_scan"}, "name": "ca218e8e0fdaa7919796cc1b93c8544f", "is_reserved": 0}, {"is_disabled": 0, "fusion_lon": 0.0, "fusion_lat": 0.0, "lat": 38.89744133333333, "type": "electric_scooter", "lon": -77.00318233333333, "bike_id": "7434400afacb819d7e02b7d39eeb19f8", "rental_uris": {"android": "https://dc.lft.to/lastmile_qr_scan", "ios": "https://dc.lft.to/lastmile_qr_scan"}, "name": "7434400afacb819d7e02b7d39eeb19f8", "is_reserved": 0}, {"is_disabled": 0, "fusion_lon": 0.0, "fusion_lat": 0.0, "lat": 38.9274755, "type": "electric_scooter", "lon": -77.02481383333334, "bike_id": "4abe2334b8b0eec54bab536540749fa3", "rental_uris": {"android": "https://dc.lft.to/lastmile_qr_scan", "ios": "https://dc.lft.to/lastmile_qr_scan"}, "name": "4abe2334b8b0eec54bab536540749fa3", "is_reserved": 0}, {"is_disabled": 0, "fusion_lon": 0.0, "fusion_lat": 0.0, "lat": 38.92918133333333, "type": "electric_scooter", "lon": -77.02155, "bike_id": "b82c8dffead6851a011585e906163dd1", "rental_uris": {"android": "https://dc.lft.to/lastmile_qr_scan", "ios": "https://dc.lft.to/lastmile_qr_scan"}, "name": "b82c8dffead6851a011585e906163dd1", "is_reserved": 0}, {"is_disabled": 0, "fusion_lon": 0.0, "fusion_lat": 0.0, "lat": 38.93096633333333, "type": "electric_scooter", "lon": -77.02497166666667, "bike_id": "2b6fd7a96d6cdedb846ab8248756ed6d", "rental_uris": {"android": "https://dc.lft.to/lastmile_qr_scan", "ios": "https://dc.lft.to/lastmile_qr_scan"}, "name": "2b6fd7a96d6cdedb846ab8248756ed6d", "is_reserved": 0}, {"is_disabled": 0, "fusion_lon": 0.0, "fusion_lat": 0.0, "lat": 38.908767833333336, "type": "electric_scooter", "lon": -77.07635166666667, "bike_id": "4667b78669620682db7886c973bfdd62", "rental_uris": {"android": "https://dc.lft.to/lastmile_qr_scan", "ios": "https://dc.lft.to/lastmile_qr_scan"}, "name": "4667b78669620682db7886c973bfdd62", "is_reserved": 0}, {"is_disabled": 0, "fusion_lon": 0.0, "fusion_lat": 0.0, "lat": 38.89845833333333, "type": "electric_scooter", "lon": -77.00755133333334, "bike_id": "1217ccdb277509b2cbc72e25e0a3f645", "rental_uris": {"android": "https://dc.lft.to/lastmile_qr_scan", "ios": "https://dc.lft.to/lastmile_qr_scan"}, "name": "1217ccdb277509b2cbc72e25e0a3f645", "is_reserved": 0}, {"is_disabled": 0, "fusion_lon": 0.0, "fusion_lat": 0.0, "lat": 38.8992145, "type": "electric_scooter", "lon": -77.03933266666667, "bike_id": "6bc19adce261d8be0e735fd5eb5b9180", "rental_uris": {"android": "https://dc.lft.to/lastmile_qr_scan", "ios": "https://dc.lft.to/lastmile_qr_scan"}, "name": "6bc19adce261d8be0e735fd5eb5b9180", "is_reserved": 0}, {"is_disabled": 0, "fusion_lon": 0.0, "fusion_lat": 0.0, "lat": 38.848932, "type": "electric_scooter", "lon": -77.00515633333333, "bike_id": "a68c53f18e674e4acd7ba73c3bae21a6", "rental_uris": {"android": "https://dc.lft.to/lastmile_qr_scan", "ios": "https://dc.lft.to/lastmile_qr_scan"}, "name": "a68c53f18e674e4acd7ba73c3bae21a6", "is_reserved": 0}, {"is_disabled": 0, "fusion_lon": 0.0, "fusion_lat": 0.0, "lat": 38.92641916666667, "type": "electric_bike", "lon": -77.03333816666667, "bike_id": "862d0fa9ca89a27e21e5b3fa9848c2b2", "rental_uris": {"android": "https://dc.lft.to/lastmile_qr_scan", "ios": "https://dc.lft.to/lastmile_qr_scan"}, "name": "862d0fa9ca89a27e21e5b3fa9848c2b2", "is_reserved": 0}, {"is_disabled": 0, "fusion_lon": 0.0, "fusion_lat": 0.0, "lat": 38.98143533333333, "type": "electric_bike", "lon": -77.00772566666667, "bike_id": "931602659003f7f35abbaa3b9f27874e", "rental_uris": {"android": "https://dc.lft.to/lastmile_qr_scan", "ios": "https://dc.lft.to/lastmile_qr_scan"}, "name": "931602659003f7f35abbaa3b9f27874e", "is_reserved": 0}, {"is_disabled": 0, "fusion_lon": 0.0, "fusion_lat": 0.0, "lat": 38.8635605, "type": "electric_scooter", "lon": -76.99066583333334, "bike_id": "421266e055c818ef5a9ea775b5fd9c7c", "rental_uris": {"android": "https://dc.lft.to/lastmile_qr_scan", "ios": "https://dc.lft.to/lastmile_qr_scan"}, "name": "421266e055c818ef5a9ea775b5fd9c7c", "is_reserved": 0}, {"is_disabled": 0, "fusion_lon": 0.0, "fusion_lat": 0.0, "lat": 38.91418516666667, "type": "electric_scooter", "lon": -77.03575383333333, "bike_id": "189b87a2c086f71ec1180327e9456a4a", "rental_uris": {"android": "https://dc.lft.to/lastmile_qr_scan", "ios": "https://dc.lft.to/lastmile_qr_scan"}, "name": "189b87a2c086f71ec1180327e9456a4a", "is_reserved": 0}, {"is_disabled": 0, "fusion_lon": 0.0, "fusion_lat": 0.0, "lat": 38.931031, "type": "electric_scooter", "lon": -77.0247005, "bike_id": "f5246120603cf388a8f4e1dbdf8a8eeb", "rental_uris": {"android": "https://dc.lft.to/lastmile_qr_scan", "ios": "https://dc.lft.to/lastmile_qr_scan"}, "name": "f5246120603cf388a8f4e1dbdf8a8eeb", "is_reserved": 0}, {"is_disabled": 0, "fusion_lon": 0.0, "fusion_lat": 0.0, "lat": 38.905906, "type": "electric_scooter", "lon": -77.05125766666667, "bike_id": "1198c53b1c5856feee05e2a9e1ef66b6", "rental_uris": {"android": "https://dc.lft.to/lastmile_qr_scan", "ios": "https://dc.lft.to/lastmile_qr_scan"}, "name": "1198c53b1c5856feee05e2a9e1ef66b6", "is_reserved": 0}, {"is_disabled": 0, "fusion_lon": 0.0, "fusion_lat": 0.0, "lat": 38.93547483333333, "type": "electric_scooter", "lon": -77.058098, "bike_id": "f5cb0723dd21e0aa1df062faeda93358", "rental_uris": {"android": "https://dc.lft.to/lastmile_qr_scan", "ios": "https://dc.lft.to/lastmile_qr_scan"}, "name": "f5cb0723dd21e0aa1df062faeda93358", "is_reserved": 0}, {"is_disabled": 0, "fusion_lon": 0.0, "fusion_lat": 0.0, "lat": 38.87778133333333, "type": "electric_scooter", "lon": -77.01437133333333, "bike_id": "043ddf0604b50729d9cf7bf3b1098b18", "rental_uris": {"android": "https://dc.lft.to/lastmile_qr_scan", "ios": "https://dc.lft.to/lastmile_qr_scan"}, "name": "043ddf0604b50729d9cf7bf3b1098b18", "is_reserved": 0}, {"is_disabled": 0, "fusion_lon": 0.0, "fusion_lat": 0.0, "lat": 38.929094166666665, "type": "electric_scooter", "lon": -77.02265816666667, "bike_id": "81bfa1020a5b76329c9a40fbf1598447", "rental_uris": {"android": "https://dc.lft.to/lastmile_qr_scan", "ios": "https://dc.lft.to/lastmile_qr_scan"}, "name": "81bfa1020a5b76329c9a40fbf1598447", "is_reserved": 0}, {"is_disabled": 0, "fusion_lon": 0.0, "fusion_lat": 0.0, "lat": 38.90419683333333, "type": "electric_scooter", "lon": -76.98550316666666, "bike_id": "d88a8d6f5113558a35789ac26c303af4", "rental_uris": {"android": "https://dc.lft.to/lastmile_qr_scan", "ios": "https://dc.lft.to/lastmile_qr_scan"}, "name": "d88a8d6f5113558a35789ac26c303af4", "is_reserved": 0}, {"is_disabled": 0, "fusion_lon": 0.0, "fusion_lat": 0.0, "lat": 38.918591166666666, "type": "electric_bike", "lon": -76.96090033333333, "bike_id": "bda0078471e5b76f8c5f64fc9b9473dc", "rental_uris": {"android": "https://dc.lft.to/lastmile_qr_scan", "ios": "https://dc.lft.to/lastmile_qr_scan"}, "name": "bda0078471e5b76f8c5f64fc9b9473dc", "is_reserved": 0}, {"is_disabled": 0, "fusion_lon": 0.0, "fusion_lat": 0.0, "lat": 38.937074833333334, "type": "electric_scooter", "lon": -77.06103816666666, "bike_id": "299bf9b344c2928335d44dc259963af1", "rental_uris": {"android": "https://dc.lft.to/lastmile_qr_scan", "ios": "https://dc.lft.to/lastmile_qr_scan"}, "name": "299bf9b344c2928335d44dc259963af1", "is_reserved": 0}, {"is_disabled": 0, "fusion_lon": 0.0, "fusion_lat": 0.0, "lat": 38.906905, "type": "electric_scooter", "lon": -77.06283983333333, "bike_id": "e5f6c70baa0bdfa131f675a9d5c10b78", "rental_uris": {"android": "https://dc.lft.to/lastmile_qr_scan", "ios": "https://dc.lft.to/lastmile_qr_scan"}, "name": "e5f6c70baa0bdfa131f675a9d5c10b78", "is_reserved": 0}, {"is_disabled": 0, "fusion_lon": 0.0, "fusion_lat": 0.0, "lat": 38.938301833333334, "type": "electric_scooter", "lon": -77.02794716666666, "bike_id": "66c330682b54fc1b75fb11a037390515", "rental_uris": {"android": "https://dc.lft.to/lastmile_qr_scan", "ios": "https://dc.lft.to/lastmile_qr_scan"}, "name": "66c330682b54fc1b75fb11a037390515", "is_reserved": 0}, {"is_disabled": 0, "fusion_lon": 0.0, "fusion_lat": 0.0, "lat": 38.9224595, "type": "electric_scooter", "lon": -77.03082033333334, "bike_id": "1b319bd07c8e9e2da3d1dc5463f94f93", "rental_uris": {"android": "https://dc.lft.to/lastmile_qr_scan", "ios": "https://dc.lft.to/lastmile_qr_scan"}, "name": "1b319bd07c8e9e2da3d1dc5463f94f93", "is_reserved": 0}, {"is_disabled": 0, "fusion_lon": 0.0, "fusion_lat": 0.0, "lat": 38.918215333333336, "type": "electric_scooter", "lon": -77.03254766666667, "bike_id": "1e577433937389c7148e4bd23c0bb405", "rental_uris": {"android": "https://dc.lft.to/lastmile_qr_scan", "ios": "https://dc.lft.to/lastmile_qr_scan"}, "name": "1e577433937389c7148e4bd23c0bb405", "is_reserved": 0}, {"is_disabled": 0, "fusion_lon": 0.0, "fusion_lat": 0.0, "lat": 38.8583935, "type": "electric_bike", "lon": -76.99282633333334, "bike_id": "9257eb5177d21a85e45dc396013f1019", "rental_uris": {"android": "https://dc.lft.to/lastmile_qr_scan", "ios": "https://dc.lft.to/lastmile_qr_scan"}, "name": "9257eb5177d21a85e45dc396013f1019", "is_reserved": 0}, {"is_disabled": 0, "fusion_lon": 0.0, "fusion_lat": 0.0, "lat": 38.879819, "type": "electric_bike", "lon": -76.9159935, "bike_id": "55189e59ec09b93698e502bdc5128d38", "rental_uris": {"android": "https://dc.lft.to/lastmile_qr_scan", "ios": "https://dc.lft.to/lastmile_qr_scan"}, "name": "55189e59ec09b93698e502bdc5128d38", "is_reserved": 0}, {"is_disabled": 0, "fusion_lon": 0.0, "fusion_lat": 0.0, "lat": 38.87310433333333, "type": "electric_bike", "lon": -76.97107933333334, "bike_id": "5fd17f6dd02b0949340dda066e0899f2", "rental_uris": {"android": "https://dc.lft.to/lastmile_qr_scan", "ios": "https://dc.lft.to/lastmile_qr_scan"}, "name": "5fd17f6dd02b0949340dda066e0899f2", "is_reserved": 0}, {"is_disabled": 0, "fusion_lon": 0.0, "fusion_lat": 0.0, "lat": 38.965067833333336, "type": "electric_scooter", "lon": -77.024805, "bike_id": "7f46265feb5ffebd91b294724f585304", "rental_uris": {"android": "https://dc.lft.to/lastmile_qr_scan", "ios": "https://dc.lft.to/lastmile_qr_scan"}, "name": "7f46265feb5ffebd91b294724f585304", "is_reserved": 0}, {"is_disabled": 0, "fusion_lon": 0.0, "fusion_lat": 0.0, "lat": 38.9537835, "type": "electric_scooter", "lon": -77.02556766666666, "bike_id": "685357461baf541220c629eaa5f9ca1d", "rental_uris": {"android": "https://dc.lft.to/lastmile_qr_scan", "ios": "https://dc.lft.to/lastmile_qr_scan"}, "name": "685357461baf541220c629eaa5f9ca1d", "is_reserved": 0}, {"is_disabled": 0, "fusion_lon": 0.0, "fusion_lat": 0.0, "lat": 38.966491166666664, "type": "electric_bike", "lon": -76.93027483333333, "bike_id": "5297a05503ab6188b2d1e0107f505942", "rental_uris": {"android": "https://dc.lft.to/lastmile_qr_scan", "ios": "https://dc.lft.to/lastmile_qr_scan"}, "name": "5297a05503ab6188b2d1e0107f505942", "is_reserved": 0}, {"is_disabled": 0, "fusion_lon": 0.0, "fusion_lat": 0.0, "lat": 38.89225783333333, "type": "electric_scooter", "lon": -77.03337233333333, "bike_id": "fbc07da3019725290113b34c6077d73a", "rental_uris": {"android": "https://dc.lft.to/lastmile_qr_scan", "ios": "https://dc.lft.to/lastmile_qr_scan"}, "name": "fbc07da3019725290113b34c6077d73a", "is_reserved": 0}, {"is_disabled": 0, "fusion_lon": 0.0, "fusion_lat": 0.0, "lat": 38.92420383333334, "type": "electric_scooter", "lon": -77.04154716666666, "bike_id": "fb485204ceae0d924f1fd42e4151de6f", "rental_uris": {"android": "https://dc.lft.to/lastmile_qr_scan", "ios": "https://dc.lft.to/lastmile_qr_scan"}, "name": "fb485204ceae0d924f1fd42e4151de6f", "is_reserved": 0}, {"is_disabled": 0, "fusion_lon": 0.0, "fusion_lat": 0.0, "lat": 38.930092, "type": "electric_scooter", "lon": -77.07838866666667, "bike_id": "38b17618fcf647c20904796f94bcad0a", "rental_uris": {"android": "https://dc.lft.to/lastmile_qr_scan", "ios": "https://dc.lft.to/lastmile_qr_scan"}, "name": "38b17618fcf647c20904796f94bcad0a", "is_reserved": 0}, {"is_disabled": 0, "fusion_lon": 0.0, "fusion_lat": 0.0, "lat": 38.907285333333334, "type": "electric_scooter", "lon": -77.03853166666667, "bike_id": "1191a50f4f34eb1ce2a5718fee7a0cab", "rental_uris": {"android": "https://dc.lft.to/lastmile_qr_scan", "ios": "https://dc.lft.to/lastmile_qr_scan"}, "name": "1191a50f4f34eb1ce2a5718fee7a0cab", "is_reserved": 0}, {"is_disabled": 0, "fusion_lon": 0.0, "fusion_lat": 0.0, "lat": 38.9117355, "type": "electric_scooter", "lon": -77.0046485, "bike_id": "cae9142c751ad875b9efbc30e5ba142a", "rental_uris": {"android": "https://dc.lft.to/lastmile_qr_scan", "ios": "https://dc.lft.to/lastmile_qr_scan"}, "name": "cae9142c751ad875b9efbc30e5ba142a", "is_reserved": 0}, {"is_disabled": 0, "fusion_lon": 0.0, "fusion_lat": 0.0, "lat": 38.90374933333333, "type": "electric_scooter", "lon": -77.05021116666667, "bike_id": "e83845d227909f66def70325f58c2c9c", "rental_uris": {"android": "https://dc.lft.to/lastmile_qr_scan", "ios": "https://dc.lft.to/lastmile_qr_scan"}, "name": "e83845d227909f66def70325f58c2c9c", "is_reserved": 0}, {"is_disabled": 0, "fusion_lon": 0.0, "fusion_lat": 0.0, "lat": 38.90844933333333, "type": "electric_scooter", "lon": -77.002061, "bike_id": "d5426486b2cd01cb8fe0cf5024ee92f4", "rental_uris": {"android": "https://dc.lft.to/lastmile_qr_scan", "ios": "https://dc.lft.to/lastmile_qr_scan"}, "name": "d5426486b2cd01cb8fe0cf5024ee92f4", "is_reserved": 0}, {"is_disabled": 0, "fusion_lon": 0.0, "fusion_lat": 0.0, "lat": 38.916244166666665, "type": "electric_scooter", "lon": -77.04594616666667, "bike_id": "f89c1329bd284f30cbc5ac2c8727851e", "rental_uris": {"android": "https://dc.lft.to/lastmile_qr_scan", "ios": "https://dc.lft.to/lastmile_qr_scan"}, "name": "f89c1329bd284f30cbc5ac2c8727851e", "is_reserved": 0}, {"is_disabled": 0, "fusion_lon": 0.0, "fusion_lat": 0.0, "lat": 38.9162975, "type": "electric_bike", "lon": -77.01356383333334, "bike_id": "16f14a8fd9a27fd6b963082838fd4fd6", "rental_uris": {"android": "https://dc.lft.to/lastmile_qr_scan", "ios": "https://dc.lft.to/lastmile_qr_scan"}, "name": "16f14a8fd9a27fd6b963082838fd4fd6", "is_reserved": 0}, {"is_disabled": 0, "fusion_lon": 0.0, "fusion_lat": 0.0, "lat": 38.9026755, "type": "electric_scooter", "lon": -77.0344185, "bike_id": "d9baaf82b025ee3b15091d5f77652513", "rental_uris": {"android": "https://dc.lft.to/lastmile_qr_scan", "ios": "https://dc.lft.to/lastmile_qr_scan"}, "name": "d9baaf82b025ee3b15091d5f77652513", "is_reserved": 0}, {"is_disabled": 0, "fusion_lon": 0.0, "fusion_lat": 0.0, "lat": 38.897353333333335, "type": "electric_scooter", "lon": -77.04805383333333, "bike_id": "c3d223a133581fe698f39c3159cdffcd", "rental_uris": {"android": "https://dc.lft.to/lastmile_qr_scan", "ios": "https://dc.lft.to/lastmile_qr_scan"}, "name": "c3d223a133581fe698f39c3159cdffcd", "is_reserved": 0}, {"is_disabled": 0, "fusion_lon": 0.0, "fusion_lat": 0.0, "lat": 38.919005, "type": "electric_scooter", "lon": -77.02390216666667, "bike_id": "aec160e5c4d19a18c7af3f2f4fc64ebb", "rental_uris": {"android": "https://dc.lft.to/lastmile_qr_scan", "ios": "https://dc.lft.to/lastmile_qr_scan"}, "name": "aec160e5c4d19a18c7af3f2f4fc64ebb", "is_reserved": 0}, {"is_disabled": 0, "fusion_lon": 0.0, "fusion_lat": 0.0, "lat": 38.90998183333333, "type": "electric_scooter", "lon": -77.032019, "bike_id": "6c069073395e889c4656e1006c928693", "rental_uris": {"android": "https://dc.lft.to/lastmile_qr_scan", "ios": "https://dc.lft.to/lastmile_qr_scan"}, "name": "6c069073395e889c4656e1006c928693", "is_reserved": 0}, {"is_disabled": 0, "fusion_lon": 0.0, "fusion_lat": 0.0, "lat": 38.880543, "type": "electric_scooter", "lon": -77.01684116666667, "bike_id": "8c370b8d82a37931ac97b5c545dd76d0", "rental_uris": {"android": "https://dc.lft.to/lastmile_qr_scan", "ios": "https://dc.lft.to/lastmile_qr_scan"}, "name": "8c370b8d82a37931ac97b5c545dd76d0", "is_reserved": 0}, {"is_disabled": 0, "fusion_lon": 0.0, "fusion_lat": 0.0, "lat": 38.9289995, "type": "electric_scooter", "lon": -76.984542, "bike_id": "c474baad5f0a66a35c0e41e8367bc904", "rental_uris": {"android": "https://dc.lft.to/lastmile_qr_scan", "ios": "https://dc.lft.to/lastmile_qr_scan"}, "name": "c474baad5f0a66a35c0e41e8367bc904", "is_reserved": 0}, {"is_disabled": 0, "fusion_lon": 0.0, "fusion_lat": 0.0, "lat": 38.9026755, "type": "electric_scooter", "lon": -77.0427875, "bike_id": "f0b9738cead77a12b586c8f75bc5ba9e", "rental_uris": {"android": "https://dc.lft.to/lastmile_qr_scan", "ios": "https://dc.lft.to/lastmile_qr_scan"}, "name": "f0b9738cead77a12b586c8f75bc5ba9e", "is_reserved": 0}, {"is_disabled": 0, "fusion_lon": 0.0, "fusion_lat": 0.0, "lat": 38.9363735, "type": "electric_scooter", "lon": -77.036684, "bike_id": "21e9176ba8b6e6e101c9abee17000140", "rental_uris": {"android": "https://dc.lft.to/lastmile_qr_scan", "ios": "https://dc.lft.to/lastmile_qr_scan"}, "name": "21e9176ba8b6e6e101c9abee17000140", "is_reserved": 0}, {"is_disabled": 0, "fusion_lon": 0.0, "fusion_lat": 0.0, "lat": 38.92447766666667, "type": "electric_bike", "lon": -76.9683395, "bike_id": "738ad24879dd6fe4a68eedb4f1d873ae", "rental_uris": {"android": "https://dc.lft.to/lastmile_qr_scan", "ios": "https://dc.lft.to/lastmile_qr_scan"}, "name": "738ad24879dd6fe4a68eedb4f1d873ae", "is_reserved": 0}, {"is_disabled": 0, "fusion_lon": 0.0, "fusion_lat": 0.0, "lat": 39.105687333333336, "type": "electric_bike", "lon": -77.152667, "bike_id": "7f8e4ebdb13c512ff0995ee9732aef18", "rental_uris": {"android": "https://dc.lft.to/lastmile_qr_scan", "ios": "https://dc.lft.to/lastmile_qr_scan"}, "name": "7f8e4ebdb13c512ff0995ee9732aef18", "is_reserved": 0}, {"is_disabled": 0, "fusion_lon": 0.0, "fusion_lat": 0.0, "lat": 38.8937485, "type": "electric_scooter", "lon": -76.94996216666667, "bike_id": "4bab56ea934bbaf477e6170d17ca995e", "rental_uris": {"android": "https://dc.lft.to/lastmile_qr_scan", "ios": "https://dc.lft.to/lastmile_qr_scan"}, "name": "4bab56ea934bbaf477e6170d17ca995e", "is_reserved": 0}, {"is_disabled": 0, "fusion_lon": 0.0, "fusion_lat": 0.0, "lat": 38.9228525, "type": "electric_bike", "lon": -76.99427116666666, "bike_id": "8c46f671e575e40ad62a1a4a2076b81e", "rental_uris": {"android": "https://dc.lft.to/lastmile_qr_scan", "ios": "https://dc.lft.to/lastmile_qr_scan"}, "name": "8c46f671e575e40ad62a1a4a2076b81e", "is_reserved": 0}, {"is_disabled": 0, "fusion_lon": 0.0, "fusion_lat": 0.0, "lat": 38.91979466666667, "type": "electric_scooter", "lon": -77.00020416666666, "bike_id": "e94806aa5228a99c4fa0ce7de7fd3c8b", "rental_uris": {"android": "https://dc.lft.to/lastmile_qr_scan", "ios": "https://dc.lft.to/lastmile_qr_scan"}, "name": "e94806aa5228a99c4fa0ce7de7fd3c8b", "is_reserved": 0}, {"is_disabled": 0, "fusion_lon": 0.0, "fusion_lat": 0.0, "lat": 38.92856866666666, "type": "electric_bike", "lon": -77.02071033333333, "bike_id": "d3b803453e39a3903dd764d7e629d533", "rental_uris": {"android": "https://dc.lft.to/lastmile_qr_scan", "ios": "https://dc.lft.to/lastmile_qr_scan"}, "name": "d3b803453e39a3903dd764d7e629d533", "is_reserved": 0}, {"is_disabled": 0, "fusion_lon": 0.0, "fusion_lat": 0.0, "lat": 38.9291475, "type": "electric_scooter", "lon": -77.02348333333333, "bike_id": "1073f94474777a2f499100d310674164", "rental_uris": {"android": "https://dc.lft.to/lastmile_qr_scan", "ios": "https://dc.lft.to/lastmile_qr_scan"}, "name": "1073f94474777a2f499100d310674164", "is_reserved": 0}, {"is_disabled": 0, "fusion_lon": 0.0, "fusion_lat": 0.0, "lat": 38.91608166666666, "type": "electric_scooter", "lon": -77.04596116666667, "bike_id": "0b78d5816dfc643028b7ba15d5c93e5f", "rental_uris": {"android": "https://dc.lft.to/lastmile_qr_scan", "ios": "https://dc.lft.to/lastmile_qr_scan"}, "name": "0b78d5816dfc643028b7ba15d5c93e5f", "is_reserved": 0}, {"is_disabled": 0, "fusion_lon": 0.0, "fusion_lat": 0.0, "lat": 38.886359666666664, "type": "electric_scooter", "lon": -76.95513316666667, "bike_id": "71d3a941f458164b48faa4929252db08", "rental_uris": {"android": "https://dc.lft.to/lastmile_qr_scan", "ios": "https://dc.lft.to/lastmile_qr_scan"}, "name": "71d3a941f458164b48faa4929252db08", "is_reserved": 0}, {"is_disabled": 0, "fusion_lon": 0.0, "fusion_lat": 0.0, "lat": 38.91596233333333, "type": "electric_scooter", "lon": -77.02123533333334, "bike_id": "6f47de6ff9cd726489611e186efd00c3", "rental_uris": {"android": "https://dc.lft.to/lastmile_qr_scan", "ios": "https://dc.lft.to/lastmile_qr_scan"}, "name": "6f47de6ff9cd726489611e186efd00c3", "is_reserved": 0}, {"is_disabled": 0, "fusion_lon": 0.0, "fusion_lat": 0.0, "lat": 38.90017366666667, "type": "electric_scooter", "lon": -77.03967416666667, "bike_id": "eefd392a7f86d3ce13f204d1fdf5ac9b", "rental_uris": {"android": "https://dc.lft.to/lastmile_qr_scan", "ios": "https://dc.lft.to/lastmile_qr_scan"}, "name": "eefd392a7f86d3ce13f204d1fdf5ac9b", "is_reserved": 0}, {"is_disabled": 0, "fusion_lon": 0.0, "fusion_lat": 0.0, "lat": 38.9247995, "type": "electric_scooter", "lon": -77.03794283333333, "bike_id": "279a69ec08836f7e7a1862d043591c8d", "rental_uris": {"android": "https://dc.lft.to/lastmile_qr_scan", "ios": "https://dc.lft.to/lastmile_qr_scan"}, "name": "279a69ec08836f7e7a1862d043591c8d", "is_reserved": 0}, {"is_disabled": 0, "fusion_lon": 0.0, "fusion_lat": 0.0, "lat": 38.9235645, "type": "electric_bike", "lon": -76.99251, "bike_id": "5956a49cc257bc0cd5e2ba233e9367e3", "rental_uris": {"android": "https://dc.lft.to/lastmile_qr_scan", "ios": "https://dc.lft.to/lastmile_qr_scan"}, "name": "5956a49cc257bc0cd5e2ba233e9367e3", "is_reserved": 0}, {"is_disabled": 0, "fusion_lon": 0.0, "fusion_lat": 0.0, "lat": 38.88126183333333, "type": "electric_scooter", "lon": -77.02079383333333, "bike_id": "b8c52fa32d35a5cde370f63aee3fb5a8", "rental_uris": {"android": "https://dc.lft.to/lastmile_qr_scan", "ios": "https://dc.lft.to/lastmile_qr_scan"}, "name": "b8c52fa32d35a5cde370f63aee3fb5a8", "is_reserved": 0}, {"is_disabled": 0, "fusion_lon": 0.0, "fusion_lat": 0.0, "lat": 38.9072895, "type": "electric_scooter", "lon": -77.02245883333333, "bike_id": "747ec77786a0314e5920453d8f4d0f63", "rental_uris": {"android": "https://dc.lft.to/lastmile_qr_scan", "ios": "https://dc.lft.to/lastmile_qr_scan"}, "name": "747ec77786a0314e5920453d8f4d0f63", "is_reserved": 0}, {"is_disabled": 0, "fusion_lon": 0.0, "fusion_lat": 0.0, "lat": 38.99074316666667, "type": "electric_bike", "lon": -77.02385316666667, "bike_id": "eba99cdef38cbc6e068dbf894a477422", "rental_uris": {"android": "https://dc.lft.to/lastmile_qr_scan", "ios": "https://dc.lft.to/lastmile_qr_scan"}, "name": "eba99cdef38cbc6e068dbf894a477422", "is_reserved": 0}, {"is_disabled": 0, "fusion_lon": 0.0, "fusion_lat": 0.0, "lat": 38.91790916666667, "type": "electric_scooter", "lon": -77.04358583333334, "bike_id": "7344af0c54627105a6e1626b9bd67b5a", "rental_uris": {"android": "https://dc.lft.to/lastmile_qr_scan", "ios": "https://dc.lft.to/lastmile_qr_scan"}, "name": "7344af0c54627105a6e1626b9bd67b5a", "is_reserved": 0}, {"is_disabled": 0, "fusion_lon": 0.0, "fusion_lat": 0.0, "lat": 38.911107666666666, "type": "electric_scooter", "lon": -77.04502083333334, "bike_id": "d90619446bff3058c44d1185c635df1b", "rental_uris": {"android": "https://dc.lft.to/lastmile_qr_scan", "ios": "https://dc.lft.to/lastmile_qr_scan"}, "name": "d90619446bff3058c44d1185c635df1b", "is_reserved": 0}, {"is_disabled": 0, "fusion_lon": 0.0, "fusion_lat": 0.0, "lat": 38.908446833333336, "type": "electric_scooter", "lon": -77.06342333333333, "bike_id": "6ae7afcebfeb106d6b83d8745a1b7434", "rental_uris": {"android": "https://dc.lft.to/lastmile_qr_scan", "ios": "https://dc.lft.to/lastmile_qr_scan"}, "name": "6ae7afcebfeb106d6b83d8745a1b7434", "is_reserved": 0}, {"is_disabled": 0, "fusion_lon": 0.0, "fusion_lat": 0.0, "lat": 38.90947216666667, "type": "electric_scooter", "lon": -77.03448233333333, "bike_id": "200f85092948a1dd67a59d727a9bbe35", "rental_uris": {"android": "https://dc.lft.to/lastmile_qr_scan", "ios": "https://dc.lft.to/lastmile_qr_scan"}, "name": "200f85092948a1dd67a59d727a9bbe35", "is_reserved": 0}, {"is_disabled": 0, "fusion_lon": 0.0, "fusion_lat": 0.0, "lat": 38.896847, "type": "electric_scooter", "lon": -77.011565, "bike_id": "2a75cd009c9c8cbbc164be29edfc8bef", "rental_uris": {"android": "https://dc.lft.to/lastmile_qr_scan", "ios": "https://dc.lft.to/lastmile_qr_scan"}, "name": "2a75cd009c9c8cbbc164be29edfc8bef", "is_reserved": 0}, {"is_disabled": 0, "fusion_lon": 0.0, "fusion_lat": 0.0, "lat": 38.90138983333333, "type": "electric_scooter", "lon": -77.03969216666667, "bike_id": "48cd586ba5aed18a020a882d5f449f82", "rental_uris": {"android": "https://dc.lft.to/lastmile_qr_scan", "ios": "https://dc.lft.to/lastmile_qr_scan"}, "name": "48cd586ba5aed18a020a882d5f449f82", "is_reserved": 0}, {"is_disabled": 0, "fusion_lon": 0.0, "fusion_lat": 0.0, "lat": 38.941531499999996, "type": "electric_bike", "lon": -77.00191883333333, "bike_id": "6d3fc4b28981f22d8fe7f0638ab78697", "rental_uris": {"android": "https://dc.lft.to/lastmile_qr_scan", "ios": "https://dc.lft.to/lastmile_qr_scan"}, "name": "6d3fc4b28981f22d8fe7f0638ab78697", "is_reserved": 0}, {"is_disabled": 0, "fusion_lon": 0.0, "fusion_lat": 0.0, "lat": 38.92656566666667, "type": "electric_scooter", "lon": -77.024314, "bike_id": "6af6d23afa485689abfa433c0b06885d", "rental_uris": {"android": "https://dc.lft.to/lastmile_qr_scan", "ios": "https://dc.lft.to/lastmile_qr_scan"}, "name": "6af6d23afa485689abfa433c0b06885d", "is_reserved": 0}, {"is_disabled": 0, "fusion_lon": 0.0, "fusion_lat": 0.0, "lat": 38.90515966666667, "type": "electric_scooter", "lon": -77.02623133333333, "bike_id": "29a7b47244c2c33e6b33537243e36cfc", "rental_uris": {"android": "https://dc.lft.to/lastmile_qr_scan", "ios": "https://dc.lft.to/lastmile_qr_scan"}, "name": "29a7b47244c2c33e6b33537243e36cfc", "is_reserved": 0}, {"is_disabled": 0, "fusion_lon": 0.0, "fusion_lat": 0.0, "lat": 38.92297283333333, "type": "electric_scooter", "lon": -77.0402125, "bike_id": "a8ad2946bba49a7b8d30c22c11783a6e", "rental_uris": {"android": "https://dc.lft.to/lastmile_qr_scan", "ios": "https://dc.lft.to/lastmile_qr_scan"}, "name": "a8ad2946bba49a7b8d30c22c11783a6e", "is_reserved": 0}, {"is_disabled": 0, "fusion_lon": 0.0, "fusion_lat": 0.0, "lat": 38.9036565, "type": "electric_scooter", "lon": -77.02546466666666, "bike_id": "b2b58135c21983fd997e30b8c1509452", "rental_uris": {"android": "https://dc.lft.to/lastmile_qr_scan", "ios": "https://dc.lft.to/lastmile_qr_scan"}, "name": "b2b58135c21983fd997e30b8c1509452", "is_reserved": 0}, {"is_disabled": 0, "fusion_lon": 0.0, "fusion_lat": 0.0, "lat": 38.887590333333335, "type": "electric_scooter", "lon": -77.0338425, "bike_id": "8a8e54183807df97c947ac90eba08537", "rental_uris": {"android": "https://dc.lft.to/lastmile_qr_scan", "ios": "https://dc.lft.to/lastmile_qr_scan"}, "name": "8a8e54183807df97c947ac90eba08537", "is_reserved": 0}, {"is_disabled": 0, "fusion_lon": 0.0, "fusion_lat": 0.0, "lat": 38.918650166666666, "type": "electric_scooter", "lon": -77.03511066666667, "bike_id": "40441d2eaa8414bc6b8739aa8592b37d", "rental_uris": {"android": "https://dc.lft.to/lastmile_qr_scan", "ios": "https://dc.lft.to/lastmile_qr_scan"}, "name": "40441d2eaa8414bc6b8739aa8592b37d", "is_reserved": 0}, {"is_disabled": 0, "fusion_lon": 0.0, "fusion_lat": 0.0, "lat": 38.876781, "type": "electric_bike", "lon": -77.01440916666667, "bike_id": "a2e64ebd63371490144bcca7cb8819bb", "rental_uris": {"android": "https://dc.lft.to/lastmile_qr_scan", "ios": "https://dc.lft.to/lastmile_qr_scan"}, "name": "a2e64ebd63371490144bcca7cb8819bb", "is_reserved": 0}, {"is_disabled": 0, "fusion_lon": 0.0, "fusion_lat": 0.0, "lat": 39.05813, "type": "electric_bike", "lon": -77.12626866666666, "bike_id": "761aefb2004176217d95ce57ad0f98c5", "rental_uris": {"android": "https://dc.lft.to/lastmile_qr_scan", "ios": "https://dc.lft.to/lastmile_qr_scan"}, "name": "761aefb2004176217d95ce57ad0f98c5", "is_reserved": 0}, {"is_disabled": 0, "fusion_lon": 0.0, "fusion_lat": 0.0, "lat": 38.9352825, "type": "electric_scooter", "lon": -77.054443, "bike_id": "08dd20898a897656a1577a20a906fee9", "rental_uris": {"android": "https://dc.lft.to/lastmile_qr_scan", "ios": "https://dc.lft.to/lastmile_qr_scan"}, "name": "08dd20898a897656a1577a20a906fee9", "is_reserved": 0}, {"is_disabled": 0, "fusion_lon": 0.0, "fusion_lat": 0.0, "lat": 38.858088, "type": "electric_scooter", "lon": -76.98654966666666, "bike_id": "734162bd5eb8d2971f3c7d13eb75861c", "rental_uris": {"android": "https://dc.lft.to/lastmile_qr_scan", "ios": "https://dc.lft.to/lastmile_qr_scan"}, "name": "734162bd5eb8d2971f3c7d13eb75861c", "is_reserved": 0}, {"is_disabled": 0, "fusion_lon": 0.0, "fusion_lat": 0.0, "lat": 38.961026333333336, "type": "electric_scooter", "lon": -77.0689425, "bike_id": "b6752a38255b2d6faf37792341276f80", "rental_uris": {"android": "https://dc.lft.to/lastmile_qr_scan", "ios": "https://dc.lft.to/lastmile_qr_scan"}, "name": "b6752a38255b2d6faf37792341276f80", "is_reserved": 0}, {"is_disabled": 0, "fusion_lon": 0.0, "fusion_lat": 0.0, "lat": 38.90877483333333, "type": "electric_scooter", "lon": -77.03543133333334, "bike_id": "ac3e47d3550c123dd09f75dce5b2a450", "rental_uris": {"android": "https://dc.lft.to/lastmile_qr_scan", "ios": "https://dc.lft.to/lastmile_qr_scan"}, "name": "ac3e47d3550c123dd09f75dce5b2a450", "is_reserved": 0}, {"is_disabled": 0, "fusion_lon": 0.0, "fusion_lat": 0.0, "lat": 38.911841333333335, "type": "electric_scooter", "lon": -77.03504016666666, "bike_id": "8052121cfc4d9468ceb049fda5a6e26e", "rental_uris": {"android": "https://dc.lft.to/lastmile_qr_scan", "ios": "https://dc.lft.to/lastmile_qr_scan"}, "name": "8052121cfc4d9468ceb049fda5a6e26e", "is_reserved": 0}, {"is_disabled": 0, "fusion_lon": 0.0, "fusion_lat": 0.0, "lat": 38.9340945, "type": "electric_scooter", "lon": -77.0325965, "bike_id": "dcf3cdf5a2bc719a73da63c1b9bedc9e", "rental_uris": {"android": "https://dc.lft.to/lastmile_qr_scan", "ios": "https://dc.lft.to/lastmile_qr_scan"}, "name": "dcf3cdf5a2bc719a73da63c1b9bedc9e", "is_reserved": 0}, {"is_disabled": 0, "fusion_lon": 0.0, "fusion_lat": 0.0, "lat": 38.86526516666667, "type": "electric_scooter", "lon": -76.98968366666666, "bike_id": "1ce90d6b195bcc42cba85b302d437511", "rental_uris": {"android": "https://dc.lft.to/lastmile_qr_scan", "ios": "https://dc.lft.to/lastmile_qr_scan"}, "name": "1ce90d6b195bcc42cba85b302d437511", "is_reserved": 0}, {"is_disabled": 0, "fusion_lon": 0.0, "fusion_lat": 0.0, "lat": 38.903666666666666, "type": "electric_scooter", "lon": -77.01614666666667, "bike_id": "f81ea2d08e1950bd576c63dc8522b297", "rental_uris": {"android": "https://dc.lft.to/lastmile_qr_scan", "ios": "https://dc.lft.to/lastmile_qr_scan"}, "name": "f81ea2d08e1950bd576c63dc8522b297", "is_reserved": 0}, {"is_disabled": 0, "fusion_lon": 0.0, "fusion_lat": 0.0, "lat": 38.9160885, "type": "electric_scooter", "lon": -77.031203, "bike_id": "3f4ae03b9752d60490fd060304138a53", "rental_uris": {"android": "https://dc.lft.to/lastmile_qr_scan", "ios": "https://dc.lft.to/lastmile_qr_scan"}, "name": "3f4ae03b9752d60490fd060304138a53", "is_reserved": 0}, {"is_disabled": 0, "fusion_lon": 0.0, "fusion_lat": 0.0, "lat": 38.9297405, "type": "electric_scooter", "lon": -77.0207235, "bike_id": "1eeb50e4980c98dac698428bf5e282e7", "rental_uris": {"android": "https://dc.lft.to/lastmile_qr_scan", "ios": "https://dc.lft.to/lastmile_qr_scan"}, "name": "1eeb50e4980c98dac698428bf5e282e7", "is_reserved": 0}, {"is_disabled": 0, "fusion_lon": 0.0, "fusion_lat": 0.0, "lat": 38.93476166666667, "type": "electric_scooter", "lon": -77.035791, "bike_id": "c0be99fa4df0729e18a63be633a8027b", "rental_uris": {"android": "https://dc.lft.to/lastmile_qr_scan", "ios": "https://dc.lft.to/lastmile_qr_scan"}, "name": "c0be99fa4df0729e18a63be633a8027b", "is_reserved": 0}, {"is_disabled": 0, "fusion_lon": 0.0, "fusion_lat": 0.0, "lat": 38.9015415, "type": "electric_scooter", "lon": -77.02306933333334, "bike_id": "065b70fc204d15213dbb4330c7959729", "rental_uris": {"android": "https://dc.lft.to/lastmile_qr_scan", "ios": "https://dc.lft.to/lastmile_qr_scan"}, "name": "065b70fc204d15213dbb4330c7959729", "is_reserved": 0}, {"is_disabled": 0, "fusion_lon": 0.0, "fusion_lat": 0.0, "lat": 38.89609, "type": "electric_scooter", "lon": -77.0093075, "bike_id": "75dfa24cc05e9401f62e8b93f8d4ca52", "rental_uris": {"android": "https://dc.lft.to/lastmile_qr_scan", "ios": "https://dc.lft.to/lastmile_qr_scan"}, "name": "75dfa24cc05e9401f62e8b93f8d4ca52", "is_reserved": 0}, {"is_disabled": 0, "fusion_lon": 0.0, "fusion_lat": 0.0, "lat": 38.91166, "type": "electric_scooter", "lon": -77.0416635, "bike_id": "7aeaa4da3a9704372c7062f72b955155", "rental_uris": {"android": "https://dc.lft.to/lastmile_qr_scan", "ios": "https://dc.lft.to/lastmile_qr_scan"}, "name": "7aeaa4da3a9704372c7062f72b955155", "is_reserved": 0}, {"is_disabled": 0, "fusion_lon": 0.0, "fusion_lat": 0.0, "lat": 38.91041633333333, "type": "electric_scooter", "lon": -77.0400525, "bike_id": "1264ff6b5508f9a127bb82f272d89517", "rental_uris": {"android": "https://dc.lft.to/lastmile_qr_scan", "ios": "https://dc.lft.to/lastmile_qr_scan"}, "name": "1264ff6b5508f9a127bb82f272d89517", "is_reserved": 0}, {"is_disabled": 0, "fusion_lon": 0.0, "fusion_lat": 0.0, "lat": 38.90683683333334, "type": "electric_scooter", "lon": -76.98001383333333, "bike_id": "84162ab009e383388f829b8607948e05", "rental_uris": {"android": "https://dc.lft.to/lastmile_qr_scan", "ios": "https://dc.lft.to/lastmile_qr_scan"}, "name": "84162ab009e383388f829b8607948e05", "is_reserved": 0}, {"is_disabled": 0, "fusion_lon": 0.0, "fusion_lat": 0.0, "lat": 38.94202666666666, "type": "electric_scooter", "lon": -77.02591166666667, "bike_id": "8cc8a290b0fb6790b388fc10b48d61f4", "rental_uris": {"android": "https://dc.lft.to/lastmile_qr_scan", "ios": "https://dc.lft.to/lastmile_qr_scan"}, "name": "8cc8a290b0fb6790b388fc10b48d61f4", "is_reserved": 0}, {"is_disabled": 0, "fusion_lon": 0.0, "fusion_lat": 0.0, "lat": 38.905186666666665, "type": "electric_scooter", "lon": -77.02504416666666, "bike_id": "d378e7048c593e5288cc2fce3237ad7c", "rental_uris": {"android": "https://dc.lft.to/lastmile_qr_scan", "ios": "https://dc.lft.to/lastmile_qr_scan"}, "name": "d378e7048c593e5288cc2fce3237ad7c", "is_reserved": 0}, {"is_disabled": 0, "fusion_lon": 0.0, "fusion_lat": 0.0, "lat": 38.91561816666667, "type": "electric_scooter", "lon": -77.0102265, "bike_id": "07eecb8bc3250e9ffbaec3c7c586ed33", "rental_uris": {"android": "https://dc.lft.to/lastmile_qr_scan", "ios": "https://dc.lft.to/lastmile_qr_scan"}, "name": "07eecb8bc3250e9ffbaec3c7c586ed33", "is_reserved": 0}, {"is_disabled": 0, "fusion_lon": 0.0, "fusion_lat": 0.0, "lat": 38.91812316666667, "type": "electric_scooter", "lon": -77.032235, "bike_id": "d991e7455ecbcfe8f6c180af074eb0e1", "rental_uris": {"android": "https://dc.lft.to/lastmile_qr_scan", "ios": "https://dc.lft.to/lastmile_qr_scan"}, "name": "d991e7455ecbcfe8f6c180af074eb0e1", "is_reserved": 0}, {"is_disabled": 0, "fusion_lon": 0.0, "fusion_lat": 0.0, "lat": 38.87683033333333, "type": "electric_scooter", "lon": -77.008842, "bike_id": "0c32ffb69312edcc2483e5eafb729964", "rental_uris": {"android": "https://dc.lft.to/lastmile_qr_scan", "ios": "https://dc.lft.to/lastmile_qr_scan"}, "name": "0c32ffb69312edcc2483e5eafb729964", "is_reserved": 0}, {"is_disabled": 0, "fusion_lon": 0.0, "fusion_lat": 0.0, "lat": 38.984957666666666, "type": "electric_bike", "lon": -76.981815, "bike_id": "a8aba2512e579bd187b7ad72ae511136", "rental_uris": {"android": "https://dc.lft.to/lastmile_qr_scan", "ios": "https://dc.lft.to/lastmile_qr_scan"}, "name": "a8aba2512e579bd187b7ad72ae511136", "is_reserved": 0}, {"is_disabled": 0, "fusion_lon": 0.0, "fusion_lat": 0.0, "lat": 38.917088166666666, "type": "electric_scooter", "lon": -77.0011255, "bike_id": "fd51cf73b1eb40e298a2a9990866d579", "rental_uris": {"android": "https://dc.lft.to/lastmile_qr_scan", "ios": "https://dc.lft.to/lastmile_qr_scan"}, "name": "fd51cf73b1eb40e298a2a9990866d579", "is_reserved": 0}, {"is_disabled": 0, "fusion_lon": 0.0, "fusion_lat": 0.0, "lat": 38.90928733333333, "type": "electric_scooter", "lon": -77.0228225, "bike_id": "45ba2cb4860c3d64df3eb9068d88fbb7", "rental_uris": {"android": "https://dc.lft.to/lastmile_qr_scan", "ios": "https://dc.lft.to/lastmile_qr_scan"}, "name": "45ba2cb4860c3d64df3eb9068d88fbb7", "is_reserved": 0}, {"is_disabled": 0, "fusion_lon": 0.0, "fusion_lat": 0.0, "lat": 38.91802416666667, "type": "electric_scooter", "lon": -77.023921, "bike_id": "e6517d624b2ed3cbdf8597faa7a7f853", "rental_uris": {"android": "https://dc.lft.to/lastmile_qr_scan", "ios": "https://dc.lft.to/lastmile_qr_scan"}, "name": "e6517d624b2ed3cbdf8597faa7a7f853", "is_reserved": 0}, {"is_disabled": 0, "fusion_lon": 0.0, "fusion_lat": 0.0, "lat": 38.90489633333333, "type": "electric_scooter", "lon": -76.9733725, "bike_id": "fc7614a53413c4f3881e47f3fa4e4151", "rental_uris": {"android": "https://dc.lft.to/lastmile_qr_scan", "ios": "https://dc.lft.to/lastmile_qr_scan"}, "name": "fc7614a53413c4f3881e47f3fa4e4151", "is_reserved": 0}, {"is_disabled": 0, "fusion_lon": 0.0, "fusion_lat": 0.0, "lat": 38.92381, "type": "electric_scooter", "lon": -77.02755383333333, "bike_id": "aa68ceb844ad49598931c1310c1e7dc1", "rental_uris": {"android": "https://dc.lft.to/lastmile_qr_scan", "ios": "https://dc.lft.to/lastmile_qr_scan"}, "name": "aa68ceb844ad49598931c1310c1e7dc1", "is_reserved": 0}, {"is_disabled": 0, "fusion_lon": 0.0, "fusion_lat": 0.0, "lat": 38.8835055, "type": "electric_scooter", "lon": -76.92788166666666, "bike_id": "e65e3584c7c19172b4a5884d333c736a", "rental_uris": {"android": "https://dc.lft.to/lastmile_qr_scan", "ios": "https://dc.lft.to/lastmile_qr_scan"}, "name": "e65e3584c7c19172b4a5884d333c736a", "is_reserved": 0}, {"is_disabled": 0, "fusion_lon": 0.0, "fusion_lat": 0.0, "lat": 38.831744, "type": "electric_bike", "lon": -76.997553, "bike_id": "dc75c17f099fc8e00cb50ec28dfee2b3", "rental_uris": {"android": "https://dc.lft.to/lastmile_qr_scan", "ios": "https://dc.lft.to/lastmile_qr_scan"}, "name": "dc75c17f099fc8e00cb50ec28dfee2b3", "is_reserved": 0}, {"is_disabled": 0, "fusion_lon": 0.0, "fusion_lat": 0.0, "lat": 38.909506666666665, "type": "electric_scooter", "lon": -77.01522516666667, "bike_id": "9eb9d5fdc7d731b576be2934f483a2e0", "rental_uris": {"android": "https://dc.lft.to/lastmile_qr_scan", "ios": "https://dc.lft.to/lastmile_qr_scan"}, "name": "9eb9d5fdc7d731b576be2934f483a2e0", "is_reserved": 0}, {"is_disabled": 0, "fusion_lon": 0.0, "fusion_lat": 0.0, "lat": 38.8985455, "type": "electric_bike", "lon": -76.93189966666667, "bike_id": "4fb16f40934e36b851c2d749b448c2c4", "rental_uris": {"android": "https://dc.lft.to/lastmile_qr_scan", "ios": "https://dc.lft.to/lastmile_qr_scan"}, "name": "4fb16f40934e36b851c2d749b448c2c4", "is_reserved": 0}, {"is_disabled": 0, "fusion_lon": 0.0, "fusion_lat": 0.0, "lat": 38.879355, "type": "electric_scooter", "lon": -77.00560083333333, "bike_id": "7b2138f2f001b3de32070e650e1bc177", "rental_uris": {"android": "https://dc.lft.to/lastmile_qr_scan", "ios": "https://dc.lft.to/lastmile_qr_scan"}, "name": "7b2138f2f001b3de32070e650e1bc177", "is_reserved": 0}, {"is_disabled": 0, "fusion_lon": 0.0, "fusion_lat": 0.0, "lat": 38.892648666666666, "type": "electric_scooter", "lon": -76.94158283333333, "bike_id": "66a274ca485c28ddadbab58f5b579b2b", "rental_uris": {"android": "https://dc.lft.to/lastmile_qr_scan", "ios": "https://dc.lft.to/lastmile_qr_scan"}, "name": "66a274ca485c28ddadbab58f5b579b2b", "is_reserved": 0}, {"is_disabled": 0, "fusion_lon": 0.0, "fusion_lat": 0.0, "lat": 38.908227, "type": "electric_scooter", "lon": -77.0333275, "bike_id": "82900d71b588c80b27de7dd3835f6e07", "rental_uris": {"android": "https://dc.lft.to/lastmile_qr_scan", "ios": "https://dc.lft.to/lastmile_qr_scan"}, "name": "82900d71b588c80b27de7dd3835f6e07", "is_reserved": 0}, {"is_disabled": 0, "fusion_lon": 0.0, "fusion_lat": 0.0, "lat": 38.906585166666666, "type": "electric_scooter", "lon": -77.02520316666667, "bike_id": "e7e7ab3de5f49d56e9330a8cf92aeb75", "rental_uris": {"android": "https://dc.lft.to/lastmile_qr_scan", "ios": "https://dc.lft.to/lastmile_qr_scan"}, "name": "e7e7ab3de5f49d56e9330a8cf92aeb75", "is_reserved": 0}, {"is_disabled": 0, "fusion_lon": 0.0, "fusion_lat": 0.0, "lat": 38.913853333333336, "type": "electric_scooter", "lon": -77.029705, "bike_id": "273ed4307e2e01654777ba89fa00c712", "rental_uris": {"android": "https://dc.lft.to/lastmile_qr_scan", "ios": "https://dc.lft.to/lastmile_qr_scan"}, "name": "273ed4307e2e01654777ba89fa00c712", "is_reserved": 0}, {"is_disabled": 0, "fusion_lon": 0.0, "fusion_lat": 0.0, "lat": 38.92672666666667, "type": "electric_scooter", "lon": -77.04300833333333, "bike_id": "2410660f4b3963b53fba83579565d3b0", "rental_uris": {"android": "https://dc.lft.to/lastmile_qr_scan", "ios": "https://dc.lft.to/lastmile_qr_scan"}, "name": "2410660f4b3963b53fba83579565d3b0", "is_reserved": 0}, {"is_disabled": 0, "fusion_lon": 0.0, "fusion_lat": 0.0, "lat": 38.90571516666667, "type": "electric_scooter", "lon": -77.02465866666667, "bike_id": "e1a9362d6185deefc05074f74a733eb4", "rental_uris": {"android": "https://dc.lft.to/lastmile_qr_scan", "ios": "https://dc.lft.to/lastmile_qr_scan"}, "name": "e1a9362d6185deefc05074f74a733eb4", "is_reserved": 0}, {"is_disabled": 0, "fusion_lon": 0.0, "fusion_lat": 0.0, "lat": 38.9285115, "type": "electric_scooter", "lon": -77.05626683333334, "bike_id": "8f6540e8f262c3cfae75d47d7e693723", "rental_uris": {"android": "https://dc.lft.to/lastmile_qr_scan", "ios": "https://dc.lft.to/lastmile_qr_scan"}, "name": "8f6540e8f262c3cfae75d47d7e693723", "is_reserved": 0}, {"is_disabled": 0, "fusion_lon": 0.0, "fusion_lat": 0.0, "lat": 38.91860233333333, "type": "electric_bike", "lon": -76.960974, "bike_id": "d39901c1a5836ceee2a274b5c5e28eec", "rental_uris": {"android": "https://dc.lft.to/lastmile_qr_scan", "ios": "https://dc.lft.to/lastmile_qr_scan"}, "name": "d39901c1a5836ceee2a274b5c5e28eec", "is_reserved": 0}, {"is_disabled": 0, "fusion_lon": 0.0, "fusion_lat": 0.0, "lat": 38.9169465, "type": "electric_scooter", "lon": -77.04305116666667, "bike_id": "fac05f1ebf76ab57555e3413bf392e36", "rental_uris": {"android": "https://dc.lft.to/lastmile_qr_scan", "ios": "https://dc.lft.to/lastmile_qr_scan"}, "name": "fac05f1ebf76ab57555e3413bf392e36", "is_reserved": 0}, {"is_disabled": 0, "fusion_lon": 0.0, "fusion_lat": 0.0, "lat": 38.9455045, "type": "electric_scooter", "lon": -77.04249866666666, "bike_id": "d28e050b3d4198daae93e2e8a1fc18e0", "rental_uris": {"android": "https://dc.lft.to/lastmile_qr_scan", "ios": "https://dc.lft.to/lastmile_qr_scan"}, "name": "d28e050b3d4198daae93e2e8a1fc18e0", "is_reserved": 0}, {"is_disabled": 0, "fusion_lon": 0.0, "fusion_lat": 0.0, "lat": 38.91796766666667, "type": "electric_scooter", "lon": -77.03459566666666, "bike_id": "3f74aa26998ce7658a2659b12a90ef74", "rental_uris": {"android": "https://dc.lft.to/lastmile_qr_scan", "ios": "https://dc.lft.to/lastmile_qr_scan"}, "name": "3f74aa26998ce7658a2659b12a90ef74", "is_reserved": 0}, {"is_disabled": 0, "fusion_lon": 0.0, "fusion_lat": 0.0, "lat": 38.91090333333333, "type": "electric_bike", "lon": -77.00500566666666, "bike_id": "9e5eb6ddc922393dd10745a6600fd985", "rental_uris": {"android": "https://dc.lft.to/lastmile_qr_scan", "ios": "https://dc.lft.to/lastmile_qr_scan"}, "name": "9e5eb6ddc922393dd10745a6600fd985", "is_reserved": 0}, {"is_disabled": 0, "fusion_lon": 0.0, "fusion_lat": 0.0, "lat": 38.90488283333333, "type": "electric_scooter", "lon": -77.02724466666666, "bike_id": "f75802ae129b6c0b7b822fc78d896e57", "rental_uris": {"android": "https://dc.lft.to/lastmile_qr_scan", "ios": "https://dc.lft.to/lastmile_qr_scan"}, "name": "f75802ae129b6c0b7b822fc78d896e57", "is_reserved": 0}, {"is_disabled": 0, "fusion_lon": 0.0, "fusion_lat": 0.0, "lat": 38.92954266666667, "type": "electric_scooter", "lon": -77.023384, "bike_id": "c979855411a1d587320074bba99ff540", "rental_uris": {"android": "https://dc.lft.to/lastmile_qr_scan", "ios": "https://dc.lft.to/lastmile_qr_scan"}, "name": "c979855411a1d587320074bba99ff540", "is_reserved": 0}, {"is_disabled": 0, "fusion_lon": 0.0, "fusion_lat": 0.0, "lat": 38.927495666666665, "type": "electric_scooter", "lon": -77.02529933333334, "bike_id": "fcd887ac2524a0b6350eb28d91cb73be", "rental_uris": {"android": "https://dc.lft.to/lastmile_qr_scan", "ios": "https://dc.lft.to/lastmile_qr_scan"}, "name": "fcd887ac2524a0b6350eb28d91cb73be", "is_reserved": 0}, {"is_disabled": 0, "fusion_lon": 0.0, "fusion_lat": 0.0, "lat": 38.876781666666666, "type": "electric_scooter", "lon": -77.01788883333333, "bike_id": "3ab8620650b0e3c0abda1b84effccaa1", "rental_uris": {"android": "https://dc.lft.to/lastmile_qr_scan", "ios": "https://dc.lft.to/lastmile_qr_scan"}, "name": "3ab8620650b0e3c0abda1b84effccaa1", "is_reserved": 0}, {"is_disabled": 0, "fusion_lon": 0.0, "fusion_lat": 0.0, "lat": 38.9150035, "type": "electric_scooter", "lon": -76.9837455, "bike_id": "9d5c9b1a2cd8471509f7f77f081f44b6", "rental_uris": {"android": "https://dc.lft.to/lastmile_qr_scan", "ios": "https://dc.lft.to/lastmile_qr_scan"}, "name": "9d5c9b1a2cd8471509f7f77f081f44b6", "is_reserved": 0}, {"is_disabled": 0, "fusion_lon": 0.0, "fusion_lat": 0.0, "lat": 38.87084016666667, "type": "electric_bike", "lon": -77.0120555, "bike_id": "13fb1dff0e86581d55805cd4399d7b7c", "rental_uris": {"android": "https://dc.lft.to/lastmile_qr_scan", "ios": "https://dc.lft.to/lastmile_qr_scan"}, "name": "13fb1dff0e86581d55805cd4399d7b7c", "is_reserved": 0}, {"is_disabled": 0, "fusion_lon": 0.0, "fusion_lat": 0.0, "lat": 38.906818333333334, "type": "electric_scooter", "lon": -77.02713466666667, "bike_id": "e9ad6f7fa23890d056fd55c0a89988dd", "rental_uris": {"android": "https://dc.lft.to/lastmile_qr_scan", "ios": "https://dc.lft.to/lastmile_qr_scan"}, "name": "e9ad6f7fa23890d056fd55c0a89988dd", "is_reserved": 0}, {"is_disabled": 0, "fusion_lon": 0.0, "fusion_lat": 0.0, "lat": 38.906254833333335, "type": "electric_scooter", "lon": -77.02808833333333, "bike_id": "3565a78bff7f3cc5c01512676637c530", "rental_uris": {"android": "https://dc.lft.to/lastmile_qr_scan", "ios": "https://dc.lft.to/lastmile_qr_scan"}, "name": "3565a78bff7f3cc5c01512676637c530", "is_reserved": 0}, {"is_disabled": 0, "fusion_lon": 0.0, "fusion_lat": 0.0, "lat": 38.920822333333334, "type": "electric_bike", "lon": -77.0033715, "bike_id": "652c0b57560a3b3f188e704144a3c138", "rental_uris": {"android": "https://dc.lft.to/lastmile_qr_scan", "ios": "https://dc.lft.to/lastmile_qr_scan"}, "name": "652c0b57560a3b3f188e704144a3c138", "is_reserved": 0}, {"is_disabled": 0, "fusion_lon": 0.0, "fusion_lat": 0.0, "lat": 38.827305333333335, "type": "electric_bike", "lon": -77.00865216666666, "bike_id": "3cf6361d0b579a2646c7b6de5ceb9eb4", "rental_uris": {"android": "https://dc.lft.to/lastmile_qr_scan", "ios": "https://dc.lft.to/lastmile_qr_scan"}, "name": "3cf6361d0b579a2646c7b6de5ceb9eb4", "is_reserved": 0}, {"is_disabled": 0, "fusion_lon": 0.0, "fusion_lat": 0.0, "lat": 38.893677833333335, "type": "electric_scooter", "lon": -77.02263866666667, "bike_id": "2274197d149111e775791c4094ecd92c", "rental_uris": {"android": "https://dc.lft.to/lastmile_qr_scan", "ios": "https://dc.lft.to/lastmile_qr_scan"}, "name": "2274197d149111e775791c4094ecd92c", "is_reserved": 0}, {"is_disabled": 0, "fusion_lon": 0.0, "fusion_lat": 0.0, "lat": 38.907331166666665, "type": "electric_scooter", "lon": -77.0306645, "bike_id": "44078a4b2a4b41ff111f929bd589c2ed", "rental_uris": {"android": "https://dc.lft.to/lastmile_qr_scan", "ios": "https://dc.lft.to/lastmile_qr_scan"}, "name": "44078a4b2a4b41ff111f929bd589c2ed", "is_reserved": 0}, {"is_disabled": 0, "fusion_lon": 0.0, "fusion_lat": 0.0, "lat": 38.90556983333333, "type": "electric_scooter", "lon": -77.03004766666666, "bike_id": "c5590a6d023a809dd66e5a2a63abb125", "rental_uris": {"android": "https://dc.lft.to/lastmile_qr_scan", "ios": "https://dc.lft.to/lastmile_qr_scan"}, "name": "c5590a6d023a809dd66e5a2a63abb125", "is_reserved": 0}, {"is_disabled": 0, "fusion_lon": 0.0, "fusion_lat": 0.0, "lat": 38.90579283333334, "type": "electric_scooter", "lon": -77.00575266666667, "bike_id": "13c7bc230369da6fbf87f002f529b84e", "rental_uris": {"android": "https://dc.lft.to/lastmile_qr_scan", "ios": "https://dc.lft.to/lastmile_qr_scan"}, "name": "13c7bc230369da6fbf87f002f529b84e", "is_reserved": 0}, {"is_disabled": 0, "fusion_lon": 0.0, "fusion_lat": 0.0, "lat": 38.88865583333333, "type": "electric_scooter", "lon": -76.97739083333333, "bike_id": "f66dada28a40fbfb01f4cb282ccc0bbd", "rental_uris": {"android": "https://dc.lft.to/lastmile_qr_scan", "ios": "https://dc.lft.to/lastmile_qr_scan"}, "name": "f66dada28a40fbfb01f4cb282ccc0bbd", "is_reserved": 0}, {"is_disabled": 0, "fusion_lon": 0.0, "fusion_lat": 0.0, "lat": 38.931313833333334, "type": "electric_scooter", "lon": -77.05706033333334, "bike_id": "f12504c50df0067fd97faa4df7378f60", "rental_uris": {"android": "https://dc.lft.to/lastmile_qr_scan", "ios": "https://dc.lft.to/lastmile_qr_scan"}, "name": "f12504c50df0067fd97faa4df7378f60", "is_reserved": 0}, {"is_disabled": 0, "fusion_lon": 0.0, "fusion_lat": 0.0, "lat": 38.935255, "type": "electric_scooter", "lon": -77.02379233333333, "bike_id": "f9ecf82ce0c1a9ca4839ba13d7998863", "rental_uris": {"android": "https://dc.lft.to/lastmile_qr_scan", "ios": "https://dc.lft.to/lastmile_qr_scan"}, "name": "f9ecf82ce0c1a9ca4839ba13d7998863", "is_reserved": 0}, {"is_disabled": 0, "fusion_lon": 0.0, "fusion_lat": 0.0, "lat": 38.89661683333333, "type": "electric_scooter", "lon": -77.04350233333334, "bike_id": "ec1eb7545b4acfc90cd0ee336f65dd87", "rental_uris": {"android": "https://dc.lft.to/lastmile_qr_scan", "ios": "https://dc.lft.to/lastmile_qr_scan"}, "name": "ec1eb7545b4acfc90cd0ee336f65dd87", "is_reserved": 0}, {"is_disabled": 0, "fusion_lon": 0.0, "fusion_lat": 0.0, "lat": 38.91195916666667, "type": "electric_scooter", "lon": -77.01213733333333, "bike_id": "89830cc5e8cb9cbda95ce2a7d053af6b", "rental_uris": {"android": "https://dc.lft.to/lastmile_qr_scan", "ios": "https://dc.lft.to/lastmile_qr_scan"}, "name": "89830cc5e8cb9cbda95ce2a7d053af6b", "is_reserved": 0}, {"is_disabled": 0, "fusion_lon": 0.0, "fusion_lat": 0.0, "lat": 38.905549, "type": "electric_scooter", "lon": -77.05004033333333, "bike_id": "07380304f0c312968ced8f5b815da421", "rental_uris": {"android": "https://dc.lft.to/lastmile_qr_scan", "ios": "https://dc.lft.to/lastmile_qr_scan"}, "name": "07380304f0c312968ced8f5b815da421", "is_reserved": 0}, {"is_disabled": 0, "fusion_lon": 0.0, "fusion_lat": 0.0, "lat": 38.900240333333336, "type": "electric_scooter", "lon": -77.03382216666667, "bike_id": "0eaa1baa0eaea437ebb7acac6a6334bd", "rental_uris": {"android": "https://dc.lft.to/lastmile_qr_scan", "ios": "https://dc.lft.to/lastmile_qr_scan"}, "name": "0eaa1baa0eaea437ebb7acac6a6334bd", "is_reserved": 0}, {"is_disabled": 0, "fusion_lon": 0.0, "fusion_lat": 0.0, "lat": 38.924414166666665, "type": "electric_bike", "lon": -76.9075815, "bike_id": "ba56672faa1409371fcbafb856a71370", "rental_uris": {"android": "https://dc.lft.to/lastmile_qr_scan", "ios": "https://dc.lft.to/lastmile_qr_scan"}, "name": "ba56672faa1409371fcbafb856a71370", "is_reserved": 0}, {"is_disabled": 0, "fusion_lon": 0.0, "fusion_lat": 0.0, "lat": 38.899591666666666, "type": "electric_scooter", "lon": -77.00212166666667, "bike_id": "6a0a5ac7f9b1eb4004aa28d36c04228a", "rental_uris": {"android": "https://dc.lft.to/lastmile_qr_scan", "ios": "https://dc.lft.to/lastmile_qr_scan"}, "name": "6a0a5ac7f9b1eb4004aa28d36c04228a", "is_reserved": 0}, {"is_disabled": 0, "fusion_lon": 0.0, "fusion_lat": 0.0, "lat": 38.8967665, "type": "electric_bike", "lon": -76.98166416666666, "bike_id": "d9c18cc950671bf4bee6875656b8c27d", "rental_uris": {"android": "https://dc.lft.to/lastmile_qr_scan", "ios": "https://dc.lft.to/lastmile_qr_scan"}, "name": "d9c18cc950671bf4bee6875656b8c27d", "is_reserved": 0}, {"is_disabled": 0, "fusion_lon": 0.0, "fusion_lat": 0.0, "lat": 38.904298833333335, "type": "electric_scooter", "lon": -77.06890783333333, "bike_id": "a87d9cd1576b82c1772a95136b529f00", "rental_uris": {"android": "https://dc.lft.to/lastmile_qr_scan", "ios": "https://dc.lft.to/lastmile_qr_scan"}, "name": "a87d9cd1576b82c1772a95136b529f00", "is_reserved": 0}, {"is_disabled": 0, "fusion_lon": 0.0, "fusion_lat": 0.0, "lat": 38.896914833333334, "type": "electric_scooter", "lon": -77.01138616666667, "bike_id": "abf99b02400e7982224fc3e104ef1d67", "rental_uris": {"android": "https://dc.lft.to/lastmile_qr_scan", "ios": "https://dc.lft.to/lastmile_qr_scan"}, "name": "abf99b02400e7982224fc3e104ef1d67", "is_reserved": 0}, {"is_disabled": 0, "fusion_lon": 0.0, "fusion_lat": 0.0, "lat": 38.871958166666666, "type": "electric_scooter", "lon": -76.97823416666667, "bike_id": "e2d5215b428afc85a64e485b582519cb", "rental_uris": {"android": "https://dc.lft.to/lastmile_qr_scan", "ios": "https://dc.lft.to/lastmile_qr_scan"}, "name": "e2d5215b428afc85a64e485b582519cb", "is_reserved": 0}, {"is_disabled": 0, "fusion_lon": 0.0, "fusion_lat": 0.0, "lat": 38.905863, "type": "electric_scooter", "lon": -77.06917233333333, "bike_id": "b6476b0f2e372c2e6eb6ced8735b7bec", "rental_uris": {"android": "https://dc.lft.to/lastmile_qr_scan", "ios": "https://dc.lft.to/lastmile_qr_scan"}, "name": "b6476b0f2e372c2e6eb6ced8735b7bec", "is_reserved": 0}, {"is_disabled": 0, "fusion_lon": 0.0, "fusion_lat": 0.0, "lat": 38.96146816666667, "type": "electric_scooter", "lon": -77.02815533333333, "bike_id": "4f2477b4c8a6506c64352dde4962f5b4", "rental_uris": {"android": "https://dc.lft.to/lastmile_qr_scan", "ios": "https://dc.lft.to/lastmile_qr_scan"}, "name": "4f2477b4c8a6506c64352dde4962f5b4", "is_reserved": 0}, {"is_disabled": 0, "fusion_lon": 0.0, "fusion_lat": 0.0, "lat": 38.9079305, "type": "electric_scooter", "lon": -77.00155333333333, "bike_id": "7dcfdfda86920c5dac03fbb2618aceaf", "rental_uris": {"android": "https://dc.lft.to/lastmile_qr_scan", "ios": "https://dc.lft.to/lastmile_qr_scan"}, "name": "7dcfdfda86920c5dac03fbb2618aceaf", "is_reserved": 0}, {"is_disabled": 0, "fusion_lon": 0.0, "fusion_lat": 0.0, "lat": 38.889161, "type": "electric_scooter", "lon": -76.98008183333333, "bike_id": "ef6a0e5885e4025b5ac6ba90059fb4f6", "rental_uris": {"android": "https://dc.lft.to/lastmile_qr_scan", "ios": "https://dc.lft.to/lastmile_qr_scan"}, "name": "ef6a0e5885e4025b5ac6ba90059fb4f6", "is_reserved": 0}, {"is_disabled": 0, "fusion_lon": 0.0, "fusion_lat": 0.0, "lat": 38.8775865, "type": "electric_bike", "lon": -76.97993933333333, "bike_id": "5bce990b87b8d8e30257cef52da856a1", "rental_uris": {"android": "https://dc.lft.to/lastmile_qr_scan", "ios": "https://dc.lft.to/lastmile_qr_scan"}, "name": "5bce990b87b8d8e30257cef52da856a1", "is_reserved": 0}, {"is_disabled": 0, "fusion_lon": 0.0, "fusion_lat": 0.0, "lat": 38.9211305, "type": "electric_scooter", "lon": -77.01766166666667, "bike_id": "48e23515c4bb0df166273ed172a8dc6d", "rental_uris": {"android": "https://dc.lft.to/lastmile_qr_scan", "ios": "https://dc.lft.to/lastmile_qr_scan"}, "name": "48e23515c4bb0df166273ed172a8dc6d", "is_reserved": 0}, {"is_disabled": 0, "fusion_lon": 0.0, "fusion_lat": 0.0, "lat": 38.925778, "type": "electric_scooter", "lon": -77.080608, "bike_id": "c44d82c9727abf5484dacaa73e150cc4", "rental_uris": {"android": "https://dc.lft.to/lastmile_qr_scan", "ios": "https://dc.lft.to/lastmile_qr_scan"}, "name": "c44d82c9727abf5484dacaa73e150cc4", "is_reserved": 0}, {"is_disabled": 0, "fusion_lon": 0.0, "fusion_lat": 0.0, "lat": 38.939699, "type": "electric_bike", "lon": -77.360946, "bike_id": "2e8d5a66495812a624eb2d5d60618a0b", "rental_uris": {"android": "https://dc.lft.to/lastmile_qr_scan", "ios": "https://dc.lft.to/lastmile_qr_scan"}, "name": "2e8d5a66495812a624eb2d5d60618a0b", "is_reserved": 0}, {"is_disabled": 0, "fusion_lon": 0.0, "fusion_lat": 0.0, "lat": 38.922922166666666, "type": "electric_scooter", "lon": -77.0446355, "bike_id": "96d3ce7d7ed727ea678c3bc0880285ef", "rental_uris": {"android": "https://dc.lft.to/lastmile_qr_scan", "ios": "https://dc.lft.to/lastmile_qr_scan"}, "name": "96d3ce7d7ed727ea678c3bc0880285ef", "is_reserved": 0}, {"is_disabled": 0, "fusion_lon": 0.0, "fusion_lat": 0.0, "lat": 38.8532395, "type": "electric_bike", "lon": -77.0533235, "bike_id": "f20c11c5981b06e4ce91ffd1a132b734", "rental_uris": {"android": "https://dc.lft.to/lastmile_qr_scan", "ios": "https://dc.lft.to/lastmile_qr_scan"}, "name": "f20c11c5981b06e4ce91ffd1a132b734", "is_reserved": 0}, {"is_disabled": 0, "fusion_lon": 0.0, "fusion_lat": 0.0, "lat": 38.9246645, "type": "electric_scooter", "lon": -77.078641, "bike_id": "8b3748809fbdd10784e4f8eba4d62d25", "rental_uris": {"android": "https://dc.lft.to/lastmile_qr_scan", "ios": "https://dc.lft.to/lastmile_qr_scan"}, "name": "8b3748809fbdd10784e4f8eba4d62d25", "is_reserved": 0}, {"is_disabled": 0, "fusion_lon": 0.0, "fusion_lat": 0.0, "lat": 38.905775, "type": "electric_scooter", "lon": -77.0559005, "bike_id": "7365d09a2da7c3646799d0a5dd8d5445", "rental_uris": {"android": "https://dc.lft.to/lastmile_qr_scan", "ios": "https://dc.lft.to/lastmile_qr_scan"}, "name": "7365d09a2da7c3646799d0a5dd8d5445", "is_reserved": 0}, {"is_disabled": 0, "fusion_lon": 0.0, "fusion_lat": 0.0, "lat": 38.94075433333333, "type": "electric_scooter", "lon": -77.02881616666667, "bike_id": "41c8a0cdb11518ed50c95b12d13f4cbc", "rental_uris": {"android": "https://dc.lft.to/lastmile_qr_scan", "ios": "https://dc.lft.to/lastmile_qr_scan"}, "name": "41c8a0cdb11518ed50c95b12d13f4cbc", "is_reserved": 0}, {"is_disabled": 0, "fusion_lon": 0.0, "fusion_lat": 0.0, "lat": 38.902898666666665, "type": "electric_scooter", "lon": -77.0486945, "bike_id": "23cdbccc3bb2dad4a294a722e68b12e1", "rental_uris": {"android": "https://dc.lft.to/lastmile_qr_scan", "ios": "https://dc.lft.to/lastmile_qr_scan"}, "name": "23cdbccc3bb2dad4a294a722e68b12e1", "is_reserved": 0}, {"is_disabled": 0, "fusion_lon": 0.0, "fusion_lat": 0.0, "lat": 38.914634, "type": "electric_scooter", "lon": -76.984465, "bike_id": "63671e655da766996384d9cd595cd8bf", "rental_uris": {"android": "https://dc.lft.to/lastmile_qr_scan", "ios": "https://dc.lft.to/lastmile_qr_scan"}, "name": "63671e655da766996384d9cd595cd8bf", "is_reserved": 0}, {"is_disabled": 0, "fusion_lon": 0.0, "fusion_lat": 0.0, "lat": 38.895307, "type": "electric_scooter", "lon": -77.04849383333334, "bike_id": "d66a4796d06db3e7c816f87085c6ed2c", "rental_uris": {"android": "https://dc.lft.to/lastmile_qr_scan", "ios": "https://dc.lft.to/lastmile_qr_scan"}, "name": "d66a4796d06db3e7c816f87085c6ed2c", "is_reserved": 0}, {"is_disabled": 0, "fusion_lon": 0.0, "fusion_lat": 0.0, "lat": 38.90520383333333, "type": "electric_scooter", "lon": -77.02977516666667, "bike_id": "5ecaf9c10613a4ce8967a8eec202634b", "rental_uris": {"android": "https://dc.lft.to/lastmile_qr_scan", "ios": "https://dc.lft.to/lastmile_qr_scan"}, "name": "5ecaf9c10613a4ce8967a8eec202634b", "is_reserved": 0}, {"is_disabled": 0, "fusion_lon": 0.0, "fusion_lat": 0.0, "lat": 38.884721666666664, "type": "electric_scooter", "lon": -76.9522465, "bike_id": "5917b98662be32062b7570e387fddc28", "rental_uris": {"android": "https://dc.lft.to/lastmile_qr_scan", "ios": "https://dc.lft.to/lastmile_qr_scan"}, "name": "5917b98662be32062b7570e387fddc28", "is_reserved": 0}, {"is_disabled": 0, "fusion_lon": 0.0, "fusion_lat": 0.0, "lat": 38.947088666666666, "type": "electric_scooter", "lon": -77.0193405, "bike_id": "2994b9e47edf8d99a404c4ea67c62ce1", "rental_uris": {"android": "https://dc.lft.to/lastmile_qr_scan", "ios": "https://dc.lft.to/lastmile_qr_scan"}, "name": "2994b9e47edf8d99a404c4ea67c62ce1", "is_reserved": 0}, {"is_disabled": 0, "fusion_lon": 0.0, "fusion_lat": 0.0, "lat": 38.926758166666666, "type": "electric_scooter", "lon": -77.10308116666667, "bike_id": "75d5b3bf6a66e98d347f07c0bf21be18", "rental_uris": {"android": "https://dc.lft.to/lastmile_qr_scan", "ios": "https://dc.lft.to/lastmile_qr_scan"}, "name": "75d5b3bf6a66e98d347f07c0bf21be18", "is_reserved": 0}, {"is_disabled": 0, "fusion_lon": 0.0, "fusion_lat": 0.0, "lat": 38.9062015, "type": "electric_scooter", "lon": -77.0572245, "bike_id": "319b693302a0a3763ef347f8e4ea197c", "rental_uris": {"android": "https://dc.lft.to/lastmile_qr_scan", "ios": "https://dc.lft.to/lastmile_qr_scan"}, "name": "319b693302a0a3763ef347f8e4ea197c", "is_reserved": 0}, {"is_disabled": 0, "fusion_lon": 0.0, "fusion_lat": 0.0, "lat": 38.919638166666665, "type": "electric_scooter", "lon": -77.02714216666666, "bike_id": "85d793d2135432208ebcb2daeaf7486a", "rental_uris": {"android": "https://dc.lft.to/lastmile_qr_scan", "ios": "https://dc.lft.to/lastmile_qr_scan"}, "name": "85d793d2135432208ebcb2daeaf7486a", "is_reserved": 0}, {"is_disabled": 0, "fusion_lon": 0.0, "fusion_lat": 0.0, "lat": 38.921739333333335, "type": "electric_scooter", "lon": -77.05523616666666, "bike_id": "ed820c5ee6d085f160d9e97b35e672ed", "rental_uris": {"android": "https://dc.lft.to/lastmile_qr_scan", "ios": "https://dc.lft.to/lastmile_qr_scan"}, "name": "ed820c5ee6d085f160d9e97b35e672ed", "is_reserved": 0}, {"is_disabled": 0, "fusion_lon": 0.0, "fusion_lat": 0.0, "lat": 38.923915, "type": "electric_scooter", "lon": -77.0296705, "bike_id": "f5217966515c0018790bc291331d92c8", "rental_uris": {"android": "https://dc.lft.to/lastmile_qr_scan", "ios": "https://dc.lft.to/lastmile_qr_scan"}, "name": "f5217966515c0018790bc291331d92c8", "is_reserved": 0}, {"is_disabled": 0, "fusion_lon": 0.0, "fusion_lat": 0.0, "lat": 38.92234533333333, "type": "electric_scooter", "lon": -76.975311, "bike_id": "a89ce070dbcf9c3a1d23c240efa6c24c", "rental_uris": {"android": "https://dc.lft.to/lastmile_qr_scan", "ios": "https://dc.lft.to/lastmile_qr_scan"}, "name": "a89ce070dbcf9c3a1d23c240efa6c24c", "is_reserved": 0}, {"is_disabled": 0, "fusion_lon": 0.0, "fusion_lat": 0.0, "lat": 38.9108055, "type": "electric_scooter", "lon": -77.0150925, "bike_id": "3dd6e96219f772fca04b68637813fb88", "rental_uris": {"android": "https://dc.lft.to/lastmile_qr_scan", "ios": "https://dc.lft.to/lastmile_qr_scan"}, "name": "3dd6e96219f772fca04b68637813fb88", "is_reserved": 0}, {"is_disabled": 0, "fusion_lon": 0.0, "fusion_lat": 0.0, "lat": 38.912265, "type": "electric_scooter", "lon": -76.98463766666667, "bike_id": "28a4921730df3c5380b633b9b20f207e", "rental_uris": {"android": "https://dc.lft.to/lastmile_qr_scan", "ios": "https://dc.lft.to/lastmile_qr_scan"}, "name": "28a4921730df3c5380b633b9b20f207e", "is_reserved": 0}, {"is_disabled": 0, "fusion_lon": 0.0, "fusion_lat": 0.0, "lat": 38.924641666666666, "type": "electric_scooter", "lon": -77.02155533333334, "bike_id": "dc10c24937950e26909dfecf23e95640", "rental_uris": {"android": "https://dc.lft.to/lastmile_qr_scan", "ios": "https://dc.lft.to/lastmile_qr_scan"}, "name": "dc10c24937950e26909dfecf23e95640", "is_reserved": 0}, {"is_disabled": 0, "fusion_lon": 0.0, "fusion_lat": 0.0, "lat": 38.90862766666667, "type": "electric_scooter", "lon": -77.04622016666667, "bike_id": "5027a4946e351d8ad462cd8e5718a9fc", "rental_uris": {"android": "https://dc.lft.to/lastmile_qr_scan", "ios": "https://dc.lft.to/lastmile_qr_scan"}, "name": "5027a4946e351d8ad462cd8e5718a9fc", "is_reserved": 0}, {"is_disabled": 0, "fusion_lon": 0.0, "fusion_lat": 0.0, "lat": 38.918051166666665, "type": "electric_scooter", "lon": -77.03447016666667, "bike_id": "df156b567e49382134c7e1029d9030c9", "rental_uris": {"android": "https://dc.lft.to/lastmile_qr_scan", "ios": "https://dc.lft.to/lastmile_qr_scan"}, "name": "df156b567e49382134c7e1029d9030c9", "is_reserved": 0}, {"is_disabled": 0, "fusion_lon": 0.0, "fusion_lat": 0.0, "lat": 38.91347, "type": "electric_scooter", "lon": -77.042389, "bike_id": "5cdeb104ce4689b201b1e51af838a380", "rental_uris": {"android": "https://dc.lft.to/lastmile_qr_scan", "ios": "https://dc.lft.to/lastmile_qr_scan"}, "name": "5cdeb104ce4689b201b1e51af838a380", "is_reserved": 0}, {"is_disabled": 0, "fusion_lon": 0.0, "fusion_lat": 0.0, "lat": 38.88869316666667, "type": "electric_scooter", "lon": -77.04002516666667, "bike_id": "f31f474a444001d421b55ad25d9d295f", "rental_uris": {"android": "https://dc.lft.to/lastmile_qr_scan", "ios": "https://dc.lft.to/lastmile_qr_scan"}, "name": "f31f474a444001d421b55ad25d9d295f", "is_reserved": 0}, {"is_disabled": 0, "fusion_lon": 0.0, "fusion_lat": 0.0, "lat": 38.928595333333334, "type": "electric_scooter", "lon": -77.014198, "bike_id": "eac1caed5de9d6801ab9c59331194270", "rental_uris": {"android": "https://dc.lft.to/lastmile_qr_scan", "ios": "https://dc.lft.to/lastmile_qr_scan"}, "name": "eac1caed5de9d6801ab9c59331194270", "is_reserved": 0}, {"is_disabled": 0, "fusion_lon": 0.0, "fusion_lat": 0.0, "lat": 38.918428, "type": "electric_scooter", "lon": -77.072146, "bike_id": "02a12cd1c6d1449fe9d544a62aa09e8c", "rental_uris": {"android": "https://dc.lft.to/lastmile_qr_scan", "ios": "https://dc.lft.to/lastmile_qr_scan"}, "name": "02a12cd1c6d1449fe9d544a62aa09e8c", "is_reserved": 0}, {"is_disabled": 0, "fusion_lon": 0.0, "fusion_lat": 0.0, "lat": 38.90604116666667, "type": "electric_scooter", "lon": -77.05711, "bike_id": "1485da4759cf36e8e610f5680c995aae", "rental_uris": {"android": "https://dc.lft.to/lastmile_qr_scan", "ios": "https://dc.lft.to/lastmile_qr_scan"}, "name": "1485da4759cf36e8e610f5680c995aae", "is_reserved": 0}, {"is_disabled": 0, "fusion_lon": 0.0, "fusion_lat": 0.0, "lat": 38.92460283333333, "type": "electric_scooter", "lon": -77.050717, "bike_id": "01f9906b048e1211c4e69936ab9a4e12", "rental_uris": {"android": "https://dc.lft.to/lastmile_qr_scan", "ios": "https://dc.lft.to/lastmile_qr_scan"}, "name": "01f9906b048e1211c4e69936ab9a4e12", "is_reserved": 0}, {"is_disabled": 0, "fusion_lon": 0.0, "fusion_lat": 0.0, "lat": 38.84432783333333, "type": "electric_scooter", "lon": -76.99776016666667, "bike_id": "f18b5b72f628921ede21c757de51b503", "rental_uris": {"android": "https://dc.lft.to/lastmile_qr_scan", "ios": "https://dc.lft.to/lastmile_qr_scan"}, "name": "f18b5b72f628921ede21c757de51b503", "is_reserved": 0}, {"is_disabled": 0, "fusion_lon": 0.0, "fusion_lat": 0.0, "lat": 38.925327833333334, "type": "electric_scooter", "lon": -77.07660666666666, "bike_id": "2bb43955ee7c232008d097cec69258ff", "rental_uris": {"android": "https://dc.lft.to/lastmile_qr_scan", "ios": "https://dc.lft.to/lastmile_qr_scan"}, "name": "2bb43955ee7c232008d097cec69258ff", "is_reserved": 0}, {"is_disabled": 0, "fusion_lon": 0.0, "fusion_lat": 0.0, "lat": 38.883651, "type": "electric_scooter", "lon": -76.98576616666666, "bike_id": "03e72c2a839073e7a60279ce93eb4270", "rental_uris": {"android": "https://dc.lft.to/lastmile_qr_scan", "ios": "https://dc.lft.to/lastmile_qr_scan"}, "name": "03e72c2a839073e7a60279ce93eb4270", "is_reserved": 0}, {"is_disabled": 0, "fusion_lon": 0.0, "fusion_lat": 0.0, "lat": 38.92021416666667, "type": "electric_scooter", "lon": -77.03118583333334, "bike_id": "8be9187c84ea763742a79b6fe7d383aa", "rental_uris": {"android": "https://dc.lft.to/lastmile_qr_scan", "ios": "https://dc.lft.to/lastmile_qr_scan"}, "name": "8be9187c84ea763742a79b6fe7d383aa", "is_reserved": 0}, {"is_disabled": 0, "fusion_lon": 0.0, "fusion_lat": 0.0, "lat": 38.842932833333336, "type": "electric_scooter", "lon": -76.99948633333334, "bike_id": "89f62ff1e86fd68b0ef9300ccd723735", "rental_uris": {"android": "https://dc.lft.to/lastmile_qr_scan", "ios": "https://dc.lft.to/lastmile_qr_scan"}, "name": "89f62ff1e86fd68b0ef9300ccd723735", "is_reserved": 0}, {"is_disabled": 0, "fusion_lon": 0.0, "fusion_lat": 0.0, "lat": 38.887521, "type": "electric_scooter", "lon": -77.01606, "bike_id": "6c0ed0074d2244637c334c9bcb1dfd82", "rental_uris": {"android": "https://dc.lft.to/lastmile_qr_scan", "ios": "https://dc.lft.to/lastmile_qr_scan"}, "name": "6c0ed0074d2244637c334c9bcb1dfd82", "is_reserved": 0}, {"is_disabled": 0, "fusion_lon": 0.0, "fusion_lat": 0.0, "lat": 38.940498166666664, "type": "electric_scooter", "lon": -77.024905, "bike_id": "62c93803e00389797b5b0e00b823af7a", "rental_uris": {"android": "https://dc.lft.to/lastmile_qr_scan", "ios": "https://dc.lft.to/lastmile_qr_scan"}, "name": "62c93803e00389797b5b0e00b823af7a", "is_reserved": 0}, {"is_disabled": 0, "fusion_lon": 0.0, "fusion_lat": 0.0, "lat": 38.899589166666665, "type": "electric_scooter", "lon": -77.05204, "bike_id": "3ef74749228d74afde245de5a7595827", "rental_uris": {"android": "https://dc.lft.to/lastmile_qr_scan", "ios": "https://dc.lft.to/lastmile_qr_scan"}, "name": "3ef74749228d74afde245de5a7595827", "is_reserved": 0}, {"is_disabled": 0, "fusion_lon": 0.0, "fusion_lat": 0.0, "lat": 38.942730833333336, "type": "electric_scooter", "lon": -77.032575, "bike_id": "2349c4277415ace8c98dba46951045f2", "rental_uris": {"android": "https://dc.lft.to/lastmile_qr_scan", "ios": "https://dc.lft.to/lastmile_qr_scan"}, "name": "2349c4277415ace8c98dba46951045f2", "is_reserved": 0}, {"is_disabled": 0, "fusion_lon": 0.0, "fusion_lat": 0.0, "lat": 38.899097, "type": "electric_scooter", "lon": -76.93390433333333, "bike_id": "d777f567f8fb67619467ec0e4687fe02", "rental_uris": {"android": "https://dc.lft.to/lastmile_qr_scan", "ios": "https://dc.lft.to/lastmile_qr_scan"}, "name": "d777f567f8fb67619467ec0e4687fe02", "is_reserved": 0}, {"is_disabled": 0, "fusion_lon": 0.0, "fusion_lat": 0.0, "lat": 38.9289015, "type": "electric_scooter", "lon": -77.02308183333334, "bike_id": "e8fd957f39eac81e05192af9f46e0304", "rental_uris": {"android": "https://dc.lft.to/lastmile_qr_scan", "ios": "https://dc.lft.to/lastmile_qr_scan"}, "name": "e8fd957f39eac81e05192af9f46e0304", "is_reserved": 0}, {"is_disabled": 0, "fusion_lon": 0.0, "fusion_lat": 0.0, "lat": 38.964569, "type": "electric_bike", "lon": -76.977168, "bike_id": "48b567cba2219bc8d4f4c098a51ac371", "rental_uris": {"android": "https://dc.lft.to/lastmile_qr_scan", "ios": "https://dc.lft.to/lastmile_qr_scan"}, "name": "48b567cba2219bc8d4f4c098a51ac371", "is_reserved": 0}, {"is_disabled": 0, "fusion_lon": 0.0, "fusion_lat": 0.0, "lat": 38.934151166666666, "type": "electric_bike", "lon": -77.025071, "bike_id": "302d554a5afd9c767783a835eaeca353", "rental_uris": {"android": "https://dc.lft.to/lastmile_qr_scan", "ios": "https://dc.lft.to/lastmile_qr_scan"}, "name": "302d554a5afd9c767783a835eaeca353", "is_reserved": 0}, {"is_disabled": 0, "fusion_lon": 0.0, "fusion_lat": 0.0, "lat": 38.8659795, "type": "electric_bike", "lon": -76.97447083333333, "bike_id": "1a84af22847c9905fb260982df2d236a", "rental_uris": {"android": "https://dc.lft.to/lastmile_qr_scan", "ios": "https://dc.lft.to/lastmile_qr_scan"}, "name": "1a84af22847c9905fb260982df2d236a", "is_reserved": 0}, {"is_disabled": 0, "fusion_lon": 0.0, "fusion_lat": 0.0, "lat": 39.03004083333333, "type": "electric_bike", "lon": -77.10652416666667, "bike_id": "e0da457a7b0de7a2ea7a7500a286ee91", "rental_uris": {"android": "https://dc.lft.to/lastmile_qr_scan", "ios": "https://dc.lft.to/lastmile_qr_scan"}, "name": "e0da457a7b0de7a2ea7a7500a286ee91", "is_reserved": 0}, {"is_disabled": 0, "fusion_lon": 0.0, "fusion_lat": 0.0, "lat": 38.85856883333334, "type": "electric_bike", "lon": -77.09758016666666, "bike_id": "34a866bdc20ff4debbbbf8d8eec01816", "rental_uris": {"android": "https://dc.lft.to/lastmile_qr_scan", "ios": "https://dc.lft.to/lastmile_qr_scan"}, "name": "34a866bdc20ff4debbbbf8d8eec01816", "is_reserved": 0}, {"is_disabled": 0, "fusion_lon": 0.0, "fusion_lat": 0.0, "lat": 38.937884833333335, "type": "electric_scooter", "lon": -77.01876883333334, "bike_id": "da568a995c2137282ec99b571596534e", "rental_uris": {"android": "https://dc.lft.to/lastmile_qr_scan", "ios": "https://dc.lft.to/lastmile_qr_scan"}, "name": "da568a995c2137282ec99b571596534e", "is_reserved": 0}, {"is_disabled": 0, "fusion_lon": 0.0, "fusion_lat": 0.0, "lat": 38.9222245, "type": "electric_scooter", "lon": -77.03298183333334, "bike_id": "aa655a0589ef3efef4bbac8cf2dbea62", "rental_uris": {"android": "https://dc.lft.to/lastmile_qr_scan", "ios": "https://dc.lft.to/lastmile_qr_scan"}, "name": "aa655a0589ef3efef4bbac8cf2dbea62", "is_reserved": 0}, {"is_disabled": 0, "fusion_lon": 0.0, "fusion_lat": 0.0, "lat": 38.9083805, "type": "electric_scooter", "lon": -76.996999, "bike_id": "ba5bb18c7dc1c8d36970f96242d6e064", "rental_uris": {"android": "https://dc.lft.to/lastmile_qr_scan", "ios": "https://dc.lft.to/lastmile_qr_scan"}, "name": "ba5bb18c7dc1c8d36970f96242d6e064", "is_reserved": 0}, {"is_disabled": 0, "fusion_lon": 0.0, "fusion_lat": 0.0, "lat": 38.96125266666667, "type": "electric_scooter", "lon": -77.0852315, "bike_id": "0e9919633fdfb70c43b37911194d705b", "rental_uris": {"android": "https://dc.lft.to/lastmile_qr_scan", "ios": "https://dc.lft.to/lastmile_qr_scan"}, "name": "0e9919633fdfb70c43b37911194d705b", "is_reserved": 0}, {"is_disabled": 0, "fusion_lon": 0.0, "fusion_lat": 0.0, "lat": 38.88753883333333, "type": "electric_scooter", "lon": -77.01536883333333, "bike_id": "3e0a43108fac96c6ce8e5d8a1b7734fb", "rental_uris": {"android": "https://dc.lft.to/lastmile_qr_scan", "ios": "https://dc.lft.to/lastmile_qr_scan"}, "name": "3e0a43108fac96c6ce8e5d8a1b7734fb", "is_reserved": 0}, {"is_disabled": 0, "fusion_lon": 0.0, "fusion_lat": 0.0, "lat": 38.916254333333335, "type": "electric_scooter", "lon": -77.04862166666666, "bike_id": "02e9ffa9d11bb7310f2347ce889500c4", "rental_uris": {"android": "https://dc.lft.to/lastmile_qr_scan", "ios": "https://dc.lft.to/lastmile_qr_scan"}, "name": "02e9ffa9d11bb7310f2347ce889500c4", "is_reserved": 0}, {"is_disabled": 0, "fusion_lon": 0.0, "fusion_lat": 0.0, "lat": 38.89568116666667, "type": "electric_bike", "lon": -77.12739116666667, "bike_id": "22e4631de44b44a51da2c88a4df406ba", "rental_uris": {"android": "https://dc.lft.to/lastmile_qr_scan", "ios": "https://dc.lft.to/lastmile_qr_scan"}, "name": "22e4631de44b44a51da2c88a4df406ba", "is_reserved": 0}, {"is_disabled": 0, "fusion_lon": 0.0, "fusion_lat": 0.0, "lat": 38.90570366666667, "type": "electric_scooter", "lon": -77.0058475, "bike_id": "85143ac7929b6dc011ec3ec9d5b6c42a", "rental_uris": {"android": "https://dc.lft.to/lastmile_qr_scan", "ios": "https://dc.lft.to/lastmile_qr_scan"}, "name": "85143ac7929b6dc011ec3ec9d5b6c42a", "is_reserved": 0}, {"is_disabled": 0, "fusion_lon": 0.0, "fusion_lat": 0.0, "lat": 38.905585333333335, "type": "electric_scooter", "lon": -77.03469683333333, "bike_id": "9ab14b3f285e4b53f01b09060070b2a8", "rental_uris": {"android": "https://dc.lft.to/lastmile_qr_scan", "ios": "https://dc.lft.to/lastmile_qr_scan"}, "name": "9ab14b3f285e4b53f01b09060070b2a8", "is_reserved": 0}, {"is_disabled": 0, "fusion_lon": 0.0, "fusion_lat": 0.0, "lat": 38.89490166666667, "type": "electric_bike", "lon": -76.99522016666667, "bike_id": "1c66b2ae7fdec266f22af12393fc6913", "rental_uris": {"android": "https://dc.lft.to/lastmile_qr_scan", "ios": "https://dc.lft.to/lastmile_qr_scan"}, "name": "1c66b2ae7fdec266f22af12393fc6913", "is_reserved": 0}, {"is_disabled": 0, "fusion_lon": 0.0, "fusion_lat": 0.0, "lat": 38.922629, "type": "electric_scooter", "lon": -77.04132216666666, "bike_id": "a9c0987a902a2415a5245ab741455155", "rental_uris": {"android": "https://dc.lft.to/lastmile_qr_scan", "ios": "https://dc.lft.to/lastmile_qr_scan"}, "name": "a9c0987a902a2415a5245ab741455155", "is_reserved": 0}, {"is_disabled": 0, "fusion_lon": 0.0, "fusion_lat": 0.0, "lat": 38.869608, "type": "electric_scooter", "lon": -76.97935883333334, "bike_id": "1713a652a9dc1fcd0c8860a3190f8956", "rental_uris": {"android": "https://dc.lft.to/lastmile_qr_scan", "ios": "https://dc.lft.to/lastmile_qr_scan"}, "name": "1713a652a9dc1fcd0c8860a3190f8956", "is_reserved": 0}, {"is_disabled": 0, "fusion_lon": 0.0, "fusion_lat": 0.0, "lat": 38.92557333333333, "type": "electric_scooter", "lon": -77.02567683333334, "bike_id": "60cdc4f78e2b8f8bd0ada8408144d2cf", "rental_uris": {"android": "https://dc.lft.to/lastmile_qr_scan", "ios": "https://dc.lft.to/lastmile_qr_scan"}, "name": "60cdc4f78e2b8f8bd0ada8408144d2cf", "is_reserved": 0}, {"is_disabled": 0, "fusion_lon": 0.0, "fusion_lat": 0.0, "lat": 38.9181205, "type": "electric_scooter", "lon": -77.0239535, "bike_id": "989fe139eef5b87f2a6bd02804430e32", "rental_uris": {"android": "https://dc.lft.to/lastmile_qr_scan", "ios": "https://dc.lft.to/lastmile_qr_scan"}, "name": "989fe139eef5b87f2a6bd02804430e32", "is_reserved": 0}, {"is_disabled": 0, "fusion_lon": 0.0, "fusion_lat": 0.0, "lat": 38.928266666666666, "type": "electric_scooter", "lon": -77.0225375, "bike_id": "0895655ed930e299fc1f6164a1f9cae7", "rental_uris": {"android": "https://dc.lft.to/lastmile_qr_scan", "ios": "https://dc.lft.to/lastmile_qr_scan"}, "name": "0895655ed930e299fc1f6164a1f9cae7", "is_reserved": 0}, {"is_disabled": 0, "fusion_lon": 0.0, "fusion_lat": 0.0, "lat": 38.90671966666667, "type": "electric_scooter", "lon": -77.02717166666666, "bike_id": "0e02dc3131619ec2d2571364aabd6405", "rental_uris": {"android": "https://dc.lft.to/lastmile_qr_scan", "ios": "https://dc.lft.to/lastmile_qr_scan"}, "name": "0e02dc3131619ec2d2571364aabd6405", "is_reserved": 0}, {"is_disabled": 0, "fusion_lon": 0.0, "fusion_lat": 0.0, "lat": 38.926603, "type": "electric_scooter", "lon": -77.02306583333333, "bike_id": "0dea0903eba2d9f540b5c478052043c6", "rental_uris": {"android": "https://dc.lft.to/lastmile_qr_scan", "ios": "https://dc.lft.to/lastmile_qr_scan"}, "name": "0dea0903eba2d9f540b5c478052043c6", "is_reserved": 0}, {"is_disabled": 0, "fusion_lon": 0.0, "fusion_lat": 0.0, "lat": 38.949859000000004, "type": "electric_scooter", "lon": -77.027022, "bike_id": "fdc789fdae528b42a1fbf563cbd407a0", "rental_uris": {"android": "https://dc.lft.to/lastmile_qr_scan", "ios": "https://dc.lft.to/lastmile_qr_scan"}, "name": "fdc789fdae528b42a1fbf563cbd407a0", "is_reserved": 0}, {"is_disabled": 0, "fusion_lon": 0.0, "fusion_lat": 0.0, "lat": 38.831572333333334, "type": "electric_bike", "lon": -76.996945, "bike_id": "9417ee2945685d0ceafc1e3790b09370", "rental_uris": {"android": "https://dc.lft.to/lastmile_qr_scan", "ios": "https://dc.lft.to/lastmile_qr_scan"}, "name": "9417ee2945685d0ceafc1e3790b09370", "is_reserved": 0}, {"is_disabled": 0, "fusion_lon": 0.0, "fusion_lat": 0.0, "lat": 38.98823183333333, "type": "electric_bike", "lon": -77.02652066666667, "bike_id": "77f3e81f23a2ceb0f7221add3b26db2d", "rental_uris": {"android": "https://dc.lft.to/lastmile_qr_scan", "ios": "https://dc.lft.to/lastmile_qr_scan"}, "name": "77f3e81f23a2ceb0f7221add3b26db2d", "is_reserved": 0}, {"is_disabled": 0, "fusion_lon": 0.0, "fusion_lat": 0.0, "lat": 38.94250666666667, "type": "electric_scooter", "lon": -77.0216815, "bike_id": "f5681c9500e0c3837993872be254cd43", "rental_uris": {"android": "https://dc.lft.to/lastmile_qr_scan", "ios": "https://dc.lft.to/lastmile_qr_scan"}, "name": "f5681c9500e0c3837993872be254cd43", "is_reserved": 0}, {"is_disabled": 0, "fusion_lon": 0.0, "fusion_lat": 0.0, "lat": 38.89797866666667, "type": "electric_scooter", "lon": -76.93048616666667, "bike_id": "9ed97e63e43e826490e4935c02e13d9f", "rental_uris": {"android": "https://dc.lft.to/lastmile_qr_scan", "ios": "https://dc.lft.to/lastmile_qr_scan"}, "name": "9ed97e63e43e826490e4935c02e13d9f", "is_reserved": 0}, {"is_disabled": 0, "fusion_lon": 0.0, "fusion_lat": 0.0, "lat": 38.867376666666665, "type": "electric_scooter", "lon": -76.98853366666667, "bike_id": "2f68d2f938a2c77e29a3ec3a378af1b5", "rental_uris": {"android": "https://dc.lft.to/lastmile_qr_scan", "ios": "https://dc.lft.to/lastmile_qr_scan"}, "name": "2f68d2f938a2c77e29a3ec3a378af1b5", "is_reserved": 0}, {"is_disabled": 0, "fusion_lon": 0.0, "fusion_lat": 0.0, "lat": 38.9004535, "type": "electric_scooter", "lon": -76.92268333333334, "bike_id": "52cc02f47177b8e5d983875d95e49cbb", "rental_uris": {"android": "https://dc.lft.to/lastmile_qr_scan", "ios": "https://dc.lft.to/lastmile_qr_scan"}, "name": "52cc02f47177b8e5d983875d95e49cbb", "is_reserved": 0}, {"is_disabled": 0, "fusion_lon": 0.0, "fusion_lat": 0.0, "lat": 38.89375483333333, "type": "electric_scooter", "lon": -76.94994533333333, "bike_id": "d3f07df2769aae59061172f4d5094406", "rental_uris": {"android": "https://dc.lft.to/lastmile_qr_scan", "ios": "https://dc.lft.to/lastmile_qr_scan"}, "name": "d3f07df2769aae59061172f4d5094406", "is_reserved": 0}, {"is_disabled": 0, "fusion_lon": 0.0, "fusion_lat": 0.0, "lat": 38.92706783333333, "type": "electric_scooter", "lon": -77.0232715, "bike_id": "17f6f0d11c814416ca6c5660fc7ccc2e", "rental_uris": {"android": "https://dc.lft.to/lastmile_qr_scan", "ios": "https://dc.lft.to/lastmile_qr_scan"}, "name": "17f6f0d11c814416ca6c5660fc7ccc2e", "is_reserved": 0}, {"is_disabled": 0, "fusion_lon": 0.0, "fusion_lat": 0.0, "lat": 38.93674466666667, "type": "electric_scooter", "lon": -77.02432833333333, "bike_id": "0ab8020585a5267e7ac2ba287c96c7f4", "rental_uris": {"android": "https://dc.lft.to/lastmile_qr_scan", "ios": "https://dc.lft.to/lastmile_qr_scan"}, "name": "0ab8020585a5267e7ac2ba287c96c7f4", "is_reserved": 0}, {"is_disabled": 0, "fusion_lon": 0.0, "fusion_lat": 0.0, "lat": 38.927329, "type": "electric_scooter", "lon": -77.022487, "bike_id": "191a5989b5ae04cb8d696214833e9527", "rental_uris": {"android": "https://dc.lft.to/lastmile_qr_scan", "ios": "https://dc.lft.to/lastmile_qr_scan"}, "name": "191a5989b5ae04cb8d696214833e9527", "is_reserved": 0}, {"is_disabled": 0, "fusion_lon": 0.0, "fusion_lat": 0.0, "lat": 38.89731583333333, "type": "electric_scooter", "lon": -77.04943516666667, "bike_id": "a6be76758468272f438c018dd99a8b88", "rental_uris": {"android": "https://dc.lft.to/lastmile_qr_scan", "ios": "https://dc.lft.to/lastmile_qr_scan"}, "name": "a6be76758468272f438c018dd99a8b88", "is_reserved": 0}, {"is_disabled": 0, "fusion_lon": 0.0, "fusion_lat": 0.0, "lat": 38.86130083333333, "type": "electric_scooter", "lon": -76.98530633333333, "bike_id": "6259293f70bead7892e6b2d6879eb747", "rental_uris": {"android": "https://dc.lft.to/lastmile_qr_scan", "ios": "https://dc.lft.to/lastmile_qr_scan"}, "name": "6259293f70bead7892e6b2d6879eb747", "is_reserved": 0}, {"is_disabled": 0, "fusion_lon": 0.0, "fusion_lat": 0.0, "lat": 38.91186716666667, "type": "electric_scooter", "lon": -77.035058, "bike_id": "f9fc4c6a5150fb0efb783c6579cfbbaf", "rental_uris": {"android": "https://dc.lft.to/lastmile_qr_scan", "ios": "https://dc.lft.to/lastmile_qr_scan"}, "name": "f9fc4c6a5150fb0efb783c6579cfbbaf", "is_reserved": 0}, {"is_disabled": 0, "fusion_lon": 0.0, "fusion_lat": 0.0, "lat": 38.89044366666667, "type": "electric_scooter", "lon": -76.95245066666666, "bike_id": "1a584b9825e194d9f6389ac574b278ca", "rental_uris": {"android": "https://dc.lft.to/lastmile_qr_scan", "ios": "https://dc.lft.to/lastmile_qr_scan"}, "name": "1a584b9825e194d9f6389ac574b278ca", "is_reserved": 0}, {"is_disabled": 0, "fusion_lon": 0.0, "fusion_lat": 0.0, "lat": 38.936263, "type": "electric_scooter", "lon": -77.05910733333333, "bike_id": "c77f8b9b8a223c8c912563dd28d242ef", "rental_uris": {"android": "https://dc.lft.to/lastmile_qr_scan", "ios": "https://dc.lft.to/lastmile_qr_scan"}, "name": "c77f8b9b8a223c8c912563dd28d242ef", "is_reserved": 0}, {"is_disabled": 0, "fusion_lon": 0.0, "fusion_lat": 0.0, "lat": 38.896723, "type": "electric_scooter", "lon": -76.99790083333333, "bike_id": "a38925cddb5f977bc3679d2c22eedbf6", "rental_uris": {"android": "https://dc.lft.to/lastmile_qr_scan", "ios": "https://dc.lft.to/lastmile_qr_scan"}, "name": "a38925cddb5f977bc3679d2c22eedbf6", "is_reserved": 0}, {"is_disabled": 0, "fusion_lon": 0.0, "fusion_lat": 0.0, "lat": 38.931747333333334, "type": "electric_scooter", "lon": -77.02344316666667, "bike_id": "5e4d2f8543eb1f08e793ecb0057f46fe", "rental_uris": {"android": "https://dc.lft.to/lastmile_qr_scan", "ios": "https://dc.lft.to/lastmile_qr_scan"}, "name": "5e4d2f8543eb1f08e793ecb0057f46fe", "is_reserved": 0}, {"is_disabled": 0, "fusion_lon": 0.0, "fusion_lat": 0.0, "lat": 38.928451833333334, "type": "electric_scooter", "lon": -77.01423216666667, "bike_id": "821fd7a76666b315f2e98431f55def06", "rental_uris": {"android": "https://dc.lft.to/lastmile_qr_scan", "ios": "https://dc.lft.to/lastmile_qr_scan"}, "name": "821fd7a76666b315f2e98431f55def06", "is_reserved": 0}, {"is_disabled": 0, "fusion_lon": 0.0, "fusion_lat": 0.0, "lat": 38.934679833333334, "type": "electric_scooter", "lon": -77.07212433333333, "bike_id": "a4dc8f59e12d765bf1a5b6978a7a45e8", "rental_uris": {"android": "https://dc.lft.to/lastmile_qr_scan", "ios": "https://dc.lft.to/lastmile_qr_scan"}, "name": "a4dc8f59e12d765bf1a5b6978a7a45e8", "is_reserved": 0}, {"is_disabled": 0, "fusion_lon": 0.0, "fusion_lat": 0.0, "lat": 38.90149366666667, "type": "electric_scooter", "lon": -77.02934333333333, "bike_id": "70b3e8ac8dcdab2841ee2eb1f68a8fc9", "rental_uris": {"android": "https://dc.lft.to/lastmile_qr_scan", "ios": "https://dc.lft.to/lastmile_qr_scan"}, "name": "70b3e8ac8dcdab2841ee2eb1f68a8fc9", "is_reserved": 0}, {"is_disabled": 0, "fusion_lon": 0.0, "fusion_lat": 0.0, "lat": 38.89359283333334, "type": "electric_scooter", "lon": -77.021848, "bike_id": "e122cd5a4a2dd6b0ca53da10bdba66f8", "rental_uris": {"android": "https://dc.lft.to/lastmile_qr_scan", "ios": "https://dc.lft.to/lastmile_qr_scan"}, "name": "e122cd5a4a2dd6b0ca53da10bdba66f8", "is_reserved": 0}, {"is_disabled": 0, "fusion_lon": 0.0, "fusion_lat": 0.0, "lat": 38.89504983333333, "type": "electric_scooter", "lon": -76.94879866666666, "bike_id": "c86945b4e749c484d7e94236dcde0250", "rental_uris": {"android": "https://dc.lft.to/lastmile_qr_scan", "ios": "https://dc.lft.to/lastmile_qr_scan"}, "name": "c86945b4e749c484d7e94236dcde0250", "is_reserved": 0}, {"is_disabled": 0, "fusion_lon": 0.0, "fusion_lat": 0.0, "lat": 38.94614583333333, "type": "electric_scooter", "lon": -77.03465933333334, "bike_id": "d3032d71cb84f3531d9b1b9ff73a57a1", "rental_uris": {"android": "https://dc.lft.to/lastmile_qr_scan", "ios": "https://dc.lft.to/lastmile_qr_scan"}, "name": "d3032d71cb84f3531d9b1b9ff73a57a1", "is_reserved": 0}, {"is_disabled": 0, "fusion_lon": 0.0, "fusion_lat": 0.0, "lat": 38.915634, "type": "electric_scooter", "lon": -77.02004583333333, "bike_id": "8bb7c7aeb2bf3f964023358709806cf9", "rental_uris": {"android": "https://dc.lft.to/lastmile_qr_scan", "ios": "https://dc.lft.to/lastmile_qr_scan"}, "name": "8bb7c7aeb2bf3f964023358709806cf9", "is_reserved": 0}, {"is_disabled": 0, "fusion_lon": 0.0, "fusion_lat": 0.0, "lat": 38.92635816666667, "type": "electric_scooter", "lon": -77.04266033333333, "bike_id": "1a821e2832379325a6984393cf92f342", "rental_uris": {"android": "https://dc.lft.to/lastmile_qr_scan", "ios": "https://dc.lft.to/lastmile_qr_scan"}, "name": "1a821e2832379325a6984393cf92f342", "is_reserved": 0}, {"is_disabled": 0, "fusion_lon": 0.0, "fusion_lat": 0.0, "lat": 38.90494316666667, "type": "electric_scooter", "lon": -77.02954916666667, "bike_id": "fa52d64a1de73c5fab9911b39e0ff149", "rental_uris": {"android": "https://dc.lft.to/lastmile_qr_scan", "ios": "https://dc.lft.to/lastmile_qr_scan"}, "name": "fa52d64a1de73c5fab9911b39e0ff149", "is_reserved": 0}, {"is_disabled": 0, "fusion_lon": 0.0, "fusion_lat": 0.0, "lat": 38.90668433333333, "type": "electric_scooter", "lon": -77.0271265, "bike_id": "3b02cdffbaadecfae5201deaa5fe8029", "rental_uris": {"android": "https://dc.lft.to/lastmile_qr_scan", "ios": "https://dc.lft.to/lastmile_qr_scan"}, "name": "3b02cdffbaadecfae5201deaa5fe8029", "is_reserved": 0}, {"is_disabled": 0, "fusion_lon": 0.0, "fusion_lat": 0.0, "lat": 38.844257166666665, "type": "electric_scooter", "lon": -76.9978205, "bike_id": "137edf32a764b1cba3e5d20af64b70b2", "rental_uris": {"android": "https://dc.lft.to/lastmile_qr_scan", "ios": "https://dc.lft.to/lastmile_qr_scan"}, "name": "137edf32a764b1cba3e5d20af64b70b2", "is_reserved": 0}, {"is_disabled": 0, "fusion_lon": 0.0, "fusion_lat": 0.0, "lat": 38.92006333333333, "type": "electric_bike", "lon": -77.07180383333333, "bike_id": "7249d275c17679667ab30649085e1c74", "rental_uris": {"android": "https://dc.lft.to/lastmile_qr_scan", "ios": "https://dc.lft.to/lastmile_qr_scan"}, "name": "7249d275c17679667ab30649085e1c74", "is_reserved": 0}, {"is_disabled": 0, "fusion_lon": 0.0, "fusion_lat": 0.0, "lat": 38.91303683333334, "type": "electric_scooter", "lon": -77.04656133333333, "bike_id": "2f66354ae4f74ed3bd43debd03539966", "rental_uris": {"android": "https://dc.lft.to/lastmile_qr_scan", "ios": "https://dc.lft.to/lastmile_qr_scan"}, "name": "2f66354ae4f74ed3bd43debd03539966", "is_reserved": 0}, {"is_disabled": 0, "fusion_lon": 0.0, "fusion_lat": 0.0, "lat": 38.896163, "type": "electric_scooter", "lon": -76.99638916666666, "bike_id": "44671cea8f7a61f5e2239e2c2f43f140", "rental_uris": {"android": "https://dc.lft.to/lastmile_qr_scan", "ios": "https://dc.lft.to/lastmile_qr_scan"}, "name": "44671cea8f7a61f5e2239e2c2f43f140", "is_reserved": 0}, {"is_disabled": 0, "fusion_lon": 0.0, "fusion_lat": 0.0, "lat": 38.912857333333335, "type": "electric_scooter", "lon": -77.013998, "bike_id": "ab05a6caba4321da71ffbc8390a2a61b", "rental_uris": {"android": "https://dc.lft.to/lastmile_qr_scan", "ios": "https://dc.lft.to/lastmile_qr_scan"}, "name": "ab05a6caba4321da71ffbc8390a2a61b", "is_reserved": 0}, {"is_disabled": 0, "fusion_lon": 0.0, "fusion_lat": 0.0, "lat": 38.9188055, "type": "electric_scooter", "lon": -77.04416966666666, "bike_id": "1883c02df1367b862041879f4e77ba65", "rental_uris": {"android": "https://dc.lft.to/lastmile_qr_scan", "ios": "https://dc.lft.to/lastmile_qr_scan"}, "name": "1883c02df1367b862041879f4e77ba65", "is_reserved": 0}, {"is_disabled": 0, "fusion_lon": 0.0, "fusion_lat": 0.0, "lat": 38.908108, "type": "electric_scooter", "lon": -77.03394033333333, "bike_id": "9dfb737e5d16b6794fc5544859dcac06", "rental_uris": {"android": "https://dc.lft.to/lastmile_qr_scan", "ios": "https://dc.lft.to/lastmile_qr_scan"}, "name": "9dfb737e5d16b6794fc5544859dcac06", "is_reserved": 0}, {"is_disabled": 0, "fusion_lon": 0.0, "fusion_lat": 0.0, "lat": 38.900037833333336, "type": "electric_scooter", "lon": -76.99263666666667, "bike_id": "04dfc019808615de326c20f63c4a2612", "rental_uris": {"android": "https://dc.lft.to/lastmile_qr_scan", "ios": "https://dc.lft.to/lastmile_qr_scan"}, "name": "04dfc019808615de326c20f63c4a2612", "is_reserved": 0}, {"is_disabled": 0, "fusion_lon": 0.0, "fusion_lat": 0.0, "lat": 38.947868666666665, "type": "electric_scooter", "lon": -77.09277466666667, "bike_id": "0700f823b41aa115fc707202917554fa", "rental_uris": {"android": "https://dc.lft.to/lastmile_qr_scan", "ios": "https://dc.lft.to/lastmile_qr_scan"}, "name": "0700f823b41aa115fc707202917554fa", "is_reserved": 0}, {"is_disabled": 0, "fusion_lon": 0.0, "fusion_lat": 0.0, "lat": 38.90545066666667, "type": "electric_scooter", "lon": -77.0469315, "bike_id": "53e9f9c0457bad44cdbcbd2f88513480", "rental_uris": {"android": "https://dc.lft.to/lastmile_qr_scan", "ios": "https://dc.lft.to/lastmile_qr_scan"}, "name": "53e9f9c0457bad44cdbcbd2f88513480", "is_reserved": 0}, {"is_disabled": 0, "fusion_lon": 0.0, "fusion_lat": 0.0, "lat": 38.86580383333333, "type": "electric_scooter", "lon": -76.99038783333333, "bike_id": "a2376b21cff6e1b0bc307cbf38c8e808", "rental_uris": {"android": "https://dc.lft.to/lastmile_qr_scan", "ios": "https://dc.lft.to/lastmile_qr_scan"}, "name": "a2376b21cff6e1b0bc307cbf38c8e808", "is_reserved": 0}, {"is_disabled": 0, "fusion_lon": 0.0, "fusion_lat": 0.0, "lat": 38.920731833333335, "type": "electric_scooter", "lon": -77.01826333333334, "bike_id": "ff22534433dfb955adf07a214d333e67", "rental_uris": {"android": "https://dc.lft.to/lastmile_qr_scan", "ios": "https://dc.lft.to/lastmile_qr_scan"}, "name": "ff22534433dfb955adf07a214d333e67", "is_reserved": 0}, {"is_disabled": 0, "fusion_lon": 0.0, "fusion_lat": 0.0, "lat": 38.901809166666666, "type": "electric_scooter", "lon": -76.92827433333333, "bike_id": "f3be00310987e591c82ab544824afee2", "rental_uris": {"android": "https://dc.lft.to/lastmile_qr_scan", "ios": "https://dc.lft.to/lastmile_qr_scan"}, "name": "f3be00310987e591c82ab544824afee2", "is_reserved": 0}, {"is_disabled": 0, "fusion_lon": 0.0, "fusion_lat": 0.0, "lat": 38.93116633333333, "type": "electric_scooter", "lon": -77.034788, "bike_id": "4f4fdd69a4d308b8e35a538246a54e51", "rental_uris": {"android": "https://dc.lft.to/lastmile_qr_scan", "ios": "https://dc.lft.to/lastmile_qr_scan"}, "name": "4f4fdd69a4d308b8e35a538246a54e51", "is_reserved": 0}, {"is_disabled": 0, "fusion_lon": 0.0, "fusion_lat": 0.0, "lat": 38.887167166666664, "type": "electric_scooter", "lon": -77.02814716666667, "bike_id": "7e72c4b95094958e3b8a6ae27b62f7e9", "rental_uris": {"android": "https://dc.lft.to/lastmile_qr_scan", "ios": "https://dc.lft.to/lastmile_qr_scan"}, "name": "7e72c4b95094958e3b8a6ae27b62f7e9", "is_reserved": 0},