{"data": {"bikes": [{"is_reserved": 0, "type": "electric_scooter", "bike_id": "7cb3b3b2d4d013bcb9c0abfe05694837", "lat": 38.923920333333335, "lon": -77.0505755, "rental_uris": {"android": "https://dc.lft.to/lastmile_qr_scan", "ios": "https://dc.lft.to/lastmile_qr_scan"}, "is_disabled": 0, "fusion_lat": 0.0, "name": "7cb3b3b2d4d013bcb9c0abfe05694837", "fusion_lon": 0.0}, {"is_reserved": 0, "type": "electric_scooter", "bike_id": "21f08622f41650f4dce45c591edf9c7a", "lat": 38.9002885, "lon": -76.98838766666667, "rental_uris": {"android": "https://dc.lft.to/lastmile_qr_scan", "ios": "https://dc.lft.to/lastmile_qr_scan"}, "is_disabled": 0, "fusion_lat": 0.0, "name": "21f08622f41650f4dce45c591edf9c7a", "fusion_lon": 0.0}, {"is_reserved": 0, "type": "electric_bike", "bike_id": "f6dac1d014a0c1d06fd84afaf020d25b", "lat": 38.89462733333333, "lon": -77.10351883333334, "rental_uris": {"android": "https://dc.lft.to/lastmile_qr_scan", "ios": "https://dc.lft.to/lastmile_qr_scan"}, "is_disabled": 0, "fusion_lat": 0.0, "name": "f6dac1d014a0c1d06fd84afaf020d25b", "fusion_lon": 0.0}, {"is_reserved": 0, "type": "electric_scooter", "bike_id": "82eaf8e3431ae4dad2f2858783437955", "lat": 38.909695666666664, "lon": -77.0337425, "rental_uris": {"android": "https://dc.lft.to/lastmile_qr_scan", "ios": "https://dc.lft.to/lastmile_qr_scan"}, "is_disabled": 0, "fusion_lat": 0.0, "name": "82eaf8e3431ae4dad2f2858783437955", "fusion_lon": 0.0}, {"is_reserved": 0, "type": "electric_scooter", "bike_id": "37e5adeb94b98ee689447e671dbe7304", "lat": 38.903992833333334, "lon": -77.02007733333333, "rental_uris": {"android": "https://dc.lft.to/lastmile_qr_scan", "ios": "https://dc.lft.to/lastmile_qr_scan"}, "is_disabled": 0, "fusion_lat": 0.0, "name": "37e5adeb94b98ee689447e671dbe7304", "fusion_lon": 0.0}, {"is_reserved": 0, "type": "electric_scooter", "bike_id": "8baba1b4e96f49dfe86076380f9cfac7", "lat": 38.934987166666666, "lon": -77.042821, "rental_uris": {"android": "https://dc.lft.to/lastmile_qr_scan", "ios": "https://dc.lft.to/lastmile_qr_scan"}, "is_disabled": 0, "fusion_lat": 0.0, "name": "8baba1b4e96f49dfe86076380f9cfac7", "fusion_lon": 0.0}, {"is_reserved": 0, "type": "electric_scooter", "bike_id": "7e317f069dae60319809ad915557c29c", "lat": 38.90443033333333, "lon": -76.99626416666666, "rental_uris": {"android": "https://dc.lft.to/lastmile_qr_scan", "ios": "https://dc.lft.to/lastmile_qr_scan"}, "is_disabled": 0, "fusion_lat": 0.0, "name": "7e317f069dae60319809ad915557c29c", "fusion_lon": 0.0}, {"is_reserved": 0, "type": "electric_scooter", "bike_id": "d14b584d6849cd5a03f2d6f7840d3f6b", "lat": 38.915897, "lon": -77.02081583333333, "rental_uris": {"android": "https://dc.lft.to/lastmile_qr_scan", "ios": "https://dc.lft.to/lastmile_qr_scan"}, "is_disabled": 0, "fusion_lat": 0.0, "name": "d14b584d6849cd5a03f2d6f7840d3f6b", "fusion_lon": 0.0}, {"is_reserved": 0, "type": "electric_scooter", "bike_id": "05e4d60e9953011107ae00c73ce4e740", "lat": 38.923875, "lon": -77.05063433333333, "rental_uris": {"android": "https://dc.lft.to/lastmile_qr_scan", "ios": "https://dc.lft.to/lastmile_qr_scan"}, "is_disabled": 0, "fusion_lat": 0.0, "name": "05e4d60e9953011107ae00c73ce4e740", "fusion_lon": 0.0}, {"is_reserved": 0, "type": "electric_scooter", "bike_id": "93f93711135b53823ebe6dab8c9b5e3b", "lat": 38.85651766666667, "lon": -76.99673583333333, "rental_uris": {"android": "https://dc.lft.to/lastmile_qr_scan", "ios": "https://dc.lft.to/lastmile_qr_scan"}, "is_disabled": 0, "fusion_lat": 0.0, "name": "93f93711135b53823ebe6dab8c9b5e3b", "fusion_lon": 0.0}, {"is_reserved": 0, "type": "electric_scooter", "bike_id": "df9fab775c61d97cb10a97ae3b652562", "lat": 38.92444966666667, "lon": -77.0203145, "rental_uris": {"android": "https://dc.lft.to/lastmile_qr_scan", "ios": "https://dc.lft.to/lastmile_qr_scan"}, "is_disabled": 0, "fusion_lat": 0.0, "name": "df9fab775c61d97cb10a97ae3b652562", "fusion_lon": 0.0}, {"is_reserved": 0, "type": "electric_scooter", "bike_id": "e5a90ef019987e5518b6bc75512abd9c", "lat": 38.908230333333336, "lon": -77.04327183333334, "rental_uris": {"android": "https://dc.lft.to/lastmile_qr_scan", "ios": "https://dc.lft.to/lastmile_qr_scan"}, "is_disabled": 0, "fusion_lat": 0.0, "name": "e5a90ef019987e5518b6bc75512abd9c", "fusion_lon": 0.0}, {"is_reserved": 0, "type": "electric_scooter", "bike_id": "0b3163a30afb1e9cfb8a2cd9bd376fea", "lat": 38.861124333333336, "lon": -76.98384516666667, "rental_uris": {"android": "https://dc.lft.to/lastmile_qr_scan", "ios": "https://dc.lft.to/lastmile_qr_scan"}, "is_disabled": 0, "fusion_lat": 0.0, "name": "0b3163a30afb1e9cfb8a2cd9bd376fea", "fusion_lon": 0.0}, {"is_reserved": 0, "type": "electric_scooter", "bike_id": "e02cdf94b3409f9da98d65db15de6271", "lat": 38.8999095, "lon": -76.9901335, "rental_uris": {"android": "https://dc.lft.to/lastmile_qr_scan", "ios": "https://dc.lft.to/lastmile_qr_scan"}, "is_disabled": 0, "fusion_lat": 0.0, "name": "e02cdf94b3409f9da98d65db15de6271", "fusion_lon": 0.0}, {"is_reserved": 0, "type": "electric_scooter", "bike_id": "7a942b66036a23d41f5fa60e27ab2f2d", "lat": 38.924501, "lon": -77.02163483333334, "rental_uris": {"android": "https://dc.lft.to/lastmile_qr_scan", "ios": "https://dc.lft.to/lastmile_qr_scan"}, "is_disabled": 0, "fusion_lat": 0.0, "name": "7a942b66036a23d41f5fa60e27ab2f2d", "fusion_lon": 0.0}, {"is_reserved": 0, "type": "electric_scooter", "bike_id": "d7dab61ce17dce735e08c7aaffe4bb4e", "lat": 38.907956, "lon": -77.04333883333334, "rental_uris": {"android": "https://dc.lft.to/lastmile_qr_scan", "ios": "https://dc.lft.to/lastmile_qr_scan"}, "is_disabled": 0, "fusion_lat": 0.0, "name": "d7dab61ce17dce735e08c7aaffe4bb4e", "fusion_lon": 0.0}, {"is_reserved": 0, "type": "electric_scooter", "bike_id": "3a573a71eb28c7bdc7d5162d6767f2ea", "lat": 38.93006333333334, "lon": -77.02782183333333, "rental_uris": {"android": "https://dc.lft.to/lastmile_qr_scan", "ios": "https://dc.lft.to/lastmile_qr_scan"}, "is_disabled": 0, "fusion_lat": 0.0, "name": "3a573a71eb28c7bdc7d5162d6767f2ea", "fusion_lon": 0.0}, {"is_reserved": 0, "type": "electric_bike", "bike_id": "af545205de2ba26f7469c402cbc3ee66", "lat": 39.0842955, "lon": -76.9514905, "rental_uris": {"android": "https://dc.lft.to/lastmile_qr_scan", "ios": "https://dc.lft.to/lastmile_qr_scan"}, "is_disabled": 0, "fusion_lat": 0.0, "name": "af545205de2ba26f7469c402cbc3ee66", "fusion_lon": 0.0}, {"is_reserved": 0, "type": "electric_bike", "bike_id": "6183bce272da9cb4db139353ac692d46", "lat": 38.94534766666666, "lon": -77.34454783333334, "rental_uris": {"android": "https://dc.lft.to/lastmile_qr_scan", "ios": "https://dc.lft.to/lastmile_qr_scan"}, "is_disabled": 0, "fusion_lat": 0.0, "name": "6183bce272da9cb4db139353ac692d46", "fusion_lon": 0.0}, {"is_reserved": 0, "type": "electric_scooter", "bike_id": "909d1a4cd809ac260237d7297312b053", "lat": 38.917043666666665, "lon": -77.02297783333333, "rental_uris": {"android": "https://dc.lft.to/lastmile_qr_scan", "ios": "https://dc.lft.to/lastmile_qr_scan"}, "is_disabled": 0, "fusion_lat": 0.0, "name": "909d1a4cd809ac260237d7297312b053", "fusion_lon": 0.0}, {"is_reserved": 0, "type": "electric_scooter", "bike_id": "e7da06fd43d1a7de699eef83c5ff9022", "lat": 38.90029216666667, "lon": -76.98876216666666, "rental_uris": {"android": "https://dc.lft.to/lastmile_qr_scan", "ios": "https://dc.lft.to/lastmile_qr_scan"}, "is_disabled": 0, "fusion_lat": 0.0, "name": "e7da06fd43d1a7de699eef83c5ff9022", "fusion_lon": 0.0}, {"is_reserved": 0, "type": "electric_scooter", "bike_id": "96bdc658a7374e336091d22705fc1a06", "lat": 38.886536166666666, "lon": -76.9367615, "rental_uris": {"android": "https://dc.lft.to/lastmile_qr_scan", "ios": "https://dc.lft.to/lastmile_qr_scan"}, "is_disabled": 0, "fusion_lat": 0.0, "name": "96bdc658a7374e336091d22705fc1a06", "fusion_lon": 0.0}, {"is_reserved": 0, "type": "electric_bike", "bike_id": "a8debaaf1eeffe472f432922933bef33", "lat": 38.8194145, "lon": -77.00200016666666, "rental_uris": {"android": "https://dc.lft.to/lastmile_qr_scan", "ios": "https://dc.lft.to/lastmile_qr_scan"}, "is_disabled": 0, "fusion_lat": 0.0, "name": "a8debaaf1eeffe472f432922933bef33", "fusion_lon": 0.0}, {"is_reserved": 0, "type": "electric_scooter", "bike_id": "ddeb81fe42a4be4d553c7d453795b265", "lat": 38.88280133333333, "lon": -76.99489816666667, "rental_uris": {"android": "https://dc.lft.to/lastmile_qr_scan", "ios": "https://dc.lft.to/lastmile_qr_scan"}, "is_disabled": 0, "fusion_lat": 0.0, "name": "ddeb81fe42a4be4d553c7d453795b265", "fusion_lon": 0.0}, {"is_reserved": 0, "type": "electric_scooter", "bike_id": "0b1315cb011aece9bc03f6ad05695bef", "lat": 38.924170333333336, "lon": -77.022669, "rental_uris": {"android": "https://dc.lft.to/lastmile_qr_scan", "ios": "https://dc.lft.to/lastmile_qr_scan"}, "is_disabled": 0, "fusion_lat": 0.0, "name": "0b1315cb011aece9bc03f6ad05695bef", "fusion_lon": 0.0}, {"is_reserved": 0, "type": "electric_scooter", "bike_id": "be50e577788411895f0b58de83269b82", "lat": 38.9053235, "lon": -77.0401075, "rental_uris": {"android": "https://dc.lft.to/lastmile_qr_scan", "ios": "https://dc.lft.to/lastmile_qr_scan"}, "is_disabled": 0, "fusion_lat": 0.0, "name": "be50e577788411895f0b58de83269b82", "fusion_lon": 0.0}, {"is_reserved": 0, "type": "electric_scooter", "bike_id": "27c9d7302d22127dea624798dd22884a", "lat": 38.903837, "lon": -77.03139033333333, "rental_uris": {"android": "https://dc.lft.to/lastmile_qr_scan", "ios": "https://dc.lft.to/lastmile_qr_scan"}, "is_disabled": 0, "fusion_lat": 0.0, "name": "27c9d7302d22127dea624798dd22884a", "fusion_lon": 0.0}, {"is_reserved": 0, "type": "electric_scooter", "bike_id": "762304e408d347a8e64be2c08c064944", "lat": 38.8832285, "lon": -77.009487, "rental_uris": {"android": "https://dc.lft.to/lastmile_qr_scan", "ios": "https://dc.lft.to/lastmile_qr_scan"}, "is_disabled": 0, "fusion_lat": 0.0, "name": "762304e408d347a8e64be2c08c064944", "fusion_lon": 0.0}, {"is_reserved": 0, "type": "electric_bike", "bike_id": "8b57ebf0f03e03bb1a64f50492d6107e", "lat": 38.884018166666664, "lon": -76.96060883333334, "rental_uris": {"android": "https://dc.lft.to/lastmile_qr_scan", "ios": "https://dc.lft.to/lastmile_qr_scan"}, "is_disabled": 0, "fusion_lat": 0.0, "name": "8b57ebf0f03e03bb1a64f50492d6107e", "fusion_lon": 0.0}, {"is_reserved": 0, "type": "electric_scooter", "bike_id": "9ec59a9d359140c840eb2f11ea15edd9", "lat": 38.964094833333334, "lon": -77.032768, "rental_uris": {"android": "https://dc.lft.to/lastmile_qr_scan", "ios": "https://dc.lft.to/lastmile_qr_scan"}, "is_disabled": 0, "fusion_lat": 0.0, "name": "9ec59a9d359140c840eb2f11ea15edd9", "fusion_lon": 0.0}, {"is_reserved": 0, "type": "electric_scooter", "bike_id": "4c179151186cab418ddd1821875f54fc", "lat": 38.9235965, "lon": -77.051288, "rental_uris": {"android": "https://dc.lft.to/lastmile_qr_scan", "ios": "https://dc.lft.to/lastmile_qr_scan"}, "is_disabled": 0, "fusion_lat": 0.0, "name": "4c179151186cab418ddd1821875f54fc", "fusion_lon": 0.0}, {"is_reserved": 0, "type": "electric_scooter", "bike_id": "0b557ffcb1b05715fd9c0cc69f8c1675", "lat": 38.9036905, "lon": -76.9994665, "rental_uris": {"android": "https://dc.lft.to/lastmile_qr_scan", "ios": "https://dc.lft.to/lastmile_qr_scan"}, "is_disabled": 0, "fusion_lat": 0.0, "name": "0b557ffcb1b05715fd9c0cc69f8c1675", "fusion_lon": 0.0}, {"is_reserved": 0, "type": "electric_scooter", "bike_id": "a2fc6eb8414225b9bd899900340676e0", "lat": 38.9158055, "lon": -77.01231183333333, "rental_uris": {"android": "https://dc.lft.to/lastmile_qr_scan", "ios": "https://dc.lft.to/lastmile_qr_scan"}, "is_disabled": 0, "fusion_lat": 0.0, "name": "a2fc6eb8414225b9bd899900340676e0", "fusion_lon": 0.0}, {"is_reserved": 0, "type": "electric_scooter", "bike_id": "f846d1965e3aaa9bc38c0c99c4906700", "lat": 38.9013695, "lon": -77.03885866666667, "rental_uris": {"android": "https://dc.lft.to/lastmile_qr_scan", "ios": "https://dc.lft.to/lastmile_qr_scan"}, "is_disabled": 0, "fusion_lat": 0.0, "name": "f846d1965e3aaa9bc38c0c99c4906700", "fusion_lon": 0.0}, {"is_reserved": 0, "type": "electric_bike", "bike_id": "14bbf63deb5f985d7c4b73e39ed079da", "lat": 38.784036666666665, "lon": -77.1207905, "rental_uris": {"android": "https://dc.lft.to/lastmile_qr_scan", "ios": "https://dc.lft.to/lastmile_qr_scan"}, "is_disabled": 0, "fusion_lat": 0.0, "name": "14bbf63deb5f985d7c4b73e39ed079da", "fusion_lon": 0.0}, {"is_reserved": 0, "type": "electric_scooter", "bike_id": "a2d09c5936497b21e77199ec85ae592d", "lat": 38.93312316666667, "lon": -77.03231533333333, "rental_uris": {"android": "https://dc.lft.to/lastmile_qr_scan", "ios": "https://dc.lft.to/lastmile_qr_scan"}, "is_disabled": 0, "fusion_lat": 0.0, "name": "a2d09c5936497b21e77199ec85ae592d", "fusion_lon": 0.0}, {"is_reserved": 0, "type": "electric_scooter", "bike_id": "8ea5983b5f5acfe4b9b54c7a271b9ede", "lat": 38.9282805, "lon": -77.02606383333334, "rental_uris": {"android": "https://dc.lft.to/lastmile_qr_scan", "ios": "https://dc.lft.to/lastmile_qr_scan"}, "is_disabled": 0, "fusion_lat": 0.0, "name": "8ea5983b5f5acfe4b9b54c7a271b9ede", "fusion_lon": 0.0}, {"is_reserved": 0, "type": "electric_scooter", "bike_id": "e88713101b9c917151dda81728c43408", "lat": 38.89989583333333, "lon": -76.9946965, "rental_uris": {"android": "https://dc.lft.to/lastmile_qr_scan", "ios": "https://dc.lft.to/lastmile_qr_scan"}, "is_disabled": 0, "fusion_lat": 0.0, "name": "e88713101b9c917151dda81728c43408", "fusion_lon": 0.0}, {"is_reserved": 0, "type": "electric_scooter", "bike_id": "42dd0e2d0e1c6444a42b00beffe2745a", "lat": 38.952081166666666, "lon": -77.00268116666666, "rental_uris": {"android": "https://dc.lft.to/lastmile_qr_scan", "ios": "https://dc.lft.to/lastmile_qr_scan"}, "is_disabled": 0, "fusion_lat": 0.0, "name": "42dd0e2d0e1c6444a42b00beffe2745a", "fusion_lon": 0.0}, {"is_reserved": 0, "type": "electric_scooter", "bike_id": "818766644ec5f76d3a0b2d4390b6dd65", "lat": 38.87914933333333, "lon": -77.02204333333333, "rental_uris": {"android": "https://dc.lft.to/lastmile_qr_scan", "ios": "https://dc.lft.to/lastmile_qr_scan"}, "is_disabled": 0, "fusion_lat": 0.0, "name": "818766644ec5f76d3a0b2d4390b6dd65", "fusion_lon": 0.0}, {"is_reserved": 0, "type": "electric_bike", "bike_id": "fa5d9eba6b73ddb780046dc8a834b8cf", "lat": 38.90857783333333, "lon": -76.98480233333333, "rental_uris": {"android": "https://dc.lft.to/lastmile_qr_scan", "ios": "https://dc.lft.to/lastmile_qr_scan"}, "is_disabled": 0, "fusion_lat": 0.0, "name": "fa5d9eba6b73ddb780046dc8a834b8cf", "fusion_lon": 0.0}, {"is_reserved": 0, "type": "electric_scooter", "bike_id": "ef8c1cc41b5d7e72550caacedb1ebf3d", "lat": 38.907639, "lon": -77.04512233333334, "rental_uris": {"android": "https://dc.lft.to/lastmile_qr_scan", "ios": "https://dc.lft.to/lastmile_qr_scan"}, "is_disabled": 0, "fusion_lat": 0.0, "name": "ef8c1cc41b5d7e72550caacedb1ebf3d", "fusion_lon": 0.0}, {"is_reserved": 0, "type": "electric_scooter", "bike_id": "a2e61bb18a20db1f8a0ce22fda8abd82", "lat": 38.89951283333333, "lon": -77.04788783333333, "rental_uris": {"android": "https://dc.lft.to/lastmile_qr_scan", "ios": "https://dc.lft.to/lastmile_qr_scan"}, "is_disabled": 0, "fusion_lat": 0.0, "name": "a2e61bb18a20db1f8a0ce22fda8abd82", "fusion_lon": 0.0}, {"is_reserved": 0, "type": "electric_scooter", "bike_id": "cf2c1cd9386121d05f1379c40a294d9f", "lat": 38.916867, "lon": -77.0238925, "rental_uris": {"android": "https://dc.lft.to/lastmile_qr_scan", "ios": "https://dc.lft.to/lastmile_qr_scan"}, "is_disabled": 0, "fusion_lat": 0.0, "name": "cf2c1cd9386121d05f1379c40a294d9f", "fusion_lon": 0.0}, {"is_reserved": 0, "type": "electric_scooter", "bike_id": "d48cc2db31cb977b477881f54c7f86d3", "lat": 38.90096533333333, "lon": -77.0165845, "rental_uris": {"android": "https://dc.lft.to/lastmile_qr_scan", "ios": "https://dc.lft.to/lastmile_qr_scan"}, "is_disabled": 0, "fusion_lat": 0.0, "name": "d48cc2db31cb977b477881f54c7f86d3", "fusion_lon": 0.0}, {"is_reserved": 0, "type": "electric_scooter", "bike_id": "ce2fd1bbb939bd275893dfba875192c7", "lat": 38.92559966666666, "lon": -77.022848, "rental_uris": {"android": "https://dc.lft.to/lastmile_qr_scan", "ios": "https://dc.lft.to/lastmile_qr_scan"}, "is_disabled": 0, "fusion_lat": 0.0, "name": "ce2fd1bbb939bd275893dfba875192c7", "fusion_lon": 0.0}, {"is_reserved": 0, "type": "electric_scooter", "bike_id": "f35d2492bcf4cdc9fba5042641ea2499", "lat": 38.91110333333334, "lon": -77.019039, "rental_uris": {"android": "https://dc.lft.to/lastmile_qr_scan", "ios": "https://dc.lft.to/lastmile_qr_scan"}, "is_disabled": 0, "fusion_lat": 0.0, "name": "f35d2492bcf4cdc9fba5042641ea2499", "fusion_lon": 0.0}, {"is_reserved": 0, "type": "electric_scooter", "bike_id": "fe2c4a53644618010902417a98640f4e", "lat": 38.9171055, "lon": -77.02961416666666, "rental_uris": {"android": "https://dc.lft.to/lastmile_qr_scan", "ios": "https://dc.lft.to/lastmile_qr_scan"}, "is_disabled": 0, "fusion_lat": 0.0, "name": "fe2c4a53644618010902417a98640f4e", "fusion_lon": 0.0}, {"is_reserved": 0, "type": "electric_scooter", "bike_id": "c2f05e9e37ed90b421bd1556456590ac", "lat": 38.93020716666667, "lon": -77.023228, "rental_uris": {"android": "https://dc.lft.to/lastmile_qr_scan", "ios": "https://dc.lft.to/lastmile_qr_scan"}, "is_disabled": 0, "fusion_lat": 0.0, "name": "c2f05e9e37ed90b421bd1556456590ac", "fusion_lon": 0.0}, {"is_reserved": 0, "type": "electric_scooter", "bike_id": "b8ea23a8b50322e74a8c36ac6b70a707", "lat": 38.916292, "lon": -77.0322275, "rental_uris": {"android": "https://dc.lft.to/lastmile_qr_scan", "ios": "https://dc.lft.to/lastmile_qr_scan"}, "is_disabled": 0, "fusion_lat": 0.0, "name": "b8ea23a8b50322e74a8c36ac6b70a707", "fusion_lon": 0.0}, {"is_reserved": 0, "type": "electric_scooter", "bike_id": "5ae088417387c8dd77ee184847a57480", "lat": 38.898231833333334, "lon": -77.0481195, "rental_uris": {"android": "https://dc.lft.to/lastmile_qr_scan", "ios": "https://dc.lft.to/lastmile_qr_scan"}, "is_disabled": 0, "fusion_lat": 0.0, "name": "5ae088417387c8dd77ee184847a57480", "fusion_lon": 0.0}, {"is_reserved": 0, "type": "electric_scooter", "bike_id": "12480f6f60da876ae3e501286105d5a5", "lat": 38.926024166666664, "lon": -77.024241, "rental_uris": {"android": "https://dc.lft.to/lastmile_qr_scan", "ios": "https://dc.lft.to/lastmile_qr_scan"}, "is_disabled": 0, "fusion_lat": 0.0, "name": "12480f6f60da876ae3e501286105d5a5", "fusion_lon": 0.0}, {"is_reserved": 0, "type": "electric_scooter", "bike_id": "89bc2245d04b68daa803c3f80dbc9b77", "lat": 38.92407816666667, "lon": -77.02003116666667, "rental_uris": {"android": "https://dc.lft.to/lastmile_qr_scan", "ios": "https://dc.lft.to/lastmile_qr_scan"}, "is_disabled": 0, "fusion_lat": 0.0, "name": "89bc2245d04b68daa803c3f80dbc9b77", "fusion_lon": 0.0}, {"is_reserved": 0, "type": "electric_scooter", "bike_id": "1b8f4c469ed10644247c349fc3e8f0bd", "lat": 38.922429666666666, "lon": -77.04250433333333, "rental_uris": {"android": "https://dc.lft.to/lastmile_qr_scan", "ios": "https://dc.lft.to/lastmile_qr_scan"}, "is_disabled": 0, "fusion_lat": 0.0, "name": "1b8f4c469ed10644247c349fc3e8f0bd", "fusion_lon": 0.0}, {"is_reserved": 0, "type": "electric_bike", "bike_id": "a55907284e0ba716ec35b768881b5e3f", "lat": 38.91702383333333, "lon": -77.05720783333334, "rental_uris": {"android": "https://dc.lft.to/lastmile_qr_scan", "ios": "https://dc.lft.to/lastmile_qr_scan"}, "is_disabled": 0, "fusion_lat": 0.0, "name": "a55907284e0ba716ec35b768881b5e3f", "fusion_lon": 0.0}, {"is_reserved": 0, "type": "electric_bike", "bike_id": "0bc0d7a1b7d0c6a395429e5c2e27e440", "lat": 38.92068883333334, "lon": -76.99583883333334, "rental_uris": {"android": "https://dc.lft.to/lastmile_qr_scan", "ios": "https://dc.lft.to/lastmile_qr_scan"}, "is_disabled": 0, "fusion_lat": 0.0, "name": "0bc0d7a1b7d0c6a395429e5c2e27e440", "fusion_lon": 0.0}, {"is_reserved": 0, "type": "electric_scooter", "bike_id": "d310132a8f48b484c71fcc7f1f2c2fcf", "lat": 38.91799116666667, "lon": -77.03443016666667, "rental_uris": {"android": "https://dc.lft.to/lastmile_qr_scan", "ios": "https://dc.lft.to/lastmile_qr_scan"}, "is_disabled": 0, "fusion_lat": 0.0, "name": "d310132a8f48b484c71fcc7f1f2c2fcf", "fusion_lon": 0.0}, {"is_reserved": 0, "type": "electric_scooter", "bike_id": "3f815af0bda908d5317f3fcb00fcc04d", "lat": 38.87524333333333, "lon": -77.00557466666666, "rental_uris": {"android": "https://dc.lft.to/lastmile_qr_scan", "ios": "https://dc.lft.to/lastmile_qr_scan"}, "is_disabled": 0, "fusion_lat": 0.0, "name": "3f815af0bda908d5317f3fcb00fcc04d", "fusion_lon": 0.0}, {"is_reserved": 0, "type": "electric_scooter", "bike_id": "4c7d955a3f2d740b555773525033b77b", "lat": 38.90778233333333, "lon": -77.0425575, "rental_uris": {"android": "https://dc.lft.to/lastmile_qr_scan", "ios": "https://dc.lft.to/lastmile_qr_scan"}, "is_disabled": 0, "fusion_lat": 0.0, "name": "4c7d955a3f2d740b555773525033b77b", "fusion_lon": 0.0}, {"is_reserved": 0, "type": "electric_scooter", "bike_id": "8fb818cf35146994cc2dd46593529971", "lat": 38.93952133333333, "lon": -77.027588, "rental_uris": {"android": "https://dc.lft.to/lastmile_qr_scan", "ios": "https://dc.lft.to/lastmile_qr_scan"}, "is_disabled": 0, "fusion_lat": 0.0, "name": "8fb818cf35146994cc2dd46593529971", "fusion_lon": 0.0}, {"is_reserved": 0, "type": "electric_scooter", "bike_id": "91c8cc5da8ba37dc6f5affae0cc93f15", "lat": 38.91703233333333, "lon": -77.04178, "rental_uris": {"android": "https://dc.lft.to/lastmile_qr_scan", "ios": "https://dc.lft.to/lastmile_qr_scan"}, "is_disabled": 0, "fusion_lat": 0.0, "name": "91c8cc5da8ba37dc6f5affae0cc93f15", "fusion_lon": 0.0}, {"is_reserved": 0, "type": "electric_scooter", "bike_id": "e264fffd5d05ad1e333e420031427223", "lat": 38.883254666666666, "lon": -77.0236625, "rental_uris": {"android": "https://dc.lft.to/lastmile_qr_scan", "ios": "https://dc.lft.to/lastmile_qr_scan"}, "is_disabled": 0, "fusion_lat": 0.0, "name": "e264fffd5d05ad1e333e420031427223", "fusion_lon": 0.0}, {"is_reserved": 0, "type": "electric_scooter", "bike_id": "0f70106d44f52855f5f2279ea1c14150", "lat": 38.9149435, "lon": -77.02000416666667, "rental_uris": {"android": "https://dc.lft.to/lastmile_qr_scan", "ios": "https://dc.lft.to/lastmile_qr_scan"}, "is_disabled": 0, "fusion_lat": 0.0, "name": "0f70106d44f52855f5f2279ea1c14150", "fusion_lon": 0.0}, {"is_reserved": 0, "type": "electric_scooter", "bike_id": "ffea0dd3dabcb8385d4fa0cad64f8d2e", "lat": 38.9196405, "lon": -77.02223866666667, "rental_uris": {"android": "https://dc.lft.to/lastmile_qr_scan", "ios": "https://dc.lft.to/lastmile_qr_scan"}, "is_disabled": 0, "fusion_lat": 0.0, "name": "ffea0dd3dabcb8385d4fa0cad64f8d2e", "fusion_lon": 0.0}, {"is_reserved": 0, "type": "electric_scooter", "bike_id": "aeadfec19b27f64101a862b20b0518fd", "lat": 38.932235, "lon": -77.02657666666667, "rental_uris": {"android": "https://dc.lft.to/lastmile_qr_scan", "ios": "https://dc.lft.to/lastmile_qr_scan"}, "is_disabled": 0, "fusion_lat": 0.0, "name": "aeadfec19b27f64101a862b20b0518fd", "fusion_lon": 0.0}, {"is_reserved": 0, "type": "electric_bike", "bike_id": "7eb1efb5294f4da56cbd131cbab608d2", "lat": 38.8024425, "lon": -77.11438983333333, "rental_uris": {"android": "https://dc.lft.to/lastmile_qr_scan", "ios": "https://dc.lft.to/lastmile_qr_scan"}, "is_disabled": 0, "fusion_lat": 0.0, "name": "7eb1efb5294f4da56cbd131cbab608d2", "fusion_lon": 0.0}, {"is_reserved": 0, "type": "electric_scooter", "bike_id": "ad86fa7746a4cfe207c984d75fea4481", "lat": 38.9176705, "lon": -77.04060883333334, "rental_uris": {"android": "https://dc.lft.to/lastmile_qr_scan", "ios": "https://dc.lft.to/lastmile_qr_scan"}, "is_disabled": 0, "fusion_lat": 0.0, "name": "ad86fa7746a4cfe207c984d75fea4481", "fusion_lon": 0.0}, {"is_reserved": 0, "type": "electric_scooter", "bike_id": "19c6b90b60103947aa052df55eccf6fb", "lat": 38.92503, "lon": -77.03880416666667, "rental_uris": {"android": "https://dc.lft.to/lastmile_qr_scan", "ios": "https://dc.lft.to/lastmile_qr_scan"}, "is_disabled": 0, "fusion_lat": 0.0, "name": "19c6b90b60103947aa052df55eccf6fb", "fusion_lon": 0.0}, {"is_reserved": 0, "type": "electric_scooter", "bike_id": "664fcfd4bbabe0de556652b74df10fd0", "lat": 38.9076585, "lon": -77.03188033333333, "rental_uris": {"android": "https://dc.lft.to/lastmile_qr_scan", "ios": "https://dc.lft.to/lastmile_qr_scan"}, "is_disabled": 0, "fusion_lat": 0.0, "name": "664fcfd4bbabe0de556652b74df10fd0", "fusion_lon": 0.0}, {"is_reserved": 0, "type": "electric_scooter", "bike_id": "f0f187f9a85fba836a45960f73ec7731", "lat": 38.923747666666664, "lon": -77.01918266666667, "rental_uris": {"android": "https://dc.lft.to/lastmile_qr_scan", "ios": "https://dc.lft.to/lastmile_qr_scan"}, "is_disabled": 0, "fusion_lat": 0.0, "name": "f0f187f9a85fba836a45960f73ec7731", "fusion_lon": 0.0}, {"is_reserved": 0, "type": "electric_scooter", "bike_id": "1632f056e2224c7fccbd0b15cda1c2bc", "lat": 38.9155885, "lon": -77.0311265, "rental_uris": {"android": "https://dc.lft.to/lastmile_qr_scan", "ios": "https://dc.lft.to/lastmile_qr_scan"}, "is_disabled": 0, "fusion_lat": 0.0, "name": "1632f056e2224c7fccbd0b15cda1c2bc", "fusion_lon": 0.0}, {"is_reserved": 0, "type": "electric_scooter", "bike_id": "2add010d3c450ce7e843520b46590a15", "lat": 38.893496666666664, "lon": -77.0298075, "rental_uris": {"android": "https://dc.lft.to/lastmile_qr_scan", "ios": "https://dc.lft.to/lastmile_qr_scan"}, "is_disabled": 0, "fusion_lat": 0.0, "name": "2add010d3c450ce7e843520b46590a15", "fusion_lon": 0.0}, {"is_reserved": 0, "type": "electric_scooter", "bike_id": "866e5d304a998b44f9c1a26ba4ef50f1", "lat": 38.896055833333335, "lon": -77.0441025, "rental_uris": {"android": "https://dc.lft.to/lastmile_qr_scan", "ios": "https://dc.lft.to/lastmile_qr_scan"}, "is_disabled": 0, "fusion_lat": 0.0, "name": "866e5d304a998b44f9c1a26ba4ef50f1", "fusion_lon": 0.0}, {"is_reserved": 0, "type": "electric_scooter", "bike_id": "70cdfb5de9465244bcd4066323e539a2", "lat": 38.9723975, "lon": -77.02714933333333, "rental_uris": {"android": "https://dc.lft.to/lastmile_qr_scan", "ios": "https://dc.lft.to/lastmile_qr_scan"}, "is_disabled": 0, "fusion_lat": 0.0, "name": "70cdfb5de9465244bcd4066323e539a2", "fusion_lon": 0.0}, {"is_reserved": 0, "type": "electric_scooter", "bike_id": "1b1d1524b8ed76981048844a795c43a9", "lat": 38.86519766666667, "lon": -76.96908616666667, "rental_uris": {"android": "https://dc.lft.to/lastmile_qr_scan", "ios": "https://dc.lft.to/lastmile_qr_scan"}, "is_disabled": 0, "fusion_lat": 0.0, "name": "1b1d1524b8ed76981048844a795c43a9", "fusion_lon": 0.0}, {"is_reserved": 0, "type": "electric_scooter", "bike_id": "99cacd1367b431aa4b3fe5ceb0bb207b", "lat": 38.90477583333333, "lon": -77.04862716666666, "rental_uris": {"android": "https://dc.lft.to/lastmile_qr_scan", "ios": "https://dc.lft.to/lastmile_qr_scan"}, "is_disabled": 0, "fusion_lat": 0.0, "name": "99cacd1367b431aa4b3fe5ceb0bb207b", "fusion_lon": 0.0}, {"is_reserved": 0, "type": "electric_scooter", "bike_id": "51340c0153b236fe7feffaae82a196a9", "lat": 38.918712166666666, "lon": -77.047203, "rental_uris": {"android": "https://dc.lft.to/lastmile_qr_scan", "ios": "https://dc.lft.to/lastmile_qr_scan"}, "is_disabled": 0, "fusion_lat": 0.0, "name": "51340c0153b236fe7feffaae82a196a9", "fusion_lon": 0.0}, {"is_reserved": 0, "type": "electric_scooter", "bike_id": "c881e1259ee530bf6a15c68e43d7f13f", "lat": 38.845844, "lon": -76.981638, "rental_uris": {"android": "https://dc.lft.to/lastmile_qr_scan", "ios": "https://dc.lft.to/lastmile_qr_scan"}, "is_disabled": 0, "fusion_lat": 0.0, "name": "c881e1259ee530bf6a15c68e43d7f13f", "fusion_lon": 0.0}, {"is_reserved": 0, "type": "electric_bike", "bike_id": "a2e9016bcc366e7ddec1befd4899c6eb", "lat": 38.927799666666665, "lon": -76.99912416666666, "rental_uris": {"android": "https://dc.lft.to/lastmile_qr_scan", "ios": "https://dc.lft.to/lastmile_qr_scan"}, "is_disabled": 0, "fusion_lat": 0.0, "name": "a2e9016bcc366e7ddec1befd4899c6eb", "fusion_lon": 0.0}, {"is_reserved": 0, "type": "electric_scooter", "bike_id": "936d36e01a4d4262f6cac82fdf6a9c0c", "lat": 38.905273, "lon": -77.06783866666666, "rental_uris": {"android": "https://dc.lft.to/lastmile_qr_scan", "ios": "https://dc.lft.to/lastmile_qr_scan"}, "is_disabled": 0, "fusion_lat": 0.0, "name": "936d36e01a4d4262f6cac82fdf6a9c0c", "fusion_lon": 0.0}, {"is_reserved": 0, "type": "electric_bike", "bike_id": "be75cfe8d77c2e53047f343b78c607b1", "lat": 38.920340333333336, "lon": -76.979561, "rental_uris": {"android": "https://dc.lft.to/lastmile_qr_scan", "ios": "https://dc.lft.to/lastmile_qr_scan"}, "is_disabled": 0, "fusion_lat": 0.0, "name": "be75cfe8d77c2e53047f343b78c607b1", "fusion_lon": 0.0}, {"is_reserved": 0, "type": "electric_scooter", "bike_id": "0dae8f2b36f5b3be044e8d2fc068ae2f", "lat": 38.93542266666667, "lon": -77.03420533333333, "rental_uris": {"android": "https://dc.lft.to/lastmile_qr_scan", "ios": "https://dc.lft.to/lastmile_qr_scan"}, "is_disabled": 0, "fusion_lat": 0.0, "name": "0dae8f2b36f5b3be044e8d2fc068ae2f", "fusion_lon": 0.0}, {"is_reserved": 0, "type": "electric_scooter", "bike_id": "15f14845e9ed5e35470698d78a095102", "lat": 38.923617166666666, "lon": -77.05130816666667, "rental_uris": {"android": "https://dc.lft.to/lastmile_qr_scan", "ios": "https://dc.lft.to/lastmile_qr_scan"}, "is_disabled": 0, "fusion_lat": 0.0, "name": "15f14845e9ed5e35470698d78a095102", "fusion_lon": 0.0}, {"is_reserved": 0, "type": "electric_scooter", "bike_id": "e347def091e4df109e116a1956ee96cf", "lat": 38.91591916666667, "lon": -77.02128616666667, "rental_uris": {"android": "https://dc.lft.to/lastmile_qr_scan", "ios": "https://dc.lft.to/lastmile_qr_scan"}, "is_disabled": 0, "fusion_lat": 0.0, "name": "e347def091e4df109e116a1956ee96cf", "fusion_lon": 0.0}, {"is_reserved": 0, "type": "electric_scooter", "bike_id": "29506407f811a2a95cef16e17f70f041", "lat": 38.905771, "lon": -77.03649616666667, "rental_uris": {"android": "https://dc.lft.to/lastmile_qr_scan", "ios": "https://dc.lft.to/lastmile_qr_scan"}, "is_disabled": 0, "fusion_lat": 0.0, "name": "29506407f811a2a95cef16e17f70f041", "fusion_lon": 0.0}, {"is_reserved": 0, "type": "electric_scooter", "bike_id": "ad321d417d8646c3a4a6d2049fcc198e", "lat": 38.907222833333336, "lon": -77.032985, "rental_uris": {"android": "https://dc.lft.to/lastmile_qr_scan", "ios": "https://dc.lft.to/lastmile_qr_scan"}, "is_disabled": 0, "fusion_lat": 0.0, "name": "ad321d417d8646c3a4a6d2049fcc198e", "fusion_lon": 0.0}, {"is_reserved": 0, "type": "electric_scooter", "bike_id": "0fda3470b3353f590bea58b0d2ed834a", "lat": 38.9245845, "lon": -77.03292566666667, "rental_uris": {"android": "https://dc.lft.to/lastmile_qr_scan", "ios": "https://dc.lft.to/lastmile_qr_scan"}, "is_disabled": 0, "fusion_lat": 0.0, "name": "0fda3470b3353f590bea58b0d2ed834a", "fusion_lon": 0.0}, {"is_reserved": 0, "type": "electric_scooter", "bike_id": "93e795b635ee59dca48f231a11debd82", "lat": 38.92779, "lon": -77.02781466666667, "rental_uris": {"android": "https://dc.lft.to/lastmile_qr_scan", "ios": "https://dc.lft.to/lastmile_qr_scan"}, "is_disabled": 0, "fusion_lat": 0.0, "name": "93e795b635ee59dca48f231a11debd82", "fusion_lon": 0.0}, {"is_reserved": 0, "type": "electric_scooter", "bike_id": "babbb9f3d25b72935545deec94c3f078", "lat": 38.918551, "lon": -76.9653855, "rental_uris": {"android": "https://dc.lft.to/lastmile_qr_scan", "ios": "https://dc.lft.to/lastmile_qr_scan"}, "is_disabled": 0, "fusion_lat": 0.0, "name": "babbb9f3d25b72935545deec94c3f078", "fusion_lon": 0.0}, {"is_reserved": 0, "type": "electric_scooter", "bike_id": "a251128371e0c5e2ab278e51f19ab694", "lat": 38.90397733333333, "lon": -77.06778183333333, "rental_uris": {"android": "https://dc.lft.to/lastmile_qr_scan", "ios": "https://dc.lft.to/lastmile_qr_scan"}, "is_disabled": 0, "fusion_lat": 0.0, "name": "a251128371e0c5e2ab278e51f19ab694", "fusion_lon": 0.0}, {"is_reserved": 0, "type": "electric_scooter", "bike_id": "b566d6481cb66fcb3d9d6170043be394", "lat": 38.915948666666665, "lon": -77.02180766666666, "rental_uris": {"android": "https://dc.lft.to/lastmile_qr_scan", "ios": "https://dc.lft.to/lastmile_qr_scan"}, "is_disabled": 0, "fusion_lat": 0.0, "name": "b566d6481cb66fcb3d9d6170043be394", "fusion_lon": 0.0}, {"is_reserved": 0, "type": "electric_scooter", "bike_id": "69aafc24606bc0de384c3cc2fcf2428c", "lat": 38.9010565, "lon": -77.02510216666667, "rental_uris": {"android": "https://dc.lft.to/lastmile_qr_scan", "ios": "https://dc.lft.to/lastmile_qr_scan"}, "is_disabled": 0, "fusion_lat": 0.0, "name": "69aafc24606bc0de384c3cc2fcf2428c", "fusion_lon": 0.0}, {"is_reserved": 0, "type": "electric_scooter", "bike_id": "12a44985bdffa8a842c11df61074a616", "lat": 38.88488666666667, "lon": -77.03475183333333, "rental_uris": {"android": "https://dc.lft.to/lastmile_qr_scan", "ios": "https://dc.lft.to/lastmile_qr_scan"}, "is_disabled": 0, "fusion_lat": 0.0, "name": "12a44985bdffa8a842c11df61074a616", "fusion_lon": 0.0}, {"is_reserved": 0, "type": "electric_scooter", "bike_id": "cbe0996acea3dbe6026c37ac09d701bb", "lat": 38.903608, "lon": -77.00347666666667, "rental_uris": {"android": "https://dc.lft.to/lastmile_qr_scan", "ios": "https://dc.lft.to/lastmile_qr_scan"}, "is_disabled": 0, "fusion_lat": 0.0, "name": "cbe0996acea3dbe6026c37ac09d701bb", "fusion_lon": 0.0}, {"is_reserved": 0, "type": "electric_scooter", "bike_id": "36429f217405d12f5a56c8d90578e4c7", "lat": 38.929407833333336, "lon": -76.99785816666666, "rental_uris": {"android": "https://dc.lft.to/lastmile_qr_scan", "ios": "https://dc.lft.to/lastmile_qr_scan"}, "is_disabled": 0, "fusion_lat": 0.0, "name": "36429f217405d12f5a56c8d90578e4c7", "fusion_lon": 0.0}, {"is_reserved": 0, "type": "electric_scooter", "bike_id": "691bfcbf1d809a1652846b6bb093ed38", "lat": 38.905779, "lon": -77.00802933333334, "rental_uris": {"android": "https://dc.lft.to/lastmile_qr_scan", "ios": "https://dc.lft.to/lastmile_qr_scan"}, "is_disabled": 0, "fusion_lat": 0.0, "name": "691bfcbf1d809a1652846b6bb093ed38", "fusion_lon": 0.0}, {"is_reserved": 0, "type": "electric_scooter", "bike_id": "8620bac60a1456b0b15cace543896e8f", "lat": 38.9117415, "lon": -77.01976733333333, "rental_uris": {"android": "https://dc.lft.to/lastmile_qr_scan", "ios": "https://dc.lft.to/lastmile_qr_scan"}, "is_disabled": 0, "fusion_lat": 0.0, "name": "8620bac60a1456b0b15cace543896e8f", "fusion_lon": 0.0}, {"is_reserved": 0, "type": "electric_scooter", "bike_id": "42f6afc8399ec5a96410971d0a5aac14", "lat": 38.89848633333333, "lon": -77.0290845, "rental_uris": {"android": "https://dc.lft.to/lastmile_qr_scan", "ios": "https://dc.lft.to/lastmile_qr_scan"}, "is_disabled": 0, "fusion_lat": 0.0, "name": "42f6afc8399ec5a96410971d0a5aac14", "fusion_lon": 0.0}, {"is_reserved": 0, "type": "electric_scooter", "bike_id": "b1afa63e1996ad0eca870e1cc5e61988", "lat": 38.935552, "lon": -77.022185, "rental_uris": {"android": "https://dc.lft.to/lastmile_qr_scan", "ios": "https://dc.lft.to/lastmile_qr_scan"}, "is_disabled": 0, "fusion_lat": 0.0, "name": "b1afa63e1996ad0eca870e1cc5e61988", "fusion_lon": 0.0}, {"is_reserved": 0, "type": "electric_scooter", "bike_id": "c868e5ed086368242c3fe8e6dbe2978a", "lat": 38.917995166666664, "lon": -77.0330375, "rental_uris": {"android": "https://dc.lft.to/lastmile_qr_scan", "ios": "https://dc.lft.to/lastmile_qr_scan"}, "is_disabled": 0, "fusion_lat": 0.0, "name": "c868e5ed086368242c3fe8e6dbe2978a", "fusion_lon": 0.0}, {"is_reserved": 0, "type": "electric_scooter", "bike_id": "4866729d7a00c36d00f3a088af5fad1d", "lat": 38.89492833333333, "lon": -77.00203033333334, "rental_uris": {"android": "https://dc.lft.to/lastmile_qr_scan", "ios": "https://dc.lft.to/lastmile_qr_scan"}, "is_disabled": 0, "fusion_lat": 0.0, "name": "4866729d7a00c36d00f3a088af5fad1d", "fusion_lon": 0.0}, {"is_reserved": 0, "type": "electric_scooter", "bike_id": "38c4fc33095070080f0a9dc8aeda72db", "lat": 38.908759833333335, "lon": -77.02351433333334, "rental_uris": {"android": "https://dc.lft.to/lastmile_qr_scan", "ios": "https://dc.lft.to/lastmile_qr_scan"}, "is_disabled": 0, "fusion_lat": 0.0, "name": "38c4fc33095070080f0a9dc8aeda72db", "fusion_lon": 0.0}, {"is_reserved": 0, "type": "electric_scooter", "bike_id": "4671d30a6dcf18f6f1dd03816f13bad1", "lat": 38.956295, "lon": -77.02781166666666, "rental_uris": {"android": "https://dc.lft.to/lastmile_qr_scan", "ios": "https://dc.lft.to/lastmile_qr_scan"}, "is_disabled": 0, "fusion_lat": 0.0, "name": "4671d30a6dcf18f6f1dd03816f13bad1", "fusion_lon": 0.0}, {"is_reserved": 0, "type": "electric_scooter", "bike_id": "4a78556e97641df24a892bfa5704daba", "lat": 38.905442, "lon": -77.00561216666667, "rental_uris": {"android": "https://dc.lft.to/lastmile_qr_scan", "ios": "https://dc.lft.to/lastmile_qr_scan"}, "is_disabled": 0, "fusion_lat": 0.0, "name": "4a78556e97641df24a892bfa5704daba", "fusion_lon": 0.0}, {"is_reserved": 0, "type": "electric_scooter", "bike_id": "231413412eac79c1d3b49565a547020d", "lat": 38.92439483333333, "lon": -77.044007, "rental_uris": {"android": "https://dc.lft.to/lastmile_qr_scan", "ios": "https://dc.lft.to/lastmile_qr_scan"}, "is_disabled": 0, "fusion_lat": 0.0, "name": "231413412eac79c1d3b49565a547020d", "fusion_lon": 0.0}, {"is_reserved": 0, "type": "electric_bike", "bike_id": "09dcb7eb5402eeba08aa83da69931be8", "lat": 38.908503833333334, "lon": -77.05763333333333, "rental_uris": {"android": "https://dc.lft.to/lastmile_qr_scan", "ios": "https://dc.lft.to/lastmile_qr_scan"}, "is_disabled": 0, "fusion_lat": 0.0, "name": "09dcb7eb5402eeba08aa83da69931be8", "fusion_lon": 0.0}, {"is_reserved": 0, "type": "electric_scooter", "bike_id": "6f565cf08ed605acf8563bfe4ca8a7f4", "lat": 38.916788333333336, "lon": -77.02894933333333, "rental_uris": {"android": "https://dc.lft.to/lastmile_qr_scan", "ios": "https://dc.lft.to/lastmile_qr_scan"}, "is_disabled": 0, "fusion_lat": 0.0, "name": "6f565cf08ed605acf8563bfe4ca8a7f4", "fusion_lon": 0.0}, {"is_reserved": 0, "type": "electric_scooter", "bike_id": "e212bc437f786a790cd3e963eafe7f15", "lat": 38.905952666666664, "lon": -77.0642045, "rental_uris": {"android": "https://dc.lft.to/lastmile_qr_scan", "ios": "https://dc.lft.to/lastmile_qr_scan"}, "is_disabled": 0, "fusion_lat": 0.0, "name": "e212bc437f786a790cd3e963eafe7f15", "fusion_lon": 0.0}, {"is_reserved": 0, "type": "electric_scooter", "bike_id": "70fafe03ee0075fc882e0b5bf503dce1", "lat": 38.88788783333333, "lon": -76.991536, "rental_uris": {"android": "https://dc.lft.to/lastmile_qr_scan", "ios": "https://dc.lft.to/lastmile_qr_scan"}, "is_disabled": 0, "fusion_lat": 0.0, "name": "70fafe03ee0075fc882e0b5bf503dce1", "fusion_lon": 0.0}, {"is_reserved": 0, "type": "electric_scooter", "bike_id": "78584c91fbbf8f2aae335eeab97b1e0a", "lat": 38.941917333333336, "lon": -77.02339483333333, "rental_uris": {"android": "https://dc.lft.to/lastmile_qr_scan", "ios": "https://dc.lft.to/lastmile_qr_scan"}, "is_disabled": 0, "fusion_lat": 0.0, "name": "78584c91fbbf8f2aae335eeab97b1e0a", "fusion_lon": 0.0}, {"is_reserved": 0, "type": "electric_scooter", "bike_id": "13423ebc2553b31efa0c9be492d89270", "lat": 38.92426833333333, "lon": -77.05180733333333, "rental_uris": {"android": "https://dc.lft.to/lastmile_qr_scan", "ios": "https://dc.lft.to/lastmile_qr_scan"}, "is_disabled": 0, "fusion_lat": 0.0, "name": "13423ebc2553b31efa0c9be492d89270", "fusion_lon": 0.0}, {"is_reserved": 0, "type": "electric_scooter", "bike_id": "357e10a1ca1162b0726adf314ad6e734", "lat": 38.92459316666667, "lon": -77.00890366666667, "rental_uris": {"android": "https://dc.lft.to/lastmile_qr_scan", "ios": "https://dc.lft.to/lastmile_qr_scan"}, "is_disabled": 0, "fusion_lat": 0.0, "name": "357e10a1ca1162b0726adf314ad6e734", "fusion_lon": 0.0}, {"is_reserved": 0, "type": "electric_scooter", "bike_id": "c295dbd15910774db76c0542b3992edd", "lat": 38.87809566666667, "lon": -77.02244216666666, "rental_uris": {"android": "https://dc.lft.to/lastmile_qr_scan", "ios": "https://dc.lft.to/lastmile_qr_scan"}, "is_disabled": 0, "fusion_lat": 0.0, "name": "c295dbd15910774db76c0542b3992edd", "fusion_lon": 0.0}, {"is_reserved": 0, "type": "electric_scooter", "bike_id": "1ce9d5d09858f110c678a66347dd456e", "lat": 38.9203455, "lon": -77.012242, "rental_uris": {"android": "https://dc.lft.to/lastmile_qr_scan", "ios": "https://dc.lft.to/lastmile_qr_scan"}, "is_disabled": 0, "fusion_lat": 0.0, "name": "1ce9d5d09858f110c678a66347dd456e", "fusion_lon": 0.0}, {"is_reserved": 0, "type": "electric_scooter", "bike_id": "c455b0034d8428bb29091fbc4fe18059", "lat": 38.9054765, "lon": -77.06523833333334, "rental_uris": {"android": "https://dc.lft.to/lastmile_qr_scan", "ios": "https://dc.lft.to/lastmile_qr_scan"}, "is_disabled": 0, "fusion_lat": 0.0, "name": "c455b0034d8428bb29091fbc4fe18059", "fusion_lon": 0.0}, {"is_reserved": 0, "type": "electric_scooter", "bike_id": "16c6e7955a986e2a657e74531c8200aa", "lat": 38.9193825, "lon": -77.03140783333333, "rental_uris": {"android": "https://dc.lft.to/lastmile_qr_scan", "ios": "https://dc.lft.to/lastmile_qr_scan"}, "is_disabled": 0, "fusion_lat": 0.0, "name": "16c6e7955a986e2a657e74531c8200aa", "fusion_lon": 0.0}, {"is_reserved": 0, "type": "electric_scooter", "bike_id": "6f61ea3af1d89f968ebd6c0208493ac1", "lat": 38.92447516666667, "lon": -77.00004633333333, "rental_uris": {"android": "https://dc.lft.to/lastmile_qr_scan", "ios": "https://dc.lft.to/lastmile_qr_scan"}, "is_disabled": 0, "fusion_lat": 0.0, "name": "6f61ea3af1d89f968ebd6c0208493ac1", "fusion_lon": 0.0}, {"is_reserved": 0, "type": "electric_scooter", "bike_id": "c078bea6bfb209bc9b6aaaf96cf1ae6a", "lat": 38.89343983333333, "lon": -77.0117045, "rental_uris": {"android": "https://dc.lft.to/lastmile_qr_scan", "ios": "https://dc.lft.to/lastmile_qr_scan"}, "is_disabled": 0, "fusion_lat": 0.0, "name": "c078bea6bfb209bc9b6aaaf96cf1ae6a", "fusion_lon": 0.0}, {"is_reserved": 0, "type": "electric_scooter", "bike_id": "9849d9bfe57df61c3b69fdcb12248baa", "lat": 38.8921855, "lon": -77.02415516666667, "rental_uris": {"android": "https://dc.lft.to/lastmile_qr_scan", "ios": "https://dc.lft.to/lastmile_qr_scan"}, "is_disabled": 0, "fusion_lat": 0.0, "name": "9849d9bfe57df61c3b69fdcb12248baa", "fusion_lon": 0.0}, {"is_reserved": 0, "type": "electric_scooter", "bike_id": "24c09854d8ac1f65938730c1887634d7", "lat": 38.923353, "lon": -77.04382466666667, "rental_uris": {"android": "https://dc.lft.to/lastmile_qr_scan", "ios": "https://dc.lft.to/lastmile_qr_scan"}, "is_disabled": 0, "fusion_lat": 0.0, "name": "24c09854d8ac1f65938730c1887634d7", "fusion_lon": 0.0}, {"is_reserved": 0, "type": "electric_scooter", "bike_id": "d05996dc7732b50bf93c1c724a7de464", "lat": 38.91219666666667, "lon": -77.02687216666666, "rental_uris": {"android": "https://dc.lft.to/lastmile_qr_scan", "ios": "https://dc.lft.to/lastmile_qr_scan"}, "is_disabled": 0, "fusion_lat": 0.0, "name": "d05996dc7732b50bf93c1c724a7de464", "fusion_lon": 0.0}, {"is_reserved": 0, "type": "electric_scooter", "bike_id": "6d20f72c34b67f3cdd35e8c14e8ca299", "lat": 38.895929, "lon": -76.92986266666666, "rental_uris": {"android": "https://dc.lft.to/lastmile_qr_scan", "ios": "https://dc.lft.to/lastmile_qr_scan"}, "is_disabled": 0, "fusion_lat": 0.0, "name": "6d20f72c34b67f3cdd35e8c14e8ca299", "fusion_lon": 0.0}, {"is_reserved": 0, "type": "electric_bike", "bike_id": "32d7fdfec6fd3aa1d161124292919a37", "lat": 38.94909233333333, "lon": -77.02418483333334, "rental_uris": {"android": "https://dc.lft.to/lastmile_qr_scan", "ios": "https://dc.lft.to/lastmile_qr_scan"}, "is_disabled": 0, "fusion_lat": 0.0, "name": "32d7fdfec6fd3aa1d161124292919a37", "fusion_lon": 0.0}, {"is_reserved": 0, "type": "electric_scooter", "bike_id": "3c961dac4f992927909db03b20c43ebe", "lat": 38.90026316666667, "lon": -76.9984675, "rental_uris": {"android": "https://dc.lft.to/lastmile_qr_scan", "ios": "https://dc.lft.to/lastmile_qr_scan"}, "is_disabled": 0, "fusion_lat": 0.0, "name": "3c961dac4f992927909db03b20c43ebe", "fusion_lon": 0.0}, {"is_reserved": 0, "type": "electric_scooter", "bike_id": "ebe2fd3e2c8d65b46404fc26873fc8d3", "lat": 38.898453333333336, "lon": -77.02216733333333, "rental_uris": {"android": "https://dc.lft.to/lastmile_qr_scan", "ios": "https://dc.lft.to/lastmile_qr_scan"}, "is_disabled": 0, "fusion_lat": 0.0, "name": "ebe2fd3e2c8d65b46404fc26873fc8d3", "fusion_lon": 0.0}, {"is_reserved": 0, "type": "electric_scooter", "bike_id": "361bb74917b0d89c5f88117b941bfc77", "lat": 38.883281833333335, "lon": -77.01967016666667, "rental_uris": {"android": "https://dc.lft.to/lastmile_qr_scan", "ios": "https://dc.lft.to/lastmile_qr_scan"}, "is_disabled": 0, "fusion_lat": 0.0, "name": "361bb74917b0d89c5f88117b941bfc77", "fusion_lon": 0.0}, {"is_reserved": 0, "type": "electric_scooter", "bike_id": "e19061a9e50d983549311c2fe6d9025d", "lat": 38.92409383333333, "lon": -77.0201145, "rental_uris": {"android": "https://dc.lft.to/lastmile_qr_scan", "ios": "https://dc.lft.to/lastmile_qr_scan"}, "is_disabled": 0, "fusion_lat": 0.0, "name": "e19061a9e50d983549311c2fe6d9025d", "fusion_lon": 0.0}, {"is_reserved": 0, "type": "electric_scooter", "bike_id": "ca7fdef4eebb539694ff17b300885687", "lat": 38.905688833333336, "lon": -77.0416835, "rental_uris": {"android": "https://dc.lft.to/lastmile_qr_scan", "ios": "https://dc.lft.to/lastmile_qr_scan"}, "is_disabled": 0, "fusion_lat": 0.0, "name": "ca7fdef4eebb539694ff17b300885687", "fusion_lon": 0.0}, {"is_reserved": 0, "type": "electric_scooter", "bike_id": "957bb9d57f968f1fed1232c627c9cd91", "lat": 38.899780666666665, "lon": -77.027091, "rental_uris": {"android": "https://dc.lft.to/lastmile_qr_scan", "ios": "https://dc.lft.to/lastmile_qr_scan"}, "is_disabled": 0, "fusion_lat": 0.0, "name": "957bb9d57f968f1fed1232c627c9cd91", "fusion_lon": 0.0}, {"is_reserved": 0, "type": "electric_scooter", "bike_id": "f2fd6ae8cf8058c2d4797c4ce1b419ba", "lat": 38.90201283333333, "lon": -77.021555, "rental_uris": {"android": "https://dc.lft.to/lastmile_qr_scan", "ios": "https://dc.lft.to/lastmile_qr_scan"}, "is_disabled": 0, "fusion_lat": 0.0, "name": "f2fd6ae8cf8058c2d4797c4ce1b419ba", "fusion_lon": 0.0}, {"is_reserved": 0, "type": "electric_scooter", "bike_id": "cb32ad68173420fe14892d8f178f1811", "lat": 38.918449, "lon": -77.04112933333333, "rental_uris": {"android": "https://dc.lft.to/lastmile_qr_scan", "ios": "https://dc.lft.to/lastmile_qr_scan"}, "is_disabled": 0, "fusion_lat": 0.0, "name": "cb32ad68173420fe14892d8f178f1811", "fusion_lon": 0.0}, {"is_reserved": 0, "type": "electric_scooter", "bike_id": "f1a042428d9345ee244ace94b3815bf2", "lat": 38.917034, "lon": -77.029822, "rental_uris": {"android": "https://dc.lft.to/lastmile_qr_scan", "ios": "https://dc.lft.to/lastmile_qr_scan"}, "is_disabled": 0, "fusion_lat": 0.0, "name": "f1a042428d9345ee244ace94b3815bf2", "fusion_lon": 0.0}, {"is_reserved": 0, "type": "electric_scooter", "bike_id": "b540ec7e0c35230f3691f198c197027f", "lat": 38.91672066666667, "lon": -77.03206066666667, "rental_uris": {"android": "https://dc.lft.to/lastmile_qr_scan", "ios": "https://dc.lft.to/lastmile_qr_scan"}, "is_disabled": 0, "fusion_lat": 0.0, "name": "b540ec7e0c35230f3691f198c197027f", "fusion_lon": 0.0}, {"is_reserved": 0, "type": "electric_scooter", "bike_id": "c3aa6f90db947524f60983045039b072", "lat": 38.922532333333336, "lon": -77.0429645, "rental_uris": {"android": "https://dc.lft.to/lastmile_qr_scan", "ios": "https://dc.lft.to/lastmile_qr_scan"}, "is_disabled": 0, "fusion_lat": 0.0, "name": "c3aa6f90db947524f60983045039b072", "fusion_lon": 0.0}, {"is_reserved": 0, "type": "electric_bike", "bike_id": "8949174544548ff9640267023055a57d", "lat": 38.893971666666665, "lon": -76.86847466666667, "rental_uris": {"android": "https://dc.lft.to/lastmile_qr_scan", "ios": "https://dc.lft.to/lastmile_qr_scan"}, "is_disabled": 0, "fusion_lat": 0.0, "name": "8949174544548ff9640267023055a57d", "fusion_lon": 0.0}, {"is_reserved": 0, "type": "electric_scooter", "bike_id": "925e8bc69d2826908575237ad52ae2b4", "lat": 38.914048666666666, "lon": -77.0316865, "rental_uris": {"android": "https://dc.lft.to/lastmile_qr_scan", "ios": "https://dc.lft.to/lastmile_qr_scan"}, "is_disabled": 0, "fusion_lat": 0.0, "name": "925e8bc69d2826908575237ad52ae2b4", "fusion_lon": 0.0}, {"is_reserved": 0, "type": "electric_scooter", "bike_id": "fbb8d335b9c57e6b7216cd0ac9449535", "lat": 38.924843, "lon": -77.022668, "rental_uris": {"android": "https://dc.lft.to/lastmile_qr_scan", "ios": "https://dc.lft.to/lastmile_qr_scan"}, "is_disabled": 0, "fusion_lat": 0.0, "name": "fbb8d335b9c57e6b7216cd0ac9449535", "fusion_lon": 0.0}, {"is_reserved": 0, "type": "electric_scooter", "bike_id": "f808f48ec0a6a4cd909384bab2e24f60", "lat": 38.9008715, "lon": -77.04952666666667, "rental_uris": {"android": "https://dc.lft.to/lastmile_qr_scan", "ios": "https://dc.lft.to/lastmile_qr_scan"}, "is_disabled": 0, "fusion_lat": 0.0, "name": "f808f48ec0a6a4cd909384bab2e24f60", "fusion_lon": 0.0}, {"is_reserved": 0, "type": "electric_scooter", "bike_id": "039f17b16988873f47b5b2b35dbeb772", "lat": 38.90954633333333, "lon": -77.03155733333334, "rental_uris": {"android": "https://dc.lft.to/lastmile_qr_scan", "ios": "https://dc.lft.to/lastmile_qr_scan"}, "is_disabled": 0, "fusion_lat": 0.0, "name": "039f17b16988873f47b5b2b35dbeb772", "fusion_lon": 0.0}, {"is_reserved": 0, "type": "electric_scooter", "bike_id": "04f048c4f1e3404456f9fd921b52d2c2", "lat": 38.910978166666666, "lon": -77.07348333333333, "rental_uris": {"android": "https://dc.lft.to/lastmile_qr_scan", "ios": "https://dc.lft.to/lastmile_qr_scan"}, "is_disabled": 0, "fusion_lat": 0.0, "name": "04f048c4f1e3404456f9fd921b52d2c2", "fusion_lon": 0.0}, {"is_reserved": 0, "type": "electric_scooter", "bike_id": "cd45381c22491c4ef4e10af92c8a2288", "lat": 38.896513, "lon": -77.02193733333333, "rental_uris": {"android": "https://dc.lft.to/lastmile_qr_scan", "ios": "https://dc.lft.to/lastmile_qr_scan"}, "is_disabled": 0, "fusion_lat": 0.0, "name": "cd45381c22491c4ef4e10af92c8a2288", "fusion_lon": 0.0}, {"is_reserved": 0, "type": "electric_scooter", "bike_id": "359002bfa872ed22e961002105c74d68", "lat": 38.9055545, "lon": -77.0417655, "rental_uris": {"android": "https://dc.lft.to/lastmile_qr_scan", "ios": "https://dc.lft.to/lastmile_qr_scan"}, "is_disabled": 0, "fusion_lat": 0.0, "name": "359002bfa872ed22e961002105c74d68", "fusion_lon": 0.0}, {"is_reserved": 0, "type": "electric_scooter", "bike_id": "7c2fb426bac9b65aa158bd6bf02be8fc", "lat": 38.900141166666664, "lon": -77.02197116666666, "rental_uris": {"android": "https://dc.lft.to/lastmile_qr_scan", "ios": "https://dc.lft.to/lastmile_qr_scan"}, "is_disabled": 0, "fusion_lat": 0.0, "name": "7c2fb426bac9b65aa158bd6bf02be8fc", "fusion_lon": 0.0}, {"is_reserved": 0, "type": "electric_scooter", "bike_id": "0543ec47b9c05f786367eea6fd758c0a", "lat": 38.93870233333333, "lon": -77.0321635, "rental_uris": {"android": "https://dc.lft.to/lastmile_qr_scan", "ios": "https://dc.lft.to/lastmile_qr_scan"}, "is_disabled": 0, "fusion_lat": 0.0, "name": "0543ec47b9c05f786367eea6fd758c0a", "fusion_lon": 0.0}, {"is_reserved": 0, "type": "electric_scooter", "bike_id": "c1bd095e83afb6e515f6f162ca685d0c", "lat": 38.922869166666665, "lon": -77.03032883333333, "rental_uris": {"android": "https://dc.lft.to/lastmile_qr_scan", "ios": "https://dc.lft.to/lastmile_qr_scan"}, "is_disabled": 0, "fusion_lat": 0.0, "name": "c1bd095e83afb6e515f6f162ca685d0c", "fusion_lon": 0.0}, {"is_reserved": 0, "type": "electric_scooter", "bike_id": "58940a0567b41b5b0311908e410793ab", "lat": 38.92482733333333, "lon": -77.0271315, "rental_uris": {"android": "https://dc.lft.to/lastmile_qr_scan", "ios": "https://dc.lft.to/lastmile_qr_scan"}, "is_disabled": 0, "fusion_lat": 0.0, "name": "58940a0567b41b5b0311908e410793ab", "fusion_lon": 0.0}, {"is_reserved": 0, "type": "electric_scooter", "bike_id": "7318e28a2739cca1b4274824926a889e", "lat": 38.92184833333334, "lon": -77.0412905, "rental_uris": {"android": "https://dc.lft.to/lastmile_qr_scan", "ios": "https://dc.lft.to/lastmile_qr_scan"}, "is_disabled": 0, "fusion_lat": 0.0, "name": "7318e28a2739cca1b4274824926a889e", "fusion_lon": 0.0}, {"is_reserved": 0, "type": "electric_scooter", "bike_id": "66447e722d9aa27b1a39e73aca3e0ecb", "lat": 38.89223366666667, "lon": -77.04746666666666, "rental_uris": {"android": "https://dc.lft.to/lastmile_qr_scan", "ios": "https://dc.lft.to/lastmile_qr_scan"}, "is_disabled": 0, "fusion_lat": 0.0, "name": "66447e722d9aa27b1a39e73aca3e0ecb", "fusion_lon": 0.0}, {"is_reserved": 0, "type": "electric_scooter", "bike_id": "f5aecce82a165d18490f4bb128e715b5", "lat": 38.88196683333334, "lon": -76.989101, "rental_uris": {"android": "https://dc.lft.to/lastmile_qr_scan", "ios": "https://dc.lft.to/lastmile_qr_scan"}, "is_disabled": 0, "fusion_lat": 0.0, "name": "f5aecce82a165d18490f4bb128e715b5", "fusion_lon": 0.0}, {"is_reserved": 0, "type": "electric_scooter", "bike_id": "0395140bc4c34c6fcf54155c51d5278e", "lat": 38.9171565, "lon": -77.02975616666667, "rental_uris": {"android": "https://dc.lft.to/lastmile_qr_scan", "ios": "https://dc.lft.to/lastmile_qr_scan"}, "is_disabled": 0, "fusion_lat": 0.0, "name": "0395140bc4c34c6fcf54155c51d5278e", "fusion_lon": 0.0}, {"is_reserved": 0, "type": "electric_scooter", "bike_id": "c3ce085697215ee8358646d83eee73a6", "lat": 38.89747216666667, "lon": -77.007728, "rental_uris": {"android": "https://dc.lft.to/lastmile_qr_scan", "ios": "https://dc.lft.to/lastmile_qr_scan"}, "is_disabled": 0, "fusion_lat": 0.0, "name": "c3ce085697215ee8358646d83eee73a6", "fusion_lon": 0.0}, {"is_reserved": 0, "type": "electric_scooter", "bike_id": "7a857315b15b902321e2bd6c3e4167cd", "lat": 38.922552833333334, "lon": -77.04250933333333, "rental_uris": {"android": "https://dc.lft.to/lastmile_qr_scan", "ios": "https://dc.lft.to/lastmile_qr_scan"}, "is_disabled": 0, "fusion_lat": 0.0, "name": "7a857315b15b902321e2bd6c3e4167cd", "fusion_lon": 0.0}, {"is_reserved": 0, "type": "electric_bike", "bike_id": "94b553df673a79e35f06fb0499066635", "lat": 38.83294566666667, "lon": -77.08412316666667, "rental_uris": {"android": "https://dc.lft.to/lastmile_qr_scan", "ios": "https://dc.lft.to/lastmile_qr_scan"}, "is_disabled": 0, "fusion_lat": 0.0, "name": "94b553df673a79e35f06fb0499066635", "fusion_lon": 0.0}, {"is_reserved": 0, "type": "electric_bike", "bike_id": "3a66637db435ad9193c0bac437f21442", "lat": 38.95952066666667, "lon": -77.01982216666667, "rental_uris": {"android": "https://dc.lft.to/lastmile_qr_scan", "ios": "https://dc.lft.to/lastmile_qr_scan"}, "is_disabled": 0, "fusion_lat": 0.0, "name": "3a66637db435ad9193c0bac437f21442", "fusion_lon": 0.0}, {"is_reserved": 0, "type": "electric_scooter", "bike_id": "c58977bda38f677cdb689900730ec99e", "lat": 38.86610866666667, "lon": -76.982087, "rental_uris": {"android": "https://dc.lft.to/lastmile_qr_scan", "ios": "https://dc.lft.to/lastmile_qr_scan"}, "is_disabled": 0, "fusion_lat": 0.0, "name": "c58977bda38f677cdb689900730ec99e", "fusion_lon": 0.0}, {"is_reserved": 0, "type": "electric_scooter", "bike_id": "9251d76da71bb424c42e444cf66f409a", "lat": 38.92602, "lon": -77.02155083333334, "rental_uris": {"android": "https://dc.lft.to/lastmile_qr_scan", "ios": "https://dc.lft.to/lastmile_qr_scan"}, "is_disabled": 0, "fusion_lat": 0.0, "name": "9251d76da71bb424c42e444cf66f409a", "fusion_lon": 0.0}, {"is_reserved": 0, "type": "electric_scooter", "bike_id": "5da34ed93d5da2060b159858718c6b3f", "lat": 38.901287833333335, "lon": -77.02781783333333, "rental_uris": {"android": "https://dc.lft.to/lastmile_qr_scan", "ios": "https://dc.lft.to/lastmile_qr_scan"}, "is_disabled": 0, "fusion_lat": 0.0, "name": "5da34ed93d5da2060b159858718c6b3f", "fusion_lon": 0.0}, {"is_reserved": 0, "type": "electric_scooter", "bike_id": "1c0e43698928795d6a2e37dfd1cff174", "lat": 38.88603066666667, "lon": -76.98816816666667, "rental_uris": {"android": "https://dc.lft.to/lastmile_qr_scan", "ios": "https://dc.lft.to/lastmile_qr_scan"}, "is_disabled": 0, "fusion_lat": 0.0, "name": "1c0e43698928795d6a2e37dfd1cff174", "fusion_lon": 0.0}, {"is_reserved": 0, "type": "electric_scooter", "bike_id": "d425f548b3cd507b2bec5668b572a888", "lat": 38.9270035, "lon": -77.0325345, "rental_uris": {"android": "https://dc.lft.to/lastmile_qr_scan", "ios": "https://dc.lft.to/lastmile_qr_scan"}, "is_disabled": 0, "fusion_lat": 0.0, "name": "d425f548b3cd507b2bec5668b572a888", "fusion_lon": 0.0}, {"is_reserved": 0, "type": "electric_scooter", "bike_id": "08a6a2a0d3ab1deb4959bb948b95cea5", "lat": 38.931173666666666, "lon": -77.021043, "rental_uris": {"android": "https://dc.lft.to/lastmile_qr_scan", "ios": "https://dc.lft.to/lastmile_qr_scan"}, "is_disabled": 0, "fusion_lat": 0.0, "name": "08a6a2a0d3ab1deb4959bb948b95cea5", "fusion_lon": 0.0}, {"is_reserved": 0, "type": "electric_scooter", "bike_id": "f5e08f6545f9a25072a97043cc4988e5", "lat": 38.92834466666667, "lon": -77.00604016666666, "rental_uris": {"android": "https://dc.lft.to/lastmile_qr_scan", "ios": "https://dc.lft.to/lastmile_qr_scan"}, "is_disabled": 0, "fusion_lat": 0.0, "name": "f5e08f6545f9a25072a97043cc4988e5", "fusion_lon": 0.0}, {"is_reserved": 0, "type": "electric_scooter", "bike_id": "6bf0b7c7572629063d2561ca966fc5e9", "lat": 38.91558466666667, "lon": -77.03092233333334, "rental_uris": {"android": "https://dc.lft.to/lastmile_qr_scan", "ios": "https://dc.lft.to/lastmile_qr_scan"}, "is_disabled": 0, "fusion_lat": 0.0, "name": "6bf0b7c7572629063d2561ca966fc5e9", "fusion_lon": 0.0}, {"is_reserved": 0, "type": "electric_scooter", "bike_id": "5eee8f8fd3a3eb2c83708ad39c254bf6", "lat": 38.884395166666664, "lon": -76.95765833333333, "rental_uris": {"android": "https://dc.lft.to/lastmile_qr_scan", "ios": "https://dc.lft.to/lastmile_qr_scan"}, "is_disabled": 0, "fusion_lat": 0.0, "name": "5eee8f8fd3a3eb2c83708ad39c254bf6", "fusion_lon": 0.0}, {"is_reserved": 0, "type": "electric_scooter", "bike_id": "03882fa6b9f2d826d3e42b3649030ef6", "lat": 38.90482083333333, "lon": -77.03229066666667, "rental_uris": {"android": "https://dc.lft.to/lastmile_qr_scan", "ios": "https://dc.lft.to/lastmile_qr_scan"}, "is_disabled": 0, "fusion_lat": 0.0, "name": "03882fa6b9f2d826d3e42b3649030ef6", "fusion_lon": 0.0}, {"is_reserved": 0, "type": "electric_scooter", "bike_id": "746a9de7388ba8a87e8daacf6f92aa12", "lat": 38.90859233333333, "lon": -77.04449383333333, "rental_uris": {"android": "https://dc.lft.to/lastmile_qr_scan", "ios": "https://dc.lft.to/lastmile_qr_scan"}, "is_disabled": 0, "fusion_lat": 0.0, "name": "746a9de7388ba8a87e8daacf6f92aa12", "fusion_lon": 0.0}, {"is_reserved": 0, "type": "electric_scooter", "bike_id": "d6d2952993d50e4dcd0fe4415ff5e2ba", "lat": 38.93200566666667, "lon": -77.02820866666667, "rental_uris": {"android": "https://dc.lft.to/lastmile_qr_scan", "ios": "https://dc.lft.to/lastmile_qr_scan"}, "is_disabled": 0, "fusion_lat": 0.0, "name": "d6d2952993d50e4dcd0fe4415ff5e2ba", "fusion_lon": 0.0}, {"is_reserved": 0, "type": "electric_scooter", "bike_id": "418ebee6acd8aa41c250bd043a027e50", "lat": 38.9101875, "lon": -76.993749, "rental_uris": {"android": "https://dc.lft.to/lastmile_qr_scan", "ios": "https://dc.lft.to/lastmile_qr_scan"}, "is_disabled": 0, "fusion_lat": 0.0, "name": "418ebee6acd8aa41c250bd043a027e50", "fusion_lon": 0.0}, {"is_reserved": 0, "type": "electric_scooter", "bike_id": "4a03e0b9c53273eaf49cca5d47242d7c", "lat": 38.90070216666667, "lon": -77.0493045, "rental_uris": {"android": "https://dc.lft.to/lastmile_qr_scan", "ios": "https://dc.lft.to/lastmile_qr_scan"}, "is_disabled": 0, "fusion_lat": 0.0, "name": "4a03e0b9c53273eaf49cca5d47242d7c", "fusion_lon": 0.0}, {"is_reserved": 0, "type": "electric_scooter", "bike_id": "db2a11117809321ce1875937d90197b6", "lat": 38.918208, "lon": -77.03169366666667, "rental_uris": {"android": "https://dc.lft.to/lastmile_qr_scan", "ios": "https://dc.lft.to/lastmile_qr_scan"}, "is_disabled": 0, "fusion_lat": 0.0, "name": "db2a11117809321ce1875937d90197b6", "fusion_lon": 0.0}, {"is_reserved": 0, "type": "electric_scooter", "bike_id": "1b56d2eea07209f4daee7597bd51b7e8", "lat": 38.9012275, "lon": -77.04484183333334, "rental_uris": {"android": "https://dc.lft.to/lastmile_qr_scan", "ios": "https://dc.lft.to/lastmile_qr_scan"}, "is_disabled": 0, "fusion_lat": 0.0, "name": "1b56d2eea07209f4daee7597bd51b7e8", "fusion_lon": 0.0}, {"is_reserved": 0, "type": "electric_scooter", "bike_id": "7c9aca3d7c41c31c6a297017de871673", "lat": 38.92202133333333, "lon": -77.02034583333334, "rental_uris": {"android": "https://dc.lft.to/lastmile_qr_scan", "ios": "https://dc.lft.to/lastmile_qr_scan"}, "is_disabled": 0, "fusion_lat": 0.0, "name": "7c9aca3d7c41c31c6a297017de871673", "fusion_lon": 0.0}, {"is_reserved": 0, "type": "electric_scooter", "bike_id": "37cc1f113bd759947cb63e04b6ca99e0", "lat": 38.90634583333333, "lon": -77.00897233333333, "rental_uris": {"android": "https://dc.lft.to/lastmile_qr_scan", "ios": "https://dc.lft.to/lastmile_qr_scan"}, "is_disabled": 0, "fusion_lat": 0.0, "name": "37cc1f113bd759947cb63e04b6ca99e0", "fusion_lon": 0.0}, {"is_reserved": 0, "type": "electric_scooter", "bike_id": "2ea8e67c9786785b3f231f46edfa64c8", "lat": 38.918834333333336, "lon": -77.02709133333333, "rental_uris": {"android": "https://dc.lft.to/lastmile_qr_scan", "ios": "https://dc.lft.to/lastmile_qr_scan"}, "is_disabled": 0, "fusion_lat": 0.0, "name": "2ea8e67c9786785b3f231f46edfa64c8", "fusion_lon": 0.0}, {"is_reserved": 0, "type": "electric_scooter", "bike_id": "4c19682299767ee147befb438fcc6380", "lat": 38.9239975, "lon": -77.04302166666666, "rental_uris": {"android": "https://dc.lft.to/lastmile_qr_scan", "ios": "https://dc.lft.to/lastmile_qr_scan"}, "is_disabled": 0, "fusion_lat": 0.0, "name": "4c19682299767ee147befb438fcc6380", "fusion_lon": 0.0}, {"is_reserved": 0, "type": "electric_scooter", "bike_id": "f348a856179d1ba88a3d0df53b0a7970", "lat": 38.887213333333335, "lon": -77.028262, "rental_uris": {"android": "https://dc.lft.to/lastmile_qr_scan", "ios": "https://dc.lft.to/lastmile_qr_scan"}, "is_disabled": 0, "fusion_lat": 0.0, "name": "f348a856179d1ba88a3d0df53b0a7970", "fusion_lon": 0.0}, {"is_reserved": 0, "type": "electric_scooter", "bike_id": "8f1f8fdf3d75b581085c84c87d6012ec", "lat": 38.912561, "lon": -77.00837266666667, "rental_uris": {"android": "https://dc.lft.to/lastmile_qr_scan", "ios": "https://dc.lft.to/lastmile_qr_scan"}, "is_disabled": 0, "fusion_lat": 0.0, "name": "8f1f8fdf3d75b581085c84c87d6012ec", "fusion_lon": 0.0}, {"is_reserved": 0, "type": "electric_bike", "bike_id": "4226f433886d16df72e2fd6b33813680", "lat": 38.808659166666665, "lon": -77.11253666666667, "rental_uris": {"android": "https://dc.lft.to/lastmile_qr_scan", "ios": "https://dc.lft.to/lastmile_qr_scan"}, "is_disabled": 0, "fusion_lat": 0.0, "name": "4226f433886d16df72e2fd6b33813680", "fusion_lon": 0.0}, {"is_reserved": 0, "type": "electric_bike", "bike_id": "733de6435dcab9dfe0d490e7cf325d7e", "lat": 38.900450666666664, "lon": -76.97790366666666, "rental_uris": {"android": "https://dc.lft.to/lastmile_qr_scan", "ios": "https://dc.lft.to/lastmile_qr_scan"}, "is_disabled": 0, "fusion_lat": 0.0, "name": "733de6435dcab9dfe0d490e7cf325d7e", "fusion_lon": 0.0}, {"is_reserved": 0, "type": "electric_scooter", "bike_id": "0b098185ddad1b241749fa85e8aa669c", "lat": 38.905135, "lon": -77.0566575, "rental_uris": {"android": "https://dc.lft.to/lastmile_qr_scan", "ios": "https://dc.lft.to/lastmile_qr_scan"}, "is_disabled": 0, "fusion_lat": 0.0, "name": "0b098185ddad1b241749fa85e8aa669c", "fusion_lon": 0.0}, {"is_reserved": 0, "type": "electric_scooter", "bike_id": "25c36c1cd2afa5122df031ba81b77681", "lat": 38.938576, "lon": -77.02651866666666, "rental_uris": {"android": "https://dc.lft.to/lastmile_qr_scan", "ios": "https://dc.lft.to/lastmile_qr_scan"}, "is_disabled": 0, "fusion_lat": 0.0, "name": "25c36c1cd2afa5122df031ba81b77681", "fusion_lon": 0.0}, {"is_reserved": 0, "type": "electric_scooter", "bike_id": "6d2fdc3c09d8c8e1041b42f87c322388", "lat": 38.90669233333333, "lon": -77.062597, "rental_uris": {"android": "https://dc.lft.to/lastmile_qr_scan", "ios": "https://dc.lft.to/lastmile_qr_scan"}, "is_disabled": 0, "fusion_lat": 0.0, "name": "6d2fdc3c09d8c8e1041b42f87c322388", "fusion_lon": 0.0}, {"is_reserved": 0, "type": "electric_scooter", "bike_id": "5c4d82b50b4071405e19746f8262f651", "lat": 38.8727, "lon": -77.01711133333333, "rental_uris": {"android": "https://dc.lft.to/lastmile_qr_scan", "ios": "https://dc.lft.to/lastmile_qr_scan"}, "is_disabled": 0, "fusion_lat": 0.0, "name": "5c4d82b50b4071405e19746f8262f651", "fusion_lon": 0.0}, {"is_reserved": 0, "type": "electric_scooter", "bike_id": "bffa55bb6ac32975b3718545d9e75a5f", "lat": 38.8716365, "lon": -77.01310083333334, "rental_uris": {"android": "https://dc.lft.to/lastmile_qr_scan", "ios": "https://dc.lft.to/lastmile_qr_scan"}, "is_disabled": 0, "fusion_lat": 0.0, "name": "bffa55bb6ac32975b3718545d9e75a5f", "fusion_lon": 0.0}, {"is_reserved": 0, "type": "electric_scooter", "bike_id": "fc237f7dd93007090837f8f2f307c698", "lat": 38.92557016666667, "lon": -77.03655833333333, "rental_uris": {"android": "https://dc.lft.to/lastmile_qr_scan", "ios": "https://dc.lft.to/lastmile_qr_scan"}, "is_disabled": 0, "fusion_lat": 0.0, "name": "fc237f7dd93007090837f8f2f307c698", "fusion_lon": 0.0}, {"is_reserved": 0, "type": "electric_scooter", "bike_id": "5bbf3bff09964adc369849bdb7324065", "lat": 38.92371766666667, "lon": -77.01906766666667, "rental_uris": {"android": "https://dc.lft.to/lastmile_qr_scan", "ios": "https://dc.lft.to/lastmile_qr_scan"}, "is_disabled": 0, "fusion_lat": 0.0, "name": "5bbf3bff09964adc369849bdb7324065", "fusion_lon": 0.0}, {"is_reserved": 0, "type": "electric_scooter", "bike_id": "a882b10fe839805c0a167854d9f86d2a", "lat": 38.9126675, "lon": -77.04484533333333, "rental_uris": {"android": "https://dc.lft.to/lastmile_qr_scan", "ios": "https://dc.lft.to/lastmile_qr_scan"}, "is_disabled": 0, "fusion_lat": 0.0, "name": "a882b10fe839805c0a167854d9f86d2a", "fusion_lon": 0.0}, {"is_reserved": 0, "type": "electric_scooter", "bike_id": "b8767d87d465a8b45183150e5a941c14", "lat": 38.93180816666667, "lon": -77.03848766666667, "rental_uris": {"android": "https://dc.lft.to/lastmile_qr_scan", "ios": "https://dc.lft.to/lastmile_qr_scan"}, "is_disabled": 0, "fusion_lat": 0.0, "name": "b8767d87d465a8b45183150e5a941c14", "fusion_lon": 0.0}, {"is_reserved": 0, "type": "electric_scooter", "bike_id": "e158d4e8cef2c36745eacf9bd1b54f27", "lat": 38.9013745, "lon": -77.038014, "rental_uris": {"android": "https://dc.lft.to/lastmile_qr_scan", "ios": "https://dc.lft.to/lastmile_qr_scan"}, "is_disabled": 0, "fusion_lat": 0.0, "name": "e158d4e8cef2c36745eacf9bd1b54f27", "fusion_lon": 0.0}, {"is_reserved": 0, "type": "electric_scooter", "bike_id": "18f45926b3b3c08c8a56e6cfeb2a5987", "lat": 38.9231485, "lon": -77.03635866666667, "rental_uris": {"android": "https://dc.lft.to/lastmile_qr_scan", "ios": "https://dc.lft.to/lastmile_qr_scan"}, "is_disabled": 0, "fusion_lat": 0.0, "name": "18f45926b3b3c08c8a56e6cfeb2a5987", "fusion_lon": 0.0}, {"is_reserved": 0, "type": "electric_scooter", "bike_id": "87c08e6f783047010c122014ba6c479d", "lat": 38.93592916666667, "lon": -77.03370166666667, "rental_uris": {"android": "https://dc.lft.to/lastmile_qr_scan", "ios": "https://dc.lft.to/lastmile_qr_scan"}, "is_disabled": 0, "fusion_lat": 0.0, "name": "87c08e6f783047010c122014ba6c479d", "fusion_lon": 0.0}, {"is_reserved": 0, "type": "electric_bike", "bike_id": "391ae67a35bb3821ca8c74de9af40090", "lat": 38.97312466666666, "lon": -76.994788, "rental_uris": {"android": "https://dc.lft.to/lastmile_qr_scan", "ios": "https://dc.lft.to/lastmile_qr_scan"}, "is_disabled": 0, "fusion_lat": 0.0, "name": "391ae67a35bb3821ca8c74de9af40090", "fusion_lon": 0.0}, {"is_reserved": 0, "type": "electric_scooter", "bike_id": "3ac1039bfc1e4b93fb1f5075f8546a4c", "lat": 38.91475166666667, "lon": -77.0318965, "rental_uris": {"android": "https://dc.lft.to/lastmile_qr_scan", "ios": "https://dc.lft.to/lastmile_qr_scan"}, "is_disabled": 0, "fusion_lat": 0.0, "name": "3ac1039bfc1e4b93fb1f5075f8546a4c", "fusion_lon": 0.0}, {"is_reserved": 0, "type": "electric_scooter", "bike_id": "e301a87c5ce8ea863d025c416e16d97d", "lat": 38.896225, "lon": -77.03219983333334, "rental_uris": {"android": "https://dc.lft.to/lastmile_qr_scan", "ios": "https://dc.lft.to/lastmile_qr_scan"}, "is_disabled": 0, "fusion_lat": 0.0, "name": "e301a87c5ce8ea863d025c416e16d97d", "fusion_lon": 0.0}, {"is_reserved": 0, "type": "electric_scooter", "bike_id": "a55f244e9833ad4bd90f4fa21018073a", "lat": 38.914114166666664, "lon": -77.022499, "rental_uris": {"android": "https://dc.lft.to/lastmile_qr_scan", "ios": "https://dc.lft.to/lastmile_qr_scan"}, "is_disabled": 0, "fusion_lat": 0.0, "name": "a55f244e9833ad4bd90f4fa21018073a", "fusion_lon": 0.0}, {"is_reserved": 0, "type": "electric_scooter", "bike_id": "aa1fb2801c492a5235e7017f86935c96", "lat": 38.919187666666666, "lon": -77.04920216666666, "rental_uris": {"android": "https://dc.lft.to/lastmile_qr_scan", "ios": "https://dc.lft.to/lastmile_qr_scan"}, "is_disabled": 0, "fusion_lat": 0.0, "name": "aa1fb2801c492a5235e7017f86935c96", "fusion_lon": 0.0}, {"is_reserved": 0, "type": "electric_scooter", "bike_id": "4f8b02ac1837de6153572c76c236b314", "lat": 38.899023, "lon": -76.97997833333334, "rental_uris": {"android": "https://dc.lft.to/lastmile_qr_scan", "ios": "https://dc.lft.to/lastmile_qr_scan"}, "is_disabled": 0, "fusion_lat": 0.0, "name": "4f8b02ac1837de6153572c76c236b314", "fusion_lon": 0.0}, {"is_reserved": 0, "type": "electric_scooter", "bike_id": "61e6eb1fa8e0b8dd65cb02e5508656e8", "lat": 38.887417, "lon": -77.0317955, "rental_uris": {"android": "https://dc.lft.to/lastmile_qr_scan", "ios": "https://dc.lft.to/lastmile_qr_scan"}, "is_disabled": 0, "fusion_lat": 0.0, "name": "61e6eb1fa8e0b8dd65cb02e5508656e8", "fusion_lon": 0.0}, {"is_reserved": 0, "type": "electric_scooter", "bike_id": "70564b72c47cc2f5eaf4173b487c82e0", "lat": 38.906787, "lon": -77.03477016666666, "rental_uris": {"android": "https://dc.lft.to/lastmile_qr_scan", "ios": "https://dc.lft.to/lastmile_qr_scan"}, "is_disabled": 0, "fusion_lat": 0.0, "name": "70564b72c47cc2f5eaf4173b487c82e0", "fusion_lon": 0.0}, {"is_reserved": 0, "type": "electric_bike", "bike_id": "e675eaa196dfe75701d731218fda6184", "lat": 38.823382, "lon": -77.0582075, "rental_uris": {"android": "https://dc.lft.to/lastmile_qr_scan", "ios": "https://dc.lft.to/lastmile_qr_scan"}, "is_disabled": 0, "fusion_lat": 0.0, "name": "e675eaa196dfe75701d731218fda6184", "fusion_lon": 0.0}, {"is_reserved": 0, "type": "electric_scooter", "bike_id": "3592819faf42da8b0c449fa80913cdb3", "lat": 38.93357666666667, "lon": -77.02411316666667, "rental_uris": {"android": "https://dc.lft.to/lastmile_qr_scan", "ios": "https://dc.lft.to/lastmile_qr_scan"}, "is_disabled": 0, "fusion_lat": 0.0, "name": "3592819faf42da8b0c449fa80913cdb3", "fusion_lon": 0.0}, {"is_reserved": 0, "type": "electric_scooter", "bike_id": "f81e0945bf98e57babb568124d6bf45e", "lat": 38.932457666666664, "lon": -77.02981766666667, "rental_uris": {"android": "https://dc.lft.to/lastmile_qr_scan", "ios": "https://dc.lft.to/lastmile_qr_scan"}, "is_disabled": 0, "fusion_lat": 0.0, "name": "f81e0945bf98e57babb568124d6bf45e", "fusion_lon": 0.0}, {"is_reserved": 0, "type": "electric_scooter", "bike_id": "e8ec788f172abed70cc62d309c433bde", "lat": 38.905255333333336, "lon": -77.058349, "rental_uris": {"android": "https://dc.lft.to/lastmile_qr_scan", "ios": "https://dc.lft.to/lastmile_qr_scan"}, "is_disabled": 0, "fusion_lat": 0.0, "name": "e8ec788f172abed70cc62d309c433bde", "fusion_lon": 0.0}, {"is_reserved": 0, "type": "electric_bike", "bike_id": "778eea9178e640b921427724e296edfc", "lat": 38.8323035, "lon": -76.9462085, "rental_uris": {"android": "https://dc.lft.to/lastmile_qr_scan", "ios": "https://dc.lft.to/lastmile_qr_scan"}, "is_disabled": 0, "fusion_lat": 0.0, "name": "778eea9178e640b921427724e296edfc", "fusion_lon": 0.0}, {"is_reserved": 0, "type": "electric_scooter", "bike_id": "67466e096506266b80c2c6cc4b4566f3", "lat": 38.8836905, "lon": -76.995201, "rental_uris": {"android": "https://dc.lft.to/lastmile_qr_scan", "ios": "https://dc.lft.to/lastmile_qr_scan"}, "is_disabled": 0, "fusion_lat": 0.0, "name": "67466e096506266b80c2c6cc4b4566f3", "fusion_lon": 0.0}, {"is_reserved": 0, "type": "electric_scooter", "bike_id": "40980259cf4e9a6a161d7d5fbd8055b5", "lat": 38.944878833333334, "lon": -77.00712133333333, "rental_uris": {"android": "https://dc.lft.to/lastmile_qr_scan", "ios": "https://dc.lft.to/lastmile_qr_scan"}, "is_disabled": 0, "fusion_lat": 0.0, "name": "40980259cf4e9a6a161d7d5fbd8055b5", "fusion_lon": 0.0}, {"is_reserved": 0, "type": "electric_scooter", "bike_id": "25e8f810faab9623ba3f7f3f84159197", "lat": 38.9047055, "lon": -77.04200666666667, "rental_uris": {"android": "https://dc.lft.to/lastmile_qr_scan", "ios": "https://dc.lft.to/lastmile_qr_scan"}, "is_disabled": 0, "fusion_lat": 0.0, "name": "25e8f810faab9623ba3f7f3f84159197", "fusion_lon": 0.0}, {"is_reserved": 0, "type": "electric_bike", "bike_id": "2548c69e61a8c0d794410f496a3ad440", "lat": 38.88387516666667, "lon": -76.95447816666666, "rental_uris": {"android": "https://dc.lft.to/lastmile_qr_scan", "ios": "https://dc.lft.to/lastmile_qr_scan"}, "is_disabled": 0, "fusion_lat": 0.0, "name": "2548c69e61a8c0d794410f496a3ad440", "fusion_lon": 0.0}, {"is_reserved": 0, "type": "electric_bike", "bike_id": "14b5e43b5556aab93a13fc282cb0aa75", "lat": 38.999969, "lon": -76.91806633333333, "rental_uris": {"android": "https://dc.lft.to/lastmile_qr_scan", "ios": "https://dc.lft.to/lastmile_qr_scan"}, "is_disabled": 0, "fusion_lat": 0.0, "name": "14b5e43b5556aab93a13fc282cb0aa75", "fusion_lon": 0.0}, {"is_reserved": 0, "type": "electric_scooter", "bike_id": "9ccb65f26a7398bafe3e4df741c2e9c0", "lat": 38.91757366666667, "lon": -77.003654, "rental_uris": {"android": "https://dc.lft.to/lastmile_qr_scan", "ios": "https://dc.lft.to/lastmile_qr_scan"}, "is_disabled": 0, "fusion_lat": 0.0, "name": "9ccb65f26a7398bafe3e4df741c2e9c0", "fusion_lon": 0.0}, {"is_reserved": 0, "type": "electric_bike", "bike_id": "6f44a11efaf256970b837f2b384da0df", "lat": 38.863307166666665, "lon": -76.9872425, "rental_uris": {"android": "https://dc.lft.to/lastmile_qr_scan", "ios": "https://dc.lft.to/lastmile_qr_scan"}, "is_disabled": 0, "fusion_lat": 0.0, "name": "6f44a11efaf256970b837f2b384da0df", "fusion_lon": 0.0}, {"is_reserved": 0, "type": "electric_scooter", "bike_id": "4ebf6f5f6d4779e2fa0625c32a36c010", "lat": 38.91990416666667, "lon": -76.973064, "rental_uris": {"android": "https://dc.lft.to/lastmile_qr_scan", "ios": "https://dc.lft.to/lastmile_qr_scan"}, "is_disabled": 0, "fusion_lat": 0.0, "name": "4ebf6f5f6d4779e2fa0625c32a36c010", "fusion_lon": 0.0}, {"is_reserved": 0, "type": "electric_scooter", "bike_id": "28d15707471a2d21e22e1d5cbf7bd2df", "lat": 38.926425, "lon": -77.03421833333333, "rental_uris": {"android": "https://dc.lft.to/lastmile_qr_scan", "ios": "https://dc.lft.to/lastmile_qr_scan"}, "is_disabled": 0, "fusion_lat": 0.0, "name": "28d15707471a2d21e22e1d5cbf7bd2df", "fusion_lon": 0.0}, {"is_reserved": 0, "type": "electric_scooter", "bike_id": "736fff1ceb651a4639b99a31bd1ed503", "lat": 38.9001235, "lon": -76.98907966666667, "rental_uris": {"android": "https://dc.lft.to/lastmile_qr_scan", "ios": "https://dc.lft.to/lastmile_qr_scan"}, "is_disabled": 0, "fusion_lat": 0.0, "name": "736fff1ceb651a4639b99a31bd1ed503", "fusion_lon": 0.0}, {"is_reserved": 0, "type": "electric_bike", "bike_id": "7a91cd1cb27ce1b011d1873a30b54a60", "lat": 39.0109165, "lon": -77.04959366666667, "rental_uris": {"android": "https://dc.lft.to/lastmile_qr_scan", "ios": "https://dc.lft.to/lastmile_qr_scan"}, "is_disabled": 0, "fusion_lat": 0.0, "name": "7a91cd1cb27ce1b011d1873a30b54a60", "fusion_lon": 0.0}, {"is_reserved": 0, "type": "electric_scooter", "bike_id": "f0e537e9e53c726e9dfb9132772a47a5", "lat": 38.917162166666664, "lon": -77.03839266666667, "rental_uris": {"android": "https://dc.lft.to/lastmile_qr_scan", "ios": "https://dc.lft.to/lastmile_qr_scan"}, "is_disabled": 0, "fusion_lat": 0.0, "name": "f0e537e9e53c726e9dfb9132772a47a5", "fusion_lon": 0.0}, {"is_reserved": 0, "type": "electric_scooter", "bike_id": "4a2069de9648dc319cb2c9d21014dc07", "lat": 38.936250333333334, "lon": -77.06487683333333, "rental_uris": {"android": "https://dc.lft.to/lastmile_qr_scan", "ios": "https://dc.lft.to/lastmile_qr_scan"}, "is_disabled": 0, "fusion_lat": 0.0, "name": "4a2069de9648dc319cb2c9d21014dc07", "fusion_lon": 0.0}, {"is_reserved": 0, "type": "electric_scooter", "bike_id": "fc909a6dfa60ffca903c603eb57a7b78", "lat": 38.898263, "lon": -77.0482875, "rental_uris": {"android": "https://dc.lft.to/lastmile_qr_scan", "ios": "https://dc.lft.to/lastmile_qr_scan"}, "is_disabled": 0, "fusion_lat": 0.0, "name": "fc909a6dfa60ffca903c603eb57a7b78", "fusion_lon": 0.0}, {"is_reserved": 0, "type": "electric_scooter", "bike_id": "f909b1ce69b075a5ca9fcd103f1c4645", "lat": 38.90112283333333, "lon": -77.033776, "rental_uris": {"android": "https://dc.lft.to/lastmile_qr_scan", "ios": "https://dc.lft.to/lastmile_qr_scan"}, "is_disabled": 0, "fusion_lat": 0.0, "name": "f909b1ce69b075a5ca9fcd103f1c4645", "fusion_lon": 0.0}, {"is_reserved": 0, "type": "electric_scooter", "bike_id": "89a901eac95a40fe011eca80520b1cf1", "lat": 38.93029333333333, "lon": -77.0831805, "rental_uris": {"android": "https://dc.lft.to/lastmile_qr_scan", "ios": "https://dc.lft.to/lastmile_qr_scan"}, "is_disabled": 0, "fusion_lat": 0.0, "name": "89a901eac95a40fe011eca80520b1cf1", "fusion_lon": 0.0}, {"is_reserved": 0, "type": "electric_scooter", "bike_id": "651dc0fc1e34956b15d235f2d9aff52e", "lat": 38.91631666666667, "lon": -77.03955266666667, "rental_uris": {"android": "https://dc.lft.to/lastmile_qr_scan", "ios": "https://dc.lft.to/lastmile_qr_scan"}, "is_disabled": 0, "fusion_lat": 0.0, "name": "651dc0fc1e34956b15d235f2d9aff52e", "fusion_lon": 0.0}, {"is_reserved": 0, "type": "electric_scooter", "bike_id": "cf3ca8d283c1460fc0ed31d5e61afa60", "lat": 38.97497033333333, "lon": -77.01698383333333, "rental_uris": {"android": "https://dc.lft.to/lastmile_qr_scan", "ios": "https://dc.lft.to/lastmile_qr_scan"}, "is_disabled": 0, "fusion_lat": 0.0, "name": "cf3ca8d283c1460fc0ed31d5e61afa60", "fusion_lon": 0.0}, {"is_reserved": 0, "type": "electric_scooter", "bike_id": "061d6ab4c9cfcdf4996cfde66ad91c0a", "lat": 38.91786116666667, "lon": -77.0229945, "rental_uris": {"android": "https://dc.lft.to/lastmile_qr_scan", "ios": "https://dc.lft.to/lastmile_qr_scan"}, "is_disabled": 0, "fusion_lat": 0.0, "name": "061d6ab4c9cfcdf4996cfde66ad91c0a", "fusion_lon": 0.0}, {"is_reserved": 0, "type": "electric_scooter", "bike_id": "ee13a75f5f2279027800a07e144d6d2d", "lat": 38.884204833333335, "lon": -77.025607, "rental_uris": {"android": "https://dc.lft.to/lastmile_qr_scan", "ios": "https://dc.lft.to/lastmile_qr_scan"}, "is_disabled": 0, "fusion_lat": 0.0, "name": "ee13a75f5f2279027800a07e144d6d2d", "fusion_lon": 0.0}, {"is_reserved": 0, "type": "electric_scooter", "bike_id": "e99e79510ccd5b93a0b42a93f33fbc4b", "lat": 38.929612166666665, "lon": -77.031582, "rental_uris": {"android": "https://dc.lft.to/lastmile_qr_scan", "ios": "https://dc.lft.to/lastmile_qr_scan"}, "is_disabled": 0, "fusion_lat": 0.0, "name": "e99e79510ccd5b93a0b42a93f33fbc4b", "fusion_lon": 0.0}, {"is_reserved": 0, "type": "electric_scooter", "bike_id": "33419557f9a3a20d67eb2d6e5bf71f4f", "lat": 38.8960675, "lon": -77.00527583333333, "rental_uris": {"android": "https://dc.lft.to/lastmile_qr_scan", "ios": "https://dc.lft.to/lastmile_qr_scan"}, "is_disabled": 0, "fusion_lat": 0.0, "name": "33419557f9a3a20d67eb2d6e5bf71f4f", "fusion_lon": 0.0}, {"is_reserved": 0, "type": "electric_scooter", "bike_id": "980d9d671c4d22aed7ffb5179e32b52e", "lat": 38.91565666666666, "lon": -77.036718, "rental_uris": {"android": "https://dc.lft.to/lastmile_qr_scan", "ios": "https://dc.lft.to/lastmile_qr_scan"}, "is_disabled": 0, "fusion_lat": 0.0, "name": "980d9d671c4d22aed7ffb5179e32b52e", "fusion_lon": 0.0}, {"is_reserved": 0, "type": "electric_scooter", "bike_id": "a625e3ad24fae5dc27888e6355799d2c", "lat": 38.939725, "lon": -77.054737, "rental_uris": {"android": "https://dc.lft.to/lastmile_qr_scan", "ios": "https://dc.lft.to/lastmile_qr_scan"}, "is_disabled": 0, "fusion_lat": 0.0, "name": "a625e3ad24fae5dc27888e6355799d2c", "fusion_lon": 0.0}, {"is_reserved": 0, "type": "electric_scooter", "bike_id": "0de2649ff6f5679d3f78ae1eae239d49", "lat": 38.917133666666665, "lon": -77.0267645, "rental_uris": {"android": "https://dc.lft.to/lastmile_qr_scan", "ios": "https://dc.lft.to/lastmile_qr_scan"}, "is_disabled": 0, "fusion_lat": 0.0, "name": "0de2649ff6f5679d3f78ae1eae239d49", "fusion_lon": 0.0}, {"is_reserved": 0, "type": "electric_scooter", "bike_id": "4952876eb432d5329d799bd37db3aa37", "lat": 38.909586833333336, "lon": -77.0213185, "rental_uris": {"android": "https://dc.lft.to/lastmile_qr_scan", "ios": "https://dc.lft.to/lastmile_qr_scan"}, "is_disabled": 0, "fusion_lat": 0.0, "name": "4952876eb432d5329d799bd37db3aa37", "fusion_lon": 0.0}, {"is_reserved": 0, "type": "electric_scooter", "bike_id": "03c71ba03666520909cad2f08fb5cf77", "lat": 38.93533983333333, "lon": -77.072795, "rental_uris": {"android": "https://dc.lft.to/lastmile_qr_scan", "ios": "https://dc.lft.to/lastmile_qr_scan"}, "is_disabled": 0, "fusion_lat": 0.0, "name": "03c71ba03666520909cad2f08fb5cf77", "fusion_lon": 0.0}, {"is_reserved": 0, "type": "electric_bike", "bike_id": "994f48d7e455aec5af477ad49468fac8", "lat": 38.906912, "lon": -76.95252683333334, "rental_uris": {"android": "https://dc.lft.to/lastmile_qr_scan", "ios": "https://dc.lft.to/lastmile_qr_scan"}, "is_disabled": 0, "fusion_lat": 0.0, "name": "994f48d7e455aec5af477ad49468fac8", "fusion_lon": 0.0}, {"is_reserved": 0, "type": "electric_scooter", "bike_id": "27eb47a2f3baf8124286d1e8ffb21ace", "lat": 38.89541833333333, "lon": -76.98337283333333, "rental_uris": {"android": "https://dc.lft.to/lastmile_qr_scan", "ios": "https://dc.lft.to/lastmile_qr_scan"}, "is_disabled": 0, "fusion_lat": 0.0, "name": "27eb47a2f3baf8124286d1e8ffb21ace", "fusion_lon": 0.0}, {"is_reserved": 0, "type": "electric_scooter", "bike_id": "46f5979c927e6c4ff7c52baa76629493", "lat": 38.92647766666666, "lon": -77.0270635, "rental_uris": {"android": "https://dc.lft.to/lastmile_qr_scan", "ios": "https://dc.lft.to/lastmile_qr_scan"}, "is_disabled": 0, "fusion_lat": 0.0, "name": "46f5979c927e6c4ff7c52baa76629493", "fusion_lon": 0.0}, {"is_reserved": 0, "type": "electric_scooter", "bike_id": "f09b3d2eb3366ebb961b5976635b96f9", "lat": 38.92338183333333, "lon": -77.01904033333334, "rental_uris": {"android": "https://dc.lft.to/lastmile_qr_scan", "ios": "https://dc.lft.to/lastmile_qr_scan"}, "is_disabled": 0, "fusion_lat": 0.0, "name": "f09b3d2eb3366ebb961b5976635b96f9", "fusion_lon": 0.0}, {"is_reserved": 0, "type": "electric_scooter", "bike_id": "dd8662f95865e8f721e163d92aaa735e", "lat": 38.91262233333333, "lon": -77.03145466666666, "rental_uris": {"android": "https://dc.lft.to/lastmile_qr_scan", "ios": "https://dc.lft.to/lastmile_qr_scan"}, "is_disabled": 0, "fusion_lat": 0.0, "name": "dd8662f95865e8f721e163d92aaa735e", "fusion_lon": 0.0}, {"is_reserved": 0, "type": "electric_scooter", "bike_id": "dd360b32e668b5d33d7e168a30526319", "lat": 38.940280333333334, "lon": -77.025142, "rental_uris": {"android": "https://dc.lft.to/lastmile_qr_scan", "ios": "https://dc.lft.to/lastmile_qr_scan"}, "is_disabled": 0, "fusion_lat": 0.0, "name": "dd360b32e668b5d33d7e168a30526319", "fusion_lon": 0.0}, {"is_reserved": 0, "type": "electric_scooter", "bike_id": "76ac37509cb4f7b09649251c168fcd36", "lat": 38.902681, "lon": -77.02927966666667, "rental_uris": {"android": "https://dc.lft.to/lastmile_qr_scan", "ios": "https://dc.lft.to/lastmile_qr_scan"}, "is_disabled": 0, "fusion_lat": 0.0, "name": "76ac37509cb4f7b09649251c168fcd36", "fusion_lon": 0.0}, {"is_reserved": 0, "type": "electric_scooter", "bike_id": "ad40054e32e69935af798c61b0f64ca9", "lat": 38.914959, "lon": -77.018562, "rental_uris": {"android": "https://dc.lft.to/lastmile_qr_scan", "ios": "https://dc.lft.to/lastmile_qr_scan"}, "is_disabled": 0, "fusion_lat": 0.0, "name": "ad40054e32e69935af798c61b0f64ca9", "fusion_lon": 0.0}, {"is_reserved": 0, "type": "electric_scooter", "bike_id": "148c64e03d73ba79a0a6409be50d207d", "lat": 38.9515135, "lon": -77.01866216666667, "rental_uris": {"android": "https://dc.lft.to/lastmile_qr_scan", "ios": "https://dc.lft.to/lastmile_qr_scan"}, "is_disabled": 0, "fusion_lat": 0.0, "name": "148c64e03d73ba79a0a6409be50d207d", "fusion_lon": 0.0}, {"is_reserved": 0, "type": "electric_scooter", "bike_id": "1ac9ad16c392124a22b66713673d08aa", "lat": 38.9042645, "lon": -77.019017, "rental_uris": {"android": "https://dc.lft.to/lastmile_qr_scan", "ios": "https://dc.lft.to/lastmile_qr_scan"}, "is_disabled": 0, "fusion_lat": 0.0, "name": "1ac9ad16c392124a22b66713673d08aa", "fusion_lon": 0.0}, {"is_reserved": 0, "type": "electric_scooter", "bike_id": "dcfc33a273c9ebadaee9e9e3388f7518", "lat": 38.915623, "lon": -77.0116585, "rental_uris": {"android": "https://dc.lft.to/lastmile_qr_scan", "ios": "https://dc.lft.to/lastmile_qr_scan"}, "is_disabled": 0, "fusion_lat": 0.0, "name": "dcfc33a273c9ebadaee9e9e3388f7518", "fusion_lon": 0.0}, {"is_reserved": 0, "type": "electric_bike", "bike_id": "90e9ae120bee4c7e1ee59f740b4339db", "lat": 38.887855, "lon": -76.92343866666667, "rental_uris": {"android": "https://dc.lft.to/lastmile_qr_scan", "ios": "https://dc.lft.to/lastmile_qr_scan"}, "is_disabled": 0, "fusion_lat": 0.0, "name": "90e9ae120bee4c7e1ee59f740b4339db", "fusion_lon": 0.0}, {"is_reserved": 0, "type": "electric_scooter", "bike_id": "a4511bc68336c5f0d059b50c81354840", "lat": 38.896032, "lon": -77.04686316666667, "rental_uris": {"android": "https://dc.lft.to/lastmile_qr_scan", "ios": "https://dc.lft.to/lastmile_qr_scan"}, "is_disabled": 0, "fusion_lat": 0.0, "name": "a4511bc68336c5f0d059b50c81354840", "fusion_lon": 0.0}, {"is_reserved": 0, "type": "electric_scooter", "bike_id": "c68e3a190698d13b5552849c9147be2d", "lat": 38.900614833333336, "lon": -77.04534416666667, "rental_uris": {"android": "https://dc.lft.to/lastmile_qr_scan", "ios": "https://dc.lft.to/lastmile_qr_scan"}, "is_disabled": 0, "fusion_lat": 0.0, "name": "c68e3a190698d13b5552849c9147be2d", "fusion_lon": 0.0}, {"is_reserved": 0, "type": "electric_scooter", "bike_id": "42f2784b7a5af6a18bca171902e3daee", "lat": 38.974988, "lon": -77.016965, "rental_uris": {"android": "https://dc.lft.to/lastmile_qr_scan", "ios": "https://dc.lft.to/lastmile_qr_scan"}, "is_disabled": 0, "fusion_lat": 0.0, "name": "42f2784b7a5af6a18bca171902e3daee", "fusion_lon": 0.0}, {"is_reserved": 0, "type": "electric_scooter", "bike_id": "7c1567aaf3f1f2d5c8af2d398fa6593a", "lat": 38.92069166666667, "lon": -76.980766, "rental_uris": {"android": "https://dc.lft.to/lastmile_qr_scan", "ios": "https://dc.lft.to/lastmile_qr_scan"}, "is_disabled": 0, "fusion_lat": 0.0, "name": "7c1567aaf3f1f2d5c8af2d398fa6593a", "fusion_lon": 0.0}, {"is_reserved": 0, "type": "electric_scooter", "bike_id": "39e2ae2fa0705122e8821fc86dc7059f", "lat": 38.897317666666666, "lon": -77.05476833333333, "rental_uris": {"android": "https://dc.lft.to/lastmile_qr_scan", "ios": "https://dc.lft.to/lastmile_qr_scan"}, "is_disabled": 0, "fusion_lat": 0.0, "name": "39e2ae2fa0705122e8821fc86dc7059f", "fusion_lon": 0.0}, {"is_reserved": 0, "type": "electric_scooter", "bike_id": "5888fde753f8629b609c810ecd2551c8", "lat": 38.91329233333333, "lon": -77.04801516666667, "rental_uris": {"android": "https://dc.lft.to/lastmile_qr_scan", "ios": "https://dc.lft.to/lastmile_qr_scan"}, "is_disabled": 0, "fusion_lat": 0.0, "name": "5888fde753f8629b609c810ecd2551c8", "fusion_lon": 0.0}, {"is_reserved": 0, "type": "electric_scooter", "bike_id": "6c871a242413920b286de1b3d0dd3d33", "lat": 38.916689, "lon": -77.02965383333333, "rental_uris": {"android": "https://dc.lft.to/lastmile_qr_scan", "ios": "https://dc.lft.to/lastmile_qr_scan"}, "is_disabled": 0, "fusion_lat": 0.0, "name": "6c871a242413920b286de1b3d0dd3d33", "fusion_lon": 0.0}, {"is_reserved": 0, "type": "electric_scooter", "bike_id": "277f37e0376a0473bc7bcb4cf1028c94", "lat": 38.91543016666667, "lon": -77.03839683333334, "rental_uris": {"android": "https://dc.lft.to/lastmile_qr_scan", "ios": "https://dc.lft.to/lastmile_qr_scan"}, "is_disabled": 0, "fusion_lat": 0.0, "name": "277f37e0376a0473bc7bcb4cf1028c94", "fusion_lon": 0.0}, {"is_reserved": 0, "type": "electric_scooter", "bike_id": "5d72c761f3640717aba1f0e75325100e", "lat": 38.865733666666664, "lon": -76.99029566666667, "rental_uris": {"android": "https://dc.lft.to/lastmile_qr_scan", "ios": "https://dc.lft.to/lastmile_qr_scan"}, "is_disabled": 0, "fusion_lat": 0.0, "name": "5d72c761f3640717aba1f0e75325100e", "fusion_lon": 0.0}, {"is_reserved": 0, "type": "electric_scooter", "bike_id": "4ee34b8e729b3643640063e85d3558a8", "lat": 38.91292933333333, "lon": -76.98539416666667, "rental_uris": {"android": "https://dc.lft.to/lastmile_qr_scan", "ios": "https://dc.lft.to/lastmile_qr_scan"}, "is_disabled": 0, "fusion_lat": 0.0, "name": "4ee34b8e729b3643640063e85d3558a8", "fusion_lon": 0.0}, {"is_reserved": 0, "type": "electric_scooter", "bike_id": "b0dc70d092b774bd5a70e7ea9ec71751", "lat": 38.90971583333334, "lon": -77.03297783333333, "rental_uris": {"android": "https://dc.lft.to/lastmile_qr_scan", "ios": "https://dc.lft.to/lastmile_qr_scan"}, "is_disabled": 0, "fusion_lat": 0.0, "name": "b0dc70d092b774bd5a70e7ea9ec71751", "fusion_lon": 0.0}, {"is_reserved": 0, "type": "electric_scooter", "bike_id": "35074bb64ca0dc99304b8493ce55a0d4", "lat": 38.93397066666667, "lon": -77.0228235, "rental_uris": {"android": "https://dc.lft.to/lastmile_qr_scan", "ios": "https://dc.lft.to/lastmile_qr_scan"}, "is_disabled": 0, "fusion_lat": 0.0, "name": "35074bb64ca0dc99304b8493ce55a0d4", "fusion_lon": 0.0}, {"is_reserved": 0, "type": "electric_bike", "bike_id": "e9c38fd5d8d3a428df0711a4b3795be8", "lat": 39.09445016666667, "lon": -77.13463433333334, "rental_uris": {"android": "https://dc.lft.to/lastmile_qr_scan", "ios": "https://dc.lft.to/lastmile_qr_scan"}, "is_disabled": 0, "fusion_lat": 0.0, "name": "e9c38fd5d8d3a428df0711a4b3795be8", "fusion_lon": 0.0}, {"is_reserved": 0, "type": "electric_scooter", "bike_id": "6b7d7fbc5bda30472c546cce00cdc0fc", "lat": 38.924825166666665, "lon": -77.02816766666666, "rental_uris": {"android": "https://dc.lft.to/lastmile_qr_scan", "ios": "https://dc.lft.to/lastmile_qr_scan"}, "is_disabled": 0, "fusion_lat": 0.0, "name": "6b7d7fbc5bda30472c546cce00cdc0fc", "fusion_lon": 0.0}, {"is_reserved": 0, "type": "electric_scooter", "bike_id": "7a68bf187d745701e076558fda3f0c93", "lat": 38.919290333333336, "lon": -77.01978416666667, "rental_uris": {"android": "https://dc.lft.to/lastmile_qr_scan", "ios": "https://dc.lft.to/lastmile_qr_scan"}, "is_disabled": 0, "fusion_lat": 0.0, "name": "7a68bf187d745701e076558fda3f0c93", "fusion_lon": 0.0}, {"is_reserved": 0, "type": "electric_scooter", "bike_id": "9ddbf410c9ee39da1b70dafe6d940260", "lat": 38.936413333333334, "lon": -77.06000983333334, "rental_uris": {"android": "https://dc.lft.to/lastmile_qr_scan", "ios": "https://dc.lft.to/lastmile_qr_scan"}, "is_disabled": 0, "fusion_lat": 0.0, "name": "9ddbf410c9ee39da1b70dafe6d940260", "fusion_lon": 0.0}, {"is_reserved": 0, "type": "electric_scooter", "bike_id": "360442b22db623d692f7f40e1da335a3", "lat": 38.89710816666667, "lon": -76.99120433333333, "rental_uris": {"android": "https://dc.lft.to/lastmile_qr_scan", "ios": "https://dc.lft.to/lastmile_qr_scan"}, "is_disabled": 0, "fusion_lat": 0.0, "name": "360442b22db623d692f7f40e1da335a3", "fusion_lon": 0.0}, {"is_reserved": 0, "type": "electric_scooter", "bike_id": "1b3579ddf1d4e1e66ef849f3cfffc4c3", "lat": 38.923695333333335, "lon": -77.08047483333333, "rental_uris": {"android": "https://dc.lft.to/lastmile_qr_scan", "ios": "https://dc.lft.to/lastmile_qr_scan"}, "is_disabled": 0, "fusion_lat": 0.0, "name": "1b3579ddf1d4e1e66ef849f3cfffc4c3", "fusion_lon": 0.0}, {"is_reserved": 0, "type": "electric_scooter", "bike_id": "21903e83d769a373da2279729f73c7dd", "lat": 38.927791666666664, "lon": -77.03604433333334, "rental_uris": {"android": "https://dc.lft.to/lastmile_qr_scan", "ios": "https://dc.lft.to/lastmile_qr_scan"}, "is_disabled": 0, "fusion_lat": 0.0, "name": "21903e83d769a373da2279729f73c7dd", "fusion_lon": 0.0}, {"is_reserved": 0, "type": "electric_scooter", "bike_id": "0a426447590fc25711745fa5b1c0520b", "lat": 38.90565133333333, "lon": -77.028127, "rental_uris": {"android": "https://dc.lft.to/lastmile_qr_scan", "ios": "https://dc.lft.to/lastmile_qr_scan"}, "is_disabled": 0, "fusion_lat": 0.0, "name": "0a426447590fc25711745fa5b1c0520b", "fusion_lon": 0.0}, {"is_reserved": 0, "type": "electric_scooter", "bike_id": "287b607e2fbf40729473d9301adb1c81", "lat": 38.972962833333334, "lon": -77.0363075, "rental_uris": {"android": "https://dc.lft.to/lastmile_qr_scan", "ios": "https://dc.lft.to/lastmile_qr_scan"}, "is_disabled": 0, "fusion_lat": 0.0, "name": "287b607e2fbf40729473d9301adb1c81", "fusion_lon": 0.0}, {"is_reserved": 0, "type": "electric_scooter", "bike_id": "7921053c5705ca7f55c86a8cfa570982", "lat": 38.864468, "lon": -76.99113933333334, "rental_uris": {"android": "https://dc.lft.to/lastmile_qr_scan", "ios": "https://dc.lft.to/lastmile_qr_scan"}, "is_disabled": 0, "fusion_lat": 0.0, "name": "7921053c5705ca7f55c86a8cfa570982", "fusion_lon": 0.0}, {"is_reserved": 0, "type": "electric_scooter", "bike_id": "7744cf946863824a0e8abb953f6b3ef1", "lat": 38.892223, "lon": -77.01735266666667, "rental_uris": {"android": "https://dc.lft.to/lastmile_qr_scan", "ios": "https://dc.lft.to/lastmile_qr_scan"}, "is_disabled": 0, "fusion_lat": 0.0, "name": "7744cf946863824a0e8abb953f6b3ef1", "fusion_lon": 0.0}, {"is_reserved": 0, "type": "electric_scooter", "bike_id": "73e0ff8e31b3d5541a30a32dd595abf7", "lat": 38.930219666666666, "lon": -77.0379165, "rental_uris": {"android": "https://dc.lft.to/lastmile_qr_scan", "ios": "https://dc.lft.to/lastmile_qr_scan"}, "is_disabled": 0, "fusion_lat": 0.0, "name": "73e0ff8e31b3d5541a30a32dd595abf7", "fusion_lon": 0.0}, {"is_reserved": 0, "type": "electric_scooter", "bike_id": "62fd75133b1e66c67a18023d4f53857d", "lat": 38.905222, "lon": -77.0614955, "rental_uris": {"android": "https://dc.lft.to/lastmile_qr_scan", "ios": "https://dc.lft.to/lastmile_qr_scan"}, "is_disabled": 0, "fusion_lat": 0.0, "name": "62fd75133b1e66c67a18023d4f53857d", "fusion_lon": 0.0}, {"is_reserved": 0, "type": "electric_scooter", "bike_id": "0febf7ece4f624c7d4e7203b0ab3fa56", "lat": 38.929803666666665, "lon": -77.05506583333333, "rental_uris": {"android": "https://dc.lft.to/lastmile_qr_scan", "ios": "https://dc.lft.to/lastmile_qr_scan"}, "is_disabled": 0, "fusion_lat": 0.0, "name": "0febf7ece4f624c7d4e7203b0ab3fa56", "fusion_lon": 0.0}, {"is_reserved": 0, "type": "electric_scooter", "bike_id": "7e86b6597065e1de2ff6f60101450577", "lat": 38.887412, "lon": -77.01407466666667, "rental_uris": {"android": "https://dc.lft.to/lastmile_qr_scan", "ios": "https://dc.lft.to/lastmile_qr_scan"}, "is_disabled": 0, "fusion_lat": 0.0, "name": "7e86b6597065e1de2ff6f60101450577", "fusion_lon": 0.0}, {"is_reserved": 0, "type": "electric_bike", "bike_id": "7c4e19fc52820dd97b480469c4185d80", "lat": 38.98826433333333, "lon": -77.02655016666667, "rental_uris": {"android": "https://dc.lft.to/lastmile_qr_scan", "ios": "https://dc.lft.to/lastmile_qr_scan"}, "is_disabled": 0, "fusion_lat": 0.0, "name": "7c4e19fc52820dd97b480469c4185d80", "fusion_lon": 0.0}, {"is_reserved": 0, "type": "electric_scooter", "bike_id": "bb2f3f3911fefc9dd82e7430bb9f8523", "lat": 38.90531383333333, "lon": -77.05996966666666, "rental_uris": {"android": "https://dc.lft.to/lastmile_qr_scan", "ios": "https://dc.lft.to/lastmile_qr_scan"}, "is_disabled": 0, "fusion_lat": 0.0, "name": "bb2f3f3911fefc9dd82e7430bb9f8523", "fusion_lon": 0.0}, {"is_reserved": 0, "type": "electric_scooter", "bike_id": "3a62416641c43be3435fbfe35bee2286", "lat": 38.90082833333334, "lon": -77.048619, "rental_uris": {"android": "https://dc.lft.to/lastmile_qr_scan", "ios": "https://dc.lft.to/lastmile_qr_scan"}, "is_disabled": 0, "fusion_lat": 0.0, "name": "3a62416641c43be3435fbfe35bee2286", "fusion_lon": 0.0}, {"is_reserved": 0, "type": "electric_scooter", "bike_id": "77363478fda6efb2db384e79994aebbf", "lat": 38.904889833333336, "lon": -77.02963566666666, "rental_uris": {"android": "https://dc.lft.to/lastmile_qr_scan", "ios": "https://dc.lft.to/lastmile_qr_scan"}, "is_disabled": 0, "fusion_lat": 0.0, "name": "77363478fda6efb2db384e79994aebbf", "fusion_lon": 0.0}, {"is_reserved": 0, "type": "electric_scooter", "bike_id": "35faca38fd82a2d0e4f5f749e8117e6a", "lat": 38.933305833333335, "lon": -77.02907216666667, "rental_uris": {"android": "https://dc.lft.to/lastmile_qr_scan", "ios": "https://dc.lft.to/lastmile_qr_scan"}, "is_disabled": 0, "fusion_lat": 0.0, "name": "35faca38fd82a2d0e4f5f749e8117e6a", "fusion_lon": 0.0}, {"is_reserved": 0, "type": "electric_bike", "bike_id": "3006c1b91ae99d64c166f6eb56d388ec", "lat": 38.921330833333336, "lon": -77.00403016666667, "rental_uris": {"android": "https://dc.lft.to/lastmile_qr_scan", "ios": "https://dc.lft.to/lastmile_qr_scan"}, "is_disabled": 0, "fusion_lat": 0.0, "name": "3006c1b91ae99d64c166f6eb56d388ec", "fusion_lon": 0.0}, {"is_reserved": 0, "type": "electric_scooter", "bike_id": "c6444b5248f29c976a4c778a34e72276", "lat": 38.933083833333335, "lon": -76.99598516666667, "rental_uris": {"android": "https://dc.lft.to/lastmile_qr_scan", "ios": "https://dc.lft.to/lastmile_qr_scan"}, "is_disabled": 0, "fusion_lat": 0.0, "name": "c6444b5248f29c976a4c778a34e72276", "fusion_lon": 0.0}, {"is_reserved": 0, "type": "electric_scooter", "bike_id": "3c036bd166dc797d62220b9f9fa3dfc5", "lat": 38.94976283333333, "lon": -77.02448416666667, "rental_uris": {"android": "https://dc.lft.to/lastmile_qr_scan", "ios": "https://dc.lft.to/lastmile_qr_scan"}, "is_disabled": 0, "fusion_lat": 0.0, "name": "3c036bd166dc797d62220b9f9fa3dfc5", "fusion_lon": 0.0}, {"is_reserved": 0, "type": "electric_scooter", "bike_id": "5d601979e92e20b7b8568153edd62d7e", "lat": 38.90472883333333, "lon": -76.9813925, "rental_uris": {"android": "https://dc.lft.to/lastmile_qr_scan", "ios": "https://dc.lft.to/lastmile_qr_scan"}, "is_disabled": 0, "fusion_lat": 0.0, "name": "5d601979e92e20b7b8568153edd62d7e", "fusion_lon": 0.0}, {"is_reserved": 0, "type": "electric_scooter", "bike_id": "a29d01c7e8bf18110bcfebeb4b9e81a0", "lat": 38.876464666666664, "lon": -77.00743716666666, "rental_uris": {"android": "https://dc.lft.to/lastmile_qr_scan", "ios": "https://dc.lft.to/lastmile_qr_scan"}, "is_disabled": 0, "fusion_lat": 0.0, "name": "a29d01c7e8bf18110bcfebeb4b9e81a0", "fusion_lon": 0.0}, {"is_reserved": 0, "type": "electric_scooter", "bike_id": "cfeeb6128c7217ca09eb98a6686d13ed", "lat": 38.8925315, "lon": -76.94138, "rental_uris": {"android": "https://dc.lft.to/lastmile_qr_scan", "ios": "https://dc.lft.to/lastmile_qr_scan"}, "is_disabled": 0, "fusion_lat": 0.0, "name": "cfeeb6128c7217ca09eb98a6686d13ed", "fusion_lon": 0.0}, {"is_reserved": 0, "type": "electric_scooter", "bike_id": "c07db60197f85d8d753825b294710c5c", "lat": 38.8971565, "lon": -77.00752633333333, "rental_uris": {"android": "https://dc.lft.to/lastmile_qr_scan", "ios": "https://dc.lft.to/lastmile_qr_scan"}, "is_disabled": 0, "fusion_lat": 0.0, "name": "c07db60197f85d8d753825b294710c5c", "fusion_lon": 0.0}, {"is_reserved": 0, "type": "electric_scooter", "bike_id": "0f245ad53ec73f4c0af04434fb634d8d", "lat": 38.91049116666667, "lon": -77.06364916666666, "rental_uris": {"android": "https://dc.lft.to/lastmile_qr_scan", "ios": "https://dc.lft.to/lastmile_qr_scan"}, "is_disabled": 0, "fusion_lat": 0.0, "name": "0f245ad53ec73f4c0af04434fb634d8d", "fusion_lon": 0.0}, {"is_reserved": 0, "type": "electric_scooter", "bike_id": "3d061b2e5079ba663623f20147cb8799", "lat": 38.91558583333333, "lon": -77.02111266666667, "rental_uris": {"android": "https://dc.lft.to/lastmile_qr_scan", "ios": "https://dc.lft.to/lastmile_qr_scan"},