{"data": {"bikes": [{"fusion_lon": 0.0, "name": "03c80abe8888e1b70663e0ec641a77c4", "rental_uris": {"android": "https://dc.lft.to/lastmile_qr_scan", "ios": "https://dc.lft.to/lastmile_qr_scan"}, "lat": 38.956277166666666, "bike_id": "03c80abe8888e1b70663e0ec641a77c4", "is_disabled": 0, "lon": -77.02951216666666, "is_reserved": 0, "fusion_lat": 0.0, "type": "electric_scooter"}, {"fusion_lon": 0.0, "name": "a1f1a3c3d648ed8fcf640ae3826770e6", "rental_uris": {"android": "https://dc.lft.to/lastmile_qr_scan", "ios": "https://dc.lft.to/lastmile_qr_scan"}, "lat": 38.87313416666667, "bike_id": "a1f1a3c3d648ed8fcf640ae3826770e6", "is_disabled": 0, "lon": -77.01389316666666, "is_reserved": 0, "fusion_lat": 0.0, "type": "electric_scooter"}, {"fusion_lon": 0.0, "name": "2f0cf0976902ef1f79b420bf55efe266", "rental_uris": {"android": "https://dc.lft.to/lastmile_qr_scan", "ios": "https://dc.lft.to/lastmile_qr_scan"}, "lat": 38.91123266666666, "bike_id": "2f0cf0976902ef1f79b420bf55efe266", "is_disabled": 0, "lon": -77.04366916666666, "is_reserved": 0, "fusion_lat": 0.0, "type": "electric_scooter"}, {"fusion_lon": 0.0, "name": "a273f2962ca08dea30231ceb9330cc66", "rental_uris": {"android": "https://dc.lft.to/lastmile_qr_scan", "ios": "https://dc.lft.to/lastmile_qr_scan"}, "lat": 38.896154, "bike_id": "a273f2962ca08dea30231ceb9330cc66", "is_disabled": 0, "lon": -76.92977383333333, "is_reserved": 0, "fusion_lat": 0.0, "type": "electric_scooter"}, {"fusion_lon": 0.0, "name": "5e6abf76c945a0bba5101e431b0be133", "rental_uris": {"android": "https://dc.lft.to/lastmile_qr_scan", "ios": "https://dc.lft.to/lastmile_qr_scan"}, "lat": 38.89363516666667, "bike_id": "5e6abf76c945a0bba5101e431b0be133", "is_disabled": 0, "lon": -76.98458533333333, "is_reserved": 0, "fusion_lat": 0.0, "type": "electric_scooter"}, {"fusion_lon": 0.0, "name": "a56042613ec23d1cbfa0691b31e6a568", "rental_uris": {"android": "https://dc.lft.to/lastmile_qr_scan", "ios": "https://dc.lft.to/lastmile_qr_scan"}, "lat": 38.880739, "bike_id": "a56042613ec23d1cbfa0691b31e6a568", "is_disabled": 0, "lon": -77.03721666666667, "is_reserved": 0, "fusion_lat": 0.0, "type": "electric_scooter"}, {"fusion_lon": 0.0, "name": "8b5e7819481dda051046dac7873ae47b", "rental_uris": {"android": "https://dc.lft.to/lastmile_qr_scan", "ios": "https://dc.lft.to/lastmile_qr_scan"}, "lat": 38.941527666666666, "bike_id": "8b5e7819481dda051046dac7873ae47b", "is_disabled": 0, "lon": -77.0019575, "is_reserved": 0, "fusion_lat": 0.0, "type": "electric_bike"}, {"fusion_lon": 0.0, "name": "ccde06a1c0df95313d2aae0b0ba9abda", "rental_uris": {"android": "https://dc.lft.to/lastmile_qr_scan", "ios": "https://dc.lft.to/lastmile_qr_scan"}, "lat": 38.8955995, "bike_id": "ccde06a1c0df95313d2aae0b0ba9abda", "is_disabled": 0, "lon": -77.12735966666666, "is_reserved": 0, "fusion_lat": 0.0, "type": "electric_bike"}, {"fusion_lon": 0.0, "name": "5669a6d878b6f45c6a7ba293049e994a", "rental_uris": {"android": "https://dc.lft.to/lastmile_qr_scan", "ios": "https://dc.lft.to/lastmile_qr_scan"}, "lat": 38.9261245, "bike_id": "5669a6d878b6f45c6a7ba293049e994a", "is_disabled": 0, "lon": -77.021635, "is_reserved": 0, "fusion_lat": 0.0, "type": "electric_scooter"}, {"fusion_lon": 0.0, "name": "59f0ad5248adfcfd22e5849b0f221295", "rental_uris": {"android": "https://dc.lft.to/lastmile_qr_scan", "ios": "https://dc.lft.to/lastmile_qr_scan"}, "lat": 38.926199, "bike_id": "59f0ad5248adfcfd22e5849b0f221295", "is_disabled": 0, "lon": -77.00589, "is_reserved": 0, "fusion_lat": 0.0, "type": "electric_bike"}, {"fusion_lon": 0.0, "name": "18da15c0ad8b04734cba2d93778ada70", "rental_uris": {"android": "https://dc.lft.to/lastmile_qr_scan", "ios": "https://dc.lft.to/lastmile_qr_scan"}, "lat": 38.92670483333333, "bike_id": "18da15c0ad8b04734cba2d93778ada70", "is_disabled": 0, "lon": -77.0298985, "is_reserved": 0, "fusion_lat": 0.0, "type": "electric_scooter"}, {"fusion_lon": 0.0, "name": "e0a6c36035ad995b4474848f5608536a", "rental_uris": {"android": "https://dc.lft.to/lastmile_qr_scan", "ios": "https://dc.lft.to/lastmile_qr_scan"}, "lat": 38.9492675, "bike_id": "e0a6c36035ad995b4474848f5608536a", "is_disabled": 0, "lon": -76.95913816666666, "is_reserved": 0, "fusion_lat": 0.0, "type": "electric_bike"}, {"fusion_lon": 0.0, "name": "5de1ebbf0eec6dcf9797e29a669a0fb4", "rental_uris": {"android": "https://dc.lft.to/lastmile_qr_scan", "ios": "https://dc.lft.to/lastmile_qr_scan"}, "lat": 38.90231583333333, "bike_id": "5de1ebbf0eec6dcf9797e29a669a0fb4", "is_disabled": 0, "lon": -77.03256816666666, "is_reserved": 0, "fusion_lat": 0.0, "type": "electric_scooter"}, {"fusion_lon": 0.0, "name": "2425bd0a8d882b5b06500d5a6133b4ed", "rental_uris": {"android": "https://dc.lft.to/lastmile_qr_scan", "ios": "https://dc.lft.to/lastmile_qr_scan"}, "lat": 38.915533333333336, "bike_id": "2425bd0a8d882b5b06500d5a6133b4ed", "is_disabled": 0, "lon": -77.03665966666667, "is_reserved": 0, "fusion_lat": 0.0, "type": "electric_scooter"}, {"fusion_lon": 0.0, "name": "83d562785468ae8090f3df20fff049b8", "rental_uris": {"android": "https://dc.lft.to/lastmile_qr_scan", "ios": "https://dc.lft.to/lastmile_qr_scan"}, "lat": 38.9056205, "bike_id": "83d562785468ae8090f3df20fff049b8", "is_disabled": 0, "lon": -77.03489783333333, "is_reserved": 0, "fusion_lat": 0.0, "type": "electric_scooter"}, {"fusion_lon": 0.0, "name": "7560541f066786ca98cbb6091b65c812", "rental_uris": {"android": "https://dc.lft.to/lastmile_qr_scan", "ios": "https://dc.lft.to/lastmile_qr_scan"}, "lat": 38.90200766666667, "bike_id": "7560541f066786ca98cbb6091b65c812", "is_disabled": 0, "lon": -77.06117433333333, "is_reserved": 0, "fusion_lat": 0.0, "type": "electric_scooter"}, {"fusion_lon": 0.0, "name": "ceffd8577d4817383defc64dbd6298ee", "rental_uris": {"android": "https://dc.lft.to/lastmile_qr_scan", "ios": "https://dc.lft.to/lastmile_qr_scan"}, "lat": 38.9019765, "bike_id": "ceffd8577d4817383defc64dbd6298ee", "is_disabled": 0, "lon": -77.0219025, "is_reserved": 0, "fusion_lat": 0.0, "type": "electric_scooter"}, {"fusion_lon": 0.0, "name": "a9ae9faeb8f3a176e7c1a35d04328a38", "rental_uris": {"android": "https://dc.lft.to/lastmile_qr_scan", "ios": "https://dc.lft.to/lastmile_qr_scan"}, "lat": 38.91686583333333, "bike_id": "a9ae9faeb8f3a176e7c1a35d04328a38", "is_disabled": 0, "lon": -77.03826616666667, "is_reserved": 0, "fusion_lat": 0.0, "type": "electric_scooter"}, {"fusion_lon": 0.0, "name": "c924e6945cdcf0f75a390bbce455441e", "rental_uris": {"android": "https://dc.lft.to/lastmile_qr_scan", "ios": "https://dc.lft.to/lastmile_qr_scan"}, "lat": 39.094351833333334, "bike_id": "c924e6945cdcf0f75a390bbce455441e", "is_disabled": 0, "lon": -77.13463566666667, "is_reserved": 0, "fusion_lat": 0.0, "type": "electric_bike"}, {"fusion_lon": 0.0, "name": "6c291312fffab8b19a74aaf8b7997b12", "rental_uris": {"android": "https://dc.lft.to/lastmile_qr_scan", "ios": "https://dc.lft.to/lastmile_qr_scan"}, "lat": 38.93632233333334, "bike_id": "6c291312fffab8b19a74aaf8b7997b12", "is_disabled": 0, "lon": -77.060027, "is_reserved": 0, "fusion_lat": 0.0, "type": "electric_scooter"}, {"fusion_lon": 0.0, "name": "724bb5f6ea9a9d8aaab836bdf224c5a9", "rental_uris": {"android": "https://dc.lft.to/lastmile_qr_scan", "ios": "https://dc.lft.to/lastmile_qr_scan"}, "lat": 38.89485783333333, "bike_id": "724bb5f6ea9a9d8aaab836bdf224c5a9", "is_disabled": 0, "lon": -77.02168766666666, "is_reserved": 0, "fusion_lat": 0.0, "type": "electric_scooter"}, {"fusion_lon": 0.0, "name": "08b51d6bd945def4d44814c7ccf4dd4c", "rental_uris": {"android": "https://dc.lft.to/lastmile_qr_scan", "ios": "https://dc.lft.to/lastmile_qr_scan"}, "lat": 38.900216666666665, "bike_id": "08b51d6bd945def4d44814c7ccf4dd4c", "is_disabled": 0, "lon": -76.98683716666666, "is_reserved": 0, "fusion_lat": 0.0, "type": "electric_scooter"}, {"fusion_lon": 0.0, "name": "9f695d71d423995f26697315ca81cb33", "rental_uris": {"android": "https://dc.lft.to/lastmile_qr_scan", "ios": "https://dc.lft.to/lastmile_qr_scan"}, "lat": 38.901099333333335, "bike_id": "9f695d71d423995f26697315ca81cb33", "is_disabled": 0, "lon": -77.04220466666666, "is_reserved": 0, "fusion_lat": 0.0, "type": "electric_scooter"}, {"fusion_lon": 0.0, "name": "9f84b37513b3ce1e55bcc3d34358bf24", "rental_uris": {"android": "https://dc.lft.to/lastmile_qr_scan", "ios": "https://dc.lft.to/lastmile_qr_scan"}, "lat": 38.91268933333333, "bike_id": "9f84b37513b3ce1e55bcc3d34358bf24", "is_disabled": 0, "lon": -77.02207433333334, "is_reserved": 0, "fusion_lat": 0.0, "type": "electric_scooter"}, {"fusion_lon": 0.0, "name": "c4b6e1e6c25c58157016595812798df1", "rental_uris": {"android": "https://dc.lft.to/lastmile_qr_scan", "ios": "https://dc.lft.to/lastmile_qr_scan"}, "lat": 38.89878233333334, "bike_id": "c4b6e1e6c25c58157016595812798df1", "is_disabled": 0, "lon": -77.0327915, "is_reserved": 0, "fusion_lat": 0.0, "type": "electric_scooter"}, {"fusion_lon": 0.0, "name": "8e24b196f2760feb05d09d196d12c325", "rental_uris": {"android": "https://dc.lft.to/lastmile_qr_scan", "ios": "https://dc.lft.to/lastmile_qr_scan"}, "lat": 38.883875833333335, "bike_id": "8e24b196f2760feb05d09d196d12c325", "is_disabled": 0, "lon": -76.98559983333334, "is_reserved": 0, "fusion_lat": 0.0, "type": "electric_scooter"}, {"fusion_lon": 0.0, "name": "0767e10fb26c6a5c170737a21f1e5495", "rental_uris": {"android": "https://dc.lft.to/lastmile_qr_scan", "ios": "https://dc.lft.to/lastmile_qr_scan"}, "lat": 38.901107333333336, "bike_id": "0767e10fb26c6a5c170737a21f1e5495", "is_disabled": 0, "lon": -77.0499725, "is_reserved": 0, "fusion_lat": 0.0, "type": "electric_scooter"}, {"fusion_lon": 0.0, "name": "27f0ef17c3e0ac19b1a357ff7edf5083", "rental_uris": {"android": "https://dc.lft.to/lastmile_qr_scan", "ios": "https://dc.lft.to/lastmile_qr_scan"}, "lat": 38.92372683333333, "bike_id": "27f0ef17c3e0ac19b1a357ff7edf5083", "is_disabled": 0, "lon": -77.02120533333333, "is_reserved": 0, "fusion_lat": 0.0, "type": "electric_scooter"}, {"fusion_lon": 0.0, "name": "9ded67031112f77090ce1b0c3c856083", "rental_uris": {"android": "https://dc.lft.to/lastmile_qr_scan", "ios": "https://dc.lft.to/lastmile_qr_scan"}, "lat": 38.90006966666667, "bike_id": "9ded67031112f77090ce1b0c3c856083", "is_disabled": 0, "lon": -77.02139066666666, "is_reserved": 0, "fusion_lat": 0.0, "type": "electric_scooter"}, {"fusion_lon": 0.0, "name": "9d2ed8d5ae1a896de05a16d205dd90b9", "rental_uris": {"android": "https://dc.lft.to/lastmile_qr_scan", "ios": "https://dc.lft.to/lastmile_qr_scan"}, "lat": 38.8970985, "bike_id": "9d2ed8d5ae1a896de05a16d205dd90b9", "is_disabled": 0, "lon": -76.9911905, "is_reserved": 0, "fusion_lat": 0.0, "type": "electric_scooter"}, {"fusion_lon": 0.0, "name": "572a447b7990a3930bffbe9cedb3db6c", "rental_uris": {"android": "https://dc.lft.to/lastmile_qr_scan", "ios": "https://dc.lft.to/lastmile_qr_scan"}, "lat": 38.91760266666667, "bike_id": "572a447b7990a3930bffbe9cedb3db6c", "is_disabled": 0, "lon": -77.01203616666666, "is_reserved": 0, "fusion_lat": 0.0, "type": "electric_scooter"}, {"fusion_lon": 0.0, "name": "3631674c7f584095b5b47b1a3fea8105", "rental_uris": {"android": "https://dc.lft.to/lastmile_qr_scan", "ios": "https://dc.lft.to/lastmile_qr_scan"}, "lat": 38.884804, "bike_id": "3631674c7f584095b5b47b1a3fea8105", "is_disabled": 0, "lon": -77.01510916666666, "is_reserved": 0, "fusion_lat": 0.0, "type": "electric_scooter"}, {"fusion_lon": 0.0, "name": "a8ca69600f2294d465e10d37f38445d2", "rental_uris": {"android": "https://dc.lft.to/lastmile_qr_scan", "ios": "https://dc.lft.to/lastmile_qr_scan"}, "lat": 38.90560266666667, "bike_id": "a8ca69600f2294d465e10d37f38445d2", "is_disabled": 0, "lon": -77.0397745, "is_reserved": 0, "fusion_lat": 0.0, "type": "electric_scooter"}, {"fusion_lon": 0.0, "name": "286d124ac57d370cc0a5ca16712fd974", "rental_uris": {"android": "https://dc.lft.to/lastmile_qr_scan", "ios": "https://dc.lft.to/lastmile_qr_scan"}, "lat": 38.90828883333333, "bike_id": "286d124ac57d370cc0a5ca16712fd974", "is_disabled": 0, "lon": -76.9415795, "is_reserved": 0, "fusion_lat": 0.0, "type": "electric_bike"}, {"fusion_lon": 0.0, "name": "7d2acc3104d2cb9e7ac268b5ef6ac9e2", "rental_uris": {"android": "https://dc.lft.to/lastmile_qr_scan", "ios": "https://dc.lft.to/lastmile_qr_scan"}, "lat": 38.908332, "bike_id": "7d2acc3104d2cb9e7ac268b5ef6ac9e2", "is_disabled": 0, "lon": -77.03837683333333, "is_reserved": 0, "fusion_lat": 0.0, "type": "electric_scooter"}, {"fusion_lon": 0.0, "name": "c9f6b09e7af1e8e7eda23aa257716c01", "rental_uris": {"android": "https://dc.lft.to/lastmile_qr_scan", "ios": "https://dc.lft.to/lastmile_qr_scan"}, "lat": 38.92132616666667, "bike_id": "c9f6b09e7af1e8e7eda23aa257716c01", "is_disabled": 0, "lon": -77.02145583333333, "is_reserved": 0, "fusion_lat": 0.0, "type": "electric_scooter"}, {"fusion_lon": 0.0, "name": "ada2ad24384a68a24be91c3edbacb601", "rental_uris": {"android": "https://dc.lft.to/lastmile_qr_scan", "ios": "https://dc.lft.to/lastmile_qr_scan"}, "lat": 38.90131733333333, "bike_id": "ada2ad24384a68a24be91c3edbacb601", "is_disabled": 0, "lon": -77.0317455, "is_reserved": 0, "fusion_lat": 0.0, "type": "electric_scooter"}, {"fusion_lon": 0.0, "name": "db2546f3cb082b36b7cfd7fc28bbdac0", "rental_uris": {"android": "https://dc.lft.to/lastmile_qr_scan", "ios": "https://dc.lft.to/lastmile_qr_scan"}, "lat": 38.9155765, "bike_id": "db2546f3cb082b36b7cfd7fc28bbdac0", "is_disabled": 0, "lon": -77.03666666666666, "is_reserved": 0, "fusion_lat": 0.0, "type": "electric_scooter"}, {"fusion_lon": 0.0, "name": "cfefa2c7ef458096ef53105716d307a6", "rental_uris": {"android": "https://dc.lft.to/lastmile_qr_scan", "ios": "https://dc.lft.to/lastmile_qr_scan"}, "lat": 38.90186216666667, "bike_id": "cfefa2c7ef458096ef53105716d307a6", "is_disabled": 0, "lon": -77.02172016666667, "is_reserved": 0, "fusion_lat": 0.0, "type": "electric_scooter"}, {"fusion_lon": 0.0, "name": "f09cc3aacb5db35c066169bc498c7e58", "rental_uris": {"android": "https://dc.lft.to/lastmile_qr_scan", "ios": "https://dc.lft.to/lastmile_qr_scan"}, "lat": 38.9056025, "bike_id": "f09cc3aacb5db35c066169bc498c7e58", "is_disabled": 0, "lon": -77.04218216666666, "is_reserved": 0, "fusion_lat": 0.0, "type": "electric_scooter"}, {"fusion_lon": 0.0, "name": "00193203ccc4027debc23aaf2cd49b82", "rental_uris": {"android": "https://dc.lft.to/lastmile_qr_scan", "ios": "https://dc.lft.to/lastmile_qr_scan"}, "lat": 38.902059, "bike_id": "00193203ccc4027debc23aaf2cd49b82", "is_disabled": 0, "lon": -77.01919066666666, "is_reserved": 0, "fusion_lat": 0.0, "type": "electric_scooter"}, {"fusion_lon": 0.0, "name": "55bb371031593033c4d9c00cb61adc4e", "rental_uris": {"android": "https://dc.lft.to/lastmile_qr_scan", "ios": "https://dc.lft.to/lastmile_qr_scan"}, "lat": 38.89191916666667, "bike_id": "55bb371031593033c4d9c00cb61adc4e", "is_disabled": 0, "lon": -77.00189783333333, "is_reserved": 0, "fusion_lat": 0.0, "type": "electric_scooter"}, {"fusion_lon": 0.0, "name": "8370f497b7355e3838da32c82d0ebe57", "rental_uris": {"android": "https://dc.lft.to/lastmile_qr_scan", "ios": "https://dc.lft.to/lastmile_qr_scan"}, "lat": 38.915654, "bike_id": "8370f497b7355e3838da32c82d0ebe57", "is_disabled": 0, "lon": -77.012573, "is_reserved": 0, "fusion_lat": 0.0, "type": "electric_scooter"}, {"fusion_lon": 0.0, "name": "84feaf409d363a27aeb052c10480188c", "rental_uris": {"android": "https://dc.lft.to/lastmile_qr_scan", "ios": "https://dc.lft.to/lastmile_qr_scan"}, "lat": 38.92678333333333, "bike_id": "84feaf409d363a27aeb052c10480188c", "is_disabled": 0, "lon": -77.02577666666667, "is_reserved": 0, "fusion_lat": 0.0, "type": "electric_scooter"}, {"fusion_lon": 0.0, "name": "320c884b5810e0fa0a188ee167f81f62", "rental_uris": {"android": "https://dc.lft.to/lastmile_qr_scan", "ios": "https://dc.lft.to/lastmile_qr_scan"}, "lat": 38.90696333333333, "bike_id": "320c884b5810e0fa0a188ee167f81f62", "is_disabled": 0, "lon": -76.95253566666666, "is_reserved": 0, "fusion_lat": 0.0, "type": "electric_bike"}, {"fusion_lon": 0.0, "name": "0984604f33254d022400d6748dfa5a02", "rental_uris": {"android": "https://dc.lft.to/lastmile_qr_scan", "ios": "https://dc.lft.to/lastmile_qr_scan"}, "lat": 38.88011783333334, "bike_id": "0984604f33254d022400d6748dfa5a02", "is_disabled": 0, "lon": -77.00529733333333, "is_reserved": 0, "fusion_lat": 0.0, "type": "electric_scooter"}, {"fusion_lon": 0.0, "name": "820134db6ce27fd8fcc3e015ecb90557", "rental_uris": {"android": "https://dc.lft.to/lastmile_qr_scan", "ios": "https://dc.lft.to/lastmile_qr_scan"}, "lat": 38.9244395, "bike_id": "820134db6ce27fd8fcc3e015ecb90557", "is_disabled": 0, "lon": -77.03405566666666, "is_reserved": 0, "fusion_lat": 0.0, "type": "electric_scooter"}, {"fusion_lon": 0.0, "name": "37b7d428003af038a5764c72beda9479", "rental_uris": {"android": "https://dc.lft.to/lastmile_qr_scan", "ios": "https://dc.lft.to/lastmile_qr_scan"}, "lat": 38.95595866666667, "bike_id": "37b7d428003af038a5764c72beda9479", "is_disabled": 0, "lon": -77.01014516666666, "is_reserved": 0, "fusion_lat": 0.0, "type": "electric_bike"}, {"fusion_lon": 0.0, "name": "5d8cb3812d232c423e5cf02ef674f2b3", "rental_uris": {"android": "https://dc.lft.to/lastmile_qr_scan", "ios": "https://dc.lft.to/lastmile_qr_scan"}, "lat": 38.907581, "bike_id": "5d8cb3812d232c423e5cf02ef674f2b3", "is_disabled": 0, "lon": -77.04523683333333, "is_reserved": 0, "fusion_lat": 0.0, "type": "electric_scooter"}, {"fusion_lon": 0.0, "name": "742f2351b0e867dd8077ad8d14260b57", "rental_uris": {"android": "https://dc.lft.to/lastmile_qr_scan", "ios": "https://dc.lft.to/lastmile_qr_scan"}, "lat": 38.910077666666666, "bike_id": "742f2351b0e867dd8077ad8d14260b57", "is_disabled": 0, "lon": -76.99398433333333, "is_reserved": 0, "fusion_lat": 0.0, "type": "electric_scooter"}, {"fusion_lon": 0.0, "name": "79f6c8f5f7b74089f2ab2a1b13614d2b", "rental_uris": {"android": "https://dc.lft.to/lastmile_qr_scan", "ios": "https://dc.lft.to/lastmile_qr_scan"}, "lat": 38.91694583333334, "bike_id": "79f6c8f5f7b74089f2ab2a1b13614d2b", "is_disabled": 0, "lon": -77.04340216666667, "is_reserved": 0, "fusion_lat": 0.0, "type": "electric_scooter"}, {"fusion_lon": 0.0, "name": "85885f5f4c2945f254197400db1e5cc7", "rental_uris": {"android": "https://dc.lft.to/lastmile_qr_scan", "ios": "https://dc.lft.to/lastmile_qr_scan"}, "lat": 38.91706383333333, "bike_id": "85885f5f4c2945f254197400db1e5cc7", "is_disabled": 0, "lon": -77.038636, "is_reserved": 0, "fusion_lat": 0.0, "type": "electric_scooter"}, {"fusion_lon": 0.0, "name": "94172a02c36a3b66db1565b0892aaf03", "rental_uris": {"android": "https://dc.lft.to/lastmile_qr_scan", "ios": "https://dc.lft.to/lastmile_qr_scan"}, "lat": 38.89044616666666, "bike_id": "94172a02c36a3b66db1565b0892aaf03", "is_disabled": 0, "lon": -76.93752133333334, "is_reserved": 0, "fusion_lat": 0.0, "type": "electric_scooter"}, {"fusion_lon": 0.0, "name": "4aeeef19b597915a757cdef5a60c5eae", "rental_uris": {"android": "https://dc.lft.to/lastmile_qr_scan", "ios": "https://dc.lft.to/lastmile_qr_scan"}, "lat": 38.91599633333333, "bike_id": "4aeeef19b597915a757cdef5a60c5eae", "is_disabled": 0, "lon": -77.04477666666666, "is_reserved": 0, "fusion_lat": 0.0, "type": "electric_scooter"}, {"fusion_lon": 0.0, "name": "4439505726d6e5e4634c150e75427c65", "rental_uris": {"android": "https://dc.lft.to/lastmile_qr_scan", "ios": "https://dc.lft.to/lastmile_qr_scan"}, "lat": 38.9033295, "bike_id": "4439505726d6e5e4634c150e75427c65", "is_disabled": 0, "lon": -76.9753425, "is_reserved": 0, "fusion_lat": 0.0, "type": "electric_bike"}, {"fusion_lon": 0.0, "name": "d92074cb7bedb843290efb41fc55a466", "rental_uris": {"android": "https://dc.lft.to/lastmile_qr_scan", "ios": "https://dc.lft.to/lastmile_qr_scan"}, "lat": 38.90535833333333, "bike_id": "d92074cb7bedb843290efb41fc55a466", "is_disabled": 0, "lon": -77.06092733333334, "is_reserved": 0, "fusion_lat": 0.0, "type": "electric_scooter"}, {"fusion_lon": 0.0, "name": "18a1ac586c9be6b35d97c596ac93552b", "rental_uris": {"android": "https://dc.lft.to/lastmile_qr_scan", "ios": "https://dc.lft.to/lastmile_qr_scan"}, "lat": 38.888367333333335, "bike_id": "18a1ac586c9be6b35d97c596ac93552b", "is_disabled": 0, "lon": -76.98689366666666, "is_reserved": 0, "fusion_lat": 0.0, "type": "electric_scooter"}, {"fusion_lon": 0.0, "name": "3fe453e713f01867de29627ef57296fd", "rental_uris": {"android": "https://dc.lft.to/lastmile_qr_scan", "ios": "https://dc.lft.to/lastmile_qr_scan"}, "lat": 38.9202815, "bike_id": "3fe453e713f01867de29627ef57296fd", "is_disabled": 0, "lon": -77.0280855, "is_reserved": 0, "fusion_lat": 0.0, "type": "electric_scooter"}, {"fusion_lon": 0.0, "name": "5b78dcfb46b2786451eab4fe5bd70dcb", "rental_uris": {"android": "https://dc.lft.to/lastmile_qr_scan", "ios": "https://dc.lft.to/lastmile_qr_scan"}, "lat": 38.92888683333334, "bike_id": "5b78dcfb46b2786451eab4fe5bd70dcb", "is_disabled": 0, "lon": -77.03246933333334, "is_reserved": 0, "fusion_lat": 0.0, "type": "electric_scooter"}, {"fusion_lon": 0.0, "name": "716f8fbc02ba5d5af98c63a111f8e4f4", "rental_uris": {"android": "https://dc.lft.to/lastmile_qr_scan", "ios": "https://dc.lft.to/lastmile_qr_scan"}, "lat": 38.904081166666664, "bike_id": "716f8fbc02ba5d5af98c63a111f8e4f4", "is_disabled": 0, "lon": -77.04649766666667, "is_reserved": 0, "fusion_lat": 0.0, "type": "electric_scooter"}, {"fusion_lon": 0.0, "name": "a8bafe8a31b07d9e4f2f7ca821c3d588", "rental_uris": {"android": "https://dc.lft.to/lastmile_qr_scan", "ios": "https://dc.lft.to/lastmile_qr_scan"}, "lat": 38.939074833333336, "bike_id": "a8bafe8a31b07d9e4f2f7ca821c3d588", "is_disabled": 0, "lon": -77.06039466666667, "is_reserved": 0, "fusion_lat": 0.0, "type": "electric_scooter"}, {"fusion_lon": 0.0, "name": "7b0fadb30031e1fc96a3eba1aa4912f6", "rental_uris": {"android": "https://dc.lft.to/lastmile_qr_scan", "ios": "https://dc.lft.to/lastmile_qr_scan"}, "lat": 38.9048145, "bike_id": "7b0fadb30031e1fc96a3eba1aa4912f6", "is_disabled": 0, "lon": -77.04864216666667, "is_reserved": 0, "fusion_lat": 0.0, "type": "electric_scooter"}, {"fusion_lon": 0.0, "name": "d2d3578466ba536f2a75ae401f4e35c0", "rental_uris": {"android": "https://dc.lft.to/lastmile_qr_scan", "ios": "https://dc.lft.to/lastmile_qr_scan"}, "lat": 38.92317833333333, "bike_id": "d2d3578466ba536f2a75ae401f4e35c0", "is_disabled": 0, "lon": -77.0441775, "is_reserved": 0, "fusion_lat": 0.0, "type": "electric_scooter"}, {"fusion_lon": 0.0, "name": "b2640e54c62436a66beb8d55a99ee595", "rental_uris": {"android": "https://dc.lft.to/lastmile_qr_scan", "ios": "https://dc.lft.to/lastmile_qr_scan"}, "lat": 38.90898633333333, "bike_id": "b2640e54c62436a66beb8d55a99ee595", "is_disabled": 0, "lon": -77.07266433333334, "is_reserved": 0, "fusion_lat": 0.0, "type": "electric_scooter"}, {"fusion_lon": 0.0, "name": "08e53cf2e538e362be13549fb8a24bf3", "rental_uris": {"android": "https://dc.lft.to/lastmile_qr_scan", "ios": "https://dc.lft.to/lastmile_qr_scan"}, "lat": 38.91558666666667, "bike_id": "08e53cf2e538e362be13549fb8a24bf3", "is_disabled": 0, "lon": -77.00724316666667, "is_reserved": 0, "fusion_lat": 0.0, "type": "electric_scooter"}, {"fusion_lon": 0.0, "name": "f72afed164cd308fadcd8473d9a02bcf", "rental_uris": {"android": "https://dc.lft.to/lastmile_qr_scan", "ios": "https://dc.lft.to/lastmile_qr_scan"}, "lat": 38.9022365, "bike_id": "f72afed164cd308fadcd8473d9a02bcf", "is_disabled": 0, "lon": -77.04638116666666, "is_reserved": 0, "fusion_lat": 0.0, "type": "electric_scooter"}, {"fusion_lon": 0.0, "name": "5ae3da028264bbd8b5502c263184b491", "rental_uris": {"android": "https://dc.lft.to/lastmile_qr_scan", "ios": "https://dc.lft.to/lastmile_qr_scan"}, "lat": 38.927881, "bike_id": "5ae3da028264bbd8b5502c263184b491", "is_disabled": 0, "lon": -77.030843, "is_reserved": 0, "fusion_lat": 0.0, "type": "electric_scooter"}, {"fusion_lon": 0.0, "name": "b7da387071d0d7c52852870be777df71", "rental_uris": {"android": "https://dc.lft.to/lastmile_qr_scan", "ios": "https://dc.lft.to/lastmile_qr_scan"}, "lat": 38.90738066666667, "bike_id": "b7da387071d0d7c52852870be777df71", "is_disabled": 0, "lon": -77.0131045, "is_reserved": 0, "fusion_lat": 0.0, "type": "electric_scooter"}, {"fusion_lon": 0.0, "name": "94159430298d95b7a77738d38e0a9358", "rental_uris": {"android": "https://dc.lft.to/lastmile_qr_scan", "ios": "https://dc.lft.to/lastmile_qr_scan"}, "lat": 38.94333483333333, "bike_id": "94159430298d95b7a77738d38e0a9358", "is_disabled": 0, "lon": -77.02689266666667, "is_reserved": 0, "fusion_lat": 0.0, "type": "electric_scooter"}, {"fusion_lon": 0.0, "name": "879e39feb91aef2c7c3cbb403d81b152", "rental_uris": {"android": "https://dc.lft.to/lastmile_qr_scan", "ios": "https://dc.lft.to/lastmile_qr_scan"}, "lat": 38.81912633333334, "bike_id": "879e39feb91aef2c7c3cbb403d81b152", "is_disabled": 0, "lon": -77.126607, "is_reserved": 0, "fusion_lat": 0.0, "type": "electric_bike"}, {"fusion_lon": 0.0, "name": "9103903551730c07323f19fb0937e5a1", "rental_uris": {"android": "https://dc.lft.to/lastmile_qr_scan", "ios": "https://dc.lft.to/lastmile_qr_scan"}, "lat": 38.89614733333333, "bike_id": "9103903551730c07323f19fb0937e5a1", "is_disabled": 0, "lon": -77.04514183333333, "is_reserved": 0, "fusion_lat": 0.0, "type": "electric_scooter"}, {"fusion_lon": 0.0, "name": "9b1fc9d457ecca634016f60f76194970", "rental_uris": {"android": "https://dc.lft.to/lastmile_qr_scan", "ios": "https://dc.lft.to/lastmile_qr_scan"}, "lat": 38.913306166666665, "bike_id": "9b1fc9d457ecca634016f60f76194970", "is_disabled": 0, "lon": -77.0318425, "is_reserved": 0, "fusion_lat": 0.0, "type": "electric_scooter"}, {"fusion_lon": 0.0, "name": "85a054d5f93d8b299093bdc53bcffed5", "rental_uris": {"android": "https://dc.lft.to/lastmile_qr_scan", "ios": "https://dc.lft.to/lastmile_qr_scan"}, "lat": 38.924150833333336, "bike_id": "85a054d5f93d8b299093bdc53bcffed5", "is_disabled": 0, "lon": -77.04554016666667, "is_reserved": 0, "fusion_lat": 0.0, "type": "electric_scooter"}, {"fusion_lon": 0.0, "name": "51195030c075d3c79da6167256015517", "rental_uris": {"android": "https://dc.lft.to/lastmile_qr_scan", "ios": "https://dc.lft.to/lastmile_qr_scan"}, "lat": 38.9198405, "bike_id": "51195030c075d3c79da6167256015517", "is_disabled": 0, "lon": -77.0326975, "is_reserved": 0, "fusion_lat": 0.0, "type": "electric_scooter"}, {"fusion_lon": 0.0, "name": "1e23e3ed67a2070b871034f414b34337", "rental_uris": {"android": "https://dc.lft.to/lastmile_qr_scan", "ios": "https://dc.lft.to/lastmile_qr_scan"}, "lat": 38.91577633333333, "bike_id": "1e23e3ed67a2070b871034f414b34337", "is_disabled": 0, "lon": -77.012324, "is_reserved": 0, "fusion_lat": 0.0, "type": "electric_scooter"}, {"fusion_lon": 0.0, "name": "cd66652cc8908ee91062a080620462ea", "rental_uris": {"android": "https://dc.lft.to/lastmile_qr_scan", "ios": "https://dc.lft.to/lastmile_qr_scan"}, "lat": 38.906690833333336, "bike_id": "cd66652cc8908ee91062a080620462ea", "is_disabled": 0, "lon": -76.98024233333334, "is_reserved": 0, "fusion_lat": 0.0, "type": "electric_scooter"}, {"fusion_lon": 0.0, "name": "2f6d085ac0d4312ffcf31b880b201b03", "rental_uris": {"android": "https://dc.lft.to/lastmile_qr_scan", "ios": "https://dc.lft.to/lastmile_qr_scan"}, "lat": 38.897338, "bike_id": "2f6d085ac0d4312ffcf31b880b201b03", "is_disabled": 0, "lon": -77.03349733333333, "is_reserved": 0, "fusion_lat": 0.0, "type": "electric_scooter"}, {"fusion_lon": 0.0, "name": "c3bd512921ab8175480acd5d4e237845", "rental_uris": {"android": "https://dc.lft.to/lastmile_qr_scan", "ios": "https://dc.lft.to/lastmile_qr_scan"}, "lat": 38.9246625, "bike_id": "c3bd512921ab8175480acd5d4e237845", "is_disabled": 0, "lon": -77.02217983333334, "is_reserved": 0, "fusion_lat": 0.0, "type": "electric_scooter"}, {"fusion_lon": 0.0, "name": "27c20a3ce804582a3d73f0684ddf34ee", "rental_uris": {"android": "https://dc.lft.to/lastmile_qr_scan", "ios": "https://dc.lft.to/lastmile_qr_scan"}, "lat": 38.92240266666667, "bike_id": "27c20a3ce804582a3d73f0684ddf34ee", "is_disabled": 0, "lon": -77.0214815, "is_reserved": 0, "fusion_lat": 0.0, "type": "electric_scooter"}, {"fusion_lon": 0.0, "name": "89e52b4a142729e4131f7d219d972cb4", "rental_uris": {"android": "https://dc.lft.to/lastmile_qr_scan", "ios": "https://dc.lft.to/lastmile_qr_scan"}, "lat": 38.92484533333333, "bike_id": "89e52b4a142729e4131f7d219d972cb4", "is_disabled": 0, "lon": -77.022469, "is_reserved": 0, "fusion_lat": 0.0, "type": "electric_scooter"}, {"fusion_lon": 0.0, "name": "54b0c6944453d920cb4d2698857e797a", "rental_uris": {"android": "https://dc.lft.to/lastmile_qr_scan", "ios": "https://dc.lft.to/lastmile_qr_scan"}, "lat": 38.9051865, "bike_id": "54b0c6944453d920cb4d2698857e797a", "is_disabled": 0, "lon": -77.02973016666667, "is_reserved": 0, "fusion_lat": 0.0, "type": "electric_scooter"}, {"fusion_lon": 0.0, "name": "e87ba0a0f62747f8675e28f14eb73426", "rental_uris": {"android": "https://dc.lft.to/lastmile_qr_scan", "ios": "https://dc.lft.to/lastmile_qr_scan"}, "lat": 38.91621283333333, "bike_id": "e87ba0a0f62747f8675e28f14eb73426", "is_disabled": 0, "lon": -77.03920383333333, "is_reserved": 0, "fusion_lat": 0.0, "type": "electric_scooter"}, {"fusion_lon": 0.0, "name": "be231fd49038729784b9ae4344de4f5a", "rental_uris": {"android": "https://dc.lft.to/lastmile_qr_scan", "ios": "https://dc.lft.to/lastmile_qr_scan"}, "lat": 38.920514833333336, "bike_id": "be231fd49038729784b9ae4344de4f5a", "is_disabled": 0, "lon": -77.023503, "is_reserved": 0, "fusion_lat": 0.0, "type": "electric_scooter"}, {"fusion_lon": 0.0, "name": "53264aa20ce9cc73fdc86bbdfc96c4df", "rental_uris": {"android": "https://dc.lft.to/lastmile_qr_scan", "ios": "https://dc.lft.to/lastmile_qr_scan"}, "lat": 38.95330383333334, "bike_id": "53264aa20ce9cc73fdc86bbdfc96c4df", "is_disabled": 0, "lon": -76.98250366666667, "is_reserved": 0, "fusion_lat": 0.0, "type": "electric_bike"}, {"fusion_lon": 0.0, "name": "675f5deca96ca2346bcfb7362b242285", "rental_uris": {"android": "https://dc.lft.to/lastmile_qr_scan", "ios": "https://dc.lft.to/lastmile_qr_scan"}, "lat": 38.906442166666665, "bike_id": "675f5deca96ca2346bcfb7362b242285", "is_disabled": 0, "lon": -77.00873783333333, "is_reserved": 0, "fusion_lat": 0.0, "type": "electric_scooter"}, {"fusion_lon": 0.0, "name": "55e5bb64050924c60d8984b44b9ab94b", "rental_uris": {"android": "https://dc.lft.to/lastmile_qr_scan", "ios": "https://dc.lft.to/lastmile_qr_scan"}, "lat": 38.90169516666667, "bike_id": "55e5bb64050924c60d8984b44b9ab94b", "is_disabled": 0, "lon": -77.03638033333333, "is_reserved": 0, "fusion_lat": 0.0, "type": "electric_scooter"}, {"fusion_lon": 0.0, "name": "1a1cda4e403639ffa1feea9507dd2a96", "rental_uris": {"android": "https://dc.lft.to/lastmile_qr_scan", "ios": "https://dc.lft.to/lastmile_qr_scan"}, "lat": 38.87831116666667, "bike_id": "1a1cda4e403639ffa1feea9507dd2a96", "is_disabled": 0, "lon": -77.0195515, "is_reserved": 0, "fusion_lat": 0.0, "type": "electric_scooter"}, {"fusion_lon": 0.0, "name": "5a4c785046852e8d7ade4b94dac5f360", "rental_uris": {"android": "https://dc.lft.to/lastmile_qr_scan", "ios": "https://dc.lft.to/lastmile_qr_scan"}, "lat": 38.91592683333333, "bike_id": "5a4c785046852e8d7ade4b94dac5f360", "is_disabled": 0, "lon": -77.04164466666667, "is_reserved": 0, "fusion_lat": 0.0, "type": "electric_scooter"}, {"fusion_lon": 0.0, "name": "18d1ed11cd6374ee11c560d285a67b1a", "rental_uris": {"android": "https://dc.lft.to/lastmile_qr_scan", "ios": "https://dc.lft.to/lastmile_qr_scan"}, "lat": 39.0253955, "bike_id": "18d1ed11cd6374ee11c560d285a67b1a", "is_disabled": 0, "lon": -77.04447216666667, "is_reserved": 0, "fusion_lat": 0.0, "type": "electric_bike"}, {"fusion_lon": 0.0, "name": "5e9f1677d1079d2e855342824180cf2e", "rental_uris": {"android": "https://dc.lft.to/lastmile_qr_scan", "ios": "https://dc.lft.to/lastmile_qr_scan"}, "lat": 38.90317733333333, "bike_id": "5e9f1677d1079d2e855342824180cf2e", "is_disabled": 0, "lon": -77.02358916666667, "is_reserved": 0, "fusion_lat": 0.0, "type": "electric_scooter"}, {"fusion_lon": 0.0, "name": "a16ab3512767521dc1b9df1628f4087b", "rental_uris": {"android": "https://dc.lft.to/lastmile_qr_scan", "ios": "https://dc.lft.to/lastmile_qr_scan"}, "lat": 38.92150633333333, "bike_id": "a16ab3512767521dc1b9df1628f4087b", "is_disabled": 0, "lon": -77.0351835, "is_reserved": 0, "fusion_lat": 0.0, "type": "electric_scooter"}, {"fusion_lon": 0.0, "name": "aba741e8d95505d121a056d359bfffda", "rental_uris": {"android": "https://dc.lft.to/lastmile_qr_scan", "ios": "https://dc.lft.to/lastmile_qr_scan"}, "lat": 38.941835, "bike_id": "aba741e8d95505d121a056d359bfffda", "is_disabled": 0, "lon": -77.0249045, "is_reserved": 0, "fusion_lat": 0.0, "type": "electric_scooter"}, {"fusion_lon": 0.0, "name": "7360872f4da027b1ef7011b36876b46a", "rental_uris": {"android": "https://dc.lft.to/lastmile_qr_scan", "ios": "https://dc.lft.to/lastmile_qr_scan"}, "lat": 38.8980965, "bike_id": "7360872f4da027b1ef7011b36876b46a", "is_disabled": 0, "lon": -77.02955633333333, "is_reserved": 0, "fusion_lat": 0.0, "type": "electric_scooter"}, {"fusion_lon": 0.0, "name": "c74936d389920bf8711462a581dc6457", "rental_uris": {"android": "https://dc.lft.to/lastmile_qr_scan", "ios": "https://dc.lft.to/lastmile_qr_scan"}, "lat": 38.906432333333335, "bike_id": "c74936d389920bf8711462a581dc6457", "is_disabled": 0, "lon": -77.01431766666667, "is_reserved": 0, "fusion_lat": 0.0, "type": "electric_scooter"}, {"fusion_lon": 0.0, "name": "1c7b84c4bc53f3a932483102be77adc4", "rental_uris": {"android": "https://dc.lft.to/lastmile_qr_scan", "ios": "https://dc.lft.to/lastmile_qr_scan"}, "lat": 38.88585583333333, "bike_id": "1c7b84c4bc53f3a932483102be77adc4", "is_disabled": 0, "lon": -76.9915015, "is_reserved": 0, "fusion_lat": 0.0, "type": "electric_bike"}, {"fusion_lon": 0.0, "name": "db6bff26b91c35dc4298d7fc32d005a7", "rental_uris": {"android": "https://dc.lft.to/lastmile_qr_scan", "ios": "https://dc.lft.to/lastmile_qr_scan"}, "lat": 38.93741133333333, "bike_id": "db6bff26b91c35dc4298d7fc32d005a7", "is_disabled": 0, "lon": -77.03264866666666, "is_reserved": 0, "fusion_lat": 0.0, "type": "electric_scooter"}, {"fusion_lon": 0.0, "name": "77f68971d0aa3691209fd364b7eb2593", "rental_uris": {"android": "https://dc.lft.to/lastmile_qr_scan", "ios": "https://dc.lft.to/lastmile_qr_scan"}, "lat": 38.928531, "bike_id": "77f68971d0aa3691209fd364b7eb2593", "is_disabled": 0, "lon": -77.03610233333333, "is_reserved": 0, "fusion_lat": 0.0, "type": "electric_scooter"}, {"fusion_lon": 0.0, "name": "b09054f2fff742cdd7b45d7b550564d3", "rental_uris": {"android": "https://dc.lft.to/lastmile_qr_scan", "ios": "https://dc.lft.to/lastmile_qr_scan"}, "lat": 38.89522016666667, "bike_id": "b09054f2fff742cdd7b45d7b550564d3", "is_disabled": 0, "lon": -76.99212833333333, "is_reserved": 0, "fusion_lat": 0.0, "type": "electric_scooter"}, {"fusion_lon": 0.0, "name": "01b7f1a12f1ccf9c40f9146ab78f219a", "rental_uris": {"android": "https://dc.lft.to/lastmile_qr_scan", "ios": "https://dc.lft.to/lastmile_qr_scan"}, "lat": 38.892328666666664, "bike_id": "01b7f1a12f1ccf9c40f9146ab78f219a", "is_disabled": 0, "lon": -77.04872133333333, "is_reserved": 0, "fusion_lat": 0.0, "type": "electric_scooter"}, {"fusion_lon": 0.0, "name": "9ae61ebc427010e1b37c2456dea81ed5", "rental_uris": {"android": "https://dc.lft.to/lastmile_qr_scan", "ios": "https://dc.lft.to/lastmile_qr_scan"}, "lat": 38.903643, "bike_id": "9ae61ebc427010e1b37c2456dea81ed5", "is_disabled": 0, "lon": -77.03838766666667, "is_reserved": 0, "fusion_lat": 0.0, "type": "electric_scooter"}, {"fusion_lon": 0.0, "name": "7b7b3d96054b3a55475e521b05c2677a", "rental_uris": {"android": "https://dc.lft.to/lastmile_qr_scan", "ios": "https://dc.lft.to/lastmile_qr_scan"}, "lat": 38.89458316666666, "bike_id": "7b7b3d96054b3a55475e521b05c2677a", "is_disabled": 0, "lon": -77.19131866666666, "is_reserved": 0, "fusion_lat": 0.0, "type": "electric_bike"}, {"fusion_lon": 0.0, "name": "7914f29ea02da54ad8f64235ef540477", "rental_uris": {"android": "https://dc.lft.to/lastmile_qr_scan", "ios": "https://dc.lft.to/lastmile_qr_scan"}, "lat": 38.90139466666667, "bike_id": "7914f29ea02da54ad8f64235ef540477", "is_disabled": 0, "lon": -76.98965766666667, "is_reserved": 0, "fusion_lat": 0.0, "type": "electric_scooter"}, {"fusion_lon": 0.0, "name": "df5e953ea4f235f81a9cc689b0440d7a", "rental_uris": {"android": "https://dc.lft.to/lastmile_qr_scan", "ios": "https://dc.lft.to/lastmile_qr_scan"}, "lat": 38.916228833333335, "bike_id": "df5e953ea4f235f81a9cc689b0440d7a", "is_disabled": 0, "lon": -77.03498716666667, "is_reserved": 0, "fusion_lat": 0.0, "type": "electric_scooter"}, {"fusion_lon": 0.0, "name": "763234b03d5c593580d5352e5dd963e5", "rental_uris": {"android": "https://dc.lft.to/lastmile_qr_scan", "ios": "https://dc.lft.to/lastmile_qr_scan"}, "lat": 38.928104833333336, "bike_id": "763234b03d5c593580d5352e5dd963e5", "is_disabled": 0, "lon": -77.01949733333333, "is_reserved": 0, "fusion_lat": 0.0, "type": "electric_scooter"}, {"fusion_lon": 0.0, "name": "bf8192631842b814692a4565f27a6688", "rental_uris": {"android": "https://dc.lft.to/lastmile_qr_scan", "ios": "https://dc.lft.to/lastmile_qr_scan"}, "lat": 38.898842333333334, "bike_id": "bf8192631842b814692a4565f27a6688", "is_disabled": 0, "lon": -76.931752, "is_reserved": 0, "fusion_lat": 0.0, "type": "electric_scooter"}, {"fusion_lon": 0.0, "name": "92f9ff20a34ed5572fc481d99df58a2d", "rental_uris": {"android": "https://dc.lft.to/lastmile_qr_scan", "ios": "https://dc.lft.to/lastmile_qr_scan"}, "lat": 38.919123666666664, "bike_id": "92f9ff20a34ed5572fc481d99df58a2d", "is_disabled": 0, "lon": -77.0446355, "is_reserved": 0, "fusion_lat": 0.0, "type": "electric_scooter"}, {"fusion_lon": 0.0, "name": "3c045e889cd1af501e84ed693e132394", "rental_uris": {"android": "https://dc.lft.to/lastmile_qr_scan", "ios": "https://dc.lft.to/lastmile_qr_scan"}, "lat": 38.878429, "bike_id": "3c045e889cd1af501e84ed693e132394", "is_disabled": 0, "lon": -77.0196845, "is_reserved": 0, "fusion_lat": 0.0, "type": "electric_scooter"}, {"fusion_lon": 0.0, "name": "618d6c568cd5a042e47c408926b072a3", "rental_uris": {"android": "https://dc.lft.to/lastmile_qr_scan", "ios": "https://dc.lft.to/lastmile_qr_scan"}, "lat": 38.9245955, "bike_id": "618d6c568cd5a042e47c408926b072a3", "is_disabled": 0, "lon": -77.05231116666667, "is_reserved": 0, "fusion_lat": 0.0, "type": "electric_scooter"}, {"fusion_lon": 0.0, "name": "af87b70baec00aacccdb2854a3528087", "rental_uris": {"android": "https://dc.lft.to/lastmile_qr_scan", "ios": "https://dc.lft.to/lastmile_qr_scan"}, "lat": 38.90834683333333, "bike_id": "af87b70baec00aacccdb2854a3528087", "is_disabled": 0, "lon": -77.04329983333334, "is_reserved": 0, "fusion_lat": 0.0, "type": "electric_scooter"}, {"fusion_lon": 0.0, "name": "05541dcbcd20f127ab6633b49edd7f32", "rental_uris": {"android": "https://dc.lft.to/lastmile_qr_scan", "ios": "https://dc.lft.to/lastmile_qr_scan"}, "lat": 38.88986466666667, "bike_id": "05541dcbcd20f127ab6633b49edd7f32", "is_disabled": 0, "lon": -76.92110683333334, "is_reserved": 0, "fusion_lat": 0.0, "type": "electric_scooter"}, {"fusion_lon": 0.0, "name": "d9da413ea2146f6bf3946bd1ac1de724", "rental_uris": {"android": "https://dc.lft.to/lastmile_qr_scan", "ios": "https://dc.lft.to/lastmile_qr_scan"}, "lat": 38.88731133333334, "bike_id": "d9da413ea2146f6bf3946bd1ac1de724", "is_disabled": 0, "lon": -77.01341866666667, "is_reserved": 0, "fusion_lat": 0.0, "type": "electric_scooter"}, {"fusion_lon": 0.0, "name": "b23bb6c1cd764e846575e93171968c59", "rental_uris": {"android": "https://dc.lft.to/lastmile_qr_scan", "ios": "https://dc.lft.to/lastmile_qr_scan"}, "lat": 38.8980095, "bike_id": "b23bb6c1cd764e846575e93171968c59", "is_disabled": 0, "lon": -77.03174766666666, "is_reserved": 0, "fusion_lat": 0.0, "type": "electric_scooter"}, {"fusion_lon": 0.0, "name": "7e99cac94e697967fcc1978aa60e5a97", "rental_uris": {"android": "https://dc.lft.to/lastmile_qr_scan", "ios": "https://dc.lft.to/lastmile_qr_scan"}, "lat": 38.920579833333335, "bike_id": "7e99cac94e697967fcc1978aa60e5a97", "is_disabled": 0, "lon": -77.0230085, "is_reserved": 0, "fusion_lat": 0.0, "type": "electric_scooter"}, {"fusion_lon": 0.0, "name": "ead6dfd787ed243ea77a578480f3053a", "rental_uris": {"android": "https://dc.lft.to/lastmile_qr_scan", "ios": "https://dc.lft.to/lastmile_qr_scan"}, "lat": 38.951886, "bike_id": "ead6dfd787ed243ea77a578480f3053a", "is_disabled": 0, "lon": -76.99177483333334, "is_reserved": 0, "fusion_lat": 0.0, "type": "electric_scooter"}, {"fusion_lon": 0.0, "name": "aea3e6a6d71980d5fc5710cc75c915d3", "rental_uris": {"android": "https://dc.lft.to/lastmile_qr_scan", "ios": "https://dc.lft.to/lastmile_qr_scan"}, "lat": 38.9431485, "bike_id": "aea3e6a6d71980d5fc5710cc75c915d3", "is_disabled": 0, "lon": -77.06151116666666, "is_reserved": 0, "fusion_lat": 0.0, "type": "electric_scooter"}, {"fusion_lon": 0.0, "name": "aea9c410fcb188ed31b1587633160a05", "rental_uris": {"android": "https://dc.lft.to/lastmile_qr_scan", "ios": "https://dc.lft.to/lastmile_qr_scan"}, "lat": 38.916425, "bike_id": "aea9c410fcb188ed31b1587633160a05", "is_disabled": 0, "lon": -77.06943116666666, "is_reserved": 0, "fusion_lat": 0.0, "type": "electric_scooter"}, {"fusion_lon": 0.0, "name": "04f9379fc610c77ad21f3bbd787e1eda", "rental_uris": {"android": "https://dc.lft.to/lastmile_qr_scan", "ios": "https://dc.lft.to/lastmile_qr_scan"}, "lat": 38.89891266666667, "bike_id": "04f9379fc610c77ad21f3bbd787e1eda", "is_disabled": 0, "lon": -76.980015, "is_reserved": 0, "fusion_lat": 0.0, "type": "electric_scooter"}, {"fusion_lon": 0.0, "name": "22742627362e87a862359236497e64e7", "rental_uris": {"android": "https://dc.lft.to/lastmile_qr_scan", "ios": "https://dc.lft.to/lastmile_qr_scan"}, "lat": 38.91558766666667, "bike_id": "22742627362e87a862359236497e64e7", "is_disabled": 0, "lon": -77.022773, "is_reserved": 0, "fusion_lat": 0.0, "type": "electric_scooter"}, {"fusion_lon": 0.0, "name": "10a431bf716bb22b1e5be3941d19fa15", "rental_uris": {"android": "https://dc.lft.to/lastmile_qr_scan", "ios": "https://dc.lft.to/lastmile_qr_scan"}, "lat": 38.937642333333336, "bike_id": "10a431bf716bb22b1e5be3941d19fa15", "is_disabled": 0, "lon": -77.0324405, "is_reserved": 0, "fusion_lat": 0.0, "type": "electric_scooter"}, {"fusion_lon": 0.0, "name": "660ae31bc701af7233f6608d69b24b9c", "rental_uris": {"android": "https://dc.lft.to/lastmile_qr_scan", "ios": "https://dc.lft.to/lastmile_qr_scan"}, "lat": 38.92145383333333, "bike_id": "660ae31bc701af7233f6608d69b24b9c", "is_disabled": 0, "lon": -77.02087766666666, "is_reserved": 0, "fusion_lat": 0.0, "type": "electric_scooter"}, {"fusion_lon": 0.0, "name": "956bf9e7864b8751bafee8eaa1ff64e5", "rental_uris": {"android": "https://dc.lft.to/lastmile_qr_scan", "ios": "https://dc.lft.to/lastmile_qr_scan"}, "lat": 38.8922215, "bike_id": "956bf9e7864b8751bafee8eaa1ff64e5", "is_disabled": 0, "lon": -77.0450335, "is_reserved": 0, "fusion_lat": 0.0, "type": "electric_scooter"}, {"fusion_lon": 0.0, "name": "5123aa4bbad6525e2463facece002429", "rental_uris": {"android": "https://dc.lft.to/lastmile_qr_scan", "ios": "https://dc.lft.to/lastmile_qr_scan"}, "lat": 38.8648355, "bike_id": "5123aa4bbad6525e2463facece002429", "is_disabled": 0, "lon": -76.97742416666667, "is_reserved": 0, "fusion_lat": 0.0, "type": "electric_bike"}, {"fusion_lon": 0.0, "name": "e6c627a6afc48171b79a590ec69fcedd", "rental_uris": {"android": "https://dc.lft.to/lastmile_qr_scan", "ios": "https://dc.lft.to/lastmile_qr_scan"}, "lat": 38.92251483333333, "bike_id": "e6c627a6afc48171b79a590ec69fcedd", "is_disabled": 0, "lon": -76.9975635, "is_reserved": 0, "fusion_lat": 0.0, "type": "electric_scooter"}, {"fusion_lon": 0.0, "name": "6ae176cd1dd864cf7dede098d67ef6d1", "rental_uris": {"android": "https://dc.lft.to/lastmile_qr_scan", "ios": "https://dc.lft.to/lastmile_qr_scan"}, "lat": 38.93518433333333, "bike_id": "6ae176cd1dd864cf7dede098d67ef6d1", "is_disabled": 0, "lon": -77.08697033333333, "is_reserved": 0, "fusion_lat": 0.0, "type": "electric_scooter"}, {"fusion_lon": 0.0, "name": "9a60218a209cfd38b845dbef0dd908c7", "rental_uris": {"android": "https://dc.lft.to/lastmile_qr_scan", "ios": "https://dc.lft.to/lastmile_qr_scan"}, "lat": 38.901799, "bike_id": "9a60218a209cfd38b845dbef0dd908c7", "is_disabled": 0, "lon": -77.0239855, "is_reserved": 0, "fusion_lat": 0.0, "type": "electric_scooter"}, {"fusion_lon": 0.0, "name": "eedcc834c9312797b51963d8f25b4659", "rental_uris": {"android": "https://dc.lft.to/lastmile_qr_scan", "ios": "https://dc.lft.to/lastmile_qr_scan"}, "lat": 38.927226166666664, "bike_id": "eedcc834c9312797b51963d8f25b4659", "is_disabled": 0, "lon": -77.035531, "is_reserved": 0, "fusion_lat": 0.0, "type": "electric_scooter"}, {"fusion_lon": 0.0, "name": "794a0189f7de05b30e97ca4f02be55ec", "rental_uris": {"android": "https://dc.lft.to/lastmile_qr_scan", "ios": "https://dc.lft.to/lastmile_qr_scan"}, "lat": 38.88217316666667, "bike_id": "794a0189f7de05b30e97ca4f02be55ec", "is_disabled": 0, "lon": -76.93923716666667, "is_reserved": 0, "fusion_lat": 0.0, "type": "electric_scooter"}, {"fusion_lon": 0.0, "name": "90bf50ee32917d464ee82a8f8f6d3b3d", "rental_uris": {"android": "https://dc.lft.to/lastmile_qr_scan", "ios": "https://dc.lft.to/lastmile_qr_scan"}, "lat": 38.915793, "bike_id": "90bf50ee32917d464ee82a8f8f6d3b3d", "is_disabled": 0, "lon": -77.0123245, "is_reserved": 0, "fusion_lat": 0.0, "type": "electric_scooter"}, {"fusion_lon": 0.0, "name": "36e3d542599ec78d2cc2f57f109b3537", "rental_uris": {"android": "https://dc.lft.to/lastmile_qr_scan", "ios": "https://dc.lft.to/lastmile_qr_scan"}, "lat": 38.902442, "bike_id": "36e3d542599ec78d2cc2f57f109b3537", "is_disabled": 0, "lon": -76.97416683333333, "is_reserved": 0, "fusion_lat": 0.0, "type": "electric_scooter"}, {"fusion_lon": 0.0, "name": "9cc4dcf0f97a4b72e769dead57573ead", "rental_uris": {"android": "https://dc.lft.to/lastmile_qr_scan", "ios": "https://dc.lft.to/lastmile_qr_scan"}, "lat": 38.9096025, "bike_id": "9cc4dcf0f97a4b72e769dead57573ead", "is_disabled": 0, "lon": -77.00952, "is_reserved": 0, "fusion_lat": 0.0, "type": "electric_scooter"}, {"fusion_lon": 0.0, "name": "9bb1ef5e3362ec313dea7f8ef1d4c1e4", "rental_uris": {"android": "https://dc.lft.to/lastmile_qr_scan", "ios": "https://dc.lft.to/lastmile_qr_scan"}, "lat": 38.94301683333333, "bike_id": "9bb1ef5e3362ec313dea7f8ef1d4c1e4", "is_disabled": 0, "lon": -77.03458166666667, "is_reserved": 0, "fusion_lat": 0.0, "type": "electric_scooter"}, {"fusion_lon": 0.0, "name": "9556136f1c7b3bebd647ac2cdf12baf0", "rental_uris": {"android": "https://dc.lft.to/lastmile_qr_scan", "ios": "https://dc.lft.to/lastmile_qr_scan"}, "lat": 38.923285666666665, "bike_id": "9556136f1c7b3bebd647ac2cdf12baf0", "is_disabled": 0, "lon": -77.036855, "is_reserved": 0, "fusion_lat": 0.0, "type": "electric_scooter"}, {"fusion_lon": 0.0, "name": "e4ff85f38a38915100c8ada61bf30757", "rental_uris": {"android": "https://dc.lft.to/lastmile_qr_scan", "ios": "https://dc.lft.to/lastmile_qr_scan"}, "lat": 38.902380666666666, "bike_id": "e4ff85f38a38915100c8ada61bf30757", "is_disabled": 0, "lon": -77.04449816666667, "is_reserved": 0, "fusion_lat": 0.0, "type": "electric_scooter"}, {"fusion_lon": 0.0, "name": "2508bce77b100ddf9b7b0b166e4b8171", "rental_uris": {"android": "https://dc.lft.to/lastmile_qr_scan", "ios": "https://dc.lft.to/lastmile_qr_scan"}, "lat": 38.92148483333333, "bike_id": "2508bce77b100ddf9b7b0b166e4b8171", "is_disabled": 0, "lon": -77.035305, "is_reserved": 0, "fusion_lat": 0.0, "type": "electric_scooter"}, {"fusion_lon": 0.0, "name": "b7db001f24bee82bbf1485517dd2a14b", "rental_uris": {"android": "https://dc.lft.to/lastmile_qr_scan", "ios": "https://dc.lft.to/lastmile_qr_scan"}, "lat": 38.9149835, "bike_id": "b7db001f24bee82bbf1485517dd2a14b", "is_disabled": 0, "lon": -77.04497333333333, "is_reserved": 0, "fusion_lat": 0.0, "type": "electric_scooter"}, {"fusion_lon": 0.0, "name": "90a4a00f1714ae817817d03b835d2ce0", "rental_uris": {"android": "https://dc.lft.to/lastmile_qr_scan", "ios": "https://dc.lft.to/lastmile_qr_scan"}, "lat": 38.8922185, "bike_id": "90a4a00f1714ae817817d03b835d2ce0", "is_disabled": 0, "lon": -77.04370166666666, "is_reserved": 0, "fusion_lat": 0.0, "type": "electric_scooter"}, {"fusion_lon": 0.0, "name": "382b6d5a623444fe7b1aca0ba0fd5fdc", "rental_uris": {"android": "https://dc.lft.to/lastmile_qr_scan", "ios": "https://dc.lft.to/lastmile_qr_scan"}, "lat": 38.92467033333333, "bike_id": "382b6d5a623444fe7b1aca0ba0fd5fdc", "is_disabled": 0, "lon": -77.02203816666666, "is_reserved": 0, "fusion_lat": 0.0, "type": "electric_scooter"}, {"fusion_lon": 0.0, "name": "8ce6de731d7f29e76ef5fc129e87eba1", "rental_uris": {"android": "https://dc.lft.to/lastmile_qr_scan", "ios": "https://dc.lft.to/lastmile_qr_scan"}, "lat": 38.9240745, "bike_id": "8ce6de731d7f29e76ef5fc129e87eba1", "is_disabled": 0, "lon": -77.0517225, "is_reserved": 0, "fusion_lat": 0.0, "type": "electric_scooter"}, {"fusion_lon": 0.0, "name": "e9d07ea15c69ee2e92689cac262fbf9e", "rental_uris": {"android": "https://dc.lft.to/lastmile_qr_scan", "ios": "https://dc.lft.to/lastmile_qr_scan"}, "lat": 38.894199, "bike_id": "e9d07ea15c69ee2e92689cac262fbf9e", "is_disabled": 0, "lon": -76.99770316666667, "is_reserved": 0, "fusion_lat": 0.0, "type": "electric_scooter"}, {"fusion_lon": 0.0, "name": "701a908c86fd0d0943a00e8d0e1ad024", "rental_uris": {"android": "https://dc.lft.to/lastmile_qr_scan", "ios": "https://dc.lft.to/lastmile_qr_scan"}, "lat": 39.03814533333333, "bike_id": "701a908c86fd0d0943a00e8d0e1ad024", "is_disabled": 0, "lon": -77.042286, "is_reserved": 0, "fusion_lat": 0.0, "type": "electric_bike"}, {"fusion_lon": 0.0, "name": "a7119892f9c357d4d3db92894db65f7b", "rental_uris": {"android": "https://dc.lft.to/lastmile_qr_scan", "ios": "https://dc.lft.to/lastmile_qr_scan"}, "lat": 38.905574, "bike_id": "a7119892f9c357d4d3db92894db65f7b", "is_disabled": 0, "lon": -77.03522066666666, "is_reserved": 0, "fusion_lat": 0.0, "type": "electric_scooter"}, {"fusion_lon": 0.0, "name": "ee5c09d7c0e15fb8e7ad1cad895710c1", "rental_uris": {"android": "https://dc.lft.to/lastmile_qr_scan", "ios": "https://dc.lft.to/lastmile_qr_scan"}, "lat": 38.8983395, "bike_id": "ee5c09d7c0e15fb8e7ad1cad895710c1", "is_disabled": 0, "lon": -77.03048066666666, "is_reserved": 0, "fusion_lat": 0.0, "type": "electric_scooter"}, {"fusion_lon": 0.0, "name": "9c49be44bef9676ba5cef891a019c0f2", "rental_uris": {"android": "https://dc.lft.to/lastmile_qr_scan", "ios": "https://dc.lft.to/lastmile_qr_scan"}, "lat": 38.892191833333335, "bike_id": "9c49be44bef9676ba5cef891a019c0f2", "is_disabled": 0, "lon": -77.04870016666666, "is_reserved": 0, "fusion_lat": 0.0, "type": "electric_scooter"}, {"fusion_lon": 0.0, "name": "877fc82ed00fa563d427594a4910f095", "rental_uris": {"android": "https://dc.lft.to/lastmile_qr_scan", "ios": "https://dc.lft.to/lastmile_qr_scan"}, "lat": 38.902692333333334, "bike_id": "877fc82ed00fa563d427594a4910f095", "is_disabled": 0, "lon": -77.030352, "is_reserved": 0, "fusion_lat": 0.0, "type": "electric_scooter"}, {"fusion_lon": 0.0, "name": "1678650e04840aa01c8d321ff830a29d", "rental_uris": {"android": "https://dc.lft.to/lastmile_qr_scan", "ios": "https://dc.lft.to/lastmile_qr_scan"}, "lat": 38.92318916666667, "bike_id": "1678650e04840aa01c8d321ff830a29d", "is_disabled": 0, "lon": -77.02896766666667, "is_reserved": 0, "fusion_lat": 0.0, "type": "electric_scooter"}, {"fusion_lon": 0.0, "name": "cf1e0f433ac36d8fc76f37ed05f5488e", "rental_uris": {"android": "https://dc.lft.to/lastmile_qr_scan", "ios": "https://dc.lft.to/lastmile_qr_scan"}, "lat": 38.920701, "bike_id": "cf1e0f433ac36d8fc76f37ed05f5488e", "is_disabled": 0, "lon": -77.03458333333333, "is_reserved": 0, "fusion_lat": 0.0, "type": "electric_scooter"}, {"fusion_lon": 0.0, "name": "8ea13011ac79f924d46d0f2dd79336fa", "rental_uris": {"android": "https://dc.lft.to/lastmile_qr_scan", "ios": "https://dc.lft.to/lastmile_qr_scan"}, "lat": 38.926860833333336, "bike_id": "8ea13011ac79f924d46d0f2dd79336fa", "is_disabled": 0, "lon": -77.02968583333333, "is_reserved": 0, "fusion_lat": 0.0, "type": "electric_scooter"}, {"fusion_lon": 0.0, "name": "abfe52d76d3ca20e39aa7d0a42c4cbeb", "rental_uris": {"android": "https://dc.lft.to/lastmile_qr_scan", "ios": "https://dc.lft.to/lastmile_qr_scan"}, "lat": 38.9239065, "bike_id": "abfe52d76d3ca20e39aa7d0a42c4cbeb", "is_disabled": 0, "lon": -77.0340735, "is_reserved": 0, "fusion_lat": 0.0, "type": "electric_scooter"}, {"fusion_lon": 0.0, "name": "a50d368de52b8f26f8f29f0f830862d9", "rental_uris": {"android": "https://dc.lft.to/lastmile_qr_scan", "ios": "https://dc.lft.to/lastmile_qr_scan"}, "lat": 38.96413883333334, "bike_id": "a50d368de52b8f26f8f29f0f830862d9", "is_disabled": 0, "lon": -77.03291233333333, "is_reserved": 0, "fusion_lat": 0.0, "type": "electric_scooter"}, {"fusion_lon": 0.0, "name": "e1107d429cfd053520f505e229002cc0", "rental_uris": {"android": "https://dc.lft.to/lastmile_qr_scan", "ios": "https://dc.lft.to/lastmile_qr_scan"}, "lat": 38.92970366666667, "bike_id": "e1107d429cfd053520f505e229002cc0", "is_disabled": 0, "lon": -77.02343016666667, "is_reserved": 0, "fusion_lat": 0.0, "type": "electric_scooter"}, {"fusion_lon": 0.0, "name": "de4b97a532ce1703494864079968210e", "rental_uris": {"android": "https://dc.lft.to/lastmile_qr_scan", "ios": "https://dc.lft.to/lastmile_qr_scan"}, "lat": 38.874969, "bike_id": "de4b97a532ce1703494864079968210e", "is_disabled": 0, "lon": -76.99794383333334, "is_reserved": 0, "fusion_lat": 0.0, "type": "electric_scooter"}, {"fusion_lon": 0.0, "name": "4563263cb03fc60dee066fcda7f6a153", "rental_uris": {"android": "https://dc.lft.to/lastmile_qr_scan", "ios": "https://dc.lft.to/lastmile_qr_scan"}, "lat": 38.9268175, "bike_id": "4563263cb03fc60dee066fcda7f6a153", "is_disabled": 0, "lon": -77.0226875, "is_reserved": 0, "fusion_lat": 0.0, "type": "electric_scooter"}, {"fusion_lon": 0.0, "name": "3b02119b6485cac3ccf62897f382fd79", "rental_uris": {"android": "https://dc.lft.to/lastmile_qr_scan", "ios": "https://dc.lft.to/lastmile_qr_scan"}, "lat": 38.87075333333333, "bike_id": "3b02119b6485cac3ccf62897f382fd79", "is_disabled": 0, "lon": -77.11049533333333, "is_reserved": 0, "fusion_lat": 0.0, "type": "electric_bike"}, {"fusion_lon": 0.0, "name": "56e3749c029529d5bcb4633dbab3b5b4", "rental_uris": {"android": "https://dc.lft.to/lastmile_qr_scan", "ios": "https://dc.lft.to/lastmile_qr_scan"}, "lat": 38.903417833333336, "bike_id": "56e3749c029529d5bcb4633dbab3b5b4", "is_disabled": 0, "lon": -77.02584066666667, "is_reserved": 0, "fusion_lat": 0.0, "type": "electric_scooter"}, {"fusion_lon": 0.0, "name": "b7665222abfc16964c2f2edd27e3cb4a", "rental_uris": {"android": "https://dc.lft.to/lastmile_qr_scan", "ios": "https://dc.lft.to/lastmile_qr_scan"}, "lat": 38.936620833333336, "bike_id": "b7665222abfc16964c2f2edd27e3cb4a", "is_disabled": 0, "lon": -77.0558975, "is_reserved": 0, "fusion_lat": 0.0, "type": "electric_scooter"}, {"fusion_lon": 0.0, "name": "f77495952b17ed3236305a77989af2fd", "rental_uris": {"android": "https://dc.lft.to/lastmile_qr_scan", "ios": "https://dc.lft.to/lastmile_qr_scan"}, "lat": 38.900936333333334, "bike_id": "f77495952b17ed3236305a77989af2fd", "is_disabled": 0, "lon": -77.04753, "is_reserved": 0, "fusion_lat": 0.0, "type": "electric_scooter"}, {"fusion_lon": 0.0, "name": "a22fe6b378dc3208116952648b9c3625", "rental_uris": {"android": "https://dc.lft.to/lastmile_qr_scan", "ios": "https://dc.lft.to/lastmile_qr_scan"}, "lat": 38.9190695, "bike_id": "a22fe6b378dc3208116952648b9c3625", "is_disabled": 0, "lon": -77.04105966666667, "is_reserved": 0, "fusion_lat": 0.0, "type": "electric_scooter"}, {"fusion_lon": 0.0, "name": "f91dc8c21ce720e200142ff32f158dda", "rental_uris": {"android": "https://dc.lft.to/lastmile_qr_scan", "ios": "https://dc.lft.to/lastmile_qr_scan"}, "lat": 38.932907666666665, "bike_id": "f91dc8c21ce720e200142ff32f158dda", "is_disabled": 0, "lon": -77.03992066666666, "is_reserved": 0, "fusion_lat": 0.0, "type": "electric_scooter"}, {"fusion_lon": 0.0, "name": "c406923c33aba0702ff73328b3b9e2e1", "rental_uris": {"android": "https://dc.lft.to/lastmile_qr_scan", "ios": "https://dc.lft.to/lastmile_qr_scan"}, "lat": 38.950266, "bike_id": "c406923c33aba0702ff73328b3b9e2e1", "is_disabled": 0, "lon": -76.9710215, "is_reserved": 0, "fusion_lat": 0.0, "type": "electric_bike"}, {"fusion_lon": 0.0, "name": "28746cf237f09656cb22014751464336", "rental_uris": {"android": "https://dc.lft.to/lastmile_qr_scan", "ios": "https://dc.lft.to/lastmile_qr_scan"}, "lat": 38.906885333333335, "bike_id": "28746cf237f09656cb22014751464336", "is_disabled": 0, "lon": -77.0359495, "is_reserved": 0, "fusion_lat": 0.0, "type": "electric_scooter"}, {"fusion_lon": 0.0, "name": "3822225bc1c54e13946f4bd00f23dccc", "rental_uris": {"android": "https://dc.lft.to/lastmile_qr_scan", "ios": "https://dc.lft.to/lastmile_qr_scan"}, "lat": 38.9260375, "bike_id": "3822225bc1c54e13946f4bd00f23dccc", "is_disabled": 0, "lon": -77.021572, "is_reserved": 0, "fusion_lat": 0.0, "type": "electric_scooter"}, {"fusion_lon": 0.0, "name": "47e47ad680e1db78c41b318ee466a319", "rental_uris": {"android": "https://dc.lft.to/lastmile_qr_scan", "ios": "https://dc.lft.to/lastmile_qr_scan"}, "lat": 38.9170705, "bike_id": "47e47ad680e1db78c41b318ee466a319", "is_disabled": 0, "lon": -77.038619, "is_reserved": 0, "fusion_lat": 0.0, "type": "electric_scooter"}, {"fusion_lon": 0.0, "name": "844066e7b04e5c1f5703e1eff9520838", "rental_uris": {"android": "https://dc.lft.to/lastmile_qr_scan", "ios": "https://dc.lft.to/lastmile_qr_scan"}, "lat": 38.8971315, "bike_id": "844066e7b04e5c1f5703e1eff9520838", "is_disabled": 0, "lon": -77.021403, "is_reserved": 0, "fusion_lat": 0.0, "type": "electric_scooter"}, {"fusion_lon": 0.0, "name": "45b8145ef8b9b243d150f7ecc3ce7fc1", "rental_uris": {"android": "https://dc.lft.to/lastmile_qr_scan", "ios": "https://dc.lft.to/lastmile_qr_scan"}, "lat": 38.88290166666667, "bike_id": "45b8145ef8b9b243d150f7ecc3ce7fc1", "is_disabled": 0, "lon": -77.02563333333333, "is_reserved": 0, "fusion_lat": 0.0, "type": "electric_scooter"}, {"fusion_lon": 0.0, "name": "bf602c8bfcbad2b798ff635cf574c479", "rental_uris": {"android": "https://dc.lft.to/lastmile_qr_scan", "ios": "https://dc.lft.to/lastmile_qr_scan"}, "lat": 38.883530666666665, "bike_id": "bf602c8bfcbad2b798ff635cf574c479", "is_disabled": 0, "lon": -76.98703066666667, "is_reserved": 0, "fusion_lat": 0.0, "type": "electric_scooter"}, {"fusion_lon": 0.0, "name": "b942c5738c4e710116809b5c909cc937", "rental_uris": {"android": "https://dc.lft.to/lastmile_qr_scan", "ios": "https://dc.lft.to/lastmile_qr_scan"}, "lat": 38.901076833333335, "bike_id": "b942c5738c4e710116809b5c909cc937", "is_disabled": 0, "lon": -77.04999183333334, "is_reserved": 0, "fusion_lat": 0.0, "type": "electric_scooter"}, {"fusion_lon": 0.0, "name": "c3c23783cd1f450e58315c25dfa4f301", "rental_uris": {"android": "https://dc.lft.to/lastmile_qr_scan", "ios": "https://dc.lft.to/lastmile_qr_scan"}, "lat": 38.89953916666666, "bike_id": "c3c23783cd1f450e58315c25dfa4f301", "is_disabled": 0, "lon": -77.05032383333334, "is_reserved": 0, "fusion_lat": 0.0, "type": "electric_scooter"}, {"fusion_lon": 0.0, "name": "8343cc99c80dfc3229c2db64f5eaee86", "rental_uris": {"android": "https://dc.lft.to/lastmile_qr_scan", "ios": "https://dc.lft.to/lastmile_qr_scan"}, "lat": 38.900566166666664, "bike_id": "8343cc99c80dfc3229c2db64f5eaee86", "is_disabled": 0, "lon": -76.98705533333333, "is_reserved": 0, "fusion_lat": 0.0, "type": "electric_scooter"}, {"fusion_lon": 0.0, "name": "ba1f3c95fc3d7a83937f6e0968b03d86", "rental_uris": {"android": "https://dc.lft.to/lastmile_qr_scan", "ios": "https://dc.lft.to/lastmile_qr_scan"}, "lat": 38.90563133333333, "bike_id": "ba1f3c95fc3d7a83937f6e0968b03d86", "is_disabled": 0, "lon": -77.03472083333334, "is_reserved": 0, "fusion_lat": 0.0, "type": "electric_scooter"}, {"fusion_lon": 0.0, "name": "f971638cbe14499a50742c429f5a4bc0", "rental_uris": {"android": "https://dc.lft.to/lastmile_qr_scan", "ios": "https://dc.lft.to/lastmile_qr_scan"}, "lat": 38.88043183333333, "bike_id": "f971638cbe14499a50742c429f5a4bc0", "is_disabled": 0, "lon": -77.01182816666666, "is_reserved": 0, "fusion_lat": 0.0, "type": "electric_scooter"}, {"fusion_lon": 0.0, "name": "d27373e97d2e17a828b60f1195191dee", "rental_uris": {"android": "https://dc.lft.to/lastmile_qr_scan", "ios": "https://dc.lft.to/lastmile_qr_scan"}, "lat": 38.923801166666664, "bike_id": "d27373e97d2e17a828b60f1195191dee", "is_disabled": 0, "lon": -77.0305145, "is_reserved": 0, "fusion_lat": 0.0, "type": "electric_scooter"}, {"fusion_lon": 0.0, "name": "40cd86c1178a2dd13f810f27b31e4964", "rental_uris": {"android": "https://dc.lft.to/lastmile_qr_scan", "ios": "https://dc.lft.to/lastmile_qr_scan"}, "lat": 38.90002166666667, "bike_id": "40cd86c1178a2dd13f810f27b31e4964", "is_disabled": 0, "lon": -77.01189716666667, "is_reserved": 0, "fusion_lat": 0.0, "type": "electric_scooter"}, {"fusion_lon": 0.0, "name": "ff4384798e4828fe08a2bd74d5c82cf2", "rental_uris": {"android": "https://dc.lft.to/lastmile_qr_scan", "ios": "https://dc.lft.to/lastmile_qr_scan"}, "lat": 38.9060215, "bike_id": "ff4384798e4828fe08a2bd74d5c82cf2", "is_disabled": 0, "lon": -77.12886483333334, "is_reserved": 0, "fusion_lat": 0.0, "type": "electric_bike"}, {"fusion_lon": 0.0, "name": "5760bced807e28397182297d671a4edd", "rental_uris": {"android": "https://dc.lft.to/lastmile_qr_scan", "ios": "https://dc.lft.to/lastmile_qr_scan"}, "lat": 38.8581385, "bike_id": "5760bced807e28397182297d671a4edd", "is_disabled": 0, "lon": -76.98914433333333, "is_reserved": 0, "fusion_lat": 0.0, "type": "electric_scooter"}, {"fusion_lon": 0.0, "name": "aca65a16d54743dd2c8f36917c6c5f3c", "rental_uris": {"android": "https://dc.lft.to/lastmile_qr_scan", "ios": "https://dc.lft.to/lastmile_qr_scan"}, "lat": 38.90840466666667, "bike_id": "aca65a16d54743dd2c8f36917c6c5f3c", "is_disabled": 0, "lon": -77.04013766666667, "is_reserved": 0, "fusion_lat": 0.0, "type": "electric_scooter"}, {"fusion_lon": 0.0, "name": "3ce5b199b9f3a1e06e5897b52bbe625f", "rental_uris": {"android": "https://dc.lft.to/lastmile_qr_scan", "ios": "https://dc.lft.to/lastmile_qr_scan"}, "lat": 38.915659833333336, "bike_id": "3ce5b199b9f3a1e06e5897b52bbe625f", "is_disabled": 0, "lon": -77.05020316666666, "is_reserved": 0, "fusion_lat": 0.0, "type": "electric_scooter"}, {"fusion_lon": 0.0, "name": "160c64fcdaf06a9d97a81806a5fef6c2", "rental_uris": {"android": "https://dc.lft.to/lastmile_qr_scan", "ios": "https://dc.lft.to/lastmile_qr_scan"}, "lat": 38.9024325, "bike_id": "160c64fcdaf06a9d97a81806a5fef6c2", "is_disabled": 0, "lon": -77.015117, "is_reserved": 0, "fusion_lat": 0.0, "type": "electric_scooter"}, {"fusion_lon": 0.0, "name": "5720948ce99170c16f75b4f6ef30dc21", "rental_uris": {"android": "https://dc.lft.to/lastmile_qr_scan", "ios": "https://dc.lft.to/lastmile_qr_scan"}, "lat": 38.89636466666666, "bike_id": "5720948ce99170c16f75b4f6ef30dc21", "is_disabled": 0, "lon": -77.03209683333333, "is_reserved": 0, "fusion_lat": 0.0, "type": "electric_scooter"}, {"fusion_lon": 0.0, "name": "d3d66acf37682e6de0bb2a0beb263ff2", "rental_uris": {"android": "https://dc.lft.to/lastmile_qr_scan", "ios": "https://dc.lft.to/lastmile_qr_scan"}, "lat": 38.92433166666667, "bike_id": "d3d66acf37682e6de0bb2a0beb263ff2", "is_disabled": 0, "lon": -77.03786, "is_reserved": 0, "fusion_lat": 0.0, "type": "electric_scooter"}, {"fusion_lon": 0.0, "name": "5d6a4b56690597fab1e27409201f6031", "rental_uris": {"android": "https://dc.lft.to/lastmile_qr_scan", "ios": "https://dc.lft.to/lastmile_qr_scan"}, "lat": 38.9256635, "bike_id": "5d6a4b56690597fab1e27409201f6031", "is_disabled": 0, "lon": -76.99956016666667, "is_reserved": 0, "fusion_lat": 0.0, "type": "electric_scooter"}, {"fusion_lon": 0.0, "name": "1616f65a8ba5617111ed53d381bb7689", "rental_uris": {"android": "https://dc.lft.to/lastmile_qr_scan", "ios": "https://dc.lft.to/lastmile_qr_scan"}, "lat": 38.8995645, "bike_id": "1616f65a8ba5617111ed53d381bb7689", "is_disabled": 0, "lon": -77.04868216666667, "is_reserved": 0, "fusion_lat": 0.0, "type": "electric_scooter"}, {"fusion_lon": 0.0, "name": "f5eda8893aea2e4bd04917fb2bac75d6", "rental_uris": {"android": "https://dc.lft.to/lastmile_qr_scan", "ios": "https://dc.lft.to/lastmile_qr_scan"}, "lat": 38.90726466666667, "bike_id": "f5eda8893aea2e4bd04917fb2bac75d6", "is_disabled": 0, "lon": -77.02800033333334, "is_reserved": 0, "fusion_lat": 0.0, "type": "electric_scooter"}, {"fusion_lon": 0.0, "name": "29357366f0265ff4692d2de018d3d25b", "rental_uris": {"android": "https://dc.lft.to/lastmile_qr_scan", "ios": "https://dc.lft.to/lastmile_qr_scan"}, "lat": 38.922578, "bike_id": "29357366f0265ff4692d2de018d3d25b", "is_disabled": 0, "lon": -77.03665183333334, "is_reserved": 0, "fusion_lat": 0.0, "type": "electric_scooter"}, {"fusion_lon": 0.0, "name": "4173bee75fd88f3d30b8081eb7739b0d", "rental_uris": {"android": "https://dc.lft.to/lastmile_qr_scan", "ios": "https://dc.lft.to/lastmile_qr_scan"}, "lat": 38.90223533333333, "bike_id": "4173bee75fd88f3d30b8081eb7739b0d", "is_disabled": 0, "lon": -77.02370816666667, "is_reserved": 0, "fusion_lat": 0.0, "type": "electric_scooter"}, {"fusion_lon": 0.0, "name": "ca0f0cd56ebcd4ff901172c91e486445", "rental_uris": {"android": "https://dc.lft.to/lastmile_qr_scan", "ios": "https://dc.lft.to/lastmile_qr_scan"}, "lat": 38.924854333333336, "bike_id": "ca0f0cd56ebcd4ff901172c91e486445", "is_disabled": 0, "lon": -77.02272766666667, "is_reserved": 0, "fusion_lat": 0.0, "type": "electric_scooter"}, {"fusion_lon": 0.0, "name": "566a530f13e04cc8683e4b6da86b1f50", "rental_uris": {"android": "https://dc.lft.to/lastmile_qr_scan", "ios": "https://dc.lft.to/lastmile_qr_scan"}, "lat": 38.90136866666667, "bike_id": "566a530f13e04cc8683e4b6da86b1f50", "is_disabled": 0, "lon": -77.000685, "is_reserved": 0, "fusion_lat": 0.0, "type": "electric_bike"}, {"fusion_lon": 0.0, "name": "86b0062c7c63e9a7fef6366b182e2cf8", "rental_uris": {"android": "https://dc.lft.to/lastmile_qr_scan", "ios": "https://dc.lft.to/lastmile_qr_scan"}, "lat": 38.88477733333333, "bike_id": "86b0062c7c63e9a7fef6366b182e2cf8", "is_disabled": 0, "lon": -77.0263835, "is_reserved": 0, "fusion_lat": 0.0, "type": "electric_scooter"}, {"fusion_lon": 0.0, "name": "10488fdb1e43b58cb9b629985ff3eb6d", "rental_uris": {"android": "https://dc.lft.to/lastmile_qr_scan", "ios": "https://dc.lft.to/lastmile_qr_scan"}, "lat": 38.905253333333334, "bike_id": "10488fdb1e43b58cb9b629985ff3eb6d", "is_disabled": 0, "lon": -77.06434616666667, "is_reserved": 0, "fusion_lat": 0.0, "type": "electric_scooter"}, {"fusion_lon": 0.0, "name": "c9873fc0b064056aef77202fd4e2465b", "rental_uris": {"android": "https://dc.lft.to/lastmile_qr_scan", "ios": "https://dc.lft.to/lastmile_qr_scan"}, "lat": 38.898743, "bike_id": "c9873fc0b064056aef77202fd4e2465b", "is_disabled": 0, "lon": -77.04573483333333, "is_reserved": 0, "fusion_lat": 0.0, "type": "electric_scooter"}, {"fusion_lon": 0.0, "name": "9abd15548d0774391c2a8b7fd15cc666", "rental_uris": {"android": "https://dc.lft.to/lastmile_qr_scan", "ios": "https://dc.lft.to/lastmile_qr_scan"}, "lat": 38.89226466666667, "bike_id": "9abd15548d0774391c2a8b7fd15cc666", "is_disabled": 0, "lon": -77.03366033333333, "is_reserved": 0, "fusion_lat": 0.0, "type": "electric_scooter"}, {"fusion_lon": 0.0, "name": "a4d7a27d0b8a8cfbe22cc181fd9e4f50", "rental_uris": {"android": "https://dc.lft.to/lastmile_qr_scan", "ios": "https://dc.lft.to/lastmile_qr_scan"}, "lat": 38.904052666666665, "bike_id": "a4d7a27d0b8a8cfbe22cc181fd9e4f50", "is_disabled": 0, "lon": -77.0383325, "is_reserved": 0, "fusion_lat": 0.0, "type": "electric_scooter"}, {"fusion_lon": 0.0, "name": "ef367bfd0f3d3ba7db1f7ee9596cdcc4", "rental_uris": {"android": "https://dc.lft.to/lastmile_qr_scan", "ios": "https://dc.lft.to/lastmile_qr_scan"}, "lat": 38.901337, "bike_id": "ef367bfd0f3d3ba7db1f7ee9596cdcc4", "is_disabled": 0, "lon": -77.04334783333333, "is_reserved": 0, "fusion_lat": 0.0, "type": "electric_scooter"}, {"fusion_lon": 0.0, "name": "c43c3a8bbbc87037fe6cdf18248dab7f", "rental_uris": {"android": "https://dc.lft.to/lastmile_qr_scan", "ios": "https://dc.lft.to/lastmile_qr_scan"}, "lat": 38.90004416666667, "bike_id": "c43c3a8bbbc87037fe6cdf18248dab7f", "is_disabled": 0, "lon": -77.04659283333334, "is_reserved": 0, "fusion_lat": 0.0, "type": "electric_scooter"}, {"fusion_lon": 0.0, "name": "90916c326fd4055350b9d511c2a083d7", "rental_uris": {"android": "https://dc.lft.to/lastmile_qr_scan", "ios": "https://dc.lft.to/lastmile_qr_scan"}, "lat": 38.90063833333333, "bike_id": "90916c326fd4055350b9d511c2a083d7", "is_disabled": 0, "lon": -77.04628133333334, "is_reserved": 0, "fusion_lat": 0.0, "type": "electric_scooter"}, {"fusion_lon": 0.0, "name": "67c31e6bb0fdaa07429aa471e585db2e", "rental_uris": {"android": "https://dc.lft.to/lastmile_qr_scan", "ios": "https://dc.lft.to/lastmile_qr_scan"}, "lat": 38.87561266666667, "bike_id": "67c31e6bb0fdaa07429aa471e585db2e", "is_disabled": 0, "lon": -77.00594233333334, "is_reserved": 0, "fusion_lat": 0.0, "type": "electric_scooter"}, {"fusion_lon": 0.0, "name": "588ad70d17209434d7e1f7cf0758ea71", "rental_uris": {"android": "https://dc.lft.to/lastmile_qr_scan", "ios": "https://dc.lft.to/lastmile_qr_scan"}, "lat": 38.927558166666664, "bike_id": "588ad70d17209434d7e1f7cf0758ea71", "is_disabled": 0, "lon": -77.05269983333334, "is_reserved": 0, "fusion_lat": 0.0, "type": "electric_scooter"}, {"fusion_lon": 0.0, "name": "121960dcfcab71849716ce185fd3a261", "rental_uris": {"android": "https://dc.lft.to/lastmile_qr_scan", "ios": "https://dc.lft.to/lastmile_qr_scan"}, "lat": 38.8767035, "bike_id": "121960dcfcab71849716ce185fd3a261", "is_disabled": 0, "lon": -77.01437233333333, "is_reserved": 0, "fusion_lat": 0.0, "type": "electric_bike"}, {"fusion_lon": 0.0, "name": "36cb6bdf4822b9c18efef7f1859edad6", "rental_uris": {"android": "https://dc.lft.to/lastmile_qr_scan", "ios": "https://dc.lft.to/lastmile_qr_scan"}, "lat": 38.899017, "bike_id": "36cb6bdf4822b9c18efef7f1859edad6", "is_disabled": 0, "lon": -77.02453383333334, "is_reserved": 0, "fusion_lat": 0.0, "type": "electric_scooter"}, {"fusion_lon": 0.0, "name": "2ba8cf4cd678aed9ef26e88d753afd87", "rental_uris": {"android": "https://dc.lft.to/lastmile_qr_scan", "ios": "https://dc.lft.to/lastmile_qr_scan"}, "lat": 38.90381166666667, "bike_id": "2ba8cf4cd678aed9ef26e88d753afd87", "is_disabled": 0, "lon": -77.0059165, "is_reserved": 0, "fusion_lat": 0.0, "type": "electric_scooter"}, {"fusion_lon": 0.0, "name": "a4d7c571cf5347c28cbf67db7b2aeb56", "rental_uris": {"android": "https://dc.lft.to/lastmile_qr_scan", "ios": "https://dc.lft.to/lastmile_qr_scan"}, "lat": 38.88440033333333, "bike_id": "a4d7c571cf5347c28cbf67db7b2aeb56", "is_disabled": 0, "lon": -76.95770383333333, "is_reserved": 0, "fusion_lat": 0.0, "type": "electric_scooter"}, {"fusion_lon": 0.0, "name": "723087b3cacf12bd807f1136ffe54e30", "rental_uris": {"android": "https://dc.lft.to/lastmile_qr_scan", "ios": "https://dc.lft.to/lastmile_qr_scan"}, "lat": 38.90606366666667, "bike_id": "723087b3cacf12bd807f1136ffe54e30", "is_disabled": 0, "lon": -77.07620883333334, "is_reserved": 0, "fusion_lat": 0.0, "type": "electric_bike"}, {"fusion_lon": 0.0, "name": "342a9c71007fe12b27d22744073c4c2d", "rental_uris": {"android": "https://dc.lft.to/lastmile_qr_scan", "ios": "https://dc.lft.to/lastmile_qr_scan"}, "lat": 38.915803, "bike_id": "342a9c71007fe12b27d22744073c4c2d", "is_disabled": 0, "lon": -77.0123045, "is_reserved": 0, "fusion_lat": 0.0, "type": "electric_scooter"}, {"fusion_lon": 0.0, "name": "169ee0207fe0a1aed9de2eec9b2e4dd6", "rental_uris": {"android": "https://dc.lft.to/lastmile_qr_scan", "ios": "https://dc.lft.to/lastmile_qr_scan"}, "lat": 38.9179845, "bike_id": "169ee0207fe0a1aed9de2eec9b2e4dd6", "is_disabled": 0, "lon": -77.03440416666666, "is_reserved": 0, "fusion_lat": 0.0, "type": "electric_scooter"}, {"fusion_lon": 0.0, "name": "2e2f71c44f47e40482bd3d55a79ce1ae", "rental_uris": {"android": "https://dc.lft.to/lastmile_qr_scan", "ios": "https://dc.lft.to/lastmile_qr_scan"}, "lat": 38.91046583333333, "bike_id": "2e2f71c44f47e40482bd3d55a79ce1ae", "is_disabled": 0, "lon": -77.04271833333334, "is_reserved": 0, "fusion_lat": 0.0, "type": "electric_scooter"}, {"fusion_lon": 0.0, "name": "db8a013f420656a33d56a566f7051aad", "rental_uris": {"android": "https://dc.lft.to/lastmile_qr_scan", "ios": "https://dc.lft.to/lastmile_qr_scan"}, "lat": 38.894742666666666, "bike_id": "db8a013f420656a33d56a566f7051aad", "is_disabled": 0, "lon": -76.99514216666667, "is_reserved": 0, "fusion_lat": 0.0, "type": "electric_scooter"}, {"fusion_lon": 0.0, "name": "b67c5722d86573a3d4c9c3601144d8f4", "rental_uris": {"android": "https://dc.lft.to/lastmile_qr_scan", "ios": "https://dc.lft.to/lastmile_qr_scan"}, "lat": 38.905788333333334, "bike_id": "b67c5722d86573a3d4c9c3601144d8f4", "is_disabled": 0, "lon": -77.00595566666667, "is_reserved": 0, "fusion_lat": 0.0, "type": "electric_scooter"}, {"fusion_lon": 0.0, "name": "9b31578c967219fe06eb85458de30d6b", "rental_uris": {"android": "https://dc.lft.to/lastmile_qr_scan", "ios": "https://dc.lft.to/lastmile_qr_scan"}, "lat": 38.91839433333333, "bike_id": "9b31578c967219fe06eb85458de30d6b", "is_disabled": 0, "lon": -77.02300716666667, "is_reserved": 0, "fusion_lat": 0.0, "type": "electric_scooter"}, {"fusion_lon": 0.0, "name": "992b5c0639fc315218cbd35340e19742", "rental_uris": {"android": "https://dc.lft.to/lastmile_qr_scan", "ios": "https://dc.lft.to/lastmile_qr_scan"}, "lat": 38.928154666666664, "bike_id": "992b5c0639fc315218cbd35340e19742", "is_disabled": 0, "lon": -77.02239666666667, "is_reserved": 0, "fusion_lat": 0.0, "type": "electric_scooter"}, {"fusion_lon": 0.0, "name": "e9cc3058eb1fb45ee02822643ce1ba34", "rental_uris": {"android": "https://dc.lft.to/lastmile_qr_scan", "ios": "https://dc.lft.to/lastmile_qr_scan"}, "lat": 38.832996333333334, "bike_id": "e9cc3058eb1fb45ee02822643ce1ba34", "is_disabled": 0, "lon": -77.08410133333334, "is_reserved": 0, "fusion_lat": 0.0, "type": "electric_bike"}, {"fusion_lon": 0.0, "name": "34540ba3a0ad54945e3a32f6e20f784f", "rental_uris": {"android": "https://dc.lft.to/lastmile_qr_scan", "ios": "https://dc.lft.to/lastmile_qr_scan"}, "lat": 38.884741166666664, "bike_id": "34540ba3a0ad54945e3a32f6e20f784f", "is_disabled": 0, "lon": -77.01983416666667, "is_reserved": 0, "fusion_lat": 0.0, "type": "electric_scooter"}, {"fusion_lon": 0.0, "name": "5f85ce521627eb1d22b4cc3c63dd5715", "rental_uris": {"android": "https://dc.lft.to/lastmile_qr_scan", "ios": "https://dc.lft.to/lastmile_qr_scan"}, "lat": 38.875721666666664, "bike_id": "5f85ce521627eb1d22b4cc3c63dd5715", "is_disabled": 0, "lon": -77.005574, "is_reserved": 0, "fusion_lat": 0.0, "type": "electric_scooter"}, {"fusion_lon": 0.0, "name": "5cb3cb2b5cfffc75426318196dd5dee5", "rental_uris": {"android": "https://dc.lft.to/lastmile_qr_scan", "ios": "https://dc.lft.to/lastmile_qr_scan"}, "lat": 38.9204995, "bike_id": "5cb3cb2b5cfffc75426318196dd5dee5", "is_disabled": 0, "lon": -77.04189383333333, "is_reserved": 0, "fusion_lat": 0.0, "type": "electric_scooter"}, {"fusion_lon": 0.0, "name": "1b7c405622af964249eb22646cf65a71", "rental_uris": {"android": "https://dc.lft.to/lastmile_qr_scan", "ios": "https://dc.lft.to/lastmile_qr_scan"}, "lat": 38.95182, "bike_id": "1b7c405622af964249eb22646cf65a71", "is_disabled": 0, "lon": -77.02615683333333, "is_reserved": 0, "fusion_lat": 0.0, "type": "electric_scooter"}, {"fusion_lon": 0.0, "name": "46bcc0ec40121a38efd148a4581fc63d", "rental_uris": {"android": "https://dc.lft.to/lastmile_qr_scan", "ios": "https://dc.lft.to/lastmile_qr_scan"}, "lat": 38.93276183333333, "bike_id": "46bcc0ec40121a38efd148a4581fc63d", "is_disabled": 0, "lon": -77.03943483333333, "is_reserved": 0, "fusion_lat": 0.0, "type": "electric_scooter"}, {"fusion_lon": 0.0, "name": "5617b0f51c92f525c72f1ae6f3c00975", "rental_uris": {"android": "https://dc.lft.to/lastmile_qr_scan", "ios": "https://dc.lft.to/lastmile_qr_scan"}, "lat": 38.93496733333333, "bike_id": "5617b0f51c92f525c72f1ae6f3c00975", "is_disabled": 0, "lon": -77.04450016666667, "is_reserved": 0, "fusion_lat": 0.0, "type": "electric_scooter"}, {"fusion_lon": 0.0, "name": "05b0ebe38f2efa16feb8f9c65911311b", "rental_uris": {"android": "https://dc.lft.to/lastmile_qr_scan", "ios": "https://dc.lft.to/lastmile_qr_scan"}, "lat": 38.90112833333333, "bike_id": "05b0ebe38f2efa16feb8f9c65911311b", "is_disabled": 0, "lon": -77.04488133333334, "is_reserved": 0, "fusion_lat": 0.0, "type": "electric_scooter"}, {"fusion_lon": 0.0, "name": "74fd5c1020b33387eef017954bbca128", "rental_uris": {"android": "https://dc.lft.to/lastmile_qr_scan", "ios": "https://dc.lft.to/lastmile_qr_scan"}, "lat": 38.86245066666667, "bike_id": "74fd5c1020b33387eef017954bbca128", "is_disabled": 0, "lon": -76.99498166666666, "is_reserved": 0, "fusion_lat": 0.0, "type": "electric_scooter"}, {"fusion_lon": 0.0, "name": "3db98fa7cf118b98570d04a7460ce9fc", "rental_uris": {"android": "https://dc.lft.to/lastmile_qr_scan", "ios": "https://dc.lft.to/lastmile_qr_scan"}, "lat": 38.90475466666667, "bike_id": "3db98fa7cf118b98570d04a7460ce9fc", "is_disabled": 0, "lon": -77.04864383333333, "is_reserved": 0, "fusion_lat": 0.0, "type": "electric_scooter"}, {"fusion_lon": 0.0, "name": "5154cd617c7116c13798bd6504c98eb1", "rental_uris": {"android": "https://dc.lft.to/lastmile_qr_scan", "ios": "https://dc.lft.to/lastmile_qr_scan"}, "lat": 38.92327083333333, "bike_id": "5154cd617c7116c13798bd6504c98eb1", "is_disabled": 0, "lon": -77.01953583333334, "is_reserved": 0, "fusion_lat": 0.0, "type": "electric_scooter"}, {"fusion_lon": 0.0, "name": "7a1e77cfcdb99403c69a01f2faab9277", "rental_uris": {"android": "https://dc.lft.to/lastmile_qr_scan", "ios": "https://dc.lft.to/lastmile_qr_scan"}, "lat": 38.89708616666667, "bike_id": "7a1e77cfcdb99403c69a01f2faab9277", "is_disabled": 0, "lon": -76.9912075, "is_reserved": 0, "fusion_lat": 0.0, "type": "electric_scooter"}, {"fusion_lon": 0.0, "name": "8fa3ca2ec2328e78bd523e7d6bbe3191", "rental_uris": {"android": "https://dc.lft.to/lastmile_qr_scan", "ios": "https://dc.lft.to/lastmile_qr_scan"}, "lat": 38.8987995, "bike_id": "8fa3ca2ec2328e78bd523e7d6bbe3191", "is_disabled": 0, "lon": -76.9883825, "is_reserved": 0, "fusion_lat": 0.0, "type": "electric_scooter"}, {"fusion_lon": 0.0, "name": "c00e428285a7caa9f545595d14541ff9", "rental_uris": {"android": "https://dc.lft.to/lastmile_qr_scan", "ios": "https://dc.lft.to/lastmile_qr_scan"}, "lat": 38.9898805, "bike_id": "c00e428285a7caa9f545595d14541ff9", "is_disabled": 0, "lon": -77.03361683333334, "is_reserved": 0, "fusion_lat": 0.0, "type": "electric_scooter"}, {"fusion_lon": 0.0, "name": "f4ef66275e5468eee766d56482402c11", "rental_uris": {"android": "https://dc.lft.to/lastmile_qr_scan", "ios": "https://dc.lft.to/lastmile_qr_scan"}, "lat": 38.88604866666667, "bike_id": "f4ef66275e5468eee766d56482402c11", "is_disabled": 0, "lon": -77.04513616666667, "is_reserved": 0, "fusion_lat": 0.0, "type": "electric_scooter"}, {"fusion_lon": 0.0, "name": "85782ce0ac0d7535933296c4c4291b70", "rental_uris": {"android": "https://dc.lft.to/lastmile_qr_scan", "ios": "https://dc.lft.to/lastmile_qr_scan"}, "lat": 38.926412, "bike_id": "85782ce0ac0d7535933296c4c4291b70", "is_disabled": 0, "lon": -77.02506233333334, "is_reserved": 0, "fusion_lat": 0.0, "type": "electric_scooter"}, {"fusion_lon": 0.0, "name": "a57b2573b1a5736086d044a4b4b776a9", "rental_uris": {"android": "https://dc.lft.to/lastmile_qr_scan", "ios": "https://dc.lft.to/lastmile_qr_scan"}, "lat": 38.92367733333333, "bike_id": "a57b2573b1a5736086d044a4b4b776a9", "is_disabled": 0, "lon": -77.01950566666666, "is_reserved": 0, "fusion_lat": 0.0, "type": "electric_scooter"}, {"fusion_lon": 0.0, "name": "4777d6e8893828c1560d146a25aa6abf", "rental_uris": {"android": "https://dc.lft.to/lastmile_qr_scan", "ios": "https://dc.lft.to/lastmile_qr_scan"}, "lat": 38.8981205, "bike_id": "4777d6e8893828c1560d146a25aa6abf", "is_disabled": 0, "lon": -76.99084716666667, "is_reserved": 0, "fusion_lat": 0.0, "type": "electric_bike"}, {"fusion_lon": 0.0, "name": "4c99e0632279490204a1f2890ccf14ba", "rental_uris": {"android": "https://dc.lft.to/lastmile_qr_scan", "ios": "https://dc.lft.to/lastmile_qr_scan"}, "lat": 38.923471166666666, "bike_id": "4c99e0632279490204a1f2890ccf14ba", "is_disabled": 0, "lon": -77.05427883333333, "is_reserved": 0, "fusion_lat": 0.0, "type": "electric_scooter"}, {"fusion_lon": 0.0, "name": "32d90f8149aaf1d1df3b4aa8f0a62a78", "rental_uris": {"android": "https://dc.lft.to/lastmile_qr_scan", "ios": "https://dc.lft.to/lastmile_qr_scan"}, "lat": 38.89689516666667, "bike_id": "32d90f8149aaf1d1df3b4aa8f0a62a78", "is_disabled": 0, "lon": -77.00491483333333, "is_reserved": 0, "fusion_lat": 0.0, "type": "electric_scooter"}, {"fusion_lon": 0.0, "name": "e6f78102a666fcb49d20a26c23c1a0a3", "rental_uris": {"android": "https://dc.lft.to/lastmile_qr_scan", "ios": "https://dc.lft.to/lastmile_qr_scan"}, "lat": 38.905185, "bike_id": "e6f78102a666fcb49d20a26c23c1a0a3", "is_disabled": 0, "lon": -77.059953, "is_reserved": 0, "fusion_lat": 0.0, "type": "electric_scooter"}, {"fusion_lon": 0.0, "name": "c687612ea33b3f1aff8abf422b966a43", "rental_uris": {"android": "https://dc.lft.to/lastmile_qr_scan", "ios": "https://dc.lft.to/lastmile_qr_scan"}, "lat": 38.90677516666667, "bike_id": "c687612ea33b3f1aff8abf422b966a43", "is_disabled": 0, "lon": -77.026929, "is_reserved": 0, "fusion_lat": 0.0, "type": "electric_scooter"}, {"fusion_lon": 0.0, "name": "2c50f37d75a649c9f8f23d645517ece1", "rental_uris": {"android": "https://dc.lft.to/lastmile_qr_scan", "ios": "https://dc.lft.to/lastmile_qr_scan"}, "lat": 38.90166083333333, "bike_id": "2c50f37d75a649c9f8f23d645517ece1", "is_disabled": 0, "lon": -77.02187383333333, "is_reserved": 0, "fusion_lat": 0.0, "type": "electric_scooter"}, {"fusion_lon": 0.0, "name": "6ea7c482e43fe901fe44236356c8370e", "rental_uris": {"android": "https://dc.lft.to/lastmile_qr_scan", "ios": "https://dc.lft.to/lastmile_qr_scan"}, "lat": 38.94226483333333, "bike_id": "6ea7c482e43fe901fe44236356c8370e", "is_disabled": 0, "lon": -77.01443566666667, "is_reserved": 0, "fusion_lat": 0.0, "type": "electric_scooter"}, {"fusion_lon": 0.0, "name": "d791a096379deb801b3ab932497a42bb", "rental_uris": {"android": "https://dc.lft.to/lastmile_qr_scan", "ios": "https://dc.lft.to/lastmile_qr_scan"}, "lat": 38.8717245, "bike_id": "d791a096379deb801b3ab932497a42bb", "is_disabled": 0, "lon": -77.00624816666667, "is_reserved": 0, "fusion_lat": 0.0, "type": "electric_scooter"}, {"fusion_lon": 0.0, "name": "31a9678865cefce73589bfa5fca8ac18", "rental_uris": {"android": "https://dc.lft.to/lastmile_qr_scan", "ios": "https://dc.lft.to/lastmile_qr_scan"}, "lat": 38.90598, "bike_id": "31a9678865cefce73589bfa5fca8ac18", "is_disabled": 0, "lon": -77.026063, "is_reserved": 0, "fusion_lat": 0.0, "type": "electric_scooter"}, {"fusion_lon": 0.0, "name": "7eead98c6aeb7f0c2472cdbf1c56c027", "rental_uris": {"android": "https://dc.lft.to/lastmile_qr_scan", "ios": "https://dc.lft.to/lastmile_qr_scan"}, "lat": 38.92370016666667, "bike_id": "7eead98c6aeb7f0c2472cdbf1c56c027", "is_disabled": 0, "lon": -77.0305475, "is_reserved": 0, "fusion_lat": 0.0, "type": "electric_scooter"}, {"fusion_lon": 0.0, "name": "0d07f93192eaf03bbfb1de6b3c9159b4", "rental_uris": {"android": "https://dc.lft.to/lastmile_qr_scan", "ios": "https://dc.lft.to/lastmile_qr_scan"}, "lat": 38.93445783333333, "bike_id": "0d07f93192eaf03bbfb1de6b3c9159b4", "is_disabled": 0, "lon": -77.08966483333333, "is_reserved": 0, "fusion_lat": 0.0, "type": "electric_scooter"}, {"fusion_lon": 0.0, "name": "44b79da59743ff357bbcb734ea1d001f", "rental_uris": {"android": "https://dc.lft.to/lastmile_qr_scan", "ios": "https://dc.lft.to/lastmile_qr_scan"}, "lat": 38.9070855, "bike_id": "44b79da59743ff357bbcb734ea1d001f", "is_disabled": 0, "lon": -77.02389983333333, "is_reserved": 0, "fusion_lat": 0.0, "type": "electric_scooter"}, {"fusion_lon": 0.0, "name": "324e9c8d2e4f9bfec016e7d095da6202", "rental_uris": {"android": "https://dc.lft.to/lastmile_qr_scan", "ios": "https://dc.lft.to/lastmile_qr_scan"}, "lat": 38.928451, "bike_id": "324e9c8d2e4f9bfec016e7d095da6202", "is_disabled": 0, "lon": -77.01377833333333, "is_reserved": 0, "fusion_lat": 0.0, "type": "electric_scooter"}, {"fusion_lon": 0.0, "name": "25665765848689339f3cbb934909c7c0", "rental_uris": {"android": "https://dc.lft.to/lastmile_qr_scan", "ios": "https://dc.lft.to/lastmile_qr_scan"}, "lat": 38.92712183333333, "bike_id": "25665765848689339f3cbb934909c7c0", "is_disabled": 0, "lon": -77.01464116666666, "is_reserved": 0, "fusion_lat": 0.0, "type": "electric_scooter"}, {"fusion_lon": 0.0, "name": "8de8251bcf8c7cd6c4112ce5a2d540fc", "rental_uris": {"android": "https://dc.lft.to/lastmile_qr_scan", "ios": "https://dc.lft.to/lastmile_qr_scan"}, "lat": 38.93836616666667, "bike_id": "8de8251bcf8c7cd6c4112ce5a2d540fc", "is_disabled": 0, "lon": -77.02446383333333, "is_reserved": 0, "fusion_lat": 0.0, "type": "electric_scooter"}, {"fusion_lon": 0.0, "name": "e4fab0b001ad6a3ef55c6a4abdc00dbc", "rental_uris": {"android": "https://dc.lft.to/lastmile_qr_scan", "ios": "https://dc.lft.to/lastmile_qr_scan"}, "lat": 38.904557, "bike_id": "e4fab0b001ad6a3ef55c6a4abdc00dbc", "is_disabled": 0, "lon": -77.0294755, "is_reserved": 0, "fusion_lat": 0.0, "type": "electric_scooter"}, {"fusion_lon": 0.0, "name": "4f26a5bb39c862fc3bf110ada9e7ff00", "rental_uris": {"android": "https://dc.lft.to/lastmile_qr_scan", "ios": "https://dc.lft.to/lastmile_qr_scan"}, "lat": 38.91568016666667, "bike_id": "4f26a5bb39c862fc3bf110ada9e7ff00", "is_disabled": 0, "lon": -77.02395316666667, "is_reserved": 0, "fusion_lat": 0.0, "type": "electric_scooter"}, {"fusion_lon": 0.0, "name": "fa6bd3aadf60843502f7e42bb0619930", "rental_uris": {"android": "https://dc.lft.to/lastmile_qr_scan", "ios": "https://dc.lft.to/lastmile_qr_scan"}, "lat": 38.969314, "bike_id": "fa6bd3aadf60843502f7e42bb0619930", "is_disabled": 0, "lon": -77.0271, "is_reserved": 0, "fusion_lat": 0.0, "type": "electric_scooter"}, {"fusion_lon": 0.0, "name": "cb11c4985fefaa255ea9035ecd03e36c", "rental_uris": {"android": "https://dc.lft.to/lastmile_qr_scan", "ios": "https://dc.lft.to/lastmile_qr_scan"}, "lat": 38.923329333333335, "bike_id": "cb11c4985fefaa255ea9035ecd03e36c", "is_disabled": 0, "lon": -77.0378725, "is_reserved": 0, "fusion_lat": 0.0, "type": "electric_scooter"}, {"fusion_lon": 0.0, "name": "ac720893d32aaceb0a8829c9f3324e68", "rental_uris": {"android": "https://dc.lft.to/lastmile_qr_scan", "ios": "https://dc.lft.to/lastmile_qr_scan"}, "lat": 38.922239833333336, "bike_id": "ac720893d32aaceb0a8829c9f3324e68", "is_disabled": 0, "lon": -77.01816916666667, "is_reserved": 0, "fusion_lat": 0.0, "type": "electric_scooter"}, {"fusion_lon": 0.0, "name": "c2ec920a9ba8c60f09031ac4b7dd08b9", "rental_uris": {"android": "https://dc.lft.to/lastmile_qr_scan", "ios": "https://dc.lft.to/lastmile_qr_scan"}, "lat": 38.900393, "bike_id": "c2ec920a9ba8c60f09031ac4b7dd08b9", "is_disabled": 0, "lon": -77.02688866666666, "is_reserved": 0, "fusion_lat": 0.0, "type": "electric_scooter"}, {"fusion_lon": 0.0, "name": "ea2801bc79359e1ac60ac2071ef45fb3", "rental_uris": {"android": "https://dc.lft.to/lastmile_qr_scan", "ios": "https://dc.lft.to/lastmile_qr_scan"}, "lat": 38.92690483333333, "bike_id": "ea2801bc79359e1ac60ac2071ef45fb3", "is_disabled": 0, "lon": -77.01489816666667, "is_reserved": 0, "fusion_lat": 0.0, "type": "electric_scooter"}, {"fusion_lon": 0.0, "name": "6672a040eed3b5751939ca9b015d2ab5", "rental_uris": {"android": "https://dc.lft.to/lastmile_qr_scan", "ios": "https://dc.lft.to/lastmile_qr_scan"}, "lat": 38.901457666666666, "bike_id": "6672a040eed3b5751939ca9b015d2ab5", "is_disabled": 0, "lon": -77.02479333333333, "is_reserved": 0, "fusion_lat": 0.0, "type": "electric_scooter"}, {"fusion_lon": 0.0, "name": "a9625abeac180680ee4e21a7f936dca1", "rental_uris": {"android": "https://dc.lft.to/lastmile_qr_scan", "ios": "https://dc.lft.to/lastmile_qr_scan"}, "lat": 38.901137166666665, "bike_id": "a9625abeac180680ee4e21a7f936dca1", "is_disabled": 0, "lon": -77.03043033333333, "is_reserved": 0, "fusion_lat": 0.0, "type": "electric_scooter"}, {"fusion_lon": 0.0, "name": "885fd9139ea1db96914d50c3e7cda782", "rental_uris": {"android": "https://dc.lft.to/lastmile_qr_scan", "ios": "https://dc.lft.to/lastmile_qr_scan"}, "lat": 38.87678233333333, "bike_id": "885fd9139ea1db96914d50c3e7cda782", "is_disabled": 0, "lon": -77.019712, "is_reserved": 0, "fusion_lat": 0.0, "type": "electric_scooter"}, {"fusion_lon": 0.0, "name": "d81950c9e3b6ff6ae9515817bdfb973e", "rental_uris": {"android": "https://dc.lft.to/lastmile_qr_scan", "ios": "https://dc.lft.to/lastmile_qr_scan"}, "lat": 38.9067135, "bike_id": "d81950c9e3b6ff6ae9515817bdfb973e", "is_disabled": 0, "lon": -77.02706683333334, "is_reserved": 0, "fusion_lat": 0.0, "type": "electric_scooter"}, {"fusion_lon": 0.0, "name": "1b88fd2ad1ebbeaa35ed1e56f44c3cd4", "rental_uris": {"android": "https://dc.lft.to/lastmile_qr_scan", "ios": "https://dc.lft.to/lastmile_qr_scan"}, "lat": 38.926454, "bike_id": "1b88fd2ad1ebbeaa35ed1e56f44c3cd4", "is_disabled": 0, "lon": -77.04068916666667, "is_reserved": 0, "fusion_lat": 0.0, "type": "electric_scooter"}, {"fusion_lon": 0.0, "name": "bef67b93109976b7b911279df31f4310", "rental_uris": {"android": "https://dc.lft.to/lastmile_qr_scan", "ios": "https://dc.lft.to/lastmile_qr_scan"}, "lat": 38.920632166666664, "bike_id": "bef67b93109976b7b911279df31f4310", "is_disabled": 0, "lon": -77.02315916666667, "is_reserved": 0, "fusion_lat": 0.0, "type": "electric_scooter"}, {"fusion_lon": 0.0, "name": "12d827ae1dd8072490174ab9cd0cd801", "rental_uris": {"android": "https://dc.lft.to/lastmile_qr_scan", "ios": "https://dc.lft.to/lastmile_qr_scan"}, "lat": 38.907712333333336, "bike_id": "12d827ae1dd8072490174ab9cd0cd801", "is_disabled": 0, "lon": -77.02455233333333, "is_reserved": 0, "fusion_lat": 0.0, "type": "electric_scooter"}, {"fusion_lon": 0.0, "name": "8c23d8b6a9af6e82fe061618ec3abe33", "rental_uris": {"android": "https://dc.lft.to/lastmile_qr_scan", "ios": "https://dc.lft.to/lastmile_qr_scan"}, "lat": 38.90391016666667, "bike_id": "8c23d8b6a9af6e82fe061618ec3abe33", "is_disabled": 0, "lon": -76.98099383333333, "is_reserved": 0, "fusion_lat": 0.0, "type": "electric_scooter"}, {"fusion_lon": 0.0, "name": "5729f3c63ae5b573a4087bee9a866a35", "rental_uris": {"android": "https://dc.lft.to/lastmile_qr_scan", "ios": "https://dc.lft.to/lastmile_qr_scan"}, "lat": 38.9212745, "bike_id": "5729f3c63ae5b573a4087bee9a866a35", "is_disabled": 0, "lon": -77.020958, "is_reserved": 0, "fusion_lat": 0.0, "type": "electric_scooter"}, {"fusion_lon": 0.0, "name": "72fee6d67b38cdb183e8bb992cadbf39", "rental_uris": {"android": "https://dc.lft.to/lastmile_qr_scan", "ios": "https://dc.lft.to/lastmile_qr_scan"}, "lat": 38.893884166666666, "bike_id": "72fee6d67b38cdb183e8bb992cadbf39", "is_disabled": 0, "lon": -76.86841716666666, "is_reserved": 0, "fusion_lat": 0.0, "type": "electric_bike"}, {"fusion_lon": 0.0, "name": "72026a4d7c87dae1acb45f201e979f4d", "rental_uris": {"android": "https://dc.lft.to/lastmile_qr_scan", "ios": "https://dc.lft.to/lastmile_qr_scan"}, "lat": 38.90037616666667, "bike_id": "72026a4d7c87dae1acb45f201e979f4d", "is_disabled": 0, "lon": -77.03305533333334, "is_reserved": 0, "fusion_lat": 0.0, "type": "electric_scooter"}, {"fusion_lon": 0.0, "name": "9e39f3606c41a4e0d3bae265b1cdd1a2", "rental_uris": {"android": "https://dc.lft.to/lastmile_qr_scan", "ios": "https://dc.lft.to/lastmile_qr_scan"}, "lat": 38.92799633333333, "bike_id": "9e39f3606c41a4e0d3bae265b1cdd1a2", "is_disabled": 0, "lon": -77.05531733333333, "is_reserved": 0, "fusion_lat": 0.0, "type": "electric_scooter"}, {"fusion_lon": 0.0, "name": "8c4093302fe6958ce15520344862335c", "rental_uris": {"android": "https://dc.lft.to/lastmile_qr_scan", "ios": "https://dc.lft.to/lastmile_qr_scan"}, "lat": 38.908538166666666, "bike_id": "8c4093302fe6958ce15520344862335c", "is_disabled": 0, "lon": -77.01016616666666, "is_reserved": 0, "fusion_lat": 0.0, "type": "electric_scooter"}, {"fusion_lon": 0.0, "name": "88bd528b00e002ddcad10a6ffa801b04", "rental_uris": {"android": "https://dc.lft.to/lastmile_qr_scan", "ios": "https://dc.lft.to/lastmile_qr_scan"}, "lat": 38.91978733333333, "bike_id": "88bd528b00e002ddcad10a6ffa801b04", "is_disabled": 0, "lon": -77.04070966666667, "is_reserved": 0, "fusion_lat": 0.0, "type": "electric_scooter"}, {"fusion_lon": 0.0, "name": "3d71f9be8dcb55b99f8cd100a3d37b37", "rental_uris": {"android": "https://dc.lft.to/lastmile_qr_scan", "ios": "https://dc.lft.to/lastmile_qr_scan"}, "lat": 38.91110033333333, "bike_id": "3d71f9be8dcb55b99f8cd100a3d37b37", "is_disabled": 0, "lon": -77.04456066666667, "is_reserved": 0, "fusion_lat": 0.0, "type": "electric_scooter"}, {"fusion_lon": 0.0, "name": "da580c31836875ff7057e9d4df9b52d8", "rental_uris": {"android": "https://dc.lft.to/lastmile_qr_scan", "ios": "https://dc.lft.to/lastmile_qr_scan"}, "lat": 38.94366266666667, "bike_id": "da580c31836875ff7057e9d4df9b52d8", "is_disabled": 0, "lon": -77.06129216666666, "is_reserved": 0, "fusion_lat": 0.0, "type": "electric_scooter"}, {"fusion_lon": 0.0, "name": "54b715af84490790765b168037ad6604", "rental_uris": {"android": "https://dc.lft.to/lastmile_qr_scan", "ios": "https://dc.lft.to/lastmile_qr_scan"}, "lat": 38.93114333333333, "bike_id": "54b715af84490790765b168037ad6604", "is_disabled": 0, "lon": -77.03029833333333, "is_reserved": 0, "fusion_lat": 0.0, "type": "electric_scooter"}, {"fusion_lon": 0.0, "name": "eaf64f4a83aaafcb9e6a743231cf415c", "rental_uris": {"android": "https://dc.lft.to/lastmile_qr_scan", "ios": "https://dc.lft.to/lastmile_qr_scan"}, "lat": 38.90122183333333, "bike_id": "eaf64f4a83aaafcb9e6a743231cf415c", "is_disabled": 0, "lon": -77.0031575, "is_reserved": 0, "fusion_lat": 0.0, "type": "electric_scooter"}, {"fusion_lon": 0.0, "name": "f690057ad78bb46ef39b1e9c1819d252", "rental_uris": {"android": "https://dc.lft.to/lastmile_qr_scan", "ios": "https://dc.lft.to/lastmile_qr_scan"}, "lat": 38.84617733333333, "bike_id": "f690057ad78bb46ef39b1e9c1819d252", "is_disabled": 0, "lon": -76.969317, "is_reserved": 0, "fusion_lat": 0.0, "type": "electric_bike"}, {"fusion_lon": 0.0, "name": "d3cef9d7ac4e6666649a13b565515965", "rental_uris": {"android": "https://dc.lft.to/lastmile_qr_scan", "ios": "https://dc.lft.to/lastmile_qr_scan"}, "lat": 38.9228085, "bike_id": "d3cef9d7ac4e6666649a13b565515965", "is_disabled": 0, "lon": -77.04297, "is_reserved": 0, "fusion_lat": 0.0, "type": "electric_scooter"}, {"fusion_lon": 0.0, "name": "f5d15d331b99923ac393fe9ef14bde94", "rental_uris": {"android": "https://dc.lft.to/lastmile_qr_scan", "ios": "https://dc.lft.to/lastmile_qr_scan"}, "lat": 38.85444716666667, "bike_id": "f5d15d331b99923ac393fe9ef14bde94", "is_disabled": 0, "lon": -76.9860565, "is_reserved": 0, "fusion_lat": 0.0, "type": "electric_bike"}, {"fusion_lon": 0.0, "name": "b1ea0a57ee0af92031eff3d42a4d22cc", "rental_uris": {"android": "https://dc.lft.to/lastmile_qr_scan", "ios": "https://dc.lft.to/lastmile_qr_scan"}, "lat": 38.91950833333333, "bike_id": "b1ea0a57ee0af92031eff3d42a4d22cc", "is_disabled": 0, "lon": -77.01390816666667, "is_reserved": 0, "fusion_lat": 0.0, "type": "electric_scooter"}, {"fusion_lon": 0.0, "name": "01e2d19e95893e64064d394ca85c43d8", "rental_uris": {"android": "https://dc.lft.to/lastmile_qr_scan", "ios": "https://dc.lft.to/lastmile_qr_scan"}, "lat": 38.884354333333334, "bike_id": "01e2d19e95893e64064d394ca85c43d8", "is_disabled": 0, "lon": -77.0233895, "is_reserved": 0, "fusion_lat": 0.0, "type": "electric_scooter"}, {"fusion_lon": 0.0, "name": "91e60484b72c62a2828d8c71f57434b7", "rental_uris": {"android": "https://dc.lft.to/lastmile_qr_scan", "ios": "https://dc.lft.to/lastmile_qr_scan"}, "lat": 38.894202, "bike_id": "91e60484b72c62a2828d8c71f57434b7", "is_disabled": 0, "lon": -77.02672866666667, "is_reserved": 0, "fusion_lat": 0.0, "type": "electric_scooter"}, {"fusion_lon": 0.0, "name": "b256c9ee409437fdc554932906381136", "rental_uris": {"android": "https://dc.lft.to/lastmile_qr_scan", "ios": "https://dc.lft.to/lastmile_qr_scan"}, "lat": 38.931176666666666, "bike_id": "b256c9ee409437fdc554932906381136", "is_disabled": 0, "lon": -77.02069633333333, "is_reserved": 0, "fusion_lat": 0.0, "type": "electric_scooter"}, {"fusion_lon": 0.0, "name": "6c57f2df277946bd723c09a864bc547e", "rental_uris": {"android": "https://dc.lft.to/lastmile_qr_scan", "ios": "https://dc.lft.to/lastmile_qr_scan"}, "lat": 38.90333183333333, "bike_id": "6c57f2df277946bd723c09a864bc547e", "is_disabled": 0, "lon": -76.93370016666667, "is_reserved": 0, "fusion_lat": 0.0, "type": "electric_bike"}, {"fusion_lon": 0.0, "name": "dc199f09b8f61010ef5499fc8156c380", "rental_uris": {"android": "https://dc.lft.to/lastmile_qr_scan", "ios": "https://dc.lft.to/lastmile_qr_scan"}, "lat": 38.88866133333333, "bike_id": "dc199f09b8f61010ef5499fc8156c380", "is_disabled": 0, "lon": -77.04000383333333, "is_reserved": 0, "fusion_lat": 0.0, "type": "electric_scooter"}, {"fusion_lon": 0.0, "name": "4e88e3e43bda7389feaa7fddaff3bb94", "rental_uris": {"android": "https://dc.lft.to/lastmile_qr_scan", "ios": "https://dc.lft.to/lastmile_qr_scan"}, "lat": 38.918686, "bike_id": "4e88e3e43bda7389feaa7fddaff3bb94", "is_disabled": 0, "lon": -77.04835666666666, "is_reserved": 0, "fusion_lat": 0.0, "type": "electric_scooter"}, {"fusion_lon": 0.0, "name": "d976109df3da05552e5a4b700f2b66df", "rental_uris": {"android": "https://dc.lft.to/lastmile_qr_scan", "ios": "https://dc.lft.to/lastmile_qr_scan"}, "lat": 38.793322, "bike_id": "d976109df3da05552e5a4b700f2b66df", "is_disabled": 0, "lon": -77.000531, "is_reserved": 0, "fusion_lat": 0.0, "type": "electric_bike"}, {"fusion_lon": 0.0, "name": "e73af443a01989b65288ce6c63bc0c0b", "rental_uris": {"android": "https://dc.lft.to/lastmile_qr_scan", "ios": "https://dc.lft.to/lastmile_qr_scan"}, "lat": 38.91175066666667, "bike_id": "e73af443a01989b65288ce6c63bc0c0b", "is_disabled": 0, "lon": -77.038544, "is_reserved": 0, "fusion_lat": 0.0, "type": "electric_scooter"}, {"fusion_lon": 0.0, "name": "202d459f8e3d7a8ded933def8a67a7ae", "rental_uris": {"android": "https://dc.lft.to/lastmile_qr_scan", "ios": "https://dc.lft.to/lastmile_qr_scan"}, "lat": 38.90365966666667, "bike_id": "202d459f8e3d7a8ded933def8a67a7ae", "is_disabled": 0, "lon": -77.039855, "is_reserved": 0, "fusion_lat": 0.0, "type": "electric_scooter"}, {"fusion_lon": 0.0, "name": "fee52e6f504742c6333c6c2dcf2c1a29", "rental_uris": {"android": "https://dc.lft.to/lastmile_qr_scan", "ios": "https://dc.lft.to/lastmile_qr_scan"}, "lat": 38.923593, "bike_id": "fee52e6f504742c6333c6c2dcf2c1a29", "is_disabled": 0, "lon": -77.0503075, "is_reserved": 0, "fusion_lat": 0.0, "type": "electric_scooter"}, {"fusion_lon": 0.0, "name": "9ef1cc87e1bdbeec8777d34d98f36ac8", "rental_uris": {"android": "https://dc.lft.to/lastmile_qr_scan", "ios": "https://dc.lft.to/lastmile_qr_scan"}, "lat": 38.90953483333333, "bike_id": "9ef1cc87e1bdbeec8777d34d98f36ac8", "is_disabled": 0, "lon": -77.01406533333333, "is_reserved": 0, "fusion_lat": 0.0, "type": "electric_scooter"}, {"fusion_lon": 0.0, "name": "a7607fc32c08a6a619fe06796f30ea8a", "rental_uris": {"android": "https://dc.lft.to/lastmile_qr_scan", "ios": "https://dc.lft.to/lastmile_qr_scan"}, "lat": 38.91706516666667, "bike_id": "a7607fc32c08a6a619fe06796f30ea8a", "is_disabled": 0, "lon": -77.02883733333333, "is_reserved": 0, "fusion_lat": 0.0, "type": "electric_scooter"}, {"fusion_lon": 0.0, "name": "f48e125512af366330d676619fb40d88", "rental_uris": {"android": "https://dc.lft.to/lastmile_qr_scan", "ios": "https://dc.lft.to/lastmile_qr_scan"}, "lat": 38.924626333333336, "bike_id": "f48e125512af366330d676619fb40d88", "is_disabled": 0, "lon": -77.02109516666667, "is_reserved": 0, "fusion_lat": 0.0, "type": "electric_scooter"},