{"data": {"bikes": [{"bike_id": "397559ca25069df9e7b53b5af857a98c", "type": "electric_scooter", "is_disabled": 0, "lat": 38.844315333333334, "rental_uris": {"ios": "https://dc.lft.to/lastmile_qr_scan", "android": "https://dc.lft.to/lastmile_qr_scan"}, "is_reserved": 0, "fusion_lon": 0.0, "fusion_lat": 0.0, "lon": -76.998691, "name": "397559ca25069df9e7b53b5af857a98c"}, {"bike_id": "5bb80ab62da98054dcf7e766aaef2a29", "type": "electric_scooter", "is_disabled": 0, "lat": 38.904957333333336, "rental_uris": {"ios": "https://dc.lft.to/lastmile_qr_scan", "android": "https://dc.lft.to/lastmile_qr_scan"}, "is_reserved": 0, "fusion_lon": 0.0, "fusion_lat": 0.0, "lon": -77.0269775, "name": "5bb80ab62da98054dcf7e766aaef2a29"}, {"bike_id": "d3bc5edf77fc950f1d0647acf928810c", "type": "electric_scooter", "is_disabled": 0, "lat": 38.913708666666665, "rental_uris": {"ios": "https://dc.lft.to/lastmile_qr_scan", "android": "https://dc.lft.to/lastmile_qr_scan"}, "is_reserved": 0, "fusion_lon": 0.0, "fusion_lat": 0.0, "lon": -77.03014333333333, "name": "d3bc5edf77fc950f1d0647acf928810c"}, {"bike_id": "65f17875edcd00b43c28397ea8994b50", "type": "electric_scooter", "is_disabled": 0, "lat": 38.9002045, "rental_uris": {"ios": "https://dc.lft.to/lastmile_qr_scan", "android": "https://dc.lft.to/lastmile_qr_scan"}, "is_reserved": 0, "fusion_lon": 0.0, "fusion_lat": 0.0, "lon": -77.00686133333333, "name": "65f17875edcd00b43c28397ea8994b50"}, {"bike_id": "67e0e02a04bd83c709f4a9419d171b61", "type": "electric_scooter", "is_disabled": 0, "lat": 38.912630166666666, "rental_uris": {"ios": "https://dc.lft.to/lastmile_qr_scan", "android": "https://dc.lft.to/lastmile_qr_scan"}, "is_reserved": 0, "fusion_lon": 0.0, "fusion_lat": 0.0, "lon": -77.03023583333334, "name": "67e0e02a04bd83c709f4a9419d171b61"}, {"bike_id": "b5d203e4d2ccad85b0cbb1ae5ffc3d25", "type": "electric_scooter", "is_disabled": 0, "lat": 38.884247333333334, "rental_uris": {"ios": "https://dc.lft.to/lastmile_qr_scan", "android": "https://dc.lft.to/lastmile_qr_scan"}, "is_reserved": 0, "fusion_lon": 0.0, "fusion_lat": 0.0, "lon": -77.02560066666666, "name": "b5d203e4d2ccad85b0cbb1ae5ffc3d25"}, {"bike_id": "a1ed4de307fe67e868006a3a65f54cb4", "type": "electric_scooter", "is_disabled": 0, "lat": 38.908046666666664, "rental_uris": {"ios": "https://dc.lft.to/lastmile_qr_scan", "android": "https://dc.lft.to/lastmile_qr_scan"}, "is_reserved": 0, "fusion_lon": 0.0, "fusion_lat": 0.0, "lon": -77.030704, "name": "a1ed4de307fe67e868006a3a65f54cb4"}, {"bike_id": "cba4d79caa92facdefc4c59b511d08db", "type": "electric_scooter", "is_disabled": 0, "lat": 38.91282316666667, "rental_uris": {"ios": "https://dc.lft.to/lastmile_qr_scan", "android": "https://dc.lft.to/lastmile_qr_scan"}, "is_reserved": 0, "fusion_lon": 0.0, "fusion_lat": 0.0, "lon": -77.06116683333333, "name": "cba4d79caa92facdefc4c59b511d08db"}, {"bike_id": "54c8104d62448630846b158187a90346", "type": "electric_scooter", "is_disabled": 0, "lat": 38.92665083333333, "rental_uris": {"ios": "https://dc.lft.to/lastmile_qr_scan", "android": "https://dc.lft.to/lastmile_qr_scan"}, "is_reserved": 0, "fusion_lon": 0.0, "fusion_lat": 0.0, "lon": -77.0147155, "name": "54c8104d62448630846b158187a90346"}, {"bike_id": "974137e27077731f615517c44643bcb5", "type": "electric_scooter", "is_disabled": 0, "lat": 38.9028405, "rental_uris": {"ios": "https://dc.lft.to/lastmile_qr_scan", "android": "https://dc.lft.to/lastmile_qr_scan"}, "is_reserved": 0, "fusion_lon": 0.0, "fusion_lat": 0.0, "lon": -77.0613435, "name": "974137e27077731f615517c44643bcb5"}, {"bike_id": "51c1da631eb009b1d51c84a5824e9369", "type": "electric_scooter", "is_disabled": 0, "lat": 38.91410883333333, "rental_uris": {"ios": "https://dc.lft.to/lastmile_qr_scan", "android": "https://dc.lft.to/lastmile_qr_scan"}, "is_reserved": 0, "fusion_lon": 0.0, "fusion_lat": 0.0, "lon": -77.02121216666667, "name": "51c1da631eb009b1d51c84a5824e9369"}, {"bike_id": "17829606fb7c9b90e7886b7a117f3eec", "type": "electric_scooter", "is_disabled": 0, "lat": 38.90065966666667, "rental_uris": {"ios": "https://dc.lft.to/lastmile_qr_scan", "android": "https://dc.lft.to/lastmile_qr_scan"}, "is_reserved": 0, "fusion_lon": 0.0, "fusion_lat": 0.0, "lon": -77.03661933333333, "name": "17829606fb7c9b90e7886b7a117f3eec"}, {"bike_id": "f0a92625c66d6ef1eb8a19d5b0cbb35c", "type": "electric_scooter", "is_disabled": 0, "lat": 38.84308566666667, "rental_uris": {"ios": "https://dc.lft.to/lastmile_qr_scan", "android": "https://dc.lft.to/lastmile_qr_scan"}, "is_reserved": 0, "fusion_lon": 0.0, "fusion_lat": 0.0, "lon": -76.99919816666667, "name": "f0a92625c66d6ef1eb8a19d5b0cbb35c"}, {"bike_id": "c3bbd1f80e5b40232e2063f1795f00da", "type": "electric_scooter", "is_disabled": 0, "lat": 38.93355233333333, "rental_uris": {"ios": "https://dc.lft.to/lastmile_qr_scan", "android": "https://dc.lft.to/lastmile_qr_scan"}, "is_reserved": 0, "fusion_lon": 0.0, "fusion_lat": 0.0, "lon": -77.073157, "name": "c3bbd1f80e5b40232e2063f1795f00da"}, {"bike_id": "8cc4e55cb4f6d71a677af74e8e012c04", "type": "electric_scooter", "is_disabled": 0, "lat": 38.93596, "rental_uris": {"ios": "https://dc.lft.to/lastmile_qr_scan", "android": "https://dc.lft.to/lastmile_qr_scan"}, "is_reserved": 0, "fusion_lon": 0.0, "fusion_lat": 0.0, "lon": -77.02421333333334, "name": "8cc4e55cb4f6d71a677af74e8e012c04"}, {"bike_id": "6654fb6fbc303b8bf6798fbf020acff8", "type": "electric_scooter", "is_disabled": 0, "lat": 38.91403733333333, "rental_uris": {"ios": "https://dc.lft.to/lastmile_qr_scan", "android": "https://dc.lft.to/lastmile_qr_scan"}, "is_reserved": 0, "fusion_lon": 0.0, "fusion_lat": 0.0, "lon": -77.036001, "name": "6654fb6fbc303b8bf6798fbf020acff8"}, {"bike_id": "2971050ce206cb3fac4071b85eb37616", "type": "electric_scooter", "is_disabled": 0, "lat": 38.928679333333335, "rental_uris": {"ios": "https://dc.lft.to/lastmile_qr_scan", "android": "https://dc.lft.to/lastmile_qr_scan"}, "is_reserved": 0, "fusion_lon": 0.0, "fusion_lat": 0.0, "lon": -77.03443333333334, "name": "2971050ce206cb3fac4071b85eb37616"}, {"bike_id": "6cc54dd4b219ba809421a82dbe7c3ad5", "type": "electric_scooter", "is_disabled": 0, "lat": 38.9282385, "rental_uris": {"ios": "https://dc.lft.to/lastmile_qr_scan", "android": "https://dc.lft.to/lastmile_qr_scan"}, "is_reserved": 0, "fusion_lon": 0.0, "fusion_lat": 0.0, "lon": -77.02258883333333, "name": "6cc54dd4b219ba809421a82dbe7c3ad5"}, {"bike_id": "f96f711c76f6631933a7bcf895660f3f", "type": "electric_bike", "is_disabled": 0, "lat": 38.842783833333336, "rental_uris": {"ios": "https://dc.lft.to/lastmile_qr_scan", "android": "https://dc.lft.to/lastmile_qr_scan"}, "is_reserved": 0, "fusion_lon": 0.0, "fusion_lat": 0.0, "lon": -76.98843333333333, "name": "f96f711c76f6631933a7bcf895660f3f"}, {"bike_id": "d26edced59e5dc581cc7fb4e6fb13a84", "type": "electric_scooter", "is_disabled": 0, "lat": 38.93542383333333, "rental_uris": {"ios": "https://dc.lft.to/lastmile_qr_scan", "android": "https://dc.lft.to/lastmile_qr_scan"}, "is_reserved": 0, "fusion_lon": 0.0, "fusion_lat": 0.0, "lon": -77.05838766666666, "name": "d26edced59e5dc581cc7fb4e6fb13a84"}, {"bike_id": "5f61ccfdd16d3611e955c8b1b0e62e8e", "type": "electric_bike", "is_disabled": 0, "lat": 38.855214, "rental_uris": {"ios": "https://dc.lft.to/lastmile_qr_scan", "android": "https://dc.lft.to/lastmile_qr_scan"}, "is_reserved": 0, "fusion_lon": 0.0, "fusion_lat": 0.0, "lon": -77.1200075, "name": "5f61ccfdd16d3611e955c8b1b0e62e8e"}, {"bike_id": "2895c76b021bdf9a908d600ccebdcb4c", "type": "electric_scooter", "is_disabled": 0, "lat": 38.9140065, "rental_uris": {"ios": "https://dc.lft.to/lastmile_qr_scan", "android": "https://dc.lft.to/lastmile_qr_scan"}, "is_reserved": 0, "fusion_lon": 0.0, "fusion_lat": 0.0, "lon": -76.98192333333333, "name": "2895c76b021bdf9a908d600ccebdcb4c"}, {"bike_id": "e756058420cb2548dd97306a4e8cb5fc", "type": "electric_scooter", "is_disabled": 0, "lat": 38.9089705, "rental_uris": {"ios": "https://dc.lft.to/lastmile_qr_scan", "android": "https://dc.lft.to/lastmile_qr_scan"}, "is_reserved": 0, "fusion_lon": 0.0, "fusion_lat": 0.0, "lon": -77.03208666666667, "name": "e756058420cb2548dd97306a4e8cb5fc"}, {"bike_id": "027b6fadfce707942c7ed1e805c05d2e", "type": "electric_scooter", "is_disabled": 0, "lat": 38.9172815, "rental_uris": {"ios": "https://dc.lft.to/lastmile_qr_scan", "android": "https://dc.lft.to/lastmile_qr_scan"}, "is_reserved": 0, "fusion_lon": 0.0, "fusion_lat": 0.0, "lon": -77.019165, "name": "027b6fadfce707942c7ed1e805c05d2e"}, {"bike_id": "9951eb11eff09f4ef4b9c08ceffda753", "type": "electric_scooter", "is_disabled": 0, "lat": 38.907154166666665, "rental_uris": {"ios": "https://dc.lft.to/lastmile_qr_scan", "android": "https://dc.lft.to/lastmile_qr_scan"}, "is_reserved": 0, "fusion_lon": 0.0, "fusion_lat": 0.0, "lon": -77.0417635, "name": "9951eb11eff09f4ef4b9c08ceffda753"}, {"bike_id": "a27c72743e516d53d07dda7110554e0e", "type": "electric_scooter", "is_disabled": 0, "lat": 38.90018716666667, "rental_uris": {"ios": "https://dc.lft.to/lastmile_qr_scan", "android": "https://dc.lft.to/lastmile_qr_scan"}, "is_reserved": 0, "fusion_lon": 0.0, "fusion_lat": 0.0, "lon": -76.99067166666667, "name": "a27c72743e516d53d07dda7110554e0e"}, {"bike_id": "2413d5bdcb0c23ccca015ec726cc3fc2", "type": "electric_scooter", "is_disabled": 0, "lat": 38.93598033333333, "rental_uris": {"ios": "https://dc.lft.to/lastmile_qr_scan", "android": "https://dc.lft.to/lastmile_qr_scan"}, "is_reserved": 0, "fusion_lon": 0.0, "fusion_lat": 0.0, "lon": -77.03670116666666, "name": "2413d5bdcb0c23ccca015ec726cc3fc2"}, {"bike_id": "b6133f100e13b4bc8b0dbf3cf9b57c9a", "type": "electric_scooter", "is_disabled": 0, "lat": 38.92341033333334, "rental_uris": {"ios": "https://dc.lft.to/lastmile_qr_scan", "android": "https://dc.lft.to/lastmile_qr_scan"}, "is_reserved": 0, "fusion_lon": 0.0, "fusion_lat": 0.0, "lon": -77.04179633333334, "name": "b6133f100e13b4bc8b0dbf3cf9b57c9a"}, {"bike_id": "107edf13ce060e943041ee9cd9aa1da3", "type": "electric_bike", "is_disabled": 0, "lat": 38.963072, "rental_uris": {"ios": "https://dc.lft.to/lastmile_qr_scan", "android": "https://dc.lft.to/lastmile_qr_scan"}, "is_reserved": 0, "fusion_lon": 0.0, "fusion_lat": 0.0, "lon": -77.01108283333333, "name": "107edf13ce060e943041ee9cd9aa1da3"}, {"bike_id": "8e1f97d86b34caf8260a9c00c8759719", "type": "electric_scooter", "is_disabled": 0, "lat": 38.92468933333333, "rental_uris": {"ios": "https://dc.lft.to/lastmile_qr_scan", "android": "https://dc.lft.to/lastmile_qr_scan"}, "is_reserved": 0, "fusion_lon": 0.0, "fusion_lat": 0.0, "lon": -77.02244016666667, "name": "8e1f97d86b34caf8260a9c00c8759719"}, {"bike_id": "06fec55f3951624629883aa4c9845ebe", "type": "electric_scooter", "is_disabled": 0, "lat": 38.92860833333334, "rental_uris": {"ios": "https://dc.lft.to/lastmile_qr_scan", "android": "https://dc.lft.to/lastmile_qr_scan"}, "is_reserved": 0, "fusion_lon": 0.0, "fusion_lat": 0.0, "lon": -77.03105616666667, "name": "06fec55f3951624629883aa4c9845ebe"}, {"bike_id": "1acbef421bac844c03933f2120bda3e1", "type": "electric_scooter", "is_disabled": 0, "lat": 38.91133133333334, "rental_uris": {"ios": "https://dc.lft.to/lastmile_qr_scan", "android": "https://dc.lft.to/lastmile_qr_scan"}, "is_reserved": 0, "fusion_lon": 0.0, "fusion_lat": 0.0, "lon": -77.0441215, "name": "1acbef421bac844c03933f2120bda3e1"}, {"bike_id": "698eb49ba7e4ed5b2ae2f5da014e9de4", "type": "electric_bike", "is_disabled": 0, "lat": 38.963194666666666, "rental_uris": {"ios": "https://dc.lft.to/lastmile_qr_scan", "android": "https://dc.lft.to/lastmile_qr_scan"}, "is_reserved": 0, "fusion_lon": 0.0, "fusion_lat": 0.0, "lon": -76.97361583333333, "name": "698eb49ba7e4ed5b2ae2f5da014e9de4"}, {"bike_id": "55af8f915e7b7eca5d0ceb37cd85a812", "type": "electric_scooter", "is_disabled": 0, "lat": 38.90524, "rental_uris": {"ios": "https://dc.lft.to/lastmile_qr_scan", "android": "https://dc.lft.to/lastmile_qr_scan"}, "is_reserved": 0, "fusion_lon": 0.0, "fusion_lat": 0.0, "lon": -77.05934433333333, "name": "55af8f915e7b7eca5d0ceb37cd85a812"}, {"bike_id": "0dca7027105da5c4e2b48676c658135e", "type": "electric_bike", "is_disabled": 0, "lat": 38.95228, "rental_uris": {"ios": "https://dc.lft.to/lastmile_qr_scan", "android": "https://dc.lft.to/lastmile_qr_scan"}, "is_reserved": 0, "fusion_lon": 0.0, "fusion_lat": 0.0, "lon": -76.97013316666667, "name": "0dca7027105da5c4e2b48676c658135e"}, {"bike_id": "e180f1a5f2f01c3e0f9ad0c20cba8682", "type": "electric_scooter", "is_disabled": 0, "lat": 38.9052695, "rental_uris": {"ios": "https://dc.lft.to/lastmile_qr_scan", "android": "https://dc.lft.to/lastmile_qr_scan"}, "is_reserved": 0, "fusion_lon": 0.0, "fusion_lat": 0.0, "lon": -77.062432, "name": "e180f1a5f2f01c3e0f9ad0c20cba8682"}, {"bike_id": "c22918b74ca43db8fda815e9b0dc30c2", "type": "electric_scooter", "is_disabled": 0, "lat": 38.87418233333333, "rental_uris": {"ios": "https://dc.lft.to/lastmile_qr_scan", "android": "https://dc.lft.to/lastmile_qr_scan"}, "is_reserved": 0, "fusion_lon": 0.0, "fusion_lat": 0.0, "lon": -76.9690795, "name": "c22918b74ca43db8fda815e9b0dc30c2"}, {"bike_id": "5b0e314728b0441d43c8231d3ce9ad70", "type": "electric_scooter", "is_disabled": 0, "lat": 38.89723633333333, "rental_uris": {"ios": "https://dc.lft.to/lastmile_qr_scan", "android": "https://dc.lft.to/lastmile_qr_scan"}, "is_reserved": 0, "fusion_lon": 0.0, "fusion_lat": 0.0, "lon": -77.00852066666667, "name": "5b0e314728b0441d43c8231d3ce9ad70"}, {"bike_id": "3b5681db8b4807d08abfd2e700153446", "type": "electric_scooter", "is_disabled": 0, "lat": 38.87747783333333, "rental_uris": {"ios": "https://dc.lft.to/lastmile_qr_scan", "android": "https://dc.lft.to/lastmile_qr_scan"}, "is_reserved": 0, "fusion_lon": 0.0, "fusion_lat": 0.0, "lon": -76.99729133333334, "name": "3b5681db8b4807d08abfd2e700153446"}, {"bike_id": "713fbf250f97711dec2ec8e6bddd8f17", "type": "electric_bike", "is_disabled": 0, "lat": 39.037399666666666, "rental_uris": {"ios": "https://dc.lft.to/lastmile_qr_scan", "android": "https://dc.lft.to/lastmile_qr_scan"}, "is_reserved": 0, "fusion_lon": 0.0, "fusion_lat": 0.0, "lon": -77.05491416666666, "name": "713fbf250f97711dec2ec8e6bddd8f17"}, {"bike_id": "2c7492fad6fec8b0ca28a395725bee30", "type": "electric_scooter", "is_disabled": 0, "lat": 38.908404833333336, "rental_uris": {"ios": "https://dc.lft.to/lastmile_qr_scan", "android": "https://dc.lft.to/lastmile_qr_scan"}, "is_reserved": 0, "fusion_lon": 0.0, "fusion_lat": 0.0, "lon": -77.02190483333334, "name": "2c7492fad6fec8b0ca28a395725bee30"}, {"bike_id": "ccc5c56b13f1e01eef4b763c35e83cd7", "type": "electric_bike", "is_disabled": 0, "lat": 39.05495, "rental_uris": {"ios": "https://dc.lft.to/lastmile_qr_scan", "android": "https://dc.lft.to/lastmile_qr_scan"}, "is_reserved": 0, "fusion_lon": 0.0, "fusion_lat": 0.0, "lon": -77.11795416666666, "name": "ccc5c56b13f1e01eef4b763c35e83cd7"}, {"bike_id": "35859e632a7b02a046d846c69a94c642", "type": "electric_scooter", "is_disabled": 0, "lat": 38.88639, "rental_uris": {"ios": "https://dc.lft.to/lastmile_qr_scan", "android": "https://dc.lft.to/lastmile_qr_scan"}, "is_reserved": 0, "fusion_lon": 0.0, "fusion_lat": 0.0, "lon": -77.00007183333334, "name": "35859e632a7b02a046d846c69a94c642"}, {"bike_id": "0dff6b023f9e0872674399565690b3aa", "type": "electric_bike", "is_disabled": 0, "lat": 38.90826166666667, "rental_uris": {"ios": "https://dc.lft.to/lastmile_qr_scan", "android": "https://dc.lft.to/lastmile_qr_scan"}, "is_reserved": 0, "fusion_lon": 0.0, "fusion_lat": 0.0, "lon": -76.94155833333333, "name": "0dff6b023f9e0872674399565690b3aa"}, {"bike_id": "2f626e56c38d4114a9f9dda13dfdc497", "type": "electric_scooter", "is_disabled": 0, "lat": 38.9053775, "rental_uris": {"ios": "https://dc.lft.to/lastmile_qr_scan", "android": "https://dc.lft.to/lastmile_qr_scan"}, "is_reserved": 0, "fusion_lon": 0.0, "fusion_lat": 0.0, "lon": -77.06887833333333, "name": "2f626e56c38d4114a9f9dda13dfdc497"}, {"bike_id": "5eecb440d158d198d171329bba3d067a", "type": "electric_scooter", "is_disabled": 0, "lat": 38.89918483333334, "rental_uris": {"ios": "https://dc.lft.to/lastmile_qr_scan", "android": "https://dc.lft.to/lastmile_qr_scan"}, "is_reserved": 0, "fusion_lon": 0.0, "fusion_lat": 0.0, "lon": -76.93366883333333, "name": "5eecb440d158d198d171329bba3d067a"}, {"bike_id": "160e6bb3f2cf7be523356621e7d969d8", "type": "electric_bike", "is_disabled": 0, "lat": 39.001104, "rental_uris": {"ios": "https://dc.lft.to/lastmile_qr_scan", "android": "https://dc.lft.to/lastmile_qr_scan"}, "is_reserved": 0, "fusion_lon": 0.0, "fusion_lat": 0.0, "lon": -77.02522783333333, "name": "160e6bb3f2cf7be523356621e7d969d8"}, {"bike_id": "6a719251653e506fec8274ece0723447", "type": "electric_scooter", "is_disabled": 0, "lat": 38.9175275, "rental_uris": {"ios": "https://dc.lft.to/lastmile_qr_scan", "android": "https://dc.lft.to/lastmile_qr_scan"}, "is_reserved": 0, "fusion_lon": 0.0, "fusion_lat": 0.0, "lon": -77.036648, "name": "6a719251653e506fec8274ece0723447"}, {"bike_id": "d96c7b4c011bc1dca95a7ccc89f3ca2d", "type": "electric_scooter", "is_disabled": 0, "lat": 38.9094415, "rental_uris": {"ios": "https://dc.lft.to/lastmile_qr_scan", "android": "https://dc.lft.to/lastmile_qr_scan"}, "is_reserved": 0, "fusion_lon": 0.0, "fusion_lat": 0.0, "lon": -77.0231515, "name": "d96c7b4c011bc1dca95a7ccc89f3ca2d"}, {"bike_id": "628aed9791a6cc1b6a9acc99139b9178", "type": "electric_scooter", "is_disabled": 0, "lat": 38.92605433333333, "rental_uris": {"ios": "https://dc.lft.to/lastmile_qr_scan", "android": "https://dc.lft.to/lastmile_qr_scan"}, "is_reserved": 0, "fusion_lon": 0.0, "fusion_lat": 0.0, "lon": -77.10246466666666, "name": "628aed9791a6cc1b6a9acc99139b9178"}, {"bike_id": "6372ee2e70e3a6b84d469bc193bebb31", "type": "electric_scooter", "is_disabled": 0, "lat": 38.921068, "rental_uris": {"ios": "https://dc.lft.to/lastmile_qr_scan", "android": "https://dc.lft.to/lastmile_qr_scan"}, "is_reserved": 0, "fusion_lon": 0.0, "fusion_lat": 0.0, "lon": -77.031732, "name": "6372ee2e70e3a6b84d469bc193bebb31"}, {"bike_id": "a99a7f276aabdead6d48dce823b3e333", "type": "electric_scooter", "is_disabled": 0, "lat": 38.89843166666667, "rental_uris": {"ios": "https://dc.lft.to/lastmile_qr_scan", "android": "https://dc.lft.to/lastmile_qr_scan"}, "is_reserved": 0, "fusion_lon": 0.0, "fusion_lat": 0.0, "lon": -76.94634133333334, "name": "a99a7f276aabdead6d48dce823b3e333"}, {"bike_id": "7387211029d92cf2c6afb3becf061524", "type": "electric_scooter", "is_disabled": 0, "lat": 38.9050375, "rental_uris": {"ios": "https://dc.lft.to/lastmile_qr_scan", "android": "https://dc.lft.to/lastmile_qr_scan"}, "is_reserved": 0, "fusion_lon": 0.0, "fusion_lat": 0.0, "lon": -77.04106333333333, "name": "7387211029d92cf2c6afb3becf061524"}, {"bike_id": "1687ea7cb4088ecdcdf6838b7d432cbb", "type": "electric_scooter", "is_disabled": 0, "lat": 38.919747, "rental_uris": {"ios": "https://dc.lft.to/lastmile_qr_scan", "android": "https://dc.lft.to/lastmile_qr_scan"}, "is_reserved": 0, "fusion_lon": 0.0, "fusion_lat": 0.0, "lon": -77.033293, "name": "1687ea7cb4088ecdcdf6838b7d432cbb"}, {"bike_id": "01ef0f28f8efeeab0c8b8ac3691e1c5d", "type": "electric_scooter", "is_disabled": 0, "lat": 38.90699466666667, "rental_uris": {"ios": "https://dc.lft.to/lastmile_qr_scan", "android": "https://dc.lft.to/lastmile_qr_scan"}, "is_reserved": 0, "fusion_lon": 0.0, "fusion_lat": 0.0, "lon": -77.00051166666667, "name": "01ef0f28f8efeeab0c8b8ac3691e1c5d"}, {"bike_id": "11a7e794cc4264da452beff9ab29470e", "type": "electric_scooter", "is_disabled": 0, "lat": 38.890066833333336, "rental_uris": {"ios": "https://dc.lft.to/lastmile_qr_scan", "android": "https://dc.lft.to/lastmile_qr_scan"}, "is_reserved": 0, "fusion_lon": 0.0, "fusion_lat": 0.0, "lon": -76.93749033333333, "name": "11a7e794cc4264da452beff9ab29470e"}, {"bike_id": "6f254c7f0f60cdf4e5991b13772cfc17", "type": "electric_scooter", "is_disabled": 0, "lat": 38.910393166666665, "rental_uris": {"ios": "https://dc.lft.to/lastmile_qr_scan", "android": "https://dc.lft.to/lastmile_qr_scan"}, "is_reserved": 0, "fusion_lon": 0.0, "fusion_lat": 0.0, "lon": -77.04258483333334, "name": "6f254c7f0f60cdf4e5991b13772cfc17"}, {"bike_id": "56e0c99e1f50ef20dbd2d77a4dd7b512", "type": "electric_scooter", "is_disabled": 0, "lat": 38.900265166666664, "rental_uris": {"ios": "https://dc.lft.to/lastmile_qr_scan", "android": "https://dc.lft.to/lastmile_qr_scan"}, "is_reserved": 0, "fusion_lon": 0.0, "fusion_lat": 0.0, "lon": -76.98933766666667, "name": "56e0c99e1f50ef20dbd2d77a4dd7b512"}, {"bike_id": "141bd0e5279e364a6c06ee5e9e5ea814", "type": "electric_bike", "is_disabled": 0, "lat": 38.832375, "rental_uris": {"ios": "https://dc.lft.to/lastmile_qr_scan", "android": "https://dc.lft.to/lastmile_qr_scan"}, "is_reserved": 0, "fusion_lon": 0.0, "fusion_lat": 0.0, "lon": -76.94627066666666, "name": "141bd0e5279e364a6c06ee5e9e5ea814"}, {"bike_id": "72b3125f6a8a22d883d0584f9c7b052e", "type": "electric_scooter", "is_disabled": 0, "lat": 38.916042833333336, "rental_uris": {"ios": "https://dc.lft.to/lastmile_qr_scan", "android": "https://dc.lft.to/lastmile_qr_scan"}, "is_reserved": 0, "fusion_lon": 0.0, "fusion_lat": 0.0, "lon": -77.02395166666666, "name": "72b3125f6a8a22d883d0584f9c7b052e"}, {"bike_id": "dea968c9bfc8b06173f85cf47f4a9229", "type": "electric_scooter", "is_disabled": 0, "lat": 38.904095166666664, "rental_uris": {"ios": "https://dc.lft.to/lastmile_qr_scan", "android": "https://dc.lft.to/lastmile_qr_scan"}, "is_reserved": 0, "fusion_lon": 0.0, "fusion_lat": 0.0, "lon": -76.97332333333334, "name": "dea968c9bfc8b06173f85cf47f4a9229"}, {"bike_id": "d4dbaac66023198af4e55f6bdcc55091", "type": "electric_scooter", "is_disabled": 0, "lat": 38.921348333333334, "rental_uris": {"ios": "https://dc.lft.to/lastmile_qr_scan", "android": "https://dc.lft.to/lastmile_qr_scan"}, "is_reserved": 0, "fusion_lon": 0.0, "fusion_lat": 0.0, "lon": -77.02514616666667, "name": "d4dbaac66023198af4e55f6bdcc55091"}, {"bike_id": "a0a10573d6473ff695ae109f6fb7a738", "type": "electric_scooter", "is_disabled": 0, "lat": 38.90020633333334, "rental_uris": {"ios": "https://dc.lft.to/lastmile_qr_scan", "android": "https://dc.lft.to/lastmile_qr_scan"}, "is_reserved": 0, "fusion_lon": 0.0, "fusion_lat": 0.0, "lon": -77.044991, "name": "a0a10573d6473ff695ae109f6fb7a738"}, {"bike_id": "098e721a601290ccc1549a6703023dca", "type": "electric_bike", "is_disabled": 0, "lat": 39.05055333333333, "rental_uris": {"ios": "https://dc.lft.to/lastmile_qr_scan", "android": "https://dc.lft.to/lastmile_qr_scan"}, "is_reserved": 0, "fusion_lon": 0.0, "fusion_lat": 0.0, "lon": -77.05151766666667, "name": "098e721a601290ccc1549a6703023dca"}, {"bike_id": "62d9d2adf8b9681a3b76ca21ee6aad9e", "type": "electric_scooter", "is_disabled": 0, "lat": 38.911069, "rental_uris": {"ios": "https://dc.lft.to/lastmile_qr_scan", "android": "https://dc.lft.to/lastmile_qr_scan"}, "is_reserved": 0, "fusion_lon": 0.0, "fusion_lat": 0.0, "lon": -77.043568, "name": "62d9d2adf8b9681a3b76ca21ee6aad9e"}, {"bike_id": "78f5440df835f5540806ac2b51c97808", "type": "electric_scooter", "is_disabled": 0, "lat": 38.876326, "rental_uris": {"ios": "https://dc.lft.to/lastmile_qr_scan", "android": "https://dc.lft.to/lastmile_qr_scan"}, "is_reserved": 0, "fusion_lon": 0.0, "fusion_lat": 0.0, "lon": -77.00952133333334, "name": "78f5440df835f5540806ac2b51c97808"}, {"bike_id": "4ab6c5938ed7385a3ba2e08a7ea09052", "type": "electric_scooter", "is_disabled": 0, "lat": 38.9255665, "rental_uris": {"ios": "https://dc.lft.to/lastmile_qr_scan", "android": "https://dc.lft.to/lastmile_qr_scan"}, "is_reserved": 0, "fusion_lon": 0.0, "fusion_lat": 0.0, "lon": -77.037893, "name": "4ab6c5938ed7385a3ba2e08a7ea09052"}, {"bike_id": "14ff5a868354c1a94dca41406b3e386f", "type": "electric_scooter", "is_disabled": 0, "lat": 38.920053833333334, "rental_uris": {"ios": "https://dc.lft.to/lastmile_qr_scan", "android": "https://dc.lft.to/lastmile_qr_scan"}, "is_reserved": 0, "fusion_lon": 0.0, "fusion_lat": 0.0, "lon": -77.041762, "name": "14ff5a868354c1a94dca41406b3e386f"}, {"bike_id": "62ee497bf9a1cfd1e0c6026418a5af90", "type": "electric_scooter", "is_disabled": 0, "lat": 38.936176833333334, "rental_uris": {"ios": "https://dc.lft.to/lastmile_qr_scan", "android": "https://dc.lft.to/lastmile_qr_scan"}, "is_reserved": 0, "fusion_lon": 0.0, "fusion_lat": 0.0, "lon": -77.0369295, "name": "62ee497bf9a1cfd1e0c6026418a5af90"}, {"bike_id": "f7bd5a4c993ef015bce262bd732015e6", "type": "electric_scooter", "is_disabled": 0, "lat": 38.9304705, "rental_uris": {"ios": "https://dc.lft.to/lastmile_qr_scan", "android": "https://dc.lft.to/lastmile_qr_scan"}, "is_reserved": 0, "fusion_lon": 0.0, "fusion_lat": 0.0, "lon": -77.02356566666667, "name": "f7bd5a4c993ef015bce262bd732015e6"}, {"bike_id": "8e2935f4ef5fa71bb2f54fdc83f2406b", "type": "electric_scooter", "is_disabled": 0, "lat": 38.858032666666666, "rental_uris": {"ios": "https://dc.lft.to/lastmile_qr_scan", "android": "https://dc.lft.to/lastmile_qr_scan"}, "is_reserved": 0, "fusion_lon": 0.0, "fusion_lat": 0.0, "lon": -76.9893455, "name": "8e2935f4ef5fa71bb2f54fdc83f2406b"}, {"bike_id": "2fed5841ddbfa620f6715307af26b127", "type": "electric_bike", "is_disabled": 0, "lat": 38.864847833333336, "rental_uris": {"ios": "https://dc.lft.to/lastmile_qr_scan", "android": "https://dc.lft.to/lastmile_qr_scan"}, "is_reserved": 0, "fusion_lon": 0.0, "fusion_lat": 0.0, "lon": -76.97750316666666, "name": "2fed5841ddbfa620f6715307af26b127"}, {"bike_id": "0fe5a644670f781d52fc0b32b494a3e0", "type": "electric_scooter", "is_disabled": 0, "lat": 38.91476866666667, "rental_uris": {"ios": "https://dc.lft.to/lastmile_qr_scan", "android": "https://dc.lft.to/lastmile_qr_scan"}, "is_reserved": 0, "fusion_lon": 0.0, "fusion_lat": 0.0, "lon": -77.025049, "name": "0fe5a644670f781d52fc0b32b494a3e0"}, {"bike_id": "1f352f55a12f404eae3778d2082e3e69", "type": "electric_scooter", "is_disabled": 0, "lat": 38.912636666666664, "rental_uris": {"ios": "https://dc.lft.to/lastmile_qr_scan", "android": "https://dc.lft.to/lastmile_qr_scan"}, "is_reserved": 0, "fusion_lon": 0.0, "fusion_lat": 0.0, "lon": -77.00226783333333, "name": "1f352f55a12f404eae3778d2082e3e69"}, {"bike_id": "bebf6777f4a090b90468416ab22e6182", "type": "electric_scooter", "is_disabled": 0, "lat": 38.916967166666666, "rental_uris": {"ios": "https://dc.lft.to/lastmile_qr_scan", "android": "https://dc.lft.to/lastmile_qr_scan"}, "is_reserved": 0, "fusion_lon": 0.0, "fusion_lat": 0.0, "lon": -77.028951, "name": "bebf6777f4a090b90468416ab22e6182"}, {"bike_id": "ee3adf840b9b16f786184c42aba14737", "type": "electric_scooter", "is_disabled": 0, "lat": 38.928492, "rental_uris": {"ios": "https://dc.lft.to/lastmile_qr_scan", "android": "https://dc.lft.to/lastmile_qr_scan"}, "is_reserved": 0, "fusion_lon": 0.0, "fusion_lat": 0.0, "lon": -77.0325645, "name": "ee3adf840b9b16f786184c42aba14737"}, {"bike_id": "9d8c9267680e630541571a37dd9cab97", "type": "electric_bike", "is_disabled": 0, "lat": 38.8075495, "rental_uris": {"ios": "https://dc.lft.to/lastmile_qr_scan", "android": "https://dc.lft.to/lastmile_qr_scan"}, "is_reserved": 0, "fusion_lon": 0.0, "fusion_lat": 0.0, "lon": -77.094572, "name": "9d8c9267680e630541571a37dd9cab97"}, {"bike_id": "bfd8515dfaffdec6a4ea95957e22794a", "type": "electric_scooter", "is_disabled": 0, "lat": 38.93899066666667, "rental_uris": {"ios": "https://dc.lft.to/lastmile_qr_scan", "android": "https://dc.lft.to/lastmile_qr_scan"}, "is_reserved": 0, "fusion_lon": 0.0, "fusion_lat": 0.0, "lon": -77.03346383333333, "name": "bfd8515dfaffdec6a4ea95957e22794a"}, {"bike_id": "f9b8d3dcdc482c185eb821c0a30cd0c2", "type": "electric_scooter", "is_disabled": 0, "lat": 38.88736983333333, "rental_uris": {"ios": "https://dc.lft.to/lastmile_qr_scan", "android": "https://dc.lft.to/lastmile_qr_scan"}, "is_reserved": 0, "fusion_lon": 0.0, "fusion_lat": 0.0, "lon": -77.01767916666667, "name": "f9b8d3dcdc482c185eb821c0a30cd0c2"}, {"bike_id": "dfe72c40c9a028bd84adbb623a119b52", "type": "electric_scooter", "is_disabled": 0, "lat": 38.93979316666667, "rental_uris": {"ios": "https://dc.lft.to/lastmile_qr_scan", "android": "https://dc.lft.to/lastmile_qr_scan"}, "is_reserved": 0, "fusion_lon": 0.0, "fusion_lat": 0.0, "lon": -77.02870483333334, "name": "dfe72c40c9a028bd84adbb623a119b52"}, {"bike_id": "66e0f685db0e7ba94b34fb230ea9e5d1", "type": "electric_scooter", "is_disabled": 0, "lat": 38.89279233333333, "rental_uris": {"ios": "https://dc.lft.to/lastmile_qr_scan", "android": "https://dc.lft.to/lastmile_qr_scan"}, "is_reserved": 0, "fusion_lon": 0.0, "fusion_lat": 0.0, "lon": -77.020235, "name": "66e0f685db0e7ba94b34fb230ea9e5d1"}, {"bike_id": "5cf8a5948aac215d41e32497b5f8f016", "type": "electric_scooter", "is_disabled": 0, "lat": 38.942009, "rental_uris": {"ios": "https://dc.lft.to/lastmile_qr_scan", "android": "https://dc.lft.to/lastmile_qr_scan"}, "is_reserved": 0, "fusion_lon": 0.0, "fusion_lat": 0.0, "lon": -77.02544033333334, "name": "5cf8a5948aac215d41e32497b5f8f016"}, {"bike_id": "3736cbf325e063f597dcd60b85bb7d7e", "type": "electric_scooter", "is_disabled": 0, "lat": 38.866271833333336, "rental_uris": {"ios": "https://dc.lft.to/lastmile_qr_scan", "android": "https://dc.lft.to/lastmile_qr_scan"}, "is_reserved": 0, "fusion_lon": 0.0, "fusion_lat": 0.0, "lon": -76.98718016666666, "name": "3736cbf325e063f597dcd60b85bb7d7e"}, {"bike_id": "4906b30be30beda967461754571ea109", "type": "electric_scooter", "is_disabled": 0, "lat": 38.870716, "rental_uris": {"ios": "https://dc.lft.to/lastmile_qr_scan", "android": "https://dc.lft.to/lastmile_qr_scan"}, "is_reserved": 0, "fusion_lon": 0.0, "fusion_lat": 0.0, "lon": -76.98129833333333, "name": "4906b30be30beda967461754571ea109"}, {"bike_id": "a7c961e1affb377a657ac45d9e4e2ac2", "type": "electric_scooter", "is_disabled": 0, "lat": 38.94292266666667, "rental_uris": {"ios": "https://dc.lft.to/lastmile_qr_scan", "android": "https://dc.lft.to/lastmile_qr_scan"}, "is_reserved": 0, "fusion_lon": 0.0, "fusion_lat": 0.0, "lon": -77.02176133333333, "name": "a7c961e1affb377a657ac45d9e4e2ac2"}, {"bike_id": "0892db0e57b78eaf22b4203f219f2e55", "type": "electric_bike", "is_disabled": 0, "lat": 38.9647095, "rental_uris": {"ios": "https://dc.lft.to/lastmile_qr_scan", "android": "https://dc.lft.to/lastmile_qr_scan"}, "is_reserved": 0, "fusion_lon": 0.0, "fusion_lat": 0.0, "lon": -77.0355625, "name": "0892db0e57b78eaf22b4203f219f2e55"}, {"bike_id": "f747f42b375061ae4267b78783f63859", "type": "electric_scooter", "is_disabled": 0, "lat": 38.912592, "rental_uris": {"ios": "https://dc.lft.to/lastmile_qr_scan", "android": "https://dc.lft.to/lastmile_qr_scan"}, "is_reserved": 0, "fusion_lon": 0.0, "fusion_lat": 0.0, "lon": -77.03270716666667, "name": "f747f42b375061ae4267b78783f63859"}, {"bike_id": "21b603ae041c4b41ccf861cb977ffb64", "type": "electric_scooter", "is_disabled": 0, "lat": 38.930057166666664, "rental_uris": {"ios": "https://dc.lft.to/lastmile_qr_scan", "android": "https://dc.lft.to/lastmile_qr_scan"}, "is_reserved": 0, "fusion_lon": 0.0, "fusion_lat": 0.0, "lon": -77.02361566666667, "name": "21b603ae041c4b41ccf861cb977ffb64"}, {"bike_id": "474d0093a443a67af1536aa92cae71bb", "type": "electric_scooter", "is_disabled": 0, "lat": 38.912417, "rental_uris": {"ios": "https://dc.lft.to/lastmile_qr_scan", "android": "https://dc.lft.to/lastmile_qr_scan"}, "is_reserved": 0, "fusion_lon": 0.0, "fusion_lat": 0.0, "lon": -77.02229366666667, "name": "474d0093a443a67af1536aa92cae71bb"}, {"bike_id": "10718b583840433c7891d9ff6125162f", "type": "electric_scooter", "is_disabled": 0, "lat": 38.913823, "rental_uris": {"ios": "https://dc.lft.to/lastmile_qr_scan", "android": "https://dc.lft.to/lastmile_qr_scan"}, "is_reserved": 0, "fusion_lon": 0.0, "fusion_lat": 0.0, "lon": -77.04138683333333, "name": "10718b583840433c7891d9ff6125162f"}, {"bike_id": "412432bd430e904ebd4107ad630a8bfd", "type": "electric_scooter", "is_disabled": 0, "lat": 38.94076616666667, "rental_uris": {"ios": "https://dc.lft.to/lastmile_qr_scan", "android": "https://dc.lft.to/lastmile_qr_scan"}, "is_reserved": 0, "fusion_lon": 0.0, "fusion_lat": 0.0, "lon": -77.02549183333333, "name": "412432bd430e904ebd4107ad630a8bfd"}, {"bike_id": "1b50ad1c87490d947061f917256dcc22", "type": "electric_scooter", "is_disabled": 0, "lat": 38.8948745, "rental_uris": {"ios": "https://dc.lft.to/lastmile_qr_scan", "android": "https://dc.lft.to/lastmile_qr_scan"}, "is_reserved": 0, "fusion_lon": 0.0, "fusion_lat": 0.0, "lon": -77.01083016666666, "name": "1b50ad1c87490d947061f917256dcc22"}, {"bike_id": "2cec9c81eefc7dfbb07bfdca22fc40df", "type": "electric_scooter", "is_disabled": 0, "lat": 38.914054, "rental_uris": {"ios": "https://dc.lft.to/lastmile_qr_scan", "android": "https://dc.lft.to/lastmile_qr_scan"}, "is_reserved": 0, "fusion_lon": 0.0, "fusion_lat": 0.0, "lon": -77.024295, "name": "2cec9c81eefc7dfbb07bfdca22fc40df"}, {"bike_id": "ae41c6a63f455718aad523f33c25cfe7", "type": "electric_scooter", "is_disabled": 0, "lat": 38.914982333333334, "rental_uris": {"ios": "https://dc.lft.to/lastmile_qr_scan", "android": "https://dc.lft.to/lastmile_qr_scan"}, "is_reserved": 0, "fusion_lon": 0.0, "fusion_lat": 0.0, "lon": -77.0320935, "name": "ae41c6a63f455718aad523f33c25cfe7"}, {"bike_id": "c0b02aa7e0c4d7b51421afe7387a34c4", "type": "electric_scooter", "is_disabled": 0, "lat": 38.90685916666666, "rental_uris": {"ios": "https://dc.lft.to/lastmile_qr_scan", "android": "https://dc.lft.to/lastmile_qr_scan"}, "is_reserved": 0, "fusion_lon": 0.0, "fusion_lat": 0.0, "lon": -77.07556483333333, "name": "c0b02aa7e0c4d7b51421afe7387a34c4"}, {"bike_id": "2b4d18fbc687a6cad172a649100b39f1", "type": "electric_bike", "is_disabled": 0, "lat": 38.85937633333333, "rental_uris": {"ios": "https://dc.lft.to/lastmile_qr_scan", "android": "https://dc.lft.to/lastmile_qr_scan"}, "is_reserved": 0, "fusion_lon": 0.0, "fusion_lat": 0.0, "lon": -77.11833816666666, "name": "2b4d18fbc687a6cad172a649100b39f1"}, {"bike_id": "42453e1708e66b1c8e39ebd179f452b7", "type": "electric_bike", "is_disabled": 0, "lat": 38.8236775, "rental_uris": {"ios": "https://dc.lft.to/lastmile_qr_scan", "android": "https://dc.lft.to/lastmile_qr_scan"}, "is_reserved": 0, "fusion_lon": 0.0, "fusion_lat": 0.0, "lon": -77.002221, "name": "42453e1708e66b1c8e39ebd179f452b7"}, {"bike_id": "074464137e36515a9737d1befd4bceb0", "type": "electric_scooter", "is_disabled": 0, "lat": 38.907889, "rental_uris": {"ios": "https://dc.lft.to/lastmile_qr_scan", "android": "https://dc.lft.to/lastmile_qr_scan"}, "is_reserved": 0, "fusion_lon": 0.0, "fusion_lat": 0.0, "lon": -77.03476183333333, "name": "074464137e36515a9737d1befd4bceb0"}, {"bike_id": "b6eea521f5e6d5a055d4a07214727564", "type": "electric_scooter", "is_disabled": 0, "lat": 38.92853916666667, "rental_uris": {"ios": "https://dc.lft.to/lastmile_qr_scan", "android": "https://dc.lft.to/lastmile_qr_scan"}, "is_reserved": 0, "fusion_lon": 0.0, "fusion_lat": 0.0, "lon": -77.01952066666666, "name": "b6eea521f5e6d5a055d4a07214727564"}, {"bike_id": "a6f6c2284dd07886e99e62a746f2772d", "type": "electric_scooter", "is_disabled": 0, "lat": 38.91419583333333, "rental_uris": {"ios": "https://dc.lft.to/lastmile_qr_scan", "android": "https://dc.lft.to/lastmile_qr_scan"}, "is_reserved": 0, "fusion_lon": 0.0, "fusion_lat": 0.0, "lon": -77.04809066666667, "name": "a6f6c2284dd07886e99e62a746f2772d"}, {"bike_id": "6374876ec110cb70e45a990d2e7b1269", "type": "electric_scooter", "is_disabled": 0, "lat": 38.92148783333333, "rental_uris": {"ios": "https://dc.lft.to/lastmile_qr_scan", "android": "https://dc.lft.to/lastmile_qr_scan"}, "is_reserved": 0, "fusion_lon": 0.0, "fusion_lat": 0.0, "lon": -77.03538766666667, "name": "6374876ec110cb70e45a990d2e7b1269"}, {"bike_id": "92b267fff6d7d8275fa0ff22b6e09746", "type": "electric_scooter", "is_disabled": 0, "lat": 38.94786766666667, "rental_uris": {"ios": "https://dc.lft.to/lastmile_qr_scan", "android": "https://dc.lft.to/lastmile_qr_scan"}, "is_reserved": 0, "fusion_lon": 0.0, "fusion_lat": 0.0, "lon": -77.0213805, "name": "92b267fff6d7d8275fa0ff22b6e09746"}, {"bike_id": "696b4e3d1db8bc99d1f745e8fcedfc83", "type": "electric_scooter", "is_disabled": 0, "lat": 38.913714666666664, "rental_uris": {"ios": "https://dc.lft.to/lastmile_qr_scan", "android": "https://dc.lft.to/lastmile_qr_scan"}, "is_reserved": 0, "fusion_lon": 0.0, "fusion_lat": 0.0, "lon": -77.07270266666667, "name": "696b4e3d1db8bc99d1f745e8fcedfc83"}, {"bike_id": "b8c88dde810ad7963ff7aa6d6029d380", "type": "electric_scooter", "is_disabled": 0, "lat": 38.86971916666667, "rental_uris": {"ios": "https://dc.lft.to/lastmile_qr_scan", "android": "https://dc.lft.to/lastmile_qr_scan"}, "is_reserved": 0, "fusion_lon": 0.0, "fusion_lat": 0.0, "lon": -76.9817525, "name": "b8c88dde810ad7963ff7aa6d6029d380"}, {"bike_id": "6e6520aa80fcbdd02d7f98eefd2bcc4d", "type": "electric_scooter", "is_disabled": 0, "lat": 38.882182666666665, "rental_uris": {"ios": "https://dc.lft.to/lastmile_qr_scan", "android": "https://dc.lft.to/lastmile_qr_scan"}, "is_reserved": 0, "fusion_lon": 0.0, "fusion_lat": 0.0, "lon": -76.92662633333333, "name": "6e6520aa80fcbdd02d7f98eefd2bcc4d"}, {"bike_id": "fcd7d51293bd79c3ac68229db5810d14", "type": "electric_bike", "is_disabled": 0, "lat": 38.91014966666667, "rental_uris": {"ios": "https://dc.lft.to/lastmile_qr_scan", "android": "https://dc.lft.to/lastmile_qr_scan"}, "is_reserved": 0, "fusion_lon": 0.0, "fusion_lat": 0.0, "lon": -77.22814333333334, "name": "fcd7d51293bd79c3ac68229db5810d14"}, {"bike_id": "c45a5fc93e6c292950b958ac91742847", "type": "electric_scooter", "is_disabled": 0, "lat": 38.9353185, "rental_uris": {"ios": "https://dc.lft.to/lastmile_qr_scan", "android": "https://dc.lft.to/lastmile_qr_scan"}, "is_reserved": 0, "fusion_lon": 0.0, "fusion_lat": 0.0, "lon": -77.02351016666667, "name": "c45a5fc93e6c292950b958ac91742847"}, {"bike_id": "a564f2b608209951e5993e443b1eec5c", "type": "electric_scooter", "is_disabled": 0, "lat": 38.92826016666667, "rental_uris": {"ios": "https://dc.lft.to/lastmile_qr_scan", "android": "https://dc.lft.to/lastmile_qr_scan"}, "is_reserved": 0, "fusion_lon": 0.0, "fusion_lat": 0.0, "lon": -77.00607683333334, "name": "a564f2b608209951e5993e443b1eec5c"}, {"bike_id": "9591544f73c785ac3d791bb3541ef497", "type": "electric_scooter", "is_disabled": 0, "lat": 38.92193733333333, "rental_uris": {"ios": "https://dc.lft.to/lastmile_qr_scan", "android": "https://dc.lft.to/lastmile_qr_scan"}, "is_reserved": 0, "fusion_lon": 0.0, "fusion_lat": 0.0, "lon": -77.0424915, "name": "9591544f73c785ac3d791bb3541ef497"}, {"bike_id": "fc6cdc8e8472166c9ede31c9535587ec", "type": "electric_scooter", "is_disabled": 0, "lat": 38.905666833333335, "rental_uris": {"ios": "https://dc.lft.to/lastmile_qr_scan", "android": "https://dc.lft.to/lastmile_qr_scan"}, "is_reserved": 0, "fusion_lon": 0.0, "fusion_lat": 0.0, "lon": -77.0382375, "name": "fc6cdc8e8472166c9ede31c9535587ec"}, {"bike_id": "41475f02856ac2b1e0219970874f03ee", "type": "electric_bike", "is_disabled": 0, "lat": 38.913659, "rental_uris": {"ios": "https://dc.lft.to/lastmile_qr_scan", "android": "https://dc.lft.to/lastmile_qr_scan"}, "is_reserved": 0, "fusion_lon": 0.0, "fusion_lat": 0.0, "lon": -76.985502, "name": "41475f02856ac2b1e0219970874f03ee"}, {"bike_id": "c11b4ecd45040deb748e1153e4958cf4", "type": "electric_scooter", "is_disabled": 0, "lat": 38.9053, "rental_uris": {"ios": "https://dc.lft.to/lastmile_qr_scan", "android": "https://dc.lft.to/lastmile_qr_scan"}, "is_reserved": 0, "fusion_lon": 0.0, "fusion_lat": 0.0, "lon": -77.0418215, "name": "c11b4ecd45040deb748e1153e4958cf4"}, {"bike_id": "5a154ae20ecffead50325f8901c9886a", "type": "electric_bike", "is_disabled": 0, "lat": 38.88061166666667, "rental_uris": {"ios": "https://dc.lft.to/lastmile_qr_scan", "android": "https://dc.lft.to/lastmile_qr_scan"}, "is_reserved": 0, "fusion_lon": 0.0, "fusion_lat": 0.0, "lon": -76.96242583333333, "name": "5a154ae20ecffead50325f8901c9886a"}, {"bike_id": "8bdcbd6a4008d3a5a50e7bdc14a5be76", "type": "electric_scooter", "is_disabled": 0, "lat": 38.9565595, "rental_uris": {"ios": "https://dc.lft.to/lastmile_qr_scan", "android": "https://dc.lft.to/lastmile_qr_scan"}, "is_reserved": 0, "fusion_lon": 0.0, "fusion_lat": 0.0, "lon": -77.01323366666666, "name": "8bdcbd6a4008d3a5a50e7bdc14a5be76"}, {"bike_id": "a0ea67599988d026693463cd4a656f00", "type": "electric_scooter", "is_disabled": 0, "lat": 38.9228445, "rental_uris": {"ios": "https://dc.lft.to/lastmile_qr_scan", "android": "https://dc.lft.to/lastmile_qr_scan"}, "is_reserved": 0, "fusion_lon": 0.0, "fusion_lat": 0.0, "lon": -77.04278, "name": "a0ea67599988d026693463cd4a656f00"}, {"bike_id": "7d60871e21f7c026355b3aa3e52a0772", "type": "electric_scooter", "is_disabled": 0, "lat": 38.898411333333335, "rental_uris": {"ios": "https://dc.lft.to/lastmile_qr_scan", "android": "https://dc.lft.to/lastmile_qr_scan"}, "is_reserved": 0, "fusion_lon": 0.0, "fusion_lat": 0.0, "lon": -76.9463955, "name": "7d60871e21f7c026355b3aa3e52a0772"}, {"bike_id": "5986a02f043a4f7e72bf109b70768c7c", "type": "electric_scooter", "is_disabled": 0, "lat": 38.924764, "rental_uris": {"ios": "https://dc.lft.to/lastmile_qr_scan", "android": "https://dc.lft.to/lastmile_qr_scan"}, "is_reserved": 0, "fusion_lon": 0.0, "fusion_lat": 0.0, "lon": -77.02837316666667, "name": "5986a02f043a4f7e72bf109b70768c7c"}, {"bike_id": "33c3bc2192c01351c7e5bc4ba63321e0", "type": "electric_scooter", "is_disabled": 0, "lat": 38.9191635, "rental_uris": {"ios": "https://dc.lft.to/lastmile_qr_scan", "android": "https://dc.lft.to/lastmile_qr_scan"}, "is_reserved": 0, "fusion_lon": 0.0, "fusion_lat": 0.0, "lon": -77.04264183333333, "name": "33c3bc2192c01351c7e5bc4ba63321e0"}, {"bike_id": "ce0462e54b798836d3e49b6489bd8207", "type": "electric_scooter", "is_disabled": 0, "lat": 38.903530833333335, "rental_uris": {"ios": "https://dc.lft.to/lastmile_qr_scan", "android": "https://dc.lft.to/lastmile_qr_scan"}, "is_reserved": 0, "fusion_lon": 0.0, "fusion_lat": 0.0, "lon": -77.060163, "name": "ce0462e54b798836d3e49b6489bd8207"}, {"bike_id": "1f8f064bdd235bccb86e85a320fde27d", "type": "electric_scooter", "is_disabled": 0, "lat": 38.86374816666667, "rental_uris": {"ios": "https://dc.lft.to/lastmile_qr_scan", "android": "https://dc.lft.to/lastmile_qr_scan"}, "is_reserved": 0, "fusion_lon": 0.0, "fusion_lat": 0.0, "lon": -76.99067, "name": "1f8f064bdd235bccb86e85a320fde27d"}, {"bike_id": "1a1bf8e73fda19658bae6497da8993ac", "type": "electric_scooter", "is_disabled": 0, "lat": 38.87880766666667, "rental_uris": {"ios": "https://dc.lft.to/lastmile_qr_scan", "android": "https://dc.lft.to/lastmile_qr_scan"}, "is_reserved": 0, "fusion_lon": 0.0, "fusion_lat": 0.0, "lon": -77.00581683333333, "name": "1a1bf8e73fda19658bae6497da8993ac"}, {"bike_id": "b5cc2862217e3ea9161b1391ba9b914a", "type": "electric_scooter", "is_disabled": 0, "lat": 38.8667775, "rental_uris": {"ios": "https://dc.lft.to/lastmile_qr_scan", "android": "https://dc.lft.to/lastmile_qr_scan"}, "is_reserved": 0, "fusion_lon": 0.0, "fusion_lat": 0.0, "lon": -76.98556816666667, "name": "b5cc2862217e3ea9161b1391ba9b914a"}, {"bike_id": "08561ba13a9e7e493a19c7e4aa73e37c", "type": "electric_scooter", "is_disabled": 0, "lat": 38.8747615, "rental_uris": {"ios": "https://dc.lft.to/lastmile_qr_scan", "android": "https://dc.lft.to/lastmile_qr_scan"}, "is_reserved": 0, "fusion_lon": 0.0, "fusion_lat": 0.0, "lon": -77.0107365, "name": "08561ba13a9e7e493a19c7e4aa73e37c"}, {"bike_id": "1047bbfd7f29f54da3e47cdfcb7fc976", "type": "electric_scooter", "is_disabled": 0, "lat": 38.928579666666664, "rental_uris": {"ios": "https://dc.lft.to/lastmile_qr_scan", "android": "https://dc.lft.to/lastmile_qr_scan"}, "is_reserved": 0, "fusion_lon": 0.0, "fusion_lat": 0.0, "lon": -77.02306833333333, "name": "1047bbfd7f29f54da3e47cdfcb7fc976"}, {"bike_id": "4514096d0a602ddb0bfd557eb212b255", "type": "electric_scooter", "is_disabled": 0, "lat": 38.936520333333334, "rental_uris": {"ios": "https://dc.lft.to/lastmile_qr_scan", "android": "https://dc.lft.to/lastmile_qr_scan"}, "is_reserved": 0, "fusion_lon": 0.0, "fusion_lat": 0.0, "lon": -77.02642, "name": "4514096d0a602ddb0bfd557eb212b255"}, {"bike_id": "ba975d5ca77120300ae707baa4572090", "type": "electric_scooter", "is_disabled": 0, "lat": 38.89017333333334, "rental_uris": {"ios": "https://dc.lft.to/lastmile_qr_scan", "android": "https://dc.lft.to/lastmile_qr_scan"}, "is_reserved": 0, "fusion_lon": 0.0, "fusion_lat": 0.0, "lon": -76.93696283333334, "name": "ba975d5ca77120300ae707baa4572090"}, {"bike_id": "46c17604aaaa41795d8182f768e7e950", "type": "electric_bike", "is_disabled": 0, "lat": 38.838504, "rental_uris": {"ios": "https://dc.lft.to/lastmile_qr_scan", "android": "https://dc.lft.to/lastmile_qr_scan"}, "is_reserved": 0, "fusion_lon": 0.0, "fusion_lat": 0.0, "lon": -77.05022716666667, "name": "46c17604aaaa41795d8182f768e7e950"}, {"bike_id": "af59c0c981046fb56668e26efc97c041", "type": "electric_scooter", "is_disabled": 0, "lat": 38.903821, "rental_uris": {"ios": "https://dc.lft.to/lastmile_qr_scan", "android": "https://dc.lft.to/lastmile_qr_scan"}, "is_reserved": 0, "fusion_lon": 0.0, "fusion_lat": 0.0, "lon": -76.9821495, "name": "af59c0c981046fb56668e26efc97c041"}, {"bike_id": "7564904528d88341dfd2fa2a9b4d055e", "type": "electric_scooter", "is_disabled": 0, "lat": 38.918245, "rental_uris": {"ios": "https://dc.lft.to/lastmile_qr_scan", "android": "https://dc.lft.to/lastmile_qr_scan"}, "is_reserved": 0, "fusion_lon": 0.0, "fusion_lat": 0.0, "lon": -77.02423583333334, "name": "7564904528d88341dfd2fa2a9b4d055e"}, {"bike_id": "03c0b5513f63b98ab350ea708a64c4d8", "type": "electric_scooter", "is_disabled": 0, "lat": 38.909747833333334, "rental_uris": {"ios": "https://dc.lft.to/lastmile_qr_scan", "android": "https://dc.lft.to/lastmile_qr_scan"}, "is_reserved": 0, "fusion_lon": 0.0, "fusion_lat": 0.0, "lon": -77.02809383333333, "name": "03c0b5513f63b98ab350ea708a64c4d8"}, {"bike_id": "232f7a7d7ed36c02271bd04a69765cca", "type": "electric_scooter", "is_disabled": 0, "lat": 38.884342, "rental_uris": {"ios": "https://dc.lft.to/lastmile_qr_scan", "android": "https://dc.lft.to/lastmile_qr_scan"}, "is_reserved": 0, "fusion_lon": 0.0, "fusion_lat": 0.0, "lon": -76.957531, "name": "232f7a7d7ed36c02271bd04a69765cca"}, {"bike_id": "01b99a9177326ccfc0b40d18b562eb13", "type": "electric_scooter", "is_disabled": 0, "lat": 38.91238033333333, "rental_uris": {"ios": "https://dc.lft.to/lastmile_qr_scan", "android": "https://dc.lft.to/lastmile_qr_scan"}, "is_reserved": 0, "fusion_lon": 0.0, "fusion_lat": 0.0, "lon": -77.0092555, "name": "01b99a9177326ccfc0b40d18b562eb13"}, {"bike_id": "94a08a82927a0862a3aa682b22323880", "type": "electric_scooter", "is_disabled": 0, "lat": 38.92971583333333, "rental_uris": {"ios": "https://dc.lft.to/lastmile_qr_scan", "android": "https://dc.lft.to/lastmile_qr_scan"}, "is_reserved": 0, "fusion_lon": 0.0, "fusion_lat": 0.0, "lon": -77.03186166666667, "name": "94a08a82927a0862a3aa682b22323880"}, {"bike_id": "460a359ce4551d8942f598384bf7207f", "type": "electric_scooter", "is_disabled": 0, "lat": 38.9182425, "rental_uris": {"ios": "https://dc.lft.to/lastmile_qr_scan", "android": "https://dc.lft.to/lastmile_qr_scan"}, "is_reserved": 0, "fusion_lon": 0.0, "fusion_lat": 0.0, "lon": -77.02421383333333, "name": "460a359ce4551d8942f598384bf7207f"}, {"bike_id": "5ba6a3efb7d6a65138bb6f53705af063", "type": "electric_scooter", "is_disabled": 0, "lat": 38.95735466666667, "rental_uris": {"ios": "https://dc.lft.to/lastmile_qr_scan", "android": "https://dc.lft.to/lastmile_qr_scan"}, "is_reserved": 0, "fusion_lon": 0.0, "fusion_lat": 0.0, "lon": -77.024214, "name": "5ba6a3efb7d6a65138bb6f53705af063"}, {"bike_id": "170436640d897100696db1cc3bad957a", "type": "electric_scooter", "is_disabled": 0, "lat": 38.887347166666665, "rental_uris": {"ios": "https://dc.lft.to/lastmile_qr_scan", "android": "https://dc.lft.to/lastmile_qr_scan"}, "is_reserved": 0, "fusion_lon": 0.0, "fusion_lat": 0.0, "lon": -77.01546816666666, "name": "170436640d897100696db1cc3bad957a"}, {"bike_id": "323fdfc14be49b581ab5c0c3d8312120", "type": "electric_scooter", "is_disabled": 0, "lat": 38.9033295, "rental_uris": {"ios": "https://dc.lft.to/lastmile_qr_scan", "android": "https://dc.lft.to/lastmile_qr_scan"}, "is_reserved": 0, "fusion_lon": 0.0, "fusion_lat": 0.0, "lon": -77.03664483333333, "name": "323fdfc14be49b581ab5c0c3d8312120"}, {"bike_id": "597c5288894e646ce577477b17f5fb50", "type": "electric_scooter", "is_disabled": 0, "lat": 38.919608833333335, "rental_uris": {"ios": "https://dc.lft.to/lastmile_qr_scan", "android": "https://dc.lft.to/lastmile_qr_scan"}, "is_reserved": 0, "fusion_lon": 0.0, "fusion_lat": 0.0, "lon": -77.04505383333333, "name": "597c5288894e646ce577477b17f5fb50"}, {"bike_id": "969e0222496a7992fe781f0ec9c0aa9a", "type": "electric_scooter", "is_disabled": 0, "lat": 38.894975, "rental_uris": {"ios": "https://dc.lft.to/lastmile_qr_scan", "android": "https://dc.lft.to/lastmile_qr_scan"}, "is_reserved": 0, "fusion_lon": 0.0, "fusion_lat": 0.0, "lon": -77.00212683333334, "name": "969e0222496a7992fe781f0ec9c0aa9a"}, {"bike_id": "2060fd8f4b825f75caa297acdb03674e", "type": "electric_scooter", "is_disabled": 0, "lat": 38.923345833333336, "rental_uris": {"ios": "https://dc.lft.to/lastmile_qr_scan", "android": "https://dc.lft.to/lastmile_qr_scan"}, "is_reserved": 0, "fusion_lon": 0.0, "fusion_lat": 0.0, "lon": -77.05379133333334, "name": "2060fd8f4b825f75caa297acdb03674e"}, {"bike_id": "190f621d0c7fbac7e3ee6c91d70b623d", "type": "electric_bike", "is_disabled": 0, "lat": 39.056335833333335, "rental_uris": {"ios": "https://dc.lft.to/lastmile_qr_scan", "android": "https://dc.lft.to/lastmile_qr_scan"}, "is_reserved": 0, "fusion_lon": 0.0, "fusion_lat": 0.0, "lon": -77.12526, "name": "190f621d0c7fbac7e3ee6c91d70b623d"}, {"bike_id": "21ff0e026fe17d4c2066d9e518894af5", "type": "electric_scooter", "is_disabled": 0, "lat": 38.9161555, "rental_uris": {"ios": "https://dc.lft.to/lastmile_qr_scan", "android": "https://dc.lft.to/lastmile_qr_scan"}, "is_reserved": 0, "fusion_lon": 0.0, "fusion_lat": 0.0, "lon": -77.022014, "name": "21ff0e026fe17d4c2066d9e518894af5"}, {"bike_id": "d7d3e818cc389a9c33959f92f1e3ba65", "type": "electric_scooter", "is_disabled": 0, "lat": 38.897293166666664, "rental_uris": {"ios": "https://dc.lft.to/lastmile_qr_scan", "android": "https://dc.lft.to/lastmile_qr_scan"}, "is_reserved": 0, "fusion_lon": 0.0, "fusion_lat": 0.0, "lon": -77.054777, "name": "d7d3e818cc389a9c33959f92f1e3ba65"}, {"bike_id": "14c058926498afa677e0801c737ff10c", "type": "electric_scooter", "is_disabled": 0, "lat": 38.94784166666667, "rental_uris": {"ios": "https://dc.lft.to/lastmile_qr_scan", "android": "https://dc.lft.to/lastmile_qr_scan"}, "is_reserved": 0, "fusion_lon": 0.0, "fusion_lat": 0.0, "lon": -77.07937, "name": "14c058926498afa677e0801c737ff10c"}, {"bike_id": "d10ea7e5bd1ec4f97356e1740249cab9", "type": "electric_scooter", "is_disabled": 0, "lat": 38.94208883333334, "rental_uris": {"ios": "https://dc.lft.to/lastmile_qr_scan", "android": "https://dc.lft.to/lastmile_qr_scan"}, "is_reserved": 0, "fusion_lon": 0.0, "fusion_lat": 0.0, "lon": -77.02590316666667, "name": "d10ea7e5bd1ec4f97356e1740249cab9"}, {"bike_id": "1bb38446ce1866bfb91ef767027f3d45", "type": "electric_scooter", "is_disabled": 0, "lat": 38.92320016666667, "rental_uris": {"ios": "https://dc.lft.to/lastmile_qr_scan", "android": "https://dc.lft.to/lastmile_qr_scan"}, "is_reserved": 0, "fusion_lon": 0.0, "fusion_lat": 0.0, "lon": -77.03808533333333, "name": "1bb38446ce1866bfb91ef767027f3d45"}, {"bike_id": "d7014bee60a260f8d95d13fca938a5d1", "type": "electric_scooter", "is_disabled": 0, "lat": 38.936934666666666, "rental_uris": {"ios": "https://dc.lft.to/lastmile_qr_scan", "android": "https://dc.lft.to/lastmile_qr_scan"}, "is_reserved": 0, "fusion_lon": 0.0, "fusion_lat": 0.0, "lon": -77.05666666666667, "name": "d7014bee60a260f8d95d13fca938a5d1"}, {"bike_id": "6d5b79faf58219c682b806d9299cc5cf", "type": "electric_scooter", "is_disabled": 0, "lat": 38.929866833333335, "rental_uris": {"ios": "https://dc.lft.to/lastmile_qr_scan", "android": "https://dc.lft.to/lastmile_qr_scan"}, "is_reserved": 0, "fusion_lon": 0.0, "fusion_lat": 0.0, "lon": -77.03477833333334, "name": "6d5b79faf58219c682b806d9299cc5cf"}, {"bike_id": "5f437a0a94bfde22d10c525713f3d866", "type": "electric_scooter", "is_disabled": 0, "lat": 38.906803333333336, "rental_uris": {"ios": "https://dc.lft.to/lastmile_qr_scan", "android": "https://dc.lft.to/lastmile_qr_scan"}, "is_reserved": 0, "fusion_lon": 0.0, "fusion_lat": 0.0, "lon": -77.07176416666667, "name": "5f437a0a94bfde22d10c525713f3d866"}, {"bike_id": "3ebb630f8ee4abeb6b71d7107651050f", "type": "electric_bike", "is_disabled": 0, "lat": 38.893661333333334, "rental_uris": {"ios": "https://dc.lft.to/lastmile_qr_scan", "android": "https://dc.lft.to/lastmile_qr_scan"}, "is_reserved": 0, "fusion_lon": 0.0, "fusion_lat": 0.0, "lon": -77.1868365, "name": "3ebb630f8ee4abeb6b71d7107651050f"}, {"bike_id": "e022ee5e67f926084ec92fdef8a85c05", "type": "electric_scooter", "is_disabled": 0, "lat": 38.910345166666666, "rental_uris": {"ios": "https://dc.lft.to/lastmile_qr_scan", "android": "https://dc.lft.to/lastmile_qr_scan"}, "is_reserved": 0, "fusion_lon": 0.0, "fusion_lat": 0.0, "lon": -77.03798966666666, "name": "e022ee5e67f926084ec92fdef8a85c05"}, {"bike_id": "cc35999756ff2505a59c31562d472e76", "type": "electric_scooter", "is_disabled": 0, "lat": 38.902745833333334, "rental_uris": {"ios": "https://dc.lft.to/lastmile_qr_scan", "android": "https://dc.lft.to/lastmile_qr_scan"}, "is_reserved": 0, "fusion_lon": 0.0, "fusion_lat": 0.0, "lon": -77.03459166666667, "name": "cc35999756ff2505a59c31562d472e76"}, {"bike_id": "fbafd0ea0716a9518023217f67046e9e", "type": "electric_scooter", "is_disabled": 0, "lat": 38.9063935, "rental_uris": {"ios": "https://dc.lft.to/lastmile_qr_scan", "android": "https://dc.lft.to/lastmile_qr_scan"}, "is_reserved": 0, "fusion_lon": 0.0, "fusion_lat": 0.0, "lon": -77.0173375, "name": "fbafd0ea0716a9518023217f67046e9e"}, {"bike_id": "a198c3143584824605bb825cb1a17cb9", "type": "electric_scooter", "is_disabled": 0, "lat": 38.900844166666666, "rental_uris": {"ios": "https://dc.lft.to/lastmile_qr_scan", "android": "https://dc.lft.to/lastmile_qr_scan"}, "is_reserved": 0, "fusion_lon": 0.0, "fusion_lat": 0.0, "lon": -77.03067566666667, "name": "a198c3143584824605bb825cb1a17cb9"}, {"bike_id": "3c0ce2adccc17a1951287118a59e30fa", "type": "electric_scooter", "is_disabled": 0, "lat": 38.913994, "rental_uris": {"ios": "https://dc.lft.to/lastmile_qr_scan", "android": "https://dc.lft.to/lastmile_qr_scan"}, "is_reserved": 0, "fusion_lon": 0.0, "fusion_lat": 0.0, "lon": -77.03148966666667, "name": "3c0ce2adccc17a1951287118a59e30fa"}, {"bike_id": "c9e626be214440729031920beefbaba2", "type": "electric_scooter", "is_disabled": 0, "lat": 38.91242416666667, "rental_uris": {"ios": "https://dc.lft.to/lastmile_qr_scan", "android": "https://dc.lft.to/lastmile_qr_scan"}, "is_reserved": 0, "fusion_lon": 0.0, "fusion_lat": 0.0, "lon": -77.0386265, "name": "c9e626be214440729031920beefbaba2"}, {"bike_id": "25793459f8b547dc0eddf07bb92dfa13", "type": "electric_bike", "is_disabled": 0, "lat": 38.831580333333335, "rental_uris": {"ios": "https://dc.lft.to/lastmile_qr_scan", "android": "https://dc.lft.to/lastmile_qr_scan"}, "is_reserved": 0, "fusion_lon": 0.0, "fusion_lat": 0.0, "lon": -76.99545116666667, "name": "25793459f8b547dc0eddf07bb92dfa13"}, {"bike_id": "600ef2060a352c9286f7d642e5f5a5ed", "type": "electric_scooter", "is_disabled": 0, "lat": 38.9026065, "rental_uris": {"ios": "https://dc.lft.to/lastmile_qr_scan", "android": "https://dc.lft.to/lastmile_qr_scan"}, "is_reserved": 0, "fusion_lon": 0.0, "fusion_lat": 0.0, "lon": -77.01807333333333, "name": "600ef2060a352c9286f7d642e5f5a5ed"}, {"bike_id": "c9211848b465a32db6ebe2e2058d29d1", "type": "electric_scooter", "is_disabled": 0, "lat": 38.904720166666664, "rental_uris": {"ios": "https://dc.lft.to/lastmile_qr_scan", "android": "https://dc.lft.to/lastmile_qr_scan"}, "is_reserved": 0, "fusion_lon": 0.0, "fusion_lat": 0.0, "lon": -77.04869433333333, "name": "c9211848b465a32db6ebe2e2058d29d1"}, {"bike_id": "0ddcc9648be42058ebc984db6240b287", "type": "electric_scooter", "is_disabled": 0, "lat": 38.94625716666667, "rental_uris": {"ios": "https://dc.lft.to/lastmile_qr_scan", "android": "https://dc.lft.to/lastmile_qr_scan"}, "is_reserved": 0, "fusion_lon": 0.0, "fusion_lat": 0.0, "lon": -77.0723725, "name": "0ddcc9648be42058ebc984db6240b287"}, {"bike_id": "b071198212ef15f43fa860ff250e215a", "type": "electric_scooter", "is_disabled": 0, "lat": 38.89229016666667, "rental_uris": {"ios": "https://dc.lft.to/lastmile_qr_scan", "android": "https://dc.lft.to/lastmile_qr_scan"}, "is_reserved": 0, "fusion_lon": 0.0, "fusion_lat": 0.0, "lon": -77.0499905, "name": "b071198212ef15f43fa860ff250e215a"}, {"bike_id": "d1351598b3b98dc1659e21aee40714f3", "type": "electric_scooter", "is_disabled": 0, "lat": 38.86473066666667, "rental_uris": {"ios": "https://dc.lft.to/lastmile_qr_scan", "android": "https://dc.lft.to/lastmile_qr_scan"}, "is_reserved": 0, "fusion_lon": 0.0, "fusion_lat": 0.0, "lon": -77.000149, "name": "d1351598b3b98dc1659e21aee40714f3"}, {"bike_id": "a1ea76a47390cf0ff6ed9217a28a2511", "type": "electric_scooter", "is_disabled": 0, "lat": 38.922704833333334, "rental_uris": {"ios": "https://dc.lft.to/lastmile_qr_scan", "android": "https://dc.lft.to/lastmile_qr_scan"}, "is_reserved": 0, "fusion_lon": 0.0, "fusion_lat": 0.0, "lon": -77.01885816666666, "name": "a1ea76a47390cf0ff6ed9217a28a2511"}, {"bike_id": "fae94d6dc432358c0c5f859dfd6746f9", "type": "electric_scooter", "is_disabled": 0, "lat": 38.900919333333334, "rental_uris": {"ios": "https://dc.lft.to/lastmile_qr_scan", "android": "https://dc.lft.to/lastmile_qr_scan"}, "is_reserved": 0, "fusion_lon": 0.0, "fusion_lat": 0.0, "lon": -77.038767, "name": "fae94d6dc432358c0c5f859dfd6746f9"}, {"bike_id": "26e11ee5d013cc58d243a7eed046fea8", "type": "electric_scooter", "is_disabled": 0, "lat": 38.9113195, "rental_uris": {"ios": "https://dc.lft.to/lastmile_qr_scan", "android": "https://dc.lft.to/lastmile_qr_scan"}, "is_reserved": 0, "fusion_lon": 0.0, "fusion_lat": 0.0, "lon": -77.02814633333334, "name": "26e11ee5d013cc58d243a7eed046fea8"}, {"bike_id": "786bac8628c50aa702976a9d012f39b2", "type": "electric_scooter", "is_disabled": 0, "lat": 38.843158, "rental_uris": {"ios": "https://dc.lft.to/lastmile_qr_scan", "android": "https://dc.lft.to/lastmile_qr_scan"}, "is_reserved": 0, "fusion_lon": 0.0, "fusion_lat": 0.0, "lon": -76.99935133333334, "name": "786bac8628c50aa702976a9d012f39b2"}, {"bike_id": "e2955c7df0470717f4f514d9af4ff925", "type": "electric_scooter", "is_disabled": 0, "lat": 38.918990666666666, "rental_uris": {"ios": "https://dc.lft.to/lastmile_qr_scan", "android": "https://dc.lft.to/lastmile_qr_scan"}, "is_reserved": 0, "fusion_lon": 0.0, "fusion_lat": 0.0, "lon": -77.04620316666667, "name": "e2955c7df0470717f4f514d9af4ff925"}, {"bike_id": "bf7850e78bf837c95de5219a611a14c3", "type": "electric_scooter", "is_disabled": 0, "lat": 38.89302033333333, "rental_uris": {"ios": "https://dc.lft.to/lastmile_qr_scan", "android": "https://dc.lft.to/lastmile_qr_scan"}, "is_reserved": 0, "fusion_lon": 0.0, "fusion_lat": 0.0, "lon": -77.04677866666667, "name": "bf7850e78bf837c95de5219a611a14c3"}, {"bike_id": "4e5b216e17b6d1c4bc71d93845d01713", "type": "electric_scooter", "is_disabled": 0, "lat": 38.912599, "rental_uris": {"ios": "https://dc.lft.to/lastmile_qr_scan", "android": "https://dc.lft.to/lastmile_qr_scan"}, "is_reserved": 0, "fusion_lon": 0.0, "fusion_lat": 0.0, "lon": -77.067956, "name": "4e5b216e17b6d1c4bc71d93845d01713"}, {"bike_id": "6f69b8bb5ba730accdd222d30656ebcb", "type": "electric_scooter", "is_disabled": 0, "lat": 38.91475116666667, "rental_uris": {"ios": "https://dc.lft.to/lastmile_qr_scan", "android": "https://dc.lft.to/lastmile_qr_scan"}, "is_reserved": 0, "fusion_lon": 0.0, "fusion_lat": 0.0, "lon": -77.00287983333334, "name": "6f69b8bb5ba730accdd222d30656ebcb"}, {"bike_id": "c8b6698d1819e25af3a8a56bdfe691dc", "type": "electric_scooter", "is_disabled": 0, "lat": 38.939538, "rental_uris": {"ios": "https://dc.lft.to/lastmile_qr_scan", "android": "https://dc.lft.to/lastmile_qr_scan"}, "is_reserved": 0, "fusion_lon": 0.0, "fusion_lat": 0.0, "lon": -77.0725735, "name": "c8b6698d1819e25af3a8a56bdfe691dc"}, {"bike_id": "b161239eae876344f9d7716512f3f5fc", "type": "electric_scooter", "is_disabled": 0, "lat": 38.908506833333334, "rental_uris": {"ios": "https://dc.lft.to/lastmile_qr_scan", "android": "https://dc.lft.to/lastmile_qr_scan"}, "is_reserved": 0, "fusion_lon": 0.0, "fusion_lat": 0.0, "lon": -76.999779, "name": "b161239eae876344f9d7716512f3f5fc"}, {"bike_id": "680234d5bd5b09e12b88dd8e286cbc65", "type": "electric_scooter", "is_disabled": 0, "lat": 38.88027016666667, "rental_uris": {"ios": "https://dc.lft.to/lastmile_qr_scan", "android": "https://dc.lft.to/lastmile_qr_scan"}, "is_reserved": 0, "fusion_lon": 0.0, "fusion_lat": 0.0, "lon": -77.00603083333333, "name": "680234d5bd5b09e12b88dd8e286cbc65"}, {"bike_id": "186c3a5c061cb951150ac558335a41c2", "type": "electric_scooter", "is_disabled": 0, "lat": 38.86503533333333, "rental_uris": {"ios": "https://dc.lft.to/lastmile_qr_scan", "android": "https://dc.lft.to/lastmile_qr_scan"}, "is_reserved": 0, "fusion_lon": 0.0, "fusion_lat": 0.0, "lon": -76.99004733333334, "name": "186c3a5c061cb951150ac558335a41c2"}, {"bike_id": "523be0722a3d2b1775ff6c03efb52494", "type": "electric_scooter", "is_disabled": 0, "lat": 38.92334866666667, "rental_uris": {"ios": "https://dc.lft.to/lastmile_qr_scan", "android": "https://dc.lft.to/lastmile_qr_scan"}, "is_reserved": 0, "fusion_lon": 0.0, "fusion_lat": 0.0, "lon": -77.03537166666666, "name": "523be0722a3d2b1775ff6c03efb52494"}, {"bike_id": "adf59abe4f3290b684be53011ee79d0f", "type": "electric_scooter", "is_disabled": 0, "lat": 38.903241, "rental_uris": {"ios": "https://dc.lft.to/lastmile_qr_scan", "android": "https://dc.lft.to/lastmile_qr_scan"}, "is_reserved": 0, "fusion_lon": 0.0, "fusion_lat": 0.0, "lon": -76.9829715, "name": "adf59abe4f3290b684be53011ee79d0f"}, {"bike_id": "cc9bc448e73ea7a7bba59c6b2168cfa0", "type": "electric_scooter", "is_disabled": 0, "lat": 38.905572166666666, "rental_uris": {"ios": "https://dc.lft.to/lastmile_qr_scan", "android": "https://dc.lft.to/lastmile_qr_scan"}, "is_reserved": 0, "fusion_lon": 0.0, "fusion_lat": 0.0, "lon": -77.01469, "name": "cc9bc448e73ea7a7bba59c6b2168cfa0"}, {"bike_id": "aaf0760332102cf995e66d808bb96e31", "type": "electric_scooter", "is_disabled": 0, "lat": 38.92047866666667, "rental_uris": {"ios": "https://dc.lft.to/lastmile_qr_scan", "android": "https://dc.lft.to/lastmile_qr_scan"}, "is_reserved": 0, "fusion_lon": 0.0, "fusion_lat": 0.0, "lon": -77.02444666666666, "name": "aaf0760332102cf995e66d808bb96e31"}, {"bike_id": "bc54754308b419c856a8c0c6ac2ef299", "type": "electric_scooter", "is_disabled": 0, "lat": 38.9161085, "rental_uris": {"ios": "https://dc.lft.to/lastmile_qr_scan", "android": "https://dc.lft.to/lastmile_qr_scan"}, "is_reserved": 0, "fusion_lon": 0.0, "fusion_lat": 0.0, "lon": -77.03393516666667, "name": "bc54754308b419c856a8c0c6ac2ef299"}, {"bike_id": "3a8ce85996117df07dde77a73095b995", "type": "electric_scooter", "is_disabled": 0, "lat": 38.92395066666667, "rental_uris": {"ios": "https://dc.lft.to/lastmile_qr_scan", "android": "https://dc.lft.to/lastmile_qr_scan"}, "is_reserved": 0, "fusion_lon": 0.0, "fusion_lat": 0.0, "lon": -77.04474633333334, "name": "3a8ce85996117df07dde77a73095b995"}, {"bike_id": "0cf07e33064b5930abe90f876721168f", "type": "electric_scooter", "is_disabled": 0, "lat": 38.90746166666667, "rental_uris": {"ios": "https://dc.lft.to/lastmile_qr_scan", "android": "https://dc.lft.to/lastmile_qr_scan"}, "is_reserved": 0, "fusion_lon": 0.0, "fusion_lat": 0.0, "lon": -77.0417845, "name": "0cf07e33064b5930abe90f876721168f"}, {"bike_id": "82f45084731eec40ffb2b1aaa2eded8f", "type": "electric_scooter", "is_disabled": 0, "lat": 38.90059983333333, "rental_uris": {"ios": "https://dc.lft.to/lastmile_qr_scan", "android": "https://dc.lft.to/lastmile_qr_scan"}, "is_reserved": 0, "fusion_lon": 0.0, "fusion_lat": 0.0, "lon": -76.9274495, "name": "82f45084731eec40ffb2b1aaa2eded8f"}, {"bike_id": "367c2e1943eb9e1e0aebd62d7bbca18d", "type": "electric_scooter", "is_disabled": 0, "lat": 38.91351566666667, "rental_uris": {"ios": "https://dc.lft.to/lastmile_qr_scan", "android": "https://dc.lft.to/lastmile_qr_scan"}, "is_reserved": 0, "fusion_lon": 0.0, "fusion_lat": 0.0, "lon": -77.03185483333333, "name": "367c2e1943eb9e1e0aebd62d7bbca18d"}, {"bike_id": "602f0d3fca76cd403392e5b20a930c73", "type": "electric_scooter", "is_disabled": 0, "lat": 38.93751283333334, "rental_uris": {"ios": "https://dc.lft.to/lastmile_qr_scan", "android": "https://dc.lft.to/lastmile_qr_scan"}, "is_reserved": 0, "fusion_lon": 0.0, "fusion_lat": 0.0, "lon": -77.024591, "name": "602f0d3fca76cd403392e5b20a930c73"}, {"bike_id": "7f410237181c83579f9bd337710af65a", "type": "electric_scooter", "is_disabled": 0, "lat": 38.902723, "rental_uris": {"ios": "https://dc.lft.to/lastmile_qr_scan", "android": "https://dc.lft.to/lastmile_qr_scan"}, "is_reserved": 0, "fusion_lon": 0.0, "fusion_lat": 0.0, "lon": -77.04478083333333, "name": "7f410237181c83579f9bd337710af65a"}, {"bike_id": "680cf1993db67f26c1db0aa9d5949dc8", "type": "electric_scooter", "is_disabled": 0, "lat": 38.92081966666667, "rental_uris": {"ios": "https://dc.lft.to/lastmile_qr_scan", "android": "https://dc.lft.to/lastmile_qr_scan"}, "is_reserved": 0, "fusion_lon": 0.0, "fusion_lat": 0.0, "lon": -77.0238455, "name": "680cf1993db67f26c1db0aa9d5949dc8"}, {"bike_id": "3acbf1b16cacc51f6af228bf366ce275", "type": "electric_scooter", "is_disabled": 0, "lat": 38.905014666666666, "rental_uris": {"ios": "https://dc.lft.to/lastmile_qr_scan", "android": "https://dc.lft.to/lastmile_qr_scan"}, "is_reserved": 0, "fusion_lon": 0.0, "fusion_lat": 0.0, "lon": -77.06884583333333, "name": "3acbf1b16cacc51f6af228bf366ce275"}, {"bike_id": "68fe02912e50f0bfd035ab98d86647ca", "type": "electric_scooter", "is_disabled": 0, "lat": 38.929559, "rental_uris": {"ios": "https://dc.lft.to/lastmile_qr_scan", "android": "https://dc.lft.to/lastmile_qr_scan"}, "is_reserved": 0, "fusion_lon": 0.0, "fusion_lat": 0.0, "lon": -77.04408816666667, "name": "68fe02912e50f0bfd035ab98d86647ca"}, {"bike_id": "9addb927332a13989b7eb36d0981e06d", "type": "electric_scooter", "is_disabled": 0, "lat": 38.871774, "rental_uris": {"ios": "https://dc.lft.to/lastmile_qr_scan", "android": "https://dc.lft.to/lastmile_qr_scan"}, "is_reserved": 0, "fusion_lon": 0.0, "fusion_lat": 0.0, "lon": -77.00625216666667, "name": "9addb927332a13989b7eb36d0981e06d"}, {"bike_id": "f911ba903366f9754ce2bc9e7cf54709", "type": "electric_scooter", "is_disabled": 0, "lat": 38.904864833333335, "rental_uris": {"ios": "https://dc.lft.to/lastmile_qr_scan", "android": "https://dc.lft.to/lastmile_qr_scan"}, "is_reserved": 0, "fusion_lon": 0.0, "fusion_lat": 0.0, "lon": -77.056623, "name": "f911ba903366f9754ce2bc9e7cf54709"}, {"bike_id": "7afc374b7424f9a07aa881e8cefca4c5", "type": "electric_bike", "is_disabled": 0, "lat": 38.932251666666666, "rental_uris": {"ios": "https://dc.lft.to/lastmile_qr_scan", "android": "https://dc.lft.to/lastmile_qr_scan"}, "is_reserved": 0, "fusion_lon": 0.0, "fusion_lat": 0.0, "lon": -77.18127333333334, "name": "7afc374b7424f9a07aa881e8cefca4c5"}, {"bike_id": "c9c49095ff602c61aeea15d9ddc0da34", "type": "electric_scooter", "is_disabled": 0, "lat": 38.91428033333333, "rental_uris": {"ios": "https://dc.lft.to/lastmile_qr_scan", "android": "https://dc.lft.to/lastmile_qr_scan"}, "is_reserved": 0, "fusion_lon": 0.0, "fusion_lat": 0.0, "lon": -77.032142, "name": "c9c49095ff602c61aeea15d9ddc0da34"}, {"bike_id": "0d11df033053165f6852bd56315fbbcf", "type": "electric_scooter", "is_disabled": 0, "lat": 38.91298183333333, "rental_uris": {"ios": "https://dc.lft.to/lastmile_qr_scan", "android": "https://dc.lft.to/lastmile_qr_scan"}, "is_reserved": 0, "fusion_lon": 0.0, "fusion_lat": 0.0, "lon": -77.0169935, "name": "0d11df033053165f6852bd56315fbbcf"}, {"bike_id": "d80507297f7b477e04519670b0010514", "type": "electric_scooter", "is_disabled": 0, "lat": 38.936905333333335, "rental_uris": {"ios": "https://dc.lft.to/lastmile_qr_scan", "android": "https://dc.lft.to/lastmile_qr_scan"}, "is_reserved": 0, "fusion_lon": 0.0, "fusion_lat": 0.0, "lon": -77.02398566666666, "name": "d80507297f7b477e04519670b0010514"}, {"bike_id": "74bb24273ef594419d51bc950eb21bd4", "type": "electric_scooter", "is_disabled": 0, "lat": 38.916374, "rental_uris": {"ios": "https://dc.lft.to/lastmile_qr_scan", "android": "https://dc.lft.to/lastmile_qr_scan"}, "is_reserved": 0, "fusion_lon": 0.0, "fusion_lat": 0.0, "lon": -77.02276566666667, "name": "74bb24273ef594419d51bc950eb21bd4"}, {"bike_id": "15df5d4cf50d96c38ecb2af8f94ad34a", "type": "electric_bike", "is_disabled": 0, "lat": 38.88246916666667, "rental_uris": {"ios": "https://dc.lft.to/lastmile_qr_scan", "android": "https://dc.lft.to/lastmile_qr_scan"}, "is_reserved": 0, "fusion_lon": 0.0, "fusion_lat": 0.0, "lon": -76.96267916666666, "name": "15df5d4cf50d96c38ecb2af8f94ad34a"}, {"bike_id": "5707b27b07c69586ca5cefef9049e8ac", "type": "electric_scooter", "is_disabled": 0, "lat": 38.904635666666664, "rental_uris": {"ios": "https://dc.lft.to/lastmile_qr_scan", "android": "https://dc.lft.to/lastmile_qr_scan"}, "is_reserved": 0, "fusion_lon": 0.0, "fusion_lat": 0.0, "lon": -76.97609283333334, "name": "5707b27b07c69586ca5cefef9049e8ac"}, {"bike_id": "c9e49e91c67860e9660aea95b31475a7", "type": "electric_scooter", "is_disabled": 0, "lat": 38.934105833333334, "rental_uris": {"ios": "https://dc.lft.to/lastmile_qr_scan", "android": "https://dc.lft.to/lastmile_qr_scan"}, "is_reserved": 0, "fusion_lon": 0.0, "fusion_lat": 0.0, "lon": -77.04153533333333, "name": "c9e49e91c67860e9660aea95b31475a7"}, {"bike_id": "64b9a6658762066a2841af26670ff047", "type": "electric_scooter", "is_disabled": 0, "lat": 38.92107216666667, "rental_uris": {"ios": "https://dc.lft.to/lastmile_qr_scan", "android": "https://dc.lft.to/lastmile_qr_scan"}, "is_reserved": 0, "fusion_lon": 0.0, "fusion_lat": 0.0, "lon": -77.03172016666667, "name": "64b9a6658762066a2841af26670ff047"}, {"bike_id": "05fad999b0de6554b1b5b3bfc10c4069", "type": "electric_scooter", "is_disabled": 0, "lat": 38.900267, "rental_uris": {"ios": "https://dc.lft.to/lastmile_qr_scan", "android": "https://dc.lft.to/lastmile_qr_scan"}, "is_reserved": 0, "fusion_lon": 0.0, "fusion_lat": 0.0, "lon": -77.00379783333334, "name": "05fad999b0de6554b1b5b3bfc10c4069"}, {"bike_id": "930e1aa272e0bc33da06bd7a55cb35f7", "type": "electric_scooter", "is_disabled": 0, "lat": 38.9225115, "rental_uris": {"ios": "https://dc.lft.to/lastmile_qr_scan", "android": "https://dc.lft.to/lastmile_qr_scan"}, "is_reserved": 0, "fusion_lon": 0.0, "fusion_lat": 0.0, "lon": -77.04211683333334, "name": "930e1aa272e0bc33da06bd7a55cb35f7"}, {"bike_id": "582df96777d316d324e7dfcb3377fa6d", "type": "electric_scooter", "is_disabled": 0, "lat": 38.86209366666667, "rental_uris": {"ios": "https://dc.lft.to/lastmile_qr_scan", "android": "https://dc.lft.to/lastmile_qr_scan"}, "is_reserved": 0, "fusion_lon": 0.0, "fusion_lat": 0.0, "lon": -76.99469983333333, "name": "582df96777d316d324e7dfcb3377fa6d"}, {"bike_id": "076896f1b6e24cea7855586d73b61aae", "type": "electric_scooter", "is_disabled": 0, "lat": 38.93454366666667, "rental_uris": {"ios": "https://dc.lft.to/lastmile_qr_scan", "android": "https://dc.lft.to/lastmile_qr_scan"}, "is_reserved": 0, "fusion_lon": 0.0, "fusion_lat": 0.0, "lon": -77.02804833333333, "name": "076896f1b6e24cea7855586d73b61aae"}, {"bike_id": "a52cbcdd5c1cefdb19eccaae5b6af6e0", "type": "electric_scooter", "is_disabled": 0, "lat": 38.94761066666667, "rental_uris": {"ios": "https://dc.lft.to/lastmile_qr_scan", "android": "https://dc.lft.to/lastmile_qr_scan"}, "is_reserved": 0, "fusion_lon": 0.0, "fusion_lat": 0.0, "lon": -77.06572783333333, "name": "a52cbcdd5c1cefdb19eccaae5b6af6e0"}, {"bike_id": "1757b0a2fd711fb086620ac21370a1a1", "type": "electric_scooter", "is_disabled": 0, "lat": 38.929046166666666, "rental_uris": {"ios": "https://dc.lft.to/lastmile_qr_scan", "android": "https://dc.lft.to/lastmile_qr_scan"}, "is_reserved": 0, "fusion_lon": 0.0, "fusion_lat": 0.0, "lon": -77.03284066666667, "name": "1757b0a2fd711fb086620ac21370a1a1"}, {"bike_id": "d7030625ba8b9f2afdc248d9cbb180fe", "type": "electric_scooter", "is_disabled": 0, "lat": 38.90837416666667, "rental_uris": {"ios": "https://dc.lft.to/lastmile_qr_scan", "android": "https://dc.lft.to/lastmile_qr_scan"}, "is_reserved": 0, "fusion_lon": 0.0, "fusion_lat": 0.0, "lon": -77.04164066666667, "name": "d7030625ba8b9f2afdc248d9cbb180fe"}, {"bike_id": "16d0b9d0fe480edb53d642a1038017fc", "type": "electric_scooter", "is_disabled": 0, "lat": 38.900384, "rental_uris": {"ios": "https://dc.lft.to/lastmile_qr_scan", "android": "https://dc.lft.to/lastmile_qr_scan"}, "is_reserved": 0, "fusion_lon": 0.0, "fusion_lat": 0.0, "lon": -77.03519766666666, "name": "16d0b9d0fe480edb53d642a1038017fc"}, {"bike_id": "d8b6e16cbfab0d97ea1bde5a3363d59e", "type": "electric_scooter", "is_disabled": 0, "lat": 38.881523666666666, "rental_uris": {"ios": "https://dc.lft.to/lastmile_qr_scan", "android": "https://dc.lft.to/lastmile_qr_scan"}, "is_reserved": 0, "fusion_lon": 0.0, "fusion_lat": 0.0, "lon": -77.027561, "name": "d8b6e16cbfab0d97ea1bde5a3363d59e"}, {"bike_id": "3241562d5a442d4c2d7e84a238f4845c", "type": "electric_scooter", "is_disabled": 0, "lat": 38.916172333333336, "rental_uris": {"ios": "https://dc.lft.to/lastmile_qr_scan", "android": "https://dc.lft.to/lastmile_qr_scan"}, "is_reserved": 0, "fusion_lon": 0.0, "fusion_lat": 0.0, "lon": -77.02298516666667, "name": "3241562d5a442d4c2d7e84a238f4845c"}, {"bike_id": "f8fe09146a7bbdcaa59fa0797e72500b", "type": "electric_scooter", "is_disabled": 0, "lat": 38.9225725, "rental_uris": {"ios": "https://dc.lft.to/lastmile_qr_scan", "android": "https://dc.lft.to/lastmile_qr_scan"}, "is_reserved": 0, "fusion_lon": 0.0, "fusion_lat": 0.0, "lon": -77.03394933333334, "name": "f8fe09146a7bbdcaa59fa0797e72500b"}, {"bike_id": "eb1208b794b4cfde55bfe3c1564518ab", "type": "electric_scooter", "is_disabled": 0, "lat": 38.90278266666667, "rental_uris": {"ios": "https://dc.lft.to/lastmile_qr_scan", "android": "https://dc.lft.to/lastmile_qr_scan"}, "is_reserved": 0, "fusion_lon": 0.0, "fusion_lat": 0.0, "lon": -77.038531, "name": "eb1208b794b4cfde55bfe3c1564518ab"}, {"bike_id": "46d828048089c16dec810e1cdd0da700", "type": "electric_scooter", "is_disabled": 0, "lat": 38.901221666666665, "rental_uris": {"ios": "https://dc.lft.to/lastmile_qr_scan", "android": "https://dc.lft.to/lastmile_qr_scan"}, "is_reserved": 0, "fusion_lon": 0.0, "fusion_lat": 0.0, "lon": -77.0406125, "name": "46d828048089c16dec810e1cdd0da700"}, {"bike_id": "dda165b45c6e9633c1830b10be492329", "type": "electric_scooter", "is_disabled": 0, "lat": 38.905825666666665, "rental_uris": {"ios": "https://dc.lft.to/lastmile_qr_scan", "android": "https://dc.lft.to/lastmile_qr_scan"}, "is_reserved": 0, "fusion_lon": 0.0, "fusion_lat": 0.0, "lon": -77.029994, "name": "dda165b45c6e9633c1830b10be492329"}, {"bike_id": "6a90e6b3c4e5f1669de3f3d123fb92f6", "type": "electric_scooter", "is_disabled": 0, "lat": 38.89403733333333, "rental_uris": {"ios": "https://dc.lft.to/lastmile_qr_scan", "android": "https://dc.lft.to/lastmile_qr_scan"}, "is_reserved": 0, "fusion_lon": 0.0, "fusion_lat": 0.0, "lon": -77.0212365, "name": "6a90e6b3c4e5f1669de3f3d123fb92f6"}, {"bike_id": "ad73b0a19447063d55109a338ae2b374", "type": "electric_scooter", "is_disabled": 0, "lat": 38.92751466666667, "rental_uris": {"ios": "https://dc.lft.to/lastmile_qr_scan", "android": "https://dc.lft.to/lastmile_qr_scan"}, "is_reserved": 0, "fusion_lon": 0.0, "fusion_lat": 0.0, "lon": -77.02535116666667, "name": "ad73b0a19447063d55109a338ae2b374"}, {"bike_id": "1754825c8dfcfc5a5ee560cfcd3a20ed", "type": "electric_scooter", "is_disabled": 0, "lat": 38.9267685, "rental_uris": {"ios": "https://dc.lft.to/lastmile_qr_scan", "android": "https://dc.lft.to/lastmile_qr_scan"}, "is_reserved": 0, "fusion_lon": 0.0, "fusion_lat": 0.0, "lon": -77.03782483333333, "name": "1754825c8dfcfc5a5ee560cfcd3a20ed"}, {"bike_id": "ac5045205f962670f3b7b8e586f9e829", "type": "electric_scooter", "is_disabled": 0, "lat": 38.909122833333335, "rental_uris": {"ios": "https://dc.lft.to/lastmile_qr_scan", "android": "https://dc.lft.to/lastmile_qr_scan"}, "is_reserved": 0, "fusion_lon": 0.0, "fusion_lat": 0.0, "lon": -77.073883, "name": "ac5045205f962670f3b7b8e586f9e829"}, {"bike_id": "46c90d52b568526b34dde9fadd6ef11d", "type": "electric_scooter", "is_disabled": 0, "lat": 38.93675483333333, "rental_uris": {"ios": "https://dc.lft.to/lastmile_qr_scan", "android": "https://dc.lft.to/lastmile_qr_scan"}, "is_reserved": 0, "fusion_lon": 0.0, "fusion_lat": 0.0, "lon": -77.035996, "name": "46c90d52b568526b34dde9fadd6ef11d"}, {"bike_id": "a4113baf063e4772e93b7b801842974d", "type": "electric_bike", "is_disabled": 0, "lat": 38.91845166666667, "rental_uris": {"ios": "https://dc.lft.to/lastmile_qr_scan", "android": "https://dc.lft.to/lastmile_qr_scan"}, "is_reserved": 0, "fusion_lon": 0.0, "fusion_lat": 0.0, "lon": -77.023974, "name": "a4113baf063e4772e93b7b801842974d"}, {"bike_id": "986936acc881c3882409f619cb3bed63", "type": "electric_scooter", "is_disabled": 0, "lat": 38.9285415, "rental_uris": {"ios": "https://dc.lft.to/lastmile_qr_scan", "android": "https://dc.lft.to/lastmile_qr_scan"}, "is_reserved": 0, "fusion_lon": 0.0, "fusion_lat": 0.0, "lon": -77.0325, "name": "986936acc881c3882409f619cb3bed63"}, {"bike_id": "eafa7f1d99459175f5e447025a1751eb", "type": "electric_bike", "is_disabled": 0, "lat": 38.85352966666667, "rental_uris": {"ios": "https://dc.lft.to/lastmile_qr_scan", "android": "https://dc.lft.to/lastmile_qr_scan"}, "is_reserved": 0, "fusion_lon": 0.0, "fusion_lat": 0.0, "lon": -77.13466783333334, "name": "eafa7f1d99459175f5e447025a1751eb"}, {"bike_id": "468301aaff2f4f9fbc3ddadd989320d0", "type": "electric_scooter", "is_disabled": 0, "lat": 38.9140475, "rental_uris": {"ios": "https://dc.lft.to/lastmile_qr_scan", "android": "https://dc.lft.to/lastmile_qr_scan"}, "is_reserved": 0, "fusion_lon": 0.0, "fusion_lat": 0.0, "lon": -77.03036433333334, "name": "468301aaff2f4f9fbc3ddadd989320d0"}, {"bike_id": "0310b05ded1029d362a79bb64f7259de", "type": "electric_scooter", "is_disabled": 0, "lat": 38.91192266666667, "rental_uris": {"ios": "https://dc.lft.to/lastmile_qr_scan", "android": "https://dc.lft.to/lastmile_qr_scan"}, "is_reserved": 0, "fusion_lon": 0.0, "fusion_lat": 0.0, "lon": -77.03465933333334, "name": "0310b05ded1029d362a79bb64f7259de"}, {"bike_id": "0f266ea17f9a95ff46c09af037f3bd2b", "type": "electric_scooter", "is_disabled": 0, "lat": 38.942903, "rental_uris": {"ios": "https://dc.lft.to/lastmile_qr_scan", "android": "https://dc.lft.to/lastmile_qr_scan"}, "is_reserved": 0, "fusion_lon": 0.0, "fusion_lat": 0.0, "lon": -77.021799, "name": "0f266ea17f9a95ff46c09af037f3bd2b"}, {"bike_id": "fb82a5e4612eb7615c92c0de10967144", "type": "electric_scooter", "is_disabled": 0, "lat": 38.91414233333333, "rental_uris": {"ios": "https://dc.lft.to/lastmile_qr_scan", "android": "https://dc.lft.to/lastmile_qr_scan"}, "is_reserved": 0, "fusion_lon": 0.0, "fusion_lat": 0.0, "lon": -77.02986983333334, "name": "fb82a5e4612eb7615c92c0de10967144"}, {"bike_id": "6202f4aa6ffb479b2641e9ddcb51e289", "type": "electric_scooter", "is_disabled": 0, "lat": 38.89590583333333, "rental_uris": {"ios": "https://dc.lft.to/lastmile_qr_scan", "android": "https://dc.lft.to/lastmile_qr_scan"}, "is_reserved": 0, "fusion_lon": 0.0, "fusion_lat": 0.0, "lon": -77.00511633333333, "name": "6202f4aa6ffb479b2641e9ddcb51e289"}, {"bike_id": "e687b3cea01a649a54b00a95198aad9d", "type": "electric_scooter", "is_disabled": 0, "lat": 38.902865, "rental_uris": {"ios": "https://dc.lft.to/lastmile_qr_scan", "android": "https://dc.lft.to/lastmile_qr_scan"}, "is_reserved": 0, "fusion_lon": 0.0, "fusion_lat": 0.0, "lon": -76.990434, "name": "e687b3cea01a649a54b00a95198aad9d"}, {"bike_id": "56f96e58a6a0daaa1a9a4096d6d45ed7", "type": "electric_scooter", "is_disabled": 0, "lat": 38.900945, "rental_uris": {"ios": "https://dc.lft.to/lastmile_qr_scan", "android": "https://dc.lft.to/lastmile_qr_scan"}, "is_reserved": 0, "fusion_lon": 0.0, "fusion_lat": 0.0, "lon": -77.01766416666666, "name": "56f96e58a6a0daaa1a9a4096d6d45ed7"}, {"bike_id": "37d13a656b5c3fd5d67719679dfd2a62", "type": "electric_scooter", "is_disabled": 0, "lat": 38.92474466666667, "rental_uris": {"ios": "https://dc.lft.to/lastmile_qr_scan", "android": "https://dc.lft.to/lastmile_qr_scan"}, "is_reserved": 0, "fusion_lon": 0.0, "fusion_lat": 0.0, "lon": -77.02768816666666, "name": "37d13a656b5c3fd5d67719679dfd2a62"}, {"bike_id": "51cf8cc31d3c7e7a2c38ac94a3fb391c", "type": "electric_scooter", "is_disabled": 0, "lat": 38.907162166666666, "rental_uris": {"ios": "https://dc.lft.to/lastmile_qr_scan", "android": "https://dc.lft.to/lastmile_qr_scan"}, "is_reserved": 0, "fusion_lon": 0.0, "fusion_lat": 0.0, "lon": -77.02401016666667, "name": "51cf8cc31d3c7e7a2c38ac94a3fb391c"}, {"bike_id": "5d8b2f44d35e4bf9065df4092c2c9bfd", "type": "electric_scooter", "is_disabled": 0, "lat": 38.92480666666667, "rental_uris": {"ios": "https://dc.lft.to/lastmile_qr_scan", "android": "https://dc.lft.to/lastmile_qr_scan"}, "is_reserved": 0, "fusion_lon": 0.0, "fusion_lat": 0.0, "lon": -77.0272145, "name": "5d8b2f44d35e4bf9065df4092c2c9bfd"}, {"bike_id": "13ca0c13d9bbf6110dba9a6165798753", "type": "electric_scooter", "is_disabled": 0, "lat": 38.921414166666665, "rental_uris": {"ios": "https://dc.lft.to/lastmile_qr_scan", "android": "https://dc.lft.to/lastmile_qr_scan"}, "is_reserved": 0, "fusion_lon": 0.0, "fusion_lat": 0.0, "lon": -77.04130083333334, "name": "13ca0c13d9bbf6110dba9a6165798753"}, {"bike_id": "309dfce90a4ce7796c3066804f298a67", "type": "electric_scooter", "is_disabled": 0, "lat": 38.91111816666667, "rental_uris": {"ios": "https://dc.lft.to/lastmile_qr_scan", "android": "https://dc.lft.to/lastmile_qr_scan"}, "is_reserved": 0, "fusion_lon": 0.0, "fusion_lat": 0.0, "lon": -77.03842216666666, "name": "309dfce90a4ce7796c3066804f298a67"}, {"bike_id": "df3948c1eaf17fd8610aa87ce56803ec", "type": "electric_scooter", "is_disabled": 0, "lat": 38.93475766666667, "rental_uris": {"ios": "https://dc.lft.to/lastmile_qr_scan", "android": "https://dc.lft.to/lastmile_qr_scan"}, "is_reserved": 0, "fusion_lon": 0.0, "fusion_lat": 0.0, "lon": -77.072817, "name": "df3948c1eaf17fd8610aa87ce56803ec"}, {"bike_id": "1d7cb25b534cdf0ca1b2b55d53ba2c9b", "type": "electric_scooter", "is_disabled": 0, "lat": 38.92500166666667, "rental_uris": {"ios": "https://dc.lft.to/lastmile_qr_scan", "android": "https://dc.lft.to/lastmile_qr_scan"}, "is_reserved": 0, "fusion_lon": 0.0, "fusion_lat": 0.0, "lon": -77.03799333333333, "name": "1d7cb25b534cdf0ca1b2b55d53ba2c9b"}, {"bike_id": "d293f578f49528f658b16a5a9fb45fdb", "type": "electric_bike", "is_disabled": 0, "lat": 38.908645, "rental_uris": {"ios": "https://dc.lft.to/lastmile_qr_scan", "android": "https://dc.lft.to/lastmile_qr_scan"}, "is_reserved": 0, "fusion_lon": 0.0, "fusion_lat": 0.0, "lon": -76.99141533333334, "name": "d293f578f49528f658b16a5a9fb45fdb"}, {"bike_id": "be7ca4369e5a24943db20e3f8cf4854d", "type": "electric_scooter", "is_disabled": 0, "lat": 38.92244016666667, "rental_uris": {"ios": "https://dc.lft.to/lastmile_qr_scan", "android": "https://dc.lft.to/lastmile_qr_scan"}, "is_reserved": 0, "fusion_lon": 0.0, "fusion_lat": 0.0, "lon": -77.07314916666667, "name": "be7ca4369e5a24943db20e3f8cf4854d"}, {"bike_id": "67b530a76445ef84cfc9f85ba4bc6fe0", "type": "electric_scooter", "is_disabled": 0, "lat": 38.8764995, "rental_uris": {"ios": "https://dc.lft.to/lastmile_qr_scan", "android": "https://dc.lft.to/lastmile_qr_scan"}, "is_reserved": 0, "fusion_lon": 0.0, "fusion_lat": 0.0, "lon": -76.96510816666667, "name": "67b530a76445ef84cfc9f85ba4bc6fe0"}, {"bike_id": "9b85833c7f7a1bb617c7b9fe41a0dfc4", "type": "electric_scooter", "is_disabled": 0, "lat": 38.919644, "rental_uris": {"ios": "https://dc.lft.to/lastmile_qr_scan", "android": "https://dc.lft.to/lastmile_qr_scan"}, "is_reserved": 0, "fusion_lon": 0.0, "fusion_lat": 0.0, "lon": -77.04213066666667, "name": "9b85833c7f7a1bb617c7b9fe41a0dfc4"}, {"bike_id": "9a19ed0df8e274b4d70ea0a309ac63db", "type": "electric_scooter", "is_disabled": 0, "lat": 38.9049475, "rental_uris": {"ios": "https://dc.lft.to/lastmile_qr_scan", "android": "https://dc.lft.to/lastmile_qr_scan"}, "is_reserved": 0, "fusion_lon": 0.0, "fusion_lat": 0.0, "lon": -77.01996616666666, "name": "9a19ed0df8e274b4d70ea0a309ac63db"}, {"bike_id": "9d43889023fe7239f47610ee862ac1b6", "type": "electric_scooter", "is_disabled": 0, "lat": 38.9169285, "rental_uris": {"ios": "https://dc.lft.to/lastmile_qr_scan", "android": "https://dc.lft.to/lastmile_qr_scan"}, "is_reserved": 0, "fusion_lon": 0.0, "fusion_lat": 0.0, "lon": -77.02340383333333, "name": "9d43889023fe7239f47610ee862ac1b6"}, {"bike_id": "d6c31e7911213c78c41f1c21a7d00174", "type": "electric_scooter", "is_disabled": 0, "lat": 38.89549933333333, "rental_uris": {"ios": "https://dc.lft.to/lastmile_qr_scan", "android": "https://dc.lft.to/lastmile_qr_scan"}, "is_reserved": 0, "fusion_lon": 0.0, "fusion_lat": 0.0, "lon": -77.01108866666667, "name": "d6c31e7911213c78c41f1c21a7d00174"}, {"bike_id": "04b0617a5330db3e3d24e3df5a770f5a", "type": "electric_scooter", "is_disabled": 0, "lat": 38.92485833333333, "rental_uris": {"ios": "https://dc.lft.to/lastmile_qr_scan", "android": "https://dc.lft.to/lastmile_qr_scan"}, "is_reserved": 0, "fusion_lon": 0.0, "fusion_lat": 0.0, "lon": -77.05217783333333, "name": "04b0617a5330db3e3d24e3df5a770f5a"}, {"bike_id": "8d95b8c204097d9090783a897319be62", "type": "electric_bike", "is_disabled": 0, "lat": 38.80413016666667, "rental_uris": {"ios": "https://dc.lft.to/lastmile_qr_scan", "android": "https://dc.lft.to/lastmile_qr_scan"}, "is_reserved": 0, "fusion_lon": 0.0, "fusion_lat": 0.0, "lon": -77.05559583333333, "name": "8d95b8c204097d9090783a897319be62"}, {"bike_id": "7167422641e1d51edb768e243afca36e", "type": "electric_scooter", "is_disabled": 0, "lat": 38.928389, "rental_uris": {"ios": "https://dc.lft.to/lastmile_qr_scan", "android": "https://dc.lft.to/lastmile_qr_scan"}, "is_reserved": 0, "fusion_lon": 0.0, "fusion_lat": 0.0, "lon": -77.0275105, "name": "7167422641e1d51edb768e243afca36e"}, {"bike_id": "b3bb72e40afeedd374a07f998da3df00", "type": "electric_scooter", "is_disabled": 0, "lat": 38.92252583333333, "rental_uris": {"ios": "https://dc.lft.to/lastmile_qr_scan", "android": "https://dc.lft.to/lastmile_qr_scan"}, "is_reserved": 0, "fusion_lon": 0.0, "fusion_lat": 0.0, "lon": -77.03905066666667, "name": "b3bb72e40afeedd374a07f998da3df00"}, {"bike_id": "2e6f4511ad29fb0e04d70b612924996a", "type": "electric_scooter", "is_disabled": 0, "lat": 38.92272116666667, "rental_uris": {"ios": "https://dc.lft.to/lastmile_qr_scan", "android": "https://dc.lft.to/lastmile_qr_scan"}, "is_reserved": 0, "fusion_lon": 0.0, "fusion_lat": 0.0, "lon": -76.99454733333333, "name": "2e6f4511ad29fb0e04d70b612924996a"}, {"bike_id": "cedfc740c37c2d8840524c799d734189", "type": "electric_scooter", "is_disabled": 0, "lat": 38.908315, "rental_uris": {"ios": "https://dc.lft.to/lastmile_qr_scan", "android": "https://dc.lft.to/lastmile_qr_scan"}, "is_reserved": 0, "fusion_lon": 0.0, "fusion_lat": 0.0, "lon": -77.00156216666667, "name": "cedfc740c37c2d8840524c799d734189"}, {"bike_id": "ba9240bb85accda434f6c9d510125866", "type": "electric_scooter", "is_disabled": 0, "lat": 38.90551966666666, "rental_uris": {"ios": "https://dc.lft.to/lastmile_qr_scan", "android": "https://dc.lft.to/lastmile_qr_scan"}, "is_reserved": 0, "fusion_lon": 0.0, "fusion_lat": 0.0, "lon": -76.99623133333333, "name": "ba9240bb85accda434f6c9d510125866"}, {"bike_id": "1410994148460f6b5da4fbf9857917d8", "type": "electric_scooter", "is_disabled": 0, "lat": 38.8841695, "rental_uris": {"ios": "https://dc.lft.to/lastmile_qr_scan", "android": "https://dc.lft.to/lastmile_qr_scan"}, "is_reserved": 0, "fusion_lon": 0.0, "fusion_lat": 0.0, "lon": -76.957532, "name": "1410994148460f6b5da4fbf9857917d8"}, {"bike_id": "2cd22e45867c620cf0d8a3d6185abe82", "type": "electric_bike", "is_disabled": 0, "lat": 38.89965266666667, "rental_uris": {"ios": "https://dc.lft.to/lastmile_qr_scan", "android": "https://dc.lft.to/lastmile_qr_scan"}, "is_reserved": 0, "fusion_lon": 0.0, "fusion_lat": 0.0, "lon": -76.98681833333333, "name": "2cd22e45867c620cf0d8a3d6185abe82"}, {"bike_id": "8495036f0dac5dff4106d53c8da427c1", "type": "electric_scooter", "is_disabled": 0, "lat": 38.915571666666665, "rental_uris": {"ios": "https://dc.lft.to/lastmile_qr_scan", "android": "https://dc.lft.to/lastmile_qr_scan"}, "is_reserved": 0, "fusion_lon": 0.0, "fusion_lat": 0.0, "lon": -77.0321885, "name": "8495036f0dac5dff4106d53c8da427c1"}, {"bike_id": "f1c5cabca84d39fbe2f7172abb8e2aa3", "type": "electric_scooter", "is_disabled": 0, "lat": 38.915627666666666, "rental_uris": {"ios": "https://dc.lft.to/lastmile_qr_scan", "android": "https://dc.lft.to/lastmile_qr_scan"}, "is_reserved": 0, "fusion_lon": 0.0, "fusion_lat": 0.0, "lon": -77.03167816666667, "name": "f1c5cabca84d39fbe2f7172abb8e2aa3"}, {"bike_id": "224d006995321ae8cfadf56d88420156", "type": "electric_bike", "is_disabled": 0, "lat": 39.013704833333335, "rental_uris": {"ios": "https://dc.lft.to/lastmile_qr_scan", "android": "https://dc.lft.to/lastmile_qr_scan"}, "is_reserved": 0, "fusion_lon": 0.0, "fusion_lat": 0.0, "lon": -76.9214, "name": "224d006995321ae8cfadf56d88420156"}, {"bike_id": "acf3c00c06546f251433b5f556c1966d", "type": "electric_scooter", "is_disabled": 0, "lat": 38.909492, "rental_uris": {"ios": "https://dc.lft.to/lastmile_qr_scan", "android": "https://dc.lft.to/lastmile_qr_scan"}, "is_reserved": 0, "fusion_lon": 0.0, "fusion_lat": 0.0, "lon": -77.03213883333333, "name": "acf3c00c06546f251433b5f556c1966d"}, {"bike_id": "6a7ddf0dd1df2cedede61e8cb4a707ea", "type": "electric_scooter", "is_disabled": 0, "lat": 38.90721666666666, "rental_uris": {"ios": "https://dc.lft.to/lastmile_qr_scan", "android": "https://dc.lft.to/lastmile_qr_scan"}, "is_reserved": 0, "fusion_lon": 0.0, "fusion_lat": 0.0, "lon": -77.00363883333333, "name": "6a7ddf0dd1df2cedede61e8cb4a707ea"}, {"bike_id": "44ec6f5f555ac42b1cf3dd14f7f2a93b", "type": "electric_scooter", "is_disabled": 0, "lat": 38.93536916666667, "rental_uris": {"ios": "https://dc.lft.to/lastmile_qr_scan", "android": "https://dc.lft.to/lastmile_qr_scan"}, "is_reserved": 0, "fusion_lon": 0.0, "fusion_lat": 0.0, "lon": -77.0582915, "name": "44ec6f5f555ac42b1cf3dd14f7f2a93b"}, {"bike_id": "7750ab945d33b19c21ddbaaba01111e2", "type": "electric_scooter", "is_disabled": 0, "lat": 38.89674183333333, "rental_uris": {"ios": "https://dc.lft.to/lastmile_qr_scan", "android": "https://dc.lft.to/lastmile_qr_scan"}, "is_reserved": 0, "fusion_lon": 0.0, "fusion_lat": 0.0, "lon": -77.0052785, "name": "7750ab945d33b19c21ddbaaba01111e2"}, {"bike_id": "6d52ab34adb613b234ee1a589fb771e5", "type": "electric_scooter", "is_disabled": 0, "lat": 38.923508166666664, "rental_uris": {"ios": "https://dc.lft.to/lastmile_qr_scan", "android": "https://dc.lft.to/lastmile_qr_scan"}, "is_reserved": 0, "fusion_lon": 0.0, "fusion_lat": 0.0, "lon": -77.0414255, "name": "6d52ab34adb613b234ee1a589fb771e5"}, {"bike_id": "40673d62ae355bb1385a711ec85eca6f", "type": "electric_scooter", "is_disabled": 0, "lat": 38.923328166666664, "rental_uris": {"ios": "https://dc.lft.to/lastmile_qr_scan", "android": "https://dc.lft.to/lastmile_qr_scan"}, "is_reserved": 0, "fusion_lon": 0.0, "fusion_lat": 0.0, "lon": -77.023002, "name": "40673d62ae355bb1385a711ec85eca6f"}, {"bike_id": "23a64fc8ac2ee5f3729e0530188afc8f", "type": "electric_scooter", "is_disabled": 0, "lat": 38.93889716666666, "rental_uris": {"ios": "https://dc.lft.to/lastmile_qr_scan", "android": "https://dc.lft.to/lastmile_qr_scan"}, "is_reserved": 0, "fusion_lon": 0.0, "fusion_lat": 0.0, "lon": -77.02824616666666, "name": "23a64fc8ac2ee5f3729e0530188afc8f"}, {"bike_id": "e963c64579e82ce0a7a513ea717c99d3", "type": "electric_bike", "is_disabled": 0, "lat": 38.897413, "rental_uris": {"ios": "https://dc.lft.to/lastmile_qr_scan", "android": "https://dc.lft.to/lastmile_qr_scan"}, "is_reserved": 0, "fusion_lon": 0.0, "fusion_lat": 0.0, "lon": -76.92049433333334, "name": "e963c64579e82ce0a7a513ea717c99d3"}, {"bike_id": "5d9c3bcf40cd7cbb00a7432c0d5851c1", "type": "electric_scooter", "is_disabled": 0, "lat": 38.90566333333334, "rental_uris": {"ios": "https://dc.lft.to/lastmile_qr_scan", "android": "https://dc.lft.to/lastmile_qr_scan"}, "is_reserved": 0, "fusion_lon": 0.0, "fusion_lat": 0.0, "lon": -77.0382155, "name": "5d9c3bcf40cd7cbb00a7432c0d5851c1"}, {"bike_id": "e06b2b1b610fc6883e24008eccb35ea5", "type": "electric_scooter", "is_disabled": 0, "lat": 38.922172833333335, "rental_uris": {"ios": "https://dc.lft.to/lastmile_qr_scan", "android": "https://dc.lft.to/lastmile_qr_scan"}, "is_reserved": 0, "fusion_lon": 0.0, "fusion_lat": 0.0, "lon": -77.03287483333334, "name": "e06b2b1b610fc6883e24008eccb35ea5"}, {"bike_id": "a3706de475af374ba64e8836c9dbb3d2", "type": "electric_scooter", "is_disabled": 0, "lat": 38.91820716666667, "rental_uris": {"ios": "https://dc.lft.to/lastmile_qr_scan", "android": "https://dc.lft.to/lastmile_qr_scan"}, "is_reserved": 0, "fusion_lon": 0.0, "fusion_lat": 0.0, "lon": -77.049476, "name": "a3706de475af374ba64e8836c9dbb3d2"}, {"bike_id": "fa3c502af0436a5199f2535f19e87e0c", "type": "electric_scooter", "is_disabled": 0, "lat": 38.9191285, "rental_uris": {"ios": "https://dc.lft.to/lastmile_qr_scan", "android": "https://dc.lft.to/lastmile_qr_scan"}, "is_reserved": 0, "fusion_lon": 0.0, "fusion_lat": 0.0, "lon": -77.033743, "name": "fa3c502af0436a5199f2535f19e87e0c"}, {"bike_id": "7da10aebef7f10db9f60fdf13a8a55b4", "type": "electric_scooter", "is_disabled": 0, "lat": 38.927874, "rental_uris": {"ios": "https://dc.lft.to/lastmile_qr_scan", "android": "https://dc.lft.to/lastmile_qr_scan"}, "is_reserved": 0, "fusion_lon": 0.0, "fusion_lat": 0.0, "lon": -77.04327333333333, "name": "7da10aebef7f10db9f60fdf13a8a55b4"}, {"bike_id": "9bb0d57aeecf71917bfbc2c165021c8b", "type": "electric_scooter", "is_disabled": 0, "lat": 38.964170833333334, "rental_uris": {"ios": "https://dc.lft.to/lastmile_qr_scan", "android": "https://dc.lft.to/lastmile_qr_scan"}, "is_reserved": 0, "fusion_lon": 0.0, "fusion_lat": 0.0, "lon": -77.02426916666667, "name": "9bb0d57aeecf71917bfbc2c165021c8b"}, {"bike_id": "36c73d9f8572d96c32c095e03bfbee24", "type": "electric_scooter", "is_disabled": 0, "lat": 38.920847333333334, "rental_uris": {"ios": "https://dc.lft.to/lastmile_qr_scan", "android": "https://dc.lft.to/lastmile_qr_scan"}, "is_reserved": 0, "fusion_lon": 0.0, "fusion_lat": 0.0, "lon": -77.02387016666667, "name": "36c73d9f8572d96c32c095e03bfbee24"}, {"bike_id": "82945ec49b7dcdf591ae3539997ccda3", "type": "electric_scooter", "is_disabled": 0, "lat": 38.90691616666667, "rental_uris": {"ios": "https://dc.lft.to/lastmile_qr_scan", "android": "https://dc.lft.to/lastmile_qr_scan"}, "is_reserved": 0, "fusion_lon": 0.0, "fusion_lat": 0.0, "lon": -77.03678866666667, "name": "82945ec49b7dcdf591ae3539997ccda3"}, {"bike_id": "e4c0063b6649caf745b30b8902c86de9", "type": "electric_scooter", "is_disabled": 0, "lat": 38.9244355, "rental_uris": {"ios": "https://dc.lft.to/lastmile_qr_scan", "android": "https://dc.lft.to/lastmile_qr_scan"}, "is_reserved": 0, "fusion_lon": 0.0, "fusion_lat": 0.0, "lon": -77.04201733333333, "name": "e4c0063b6649caf745b30b8902c86de9"}, {"bike_id": "56a7b2cca253a7eea66556fde2a0905e", "type": "electric_scooter", "is_disabled": 0, "lat": 38.909918166666664, "rental_uris": {"ios": "https://dc.lft.to/lastmile_qr_scan", "android": "https://dc.lft.to/lastmile_qr_scan"}, "is_reserved": 0, "fusion_lon": 0.0, "fusion_lat": 0.0, "lon": -77.0426375, "name": "56a7b2cca253a7eea66556fde2a0905e"}, {"bike_id": "545db064b8090c901ad7a4541faf4745", "type": "electric_scooter", "is_disabled": 0, "lat": 38.907591333333336, "rental_uris": {"ios": "https://dc.lft.to/lastmile_qr_scan", "android": "https://dc.lft.to/lastmile_qr_scan"}, "is_reserved": 0, "fusion_lon": 0.0, "fusion_lat": 0.0, "lon": -77.03576416666667, "name": "545db064b8090c901ad7a4541faf4745"}, {"bike_id": "94b70f220a72a6c0470b212034552a74", "type": "electric_scooter", "is_disabled": 0, "lat": 38.87197583333333, "rental_uris": {"ios": "https://dc.lft.to/lastmile_qr_scan", "android": "https://dc.lft.to/lastmile_qr_scan"}, "is_reserved": 0, "fusion_lon": 0.0, "fusion_lat": 0.0, "lon": -77.00933566666667, "name": "94b70f220a72a6c0470b212034552a74"}, {"bike_id": "52bd196e932f2cb386c0f63a7346c0f0", "type": "electric_scooter", "is_disabled": 0, "lat": 38.907649166666666, "rental_uris": {"ios": "https://dc.lft.to/lastmile_qr_scan", "android": "https://dc.lft.to/lastmile_qr_scan"}, "is_reserved": 0, "fusion_lon": 0.0, "fusion_lat": 0.0, "lon": -77.02812416666667, "name": "52bd196e932f2cb386c0f63a7346c0f0"}, {"bike_id": "39fe616c58d4e48b59a4b5bf1bb1632e", "type": "electric_scooter", "is_disabled": 0, "lat": 38.905274166666665, "rental_uris": {"ios": "https://dc.lft.to/lastmile_qr_scan", "android": "https://dc.lft.to/lastmile_qr_scan"}, "is_reserved": 0, "fusion_lon": 0.0, "fusion_lat": 0.0, "lon": -77.0593455, "name": "39fe616c58d4e48b59a4b5bf1bb1632e"}, {"bike_id": "634ef471dfa4f36762b26ff3653ec7ea", "type": "electric_scooter", "is_disabled": 0, "lat": 38.844286333333336, "rental_uris": {"ios": "https://dc.lft.to/lastmile_qr_scan", "android": "https://dc.lft.to/lastmile_qr_scan"}, "is_reserved": 0, "fusion_lon": 0.0, "fusion_lat": 0.0, "lon": -76.998662, "name": "634ef471dfa4f36762b26ff3653ec7ea"}, {"bike_id": "90d23680804b37e8a95dc4afd443a427", "type": "electric_scooter", "is_disabled": 0, "lat": 38.93846083333333, "rental_uris": {"ios": "https://dc.lft.to/lastmile_qr_scan", "android": "https://dc.lft.to/lastmile_qr_scan"}, "is_reserved": 0, "fusion_lon": 0.0, "fusion_lat": 0.0, "lon": -77.07237716666667, "name": "90d23680804b37e8a95dc4afd443a427"}, {"bike_id": "c4ad66fab65e33a503ac645c0d0c5fdf", "type": "electric_scooter", "is_disabled": 0, "lat": 38.92484983333333, "rental_uris": {"ios": "https://dc.lft.to/lastmile_qr_scan", "android": "https://dc.lft.to/lastmile_qr_scan"}, "is_reserved": 0, "fusion_lon": 0.0, "fusion_lat": 0.0, "lon": -77.05219316666667, "name": "c4ad66fab65e33a503ac645c0d0c5fdf"}, {"bike_id": "d27ac55194bcec82ad4c8619b724572b", "type": "electric_scooter", "is_disabled": 0, "lat": 38.90232316666667, "rental_uris": {"ios": "https://dc.lft.to/lastmile_qr_scan", "android": "https://dc.lft.to/lastmile_qr_scan"}, "is_reserved": 0, "fusion_lon": 0.0, "fusion_lat": 0.0, "lon": -77.0534975, "name": "d27ac55194bcec82ad4c8619b724572b"}, {"bike_id": "e70afca74cadd198cd8a1ec685306199", "type": "electric_scooter", "is_disabled": 0, "lat": 38.93398416666667, "rental_uris": {"ios": "https://dc.lft.to/lastmile_qr_scan", "android": "https://dc.lft.to/lastmile_qr_scan"}, "is_reserved": 0, "fusion_lon": 0.0, "fusion_lat": 0.0, "lon": -77.03520633333333, "name": "e70afca74cadd198cd8a1ec685306199"}, {"bike_id": "d5ec11b0e4cc11be1e18ed8dfa5568e0", "type": "electric_scooter", "is_disabled": 0, "lat": 38.938828666666666, "rental_uris": {"ios": "https://dc.lft.to/lastmile_qr_scan", "android": "https://dc.lft.to/lastmile_qr_scan"}, "is_reserved": 0, "fusion_lon": 0.0, "fusion_lat": 0.0, "lon": -77.02493083333333, "name": "d5ec11b0e4cc11be1e18ed8dfa5568e0"},