{"data": {"bikes": [{"rental_uris": {"ios": "https://dc.lft.to/lastmile_qr_scan", "android": "https://dc.lft.to/lastmile_qr_scan"}, "type": "electric_scooter", "name": "931873fb41633cec1f2cb263163513d8", "is_reserved": 0, "lon": -77.01901133333334, "is_disabled": 0, "fusion_lat": 0.0, "lat": 38.902605666666666, "bike_id": "931873fb41633cec1f2cb263163513d8", "fusion_lon": 0.0}, {"rental_uris": {"ios": "https://dc.lft.to/lastmile_qr_scan", "android": "https://dc.lft.to/lastmile_qr_scan"}, "type": "electric_bike", "name": "445f00a4dd7822e68404297fd08e22d1", "is_reserved": 0, "lon": -76.97309183333333, "is_disabled": 0, "fusion_lat": 0.0, "lat": 38.91760283333333, "bike_id": "445f00a4dd7822e68404297fd08e22d1", "fusion_lon": 0.0}, {"rental_uris": {"ios": "https://dc.lft.to/lastmile_qr_scan", "android": "https://dc.lft.to/lastmile_qr_scan"}, "type": "electric_scooter", "name": "aac01d1001be4f36ae4162469eb571fd", "is_reserved": 0, "lon": -77.00042266666667, "is_disabled": 0, "fusion_lat": 0.0, "lat": 38.87503533333334, "bike_id": "aac01d1001be4f36ae4162469eb571fd", "fusion_lon": 0.0}, {"rental_uris": {"ios": "https://dc.lft.to/lastmile_qr_scan", "android": "https://dc.lft.to/lastmile_qr_scan"}, "type": "electric_scooter", "name": "b4b8895e54053868e14af931cc1d7e93", "is_reserved": 0, "lon": -77.02149116666666, "is_disabled": 0, "fusion_lat": 0.0, "lat": 38.895557333333336, "bike_id": "b4b8895e54053868e14af931cc1d7e93", "fusion_lon": 0.0}, {"rental_uris": {"ios": "https://dc.lft.to/lastmile_qr_scan", "android": "https://dc.lft.to/lastmile_qr_scan"}, "type": "electric_scooter", "name": "943b1294af7d8f2b570489edc34d8d2d", "is_reserved": 0, "lon": -77.0344085, "is_disabled": 0, "fusion_lat": 0.0, "lat": 38.918052, "bike_id": "943b1294af7d8f2b570489edc34d8d2d", "fusion_lon": 0.0}, {"rental_uris": {"ios": "https://dc.lft.to/lastmile_qr_scan", "android": "https://dc.lft.to/lastmile_qr_scan"}, "type": "electric_bike", "name": "d23e924ee080d1cf3e3588e4a16248e8", "is_reserved": 0, "lon": -76.960872, "is_disabled": 0, "fusion_lat": 0.0, "lat": 38.91856633333333, "bike_id": "d23e924ee080d1cf3e3588e4a16248e8", "fusion_lon": 0.0}, {"rental_uris": {"ios": "https://dc.lft.to/lastmile_qr_scan", "android": "https://dc.lft.to/lastmile_qr_scan"}, "type": "electric_scooter", "name": "19a75accf73431d23d111fe1df6b30a2", "is_reserved": 0, "lon": -77.03244516666666, "is_disabled": 0, "fusion_lat": 0.0, "lat": 38.905478, "bike_id": "19a75accf73431d23d111fe1df6b30a2", "fusion_lon": 0.0}, {"rental_uris": {"ios": "https://dc.lft.to/lastmile_qr_scan", "android": "https://dc.lft.to/lastmile_qr_scan"}, "type": "electric_scooter", "name": "ff8ccbf950ebd7d58b0ef475ec2c83b9", "is_reserved": 0, "lon": -77.01945583333334, "is_disabled": 0, "fusion_lat": 0.0, "lat": 38.947030833333336, "bike_id": "ff8ccbf950ebd7d58b0ef475ec2c83b9", "fusion_lon": 0.0}, {"rental_uris": {"ios": "https://dc.lft.to/lastmile_qr_scan", "android": "https://dc.lft.to/lastmile_qr_scan"}, "type": "electric_scooter", "name": "55340ba9eba845ceb64eeb0948cdd7b0", "is_reserved": 0, "lon": -77.032085, "is_disabled": 0, "fusion_lat": 0.0, "lat": 38.91432533333333, "bike_id": "55340ba9eba845ceb64eeb0948cdd7b0", "fusion_lon": 0.0}, {"rental_uris": {"ios": "https://dc.lft.to/lastmile_qr_scan", "android": "https://dc.lft.to/lastmile_qr_scan"}, "type": "electric_scooter", "name": "4576e272631eafe5ae25fd6191fe8715", "is_reserved": 0, "lon": -77.0325125, "is_disabled": 0, "fusion_lat": 0.0, "lat": 38.90969283333333, "bike_id": "4576e272631eafe5ae25fd6191fe8715", "fusion_lon": 0.0}, {"rental_uris": {"ios": "https://dc.lft.to/lastmile_qr_scan", "android": "https://dc.lft.to/lastmile_qr_scan"}, "type": "electric_scooter", "name": "0d1ddc701a63b90ad9c59f099bfe0c12", "is_reserved": 0, "lon": -77.00816216666666, "is_disabled": 0, "fusion_lat": 0.0, "lat": 38.91705183333333, "bike_id": "0d1ddc701a63b90ad9c59f099bfe0c12", "fusion_lon": 0.0}, {"rental_uris": {"ios": "https://dc.lft.to/lastmile_qr_scan", "android": "https://dc.lft.to/lastmile_qr_scan"}, "type": "electric_scooter", "name": "234aa90c9586329724d5c7cafcbb33f5", "is_reserved": 0, "lon": -77.044434, "is_disabled": 0, "fusion_lat": 0.0, "lat": 38.9012125, "bike_id": "234aa90c9586329724d5c7cafcbb33f5", "fusion_lon": 0.0}, {"rental_uris": {"ios": "https://dc.lft.to/lastmile_qr_scan", "android": "https://dc.lft.to/lastmile_qr_scan"}, "type": "electric_scooter", "name": "49c12f3bff3d7458c654820630d06f84", "is_reserved": 0, "lon": -76.9995865, "is_disabled": 0, "fusion_lat": 0.0, "lat": 38.90853533333333, "bike_id": "49c12f3bff3d7458c654820630d06f84", "fusion_lon": 0.0}, {"rental_uris": {"ios": "https://dc.lft.to/lastmile_qr_scan", "android": "https://dc.lft.to/lastmile_qr_scan"}, "type": "electric_scooter", "name": "c1107df8f445a6ba786311b1c158606c", "is_reserved": 0, "lon": -77.0403045, "is_disabled": 0, "fusion_lat": 0.0, "lat": 38.90402916666667, "bike_id": "c1107df8f445a6ba786311b1c158606c", "fusion_lon": 0.0}, {"rental_uris": {"ios": "https://dc.lft.to/lastmile_qr_scan", "android": "https://dc.lft.to/lastmile_qr_scan"}, "type": "electric_scooter", "name": "3693950f0c4c958db446c235578171e5", "is_reserved": 0, "lon": -77.031792, "is_disabled": 0, "fusion_lat": 0.0, "lat": 38.899822, "bike_id": "3693950f0c4c958db446c235578171e5", "fusion_lon": 0.0}, {"rental_uris": {"ios": "https://dc.lft.to/lastmile_qr_scan", "android": "https://dc.lft.to/lastmile_qr_scan"}, "type": "electric_scooter", "name": "0390a1320c0493c86872482e3e4f71de", "is_reserved": 0, "lon": -77.00924583333334, "is_disabled": 0, "fusion_lat": 0.0, "lat": 38.881887666666664, "bike_id": "0390a1320c0493c86872482e3e4f71de", "fusion_lon": 0.0}, {"rental_uris": {"ios": "https://dc.lft.to/lastmile_qr_scan", "android": "https://dc.lft.to/lastmile_qr_scan"}, "type": "electric_scooter", "name": "4d4c9ca46e229bfc801b7cd84ddf456d", "is_reserved": 0, "lon": -77.0401895, "is_disabled": 0, "fusion_lat": 0.0, "lat": 38.9179575, "bike_id": "4d4c9ca46e229bfc801b7cd84ddf456d", "fusion_lon": 0.0}, {"rental_uris": {"ios": "https://dc.lft.to/lastmile_qr_scan", "android": "https://dc.lft.to/lastmile_qr_scan"}, "type": "electric_scooter", "name": "b9499e3df88d197eed847e09b565705a", "is_reserved": 0, "lon": -77.01508766666667, "is_disabled": 0, "fusion_lat": 0.0, "lat": 38.887453666666666, "bike_id": "b9499e3df88d197eed847e09b565705a", "fusion_lon": 0.0}, {"rental_uris": {"ios": "https://dc.lft.to/lastmile_qr_scan", "android": "https://dc.lft.to/lastmile_qr_scan"}, "type": "electric_scooter", "name": "c06725f787ef5264b7c30b7f71673956", "is_reserved": 0, "lon": -77.03885633333333, "is_disabled": 0, "fusion_lat": 0.0, "lat": 38.917158666666666, "bike_id": "c06725f787ef5264b7c30b7f71673956", "fusion_lon": 0.0}, {"rental_uris": {"ios": "https://dc.lft.to/lastmile_qr_scan", "android": "https://dc.lft.to/lastmile_qr_scan"}, "type": "electric_bike", "name": "69a0d35c4d64e4af7ae4b52f0eeb2c0d", "is_reserved": 0, "lon": -76.97321233333334, "is_disabled": 0, "fusion_lat": 0.0, "lat": 38.85785033333333, "bike_id": "69a0d35c4d64e4af7ae4b52f0eeb2c0d", "fusion_lon": 0.0}, {"rental_uris": {"ios": "https://dc.lft.to/lastmile_qr_scan", "android": "https://dc.lft.to/lastmile_qr_scan"}, "type": "electric_scooter", "name": "18855b4355ea968fba825c2412088915", "is_reserved": 0, "lon": -77.02829116666666, "is_disabled": 0, "fusion_lat": 0.0, "lat": 38.932779333333336, "bike_id": "18855b4355ea968fba825c2412088915", "fusion_lon": 0.0}, {"rental_uris": {"ios": "https://dc.lft.to/lastmile_qr_scan", "android": "https://dc.lft.to/lastmile_qr_scan"}, "type": "electric_scooter", "name": "ffafe7868d9ddd5e93dce9186a6dcd44", "is_reserved": 0, "lon": -77.032648, "is_disabled": 0, "fusion_lat": 0.0, "lat": 38.92973666666666, "bike_id": "ffafe7868d9ddd5e93dce9186a6dcd44", "fusion_lon": 0.0}, {"rental_uris": {"ios": "https://dc.lft.to/lastmile_qr_scan", "android": "https://dc.lft.to/lastmile_qr_scan"}, "type": "electric_scooter", "name": "1f6b286800e6954be4e20433e56d7ae2", "is_reserved": 0, "lon": -77.0320415, "is_disabled": 0, "fusion_lat": 0.0, "lat": 38.918598, "bike_id": "1f6b286800e6954be4e20433e56d7ae2", "fusion_lon": 0.0}, {"rental_uris": {"ios": "https://dc.lft.to/lastmile_qr_scan", "android": "https://dc.lft.to/lastmile_qr_scan"}, "type": "electric_scooter", "name": "971973dfbfa47f77c149842ebe4f66b4", "is_reserved": 0, "lon": -77.01923683333334, "is_disabled": 0, "fusion_lat": 0.0, "lat": 38.9373165, "bike_id": "971973dfbfa47f77c149842ebe4f66b4", "fusion_lon": 0.0}, {"rental_uris": {"ios": "https://dc.lft.to/lastmile_qr_scan", "android": "https://dc.lft.to/lastmile_qr_scan"}, "type": "electric_scooter", "name": "b5c3d29e723e65eeee12c6671107bdd8", "is_reserved": 0, "lon": -77.04098833333333, "is_disabled": 0, "fusion_lat": 0.0, "lat": 38.900070166666666, "bike_id": "b5c3d29e723e65eeee12c6671107bdd8", "fusion_lon": 0.0}, {"rental_uris": {"ios": "https://dc.lft.to/lastmile_qr_scan", "android": "https://dc.lft.to/lastmile_qr_scan"}, "type": "electric_scooter", "name": "3e4f97fd474d17e5c4571e35f2f40fed", "is_reserved": 0, "lon": -77.02340516666666, "is_disabled": 0, "fusion_lat": 0.0, "lat": 38.9206045, "bike_id": "3e4f97fd474d17e5c4571e35f2f40fed", "fusion_lon": 0.0}, {"rental_uris": {"ios": "https://dc.lft.to/lastmile_qr_scan", "android": "https://dc.lft.to/lastmile_qr_scan"}, "type": "electric_bike", "name": "350028524e55a855a2ae470d6e63fe6e", "is_reserved": 0, "lon": -77.1071705, "is_disabled": 0, "fusion_lat": 0.0, "lat": 38.8554025, "bike_id": "350028524e55a855a2ae470d6e63fe6e", "fusion_lon": 0.0}, {"rental_uris": {"ios": "https://dc.lft.to/lastmile_qr_scan", "android": "https://dc.lft.to/lastmile_qr_scan"}, "type": "electric_scooter", "name": "4da962a55566bf1dac12cc4838196038", "is_reserved": 0, "lon": -77.03348966666667, "is_disabled": 0, "fusion_lat": 0.0, "lat": 38.909678666666665, "bike_id": "4da962a55566bf1dac12cc4838196038", "fusion_lon": 0.0}, {"rental_uris": {"ios": "https://dc.lft.to/lastmile_qr_scan", "android": "https://dc.lft.to/lastmile_qr_scan"}, "type": "electric_scooter", "name": "b08c11f3f37faacdd9c09a9ea35a37fe", "is_reserved": 0, "lon": -77.021346, "is_disabled": 0, "fusion_lat": 0.0, "lat": 38.915571666666665, "bike_id": "b08c11f3f37faacdd9c09a9ea35a37fe", "fusion_lon": 0.0}, {"rental_uris": {"ios": "https://dc.lft.to/lastmile_qr_scan", "android": "https://dc.lft.to/lastmile_qr_scan"}, "type": "electric_scooter", "name": "366dfe81fdf1dc02f27a37ac05f59686", "is_reserved": 0, "lon": -77.03998866666667, "is_disabled": 0, "fusion_lat": 0.0, "lat": 38.911908333333336, "bike_id": "366dfe81fdf1dc02f27a37ac05f59686", "fusion_lon": 0.0}, {"rental_uris": {"ios": "https://dc.lft.to/lastmile_qr_scan", "android": "https://dc.lft.to/lastmile_qr_scan"}, "type": "electric_bike", "name": "bc2058078ab372bf52b108e2969fdf7b", "is_reserved": 0, "lon": -76.99423383333334, "is_disabled": 0, "fusion_lat": 0.0, "lat": 38.95872283333333, "bike_id": "bc2058078ab372bf52b108e2969fdf7b", "fusion_lon": 0.0}, {"rental_uris": {"ios": "https://dc.lft.to/lastmile_qr_scan", "android": "https://dc.lft.to/lastmile_qr_scan"}, "type": "electric_bike", "name": "3d35fe7a5a354306edb7f8f30ebb6b28", "is_reserved": 0, "lon": -77.12732366666667, "is_disabled": 0, "fusion_lat": 0.0, "lat": 38.89562133333333, "bike_id": "3d35fe7a5a354306edb7f8f30ebb6b28", "fusion_lon": 0.0}, {"rental_uris": {"ios": "https://dc.lft.to/lastmile_qr_scan", "android": "https://dc.lft.to/lastmile_qr_scan"}, "type": "electric_scooter", "name": "39d638b4413866f06af926f3cc4a6545", "is_reserved": 0, "lon": -77.03581766666667, "is_disabled": 0, "fusion_lat": 0.0, "lat": 38.90269383333333, "bike_id": "39d638b4413866f06af926f3cc4a6545", "fusion_lon": 0.0}, {"rental_uris": {"ios": "https://dc.lft.to/lastmile_qr_scan", "android": "https://dc.lft.to/lastmile_qr_scan"}, "type": "electric_bike", "name": "b77532501c2ad29b1d470fd5ba390aff", "is_reserved": 0, "lon": -77.07904, "is_disabled": 0, "fusion_lat": 0.0, "lat": 38.83934383333333, "bike_id": "b77532501c2ad29b1d470fd5ba390aff", "fusion_lon": 0.0}, {"rental_uris": {"ios": "https://dc.lft.to/lastmile_qr_scan", "android": "https://dc.lft.to/lastmile_qr_scan"}, "type": "electric_scooter", "name": "454e857a380012aa8ff65c812dfbc49b", "is_reserved": 0, "lon": -77.03801916666667, "is_disabled": 0, "fusion_lat": 0.0, "lat": 38.91045416666667, "bike_id": "454e857a380012aa8ff65c812dfbc49b", "fusion_lon": 0.0}, {"rental_uris": {"ios": "https://dc.lft.to/lastmile_qr_scan", "android": "https://dc.lft.to/lastmile_qr_scan"}, "type": "electric_scooter", "name": "316ccaab607d44179d2461196bb894cc", "is_reserved": 0, "lon": -77.03714566666666, "is_disabled": 0, "fusion_lat": 0.0, "lat": 38.926576, "bike_id": "316ccaab607d44179d2461196bb894cc", "fusion_lon": 0.0}, {"rental_uris": {"ios": "https://dc.lft.to/lastmile_qr_scan", "android": "https://dc.lft.to/lastmile_qr_scan"}, "type": "electric_scooter", "name": "4a6631d663bd0a9a4dc7fcda32471e96", "is_reserved": 0, "lon": -77.0345225, "is_disabled": 0, "fusion_lat": 0.0, "lat": 38.9042325, "bike_id": "4a6631d663bd0a9a4dc7fcda32471e96", "fusion_lon": 0.0}, {"rental_uris": {"ios": "https://dc.lft.to/lastmile_qr_scan", "android": "https://dc.lft.to/lastmile_qr_scan"}, "type": "electric_scooter", "name": "df2585e15b36059fcece08e0d0978bf8", "is_reserved": 0, "lon": -77.03808383333333, "is_disabled": 0, "fusion_lat": 0.0, "lat": 38.9309855, "bike_id": "df2585e15b36059fcece08e0d0978bf8", "fusion_lon": 0.0}, {"rental_uris": {"ios": "https://dc.lft.to/lastmile_qr_scan", "android": "https://dc.lft.to/lastmile_qr_scan"}, "type": "electric_scooter", "name": "26c155c1feedc4801720f7fb7dcb9a8b", "is_reserved": 0, "lon": -77.07903133333333, "is_disabled": 0, "fusion_lat": 0.0, "lat": 38.947893, "bike_id": "26c155c1feedc4801720f7fb7dcb9a8b", "fusion_lon": 0.0}, {"rental_uris": {"ios": "https://dc.lft.to/lastmile_qr_scan", "android": "https://dc.lft.to/lastmile_qr_scan"}, "type": "electric_scooter", "name": "9684cd0e6080c6db38c2a29b73937c60", "is_reserved": 0, "lon": -76.9373145, "is_disabled": 0, "fusion_lat": 0.0, "lat": 38.888823333333335, "bike_id": "9684cd0e6080c6db38c2a29b73937c60", "fusion_lon": 0.0}, {"rental_uris": {"ios": "https://dc.lft.to/lastmile_qr_scan", "android": "https://dc.lft.to/lastmile_qr_scan"}, "type": "electric_scooter", "name": "6864fc3302ae9c9899c156dfe5d31652", "is_reserved": 0, "lon": -77.04696333333334, "is_disabled": 0, "fusion_lat": 0.0, "lat": 38.90275, "bike_id": "6864fc3302ae9c9899c156dfe5d31652", "fusion_lon": 0.0}, {"rental_uris": {"ios": "https://dc.lft.to/lastmile_qr_scan", "android": "https://dc.lft.to/lastmile_qr_scan"}, "type": "electric_scooter", "name": "13cf6475d97c523f773817313d7e05c7", "is_reserved": 0, "lon": -77.01210116666667, "is_disabled": 0, "fusion_lat": 0.0, "lat": 38.92122033333333, "bike_id": "13cf6475d97c523f773817313d7e05c7", "fusion_lon": 0.0}, {"rental_uris": {"ios": "https://dc.lft.to/lastmile_qr_scan", "android": "https://dc.lft.to/lastmile_qr_scan"}, "type": "electric_scooter", "name": "61952f487642c2ee1d5e5f5a435bfe1a", "is_reserved": 0, "lon": -77.0320425, "is_disabled": 0, "fusion_lat": 0.0, "lat": 38.9089665, "bike_id": "61952f487642c2ee1d5e5f5a435bfe1a", "fusion_lon": 0.0}, {"rental_uris": {"ios": "https://dc.lft.to/lastmile_qr_scan", "android": "https://dc.lft.to/lastmile_qr_scan"}, "type": "electric_scooter", "name": "aeb56e22289c953f7f8e3976e3657cc3", "is_reserved": 0, "lon": -77.04048433333334, "is_disabled": 0, "fusion_lat": 0.0, "lat": 38.904022499999996, "bike_id": "aeb56e22289c953f7f8e3976e3657cc3", "fusion_lon": 0.0}, {"rental_uris": {"ios": "https://dc.lft.to/lastmile_qr_scan", "android": "https://dc.lft.to/lastmile_qr_scan"}, "type": "electric_scooter", "name": "f8f131e101a28abcf85619cd00b05991", "is_reserved": 0, "lon": -77.00916816666667, "is_disabled": 0, "fusion_lat": 0.0, "lat": 38.88187033333333, "bike_id": "f8f131e101a28abcf85619cd00b05991", "fusion_lon": 0.0}, {"rental_uris": {"ios": "https://dc.lft.to/lastmile_qr_scan", "android": "https://dc.lft.to/lastmile_qr_scan"}, "type": "electric_scooter", "name": "fa5513ea9f81a9f68ce12c0796124af1", "is_reserved": 0, "lon": -77.03261983333333, "is_disabled": 0, "fusion_lat": 0.0, "lat": 38.919864833333335, "bike_id": "fa5513ea9f81a9f68ce12c0796124af1", "fusion_lon": 0.0}, {"rental_uris": {"ios": "https://dc.lft.to/lastmile_qr_scan", "android": "https://dc.lft.to/lastmile_qr_scan"}, "type": "electric_scooter", "name": "f38bf9e3f8d7816d40141625e3debefe", "is_reserved": 0, "lon": -77.023389, "is_disabled": 0, "fusion_lat": 0.0, "lat": 38.9306455, "bike_id": "f38bf9e3f8d7816d40141625e3debefe", "fusion_lon": 0.0}, {"rental_uris": {"ios": "https://dc.lft.to/lastmile_qr_scan", "android": "https://dc.lft.to/lastmile_qr_scan"}, "type": "electric_scooter", "name": "2762c5a9bb7460203b14da49b75da0c0", "is_reserved": 0, "lon": -77.0208775, "is_disabled": 0, "fusion_lat": 0.0, "lat": 38.88189966666667, "bike_id": "2762c5a9bb7460203b14da49b75da0c0", "fusion_lon": 0.0}, {"rental_uris": {"ios": "https://dc.lft.to/lastmile_qr_scan", "android": "https://dc.lft.to/lastmile_qr_scan"}, "type": "electric_scooter", "name": "7c6a9461cf0b8dde36e24b7afed7c516", "is_reserved": 0, "lon": -77.01930683333333, "is_disabled": 0, "fusion_lat": 0.0, "lat": 38.9287825, "bike_id": "7c6a9461cf0b8dde36e24b7afed7c516", "fusion_lon": 0.0}, {"rental_uris": {"ios": "https://dc.lft.to/lastmile_qr_scan", "android": "https://dc.lft.to/lastmile_qr_scan"}, "type": "electric_scooter", "name": "9ce14fee72d0a7a86f338b0d99e212e9", "is_reserved": 0, "lon": -77.01946733333334, "is_disabled": 0, "fusion_lat": 0.0, "lat": 38.92424166666667, "bike_id": "9ce14fee72d0a7a86f338b0d99e212e9", "fusion_lon": 0.0}, {"rental_uris": {"ios": "https://dc.lft.to/lastmile_qr_scan", "android": "https://dc.lft.to/lastmile_qr_scan"}, "type": "electric_scooter", "name": "b3ab5c9be1107a7cefeddbce5e1ad0f3", "is_reserved": 0, "lon": -77.03999083333333, "is_disabled": 0, "fusion_lat": 0.0, "lat": 38.93421566666667, "bike_id": "b3ab5c9be1107a7cefeddbce5e1ad0f3", "fusion_lon": 0.0}, {"rental_uris": {"ios": "https://dc.lft.to/lastmile_qr_scan", "android": "https://dc.lft.to/lastmile_qr_scan"}, "type": "electric_scooter", "name": "ea542e932d91c4935f72c1cbd7f6a197", "is_reserved": 0, "lon": -77.07153766666667, "is_disabled": 0, "fusion_lat": 0.0, "lat": 38.9078245, "bike_id": "ea542e932d91c4935f72c1cbd7f6a197", "fusion_lon": 0.0}, {"rental_uris": {"ios": "https://dc.lft.to/lastmile_qr_scan", "android": "https://dc.lft.to/lastmile_qr_scan"}, "type": "electric_bike", "name": "cd65a0cf6250ade7e07b47d515bbcb7f", "is_reserved": 0, "lon": -76.96887416666667, "is_disabled": 0, "fusion_lat": 0.0, "lat": 38.86988066666667, "bike_id": "cd65a0cf6250ade7e07b47d515bbcb7f", "fusion_lon": 0.0}, {"rental_uris": {"ios": "https://dc.lft.to/lastmile_qr_scan", "android": "https://dc.lft.to/lastmile_qr_scan"}, "type": "electric_scooter", "name": "002fc87345424ca4b2839c9d4c2e6df2", "is_reserved": 0, "lon": -77.00063866666666, "is_disabled": 0, "fusion_lat": 0.0, "lat": 38.876864, "bike_id": "002fc87345424ca4b2839c9d4c2e6df2", "fusion_lon": 0.0}, {"rental_uris": {"ios": "https://dc.lft.to/lastmile_qr_scan", "android": "https://dc.lft.to/lastmile_qr_scan"}, "type": "electric_scooter", "name": "77e0b8a584271929b77b6d7bb6c51e6d", "is_reserved": 0, "lon": -76.991439, "is_disabled": 0, "fusion_lat": 0.0, "lat": 38.873324, "bike_id": "77e0b8a584271929b77b6d7bb6c51e6d", "fusion_lon": 0.0}, {"rental_uris": {"ios": "https://dc.lft.to/lastmile_qr_scan", "android": "https://dc.lft.to/lastmile_qr_scan"}, "type": "electric_scooter", "name": "fc6200a65ab4ece82b7ffc93915d6124", "is_reserved": 0, "lon": -77.027093, "is_disabled": 0, "fusion_lat": 0.0, "lat": 38.920699, "bike_id": "fc6200a65ab4ece82b7ffc93915d6124", "fusion_lon": 0.0}, {"rental_uris": {"ios": "https://dc.lft.to/lastmile_qr_scan", "android": "https://dc.lft.to/lastmile_qr_scan"}, "type": "electric_scooter", "name": "4e4a770536e94df17b3f32635e704762", "is_reserved": 0, "lon": -77.04478, "is_disabled": 0, "fusion_lat": 0.0, "lat": 38.91083533333333, "bike_id": "4e4a770536e94df17b3f32635e704762", "fusion_lon": 0.0}, {"rental_uris": {"ios": "https://dc.lft.to/lastmile_qr_scan", "android": "https://dc.lft.to/lastmile_qr_scan"}, "type": "electric_scooter", "name": "d5c24d75a2563162c4b180b58b001ef3", "is_reserved": 0, "lon": -77.04238983333333, "is_disabled": 0, "fusion_lat": 0.0, "lat": 38.9227485, "bike_id": "d5c24d75a2563162c4b180b58b001ef3", "fusion_lon": 0.0}, {"rental_uris": {"ios": "https://dc.lft.to/lastmile_qr_scan", "android": "https://dc.lft.to/lastmile_qr_scan"}, "type": "electric_scooter", "name": "21cef177cde226e18ff4ecb28aa6ae5c", "is_reserved": 0, "lon": -77.06409433333333, "is_disabled": 0, "fusion_lat": 0.0, "lat": 38.90860266666667, "bike_id": "21cef177cde226e18ff4ecb28aa6ae5c", "fusion_lon": 0.0}, {"rental_uris": {"ios": "https://dc.lft.to/lastmile_qr_scan", "android": "https://dc.lft.to/lastmile_qr_scan"}, "type": "electric_scooter", "name": "3e2eb22517b10f4a0dc8b6276dc8982c", "is_reserved": 0, "lon": -77.03836633333333, "is_disabled": 0, "fusion_lat": 0.0, "lat": 38.903555833333336, "bike_id": "3e2eb22517b10f4a0dc8b6276dc8982c", "fusion_lon": 0.0}, {"rental_uris": {"ios": "https://dc.lft.to/lastmile_qr_scan", "android": "https://dc.lft.to/lastmile_qr_scan"}, "type": "electric_bike", "name": "1e5d4cee6950343c263e841f94ecf52f", "is_reserved": 0, "lon": -77.1290045, "is_disabled": 0, "fusion_lat": 0.0, "lat": 38.90614466666667, "bike_id": "1e5d4cee6950343c263e841f94ecf52f", "fusion_lon": 0.0}, {"rental_uris": {"ios": "https://dc.lft.to/lastmile_qr_scan", "android": "https://dc.lft.to/lastmile_qr_scan"}, "type": "electric_scooter", "name": "5269ca831afa7b2f656de3242a3b6548", "is_reserved": 0, "lon": -77.05314683333333, "is_disabled": 0, "fusion_lat": 0.0, "lat": 38.940988, "bike_id": "5269ca831afa7b2f656de3242a3b6548", "fusion_lon": 0.0}, {"rental_uris": {"ios": "https://dc.lft.to/lastmile_qr_scan", "android": "https://dc.lft.to/lastmile_qr_scan"}, "type": "electric_scooter", "name": "9f0c26ceacc38a28debedcc8cc0da7d5", "is_reserved": 0, "lon": -76.99484733333334, "is_disabled": 0, "fusion_lat": 0.0, "lat": 38.86217883333333, "bike_id": "9f0c26ceacc38a28debedcc8cc0da7d5", "fusion_lon": 0.0}, {"rental_uris": {"ios": "https://dc.lft.to/lastmile_qr_scan", "android": "https://dc.lft.to/lastmile_qr_scan"}, "type": "electric_scooter", "name": "4a3c36cd24dec5b92fa7d4274cbcdaed", "is_reserved": 0, "lon": -77.04339283333333, "is_disabled": 0, "fusion_lat": 0.0, "lat": 38.90801333333334, "bike_id": "4a3c36cd24dec5b92fa7d4274cbcdaed", "fusion_lon": 0.0}, {"rental_uris": {"ios": "https://dc.lft.to/lastmile_qr_scan", "android": "https://dc.lft.to/lastmile_qr_scan"}, "type": "electric_bike", "name": "532f79858f8b73dec28938931d447f6f", "is_reserved": 0, "lon": -77.053103, "is_disabled": 0, "fusion_lat": 0.0, "lat": 38.820487, "bike_id": "532f79858f8b73dec28938931d447f6f", "fusion_lon": 0.0}, {"rental_uris": {"ios": "https://dc.lft.to/lastmile_qr_scan", "android": "https://dc.lft.to/lastmile_qr_scan"}, "type": "electric_scooter", "name": "248be4ee68255e2efe70830774578405", "is_reserved": 0, "lon": -77.03259683333333, "is_disabled": 0, "fusion_lat": 0.0, "lat": 38.93716883333333, "bike_id": "248be4ee68255e2efe70830774578405", "fusion_lon": 0.0}, {"rental_uris": {"ios": "https://dc.lft.to/lastmile_qr_scan", "android": "https://dc.lft.to/lastmile_qr_scan"}, "type": "electric_scooter", "name": "443122452effe9a7ce4472bddda48672", "is_reserved": 0, "lon": -77.033752, "is_disabled": 0, "fusion_lat": 0.0, "lat": 38.93862416666666, "bike_id": "443122452effe9a7ce4472bddda48672", "fusion_lon": 0.0}, {"rental_uris": {"ios": "https://dc.lft.to/lastmile_qr_scan", "android": "https://dc.lft.to/lastmile_qr_scan"}, "type": "electric_scooter", "name": "94578608180db82560bbf8e23fd3e3ba", "is_reserved": 0, "lon": -76.99153516666667, "is_disabled": 0, "fusion_lat": 0.0, "lat": 38.90035533333333, "bike_id": "94578608180db82560bbf8e23fd3e3ba", "fusion_lon": 0.0}, {"rental_uris": {"ios": "https://dc.lft.to/lastmile_qr_scan", "android": "https://dc.lft.to/lastmile_qr_scan"}, "type": "electric_scooter", "name": "b04ddc448e4800b7303b7798799eee6d", "is_reserved": 0, "lon": -77.04195016666667, "is_disabled": 0, "fusion_lat": 0.0, "lat": 38.920555666666665, "bike_id": "b04ddc448e4800b7303b7798799eee6d", "fusion_lon": 0.0}, {"rental_uris": {"ios": "https://dc.lft.to/lastmile_qr_scan", "android": "https://dc.lft.to/lastmile_qr_scan"}, "type": "electric_scooter", "name": "69275b9e4be47c804d956a89a48c4ed6", "is_reserved": 0, "lon": -76.99670716666667, "is_disabled": 0, "fusion_lat": 0.0, "lat": 38.927120333333335, "bike_id": "69275b9e4be47c804d956a89a48c4ed6", "fusion_lon": 0.0}, {"rental_uris": {"ios": "https://dc.lft.to/lastmile_qr_scan", "android": "https://dc.lft.to/lastmile_qr_scan"}, "type": "electric_scooter", "name": "84b8e6cd10027d0da47593950fc640e3", "is_reserved": 0, "lon": -77.002168, "is_disabled": 0, "fusion_lat": 0.0, "lat": 38.894553333333334, "bike_id": "84b8e6cd10027d0da47593950fc640e3", "fusion_lon": 0.0}, {"rental_uris": {"ios": "https://dc.lft.to/lastmile_qr_scan", "android": "https://dc.lft.to/lastmile_qr_scan"}, "type": "electric_scooter", "name": "b4cda0b573eece03e8e6ba34b7a1439f", "is_reserved": 0, "lon": -77.02385416666667, "is_disabled": 0, "fusion_lat": 0.0, "lat": 38.89914383333333, "bike_id": "b4cda0b573eece03e8e6ba34b7a1439f", "fusion_lon": 0.0}, {"rental_uris": {"ios": "https://dc.lft.to/lastmile_qr_scan", "android": "https://dc.lft.to/lastmile_qr_scan"}, "type": "electric_scooter", "name": "bc81591fada52aae27cd168b690d0896", "is_reserved": 0, "lon": -77.0073555, "is_disabled": 0, "fusion_lat": 0.0, "lat": 38.89848966666667, "bike_id": "bc81591fada52aae27cd168b690d0896", "fusion_lon": 0.0}, {"rental_uris": {"ios": "https://dc.lft.to/lastmile_qr_scan", "android": "https://dc.lft.to/lastmile_qr_scan"}, "type": "electric_scooter", "name": "5c2e8f179123cfd91ce4a01f26543625", "is_reserved": 0, "lon": -76.94194766666666, "is_disabled": 0, "fusion_lat": 0.0, "lat": 38.902281333333335, "bike_id": "5c2e8f179123cfd91ce4a01f26543625", "fusion_lon": 0.0}, {"rental_uris": {"ios": "https://dc.lft.to/lastmile_qr_scan", "android": "https://dc.lft.to/lastmile_qr_scan"}, "type": "electric_scooter", "name": "000912b3a607645f928b26a15b345d6e", "is_reserved": 0, "lon": -77.03667583333333, "is_disabled": 0, "fusion_lat": 0.0, "lat": 38.921234166666665, "bike_id": "000912b3a607645f928b26a15b345d6e", "fusion_lon": 0.0}, {"rental_uris": {"ios": "https://dc.lft.to/lastmile_qr_scan", "android": "https://dc.lft.to/lastmile_qr_scan"}, "type": "electric_scooter", "name": "1cf79aa9717aaa647ccd829bb17068ab", "is_reserved": 0, "lon": -77.07562533333333, "is_disabled": 0, "fusion_lat": 0.0, "lat": 38.920898666666666, "bike_id": "1cf79aa9717aaa647ccd829bb17068ab", "fusion_lon": 0.0}, {"rental_uris": {"ios": "https://dc.lft.to/lastmile_qr_scan", "android": "https://dc.lft.to/lastmile_qr_scan"}, "type": "electric_scooter", "name": "b1f2fe7445b550ef27aeb3da0e5c6364", "is_reserved": 0, "lon": -77.05491066666667, "is_disabled": 0, "fusion_lat": 0.0, "lat": 38.8999525, "bike_id": "b1f2fe7445b550ef27aeb3da0e5c6364", "fusion_lon": 0.0}, {"rental_uris": {"ios": "https://dc.lft.to/lastmile_qr_scan", "android": "https://dc.lft.to/lastmile_qr_scan"}, "type": "electric_scooter", "name": "c01ec6d9ef0e5997667b63699b20a95c", "is_reserved": 0, "lon": -77.023094, "is_disabled": 0, "fusion_lat": 0.0, "lat": 38.8973265, "bike_id": "c01ec6d9ef0e5997667b63699b20a95c", "fusion_lon": 0.0}, {"rental_uris": {"ios": "https://dc.lft.to/lastmile_qr_scan", "android": "https://dc.lft.to/lastmile_qr_scan"}, "type": "electric_scooter", "name": "b50f37e5f4405cacc91d2c4abb7391fe", "is_reserved": 0, "lon": -77.03272366666667, "is_disabled": 0, "fusion_lat": 0.0, "lat": 38.905706, "bike_id": "b50f37e5f4405cacc91d2c4abb7391fe", "fusion_lon": 0.0}, {"rental_uris": {"ios": "https://dc.lft.to/lastmile_qr_scan", "android": "https://dc.lft.to/lastmile_qr_scan"}, "type": "electric_scooter", "name": "d5458c109326f1ab30ed9c04656b3318", "is_reserved": 0, "lon": -77.027, "is_disabled": 0, "fusion_lat": 0.0, "lat": 38.97244416666667, "bike_id": "d5458c109326f1ab30ed9c04656b3318", "fusion_lon": 0.0}, {"rental_uris": {"ios": "https://dc.lft.to/lastmile_qr_scan", "android": "https://dc.lft.to/lastmile_qr_scan"}, "type": "electric_scooter", "name": "640b0b9246d26ea78d098d5cc7107f6e", "is_reserved": 0, "lon": -76.9827585, "is_disabled": 0, "fusion_lat": 0.0, "lat": 38.9034405, "bike_id": "640b0b9246d26ea78d098d5cc7107f6e", "fusion_lon": 0.0}, {"rental_uris": {"ios": "https://dc.lft.to/lastmile_qr_scan", "android": "https://dc.lft.to/lastmile_qr_scan"}, "type": "electric_scooter", "name": "def0d4865bb0d6661a0f1b98b7d58b52", "is_reserved": 0, "lon": -77.01840366666667, "is_disabled": 0, "fusion_lat": 0.0, "lat": 38.922286, "bike_id": "def0d4865bb0d6661a0f1b98b7d58b52", "fusion_lon": 0.0}, {"rental_uris": {"ios": "https://dc.lft.to/lastmile_qr_scan", "android": "https://dc.lft.to/lastmile_qr_scan"}, "type": "electric_scooter", "name": "cd8abb231b4c797347cfb99872565367", "is_reserved": 0, "lon": -77.0320505, "is_disabled": 0, "fusion_lat": 0.0, "lat": 38.917081, "bike_id": "cd8abb231b4c797347cfb99872565367", "fusion_lon": 0.0}, {"rental_uris": {"ios": "https://dc.lft.to/lastmile_qr_scan", "android": "https://dc.lft.to/lastmile_qr_scan"}, "type": "electric_scooter", "name": "7f005f56b4de065a1610ae474b7d24b3", "is_reserved": 0, "lon": -76.99476883333334, "is_disabled": 0, "fusion_lat": 0.0, "lat": 38.9054505, "bike_id": "7f005f56b4de065a1610ae474b7d24b3", "fusion_lon": 0.0}, {"rental_uris": {"ios": "https://dc.lft.to/lastmile_qr_scan", "android": "https://dc.lft.to/lastmile_qr_scan"}, "type": "electric_scooter", "name": "7b1dd4db287981e33ecec972327edc38", "is_reserved": 0, "lon": -77.021527, "is_disabled": 0, "fusion_lat": 0.0, "lat": 38.903108, "bike_id": "7b1dd4db287981e33ecec972327edc38", "fusion_lon": 0.0}, {"rental_uris": {"ios": "https://dc.lft.to/lastmile_qr_scan", "android": "https://dc.lft.to/lastmile_qr_scan"}, "type": "electric_scooter", "name": "4c59a0b6059122571a2835a1c05e8446", "is_reserved": 0, "lon": -77.001982, "is_disabled": 0, "fusion_lat": 0.0, "lat": 38.9023615, "bike_id": "4c59a0b6059122571a2835a1c05e8446", "fusion_lon": 0.0}, {"rental_uris": {"ios": "https://dc.lft.to/lastmile_qr_scan", "android": "https://dc.lft.to/lastmile_qr_scan"}, "type": "electric_scooter", "name": "6c8a7bb3faa9df8ef819dd00a07380c0", "is_reserved": 0, "lon": -77.02402216666667, "is_disabled": 0, "fusion_lat": 0.0, "lat": 38.938180333333335, "bike_id": "6c8a7bb3faa9df8ef819dd00a07380c0", "fusion_lon": 0.0}, {"rental_uris": {"ios": "https://dc.lft.to/lastmile_qr_scan", "android": "https://dc.lft.to/lastmile_qr_scan"}, "type": "electric_scooter", "name": "995100c975973dab306a92a209a75941", "is_reserved": 0, "lon": -76.9835755, "is_disabled": 0, "fusion_lat": 0.0, "lat": 38.88742383333334, "bike_id": "995100c975973dab306a92a209a75941", "fusion_lon": 0.0}, {"rental_uris": {"ios": "https://dc.lft.to/lastmile_qr_scan", "android": "https://dc.lft.to/lastmile_qr_scan"}, "type": "electric_scooter", "name": "ef6b86188af7d0dbc4f08174c3b4d002", "is_reserved": 0, "lon": -76.98433616666667, "is_disabled": 0, "fusion_lat": 0.0, "lat": 38.9145755, "bike_id": "ef6b86188af7d0dbc4f08174c3b4d002", "fusion_lon": 0.0}, {"rental_uris": {"ios": "https://dc.lft.to/lastmile_qr_scan", "android": "https://dc.lft.to/lastmile_qr_scan"}, "type": "electric_scooter", "name": "6c62d529308bddbef88f33c600574a0e", "is_reserved": 0, "lon": -77.01814666666667, "is_disabled": 0, "fusion_lat": 0.0, "lat": 38.921404, "bike_id": "6c62d529308bddbef88f33c600574a0e", "fusion_lon": 0.0}, {"rental_uris": {"ios": "https://dc.lft.to/lastmile_qr_scan", "android": "https://dc.lft.to/lastmile_qr_scan"}, "type": "electric_scooter", "name": "7e5c47b211c715753c766a623aed3fff", "is_reserved": 0, "lon": -77.0076195, "is_disabled": 0, "fusion_lat": 0.0, "lat": 38.8974955, "bike_id": "7e5c47b211c715753c766a623aed3fff", "fusion_lon": 0.0}, {"rental_uris": {"ios": "https://dc.lft.to/lastmile_qr_scan", "android": "https://dc.lft.to/lastmile_qr_scan"}, "type": "electric_scooter", "name": "154e7e4c85a8efc1c23113db025bc0cb", "is_reserved": 0, "lon": -77.000622, "is_disabled": 0, "fusion_lat": 0.0, "lat": 38.87364683333333, "bike_id": "154e7e4c85a8efc1c23113db025bc0cb", "fusion_lon": 0.0}, {"rental_uris": {"ios": "https://dc.lft.to/lastmile_qr_scan", "android": "https://dc.lft.to/lastmile_qr_scan"}, "type": "electric_scooter", "name": "7396b9817b3bc5c6c2bba0fb706c6db1", "is_reserved": 0, "lon": -77.02569766666667, "is_disabled": 0, "fusion_lat": 0.0, "lat": 38.88085316666667, "bike_id": "7396b9817b3bc5c6c2bba0fb706c6db1", "fusion_lon": 0.0}, {"rental_uris": {"ios": "https://dc.lft.to/lastmile_qr_scan", "android": "https://dc.lft.to/lastmile_qr_scan"}, "type": "electric_bike", "name": "ad25cae0639c5b236be20147e3c772ce", "is_reserved": 0, "lon": -77.0425675, "is_disabled": 0, "fusion_lat": 0.0, "lat": 38.804698333333334, "bike_id": "ad25cae0639c5b236be20147e3c772ce", "fusion_lon": 0.0}, {"rental_uris": {"ios": "https://dc.lft.to/lastmile_qr_scan", "android": "https://dc.lft.to/lastmile_qr_scan"}, "type": "electric_scooter", "name": "ea8312d563515f6524826167f393fbb0", "is_reserved": 0, "lon": -77.02692516666667, "is_disabled": 0, "fusion_lat": 0.0, "lat": 38.90767183333333, "bike_id": "ea8312d563515f6524826167f393fbb0", "fusion_lon": 0.0}, {"rental_uris": {"ios": "https://dc.lft.to/lastmile_qr_scan", "android": "https://dc.lft.to/lastmile_qr_scan"}, "type": "electric_scooter", "name": "ca80e950ae6192dff380c23f6a088200", "is_reserved": 0, "lon": -77.02563133333334, "is_disabled": 0, "fusion_lat": 0.0, "lat": 38.925749333333336, "bike_id": "ca80e950ae6192dff380c23f6a088200", "fusion_lon": 0.0}, {"rental_uris": {"ios": "https://dc.lft.to/lastmile_qr_scan", "android": "https://dc.lft.to/lastmile_qr_scan"}, "type": "electric_scooter", "name": "f3727ae670b021927f914ad952d52ab8", "is_reserved": 0, "lon": -77.03849033333333, "is_disabled": 0, "fusion_lat": 0.0, "lat": 38.914906, "bike_id": "f3727ae670b021927f914ad952d52ab8", "fusion_lon": 0.0}, {"rental_uris": {"ios": "https://dc.lft.to/lastmile_qr_scan", "android": "https://dc.lft.to/lastmile_qr_scan"}, "type": "electric_scooter", "name": "6842d8db546c38d96480beb05cd5b1d2", "is_reserved": 0, "lon": -77.03120183333333, "is_disabled": 0, "fusion_lat": 0.0, "lat": 38.92033283333333, "bike_id": "6842d8db546c38d96480beb05cd5b1d2", "fusion_lon": 0.0}, {"rental_uris": {"ios": "https://dc.lft.to/lastmile_qr_scan", "android": "https://dc.lft.to/lastmile_qr_scan"}, "type": "electric_scooter", "name": "05d47fa991eb6607b8ad877c483ba16a", "is_reserved": 0, "lon": -77.05694016666666, "is_disabled": 0, "fusion_lat": 0.0, "lat": 38.9094465, "bike_id": "05d47fa991eb6607b8ad877c483ba16a", "fusion_lon": 0.0}, {"rental_uris": {"ios": "https://dc.lft.to/lastmile_qr_scan", "android": "https://dc.lft.to/lastmile_qr_scan"}, "type": "electric_scooter", "name": "b7cc56bb778ec8bf32840abffd620ff5", "is_reserved": 0, "lon": -77.02088983333333, "is_disabled": 0, "fusion_lat": 0.0, "lat": 38.88188, "bike_id": "b7cc56bb778ec8bf32840abffd620ff5", "fusion_lon": 0.0}, {"rental_uris": {"ios": "https://dc.lft.to/lastmile_qr_scan", "android": "https://dc.lft.to/lastmile_qr_scan"}, "type": "electric_scooter", "name": "04283d3400c5b74844932b705b639eaa", "is_reserved": 0, "lon": -77.04427183333334, "is_disabled": 0, "fusion_lat": 0.0, "lat": 38.9112935, "bike_id": "04283d3400c5b74844932b705b639eaa", "fusion_lon": 0.0}, {"rental_uris": {"ios": "https://dc.lft.to/lastmile_qr_scan", "android": "https://dc.lft.to/lastmile_qr_scan"}, "type": "electric_bike", "name": "65e7f0bde2a9af53206a59533ec57889", "is_reserved": 0, "lon": -77.00385016666667, "is_disabled": 0, "fusion_lat": 0.0, "lat": 38.92107566666667, "bike_id": "65e7f0bde2a9af53206a59533ec57889", "fusion_lon": 0.0}, {"rental_uris": {"ios": "https://dc.lft.to/lastmile_qr_scan", "android": "https://dc.lft.to/lastmile_qr_scan"}, "type": "electric_scooter", "name": "47d05706fad3453203dfe2b4c975061e", "is_reserved": 0, "lon": -77.02408133333333, "is_disabled": 0, "fusion_lat": 0.0, "lat": 38.945104666666666, "bike_id": "47d05706fad3453203dfe2b4c975061e", "fusion_lon": 0.0}, {"rental_uris": {"ios": "https://dc.lft.to/lastmile_qr_scan", "android": "https://dc.lft.to/lastmile_qr_scan"}, "type": "electric_bike", "name": "b942e8ac4433dbdb5436b03785f7d7fc", "is_reserved": 0, "lon": -76.98060133333334, "is_disabled": 0, "fusion_lat": 0.0, "lat": 38.972525166666664, "bike_id": "b942e8ac4433dbdb5436b03785f7d7fc", "fusion_lon": 0.0}, {"rental_uris": {"ios": "https://dc.lft.to/lastmile_qr_scan", "android": "https://dc.lft.to/lastmile_qr_scan"}, "type": "electric_scooter", "name": "190730012ef7089f1363f13469da557b", "is_reserved": 0, "lon": -77.03171416666666, "is_disabled": 0, "fusion_lat": 0.0, "lat": 38.920201166666665, "bike_id": "190730012ef7089f1363f13469da557b", "fusion_lon": 0.0}, {"rental_uris": {"ios": "https://dc.lft.to/lastmile_qr_scan", "android": "https://dc.lft.to/lastmile_qr_scan"}, "type": "electric_scooter", "name": "34f0bf52015b46f10d8819ef8f7f73f4", "is_reserved": 0, "lon": -77.02581516666666, "is_disabled": 0, "fusion_lat": 0.0, "lat": 38.90507016666667, "bike_id": "34f0bf52015b46f10d8819ef8f7f73f4", "fusion_lon": 0.0}, {"rental_uris": {"ios": "https://dc.lft.to/lastmile_qr_scan", "android": "https://dc.lft.to/lastmile_qr_scan"}, "type": "electric_scooter", "name": "a18c2e29c472e331bbee080f669370b6", "is_reserved": 0, "lon": -77.03949966666667, "is_disabled": 0, "fusion_lat": 0.0, "lat": 38.901432666666665, "bike_id": "a18c2e29c472e331bbee080f669370b6", "fusion_lon": 0.0}, {"rental_uris": {"ios": "https://dc.lft.to/lastmile_qr_scan", "android": "https://dc.lft.to/lastmile_qr_scan"}, "type": "electric_bike", "name": "8613b352beea875883a089fe07aab0ba", "is_reserved": 0, "lon": -77.1128455, "is_disabled": 0, "fusion_lat": 0.0, "lat": 38.831053, "bike_id": "8613b352beea875883a089fe07aab0ba", "fusion_lon": 0.0}, {"rental_uris": {"ios": "https://dc.lft.to/lastmile_qr_scan", "android": "https://dc.lft.to/lastmile_qr_scan"}, "type": "electric_scooter", "name": "94fbd699a84a546ca5d7dfb675487c69", "is_reserved": 0, "lon": -77.06316533333333, "is_disabled": 0, "fusion_lat": 0.0, "lat": 38.913442333333336, "bike_id": "94fbd699a84a546ca5d7dfb675487c69", "fusion_lon": 0.0}, {"rental_uris": {"ios": "https://dc.lft.to/lastmile_qr_scan", "android": "https://dc.lft.to/lastmile_qr_scan"}, "type": "electric_scooter", "name": "18e81fccf9a627a11804ee1aa1e6d193", "is_reserved": 0, "lon": -76.98620533333333, "is_disabled": 0, "fusion_lat": 0.0, "lat": 38.90587716666667, "bike_id": "18e81fccf9a627a11804ee1aa1e6d193", "fusion_lon": 0.0}, {"rental_uris": {"ios": "https://dc.lft.to/lastmile_qr_scan", "android": "https://dc.lft.to/lastmile_qr_scan"}, "type": "electric_scooter", "name": "fbeb5b2bfc1350cb49b613668b6bf9ca", "is_reserved": 0, "lon": -77.08779233333334, "is_disabled": 0, "fusion_lat": 0.0, "lat": 38.935563333333334, "bike_id": "fbeb5b2bfc1350cb49b613668b6bf9ca", "fusion_lon": 0.0}, {"rental_uris": {"ios": "https://dc.lft.to/lastmile_qr_scan", "android": "https://dc.lft.to/lastmile_qr_scan"}, "type": "electric_scooter", "name": "1625618c690e6e119bf722c946e082a3", "is_reserved": 0, "lon": -77.0238885, "is_disabled": 0, "fusion_lat": 0.0, "lat": 38.92078583333333, "bike_id": "1625618c690e6e119bf722c946e082a3", "fusion_lon": 0.0}, {"rental_uris": {"ios": "https://dc.lft.to/lastmile_qr_scan", "android": "https://dc.lft.to/lastmile_qr_scan"}, "type": "electric_bike", "name": "abd66f5815d87725499b1a38c4a80760", "is_reserved": 0, "lon": -77.0227255, "is_disabled": 0, "fusion_lat": 0.0, "lat": 38.9233645, "bike_id": "abd66f5815d87725499b1a38c4a80760", "fusion_lon": 0.0}, {"rental_uris": {"ios": "https://dc.lft.to/lastmile_qr_scan", "android": "https://dc.lft.to/lastmile_qr_scan"}, "type": "electric_scooter", "name": "3398fe42eb7e8b0bfa99dce03d217962", "is_reserved": 0, "lon": -77.01208983333333, "is_disabled": 0, "fusion_lat": 0.0, "lat": 38.87174266666667, "bike_id": "3398fe42eb7e8b0bfa99dce03d217962", "fusion_lon": 0.0}, {"rental_uris": {"ios": "https://dc.lft.to/lastmile_qr_scan", "android": "https://dc.lft.to/lastmile_qr_scan"}, "type": "electric_bike", "name": "e56769c956096c190efde71eb46e270a", "is_reserved": 0, "lon": -76.98350733333334, "is_disabled": 0, "fusion_lat": 0.0, "lat": 38.862624333333336, "bike_id": "e56769c956096c190efde71eb46e270a", "fusion_lon": 0.0}, {"rental_uris": {"ios": "https://dc.lft.to/lastmile_qr_scan", "android": "https://dc.lft.to/lastmile_qr_scan"}, "type": "electric_bike", "name": "63fd26d893549c65d27b6e4229ba62d7", "is_reserved": 0, "lon": -76.92892683333334, "is_disabled": 0, "fusion_lat": 0.0, "lat": 38.978312, "bike_id": "63fd26d893549c65d27b6e4229ba62d7", "fusion_lon": 0.0}, {"rental_uris": {"ios": "https://dc.lft.to/lastmile_qr_scan", "android": "https://dc.lft.to/lastmile_qr_scan"}, "type": "electric_scooter", "name": "65821a173c34b96a0c4c805db367440e", "is_reserved": 0, "lon": -77.02774633333334, "is_disabled": 0, "fusion_lat": 0.0, "lat": 38.916906166666664, "bike_id": "65821a173c34b96a0c4c805db367440e", "fusion_lon": 0.0}, {"rental_uris": {"ios": "https://dc.lft.to/lastmile_qr_scan", "android": "https://dc.lft.to/lastmile_qr_scan"}, "type": "electric_scooter", "name": "e10357809a697c883642ae53b395c1ab", "is_reserved": 0, "lon": -77.04429683333333, "is_disabled": 0, "fusion_lat": 0.0, "lat": 38.9211765, "bike_id": "e10357809a697c883642ae53b395c1ab", "fusion_lon": 0.0}, {"rental_uris": {"ios": "https://dc.lft.to/lastmile_qr_scan", "android": "https://dc.lft.to/lastmile_qr_scan"}, "type": "electric_scooter", "name": "f6d5e4a36841ec308a042975003a20b5", "is_reserved": 0, "lon": -77.03706033333333, "is_disabled": 0, "fusion_lat": 0.0, "lat": 38.918130833333336, "bike_id": "f6d5e4a36841ec308a042975003a20b5", "fusion_lon": 0.0}, {"rental_uris": {"ios": "https://dc.lft.to/lastmile_qr_scan", "android": "https://dc.lft.to/lastmile_qr_scan"}, "type": "electric_scooter", "name": "a464978173e57a97828735d9f9cd1b2d", "is_reserved": 0, "lon": -77.016658, "is_disabled": 0, "fusion_lat": 0.0, "lat": 38.93520683333333, "bike_id": "a464978173e57a97828735d9f9cd1b2d", "fusion_lon": 0.0}, {"rental_uris": {"ios": "https://dc.lft.to/lastmile_qr_scan", "android": "https://dc.lft.to/lastmile_qr_scan"}, "type": "electric_bike", "name": "a4d65a7f645bbe629d80e5d453386197", "is_reserved": 0, "lon": -76.96915833333334, "is_disabled": 0, "fusion_lat": 0.0, "lat": 38.84616166666667, "bike_id": "a4d65a7f645bbe629d80e5d453386197", "fusion_lon": 0.0}, {"rental_uris": {"ios": "https://dc.lft.to/lastmile_qr_scan", "android": "https://dc.lft.to/lastmile_qr_scan"}, "type": "electric_scooter", "name": "1deb12b823c9831edceb0b9e8f176eab", "is_reserved": 0, "lon": -76.97934833333333, "is_disabled": 0, "fusion_lat": 0.0, "lat": 38.9066455, "bike_id": "1deb12b823c9831edceb0b9e8f176eab", "fusion_lon": 0.0}, {"rental_uris": {"ios": "https://dc.lft.to/lastmile_qr_scan", "android": "https://dc.lft.to/lastmile_qr_scan"}, "type": "electric_scooter", "name": "b665263b250168c0ecd0152905c8797e", "is_reserved": 0, "lon": -77.0514845, "is_disabled": 0, "fusion_lat": 0.0, "lat": 38.9046935, "bike_id": "b665263b250168c0ecd0152905c8797e", "fusion_lon": 0.0}, {"rental_uris": {"ios": "https://dc.lft.to/lastmile_qr_scan", "android": "https://dc.lft.to/lastmile_qr_scan"}, "type": "electric_scooter", "name": "2b123fd3f4e80f176c9720717a40bd7f", "is_reserved": 0, "lon": -77.03510116666666, "is_disabled": 0, "fusion_lat": 0.0, "lat": 38.90962833333333, "bike_id": "2b123fd3f4e80f176c9720717a40bd7f", "fusion_lon": 0.0}, {"rental_uris": {"ios": "https://dc.lft.to/lastmile_qr_scan", "android": "https://dc.lft.to/lastmile_qr_scan"}, "type": "electric_scooter", "name": "9e4c0a43d015817bae5fc439e2956dba", "is_reserved": 0, "lon": -77.00905666666667, "is_disabled": 0, "fusion_lat": 0.0, "lat": 38.898884833333334, "bike_id": "9e4c0a43d015817bae5fc439e2956dba", "fusion_lon": 0.0}, {"rental_uris": {"ios": "https://dc.lft.to/lastmile_qr_scan", "android": "https://dc.lft.to/lastmile_qr_scan"}, "type": "electric_scooter", "name": "a852d7de3e48d9d20ea96126f6a2b5c3", "is_reserved": 0, "lon": -77.09652066666666, "is_disabled": 0, "fusion_lat": 0.0, "lat": 38.916291666666666, "bike_id": "a852d7de3e48d9d20ea96126f6a2b5c3", "fusion_lon": 0.0}, {"rental_uris": {"ios": "https://dc.lft.to/lastmile_qr_scan", "android": "https://dc.lft.to/lastmile_qr_scan"}, "type": "electric_scooter", "name": "8e68dd0083c0700d95da4588da19b345", "is_reserved": 0, "lon": -77.03292766666667, "is_disabled": 0, "fusion_lat": 0.0, "lat": 38.903915833333336, "bike_id": "8e68dd0083c0700d95da4588da19b345", "fusion_lon": 0.0}, {"rental_uris": {"ios": "https://dc.lft.to/lastmile_qr_scan", "android": "https://dc.lft.to/lastmile_qr_scan"}, "type": "electric_scooter", "name": "26c9db5044d3e99db3b9f971191defda", "is_reserved": 0, "lon": -77.05687933333333, "is_disabled": 0, "fusion_lat": 0.0, "lat": 38.90482933333333, "bike_id": "26c9db5044d3e99db3b9f971191defda", "fusion_lon": 0.0}, {"rental_uris": {"ios": "https://dc.lft.to/lastmile_qr_scan", "android": "https://dc.lft.to/lastmile_qr_scan"}, "type": "electric_bike", "name": "e16992e73839b5663a909889d9b74572", "is_reserved": 0, "lon": -77.00138166666666, "is_disabled": 0, "fusion_lat": 0.0, "lat": 38.995069666666666, "bike_id": "e16992e73839b5663a909889d9b74572", "fusion_lon": 0.0}, {"rental_uris": {"ios": "https://dc.lft.to/lastmile_qr_scan", "android": "https://dc.lft.to/lastmile_qr_scan"}, "type": "electric_scooter", "name": "790080b23c71f98809e1e97a75ca74e6", "is_reserved": 0, "lon": -77.05787933333333, "is_disabled": 0, "fusion_lat": 0.0, "lat": 38.905129333333335, "bike_id": "790080b23c71f98809e1e97a75ca74e6", "fusion_lon": 0.0}, {"rental_uris": {"ios": "https://dc.lft.to/lastmile_qr_scan", "android": "https://dc.lft.to/lastmile_qr_scan"}, "type": "electric_scooter", "name": "82fa330e113059bfa3d07b17d9c8bcae", "is_reserved": 0, "lon": -77.00207033333334, "is_disabled": 0, "fusion_lat": 0.0, "lat": 38.89329133333333, "bike_id": "82fa330e113059bfa3d07b17d9c8bcae", "fusion_lon": 0.0}, {"rental_uris": {"ios": "https://dc.lft.to/lastmile_qr_scan", "android": "https://dc.lft.to/lastmile_qr_scan"}, "type": "electric_scooter", "name": "de4ba7c13b8b1c014a9c770ee788912b", "is_reserved": 0, "lon": -76.99598016666667, "is_disabled": 0, "fusion_lat": 0.0, "lat": 38.90025716666667, "bike_id": "de4ba7c13b8b1c014a9c770ee788912b", "fusion_lon": 0.0}, {"rental_uris": {"ios": "https://dc.lft.to/lastmile_qr_scan", "android": "https://dc.lft.to/lastmile_qr_scan"}, "type": "electric_scooter", "name": "76b31a3ca335428d4420d83401f4ad74", "is_reserved": 0, "lon": -77.02310983333334, "is_disabled": 0, "fusion_lat": 0.0, "lat": 38.90965583333333, "bike_id": "76b31a3ca335428d4420d83401f4ad74", "fusion_lon": 0.0}, {"rental_uris": {"ios": "https://dc.lft.to/lastmile_qr_scan", "android": "https://dc.lft.to/lastmile_qr_scan"}, "type": "electric_scooter", "name": "1406ab9930c7ed23e12e3e93e7acfce8", "is_reserved": 0, "lon": -77.02944466666666, "is_disabled": 0, "fusion_lat": 0.0, "lat": 38.917101833333334, "bike_id": "1406ab9930c7ed23e12e3e93e7acfce8", "fusion_lon": 0.0}, {"rental_uris": {"ios": "https://dc.lft.to/lastmile_qr_scan", "android": "https://dc.lft.to/lastmile_qr_scan"}, "type": "electric_scooter", "name": "ccc0817fadc445567440393954dda8d5", "is_reserved": 0, "lon": -77.03183266666667, "is_disabled": 0, "fusion_lat": 0.0, "lat": 38.916103166666666, "bike_id": "ccc0817fadc445567440393954dda8d5", "fusion_lon": 0.0}, {"rental_uris": {"ios": "https://dc.lft.to/lastmile_qr_scan", "android": "https://dc.lft.to/lastmile_qr_scan"}, "type": "electric_scooter", "name": "078f4c7e26c34eae34e699fdee606762", "is_reserved": 0, "lon": -77.06112066666667, "is_disabled": 0, "fusion_lat": 0.0, "lat": 38.912856833333336, "bike_id": "078f4c7e26c34eae34e699fdee606762", "fusion_lon": 0.0}, {"rental_uris": {"ios": "https://dc.lft.to/lastmile_qr_scan", "android": "https://dc.lft.to/lastmile_qr_scan"}, "type": "electric_scooter", "name": "559dc07db224df803bbc9f1b5ea45dc2", "is_reserved": 0, "lon": -77.0380525, "is_disabled": 0, "fusion_lat": 0.0, "lat": 38.90372166666667, "bike_id": "559dc07db224df803bbc9f1b5ea45dc2", "fusion_lon": 0.0}, {"rental_uris": {"ios": "https://dc.lft.to/lastmile_qr_scan", "android": "https://dc.lft.to/lastmile_qr_scan"}, "type": "electric_scooter", "name": "0ec181f00e4aa2a65a762014b38b0198", "is_reserved": 0, "lon": -77.0251905, "is_disabled": 0, "fusion_lat": 0.0, "lat": 38.92396983333333, "bike_id": "0ec181f00e4aa2a65a762014b38b0198", "fusion_lon": 0.0}, {"rental_uris": {"ios": "https://dc.lft.to/lastmile_qr_scan", "android": "https://dc.lft.to/lastmile_qr_scan"}, "type": "electric_scooter", "name": "e6e3e7c5697c6271ec3505a591654b3e", "is_reserved": 0, "lon": -76.97329816666667, "is_disabled": 0, "fusion_lat": 0.0, "lat": 38.904105, "bike_id": "e6e3e7c5697c6271ec3505a591654b3e", "fusion_lon": 0.0}, {"rental_uris": {"ios": "https://dc.lft.to/lastmile_qr_scan", "android": "https://dc.lft.to/lastmile_qr_scan"}, "type": "electric_scooter", "name": "5937c5f6f5a6f0f3d5a30e60006b7aa3", "is_reserved": 0, "lon": -76.99589433333334, "is_disabled": 0, "fusion_lat": 0.0, "lat": 38.909431833333336, "bike_id": "5937c5f6f5a6f0f3d5a30e60006b7aa3", "fusion_lon": 0.0}, {"rental_uris": {"ios": "https://dc.lft.to/lastmile_qr_scan", "android": "https://dc.lft.to/lastmile_qr_scan"}, "type": "electric_scooter", "name": "29422db2b3bb679419e2c229962b639c", "is_reserved": 0, "lon": -77.0481925, "is_disabled": 0, "fusion_lat": 0.0, "lat": 38.91491383333333, "bike_id": "29422db2b3bb679419e2c229962b639c", "fusion_lon": 0.0}, {"rental_uris": {"ios": "https://dc.lft.to/lastmile_qr_scan", "android": "https://dc.lft.to/lastmile_qr_scan"}, "type": "electric_scooter", "name": "cfc98b8274e07bd9d86efbf374b39ee7", "is_reserved": 0, "lon": -77.0176405, "is_disabled": 0, "fusion_lat": 0.0, "lat": 38.87859916666667, "bike_id": "cfc98b8274e07bd9d86efbf374b39ee7", "fusion_lon": 0.0}, {"rental_uris": {"ios": "https://dc.lft.to/lastmile_qr_scan", "android": "https://dc.lft.to/lastmile_qr_scan"}, "type": "electric_bike", "name": "099d488c84ecaaeb4e46c85cecf57d91", "is_reserved": 0, "lon": -77.00801016666666, "is_disabled": 0, "fusion_lat": 0.0, "lat": 38.9140185, "bike_id": "099d488c84ecaaeb4e46c85cecf57d91", "fusion_lon": 0.0}, {"rental_uris": {"ios": "https://dc.lft.to/lastmile_qr_scan", "android": "https://dc.lft.to/lastmile_qr_scan"}, "type": "electric_scooter", "name": "520c7c5255b6ca23a1ce0b39acc8d0f0", "is_reserved": 0, "lon": -77.03977333333333, "is_disabled": 0, "fusion_lat": 0.0, "lat": 38.93152966666667, "bike_id": "520c7c5255b6ca23a1ce0b39acc8d0f0", "fusion_lon": 0.0}, {"rental_uris": {"ios": "https://dc.lft.to/lastmile_qr_scan", "android": "https://dc.lft.to/lastmile_qr_scan"}, "type": "electric_scooter", "name": "342f91149e3f469d7480c52ecef3f46b", "is_reserved": 0, "lon": -77.00917516666667, "is_disabled": 0, "fusion_lat": 0.0, "lat": 38.89743983333334, "bike_id": "342f91149e3f469d7480c52ecef3f46b", "fusion_lon": 0.0}, {"rental_uris": {"ios": "https://dc.lft.to/lastmile_qr_scan", "android": "https://dc.lft.to/lastmile_qr_scan"}, "type": "electric_bike", "name": "3703a626e11ec191b2f36340b5c8235f", "is_reserved": 0, "lon": -77.06946383333333, "is_disabled": 0, "fusion_lat": 0.0, "lat": 38.83629833333333, "bike_id": "3703a626e11ec191b2f36340b5c8235f", "fusion_lon": 0.0}, {"rental_uris": {"ios": "https://dc.lft.to/lastmile_qr_scan", "android": "https://dc.lft.to/lastmile_qr_scan"}, "type": "electric_scooter", "name": "44b2d0ac8a4d0eed24c5e80fb9ce901a", "is_reserved": 0, "lon": -77.06111566666667, "is_disabled": 0, "fusion_lat": 0.0, "lat": 38.90479833333333, "bike_id": "44b2d0ac8a4d0eed24c5e80fb9ce901a", "fusion_lon": 0.0}, {"rental_uris": {"ios": "https://dc.lft.to/lastmile_qr_scan", "android": "https://dc.lft.to/lastmile_qr_scan"}, "type": "electric_scooter", "name": "0290005d78e1c0026198edb7229780bd", "is_reserved": 0, "lon": -76.99078566666667, "is_disabled": 0, "fusion_lat": 0.0, "lat": 38.902978, "bike_id": "0290005d78e1c0026198edb7229780bd", "fusion_lon": 0.0}, {"rental_uris": {"ios": "https://dc.lft.to/lastmile_qr_scan", "android": "https://dc.lft.to/lastmile_qr_scan"}, "type": "electric_scooter", "name": "9fb308f71e9f673e7d864be033556db6", "is_reserved": 0, "lon": -77.01948533333334, "is_disabled": 0, "fusion_lat": 0.0, "lat": 38.929135, "bike_id": "9fb308f71e9f673e7d864be033556db6", "fusion_lon": 0.0}, {"rental_uris": {"ios": "https://dc.lft.to/lastmile_qr_scan", "android": "https://dc.lft.to/lastmile_qr_scan"}, "type": "electric_bike", "name": "b2acca8fa03d4d5ef5d4ac3f1d60bca2", "is_reserved": 0, "lon": -76.99501733333334, "is_disabled": 0, "fusion_lat": 0.0, "lat": 38.88184116666667, "bike_id": "b2acca8fa03d4d5ef5d4ac3f1d60bca2", "fusion_lon": 0.0}, {"rental_uris": {"ios": "https://dc.lft.to/lastmile_qr_scan", "android": "https://dc.lft.to/lastmile_qr_scan"}, "type": "electric_scooter", "name": "5e1058672db828ce6b253031114178d7", "is_reserved": 0, "lon": -77.01583366666667, "is_disabled": 0, "fusion_lat": 0.0, "lat": 38.916781, "bike_id": "5e1058672db828ce6b253031114178d7", "fusion_lon": 0.0}, {"rental_uris": {"ios": "https://dc.lft.to/lastmile_qr_scan", "android": "https://dc.lft.to/lastmile_qr_scan"}, "type": "electric_scooter", "name": "6b8d8da7550a26bf1c241dac68f8df61", "is_reserved": 0, "lon": -77.02246216666667, "is_disabled": 0, "fusion_lat": 0.0, "lat": 38.9111665, "bike_id": "6b8d8da7550a26bf1c241dac68f8df61", "fusion_lon": 0.0}, {"rental_uris": {"ios": "https://dc.lft.to/lastmile_qr_scan", "android": "https://dc.lft.to/lastmile_qr_scan"}, "type": "electric_scooter", "name": "0fca1859eeee20e3ec4c4613eb9b8d16", "is_reserved": 0, "lon": -77.0460295, "is_disabled": 0, "fusion_lat": 0.0, "lat": 38.919244, "bike_id": "0fca1859eeee20e3ec4c4613eb9b8d16", "fusion_lon": 0.0}, {"rental_uris": {"ios": "https://dc.lft.to/lastmile_qr_scan", "android": "https://dc.lft.to/lastmile_qr_scan"}, "type": "electric_scooter", "name": "29a772825c00a22d4e030d4c04e217fd", "is_reserved": 0, "lon": -77.00579733333333, "is_disabled": 0, "fusion_lat": 0.0, "lat": 38.900301, "bike_id": "29a772825c00a22d4e030d4c04e217fd", "fusion_lon": 0.0}, {"rental_uris": {"ios": "https://dc.lft.to/lastmile_qr_scan", "android": "https://dc.lft.to/lastmile_qr_scan"}, "type": "electric_scooter", "name": "85fb4ad4c2aa7641b1d6a8c02817a94d", "is_reserved": 0, "lon": -76.981582, "is_disabled": 0, "fusion_lat": 0.0, "lat": 38.86181783333333, "bike_id": "85fb4ad4c2aa7641b1d6a8c02817a94d", "fusion_lon": 0.0}, {"rental_uris": {"ios": "https://dc.lft.to/lastmile_qr_scan", "android": "https://dc.lft.to/lastmile_qr_scan"}, "type": "electric_scooter", "name": "031b846a228807932d61120c0696cde0", "is_reserved": 0, "lon": -77.05501516666666, "is_disabled": 0, "fusion_lat": 0.0, "lat": 38.929687666666666, "bike_id": "031b846a228807932d61120c0696cde0", "fusion_lon": 0.0}, {"rental_uris": {"ios": "https://dc.lft.to/lastmile_qr_scan", "android": "https://dc.lft.to/lastmile_qr_scan"}, "type": "electric_scooter", "name": "b047d4b706170c8043f87abfb2504845", "is_reserved": 0, "lon": -77.02577283333333, "is_disabled": 0, "fusion_lat": 0.0, "lat": 38.93526933333333, "bike_id": "b047d4b706170c8043f87abfb2504845", "fusion_lon": 0.0}, {"rental_uris": {"ios": "https://dc.lft.to/lastmile_qr_scan", "android": "https://dc.lft.to/lastmile_qr_scan"}, "type": "electric_scooter", "name": "a81afb0651cf8369824b0dff451e1745", "is_reserved": 0, "lon": -77.0628545, "is_disabled": 0, "fusion_lat": 0.0, "lat": 38.91249, "bike_id": "a81afb0651cf8369824b0dff451e1745", "fusion_lon": 0.0}, {"rental_uris": {"ios": "https://dc.lft.to/lastmile_qr_scan", "android": "https://dc.lft.to/lastmile_qr_scan"}, "type": "electric_scooter", "name": "3afc90e9b5b2573d55e7938d46be1425", "is_reserved": 0, "lon": -77.03180683333333, "is_disabled": 0, "fusion_lat": 0.0, "lat": 38.930445666666664, "bike_id": "3afc90e9b5b2573d55e7938d46be1425", "fusion_lon": 0.0}, {"rental_uris": {"ios": "https://dc.lft.to/lastmile_qr_scan", "android": "https://dc.lft.to/lastmile_qr_scan"}, "type": "electric_scooter", "name": "26cc8e6a5d9dc133e7f47144602333b5", "is_reserved": 0, "lon": -77.02155083333334, "is_disabled": 0, "fusion_lat": 0.0, "lat": 38.92603016666666, "bike_id": "26cc8e6a5d9dc133e7f47144602333b5", "fusion_lon": 0.0}, {"rental_uris": {"ios": "https://dc.lft.to/lastmile_qr_scan", "android": "https://dc.lft.to/lastmile_qr_scan"}, "type": "electric_scooter", "name": "b9b624b885316d48ad189941f5b655e3", "is_reserved": 0, "lon": -77.03675883333334, "is_disabled": 0, "fusion_lat": 0.0, "lat": 38.90198266666667, "bike_id": "b9b624b885316d48ad189941f5b655e3", "fusion_lon": 0.0}, {"rental_uris": {"ios": "https://dc.lft.to/lastmile_qr_scan", "android": "https://dc.lft.to/lastmile_qr_scan"}, "type": "electric_scooter", "name": "e2c553915c332887a0ab65c70e738f6b", "is_reserved": 0, "lon": -77.01205083333333, "is_disabled": 0, "fusion_lat": 0.0, "lat": 38.9171945, "bike_id": "e2c553915c332887a0ab65c70e738f6b", "fusion_lon": 0.0}, {"rental_uris": {"ios": "https://dc.lft.to/lastmile_qr_scan", "android": "https://dc.lft.to/lastmile_qr_scan"}, "type": "electric_scooter", "name": "7de98c50a08e21c6f8148584e9765413", "is_reserved": 0, "lon": -77.02136566666667, "is_disabled": 0, "fusion_lat": 0.0, "lat": 38.9245005, "bike_id": "7de98c50a08e21c6f8148584e9765413", "fusion_lon": 0.0}, {"rental_uris": {"ios": "https://dc.lft.to/lastmile_qr_scan", "android": "https://dc.lft.to/lastmile_qr_scan"}, "type": "electric_scooter", "name": "36e01c7cf08aa8696e650e52d4fc03c2", "is_reserved": 0, "lon": -77.0266165, "is_disabled": 0, "fusion_lat": 0.0, "lat": 38.938596, "bike_id": "36e01c7cf08aa8696e650e52d4fc03c2", "fusion_lon": 0.0}, {"rental_uris": {"ios": "https://dc.lft.to/lastmile_qr_scan", "android": "https://dc.lft.to/lastmile_qr_scan"}, "type": "electric_scooter", "name": "5ac4e072f41ac73de6d133f606b9337d", "is_reserved": 0, "lon": -76.9485385, "is_disabled": 0, "fusion_lat": 0.0, "lat": 38.883026, "bike_id": "5ac4e072f41ac73de6d133f606b9337d", "fusion_lon": 0.0}, {"rental_uris": {"ios": "https://dc.lft.to/lastmile_qr_scan", "android": "https://dc.lft.to/lastmile_qr_scan"}, "type": "electric_scooter", "name": "041784e2a814df5232094588ae3e69ff", "is_reserved": 0, "lon": -77.020784, "is_disabled": 0, "fusion_lat": 0.0, "lat": 38.9240995, "bike_id": "041784e2a814df5232094588ae3e69ff", "fusion_lon": 0.0}, {"rental_uris": {"ios": "https://dc.lft.to/lastmile_qr_scan", "android": "https://dc.lft.to/lastmile_qr_scan"}, "type": "electric_scooter", "name": "cea51106bfc347284c2bbcd4166b2202", "is_reserved": 0, "lon": -77.00700483333334, "is_disabled": 0, "fusion_lat": 0.0, "lat": 38.878384, "bike_id": "cea51106bfc347284c2bbcd4166b2202", "fusion_lon": 0.0}, {"rental_uris": {"ios": "https://dc.lft.to/lastmile_qr_scan", "android": "https://dc.lft.to/lastmile_qr_scan"}, "type": "electric_scooter", "name": "95890c662ed28495f33b9cbcb2a7e7b7", "is_reserved": 0, "lon": -77.02336283333334, "is_disabled": 0, "fusion_lat": 0.0, "lat": 38.9306935, "bike_id": "95890c662ed28495f33b9cbcb2a7e7b7", "fusion_lon": 0.0}, {"rental_uris": {"ios": "https://dc.lft.to/lastmile_qr_scan", "android": "https://dc.lft.to/lastmile_qr_scan"}, "type": "electric_scooter", "name": "65c3baa850d387c8bebd8d4cd74dea35", "is_reserved": 0, "lon": -77.02288616666667, "is_disabled": 0, "fusion_lat": 0.0, "lat": 38.89711333333333, "bike_id": "65c3baa850d387c8bebd8d4cd74dea35", "fusion_lon": 0.0}, {"rental_uris": {"ios": "https://dc.lft.to/lastmile_qr_scan", "android": "https://dc.lft.to/lastmile_qr_scan"}, "type": "electric_scooter", "name": "5d31115e22d6f1ef5d5085299df23d04", "is_reserved": 0, "lon": -77.02391633333333, "is_disabled": 0, "fusion_lat": 0.0, "lat": 38.9319975, "bike_id": "5d31115e22d6f1ef5d5085299df23d04", "fusion_lon": 0.0}, {"rental_uris": {"ios": "https://dc.lft.to/lastmile_qr_scan", "android": "https://dc.lft.to/lastmile_qr_scan"}, "type": "electric_scooter", "name": "ab7e3e82cc36773561be227a8fcb624f", "is_reserved": 0, "lon": -77.02123816666666, "is_disabled": 0, "fusion_lat": 0.0, "lat": 38.923820166666665, "bike_id": "ab7e3e82cc36773561be227a8fcb624f", "fusion_lon": 0.0}, {"rental_uris": {"ios": "https://dc.lft.to/lastmile_qr_scan", "android": "https://dc.lft.to/lastmile_qr_scan"}, "type": "electric_bike", "name": "483c0d83e7dc006c0ea22d4d3155e7e4", "is_reserved": 0, "lon": -77.04754466666667, "is_disabled": 0, "fusion_lat": 0.0, "lat": 38.89960416666667, "bike_id": "483c0d83e7dc006c0ea22d4d3155e7e4", "fusion_lon": 0.0}, {"rental_uris": {"ios": "https://dc.lft.to/lastmile_qr_scan", "android": "https://dc.lft.to/lastmile_qr_scan"}, "type": "electric_scooter", "name": "6e1c5612fead1c6c1655dd6a593ea319", "is_reserved": 0, "lon": -77.040629, "is_disabled": 0, "fusion_lat": 0.0, "lat": 38.917563, "bike_id": "6e1c5612fead1c6c1655dd6a593ea319", "fusion_lon": 0.0}, {"rental_uris": {"ios": "https://dc.lft.to/lastmile_qr_scan", "android": "https://dc.lft.to/lastmile_qr_scan"}, "type": "electric_scooter", "name": "a8f61678db82ff5306a5fcef0897c797", "is_reserved": 0, "lon": -77.038697, "is_disabled": 0, "fusion_lat": 0.0, "lat": 38.918822166666665, "bike_id": "a8f61678db82ff5306a5fcef0897c797", "fusion_lon": 0.0}, {"rental_uris": {"ios": "https://dc.lft.to/lastmile_qr_scan", "android": "https://dc.lft.to/lastmile_qr_scan"}, "type": "electric_scooter", "name": "310ae854b69626229772c6ab691309c2", "is_reserved": 0, "lon": -76.98097516666667, "is_disabled": 0, "fusion_lat": 0.0, "lat": 38.9040145, "bike_id": "310ae854b69626229772c6ab691309c2", "fusion_lon": 0.0}, {"rental_uris": {"ios": "https://dc.lft.to/lastmile_qr_scan", "android": "https://dc.lft.to/lastmile_qr_scan"}, "type": "electric_scooter", "name": "bf2a9b1c32b6680b3e3729a4b3748ac7", "is_reserved": 0, "lon": -77.052337, "is_disabled": 0, "fusion_lat": 0.0, "lat": 38.924687166666665, "bike_id": "bf2a9b1c32b6680b3e3729a4b3748ac7", "fusion_lon": 0.0}, {"rental_uris": {"ios": "https://dc.lft.to/lastmile_qr_scan", "android": "https://dc.lft.to/lastmile_qr_scan"}, "type": "electric_scooter", "name": "f3e55fabe860746f2afc0a9e4cd32b4a", "is_reserved": 0, "lon": -77.02156183333334, "is_disabled": 0, "fusion_lat": 0.0, "lat": 38.894926166666664, "bike_id": "f3e55fabe860746f2afc0a9e4cd32b4a", "fusion_lon": 0.0}, {"rental_uris": {"ios": "https://dc.lft.to/lastmile_qr_scan", "android": "https://dc.lft.to/lastmile_qr_scan"}, "type": "electric_scooter", "name": "1efc949f3c5f0d45ec60a211f857de0f", "is_reserved": 0, "lon": -77.02128516666667, "is_disabled": 0, "fusion_lat": 0.0, "lat": 38.92417983333333, "bike_id": "1efc949f3c5f0d45ec60a211f857de0f", "fusion_lon": 0.0}, {"rental_uris": {"ios": "https://dc.lft.to/lastmile_qr_scan", "android": "https://dc.lft.to/lastmile_qr_scan"}, "type": "electric_bike", "name": "807101f46080b7af3589426253a6c556", "is_reserved": 0, "lon": -77.08525933333334, "is_disabled": 0, "fusion_lat": 0.0, "lat": 38.85651033333333, "bike_id": "807101f46080b7af3589426253a6c556", "fusion_lon": 0.0}, {"rental_uris": {"ios": "https://dc.lft.to/lastmile_qr_scan", "android": "https://dc.lft.to/lastmile_qr_scan"}, "type": "electric_scooter", "name": "0ca9aeaff0e4681c660ab8f2b5cd65c9", "is_reserved": 0, "lon": -77.02793033333333, "is_disabled": 0, "fusion_lat": 0.0, "lat": 38.93080033333333, "bike_id": "0ca9aeaff0e4681c660ab8f2b5cd65c9", "fusion_lon": 0.0}, {"rental_uris": {"ios": "https://dc.lft.to/lastmile_qr_scan", "android": "https://dc.lft.to/lastmile_qr_scan"}, "type": "electric_scooter", "name": "5d696e11a255ea912e7fd2693acc445d", "is_reserved": 0, "lon": -77.09032783333333, "is_disabled": 0, "fusion_lat": 0.0, "lat": 38.956051, "bike_id": "5d696e11a255ea912e7fd2693acc445d", "fusion_lon": 0.0}, {"rental_uris": {"ios": "https://dc.lft.to/lastmile_qr_scan", "android": "https://dc.lft.to/lastmile_qr_scan"}, "type": "electric_scooter", "name": "1ecdba9033333252e32ef3d2eb71ded5", "is_reserved": 0, "lon": -77.03418433333333, "is_disabled": 0, "fusion_lat": 0.0, "lat": 38.921953333333335, "bike_id": "1ecdba9033333252e32ef3d2eb71ded5", "fusion_lon": 0.0}, {"rental_uris": {"ios": "https://dc.lft.to/lastmile_qr_scan", "android": "https://dc.lft.to/lastmile_qr_scan"}, "type": "electric_scooter", "name": "fa318b9babab32b88afdab9758728511", "is_reserved": 0, "lon": -76.97454283333333, "is_disabled": 0, "fusion_lat": 0.0, "lat": 38.864030666666665, "bike_id": "fa318b9babab32b88afdab9758728511", "fusion_lon": 0.0}, {"rental_uris": {"ios": "https://dc.lft.to/lastmile_qr_scan", "android": "https://dc.lft.to/lastmile_qr_scan"}, "type": "electric_scooter", "name": "22c941ba9ff6664b36aac80c176e43e5", "is_reserved": 0, "lon": -77.04039133333333, "is_disabled": 0, "fusion_lat": 0.0, "lat": 38.90410633333333, "bike_id": "22c941ba9ff6664b36aac80c176e43e5", "fusion_lon": 0.0}, {"rental_uris": {"ios": "https://dc.lft.to/lastmile_qr_scan", "android": "https://dc.lft.to/lastmile_qr_scan"}, "type": "electric_scooter", "name": "de57b3865911b356fff824799c2062e5", "is_reserved": 0, "lon": -77.05904166666667, "is_disabled": 0, "fusion_lat": 0.0, "lat": 38.902714333333336, "bike_id": "de57b3865911b356fff824799c2062e5", "fusion_lon": 0.0}, {"rental_uris": {"ios": "https://dc.lft.to/lastmile_qr_scan", "android": "https://dc.lft.to/lastmile_qr_scan"}, "type": "electric_scooter", "name": "bf8c77679d10d7be89ead3e95f429410", "is_reserved": 0, "lon": -77.00587516666667, "is_disabled": 0, "fusion_lat": 0.0, "lat": 38.87567716666667, "bike_id": "bf8c77679d10d7be89ead3e95f429410", "fusion_lon": 0.0}, {"rental_uris": {"ios": "https://dc.lft.to/lastmile_qr_scan", "android": "https://dc.lft.to/lastmile_qr_scan"}, "type": "electric_scooter", "name": "ac92464b43df8e475ffffb19470de7a8", "is_reserved": 0, "lon": -77.04177166666666, "is_disabled": 0, "fusion_lat": 0.0, "lat": 38.90133333333333, "bike_id": "ac92464b43df8e475ffffb19470de7a8", "fusion_lon": 0.0}, {"rental_uris": {"ios": "https://dc.lft.to/lastmile_qr_scan", "android": "https://dc.lft.to/lastmile_qr_scan"}, "type": "electric_scooter", "name": "3ff6c0a9c4b61937149aa209cf27fe78", "is_reserved": 0, "lon": -77.04157866666667, "is_disabled": 0, "fusion_lat": 0.0, "lat": 38.925655166666665, "bike_id": "3ff6c0a9c4b61937149aa209cf27fe78", "fusion_lon": 0.0}, {"rental_uris": {"ios": "https://dc.lft.to/lastmile_qr_scan", "android": "https://dc.lft.to/lastmile_qr_scan"}, "type": "electric_scooter", "name": "c8c7a4ca11ef12917cbdc50af66020f5", "is_reserved": 0, "lon": -77.0244135, "is_disabled": 0, "fusion_lat": 0.0, "lat": 38.903184, "bike_id": "c8c7a4ca11ef12917cbdc50af66020f5", "fusion_lon": 0.0}, {"rental_uris": {"ios": "https://dc.lft.to/lastmile_qr_scan", "android": "https://dc.lft.to/lastmile_qr_scan"}, "type": "electric_bike", "name": "e55c6b61fd1065088271aaacaafc35cf", "is_reserved": 0, "lon": -77.12652466666667, "is_disabled": 0, "fusion_lat": 0.0, "lat": 38.819131166666665, "bike_id": "e55c6b61fd1065088271aaacaafc35cf", "fusion_lon": 0.0}, {"rental_uris": {"ios": "https://dc.lft.to/lastmile_qr_scan", "android": "https://dc.lft.to/lastmile_qr_scan"}, "type": "electric_scooter", "name": "20819939527ac937a9fd24a4f6388df6", "is_reserved": 0, "lon": -77.03837116666666, "is_disabled": 0, "fusion_lat": 0.0, "lat": 38.9036935, "bike_id": "20819939527ac937a9fd24a4f6388df6", "fusion_lon": 0.0}, {"rental_uris": {"ios": "https://dc.lft.to/lastmile_qr_scan", "android": "https://dc.lft.to/lastmile_qr_scan"}, "type": "electric_scooter", "name": "859ea7f7fc812eab030fdbe1ba09cd83", "is_reserved": 0, "lon": -77.0533095, "is_disabled": 0, "fusion_lat": 0.0, "lat": 38.90643583333333, "bike_id": "859ea7f7fc812eab030fdbe1ba09cd83", "fusion_lon": 0.0}, {"rental_uris": {"ios": "https://dc.lft.to/lastmile_qr_scan", "android": "https://dc.lft.to/lastmile_qr_scan"}, "type": "electric_scooter", "name": "08701a6881d6aa563c42b8560ceaa451", "is_reserved": 0, "lon": -77.04148483333333, "is_disabled": 0, "fusion_lat": 0.0, "lat": 38.907432, "bike_id": "08701a6881d6aa563c42b8560ceaa451", "fusion_lon": 0.0}, {"rental_uris": {"ios": "https://dc.lft.to/lastmile_qr_scan", "android": "https://dc.lft.to/lastmile_qr_scan"}, "type": "electric_scooter", "name": "1bcc22b54ba63467a5823440a9639828", "is_reserved": 0, "lon": -77.03303333333334, "is_disabled": 0, "fusion_lat": 0.0, "lat": 38.903843333333334, "bike_id": "1bcc22b54ba63467a5823440a9639828", "fusion_lon": 0.0}, {"rental_uris": {"ios": "https://dc.lft.to/lastmile_qr_scan", "android": "https://dc.lft.to/lastmile_qr_scan"}, "type": "electric_scooter", "name": "7c190ac506a230034dec7edfb7e5869a", "is_reserved": 0, "lon": -77.03830866666667, "is_disabled": 0, "fusion_lat": 0.0, "lat": 38.9118565, "bike_id": "7c190ac506a230034dec7edfb7e5869a", "fusion_lon": 0.0}, {"rental_uris": {"ios": "https://dc.lft.to/lastmile_qr_scan", "android": "https://dc.lft.to/lastmile_qr_scan"}, "type": "electric_bike", "name": "00abe44f0e98a42a25bda689b88c4858", "is_reserved": 0, "lon": -77.12648483333334, "is_disabled": 0, "fusion_lat": 0.0, "lat": 38.81907616666667, "bike_id": "00abe44f0e98a42a25bda689b88c4858", "fusion_lon": 0.0}, {"rental_uris": {"ios": "https://dc.lft.to/lastmile_qr_scan", "android": "https://dc.lft.to/lastmile_qr_scan"}, "type": "electric_scooter", "name": "812f8afedaaa653f4fd3d2775647d468", "is_reserved": 0, "lon": -77.04939733333333, "is_disabled": 0, "fusion_lat": 0.0, "lat": 38.9054265, "bike_id": "812f8afedaaa653f4fd3d2775647d468", "fusion_lon": 0.0}, {"rental_uris": {"ios": "https://dc.lft.to/lastmile_qr_scan", "android": "https://dc.lft.to/lastmile_qr_scan"}, "type": "electric_scooter", "name": "7caae63c314ead06f7a0345f85193850", "is_reserved": 0, "lon": -77.06405616666666, "is_disabled": 0, "fusion_lat": 0.0, "lat": 38.908605, "bike_id": "7caae63c314ead06f7a0345f85193850", "fusion_lon": 0.0}, {"rental_uris": {"ios": "https://dc.lft.to/lastmile_qr_scan", "android": "https://dc.lft.to/lastmile_qr_scan"}, "type": "electric_bike", "name": "044a8b97b48859a67053243b7881d7ff", "is_reserved": 0, "lon": -76.9524655, "is_disabled": 0, "fusion_lat": 0.0, "lat": 38.90696916666667, "bike_id": "044a8b97b48859a67053243b7881d7ff", "fusion_lon": 0.0}, {"rental_uris": {"ios": "https://dc.lft.to/lastmile_qr_scan", "android": "https://dc.lft.to/lastmile_qr_scan"}, "type": "electric_scooter", "name": "8bb351fc7bb171df74c12cadbdee6c55", "is_reserved": 0, "lon": -76.92827116666666, "is_disabled": 0, "fusion_lat": 0.0, "lat": 38.901826666666665, "bike_id": "8bb351fc7bb171df74c12cadbdee6c55", "fusion_lon": 0.0}, {"rental_uris": {"ios": "https://dc.lft.to/lastmile_qr_scan", "android": "https://dc.lft.to/lastmile_qr_scan"}, "type": "electric_scooter", "name": "e6c2d198f2fdc1aa63f88121a8656d6f", "is_reserved": 0, "lon": -77.04503833333334, "is_disabled": 0, "fusion_lat": 0.0, "lat": 38.915948, "bike_id": "e6c2d198f2fdc1aa63f88121a8656d6f", "fusion_lon": 0.0}, {"rental_uris": {"ios": "https://dc.lft.to/lastmile_qr_scan", "android": "https://dc.lft.to/lastmile_qr_scan"}, "type": "electric_scooter", "name": "a8f7cb3abd41f39bed1d417bcf490d6d", "is_reserved": 0, "lon": -77.0637195, "is_disabled": 0, "fusion_lat": 0.0, "lat": 38.93559716666667, "bike_id": "a8f7cb3abd41f39bed1d417bcf490d6d", "fusion_lon": 0.0}, {"rental_uris": {"ios": "https://dc.lft.to/lastmile_qr_scan", "android": "https://dc.lft.to/lastmile_qr_scan"}, "type": "electric_scooter", "name": "68ee92abf771b1d32ec06ccdd3f768dd", "is_reserved": 0, "lon": -77.03593016666666, "is_disabled": 0, "fusion_lat": 0.0, "lat": 38.92779866666667, "bike_id": "68ee92abf771b1d32ec06ccdd3f768dd", "fusion_lon": 0.0}, {"rental_uris": {"ios": "https://dc.lft.to/lastmile_qr_scan", "android": "https://dc.lft.to/lastmile_qr_scan"}, "type": "electric_scooter", "name": "1695628b948cdadb0668856e71021b76", "is_reserved": 0, "lon": -77.0436915, "is_disabled": 0, "fusion_lat": 0.0, "lat": 38.90789083333333, "bike_id": "1695628b948cdadb0668856e71021b76", "fusion_lon": 0.0}, {"rental_uris": {"ios": "https://dc.lft.to/lastmile_qr_scan", "android": "https://dc.lft.to/lastmile_qr_scan"}, "type": "electric_scooter", "name": "9e3df69f17a921c9adca9a96bf49a86c", "is_reserved": 0, "lon": -76.94704116666666, "is_disabled": 0, "fusion_lat": 0.0, "lat": 38.89300566666667, "bike_id": "9e3df69f17a921c9adca9a96bf49a86c", "fusion_lon": 0.0}, {"rental_uris": {"ios": "https://dc.lft.to/lastmile_qr_scan", "android": "https://dc.lft.to/lastmile_qr_scan"}, "type": "electric_bike", "name": "e9ddf72c94deaacb8be21de3f2b24f42", "is_reserved": 0, "lon": -76.98763716666667, "is_disabled": 0, "fusion_lat": 0.0, "lat": 38.85770383333333, "bike_id": "e9ddf72c94deaacb8be21de3f2b24f42", "fusion_lon": 0.0}, {"rental_uris": {"ios": "https://dc.lft.to/lastmile_qr_scan", "android": "https://dc.lft.to/lastmile_qr_scan"}, "type": "electric_scooter", "name": "0b6aed0329202ec4356f259cba6dc222", "is_reserved": 0, "lon": -77.00036533333333, "is_disabled": 0, "fusion_lat": 0.0, "lat": 38.907659, "bike_id": "0b6aed0329202ec4356f259cba6dc222", "fusion_lon": 0.0}, {"rental_uris": {"ios": "https://dc.lft.to/lastmile_qr_scan", "android": "https://dc.lft.to/lastmile_qr_scan"}, "type": "electric_scooter", "name": "b38369250cef1e1b322314d66168fb07", "is_reserved": 0, "lon": -77.02426433333333, "is_disabled": 0, "fusion_lat": 0.0, "lat": 38.8991175, "bike_id": "b38369250cef1e1b322314d66168fb07", "fusion_lon": 0.0}, {"rental_uris": {"ios": "https://dc.lft.to/lastmile_qr_scan", "android": "https://dc.lft.to/lastmile_qr_scan"}, "type": "electric_scooter", "name": "56adbe0f71a57e6d2038830d5f47b50d", "is_reserved": 0, "lon": -77.04616433333334, "is_disabled": 0, "fusion_lat": 0.0, "lat": 38.90965216666667, "bike_id": "56adbe0f71a57e6d2038830d5f47b50d", "fusion_lon": 0.0}, {"rental_uris": {"ios": "https://dc.lft.to/lastmile_qr_scan", "android": "https://dc.lft.to/lastmile_qr_scan"}, "type": "electric_scooter", "name": "c4e504071440671d3276e84ea07510a8", "is_reserved": 0, "lon": -77.03938033333333, "is_disabled": 0, "fusion_lat": 0.0, "lat": 38.9029365, "bike_id": "c4e504071440671d3276e84ea07510a8", "fusion_lon": 0.0}, {"rental_uris": {"ios": "https://dc.lft.to/lastmile_qr_scan", "android": "https://dc.lft.to/lastmile_qr_scan"}, "type": "electric_scooter", "name": "169266dc10e064601b650ea16ae22c71", "is_reserved": 0, "lon": -76.988324, "is_disabled": 0, "fusion_lat": 0.0, "lat": 38.8949985, "bike_id": "169266dc10e064601b650ea16ae22c71", "fusion_lon": 0.0}, {"rental_uris": {"ios": "https://dc.lft.to/lastmile_qr_scan", "android": "https://dc.lft.to/lastmile_qr_scan"}, "type": "electric_bike", "name": "9a29bdd7c53dcce0064c41a825bdd189", "is_reserved": 0, "lon": -76.99016033333334, "is_disabled": 0, "fusion_lat": 0.0, "lat": 38.954795833333336, "bike_id": "9a29bdd7c53dcce0064c41a825bdd189", "fusion_lon": 0.0}, {"rental_uris": {"ios": "https://dc.lft.to/lastmile_qr_scan", "android": "https://dc.lft.to/lastmile_qr_scan"}, "type": "electric_scooter", "name": "d85bf083e8ae36b84fb9b99fd6a095e3", "is_reserved": 0, "lon": -76.94152666666666, "is_disabled": 0, "fusion_lat": 0.0, "lat": 38.901749333333335, "bike_id": "d85bf083e8ae36b84fb9b99fd6a095e3", "fusion_lon": 0.0}, {"rental_uris": {"ios": "https://dc.lft.to/lastmile_qr_scan", "android": "https://dc.lft.to/lastmile_qr_scan"}, "type": "electric_scooter", "name": "ff544caa7bba75704ffbc18b574ebf84", "is_reserved": 0, "lon": -76.976501, "is_disabled": 0, "fusion_lat": 0.0, "lat": 38.90363966666666, "bike_id": "ff544caa7bba75704ffbc18b574ebf84", "fusion_lon": 0.0}, {"rental_uris": {"ios": "https://dc.lft.to/lastmile_qr_scan", "android": "https://dc.lft.to/lastmile_qr_scan"}, "type": "electric_scooter", "name": "a68f6ef7ddf7b6823f467559c5d28120", "is_reserved": 0, "lon": -77.01530266666667, "is_disabled": 0, "fusion_lat": 0.0, "lat": 38.88704416666667, "bike_id": "a68f6ef7ddf7b6823f467559c5d28120", "fusion_lon": 0.0}, {"rental_uris": {"ios": "https://dc.lft.to/lastmile_qr_scan", "android": "https://dc.lft.to/lastmile_qr_scan"}, "type": "electric_scooter", "name": "d0b091d1f928d66d45cb235fc3a45ab5", "is_reserved": 0, "lon": -77.0347515, "is_disabled": 0, "fusion_lat": 0.0, "lat": 38.9170705, "bike_id": "d0b091d1f928d66d45cb235fc3a45ab5", "fusion_lon": 0.0}, {"rental_uris": {"ios": "https://dc.lft.to/lastmile_qr_scan", "android": "https://dc.lft.to/lastmile_qr_scan"}, "type": "electric_scooter", "name": "a4faee8b55bb6da48d170e056ce94fe1", "is_reserved": 0, "lon": -77.04109533333333, "is_disabled": 0, "fusion_lat": 0.0, "lat": 38.92069466666667, "bike_id": "a4faee8b55bb6da48d170e056ce94fe1", "fusion_lon": 0.0}, {"rental_uris": {"ios": "https://dc.lft.to/lastmile_qr_scan", "android": "https://dc.lft.to/lastmile_qr_scan"}, "type": "electric_scooter", "name": "0f2992ded1dab7e30411e721c63bbcaf", "is_reserved": 0, "lon": -77.02545233333333, "is_disabled": 0, "fusion_lat": 0.0, "lat": 38.91707566666667, "bike_id": "0f2992ded1dab7e30411e721c63bbcaf", "fusion_lon": 0.0}, {"rental_uris": {"ios": "https://dc.lft.to/lastmile_qr_scan", "android": "https://dc.lft.to/lastmile_qr_scan"}, "type": "electric_scooter", "name": "59031824b612502bb01f74c1e036c546", "is_reserved": 0, "lon": -77.03172933333333, "is_disabled": 0, "fusion_lat": 0.0, "lat": 38.91552033333333, "bike_id": "59031824b612502bb01f74c1e036c546", "fusion_lon": 0.0}, {"rental_uris": {"ios": "https://dc.lft.to/lastmile_qr_scan", "android": "https://dc.lft.to/lastmile_qr_scan"}, "type": "electric_scooter", "name": "3892db3cd2e2ad445af313bd63e5e886", "is_reserved": 0, "lon": -77.00042916666666, "is_disabled": 0, "fusion_lat": 0.0, "lat": 38.87393816666667, "bike_id": "3892db3cd2e2ad445af313bd63e5e886", "fusion_lon": 0.0}, {"rental_uris": {"ios": "https://dc.lft.to/lastmile_qr_scan", "android": "https://dc.lft.to/lastmile_qr_scan"}, "type": "electric_scooter", "name": "a20eee7bbb6b8c3aadc79fe7b5edfbd0", "is_reserved": 0, "lon": -77.0354925, "is_disabled": 0, "fusion_lat": 0.0, "lat": 38.9247185, "bike_id": "a20eee7bbb6b8c3aadc79fe7b5edfbd0", "fusion_lon": 0.0}, {"rental_uris": {"ios": "https://dc.lft.to/lastmile_qr_scan", "android": "https://dc.lft.to/lastmile_qr_scan"}, "type": "electric_scooter", "name": "7853663c7c0e6bdfd3702360c3d49d1a", "is_reserved": 0, "lon": -77.04198666666667, "is_disabled": 0, "fusion_lat": 0.0, "lat": 38.90560516666667, "bike_id": "7853663c7c0e6bdfd3702360c3d49d1a", "fusion_lon": 0.0}, {"rental_uris": {"ios": "https://dc.lft.to/lastmile_qr_scan", "android": "https://dc.lft.to/lastmile_qr_scan"}, "type": "electric_scooter", "name": "ab70b348658b8fd99ea77e9d4d8e1468", "is_reserved": 0, "lon": -77.03069866666667, "is_disabled": 0, "fusion_lat": 0.0, "lat": 38.92248566666667, "bike_id": "ab70b348658b8fd99ea77e9d4d8e1468", "fusion_lon": 0.0}, {"rental_uris": {"ios": "https://dc.lft.to/lastmile_qr_scan", "android": "https://dc.lft.to/lastmile_qr_scan"}, "type": "electric_scooter", "name": "48479775b88ea64e9aba3972bb5f84b2", "is_reserved": 0, "lon": -77.03348816666667, "is_disabled": 0, "fusion_lat": 0.0, "lat": 38.95484716666667, "bike_id": "48479775b88ea64e9aba3972bb5f84b2", "fusion_lon": 0.0}, {"rental_uris": {"ios": "https://dc.lft.to/lastmile_qr_scan", "android": "https://dc.lft.to/lastmile_qr_scan"}, "type": "electric_scooter", "name": "f20d6c37cfda38a66e49d42540a54bf7", "is_reserved": 0, "lon": -76.99706466666666, "is_disabled": 0, "fusion_lat": 0.0, "lat": 38.88765983333333, "bike_id": "f20d6c37cfda38a66e49d42540a54bf7", "fusion_lon": 0.0}, {"rental_uris": {"ios": "https://dc.lft.to/lastmile_qr_scan", "android": "https://dc.lft.to/lastmile_qr_scan"}, "type": "electric_scooter", "name": "25ef4c85be77d960e6bddff075863a81", "is_reserved": 0, "lon": -77.0745305, "is_disabled": 0, "fusion_lat": 0.0, "lat": 38.937804, "bike_id": "25ef4c85be77d960e6bddff075863a81", "fusion_lon": 0.0}, {"rental_uris": {"ios": "https://dc.lft.to/lastmile_qr_scan", "android": "https://dc.lft.to/lastmile_qr_scan"}, "type": "electric_scooter", "name": "c70f9eadc7f8bc12ea1998a72d25d4c8", "is_reserved": 0, "lon": -77.01224583333334, "is_disabled": 0, "fusion_lat": 0.0, "lat": 38.9168715, "bike_id": "c70f9eadc7f8bc12ea1998a72d25d4c8", "fusion_lon": 0.0}, {"rental_uris": {"ios": "https://dc.lft.to/lastmile_qr_scan", "android": "https://dc.lft.to/lastmile_qr_scan"}, "type": "electric_scooter", "name": "c800aba2ea6242d89e3cf5297e6cef4a", "is_reserved": 0, "lon": -77.02144683333333, "is_disabled": 0, "fusion_lat": 0.0, "lat": 38.8951105, "bike_id": "c800aba2ea6242d89e3cf5297e6cef4a", "fusion_lon": 0.0}, {"rental_uris": {"ios": "https://dc.lft.to/lastmile_qr_scan", "android": "https://dc.lft.to/lastmile_qr_scan"}, "type": "electric_scooter", "name": "1c0f3d5d6748f80ce8c221d0056f1eb0", "is_reserved": 0, "lon": -77.03066016666666, "is_disabled": 0, "fusion_lat": 0.0, "lat": 38.90563616666667, "bike_id": "1c0f3d5d6748f80ce8c221d0056f1eb0", "fusion_lon": 0.0}, {"rental_uris": {"ios": "https://dc.lft.to/lastmile_qr_scan", "android": "https://dc.lft.to/lastmile_qr_scan"}, "type": "electric_scooter", "name": "2857ad5fa265d93e96cff9a634518992", "is_reserved": 0, "lon": -77.016099, "is_disabled": 0, "fusion_lat": 0.0, "lat": 38.884896, "bike_id": "2857ad5fa265d93e96cff9a634518992", "fusion_lon": 0.0}, {"rental_uris": {"ios": "https://dc.lft.to/lastmile_qr_scan", "android": "https://dc.lft.to/lastmile_qr_scan"}, "type": "electric_bike", "name": "75a3510043344e9cbdb34197353a4119", "is_reserved": 0, "lon": -76.93662216666667, "is_disabled": 0, "fusion_lat": 0.0, "lat": 38.89455566666667, "bike_id": "75a3510043344e9cbdb34197353a4119", "fusion_lon": 0.0}, {"rental_uris": {"ios": "https://dc.lft.to/lastmile_qr_scan", "android": "https://dc.lft.to/lastmile_qr_scan"}, "type": "electric_scooter", "name": "41bed192f0b4ecd7a053bc6b2621d11d", "is_reserved": 0, "lon": -77.01665283333334, "is_disabled": 0, "fusion_lat": 0.0, "lat": 38.900029833333335, "bike_id": "41bed192f0b4ecd7a053bc6b2621d11d", "fusion_lon": 0.0}, {"rental_uris": {"ios": "https://dc.lft.to/lastmile_qr_scan", "android": "https://dc.lft.to/lastmile_qr_scan"}, "type": "electric_scooter", "name": "77bfccb3535c83fae58a346cab458610", "is_reserved": 0, "lon": -76.98374716666666, "is_disabled": 0, "fusion_lat": 0.0, "lat": 38.860316, "bike_id": "77bfccb3535c83fae58a346cab458610", "fusion_lon": 0.0}, {"rental_uris": {"ios": "https://dc.lft.to/lastmile_qr_scan", "android": "https://dc.lft.to/lastmile_qr_scan"}, "type": "electric_scooter", "name": "623ecc1da3698d3f9032b76e5b757ae9", "is_reserved": 0, "lon": -77.00041266666666, "is_disabled": 0, "fusion_lat": 0.0, "lat": 38.8738455, "bike_id": "623ecc1da3698d3f9032b76e5b757ae9", "fusion_lon": 0.0}, {"rental_uris": {"ios": "https://dc.lft.to/lastmile_qr_scan", "android": "https://dc.lft.to/lastmile_qr_scan"}, "type": "electric_scooter", "name": "bbe1cb514cdb6a82909cc64b4a0ba09e", "is_reserved": 0, "lon": -77.0237465, "is_disabled": 0, "fusion_lat": 0.0, "lat": 38.9206335, "bike_id": "bbe1cb514cdb6a82909cc64b4a0ba09e", "fusion_lon": 0.0}, {"rental_uris": {"ios": "https://dc.lft.to/lastmile_qr_scan", "android": "https://dc.lft.to/lastmile_qr_scan"}, "type": "electric_scooter", "name": "4a9fea39bf3104b62b5ed79fd45a75e1", "is_reserved": 0, "lon": -77.0477805, "is_disabled": 0, "fusion_lat": 0.0, "lat": 38.89776666666667, "bike_id": "4a9fea39bf3104b62b5ed79fd45a75e1", "fusion_lon": 0.0}, {"rental_uris": {"ios": "https://dc.lft.to/lastmile_qr_scan", "android": "https://dc.lft.to/lastmile_qr_scan"}, "type": "electric_scooter", "name": "086716766a4333a3e87911eaf79c9807", "is_reserved": 0, "lon": -76.99420466666666, "is_disabled": 0, "fusion_lat": 0.0, "lat": 38.9169255, "bike_id": "086716766a4333a3e87911eaf79c9807", "fusion_lon": 0.0}, {"rental_uris": {"ios": "https://dc.lft.to/lastmile_qr_scan", "android": "https://dc.lft.to/lastmile_qr_scan"}, "type": "electric_scooter", "name": "d32729a4a7b237442aefec1d80377e91", "is_reserved": 0, "lon": -77.03174083333333, "is_disabled": 0, "fusion_lat": 0.0, "lat": 38.91552816666667, "bike_id": "d32729a4a7b237442aefec1d80377e91", "fusion_lon": 0.0}, {"rental_uris": {"ios": "https://dc.lft.to/lastmile_qr_scan", "android": "https://dc.lft.to/lastmile_qr_scan"}, "type": "electric_scooter", "name": "48ac03f01c06ad70280bde8b19ad6928", "is_reserved": 0, "lon": -77.01818166666666, "is_disabled": 0, "fusion_lat": 0.0, "lat": 38.9053665, "bike_id": "48ac03f01c06ad70280bde8b19ad6928", "fusion_lon": 0.0}, {"rental_uris": {"ios": "https://dc.lft.to/lastmile_qr_scan", "android": "https://dc.lft.to/lastmile_qr_scan"}, "type": "electric_scooter", "name": "2fc1d3b51e7885b644af01930842832a", "is_reserved": 0, "lon": -77.04728883333334, "is_disabled": 0, "fusion_lat": 0.0, "lat": 38.8955575, "bike_id": "2fc1d3b51e7885b644af01930842832a", "fusion_lon": 0.0}, {"rental_uris": {"ios": "https://dc.lft.to/lastmile_qr_scan", "android": "https://dc.lft.to/lastmile_qr_scan"}, "type": "electric_scooter", "name": "62055d438e28b781f09d8b7b5bf2a8f4", "is_reserved": 0, "lon": -77.024786, "is_disabled": 0, "fusion_lat": 0.0, "lat": 38.91816466666667, "bike_id": "62055d438e28b781f09d8b7b5bf2a8f4", "fusion_lon": 0.0}, {"rental_uris": {"ios": "https://dc.lft.to/lastmile_qr_scan", "android": "https://dc.lft.to/lastmile_qr_scan"}, "type": "electric_scooter", "name": "61c310f2ebfb682125eb2768979a8b1c", "is_reserved": 0, "lon": -77.038214, "is_disabled": 0, "fusion_lat": 0.0, "lat": 38.96262883333333, "bike_id": "61c310f2ebfb682125eb2768979a8b1c", "fusion_lon": 0.0}, {"rental_uris": {"ios": "https://dc.lft.to/lastmile_qr_scan", "android": "https://dc.lft.to/lastmile_qr_scan"}, "type": "electric_scooter", "name": "8ecdbe3cd1188ce001cd83ec53caa92f", "is_reserved": 0, "lon": -77.01592983333333, "is_disabled": 0, "fusion_lat": 0.0, "lat": 38.916506166666665, "bike_id": "8ecdbe3cd1188ce001cd83ec53caa92f", "fusion_lon": 0.0}, {"rental_uris": {"ios": "https://dc.lft.to/lastmile_qr_scan", "android": "https://dc.lft.to/lastmile_qr_scan"}, "type": "electric_scooter", "name": "bd66c6092156454744764ceda1858e1c", "is_reserved": 0, "lon": -77.02674783333333, "is_disabled": 0, "fusion_lat": 0.0, "lat": 38.91697683333334, "bike_id": "bd66c6092156454744764ceda1858e1c", "fusion_lon": 0.0}, {"rental_uris": {"ios": "https://dc.lft.to/lastmile_qr_scan", "android": "https://dc.lft.to/lastmile_qr_scan"}, "type": "electric_scooter", "name": "f1e41e47aac9b9bbd460a10508bc4bd8", "is_reserved": 0, "lon": -77.00418016666667, "is_disabled": 0, "fusion_lat": 0.0, "lat": 38.87709016666667, "bike_id": "f1e41e47aac9b9bbd460a10508bc4bd8", "fusion_lon": 0.0}, {"rental_uris": {"ios": "https://dc.lft.to/lastmile_qr_scan", "android": "https://dc.lft.to/lastmile_qr_scan"}, "type": "electric_bike", "name": "b3fee8dd4b6776c10248af060a4b0a6d", "is_reserved": 0, "lon": -76.99914783333334, "is_disabled": 0, "fusion_lat": 0.0, "lat": 38.86450833333333, "bike_id": "b3fee8dd4b6776c10248af060a4b0a6d", "fusion_lon": 0.0}, {"rental_uris": {"ios": "https://dc.lft.to/lastmile_qr_scan", "android": "https://dc.lft.to/lastmile_qr_scan"}, "type": "electric_scooter", "name": "4e0fb9bbd41ddf36d4a9af26f8a4ae0d", "is_reserved": 0, "lon": -77.0338365, "is_disabled": 0, "fusion_lat": 0.0, "lat": 38.928738833333334, "bike_id": "4e0fb9bbd41ddf36d4a9af26f8a4ae0d", "fusion_lon": 0.0}, {"rental_uris": {"ios": "https://dc.lft.to/lastmile_qr_scan", "android": "https://dc.lft.to/lastmile_qr_scan"}, "type": "electric_scooter", "name": "8706a46f51ba4f8abcc540bfcec23a15", "is_reserved": 0, "lon": -76.99502783333334, "is_disabled": 0, "fusion_lat": 0.0, "lat": 38.862473333333334, "bike_id": "8706a46f51ba4f8abcc540bfcec23a15", "fusion_lon": 0.0}, {"rental_uris": {"ios": "https://dc.lft.to/lastmile_qr_scan", "android": "https://dc.lft.to/lastmile_qr_scan"}, "type": "electric_scooter", "name": "b27c38e4e77b0a83a31e3444e3fc5ef1", "is_reserved": 0, "lon": -77.0309435, "is_disabled": 0, "fusion_lat": 0.0, "lat": 38.92854916666667, "bike_id": "b27c38e4e77b0a83a31e3444e3fc5ef1", "fusion_lon": 0.0}, {"rental_uris": {"ios": "https://dc.lft.to/lastmile_qr_scan", "android": "https://dc.lft.to/lastmile_qr_scan"}, "type": "electric_scooter", "name": "5a728e51f61114fc4352814778f34cfe", "is_reserved": 0, "lon": -77.03279, "is_disabled": 0, "fusion_lat": 0.0, "lat": 38.9311935, "bike_id": "5a728e51f61114fc4352814778f34cfe", "fusion_lon": 0.0}, {"rental_uris": {"ios": "https://dc.lft.to/lastmile_qr_scan", "android": "https://dc.lft.to/lastmile_qr_scan"}, "type": "electric_scooter", "name": "84e06e7a766b3f38d5e1d83f5b17f952", "is_reserved": 0, "lon": -77.06122883333333, "is_disabled": 0, "fusion_lat": 0.0, "lat": 38.90242883333333, "bike_id": "84e06e7a766b3f38d5e1d83f5b17f952", "fusion_lon": 0.0}, {"rental_uris": {"ios": "https://dc.lft.to/lastmile_qr_scan", "android": "https://dc.lft.to/lastmile_qr_scan"}, "type": "electric_scooter", "name": "d6e736e484642bd2522f445af6ad8e80", "is_reserved": 0, "lon": -77.03373766666667, "is_disabled": 0, "fusion_lat": 0.0, "lat": 38.89489316666667, "bike_id": "d6e736e484642bd2522f445af6ad8e80", "fusion_lon": 0.0}, {"rental_uris": {"ios": "https://dc.lft.to/lastmile_qr_scan", "android": "https://dc.lft.to/lastmile_qr_scan"}, "type": "electric_scooter", "name": "7b651b3706e4a14f1fff01e90e5fc926", "is_reserved": 0, "lon": -77.0240875, "is_disabled": 0, "fusion_lat": 0.0, "lat": 38.90574066666667, "bike_id": "7b651b3706e4a14f1fff01e90e5fc926", "fusion_lon": 0.0}, {"rental_uris": {"ios": "https://dc.lft.to/lastmile_qr_scan", "android": "https://dc.lft.to/lastmile_qr_scan"}, "type": "electric_scooter", "name": "bdbddb064b24123891f8258aeb5484e1", "is_reserved": 0, "lon": -77.0408055, "is_disabled": 0, "fusion_lat": 0.0, "lat": 38.94778133333333, "bike_id": "bdbddb064b24123891f8258aeb5484e1", "fusion_lon": 0.0}, {"rental_uris": {"ios": "https://dc.lft.to/lastmile_qr_scan", "android": "https://dc.lft.to/lastmile_qr_scan"}, "type": "electric_scooter", "name": "d116ab9aae1c0a293daf5e3d30d22361", "is_reserved": 0, "lon": -77.05060733333333, "is_disabled": 0, "fusion_lat": 0.0, "lat": 38.925867333333336, "bike_id": "d116ab9aae1c0a293daf5e3d30d22361", "fusion_lon": 0.0}, {"rental_uris": {"ios": "https://dc.lft.to/lastmile_qr_scan", "android": "https://dc.lft.to/lastmile_qr_scan"}, "type": "electric_scooter", "name": "2890bc8f3f58ff0094697b41f05308e3", "is_reserved": 0, "lon": -77.031409, "is_disabled": 0, "fusion_lat": 0.0, "lat": 38.91625783333333, "bike_id": "2890bc8f3f58ff0094697b41f05308e3", "fusion_lon": 0.0}, {"rental_uris": {"ios": "https://dc.lft.to/lastmile_qr_scan", "android": "https://dc.lft.to/lastmile_qr_scan"}, "type": "electric_scooter", "name": "6a9728e527a1afb8e8fef1f14c49e29f", "is_reserved": 0, "lon": -76.92987866666667, "is_disabled": 0, "fusion_lat": 0.0, "lat": 38.8929945, "bike_id": "6a9728e527a1afb8e8fef1f14c49e29f", "fusion_lon": 0.0}, {"rental_uris": {"ios": "https://dc.lft.to/lastmile_qr_scan", "android": "https://dc.lft.to/lastmile_qr_scan"}, "type": "electric_scooter", "name": "5b5c92fa3563809dca6d9dc1736f6d6b", "is_reserved": 0, "lon": -76.9740605, "is_disabled": 0, "fusion_lat": 0.0, "lat": 38.90135433333333, "bike_id": "5b5c92fa3563809dca6d9dc1736f6d6b", "fusion_lon": 0.0}, {"rental_uris": {"ios": "https://dc.lft.to/lastmile_qr_scan", "android": "https://dc.lft.to/lastmile_qr_scan"}, "type": "electric_scooter", "name": "3065e658a8fa8f4618758649435f150a", "is_reserved": 0, "lon": -76.97892516666667, "is_disabled": 0, "fusion_lat": 0.0, "lat": 38.894038, "bike_id": "3065e658a8fa8f4618758649435f150a", "fusion_lon": 0.0}, {"rental_uris": {"ios": "https://dc.lft.to/lastmile_qr_scan", "android": "https://dc.lft.to/lastmile_qr_scan"}, "type": "electric_scooter", "name": "37dcb273365a0288784fcf12f260a973", "is_reserved": 0, "lon": -77.02793116666666, "is_disabled": 0, "fusion_lat": 0.0, "lat": 38.924842, "bike_id": "37dcb273365a0288784fcf12f260a973", "fusion_lon": 0.0}, {"rental_uris": {"ios": "https://dc.lft.to/lastmile_qr_scan", "android": "https://dc.lft.to/lastmile_qr_scan"}, "type": "electric_scooter", "name": "11fc7c9371b19242850f961e23208b9e", "is_reserved": 0, "lon": -77.00681216666666, "is_disabled": 0, "fusion_lat": 0.0, "lat": 38.900193, "bike_id": "11fc7c9371b19242850f961e23208b9e", "fusion_lon": 0.0}, {"rental_uris": {"ios": "https://dc.lft.to/lastmile_qr_scan", "android": "https://dc.lft.to/lastmile_qr_scan"}, "type": "electric_scooter", "name": "832b701e677962f969a02d7eb4790f12", "is_reserved": 0, "lon": -77.02198283333334, "is_disabled": 0, "fusion_lat": 0.0, "lat": 38.894268833333335, "bike_id": "832b701e677962f969a02d7eb4790f12", "fusion_lon": 0.0}, {"rental_uris": {"ios": "https://dc.lft.to/lastmile_qr_scan", "android": "https://dc.lft.to/lastmile_qr_scan"}, "type": "electric_scooter", "name": "e5ae34e1bf496abf81cbcd958287f0ca", "is_reserved": 0, "lon": -77.06423233333334, "is_disabled": 0, "fusion_lat": 0.0, "lat": 38.905240166666665, "bike_id": "e5ae34e1bf496abf81cbcd958287f0ca", "fusion_lon": 0.0}, {"rental_uris": {"ios": "https://dc.lft.to/lastmile_qr_scan", "android": "https://dc.lft.to/lastmile_qr_scan"}, "type": "electric_scooter", "name": "ed309a63dcc844e97cbe96508c6fcb8c", "is_reserved": 0, "lon": -77.022182, "is_disabled": 0, "fusion_lat": 0.0, "lat": 38.924729666666664, "bike_id": "ed309a63dcc844e97cbe96508c6fcb8c", "fusion_lon": 0.0}, {"rental_uris": {"ios": "https://dc.lft.to/lastmile_qr_scan", "android": "https://dc.lft.to/lastmile_qr_scan"}, "type": "electric_scooter", "name": "6cdefb872bfad6b67cfa8df524259a64", "is_reserved": 0, "lon": -77.02678933333334, "is_disabled": 0, "fusion_lat": 0.0, "lat": 38.90055533333334, "bike_id": "6cdefb872bfad6b67cfa8df524259a64", "fusion_lon": 0.0}, {"rental_uris": {"ios": "https://dc.lft.to/lastmile_qr_scan", "android": "https://dc.lft.to/lastmile_qr_scan"}, "type": "electric_scooter", "name": "896aefc931b1853ec6e220935f906528", "is_reserved": 0, "lon": -77.02567133333334, "is_disabled": 0, "fusion_lat": 0.0, "lat": 38.887507666666664, "bike_id": "896aefc931b1853ec6e220935f906528", "fusion_lon": 0.0}, {"rental_uris": {"ios": "https://dc.lft.to/lastmile_qr_scan", "android": "https://dc.lft.to/lastmile_qr_scan"}, "type": "electric_scooter", "name": "df5980d569facbd65b9080619f65abef", "is_reserved": 0, "lon": -77.05020533333334, "is_disabled": 0, "fusion_lat": 0.0, "lat": 38.923605, "bike_id": "df5980d569facbd65b9080619f65abef", "fusion_lon": 0.0}, {"rental_uris": {"ios": "https://dc.lft.to/lastmile_qr_scan", "android": "https://dc.lft.to/lastmile_qr_scan"}, "type": "electric_scooter", "name": "7eba4614bc9d4911eb46c5079f4cb748", "is_reserved": 0, "lon": -77.00042983333333, "is_disabled": 0, "fusion_lat": 0.0, "lat": 38.875020166666665, "bike_id": "7eba4614bc9d4911eb46c5079f4cb748", "fusion_lon": 0.0}, {"rental_uris": {"ios": "https://dc.lft.to/lastmile_qr_scan", "android": "https://dc.lft.to/lastmile_qr_scan"}, "type": "electric_scooter", "name": "cb1bf3288dae45906f9fa6ffa9edda07", "is_reserved": 0, "lon": -77.05866483333334, "is_disabled": 0, "fusion_lat": 0.0, "lat": 38.90455466666667, "bike_id": "cb1bf3288dae45906f9fa6ffa9edda07", "fusion_lon": 0.0}, {"rental_uris": {"ios": "https://dc.lft.to/lastmile_qr_scan", "android": "https://dc.lft.to/lastmile_qr_scan"}, "type": "electric_scooter", "name": "08a266d12a2dff1c2ea3afb818c0c94a", "is_reserved": 0, "lon": -77.03486633333333, "is_disabled": 0, "fusion_lat": 0.0, "lat": 38.906916, "bike_id": "08a266d12a2dff1c2ea3afb818c0c94a", "fusion_lon": 0.0}, {"rental_uris": {"ios": "https://dc.lft.to/lastmile_qr_scan", "android": "https://dc.lft.to/lastmile_qr_scan"}, "type": "electric_scooter", "name": "85d7d50b28d3929603a5d1935b70d282", "is_reserved": 0, "lon": -77.01832916666666, "is_disabled": 0, "fusion_lat": 0.0, "lat": 38.915205666666665, "bike_id": "85d7d50b28d3929603a5d1935b70d282", "fusion_lon": 0.0}, {"rental_uris": {"ios": "https://dc.lft.to/lastmile_qr_scan", "android": "https://dc.lft.to/lastmile_qr_scan"}, "type": "electric_scooter", "name": "73b19cca492c65f80da9fbbf41ca8f36", "is_reserved": 0, "lon": -77.02942766666666, "is_disabled": 0, "fusion_lat": 0.0, "lat": 38.915495666666665, "bike_id": "73b19cca492c65f80da9fbbf41ca8f36", "fusion_lon": 0.0}, {"rental_uris": {"ios": "https://dc.lft.to/lastmile_qr_scan", "android": "https://dc.lft.to/lastmile_qr_scan"}, "type": "electric_scooter", "name": "db4d8fc4c72a7db8d6002db92cf6f39e", "is_reserved": 0, "lon": -77.02878666666666, "is_disabled": 0, "fusion_lat": 0.0, "lat": 38.903703666666665, "bike_id": "db4d8fc4c72a7db8d6002db92cf6f39e", "fusion_lon": 0.0}, {"rental_uris": {"ios": "https://dc.lft.to/lastmile_qr_scan", "android": "https://dc.lft.to/lastmile_qr_scan"}, "type": "electric_scooter", "name": "ea4aff9229f1041354da0c572bf5b82d", "is_reserved": 0, "lon": -77.02302616666667, "is_disabled": 0, "fusion_lat": 0.0, "lat": 38.91773233333333, "bike_id": "ea4aff9229f1041354da0c572bf5b82d", "fusion_lon": 0.0}, {"rental_uris": {"ios": "https://dc.lft.to/lastmile_qr_scan", "android": "https://dc.lft.to/lastmile_qr_scan"}, "type": "electric_scooter", "name": "278dbb8cd0ba0dc7c4dd8c4c199bd5ea", "is_reserved": 0, "lon": -77.01452133333333, "is_disabled": 0, "fusion_lat": 0.0, "lat": 38.926604166666664, "bike_id": "278dbb8cd0ba0dc7c4dd8c4c199bd5ea", "fusion_lon": 0.0}, {"rental_uris": {"ios": "https://dc.lft.to/lastmile_qr_scan", "android": "https://dc.lft.to/lastmile_qr_scan"}, "type": "electric_scooter", "name": "9a831521b2a52c8a97f3080211cb1b5d", "is_reserved": 0, "lon": -77.04417633333334, "is_disabled": 0, "fusion_lat": 0.0, "lat": 38.909205, "bike_id": "9a831521b2a52c8a97f3080211cb1b5d", "fusion_lon": 0.0}, {"rental_uris": {"ios": "https://dc.lft.to/lastmile_qr_scan", "android": "https://dc.lft.to/lastmile_qr_scan"}, "type": "electric_scooter", "name": "2b51643590b09872ee73c115aaaa09bd", "is_reserved": 0, "lon": -77.003336, "is_disabled": 0, "fusion_lat": 0.0, "lat": 38.877142166666665, "bike_id": "2b51643590b09872ee73c115aaaa09bd", "fusion_lon": 0.0}, {"rental_uris": {"ios": "https://dc.lft.to/lastmile_qr_scan", "android": "https://dc.lft.to/lastmile_qr_scan"}, "type": "electric_scooter", "name": "13fdc703d7224d600a925a0b50297915", "is_reserved": 0, "lon": -77.022054, "is_disabled": 0, "fusion_lat": 0.0, "lat": 38.89596233333333, "bike_id": "13fdc703d7224d600a925a0b50297915", "fusion_lon": 0.0}, {"rental_uris": {"ios": "https://dc.lft.to/lastmile_qr_scan", "android": "https://dc.lft.to/lastmile_qr_scan"}, "type": "electric_bike", "name": "41dfe27204ccc7f0fd8db702146a6bd2", "is_reserved": 0, "lon": -76.99801433333333, "is_disabled": 0, "fusion_lat": 0.0, "lat": 38.90536916666667, "bike_id": "41dfe27204ccc7f0fd8db702146a6bd2", "fusion_lon": 0.0}, {"rental_uris": {"ios": "https://dc.lft.to/lastmile_qr_scan", "android": "https://dc.lft.to/lastmile_qr_scan"}, "type": "electric_scooter", "name": "b264b634d5453c41c8e0a9253cc9ec5d", "is_reserved": 0, "lon": -77.04674566666667, "is_disabled": 0, "fusion_lat": 0.0, "lat": 38.9181495, "bike_id": "b264b634d5453c41c8e0a9253cc9ec5d", "fusion_lon": 0.0}, {"rental_uris": {"ios": "https://dc.lft.to/lastmile_qr_scan", "android": "https://dc.lft.to/lastmile_qr_scan"}, "type": "electric_scooter", "name": "13d8f55dad8f0b085cf7560bfef22a8d", "is_reserved": 0, "lon": -77.00839566666667, "is_disabled": 0, "fusion_lat": 0.0, "lat": 38.89712216666667, "bike_id": "13d8f55dad8f0b085cf7560bfef22a8d", "fusion_lon": 0.0}, {"rental_uris": {"ios": "https://dc.lft.to/lastmile_qr_scan", "android": "https://dc.lft.to/lastmile_qr_scan"}, "type": "electric_scooter", "name": "8157cb339505ac606d97fa8ed108266a", "is_reserved": 0, "lon": -77.045292, "is_disabled": 0, "fusion_lat": 0.0, "lat": 38.8974375, "bike_id": "8157cb339505ac606d97fa8ed108266a", "fusion_lon": 0.0}, {"rental_uris": {"ios": "https://dc.lft.to/lastmile_qr_scan", "android": "https://dc.lft.to/lastmile_qr_scan"},