{"data": {"bikes": [{"rental_uris": {"ios": "https://dc.lft.to/lastmile_qr_scan", "android": "https://dc.lft.to/lastmile_qr_scan"}, "type": "electric_scooter", "name": "bb9715d3ab83c8ec1d5d7ffe027b4af3", "is_reserved": 0, "lon": -77.01922533333334, "is_disabled": 0, "fusion_lat": 0.0, "lat": 38.902462, "bike_id": "bb9715d3ab83c8ec1d5d7ffe027b4af3", "fusion_lon": 0.0}, {"rental_uris": {"ios": "https://dc.lft.to/lastmile_qr_scan", "android": "https://dc.lft.to/lastmile_qr_scan"}, "type": "electric_scooter", "name": "92253f63c8f582fa2aa3d1c879606ef9", "is_reserved": 0, "lon": -77.01284, "is_disabled": 0, "fusion_lat": 0.0, "lat": 38.90054633333333, "bike_id": "92253f63c8f582fa2aa3d1c879606ef9", "fusion_lon": 0.0}, {"rental_uris": {"ios": "https://dc.lft.to/lastmile_qr_scan", "android": "https://dc.lft.to/lastmile_qr_scan"}, "type": "electric_scooter", "name": "f85ef94b64a51fcc367aedff42247ffc", "is_reserved": 0, "lon": -77.0377595, "is_disabled": 0, "fusion_lat": 0.0, "lat": 38.93958666666666, "bike_id": "f85ef94b64a51fcc367aedff42247ffc", "fusion_lon": 0.0}, {"rental_uris": {"ios": "https://dc.lft.to/lastmile_qr_scan", "android": "https://dc.lft.to/lastmile_qr_scan"}, "type": "electric_scooter", "name": "c4fd13dd31f53fc2eb88b1ae889c2293", "is_reserved": 0, "lon": -77.0219835, "is_disabled": 0, "fusion_lat": 0.0, "lat": 38.88719283333333, "bike_id": "c4fd13dd31f53fc2eb88b1ae889c2293", "fusion_lon": 0.0}, {"rental_uris": {"ios": "https://dc.lft.to/lastmile_qr_scan", "android": "https://dc.lft.to/lastmile_qr_scan"}, "type": "electric_bike", "name": "1092564d85b759f2bfced83fb3acc978", "is_reserved": 0, "lon": -76.95764516666667, "is_disabled": 0, "fusion_lat": 0.0, "lat": 38.8848795, "bike_id": "1092564d85b759f2bfced83fb3acc978", "fusion_lon": 0.0}, {"rental_uris": {"ios": "https://dc.lft.to/lastmile_qr_scan", "android": "https://dc.lft.to/lastmile_qr_scan"}, "type": "electric_scooter", "name": "13957396743c35414fa56c2860f1e5d1", "is_reserved": 0, "lon": -77.04694233333333, "is_disabled": 0, "fusion_lat": 0.0, "lat": 38.92160466666667, "bike_id": "13957396743c35414fa56c2860f1e5d1", "fusion_lon": 0.0}, {"rental_uris": {"ios": "https://dc.lft.to/lastmile_qr_scan", "android": "https://dc.lft.to/lastmile_qr_scan"}, "type": "electric_bike", "name": "f2055e10fce062b612b69f3abc8a8560", "is_reserved": 0, "lon": -76.98466966666666, "is_disabled": 0, "fusion_lat": 0.0, "lat": 38.909708333333334, "bike_id": "f2055e10fce062b612b69f3abc8a8560", "fusion_lon": 0.0}, {"rental_uris": {"ios": "https://dc.lft.to/lastmile_qr_scan", "android": "https://dc.lft.to/lastmile_qr_scan"}, "type": "electric_scooter", "name": "5a160b512d7766ceabdb2cb5e69327af", "is_reserved": 0, "lon": -77.02604933333333, "is_disabled": 0, "fusion_lat": 0.0, "lat": 38.928902, "bike_id": "5a160b512d7766ceabdb2cb5e69327af", "fusion_lon": 0.0}, {"rental_uris": {"ios": "https://dc.lft.to/lastmile_qr_scan", "android": "https://dc.lft.to/lastmile_qr_scan"}, "type": "electric_scooter", "name": "6a19c7553d0eabfcaf49979b9c42c042", "is_reserved": 0, "lon": -77.02522166666667, "is_disabled": 0, "fusion_lat": 0.0, "lat": 38.940061666666665, "bike_id": "6a19c7553d0eabfcaf49979b9c42c042", "fusion_lon": 0.0}, {"rental_uris": {"ios": "https://dc.lft.to/lastmile_qr_scan", "android": "https://dc.lft.to/lastmile_qr_scan"}, "type": "electric_scooter", "name": "7631d3622bed65b26e83db0e781bba1d", "is_reserved": 0, "lon": -77.00365033333334, "is_disabled": 0, "fusion_lat": 0.0, "lat": 38.89914516666666, "bike_id": "7631d3622bed65b26e83db0e781bba1d", "fusion_lon": 0.0}, {"rental_uris": {"ios": "https://dc.lft.to/lastmile_qr_scan", "android": "https://dc.lft.to/lastmile_qr_scan"}, "type": "electric_scooter", "name": "fc4b16156ed10a6414d650dfcce3c21b", "is_reserved": 0, "lon": -77.04457083333334, "is_disabled": 0, "fusion_lat": 0.0, "lat": 38.901398666666665, "bike_id": "fc4b16156ed10a6414d650dfcce3c21b", "fusion_lon": 0.0}, {"rental_uris": {"ios": "https://dc.lft.to/lastmile_qr_scan", "android": "https://dc.lft.to/lastmile_qr_scan"}, "type": "electric_scooter", "name": "0a952f075a436c771f0f64a2bed3ff59", "is_reserved": 0, "lon": -77.03136816666667, "is_disabled": 0, "fusion_lat": 0.0, "lat": 38.9239195, "bike_id": "0a952f075a436c771f0f64a2bed3ff59", "fusion_lon": 0.0}, {"rental_uris": {"ios": "https://dc.lft.to/lastmile_qr_scan", "android": "https://dc.lft.to/lastmile_qr_scan"}, "type": "electric_scooter", "name": "52acbc54ce0ee31ea442823adc41ba87", "is_reserved": 0, "lon": -77.0381455, "is_disabled": 0, "fusion_lat": 0.0, "lat": 38.9119, "bike_id": "52acbc54ce0ee31ea442823adc41ba87", "fusion_lon": 0.0}, {"rental_uris": {"ios": "https://dc.lft.to/lastmile_qr_scan", "android": "https://dc.lft.to/lastmile_qr_scan"}, "type": "electric_scooter", "name": "7f8ac16745ed36e5b61cf8f473eeece3", "is_reserved": 0, "lon": -77.02100233333333, "is_disabled": 0, "fusion_lat": 0.0, "lat": 38.93011383333333, "bike_id": "7f8ac16745ed36e5b61cf8f473eeece3", "fusion_lon": 0.0}, {"rental_uris": {"ios": "https://dc.lft.to/lastmile_qr_scan", "android": "https://dc.lft.to/lastmile_qr_scan"}, "type": "electric_scooter", "name": "a957679a8f2dc7f7b0f4ac71ca261f3d", "is_reserved": 0, "lon": -77.04801216666667, "is_disabled": 0, "fusion_lat": 0.0, "lat": 38.91101416666667, "bike_id": "a957679a8f2dc7f7b0f4ac71ca261f3d", "fusion_lon": 0.0}, {"rental_uris": {"ios": "https://dc.lft.to/lastmile_qr_scan", "android": "https://dc.lft.to/lastmile_qr_scan"}, "type": "electric_scooter", "name": "d42820112e535dd4eaa9efcff12c742f", "is_reserved": 0, "lon": -77.02139533333333, "is_disabled": 0, "fusion_lat": 0.0, "lat": 38.905645666666665, "bike_id": "d42820112e535dd4eaa9efcff12c742f", "fusion_lon": 0.0}, {"rental_uris": {"ios": "https://dc.lft.to/lastmile_qr_scan", "android": "https://dc.lft.to/lastmile_qr_scan"}, "type": "electric_scooter", "name": "b0f5f2ca359661dcc622320d776a97c0", "is_reserved": 0, "lon": -77.06125166666666, "is_disabled": 0, "fusion_lat": 0.0, "lat": 38.90501616666667, "bike_id": "b0f5f2ca359661dcc622320d776a97c0", "fusion_lon": 0.0}, {"rental_uris": {"ios": "https://dc.lft.to/lastmile_qr_scan", "android": "https://dc.lft.to/lastmile_qr_scan"}, "type": "electric_scooter", "name": "9268baf13c994cb517c001af4cf040d2", "is_reserved": 0, "lon": -76.98987133333333, "is_disabled": 0, "fusion_lat": 0.0, "lat": 38.8649885, "bike_id": "9268baf13c994cb517c001af4cf040d2", "fusion_lon": 0.0}, {"rental_uris": {"ios": "https://dc.lft.to/lastmile_qr_scan", "android": "https://dc.lft.to/lastmile_qr_scan"}, "type": "electric_bike", "name": "aa04292afa60cea0fbbaa3891744a96f", "is_reserved": 0, "lon": -77.00494783333333, "is_disabled": 0, "fusion_lat": 0.0, "lat": 38.916324333333336, "bike_id": "aa04292afa60cea0fbbaa3891744a96f", "fusion_lon": 0.0}, {"rental_uris": {"ios": "https://dc.lft.to/lastmile_qr_scan", "android": "https://dc.lft.to/lastmile_qr_scan"}, "type": "electric_scooter", "name": "4f8d387971e62e1a0765ed12b1d4895a", "is_reserved": 0, "lon": -77.03072516666667, "is_disabled": 0, "fusion_lat": 0.0, "lat": 38.90833416666667, "bike_id": "4f8d387971e62e1a0765ed12b1d4895a", "fusion_lon": 0.0}, {"rental_uris": {"ios": "https://dc.lft.to/lastmile_qr_scan", "android": "https://dc.lft.to/lastmile_qr_scan"}, "type": "electric_scooter", "name": "6d872f489c66ba8c67d04f0de0ff871e", "is_reserved": 0, "lon": -77.061439, "is_disabled": 0, "fusion_lat": 0.0, "lat": 38.91291183333333, "bike_id": "6d872f489c66ba8c67d04f0de0ff871e", "fusion_lon": 0.0}, {"rental_uris": {"ios": "https://dc.lft.to/lastmile_qr_scan", "android": "https://dc.lft.to/lastmile_qr_scan"}, "type": "electric_scooter", "name": "396c4ac20abdaf33c8e316f4abaa2c16", "is_reserved": 0, "lon": -77.01774033333334, "is_disabled": 0, "fusion_lat": 0.0, "lat": 38.921280333333335, "bike_id": "396c4ac20abdaf33c8e316f4abaa2c16", "fusion_lon": 0.0}, {"rental_uris": {"ios": "https://dc.lft.to/lastmile_qr_scan", "android": "https://dc.lft.to/lastmile_qr_scan"}, "type": "electric_scooter", "name": "334a5ac5d1d7462222a47bf72c9f3b46", "is_reserved": 0, "lon": -76.9861165, "is_disabled": 0, "fusion_lat": 0.0, "lat": 38.8784125, "bike_id": "334a5ac5d1d7462222a47bf72c9f3b46", "fusion_lon": 0.0}, {"rental_uris": {"ios": "https://dc.lft.to/lastmile_qr_scan", "android": "https://dc.lft.to/lastmile_qr_scan"}, "type": "electric_scooter", "name": "2fad459d16760db594f4ef5c51655c07", "is_reserved": 0, "lon": -77.019422, "is_disabled": 0, "fusion_lat": 0.0, "lat": 38.876685, "bike_id": "2fad459d16760db594f4ef5c51655c07", "fusion_lon": 0.0}, {"rental_uris": {"ios": "https://dc.lft.to/lastmile_qr_scan", "android": "https://dc.lft.to/lastmile_qr_scan"}, "type": "electric_scooter", "name": "8df48b5b0e34a28a5ad9fe4f1e088d19", "is_reserved": 0, "lon": -77.02459033333334, "is_disabled": 0, "fusion_lat": 0.0, "lat": 38.92505, "bike_id": "8df48b5b0e34a28a5ad9fe4f1e088d19", "fusion_lon": 0.0}, {"rental_uris": {"ios": "https://dc.lft.to/lastmile_qr_scan", "android": "https://dc.lft.to/lastmile_qr_scan"}, "type": "electric_scooter", "name": "90cb803120eaf2f2fcac84f3712c25a2", "is_reserved": 0, "lon": -77.0087095, "is_disabled": 0, "fusion_lat": 0.0, "lat": 38.912601333333335, "bike_id": "90cb803120eaf2f2fcac84f3712c25a2", "fusion_lon": 0.0}, {"rental_uris": {"ios": "https://dc.lft.to/lastmile_qr_scan", "android": "https://dc.lft.to/lastmile_qr_scan"}, "type": "electric_scooter", "name": "107408a1e947b8aefd63720e6d094a9a", "is_reserved": 0, "lon": -77.03448566666667, "is_disabled": 0, "fusion_lat": 0.0, "lat": 38.907266166666666, "bike_id": "107408a1e947b8aefd63720e6d094a9a", "fusion_lon": 0.0}, {"rental_uris": {"ios": "https://dc.lft.to/lastmile_qr_scan", "android": "https://dc.lft.to/lastmile_qr_scan"}, "type": "electric_scooter", "name": "533e47429c355610411f6c5ec59c0beb", "is_reserved": 0, "lon": -77.02054116666666, "is_disabled": 0, "fusion_lat": 0.0, "lat": 38.9224585, "bike_id": "533e47429c355610411f6c5ec59c0beb", "fusion_lon": 0.0}, {"rental_uris": {"ios": "https://dc.lft.to/lastmile_qr_scan", "android": "https://dc.lft.to/lastmile_qr_scan"}, "type": "electric_scooter", "name": "65a1055f1314cd3230f26532383e85f4", "is_reserved": 0, "lon": -76.99409516666667, "is_disabled": 0, "fusion_lat": 0.0, "lat": 38.877810333333336, "bike_id": "65a1055f1314cd3230f26532383e85f4", "fusion_lon": 0.0}, {"rental_uris": {"ios": "https://dc.lft.to/lastmile_qr_scan", "android": "https://dc.lft.to/lastmile_qr_scan"}, "type": "electric_scooter", "name": "f52125c01854dec1a5405fb90e6b69b7", "is_reserved": 0, "lon": -77.03953816666667, "is_disabled": 0, "fusion_lat": 0.0, "lat": 38.892458500000004, "bike_id": "f52125c01854dec1a5405fb90e6b69b7", "fusion_lon": 0.0}, {"rental_uris": {"ios": "https://dc.lft.to/lastmile_qr_scan", "android": "https://dc.lft.to/lastmile_qr_scan"}, "type": "electric_scooter", "name": "87563c1994f20db198d0e9a60ff48c77", "is_reserved": 0, "lon": -77.0093785, "is_disabled": 0, "fusion_lat": 0.0, "lat": 38.876717666666664, "bike_id": "87563c1994f20db198d0e9a60ff48c77", "fusion_lon": 0.0}, {"rental_uris": {"ios": "https://dc.lft.to/lastmile_qr_scan", "android": "https://dc.lft.to/lastmile_qr_scan"}, "type": "electric_scooter", "name": "73fc8d0dded1d5924d07ab8595d9253a", "is_reserved": 0, "lon": -77.03139033333333, "is_disabled": 0, "fusion_lat": 0.0, "lat": 38.918315666666665, "bike_id": "73fc8d0dded1d5924d07ab8595d9253a", "fusion_lon": 0.0}, {"rental_uris": {"ios": "https://dc.lft.to/lastmile_qr_scan", "android": "https://dc.lft.to/lastmile_qr_scan"}, "type": "electric_bike", "name": "09578bf7554f23f1fdf2b19bae867060", "is_reserved": 0, "lon": -76.889727, "is_disabled": 0, "fusion_lat": 0.0, "lat": 39.0077615, "bike_id": "09578bf7554f23f1fdf2b19bae867060", "fusion_lon": 0.0}, {"rental_uris": {"ios": "https://dc.lft.to/lastmile_qr_scan", "android": "https://dc.lft.to/lastmile_qr_scan"}, "type": "electric_scooter", "name": "f8a258bc8fdc3e6b0f47b6c57f8da08b", "is_reserved": 0, "lon": -76.9840695, "is_disabled": 0, "fusion_lat": 0.0, "lat": 38.92518666666667, "bike_id": "f8a258bc8fdc3e6b0f47b6c57f8da08b", "fusion_lon": 0.0}, {"rental_uris": {"ios": "https://dc.lft.to/lastmile_qr_scan", "android": "https://dc.lft.to/lastmile_qr_scan"}, "type": "electric_scooter", "name": "53ac6d180bc2d985726e52e57bdea66b", "is_reserved": 0, "lon": -77.0473485, "is_disabled": 0, "fusion_lat": 0.0, "lat": 38.912616666666665, "bike_id": "53ac6d180bc2d985726e52e57bdea66b", "fusion_lon": 0.0}, {"rental_uris": {"ios": "https://dc.lft.to/lastmile_qr_scan", "android": "https://dc.lft.to/lastmile_qr_scan"}, "type": "electric_bike", "name": "838be0d9dd98b9597f6aecf24c74fdcb", "is_reserved": 0, "lon": -76.98346766666667, "is_disabled": 0, "fusion_lat": 0.0, "lat": 38.862638, "bike_id": "838be0d9dd98b9597f6aecf24c74fdcb", "fusion_lon": 0.0}, {"rental_uris": {"ios": "https://dc.lft.to/lastmile_qr_scan", "android": "https://dc.lft.to/lastmile_qr_scan"}, "type": "electric_scooter", "name": "d5621b684005fc71758fcaf99ac0c3ca", "is_reserved": 0, "lon": -77.034707, "is_disabled": 0, "fusion_lat": 0.0, "lat": 38.930221, "bike_id": "d5621b684005fc71758fcaf99ac0c3ca", "fusion_lon": 0.0}, {"rental_uris": {"ios": "https://dc.lft.to/lastmile_qr_scan", "android": "https://dc.lft.to/lastmile_qr_scan"}, "type": "electric_bike", "name": "f9fb0722a86709cf72f4595ed66a6968", "is_reserved": 0, "lon": -76.98814083333333, "is_disabled": 0, "fusion_lat": 0.0, "lat": 38.842822, "bike_id": "f9fb0722a86709cf72f4595ed66a6968", "fusion_lon": 0.0}, {"rental_uris": {"ios": "https://dc.lft.to/lastmile_qr_scan", "android": "https://dc.lft.to/lastmile_qr_scan"}, "type": "electric_scooter", "name": "0aafcb8c940b52be2262fec17ba90aae", "is_reserved": 0, "lon": -77.03221366666666, "is_disabled": 0, "fusion_lat": 0.0, "lat": 38.898998666666664, "bike_id": "0aafcb8c940b52be2262fec17ba90aae", "fusion_lon": 0.0}, {"rental_uris": {"ios": "https://dc.lft.to/lastmile_qr_scan", "android": "https://dc.lft.to/lastmile_qr_scan"}, "type": "electric_scooter", "name": "157d9dab5f7a99a9ebeff9249c0e252f", "is_reserved": 0, "lon": -77.03699, "is_disabled": 0, "fusion_lat": 0.0, "lat": 38.932747, "bike_id": "157d9dab5f7a99a9ebeff9249c0e252f", "fusion_lon": 0.0}, {"rental_uris": {"ios": "https://dc.lft.to/lastmile_qr_scan", "android": "https://dc.lft.to/lastmile_qr_scan"}, "type": "electric_bike", "name": "d65fe29e344bdfa4f3777bcf48c527bc", "is_reserved": 0, "lon": -77.07520183333334, "is_disabled": 0, "fusion_lat": 0.0, "lat": 38.842864666666664, "bike_id": "d65fe29e344bdfa4f3777bcf48c527bc", "fusion_lon": 0.0}, {"rental_uris": {"ios": "https://dc.lft.to/lastmile_qr_scan", "android": "https://dc.lft.to/lastmile_qr_scan"}, "type": "electric_scooter", "name": "1a381384ff8c7e26ff78b2c6d0b0ad30", "is_reserved": 0, "lon": -77.00135733333333, "is_disabled": 0, "fusion_lat": 0.0, "lat": 38.8737675, "bike_id": "1a381384ff8c7e26ff78b2c6d0b0ad30", "fusion_lon": 0.0}, {"rental_uris": {"ios": "https://dc.lft.to/lastmile_qr_scan", "android": "https://dc.lft.to/lastmile_qr_scan"}, "type": "electric_scooter", "name": "823702e37905e4115573de220f353fbd", "is_reserved": 0, "lon": -77.05231083333334, "is_disabled": 0, "fusion_lat": 0.0, "lat": 38.8985125, "bike_id": "823702e37905e4115573de220f353fbd", "fusion_lon": 0.0}, {"rental_uris": {"ios": "https://dc.lft.to/lastmile_qr_scan", "android": "https://dc.lft.to/lastmile_qr_scan"}, "type": "electric_scooter", "name": "56ce77b6097cb3105bb5a1140758543d", "is_reserved": 0, "lon": -77.0459845, "is_disabled": 0, "fusion_lat": 0.0, "lat": 38.9186505, "bike_id": "56ce77b6097cb3105bb5a1140758543d", "fusion_lon": 0.0}, {"rental_uris": {"ios": "https://dc.lft.to/lastmile_qr_scan", "android": "https://dc.lft.to/lastmile_qr_scan"}, "type": "electric_bike", "name": "ef1a85dd809ec4b244c82e4f9c7cde9e", "is_reserved": 0, "lon": -77.02360566666667, "is_disabled": 0, "fusion_lat": 0.0, "lat": 38.935824333333336, "bike_id": "ef1a85dd809ec4b244c82e4f9c7cde9e", "fusion_lon": 0.0}, {"rental_uris": {"ios": "https://dc.lft.to/lastmile_qr_scan", "android": "https://dc.lft.to/lastmile_qr_scan"}, "type": "electric_scooter", "name": "66514cd1062dd20b0376238cffebe15c", "is_reserved": 0, "lon": -77.045124, "is_disabled": 0, "fusion_lat": 0.0, "lat": 38.91422566666667, "bike_id": "66514cd1062dd20b0376238cffebe15c", "fusion_lon": 0.0}, {"rental_uris": {"ios": "https://dc.lft.to/lastmile_qr_scan", "android": "https://dc.lft.to/lastmile_qr_scan"}, "type": "electric_scooter", "name": "a5ada69b5930941bb0d9f8c754b84c97", "is_reserved": 0, "lon": -76.9299005, "is_disabled": 0, "fusion_lat": 0.0, "lat": 38.89288916666667, "bike_id": "a5ada69b5930941bb0d9f8c754b84c97", "fusion_lon": 0.0}, {"rental_uris": {"ios": "https://dc.lft.to/lastmile_qr_scan", "android": "https://dc.lft.to/lastmile_qr_scan"}, "type": "electric_scooter", "name": "fed7768924a8f27d9a674744261d9c2a", "is_reserved": 0, "lon": -77.02219066666666, "is_disabled": 0, "fusion_lat": 0.0, "lat": 38.924758833333335, "bike_id": "fed7768924a8f27d9a674744261d9c2a", "fusion_lon": 0.0}, {"rental_uris": {"ios": "https://dc.lft.to/lastmile_qr_scan", "android": "https://dc.lft.to/lastmile_qr_scan"}, "type": "electric_scooter", "name": "3bd1368c2cc3a047a204b361520b5c18", "is_reserved": 0, "lon": -77.05056833333333, "is_disabled": 0, "fusion_lat": 0.0, "lat": 38.92584633333333, "bike_id": "3bd1368c2cc3a047a204b361520b5c18", "fusion_lon": 0.0}, {"rental_uris": {"ios": "https://dc.lft.to/lastmile_qr_scan", "android": "https://dc.lft.to/lastmile_qr_scan"}, "type": "electric_scooter", "name": "bae9a204e01cb035de53a036cfcacf87", "is_reserved": 0, "lon": -77.00651083333334, "is_disabled": 0, "fusion_lat": 0.0, "lat": 38.899977666666665, "bike_id": "bae9a204e01cb035de53a036cfcacf87", "fusion_lon": 0.0}, {"rental_uris": {"ios": "https://dc.lft.to/lastmile_qr_scan", "android": "https://dc.lft.to/lastmile_qr_scan"}, "type": "electric_scooter", "name": "8bbe9507bc3d277ed447428beb05d74d", "is_reserved": 0, "lon": -77.03637933333333, "is_disabled": 0, "fusion_lat": 0.0, "lat": 38.924324, "bike_id": "8bbe9507bc3d277ed447428beb05d74d", "fusion_lon": 0.0}, {"rental_uris": {"ios": "https://dc.lft.to/lastmile_qr_scan", "android": "https://dc.lft.to/lastmile_qr_scan"}, "type": "electric_scooter", "name": "54e10321e959d72c30452bf8bcda13c9", "is_reserved": 0, "lon": -77.04065083333333, "is_disabled": 0, "fusion_lat": 0.0, "lat": 38.927687166666665, "bike_id": "54e10321e959d72c30452bf8bcda13c9", "fusion_lon": 0.0}, {"rental_uris": {"ios": "https://dc.lft.to/lastmile_qr_scan", "android": "https://dc.lft.to/lastmile_qr_scan"}, "type": "electric_scooter", "name": "7e83158bdb0bbeebe4ce7266f8c31a97", "is_reserved": 0, "lon": -77.039593, "is_disabled": 0, "fusion_lat": 0.0, "lat": 38.90812183333333, "bike_id": "7e83158bdb0bbeebe4ce7266f8c31a97", "fusion_lon": 0.0}, {"rental_uris": {"ios": "https://dc.lft.to/lastmile_qr_scan", "android": "https://dc.lft.to/lastmile_qr_scan"}, "type": "electric_scooter", "name": "1ea83bf4e772bf53068b1174cd3c3205", "is_reserved": 0, "lon": -76.9740225, "is_disabled": 0, "fusion_lat": 0.0, "lat": 38.9014135, "bike_id": "1ea83bf4e772bf53068b1174cd3c3205", "fusion_lon": 0.0}, {"rental_uris": {"ios": "https://dc.lft.to/lastmile_qr_scan", "android": "https://dc.lft.to/lastmile_qr_scan"}, "type": "electric_scooter", "name": "fcf6049ae738b40a65fbb0a47950b20a", "is_reserved": 0, "lon": -76.99303166666667, "is_disabled": 0, "fusion_lat": 0.0, "lat": 38.93571283333333, "bike_id": "fcf6049ae738b40a65fbb0a47950b20a", "fusion_lon": 0.0}, {"rental_uris": {"ios": "https://dc.lft.to/lastmile_qr_scan", "android": "https://dc.lft.to/lastmile_qr_scan"}, "type": "electric_scooter", "name": "a2a21260492cde52cd5ae6867ed3a244", "is_reserved": 0, "lon": -77.00573, "is_disabled": 0, "fusion_lat": 0.0, "lat": 38.9055415, "bike_id": "a2a21260492cde52cd5ae6867ed3a244", "fusion_lon": 0.0}, {"rental_uris": {"ios": "https://dc.lft.to/lastmile_qr_scan", "android": "https://dc.lft.to/lastmile_qr_scan"}, "type": "electric_scooter", "name": "577d64643ed5ba6d52ffb7b4f50dc4e3", "is_reserved": 0, "lon": -77.03589816666667, "is_disabled": 0, "fusion_lat": 0.0, "lat": 38.906380666666664, "bike_id": "577d64643ed5ba6d52ffb7b4f50dc4e3", "fusion_lon": 0.0}, {"rental_uris": {"ios": "https://dc.lft.to/lastmile_qr_scan", "android": "https://dc.lft.to/lastmile_qr_scan"}, "type": "electric_bike", "name": "80e6cf399eca369c37d578e8dcb71f97", "is_reserved": 0, "lon": -76.96108883333333, "is_disabled": 0, "fusion_lat": 0.0, "lat": 38.949613166666666, "bike_id": "80e6cf399eca369c37d578e8dcb71f97", "fusion_lon": 0.0}, {"rental_uris": {"ios": "https://dc.lft.to/lastmile_qr_scan", "android": "https://dc.lft.to/lastmile_qr_scan"}, "type": "electric_scooter", "name": "2cb3fd07c5d2640518c6c6cfbbc9cc27", "is_reserved": 0, "lon": -77.00528, "is_disabled": 0, "fusion_lat": 0.0, "lat": 38.885128, "bike_id": "2cb3fd07c5d2640518c6c6cfbbc9cc27", "fusion_lon": 0.0}, {"rental_uris": {"ios": "https://dc.lft.to/lastmile_qr_scan", "android": "https://dc.lft.to/lastmile_qr_scan"}, "type": "electric_scooter", "name": "8182452374fadc92764b71764e000ecb", "is_reserved": 0, "lon": -77.02174366666667, "is_disabled": 0, "fusion_lat": 0.0, "lat": 38.90229183333334, "bike_id": "8182452374fadc92764b71764e000ecb", "fusion_lon": 0.0}, {"rental_uris": {"ios": "https://dc.lft.to/lastmile_qr_scan", "android": "https://dc.lft.to/lastmile_qr_scan"}, "type": "electric_scooter", "name": "14e8a41a5ed888a2fd44e0825bb3321f", "is_reserved": 0, "lon": -77.00913433333334, "is_disabled": 0, "fusion_lat": 0.0, "lat": 38.918334333333334, "bike_id": "14e8a41a5ed888a2fd44e0825bb3321f", "fusion_lon": 0.0}, {"rental_uris": {"ios": "https://dc.lft.to/lastmile_qr_scan", "android": "https://dc.lft.to/lastmile_qr_scan"}, "type": "electric_scooter", "name": "1791972f27d2d1d3658e694d2ef07fc0", "is_reserved": 0, "lon": -77.01218483333334, "is_disabled": 0, "fusion_lat": 0.0, "lat": 38.92033333333333, "bike_id": "1791972f27d2d1d3658e694d2ef07fc0", "fusion_lon": 0.0}, {"rental_uris": {"ios": "https://dc.lft.to/lastmile_qr_scan", "android": "https://dc.lft.to/lastmile_qr_scan"}, "type": "electric_scooter", "name": "485a9d378de3eedd24b7b6d9620332ca", "is_reserved": 0, "lon": -77.0390665, "is_disabled": 0, "fusion_lat": 0.0, "lat": 38.908235833333336, "bike_id": "485a9d378de3eedd24b7b6d9620332ca", "fusion_lon": 0.0}, {"rental_uris": {"ios": "https://dc.lft.to/lastmile_qr_scan", "android": "https://dc.lft.to/lastmile_qr_scan"}, "type": "electric_scooter", "name": "7370aaf2fd9ae09c81284dc5d0813ece", "is_reserved": 0, "lon": -77.02951, "is_disabled": 0, "fusion_lat": 0.0, "lat": 38.8840435, "bike_id": "7370aaf2fd9ae09c81284dc5d0813ece", "fusion_lon": 0.0}, {"rental_uris": {"ios": "https://dc.lft.to/lastmile_qr_scan", "android": "https://dc.lft.to/lastmile_qr_scan"}, "type": "electric_scooter", "name": "7dd528499639fe16b22fc9bac209d90d", "is_reserved": 0, "lon": -77.0110325, "is_disabled": 0, "fusion_lat": 0.0, "lat": 38.885411500000004, "bike_id": "7dd528499639fe16b22fc9bac209d90d", "fusion_lon": 0.0}, {"rental_uris": {"ios": "https://dc.lft.to/lastmile_qr_scan", "android": "https://dc.lft.to/lastmile_qr_scan"}, "type": "electric_scooter", "name": "d59732d7d49b21b96a3918745bec376d", "is_reserved": 0, "lon": -77.00216966666666, "is_disabled": 0, "fusion_lat": 0.0, "lat": 38.9110535, "bike_id": "d59732d7d49b21b96a3918745bec376d", "fusion_lon": 0.0}, {"rental_uris": {"ios": "https://dc.lft.to/lastmile_qr_scan", "android": "https://dc.lft.to/lastmile_qr_scan"}, "type": "electric_scooter", "name": "485dd0a731cd51c216f61899ced2fe0b", "is_reserved": 0, "lon": -77.04641016666666, "is_disabled": 0, "fusion_lat": 0.0, "lat": 38.91917633333333, "bike_id": "485dd0a731cd51c216f61899ced2fe0b", "fusion_lon": 0.0}, {"rental_uris": {"ios": "https://dc.lft.to/lastmile_qr_scan", "android": "https://dc.lft.to/lastmile_qr_scan"}, "type": "electric_scooter", "name": "9052c6d24fbe10852595e5cfc358c15c", "is_reserved": 0, "lon": -77.02694616666666, "is_disabled": 0, "fusion_lat": 0.0, "lat": 38.9240465, "bike_id": "9052c6d24fbe10852595e5cfc358c15c", "fusion_lon": 0.0}, {"rental_uris": {"ios": "https://dc.lft.to/lastmile_qr_scan", "android": "https://dc.lft.to/lastmile_qr_scan"}, "type": "electric_bike", "name": "0bed302c657824905bb511e7d3c3be4c", "is_reserved": 0, "lon": -76.98058966666666, "is_disabled": 0, "fusion_lat": 0.0, "lat": 38.972524666666665, "bike_id": "0bed302c657824905bb511e7d3c3be4c", "fusion_lon": 0.0}, {"rental_uris": {"ios": "https://dc.lft.to/lastmile_qr_scan", "android": "https://dc.lft.to/lastmile_qr_scan"}, "type": "electric_scooter", "name": "1855cfc73331c523b43a60c36572d22a", "is_reserved": 0, "lon": -77.02407066666666, "is_disabled": 0, "fusion_lat": 0.0, "lat": 38.945044833333334, "bike_id": "1855cfc73331c523b43a60c36572d22a", "fusion_lon": 0.0}, {"rental_uris": {"ios": "https://dc.lft.to/lastmile_qr_scan", "android": "https://dc.lft.to/lastmile_qr_scan"}, "type": "electric_scooter", "name": "67dcdfb4b64efdfbf92b56c570ad2add", "is_reserved": 0, "lon": -77.01789483333333, "is_disabled": 0, "fusion_lat": 0.0, "lat": 38.880231, "bike_id": "67dcdfb4b64efdfbf92b56c570ad2add", "fusion_lon": 0.0}, {"rental_uris": {"ios": "https://dc.lft.to/lastmile_qr_scan", "android": "https://dc.lft.to/lastmile_qr_scan"}, "type": "electric_scooter", "name": "d491b1c7b388802e2af0cebf8dc9beca", "is_reserved": 0, "lon": -77.03633633333334, "is_disabled": 0, "fusion_lat": 0.0, "lat": 38.930549166666665, "bike_id": "d491b1c7b388802e2af0cebf8dc9beca", "fusion_lon": 0.0}, {"rental_uris": {"ios": "https://dc.lft.to/lastmile_qr_scan", "android": "https://dc.lft.to/lastmile_qr_scan"}, "type": "electric_scooter", "name": "88ae7cc5995785a4526c83a73545460e", "is_reserved": 0, "lon": -77.03984183333333, "is_disabled": 0, "fusion_lat": 0.0, "lat": 38.90150366666667, "bike_id": "88ae7cc5995785a4526c83a73545460e", "fusion_lon": 0.0}, {"rental_uris": {"ios": "https://dc.lft.to/lastmile_qr_scan", "android": "https://dc.lft.to/lastmile_qr_scan"}, "type": "electric_scooter", "name": "917276b73de2dc6c9312d18bf21e4350", "is_reserved": 0, "lon": -77.02218233333333, "is_disabled": 0, "fusion_lat": 0.0, "lat": 38.92477266666667, "bike_id": "917276b73de2dc6c9312d18bf21e4350", "fusion_lon": 0.0}, {"rental_uris": {"ios": "https://dc.lft.to/lastmile_qr_scan", "android": "https://dc.lft.to/lastmile_qr_scan"}, "type": "electric_scooter", "name": "9039bbfec2dfd282853361e66623b828", "is_reserved": 0, "lon": -77.03659883333333, "is_disabled": 0, "fusion_lat": 0.0, "lat": 38.936331833333334, "bike_id": "9039bbfec2dfd282853361e66623b828", "fusion_lon": 0.0}, {"rental_uris": {"ios": "https://dc.lft.to/lastmile_qr_scan", "android": "https://dc.lft.to/lastmile_qr_scan"}, "type": "electric_scooter", "name": "d03f8e0d9bd2d92eebf8df6600e8aa59", "is_reserved": 0, "lon": -76.97041283333333, "is_disabled": 0, "fusion_lat": 0.0, "lat": 38.86330983333333, "bike_id": "d03f8e0d9bd2d92eebf8df6600e8aa59", "fusion_lon": 0.0}, {"rental_uris": {"ios": "https://dc.lft.to/lastmile_qr_scan", "android": "https://dc.lft.to/lastmile_qr_scan"}, "type": "electric_scooter", "name": "91909a255f95efe54551931eca74b359", "is_reserved": 0, "lon": -76.99558816666666, "is_disabled": 0, "fusion_lat": 0.0, "lat": 38.92669516666667, "bike_id": "91909a255f95efe54551931eca74b359", "fusion_lon": 0.0}, {"rental_uris": {"ios": "https://dc.lft.to/lastmile_qr_scan", "android": "https://dc.lft.to/lastmile_qr_scan"}, "type": "electric_scooter", "name": "fad3abcf2348764aa9c68c088397fdf7", "is_reserved": 0, "lon": -77.03661916666667, "is_disabled": 0, "fusion_lat": 0.0, "lat": 38.913888, "bike_id": "fad3abcf2348764aa9c68c088397fdf7", "fusion_lon": 0.0}, {"rental_uris": {"ios": "https://dc.lft.to/lastmile_qr_scan", "android": "https://dc.lft.to/lastmile_qr_scan"}, "type": "electric_scooter", "name": "3dfd699c41ef74fc03ce184813b8d634", "is_reserved": 0, "lon": -77.04190366666667, "is_disabled": 0, "fusion_lat": 0.0, "lat": 38.92208866666667, "bike_id": "3dfd699c41ef74fc03ce184813b8d634", "fusion_lon": 0.0}, {"rental_uris": {"ios": "https://dc.lft.to/lastmile_qr_scan", "android": "https://dc.lft.to/lastmile_qr_scan"}, "type": "electric_scooter", "name": "cefa50d8ea398900614e3e66fa81d1de", "is_reserved": 0, "lon": -77.05871783333333, "is_disabled": 0, "fusion_lat": 0.0, "lat": 38.942417, "bike_id": "cefa50d8ea398900614e3e66fa81d1de", "fusion_lon": 0.0}, {"rental_uris": {"ios": "https://dc.lft.to/lastmile_qr_scan", "android": "https://dc.lft.to/lastmile_qr_scan"}, "type": "electric_scooter", "name": "ba885f753d6671e0f43e66debd18e062", "is_reserved": 0, "lon": -77.02968566666667, "is_disabled": 0, "fusion_lat": 0.0, "lat": 38.91722383333333, "bike_id": "ba885f753d6671e0f43e66debd18e062", "fusion_lon": 0.0}, {"rental_uris": {"ios": "https://dc.lft.to/lastmile_qr_scan", "android": "https://dc.lft.to/lastmile_qr_scan"}, "type": "electric_scooter", "name": "5f06e58fe8b7b23d7a79ae227e199bc8", "is_reserved": 0, "lon": -77.06774416666667, "is_disabled": 0, "fusion_lat": 0.0, "lat": 38.90404316666667, "bike_id": "5f06e58fe8b7b23d7a79ae227e199bc8", "fusion_lon": 0.0}, {"rental_uris": {"ios": "https://dc.lft.to/lastmile_qr_scan", "android": "https://dc.lft.to/lastmile_qr_scan"}, "type": "electric_scooter", "name": "2e15d6afaf7e36d371f214c55191d0e7", "is_reserved": 0, "lon": -76.92923733333333, "is_disabled": 0, "fusion_lat": 0.0, "lat": 38.88657283333333, "bike_id": "2e15d6afaf7e36d371f214c55191d0e7", "fusion_lon": 0.0}, {"rental_uris": {"ios": "https://dc.lft.to/lastmile_qr_scan", "android": "https://dc.lft.to/lastmile_qr_scan"}, "type": "electric_scooter", "name": "8883110ca9314d2b7146d71bc00835ee", "is_reserved": 0, "lon": -77.03901633333334, "is_disabled": 0, "fusion_lat": 0.0, "lat": 38.92443683333333, "bike_id": "8883110ca9314d2b7146d71bc00835ee", "fusion_lon": 0.0}, {"rental_uris": {"ios": "https://dc.lft.to/lastmile_qr_scan", "android": "https://dc.lft.to/lastmile_qr_scan"}, "type": "electric_scooter", "name": "86f534f3a817aa00859fee663d77be77", "is_reserved": 0, "lon": -77.01784933333333, "is_disabled": 0, "fusion_lat": 0.0, "lat": 38.90076616666666, "bike_id": "86f534f3a817aa00859fee663d77be77", "fusion_lon": 0.0}, {"rental_uris": {"ios": "https://dc.lft.to/lastmile_qr_scan", "android": "https://dc.lft.to/lastmile_qr_scan"}, "type": "electric_scooter", "name": "7614ac10f7b8ba6cffbf3c62ea630c18", "is_reserved": 0, "lon": -77.029821, "is_disabled": 0, "fusion_lat": 0.0, "lat": 38.904678, "bike_id": "7614ac10f7b8ba6cffbf3c62ea630c18", "fusion_lon": 0.0}, {"rental_uris": {"ios": "https://dc.lft.to/lastmile_qr_scan", "android": "https://dc.lft.to/lastmile_qr_scan"}, "type": "electric_scooter", "name": "65ade2dd0cf07285e7270f85ec1a1c76", "is_reserved": 0, "lon": -77.00642783333333, "is_disabled": 0, "fusion_lat": 0.0, "lat": 38.905265166666666, "bike_id": "65ade2dd0cf07285e7270f85ec1a1c76", "fusion_lon": 0.0}, {"rental_uris": {"ios": "https://dc.lft.to/lastmile_qr_scan", "android": "https://dc.lft.to/lastmile_qr_scan"}, "type": "electric_scooter", "name": "f79c40c6269e9bf9214ea7e239a14728", "is_reserved": 0, "lon": -77.03250966666667, "is_disabled": 0, "fusion_lat": 0.0, "lat": 38.917106833333335, "bike_id": "f79c40c6269e9bf9214ea7e239a14728", "fusion_lon": 0.0}, {"rental_uris": {"ios": "https://dc.lft.to/lastmile_qr_scan", "android": "https://dc.lft.to/lastmile_qr_scan"}, "type": "electric_bike", "name": "eef8e915bcd8f1e9dbab4caf8c69b977", "is_reserved": 0, "lon": -77.11175433333334, "is_disabled": 0, "fusion_lat": 0.0, "lat": 38.827877, "bike_id": "eef8e915bcd8f1e9dbab4caf8c69b977", "fusion_lon": 0.0}, {"rental_uris": {"ios": "https://dc.lft.to/lastmile_qr_scan", "android": "https://dc.lft.to/lastmile_qr_scan"}, "type": "electric_scooter", "name": "eeba21f37aa32f8407b40134bbc4e986", "is_reserved": 0, "lon": -77.08779166666666, "is_disabled": 0, "fusion_lat": 0.0, "lat": 38.935556166666665, "bike_id": "eeba21f37aa32f8407b40134bbc4e986", "fusion_lon": 0.0}, {"rental_uris": {"ios": "https://dc.lft.to/lastmile_qr_scan", "android": "https://dc.lft.to/lastmile_qr_scan"}, "type": "electric_scooter", "name": "78d5ddd024442285e89b1ec057703be6", "is_reserved": 0, "lon": -77.06322666666667, "is_disabled": 0, "fusion_lat": 0.0, "lat": 38.913380833333335, "bike_id": "78d5ddd024442285e89b1ec057703be6", "fusion_lon": 0.0}, {"rental_uris": {"ios": "https://dc.lft.to/lastmile_qr_scan", "android": "https://dc.lft.to/lastmile_qr_scan"}, "type": "electric_scooter", "name": "2da5290c5772201431a538288fb7ae5f", "is_reserved": 0, "lon": -76.99715466666666, "is_disabled": 0, "fusion_lat": 0.0, "lat": 38.911266833333336, "bike_id": "2da5290c5772201431a538288fb7ae5f", "fusion_lon": 0.0}, {"rental_uris": {"ios": "https://dc.lft.to/lastmile_qr_scan", "android": "https://dc.lft.to/lastmile_qr_scan"}, "type": "electric_bike", "name": "c0c7cb877db6833527199c4032d2e29c", "is_reserved": 0, "lon": -77.00343783333334, "is_disabled": 0, "fusion_lat": 0.0, "lat": 38.916238666666665, "bike_id": "c0c7cb877db6833527199c4032d2e29c", "fusion_lon": 0.0}, {"rental_uris": {"ios": "https://dc.lft.to/lastmile_qr_scan", "android": "https://dc.lft.to/lastmile_qr_scan"}, "type": "electric_scooter", "name": "38b80885dab5458a808f42393a734cb7", "is_reserved": 0, "lon": -77.04377566666666, "is_disabled": 0, "fusion_lat": 0.0, "lat": 38.934984666666665, "bike_id": "38b80885dab5458a808f42393a734cb7", "fusion_lon": 0.0}, {"rental_uris": {"ios": "https://dc.lft.to/lastmile_qr_scan", "android": "https://dc.lft.to/lastmile_qr_scan"}, "type": "electric_scooter", "name": "c7de083e3e985f0921a6f1ec588c7523", "is_reserved": 0, "lon": -77.07365716666666, "is_disabled": 0, "fusion_lat": 0.0, "lat": 38.9373285, "bike_id": "c7de083e3e985f0921a6f1ec588c7523", "fusion_lon": 0.0}, {"rental_uris": {"ios": "https://dc.lft.to/lastmile_qr_scan", "android": "https://dc.lft.to/lastmile_qr_scan"}, "type": "electric_bike", "name": "f0753bf310166f7c2f7ef9067b9cce70", "is_reserved": 0, "lon": -76.94545266666667, "is_disabled": 0, "fusion_lat": 0.0, "lat": 38.982997, "bike_id": "f0753bf310166f7c2f7ef9067b9cce70", "fusion_lon": 0.0}, {"rental_uris": {"ios": "https://dc.lft.to/lastmile_qr_scan", "android": "https://dc.lft.to/lastmile_qr_scan"}, "type": "electric_bike", "name": "0a34f9dbcaf9920592840bac4b7e73a6", "is_reserved": 0, "lon": -76.95238366666666, "is_disabled": 0, "fusion_lat": 0.0, "lat": 38.88468616666667, "bike_id": "0a34f9dbcaf9920592840bac4b7e73a6", "fusion_lon": 0.0}, {"rental_uris": {"ios": "https://dc.lft.to/lastmile_qr_scan", "android": "https://dc.lft.to/lastmile_qr_scan"}, "type": "electric_bike", "name": "6e57cb42adc8f70266e6ac9ab23e3ed8", "is_reserved": 0, "lon": -77.04073616666666, "is_disabled": 0, "fusion_lat": 0.0, "lat": 38.993797, "bike_id": "6e57cb42adc8f70266e6ac9ab23e3ed8", "fusion_lon": 0.0}, {"rental_uris": {"ios": "https://dc.lft.to/lastmile_qr_scan", "android": "https://dc.lft.to/lastmile_qr_scan"}, "type": "electric_scooter", "name": "7aff4d7f2861d06c7fb47863b20d4792", "is_reserved": 0, "lon": -77.06701983333333, "is_disabled": 0, "fusion_lat": 0.0, "lat": 38.947979833333335, "bike_id": "7aff4d7f2861d06c7fb47863b20d4792", "fusion_lon": 0.0}, {"rental_uris": {"ios": "https://dc.lft.to/lastmile_qr_scan", "android": "https://dc.lft.to/lastmile_qr_scan"}, "type": "electric_bike", "name": "a206ffe0c0218a63b343aa674ac936fd", "is_reserved": 0, "lon": -77.0790225, "is_disabled": 0, "fusion_lat": 0.0, "lat": 38.838316, "bike_id": "a206ffe0c0218a63b343aa674ac936fd", "fusion_lon": 0.0}, {"rental_uris": {"ios": "https://dc.lft.to/lastmile_qr_scan", "android": "https://dc.lft.to/lastmile_qr_scan"}, "type": "electric_scooter", "name": "3e126111703548b0e11c6b5a5b7e6615", "is_reserved": 0, "lon": -77.03663516666667, "is_disabled": 0, "fusion_lat": 0.0, "lat": 38.93284333333333, "bike_id": "3e126111703548b0e11c6b5a5b7e6615", "fusion_lon": 0.0}, {"rental_uris": {"ios": "https://dc.lft.to/lastmile_qr_scan", "android": "https://dc.lft.to/lastmile_qr_scan"}, "type": "electric_scooter", "name": "942d458e932dec9847745182848201a9", "is_reserved": 0, "lon": -77.0144555, "is_disabled": 0, "fusion_lat": 0.0, "lat": 38.911090333333334, "bike_id": "942d458e932dec9847745182848201a9", "fusion_lon": 0.0}, {"rental_uris": {"ios": "https://dc.lft.to/lastmile_qr_scan", "android": "https://dc.lft.to/lastmile_qr_scan"}, "type": "electric_scooter", "name": "5abc5d55f1ed61f3a02eb366aa3e0f32", "is_reserved": 0, "lon": -77.08400133333333, "is_disabled": 0, "fusion_lat": 0.0, "lat": 38.9080365, "bike_id": "5abc5d55f1ed61f3a02eb366aa3e0f32", "fusion_lon": 0.0}, {"rental_uris": {"ios": "https://dc.lft.to/lastmile_qr_scan", "android": "https://dc.lft.to/lastmile_qr_scan"}, "type": "electric_scooter", "name": "7453f2ada65ccdb71792d9a640cfaa77", "is_reserved": 0, "lon": -76.94329183333333, "is_disabled": 0, "fusion_lat": 0.0, "lat": 38.879233166666666, "bike_id": "7453f2ada65ccdb71792d9a640cfaa77", "fusion_lon": 0.0}, {"rental_uris": {"ios": "https://dc.lft.to/lastmile_qr_scan", "android": "https://dc.lft.to/lastmile_qr_scan"}, "type": "electric_scooter", "name": "ac3776a0a779b994eb47422ccedc5990", "is_reserved": 0, "lon": -77.04817566666667, "is_disabled": 0, "fusion_lat": 0.0, "lat": 38.90955916666667, "bike_id": "ac3776a0a779b994eb47422ccedc5990", "fusion_lon": 0.0}, {"rental_uris": {"ios": "https://dc.lft.to/lastmile_qr_scan", "android": "https://dc.lft.to/lastmile_qr_scan"}, "type": "electric_scooter", "name": "883d9505932198e5942be7cf391cba52", "is_reserved": 0, "lon": -77.02762816666667, "is_disabled": 0, "fusion_lat": 0.0, "lat": 38.913425833333335, "bike_id": "883d9505932198e5942be7cf391cba52", "fusion_lon": 0.0}, {"rental_uris": {"ios": "https://dc.lft.to/lastmile_qr_scan", "android": "https://dc.lft.to/lastmile_qr_scan"}, "type": "electric_scooter", "name": "df8e737c93a301a01a6e9a3a1008ca06", "is_reserved": 0, "lon": -76.98566816666667, "is_disabled": 0, "fusion_lat": 0.0, "lat": 38.8962005, "bike_id": "df8e737c93a301a01a6e9a3a1008ca06", "fusion_lon": 0.0}, {"rental_uris": {"ios": "https://dc.lft.to/lastmile_qr_scan", "android": "https://dc.lft.to/lastmile_qr_scan"}, "type": "electric_scooter", "name": "c26c00f8d34f01ff16e41460772be7e9", "is_reserved": 0, "lon": -77.040418, "is_disabled": 0, "fusion_lat": 0.0, "lat": 38.924576, "bike_id": "c26c00f8d34f01ff16e41460772be7e9", "fusion_lon": 0.0}, {"rental_uris": {"ios": "https://dc.lft.to/lastmile_qr_scan", "android": "https://dc.lft.to/lastmile_qr_scan"}, "type": "electric_scooter", "name": "0ee7516ad661204356b9cf44e5d214e3", "is_reserved": 0, "lon": -77.02225183333333, "is_disabled": 0, "fusion_lat": 0.0, "lat": 38.91117716666667, "bike_id": "0ee7516ad661204356b9cf44e5d214e3", "fusion_lon": 0.0}, {"rental_uris": {"ios": "https://dc.lft.to/lastmile_qr_scan", "android": "https://dc.lft.to/lastmile_qr_scan"}, "type": "electric_scooter", "name": "667cbeb0341b57a08e939c3cc0c733e5", "is_reserved": 0, "lon": -77.04403183333334, "is_disabled": 0, "fusion_lat": 0.0, "lat": 38.92592033333333, "bike_id": "667cbeb0341b57a08e939c3cc0c733e5", "fusion_lon": 0.0}, {"rental_uris": {"ios": "https://dc.lft.to/lastmile_qr_scan", "android": "https://dc.lft.to/lastmile_qr_scan"}, "type": "electric_bike", "name": "57203af7acd382c5222be0ef0e0a07d2", "is_reserved": 0, "lon": -77.0724735, "is_disabled": 0, "fusion_lat": 0.0, "lat": 38.813635, "bike_id": "57203af7acd382c5222be0ef0e0a07d2", "fusion_lon": 0.0}, {"rental_uris": {"ios": "https://dc.lft.to/lastmile_qr_scan", "android": "https://dc.lft.to/lastmile_qr_scan"}, "type": "electric_scooter", "name": "f5bf67961d8942f0f7dfcf8aeb0e4482", "is_reserved": 0, "lon": -77.0473795, "is_disabled": 0, "fusion_lat": 0.0, "lat": 38.90170716666667, "bike_id": "f5bf67961d8942f0f7dfcf8aeb0e4482", "fusion_lon": 0.0}, {"rental_uris": {"ios": "https://dc.lft.to/lastmile_qr_scan", "android": "https://dc.lft.to/lastmile_qr_scan"}, "type": "electric_scooter", "name": "9427e3a070b74b423d8c1a31189a9a4e", "is_reserved": 0, "lon": -77.01643833333333, "is_disabled": 0, "fusion_lat": 0.0, "lat": 38.902582333333335, "bike_id": "9427e3a070b74b423d8c1a31189a9a4e", "fusion_lon": 0.0}, {"rental_uris": {"ios": "https://dc.lft.to/lastmile_qr_scan", "android": "https://dc.lft.to/lastmile_qr_scan"}, "type": "electric_scooter", "name": "1a94b5efe95ca99cd69be3467285e559", "is_reserved": 0, "lon": -77.0281835, "is_disabled": 0, "fusion_lat": 0.0, "lat": 38.910943833333334, "bike_id": "1a94b5efe95ca99cd69be3467285e559", "fusion_lon": 0.0}, {"rental_uris": {"ios": "https://dc.lft.to/lastmile_qr_scan", "android": "https://dc.lft.to/lastmile_qr_scan"}, "type": "electric_scooter", "name": "cd85a2bee4c7ae8e390df9636f724afc", "is_reserved": 0, "lon": -77.04693383333333, "is_disabled": 0, "fusion_lat": 0.0, "lat": 38.92107216666667, "bike_id": "cd85a2bee4c7ae8e390df9636f724afc", "fusion_lon": 0.0}, {"rental_uris": {"ios": "https://dc.lft.to/lastmile_qr_scan", "android": "https://dc.lft.to/lastmile_qr_scan"}, "type": "electric_bike", "name": "a60bfd460ffc9482ac13e9d9b1e96b79", "is_reserved": 0, "lon": -76.95824916666666, "is_disabled": 0, "fusion_lat": 0.0, "lat": 38.9200495, "bike_id": "a60bfd460ffc9482ac13e9d9b1e96b79", "fusion_lon": 0.0}, {"rental_uris": {"ios": "https://dc.lft.to/lastmile_qr_scan", "android": "https://dc.lft.to/lastmile_qr_scan"}, "type": "electric_scooter", "name": "092b94c01b5d62b33078fd42f0ef5cc3", "is_reserved": 0, "lon": -76.981901, "is_disabled": 0, "fusion_lat": 0.0, "lat": 38.90201833333333, "bike_id": "092b94c01b5d62b33078fd42f0ef5cc3", "fusion_lon": 0.0}, {"rental_uris": {"ios": "https://dc.lft.to/lastmile_qr_scan", "android": "https://dc.lft.to/lastmile_qr_scan"}, "type": "electric_scooter", "name": "0fcfca6ad679031447964ff4787dff63", "is_reserved": 0, "lon": -77.0211705, "is_disabled": 0, "fusion_lat": 0.0, "lat": 38.92348833333333, "bike_id": "0fcfca6ad679031447964ff4787dff63", "fusion_lon": 0.0}, {"rental_uris": {"ios": "https://dc.lft.to/lastmile_qr_scan", "android": "https://dc.lft.to/lastmile_qr_scan"}, "type": "electric_scooter", "name": "c3a982f7e440c74d2e83ed592f7a50db", "is_reserved": 0, "lon": -77.02128266666666, "is_disabled": 0, "fusion_lat": 0.0, "lat": 38.924106, "bike_id": "c3a982f7e440c74d2e83ed592f7a50db", "fusion_lon": 0.0}, {"rental_uris": {"ios": "https://dc.lft.to/lastmile_qr_scan", "android": "https://dc.lft.to/lastmile_qr_scan"}, "type": "electric_scooter", "name": "4112870d23f6f25fedac477a544d5320", "is_reserved": 0, "lon": -77.03643833333334, "is_disabled": 0, "fusion_lat": 0.0, "lat": 38.917334333333336, "bike_id": "4112870d23f6f25fedac477a544d5320", "fusion_lon": 0.0}, {"rental_uris": {"ios": "https://dc.lft.to/lastmile_qr_scan", "android": "https://dc.lft.to/lastmile_qr_scan"}, "type": "electric_scooter", "name": "380de8272244be0ebe90283a8d9483bd", "is_reserved": 0, "lon": -77.03429283333334, "is_disabled": 0, "fusion_lat": 0.0, "lat": 38.92865583333333, "bike_id": "380de8272244be0ebe90283a8d9483bd", "fusion_lon": 0.0}, {"rental_uris": {"ios": "https://dc.lft.to/lastmile_qr_scan", "android": "https://dc.lft.to/lastmile_qr_scan"}, "type": "electric_scooter", "name": "97de35f0323a491c0c7444cd0fd1e318", "is_reserved": 0, "lon": -77.00351983333333, "is_disabled": 0, "fusion_lat": 0.0, "lat": 38.89268533333333, "bike_id": "97de35f0323a491c0c7444cd0fd1e318", "fusion_lon": 0.0}, {"rental_uris": {"ios": "https://dc.lft.to/lastmile_qr_scan", "android": "https://dc.lft.to/lastmile_qr_scan"}, "type": "electric_scooter", "name": "69a8cc9f7ebaa7d24263ce4cff55bc70", "is_reserved": 0, "lon": -76.94851783333333, "is_disabled": 0, "fusion_lat": 0.0, "lat": 38.8830465, "bike_id": "69a8cc9f7ebaa7d24263ce4cff55bc70", "fusion_lon": 0.0}, {"rental_uris": {"ios": "https://dc.lft.to/lastmile_qr_scan", "android": "https://dc.lft.to/lastmile_qr_scan"}, "type": "electric_scooter", "name": "c847beddfef1665b8cc105bb1151270a", "is_reserved": 0, "lon": -77.01902066666666, "is_disabled": 0, "fusion_lat": 0.0, "lat": 38.89484566666667, "bike_id": "c847beddfef1665b8cc105bb1151270a", "fusion_lon": 0.0}, {"rental_uris": {"ios": "https://dc.lft.to/lastmile_qr_scan", "android": "https://dc.lft.to/lastmile_qr_scan"}, "type": "electric_scooter", "name": "75a2e96535267e56e004f094b11ff84e", "is_reserved": 0, "lon": -76.97981166666666, "is_disabled": 0, "fusion_lat": 0.0, "lat": 38.90731433333333, "bike_id": "75a2e96535267e56e004f094b11ff84e", "fusion_lon": 0.0}, {"rental_uris": {"ios": "https://dc.lft.to/lastmile_qr_scan", "android": "https://dc.lft.to/lastmile_qr_scan"}, "type": "electric_scooter", "name": "6b606e6975bd6c5dacffd578ba6152cb", "is_reserved": 0, "lon": -77.037332, "is_disabled": 0, "fusion_lat": 0.0, "lat": 38.92871783333333, "bike_id": "6b606e6975bd6c5dacffd578ba6152cb", "fusion_lon": 0.0}, {"rental_uris": {"ios": "https://dc.lft.to/lastmile_qr_scan", "android": "https://dc.lft.to/lastmile_qr_scan"}, "type": "electric_scooter", "name": "bd2caf038410e463c22780363fddaf74", "is_reserved": 0, "lon": -77.06552, "is_disabled": 0, "fusion_lat": 0.0, "lat": 38.9051915, "bike_id": "bd2caf038410e463c22780363fddaf74", "fusion_lon": 0.0}, {"rental_uris": {"ios": "https://dc.lft.to/lastmile_qr_scan", "android": "https://dc.lft.to/lastmile_qr_scan"}, "type": "electric_scooter", "name": "ddc5fa52c6741f462727402938aff19b", "is_reserved": 0, "lon": -76.92648033333333, "is_disabled": 0, "fusion_lat": 0.0, "lat": 38.88373216666667, "bike_id": "ddc5fa52c6741f462727402938aff19b", "fusion_lon": 0.0}, {"rental_uris": {"ios": "https://dc.lft.to/lastmile_qr_scan", "android": "https://dc.lft.to/lastmile_qr_scan"}, "type": "electric_scooter", "name": "8bea1c17a585ed6ab1547860e6fc5270", "is_reserved": 0, "lon": -77.05021066666667, "is_disabled": 0, "fusion_lat": 0.0, "lat": 38.91054916666667, "bike_id": "8bea1c17a585ed6ab1547860e6fc5270", "fusion_lon": 0.0}, {"rental_uris": {"ios": "https://dc.lft.to/lastmile_qr_scan", "android": "https://dc.lft.to/lastmile_qr_scan"}, "type": "electric_scooter", "name": "52d3fd9646febade763adc2c42b55a70", "is_reserved": 0, "lon": -77.01745733333334, "is_disabled": 0, "fusion_lat": 0.0, "lat": 38.88330216666667, "bike_id": "52d3fd9646febade763adc2c42b55a70", "fusion_lon": 0.0}, {"rental_uris": {"ios": "https://dc.lft.to/lastmile_qr_scan", "android": "https://dc.lft.to/lastmile_qr_scan"}, "type": "electric_scooter", "name": "2614b40f31f08d859438ee6e0c7fbb9d", "is_reserved": 0, "lon": -77.0197745, "is_disabled": 0, "fusion_lat": 0.0, "lat": 38.952100333333334, "bike_id": "2614b40f31f08d859438ee6e0c7fbb9d", "fusion_lon": 0.0}, {"rental_uris": {"ios": "https://dc.lft.to/lastmile_qr_scan", "android": "https://dc.lft.to/lastmile_qr_scan"}, "type": "electric_scooter", "name": "e7591b21af7d66546785a9fa8b738316", "is_reserved": 0, "lon": -77.04675466666667, "is_disabled": 0, "fusion_lat": 0.0, "lat": 38.892380833333334, "bike_id": "e7591b21af7d66546785a9fa8b738316", "fusion_lon": 0.0}, {"rental_uris": {"ios": "https://dc.lft.to/lastmile_qr_scan", "android": "https://dc.lft.to/lastmile_qr_scan"}, "type": "electric_scooter", "name": "4ddb134393e18f8225694a029b9a5a2b", "is_reserved": 0, "lon": -77.01992733333333, "is_disabled": 0, "fusion_lat": 0.0, "lat": 38.90159366666666, "bike_id": "4ddb134393e18f8225694a029b9a5a2b", "fusion_lon": 0.0}, {"rental_uris": {"ios": "https://dc.lft.to/lastmile_qr_scan", "android": "https://dc.lft.to/lastmile_qr_scan"}, "type": "electric_scooter", "name": "571ccfa0303a1dc4934ef9673493ddf9", "is_reserved": 0, "lon": -77.04882, "is_disabled": 0, "fusion_lat": 0.0, "lat": 38.9064865, "bike_id": "571ccfa0303a1dc4934ef9673493ddf9", "fusion_lon": 0.0}, {"rental_uris": {"ios": "https://dc.lft.to/lastmile_qr_scan", "android": "https://dc.lft.to/lastmile_qr_scan"}, "type": "electric_scooter", "name": "0d164ae65080a55986ba76e8d501e0a2", "is_reserved": 0, "lon": -77.04678466666667, "is_disabled": 0, "fusion_lat": 0.0, "lat": 38.91403416666667, "bike_id": "0d164ae65080a55986ba76e8d501e0a2", "fusion_lon": 0.0}, {"rental_uris": {"ios": "https://dc.lft.to/lastmile_qr_scan", "android": "https://dc.lft.to/lastmile_qr_scan"}, "type": "electric_bike", "name": "2b68d1c2d05e5e17cca22e84e97c9b1d", "is_reserved": 0, "lon": -77.1086315, "is_disabled": 0, "fusion_lat": 0.0, "lat": 38.935792166666666, "bike_id": "2b68d1c2d05e5e17cca22e84e97c9b1d", "fusion_lon": 0.0}, {"rental_uris": {"ios": "https://dc.lft.to/lastmile_qr_scan", "android": "https://dc.lft.to/lastmile_qr_scan"}, "type": "electric_scooter", "name": "e7497dca1f9cfaaa1027e26f72af3d94", "is_reserved": 0, "lon": -76.97612283333333, "is_disabled": 0, "fusion_lat": 0.0, "lat": 38.87299866666667, "bike_id": "e7497dca1f9cfaaa1027e26f72af3d94", "fusion_lon": 0.0}, {"rental_uris": {"ios": "https://dc.lft.to/lastmile_qr_scan", "android": "https://dc.lft.to/lastmile_qr_scan"}, "type": "electric_scooter", "name": "3b408cc185275f1d8ead1e51941fc7f1", "is_reserved": 0, "lon": -77.0454085, "is_disabled": 0, "fusion_lat": 0.0, "lat": 38.93268716666667, "bike_id": "3b408cc185275f1d8ead1e51941fc7f1", "fusion_lon": 0.0}, {"rental_uris": {"ios": "https://dc.lft.to/lastmile_qr_scan", "android": "https://dc.lft.to/lastmile_qr_scan"}, "type": "electric_bike", "name": "8861615ca5d74bef3cd121e1dda53893", "is_reserved": 0, "lon": -76.98275283333334, "is_disabled": 0, "fusion_lat": 0.0, "lat": 38.84672916666667, "bike_id": "8861615ca5d74bef3cd121e1dda53893", "fusion_lon": 0.0}, {"rental_uris": {"ios": "https://dc.lft.to/lastmile_qr_scan", "android": "https://dc.lft.to/lastmile_qr_scan"}, "type": "electric_scooter", "name": "3277e72ecd721209a106468784db84dd", "is_reserved": 0, "lon": -77.02232833333333, "is_disabled": 0, "fusion_lat": 0.0, "lat": 38.878153166666664, "bike_id": "3277e72ecd721209a106468784db84dd", "fusion_lon": 0.0}, {"rental_uris": {"ios": "https://dc.lft.to/lastmile_qr_scan", "android": "https://dc.lft.to/lastmile_qr_scan"}, "type": "electric_bike", "name": "7f91f55fc940c187e4c420230ea6c18c", "is_reserved": 0, "lon": -76.975643, "is_disabled": 0, "fusion_lat": 0.0, "lat": 38.89943916666667, "bike_id": "7f91f55fc940c187e4c420230ea6c18c", "fusion_lon": 0.0}, {"rental_uris": {"ios": "https://dc.lft.to/lastmile_qr_scan", "android": "https://dc.lft.to/lastmile_qr_scan"}, "type": "electric_scooter", "name": "91e98e75a146e28e43af3fb8eed0183f", "is_reserved": 0, "lon": -77.02511283333334, "is_disabled": 0, "fusion_lat": 0.0, "lat": 38.916839, "bike_id": "91e98e75a146e28e43af3fb8eed0183f", "fusion_lon": 0.0}, {"rental_uris": {"ios": "https://dc.lft.to/lastmile_qr_scan", "android": "https://dc.lft.to/lastmile_qr_scan"}, "type": "electric_bike", "name": "13650ba2512dc01cc0aa4b3f1f5b5e39", "is_reserved": 0, "lon": -77.02035533333333, "is_disabled": 0, "fusion_lat": 0.0, "lat": 38.965580333333335, "bike_id": "13650ba2512dc01cc0aa4b3f1f5b5e39", "fusion_lon": 0.0}, {"rental_uris": {"ios": "https://dc.lft.to/lastmile_qr_scan", "android": "https://dc.lft.to/lastmile_qr_scan"}, "type": "electric_scooter", "name": "7936ca84876537e1ade741ce6ce37ae1", "is_reserved": 0, "lon": -77.0259345, "is_disabled": 0, "fusion_lat": 0.0, "lat": 38.90491683333333, "bike_id": "7936ca84876537e1ade741ce6ce37ae1", "fusion_lon": 0.0}, {"rental_uris": {"ios": "https://dc.lft.to/lastmile_qr_scan", "android": "https://dc.lft.to/lastmile_qr_scan"}, "type": "electric_scooter", "name": "5a165e1f7f005e49b8505f9fa632fc26", "is_reserved": 0, "lon": -77.03346033333334, "is_disabled": 0, "fusion_lat": 0.0, "lat": 38.91401283333333, "bike_id": "5a165e1f7f005e49b8505f9fa632fc26", "fusion_lon": 0.0}, {"rental_uris": {"ios": "https://dc.lft.to/lastmile_qr_scan", "android": "https://dc.lft.to/lastmile_qr_scan"}, "type": "electric_scooter", "name": "e45832f5498bb3356e4225f2bb5d7ea5", "is_reserved": 0, "lon": -77.04278666666667, "is_disabled": 0, "fusion_lat": 0.0, "lat": 38.91782216666667, "bike_id": "e45832f5498bb3356e4225f2bb5d7ea5", "fusion_lon": 0.0}, {"rental_uris": {"ios": "https://dc.lft.to/lastmile_qr_scan", "android": "https://dc.lft.to/lastmile_qr_scan"}, "type": "electric_scooter", "name": "cb0282425f6c7505bab8d8c2fd887dfa", "is_reserved": 0, "lon": -77.0516455, "is_disabled": 0, "fusion_lat": 0.0, "lat": 38.90511466666667, "bike_id": "cb0282425f6c7505bab8d8c2fd887dfa", "fusion_lon": 0.0}, {"rental_uris": {"ios": "https://dc.lft.to/lastmile_qr_scan", "android": "https://dc.lft.to/lastmile_qr_scan"}, "type": "electric_scooter", "name": "22cfd239fef9e16c458dcb308a798ec5", "is_reserved": 0, "lon": -77.012173, "is_disabled": 0, "fusion_lat": 0.0, "lat": 38.91683116666667, "bike_id": "22cfd239fef9e16c458dcb308a798ec5", "fusion_lon": 0.0}, {"rental_uris": {"ios": "https://dc.lft.to/lastmile_qr_scan", "android": "https://dc.lft.to/lastmile_qr_scan"}, "type": "electric_scooter", "name": "a7d5670f2f67024c466060946ef4caee", "is_reserved": 0, "lon": -76.9262565, "is_disabled": 0, "fusion_lat": 0.0, "lat": 38.89953216666667, "bike_id": "a7d5670f2f67024c466060946ef4caee", "fusion_lon": 0.0}, {"rental_uris": {"ios": "https://dc.lft.to/lastmile_qr_scan", "android": "https://dc.lft.to/lastmile_qr_scan"}, "type": "electric_scooter", "name": "267c55c76409cc8ad5e0dfb85f4a2ac7", "is_reserved": 0, "lon": -76.98213666666666, "is_disabled": 0, "fusion_lat": 0.0, "lat": 38.89545116666667, "bike_id": "267c55c76409cc8ad5e0dfb85f4a2ac7", "fusion_lon": 0.0}, {"rental_uris": {"ios": "https://dc.lft.to/lastmile_qr_scan", "android": "https://dc.lft.to/lastmile_qr_scan"}, "type": "electric_scooter", "name": "b9c8fc9e5af144cec4174b6aff2bde9a", "is_reserved": 0, "lon": -77.001774, "is_disabled": 0, "fusion_lat": 0.0, "lat": 38.9119005, "bike_id": "b9c8fc9e5af144cec4174b6aff2bde9a", "fusion_lon": 0.0}, {"rental_uris": {"ios": "https://dc.lft.to/lastmile_qr_scan", "android": "https://dc.lft.to/lastmile_qr_scan"}, "type": "electric_scooter", "name": "6e87c9cd12a2e6098ce4f445898a4b65", "is_reserved": 0, "lon": -77.03869466666667, "is_disabled": 0, "fusion_lat": 0.0, "lat": 38.91122283333333, "bike_id": "6e87c9cd12a2e6098ce4f445898a4b65", "fusion_lon": 0.0}, {"rental_uris": {"ios": "https://dc.lft.to/lastmile_qr_scan", "android": "https://dc.lft.to/lastmile_qr_scan"}, "type": "electric_scooter", "name": "74449d7c18ea5539f5d322e5027f6f34", "is_reserved": 0, "lon": -77.08168583333334, "is_disabled": 0, "fusion_lat": 0.0, "lat": 38.919552333333336, "bike_id": "74449d7c18ea5539f5d322e5027f6f34", "fusion_lon": 0.0}, {"rental_uris": {"ios": "https://dc.lft.to/lastmile_qr_scan", "android": "https://dc.lft.to/lastmile_qr_scan"}, "type": "electric_scooter", "name": "61ba98870d7643aa893a692328564b3e", "is_reserved": 0, "lon": -77.03351966666666, "is_disabled": 0, "fusion_lat": 0.0, "lat": 38.9548005, "bike_id": "61ba98870d7643aa893a692328564b3e", "fusion_lon": 0.0}, {"rental_uris": {"ios": "https://dc.lft.to/lastmile_qr_scan", "android": "https://dc.lft.to/lastmile_qr_scan"}, "type": "electric_bike", "name": "8a8025e1f7b930b4896025f382013d12", "is_reserved": 0, "lon": -77.03429833333334, "is_disabled": 0, "fusion_lat": 0.0, "lat": 38.965389333333334, "bike_id": "8a8025e1f7b930b4896025f382013d12", "fusion_lon": 0.0}, {"rental_uris": {"ios": "https://dc.lft.to/lastmile_qr_scan", "android": "https://dc.lft.to/lastmile_qr_scan"}, "type": "electric_bike", "name": "88fcce9f1b20cfa8190c180bd7581c91", "is_reserved": 0, "lon": -77.096244, "is_disabled": 0, "fusion_lat": 0.0, "lat": 38.95250083333333, "bike_id": "88fcce9f1b20cfa8190c180bd7581c91", "fusion_lon": 0.0}, {"rental_uris": {"ios": "https://dc.lft.to/lastmile_qr_scan", "android": "https://dc.lft.to/lastmile_qr_scan"}, "type": "electric_scooter", "name": "f3a4319aae6733a732457095b1beef29", "is_reserved": 0, "lon": -76.996213, "is_disabled": 0, "fusion_lat": 0.0, "lat": 38.89179016666667, "bike_id": "f3a4319aae6733a732457095b1beef29", "fusion_lon": 0.0}, {"rental_uris": {"ios": "https://dc.lft.to/lastmile_qr_scan", "android": "https://dc.lft.to/lastmile_qr_scan"}, "type": "electric_scooter", "name": "9bca2f4d10a64e9fde7c908092184fff", "is_reserved": 0, "lon": -77.02291133333334, "is_disabled": 0, "fusion_lat": 0.0, "lat": 38.907460666666665, "bike_id": "9bca2f4d10a64e9fde7c908092184fff", "fusion_lon": 0.0}, {"rental_uris": {"ios": "https://dc.lft.to/lastmile_qr_scan", "android": "https://dc.lft.to/lastmile_qr_scan"}, "type": "electric_scooter", "name": "b95f1dedf63723ae5ae00630c387074a", "is_reserved": 0, "lon": -77.00994433333334, "is_disabled": 0, "fusion_lat": 0.0, "lat": 38.911254166666666, "bike_id": "b95f1dedf63723ae5ae00630c387074a", "fusion_lon": 0.0}, {"rental_uris": {"ios": "https://dc.lft.to/lastmile_qr_scan", "android": "https://dc.lft.to/lastmile_qr_scan"}, "type": "electric_scooter", "name": "4d6d077e22acba6d7bcb77c84d5c380f", "is_reserved": 0, "lon": -77.02691333333334, "is_disabled": 0, "fusion_lat": 0.0, "lat": 38.9497895, "bike_id": "4d6d077e22acba6d7bcb77c84d5c380f", "fusion_lon": 0.0}, {"rental_uris": {"ios": "https://dc.lft.to/lastmile_qr_scan", "android": "https://dc.lft.to/lastmile_qr_scan"}, "type": "electric_bike", "name": "42ae3a1ffd7bb517ab676b1754ae3e74", "is_reserved": 0, "lon": -77.04426216666667, "is_disabled": 0, "fusion_lat": 0.0, "lat": 39.01565866666667, "bike_id": "42ae3a1ffd7bb517ab676b1754ae3e74", "fusion_lon": 0.0}, {"rental_uris": {"ios": "https://dc.lft.to/lastmile_qr_scan", "android": "https://dc.lft.to/lastmile_qr_scan"}, "type": "electric_scooter", "name": "2998c03938a5aa532db29887e8728c54", "is_reserved": 0, "lon": -77.00049366666667, "is_disabled": 0, "fusion_lat": 0.0, "lat": 38.92331183333334, "bike_id": "2998c03938a5aa532db29887e8728c54", "fusion_lon": 0.0}, {"rental_uris": {"ios": "https://dc.lft.to/lastmile_qr_scan", "android": "https://dc.lft.to/lastmile_qr_scan"}, "type": "electric_bike", "name": "092b965960825a532d1a24cf086a8d95", "is_reserved": 0, "lon": -77.12739483333333, "is_disabled": 0, "fusion_lat": 0.0, "lat": 38.89564283333333, "bike_id": "092b965960825a532d1a24cf086a8d95", "fusion_lon": 0.0}, {"rental_uris": {"ios": "https://dc.lft.to/lastmile_qr_scan", "android": "https://dc.lft.to/lastmile_qr_scan"}, "type": "electric_scooter", "name": "7741fec5cd737b549533c0e39afee0cc", "is_reserved": 0, "lon": -77.03342516666666, "is_disabled": 0, "fusion_lat": 0.0, "lat": 38.892201166666666, "bike_id": "7741fec5cd737b549533c0e39afee0cc", "fusion_lon": 0.0}, {"rental_uris": {"ios": "https://dc.lft.to/lastmile_qr_scan", "android": "https://dc.lft.to/lastmile_qr_scan"}, "type": "electric_scooter", "name": "9291980dd740ee722ca7c1a7e6a7fab7", "is_reserved": 0, "lon": -76.94383933333333, "is_disabled": 0, "fusion_lat": 0.0, "lat": 38.89118416666667, "bike_id": "9291980dd740ee722ca7c1a7e6a7fab7", "fusion_lon": 0.0}, {"rental_uris": {"ios": "https://dc.lft.to/lastmile_qr_scan", "android": "https://dc.lft.to/lastmile_qr_scan"}, "type": "electric_bike", "name": "dae20f9f4bc017233fd7b38a50dddf07", "is_reserved": 0, "lon": -77.07021399999999, "is_disabled": 0, "fusion_lat": 0.0, "lat": 38.84110316666667, "bike_id": "dae20f9f4bc017233fd7b38a50dddf07", "fusion_lon": 0.0}, {"rental_uris": {"ios": "https://dc.lft.to/lastmile_qr_scan", "android": "https://dc.lft.to/lastmile_qr_scan"}, "type": "electric_scooter", "name": "54e2b4c688639239ff96508afcb63e56", "is_reserved": 0, "lon": -76.96506616666667, "is_disabled": 0, "fusion_lat": 0.0, "lat": 38.876479833333335, "bike_id": "54e2b4c688639239ff96508afcb63e56", "fusion_lon": 0.0}, {"rental_uris": {"ios": "https://dc.lft.to/lastmile_qr_scan", "android": "https://dc.lft.to/lastmile_qr_scan"}, "type": "electric_scooter", "name": "a1ff810a1ea9d0b30275db9784fc314e", "is_reserved": 0, "lon": -77.03812566666667, "is_disabled": 0, "fusion_lat": 0.0, "lat": 38.9155675, "bike_id": "a1ff810a1ea9d0b30275db9784fc314e", "fusion_lon": 0.0}, {"rental_uris": {"ios": "https://dc.lft.to/lastmile_qr_scan", "android": "https://dc.lft.to/lastmile_qr_scan"}, "type": "electric_scooter", "name": "0341f19a8b5938e172d24bb2b53a53ef", "is_reserved": 0, "lon": -77.070858, "is_disabled": 0, "fusion_lat": 0.0, "lat": 38.897234166666664, "bike_id": "0341f19a8b5938e172d24bb2b53a53ef", "fusion_lon": 0.0}, {"rental_uris": {"ios": "https://dc.lft.to/lastmile_qr_scan", "android": "https://dc.lft.to/lastmile_qr_scan"}, "type": "electric_scooter", "name": "da01d83c9ec3d948c58b00db2047fa51", "is_reserved": 0, "lon": -76.96564433333333, "is_disabled": 0, "fusion_lat": 0.0, "lat": 38.876048, "bike_id": "da01d83c9ec3d948c58b00db2047fa51", "fusion_lon": 0.0}, {"rental_uris": {"ios": "https://dc.lft.to/lastmile_qr_scan", "android": "https://dc.lft.to/lastmile_qr_scan"}, "type": "electric_scooter", "name": "9e3ce66de1e3305e22389d6b4bcf6482", "is_reserved": 0, "lon": -77.04408516666666, "is_disabled": 0, "fusion_lat": 0.0, "lat": 38.9294905, "bike_id": "9e3ce66de1e3305e22389d6b4bcf6482", "fusion_lon": 0.0}, {"rental_uris": {"ios": "https://dc.lft.to/lastmile_qr_scan", "android": "https://dc.lft.to/lastmile_qr_scan"}, "type": "electric_scooter", "name": "c904718bf09960acca7d2e876d1ac741", "is_reserved": 0, "lon": -76.98336683333333, "is_disabled": 0, "fusion_lat": 0.0, "lat": 38.900872666666665, "bike_id": "c904718bf09960acca7d2e876d1ac741", "fusion_lon": 0.0}, {"rental_uris": {"ios": "https://dc.lft.to/lastmile_qr_scan", "android": "https://dc.lft.to/lastmile_qr_scan"}, "type": "electric_scooter", "name": "53f937e268c2d41de95dec20dc6b5741", "is_reserved": 0, "lon": -77.02269766666667, "is_disabled": 0, "fusion_lat": 0.0, "lat": 38.91634, "bike_id": "53f937e268c2d41de95dec20dc6b5741", "fusion_lon": 0.0}, {"rental_uris": {"ios": "https://dc.lft.to/lastmile_qr_scan", "android": "https://dc.lft.to/lastmile_qr_scan"}, "type": "electric_scooter", "name": "99c5227380bda4ec625e09bd4eb6d08b", "is_reserved": 0, "lon": -77.03032333333333, "is_disabled": 0, "fusion_lat": 0.0, "lat": 38.92240416666667, "bike_id": "99c5227380bda4ec625e09bd4eb6d08b", "fusion_lon": 0.0}, {"rental_uris": {"ios": "https://dc.lft.to/lastmile_qr_scan", "android": "https://dc.lft.to/lastmile_qr_scan"}, "type": "electric_scooter", "name": "08b4dafca107660b54b944a4c6f76286", "is_reserved": 0, "lon": -77.03763783333333, "is_disabled": 0, "fusion_lat": 0.0, "lat": 38.906617833333335, "bike_id": "08b4dafca107660b54b944a4c6f76286", "fusion_lon": 0.0}, {"rental_uris": {"ios": "https://dc.lft.to/lastmile_qr_scan", "android": "https://dc.lft.to/lastmile_qr_scan"}, "type": "electric_scooter", "name": "5ebf3fcdd14012b1b61edd65fd13129c", "is_reserved": 0, "lon": -77.0325705, "is_disabled": 0, "fusion_lat": 0.0, "lat": 38.93979383333333, "bike_id": "5ebf3fcdd14012b1b61edd65fd13129c", "fusion_lon": 0.0}, {"rental_uris": {"ios": "https://dc.lft.to/lastmile_qr_scan", "android": "https://dc.lft.to/lastmile_qr_scan"}, "type": "electric_scooter", "name": "e2a29ad4f6c761e6dafecdaad67502dd", "is_reserved": 0, "lon": -77.01771516666666, "is_disabled": 0, "fusion_lat": 0.0, "lat": 38.905033333333336, "bike_id": "e2a29ad4f6c761e6dafecdaad67502dd", "fusion_lon": 0.0}, {"rental_uris": {"ios": "https://dc.lft.to/lastmile_qr_scan", "android": "https://dc.lft.to/lastmile_qr_scan"}, "type": "electric_scooter", "name": "44787fee89a3636897db12a9e3ed389e", "is_reserved": 0, "lon": -76.95204966666667, "is_disabled": 0, "fusion_lat": 0.0, "lat": 38.90509933333333, "bike_id": "44787fee89a3636897db12a9e3ed389e", "fusion_lon": 0.0}, {"rental_uris": {"ios": "https://dc.lft.to/lastmile_qr_scan", "android": "https://dc.lft.to/lastmile_qr_scan"}, "type": "electric_bike", "name": "3db5166a7b70fa74dcec3cbd6237f441", "is_reserved": 0, "lon": -77.00193083333333, "is_disabled": 0, "fusion_lat": 0.0, "lat": 38.94149516666667, "bike_id": "3db5166a7b70fa74dcec3cbd6237f441", "fusion_lon": 0.0}, {"rental_uris": {"ios": "https://dc.lft.to/lastmile_qr_scan", "android": "https://dc.lft.to/lastmile_qr_scan"}, "type": "electric_scooter", "name": "93a6979a6239853f51b18cdd33ef3ecc", "is_reserved": 0, "lon": -77.01756783333333, "is_disabled": 0, "fusion_lat": 0.0, "lat": 38.876849666666665, "bike_id": "93a6979a6239853f51b18cdd33ef3ecc", "fusion_lon": 0.0}, {"rental_uris": {"ios": "https://dc.lft.to/lastmile_qr_scan", "android": "https://dc.lft.to/lastmile_qr_scan"}, "type": "electric_scooter", "name": "48021686da0dc94ecfe45a0f9165ea76", "is_reserved": 0, "lon": -76.92634916666667, "is_disabled": 0, "fusion_lat": 0.0, "lat": 38.901916, "bike_id": "48021686da0dc94ecfe45a0f9165ea76", "fusion_lon": 0.0}, {"rental_uris": {"ios": "https://dc.lft.to/lastmile_qr_scan", "android": "https://dc.lft.to/lastmile_qr_scan"}, "type": "electric_scooter", "name": "eed861e8b60d5074f2a8d2559d2f03a8", "is_reserved": 0, "lon": -77.0438155, "is_disabled": 0, "fusion_lat": 0.0, "lat": 38.93421266666667, "bike_id": "eed861e8b60d5074f2a8d2559d2f03a8", "fusion_lon": 0.0}, {"rental_uris": {"ios": "https://dc.lft.to/lastmile_qr_scan", "android": "https://dc.lft.to/lastmile_qr_scan"}, "type": "electric_scooter", "name": "2b883e4a3a809f3abeeeba72cc8dc42c", "is_reserved": 0, "lon": -77.02176366666667, "is_disabled": 0, "fusion_lat": 0.0, "lat": 38.930016, "bike_id": "2b883e4a3a809f3abeeeba72cc8dc42c", "fusion_lon": 0.0}, {"rental_uris": {"ios": "https://dc.lft.to/lastmile_qr_scan", "android": "https://dc.lft.to/lastmile_qr_scan"}, "type": "electric_scooter", "name": "d8229f36f6c8a7e75769a2ebc18fe4cf", "is_reserved": 0, "lon": -77.04136333333334, "is_disabled": 0, "fusion_lat": 0.0, "lat": 38.92168866666667, "bike_id": "d8229f36f6c8a7e75769a2ebc18fe4cf", "fusion_lon": 0.0}, {"rental_uris": {"ios": "https://dc.lft.to/lastmile_qr_scan", "android": "https://dc.lft.to/lastmile_qr_scan"}, "type": "electric_scooter", "name": "4e3af5acb1d5602d074a59b88f7236cb", "is_reserved": 0, "lon": -77.03362233333333, "is_disabled": 0, "fusion_lat": 0.0, "lat": 38.89975483333333, "bike_id": "4e3af5acb1d5602d074a59b88f7236cb", "fusion_lon": 0.0}, {"rental_uris": {"ios": "https://dc.lft.to/lastmile_qr_scan", "android": "https://dc.lft.to/lastmile_qr_scan"}, "type": "electric_scooter", "name": "f311cf5e66e2ec1925a946fa953dd85a", "is_reserved": 0, "lon": -77.03480233333333, "is_disabled": 0, "fusion_lat": 0.0, "lat": 38.931146, "bike_id": "f311cf5e66e2ec1925a946fa953dd85a", "fusion_lon": 0.0}, {"rental_uris": {"ios": "https://dc.lft.to/lastmile_qr_scan", "android": "https://dc.lft.to/lastmile_qr_scan"}, "type": "electric_scooter", "name": "e0c05d152e8ba916c22d7835f7d40500", "is_reserved": 0, "lon": -77.020433, "is_disabled": 0, "fusion_lat": 0.0, "lat": 38.89302983333333, "bike_id": "e0c05d152e8ba916c22d7835f7d40500", "fusion_lon": 0.0}, {"rental_uris": {"ios": "https://dc.lft.to/lastmile_qr_scan", "android": "https://dc.lft.to/lastmile_qr_scan"}, "type": "electric_scooter", "name": "36c71e9c18d34ae1a400e325e8a6f260", "is_reserved": 0, "lon": -77.022207, "is_disabled": 0, "fusion_lat": 0.0, "lat": 38.92475783333333, "bike_id": "36c71e9c18d34ae1a400e325e8a6f260", "fusion_lon": 0.0}, {"rental_uris": {"ios": "https://dc.lft.to/lastmile_qr_scan", "android": "https://dc.lft.to/lastmile_qr_scan"}, "type": "electric_scooter", "name": "d39af998ea6ad79bc096865006df8557", "is_reserved": 0, "lon": -77.0322395, "is_disabled": 0, "fusion_lat": 0.0, "lat": 38.8962925, "bike_id": "d39af998ea6ad79bc096865006df8557", "fusion_lon": 0.0}, {"rental_uris": {"ios": "https://dc.lft.to/lastmile_qr_scan", "android": "https://dc.lft.to/lastmile_qr_scan"}, "type": "electric_scooter", "name": "de31ab81b078592c47b48622a4aa3e33", "is_reserved": 0, "lon": -77.02690916666667, "is_disabled": 0, "fusion_lat": 0.0, "lat": 38.949812333333334, "bike_id": "de31ab81b078592c47b48622a4aa3e33", "fusion_lon": 0.0}, {"rental_uris": {"ios": "https://dc.lft.to/lastmile_qr_scan", "android": "https://dc.lft.to/lastmile_qr_scan"}, "type": "electric_scooter", "name": "b4506ed19959e87451101da5ef3ead00", "is_reserved": 0, "lon": -77.01302633333333, "is_disabled": 0, "fusion_lat": 0.0, "lat": 38.901812, "bike_id": "b4506ed19959e87451101da5ef3ead00", "fusion_lon": 0.0}, {"rental_uris": {"ios": "https://dc.lft.to/lastmile_qr_scan", "android": "https://dc.lft.to/lastmile_qr_scan"}, "type": "electric_scooter", "name": "f854fff740d8f5e7ffc2e9421f7495b0", "is_reserved": 0, "lon": -77.017857, "is_disabled": 0, "fusion_lat": 0.0, "lat": 38.91984433333333, "bike_id": "f854fff740d8f5e7ffc2e9421f7495b0", "fusion_lon": 0.0}, {"rental_uris": {"ios": "https://dc.lft.to/lastmile_qr_scan", "android": "https://dc.lft.to/lastmile_qr_scan"}, "type": "electric_bike", "name": "c9ab98137676ad7147ed2e53b3b53170", "is_reserved": 0, "lon": -76.986875, "is_disabled": 0, "fusion_lat": 0.0, "lat": 38.944717, "bike_id": "c9ab98137676ad7147ed2e53b3b53170", "fusion_lon": 0.0}, {"rental_uris": {"ios": "https://dc.lft.to/lastmile_qr_scan", "android": "https://dc.lft.to/lastmile_qr_scan"}, "type": "electric_scooter", "name": "ba665737cf5c809ecc0d9b23fdd1ee22", "is_reserved": 0, "lon": -77.03788716666666, "is_disabled": 0, "fusion_lat": 0.0, "lat": 38.915387, "bike_id": "ba665737cf5c809ecc0d9b23fdd1ee22", "fusion_lon": 0.0}, {"rental_uris": {"ios": "https://dc.lft.to/lastmile_qr_scan", "android": "https://dc.lft.to/lastmile_qr_scan"}, "type": "electric_scooter", "name": "eb94e3c72b093d20a949fda37247b7d0", "is_reserved": 0, "lon": -77.026289, "is_disabled": 0, "fusion_lat": 0.0, "lat": 38.8922265, "bike_id": "eb94e3c72b093d20a949fda37247b7d0", "fusion_lon": 0.0}, {"rental_uris": {"ios": "https://dc.lft.to/lastmile_qr_scan", "android": "https://dc.lft.to/lastmile_qr_scan"}, "type": "electric_scooter", "name": "2d063aa9ac3adeb51638d6aa31a8551a", "is_reserved": 0, "lon": -77.02265033333333, "is_disabled": 0, "fusion_lat": 0.0, "lat": 38.927406166666664, "bike_id": "2d063aa9ac3adeb51638d6aa31a8551a", "fusion_lon": 0.0}, {"rental_uris": {"ios": "https://dc.lft.to/lastmile_qr_scan", "android": "https://dc.lft.to/lastmile_qr_scan"}, "type": "electric_scooter", "name": "e903ffa9956b4fa5e5b306f84e67d6c6", "is_reserved": 0, "lon": -77.05002033333334, "is_disabled": 0, "fusion_lat": 0.0, "lat": 38.905633, "bike_id": "e903ffa9956b4fa5e5b306f84e67d6c6", "fusion_lon": 0.0}, {"rental_uris": {"ios": "https://dc.lft.to/lastmile_qr_scan", "android": "https://dc.lft.to/lastmile_qr_scan"}, "type": "electric_scooter", "name": "da9edeaf51ae782c1e7955ff2ff67f3b", "is_reserved": 0, "lon": -77.030821, "is_disabled": 0, "fusion_lat": 0.0, "lat": 38.93876733333333, "bike_id": "da9edeaf51ae782c1e7955ff2ff67f3b", "fusion_lon": 0.0}, {"rental_uris": {"ios": "https://dc.lft.to/lastmile_qr_scan", "android": "https://dc.lft.to/lastmile_qr_scan"}, "type": "electric_bike", "name": "9a77dd43577ec56c0d9ddf838655ee9e", "is_reserved": 0, "lon": -76.9753015, "is_disabled": 0, "fusion_lat": 0.0, "lat": 38.90330483333334, "bike_id": "9a77dd43577ec56c0d9ddf838655ee9e", "fusion_lon": 0.0}, {"rental_uris": {"ios": "https://dc.lft.to/lastmile_qr_scan", "android": "https://dc.lft.to/lastmile_qr_scan"}, "type": "electric_scooter", "name": "f443808c175a7e9ae5ba2cf7f17eb44f", "is_reserved": 0, "lon": -77.03140866666666, "is_disabled": 0, "fusion_lat": 0.0, "lat": 38.91265666666666, "bike_id": "f443808c175a7e9ae5ba2cf7f17eb44f", "fusion_lon": 0.0}, {"rental_uris": {"ios": "https://dc.lft.to/lastmile_qr_scan", "android": "https://dc.lft.to/lastmile_qr_scan"}, "type": "electric_scooter", "name": "bc71e95fcb57dc5746d675c5d7ecc7c9", "is_reserved": 0, "lon": -76.99756033333334, "is_disabled": 0, "fusion_lat": 0.0, "lat": 38.900473833333336, "bike_id": "bc71e95fcb57dc5746d675c5d7ecc7c9", "fusion_lon": 0.0}, {"rental_uris": {"ios": "https://dc.lft.to/lastmile_qr_scan", "android": "https://dc.lft.to/lastmile_qr_scan"}, "type": "electric_scooter", "name": "5136c204440509947f5392818401b826", "is_reserved": 0, "lon": -76.99884533333334, "is_disabled": 0, "fusion_lat": 0.0, "lat": 38.92055216666667, "bike_id": "5136c204440509947f5392818401b826", "fusion_lon": 0.0}, {"rental_uris": {"ios": "https://dc.lft.to/lastmile_qr_scan", "android": "https://dc.lft.to/lastmile_qr_scan"}, "type": "electric_scooter", "name": "1665b0a02074afa31891167c8fce5683", "is_reserved": 0, "lon": -77.07718183333333, "is_disabled": 0, "fusion_lat": 0.0, "lat": 38.94292866666667, "bike_id": "1665b0a02074afa31891167c8fce5683", "fusion_lon": 0.0}, {"rental_uris": {"ios": "https://dc.lft.to/lastmile_qr_scan", "android": "https://dc.lft.to/lastmile_qr_scan"}, "type": "electric_scooter", "name": "36dbc420ad12be89a74ae1bbbf49005c", "is_reserved": 0, "lon": -77.02210083333334, "is_disabled": 0, "fusion_lat": 0.0, "lat": 38.88737016666666, "bike_id": "36dbc420ad12be89a74ae1bbbf49005c", "fusion_lon": 0.0}, {"rental_uris": {"ios": "https://dc.lft.to/lastmile_qr_scan", "android": "https://dc.lft.to/lastmile_qr_scan"}, "type": "electric_scooter", "name": "b340a9c1da7fea1bab33d18685807144", "is_reserved": 0, "lon": -77.04866033333333, "is_disabled": 0, "fusion_lat": 0.0, "lat": 38.898974833333334, "bike_id": "b340a9c1da7fea1bab33d18685807144", "fusion_lon": 0.0}, {"rental_uris": {"ios": "https://dc.lft.to/lastmile_qr_scan", "android": "https://dc.lft.to/lastmile_qr_scan"}, "type": "electric_scooter", "name": "cebf8cd4c67133452e4fd5513e0621fa", "is_reserved": 0, "lon": -77.01824633333334, "is_disabled": 0, "fusion_lat": 0.0, "lat": 38.91102716666666, "bike_id": "cebf8cd4c67133452e4fd5513e0621fa", "fusion_lon": 0.0}, {"rental_uris": {"ios": "https://dc.lft.to/lastmile_qr_scan", "android": "https://dc.lft.to/lastmile_qr_scan"}, "type": "electric_bike", "name": "22b0d481800c1e3a054169457a7b10bc", "is_reserved": 0, "lon": -76.97421666666666, "is_disabled": 0, "fusion_lat": 0.0, "lat": 38.93238766666666, "bike_id": "22b0d481800c1e3a054169457a7b10bc", "fusion_lon": 0.0}, {"rental_uris": {"ios": "https://dc.lft.to/lastmile_qr_scan", "android": "https://dc.lft.to/lastmile_qr_scan"}, "type": "electric_scooter", "name": "d429aa3cd5e8bb5d0fff25673438d83e", "is_reserved": 0, "lon": -77.03442916666667, "is_disabled": 0, "fusion_lat": 0.0, "lat": 38.934337166666666, "bike_id": "d429aa3cd5e8bb5d0fff25673438d83e", "fusion_lon": 0.0}, {"rental_uris": {"ios": "https://dc.lft.to/lastmile_qr_scan", "android": "https://dc.lft.to/lastmile_qr_scan"}, "type": "electric_scooter", "name": "9bd9f7380b4ffeb4838f4c94a230f830", "is_reserved": 0, "lon": -77.05687883333333, "is_disabled": 0, "fusion_lat": 0.0, "lat": 38.9338675, "bike_id": "9bd9f7380b4ffeb4838f4c94a230f830", "fusion_lon": 0.0}, {"rental_uris": {"ios": "https://dc.lft.to/lastmile_qr_scan", "android": "https://dc.lft.to/lastmile_qr_scan"}, "type": "electric_scooter", "name": "780d4d573376e9e2f894fc099eb0069b", "is_reserved": 0, "lon": -76.9938665, "is_disabled": 0, "fusion_lat": 0.0, "lat": 38.91013366666667, "bike_id": "780d4d573376e9e2f894fc099eb0069b", "fusion_lon": 0.0}, {"rental_uris": {"ios": "https://dc.lft.to/lastmile_qr_scan", "android": "https://dc.lft.to/lastmile_qr_scan"}, "type": "electric_scooter", "name": "62ad02613ac822b95d64109649bc9766", "is_reserved": 0, "lon": -77.01083216666666, "is_disabled": 0, "fusion_lat": 0.0, "lat": 38.90331666666667, "bike_id": "62ad02613ac822b95d64109649bc9766", "fusion_lon": 0.0}, {"rental_uris": {"ios": "https://dc.lft.to/lastmile_qr_scan", "android": "https://dc.lft.to/lastmile_qr_scan"}, "type": "electric_bike", "name": "28386712df3c22550021229875748853", "is_reserved": 0, "lon": -77.02288633333333, "is_disabled": 0, "fusion_lat": 0.0, "lat": 38.92706883333334, "bike_id": "28386712df3c22550021229875748853", "fusion_lon": 0.0}, {"rental_uris": {"ios": "https://dc.lft.to/lastmile_qr_scan", "android": "https://dc.lft.to/lastmile_qr_scan"}, "type": "electric_bike", "name": "0749b1b14aca5fae668ffa91982fdd49", "is_reserved": 0, "lon": -76.99799583333333, "is_disabled": 0, "fusion_lat": 0.0, "lat": 38.881231166666666, "bike_id": "0749b1b14aca5fae668ffa91982fdd49", "fusion_lon": 0.0}, {"rental_uris": {"ios": "https://dc.lft.to/lastmile_qr_scan", "android": "https://dc.lft.to/lastmile_qr_scan"}, "type": "electric_scooter", "name": "f00222cc79cbc013bc91fade1c48b592", "is_reserved": 0, "lon": -77.0560235, "is_disabled": 0, "fusion_lat": 0.0, "lat": 38.93699733333333, "bike_id": "f00222cc79cbc013bc91fade1c48b592", "fusion_lon": 0.0}, {"rental_uris": {"ios": "https://dc.lft.to/lastmile_qr_scan", "android": "https://dc.lft.to/lastmile_qr_scan"}, "type": "electric_scooter", "name": "c434cffb85bad331b0c82fd183d6f82b", "is_reserved": 0, "lon": -77.00755283333334, "is_disabled": 0, "fusion_lat": 0.0, "lat": 38.92672816666666, "bike_id": "c434cffb85bad331b0c82fd183d6f82b", "fusion_lon": 0.0}, {"rental_uris": {"ios": "https://dc.lft.to/lastmile_qr_scan", "android": "https://dc.lft.to/lastmile_qr_scan"}, "type": "electric_scooter", "name": "2dccdfb9aa34b86a57930ccbfc7fece5", "is_reserved": 0, "lon": -77.03663, "is_disabled": 0, "fusion_lat": 0.0, "lat": 38.9175995, "bike_id": "2dccdfb9aa34b86a57930ccbfc7fece5", "fusion_lon": 0.0}, {"rental_uris": {"ios": "https://dc.lft.to/lastmile_qr_scan", "android": "https://dc.lft.to/lastmile_qr_scan"}, "type": "electric_bike", "name": "f80c2c78989bb9a77e298746373210e2", "is_reserved": 0, "lon": -76.97343983333333, "is_disabled": 0, "fusion_lat": 0.0, "lat": 38.897234166666664, "bike_id": "f80c2c78989bb9a77e298746373210e2", "fusion_lon": 0.0}, {"rental_uris": {"ios": "https://dc.lft.to/lastmile_qr_scan", "android": "https://dc.lft.to/lastmile_qr_scan"}, "type": "electric_scooter", "name": "a745ade8504b5727faf48c3a3726843e", "is_reserved": 0, "lon": -77.04503516666666, "is_disabled": 0, "fusion_lat": 0.0, "lat": 38.89253333333333, "bike_id": "a745ade8504b5727faf48c3a3726843e", "fusion_lon": 0.0}, {"rental_uris": {"ios": "https://dc.lft.to/lastmile_qr_scan", "android": "https://dc.lft.to/lastmile_qr_scan"}, "type": "electric_scooter", "name": "1d3d34d4b16ce37a601f8092813c0a52", "is_reserved": 0, "lon": -77.00459366666666, "is_disabled": 0, "fusion_lat": 0.0, "lat": 38.920755, "bike_id": "1d3d34d4b16ce37a601f8092813c0a52", "fusion_lon": 0.0}, {"rental_uris": {"ios": "https://dc.lft.to/lastmile_qr_scan", "android": "https://dc.lft.to/lastmile_qr_scan"}, "type": "electric_scooter", "name": "0f122c755a5951d2559fa9c386d203bf", "is_reserved": 0, "lon": -77.0353375, "is_disabled": 0, "fusion_lat": 0.0, "lat": 38.90463833333333, "bike_id": "0f122c755a5951d2559fa9c386d203bf", "fusion_lon": 0.0}, {"rental_uris": {"ios": "https://dc.lft.to/lastmile_qr_scan", "android": "https://dc.lft.to/lastmile_qr_scan"}, "type": "electric_scooter", "name": "535b70cb6af3e26b4d352496d57bf2b4", "is_reserved": 0, "lon": -77.0383545, "is_disabled": 0, "fusion_lat": 0.0, "lat": 38.91075416666666, "bike_id": "535b70cb6af3e26b4d352496d57bf2b4", "fusion_lon": 0.0}, {"rental_uris": {"ios": "https://dc.lft.to/lastmile_qr_scan", "android": "https://dc.lft.to/lastmile_qr_scan"}, "type": "electric_scooter", "name": "28d5f8195f1f2d6c36f85ec2709b7533", "is_reserved": 0, "lon": -77.0177715, "is_disabled": 0, "fusion_lat": 0.0, "lat": 38.88342333333333, "bike_id": "28d5f8195f1f2d6c36f85ec2709b7533", "fusion_lon": 0.0}, {"rental_uris": {"ios": "https://dc.lft.to/lastmile_qr_scan", "android": "https://dc.lft.to/lastmile_qr_scan"}, "type": "electric_scooter", "name": "a29b8367f1eeaa62a1a02f16d66d041c", "is_reserved": 0, "lon": -77.05924133333333, "is_disabled": 0, "fusion_lat": 0.0, "lat": 38.94302866666666, "bike_id": "a29b8367f1eeaa62a1a02f16d66d041c", "fusion_lon": 0.0}, {"rental_uris": {"ios": "https://dc.lft.to/lastmile_qr_scan", "android": "https://dc.lft.to/lastmile_qr_scan"}, "type": "electric_scooter", "name": "c7add45d9a6014821013783deef36d01", "is_reserved": 0, "lon": -77.00713016666667, "is_disabled": 0, "fusion_lat": 0.0, "lat": 38.884877, "bike_id": "c7add45d9a6014821013783deef36d01", "fusion_lon": 0.0}, {"rental_uris": {"ios": "https://dc.lft.to/lastmile_qr_scan", "android": "https://dc.lft.to/lastmile_qr_scan"}, "type": "electric_scooter", "name": "d4b878fbf451380490433fd52dee522f", "is_reserved": 0, "lon": -77.03884766666667, "is_disabled": 0, "fusion_lat": 0.0, "lat": 38.933676166666665, "bike_id": "d4b878fbf451380490433fd52dee522f", "fusion_lon": 0.0}, {"rental_uris": {"ios": "https://dc.lft.to/lastmile_qr_scan", "android": "https://dc.lft.to/lastmile_qr_scan"}, "type": "electric_scooter", "name": "447b35b0c6b5ffb9555cec5b4d31ed84", "is_reserved": 0, "lon": -77.0414065, "is_disabled": 0, "fusion_lat": 0.0, "lat": 38.90391266666666, "bike_id": "447b35b0c6b5ffb9555cec5b4d31ed84", "fusion_lon": 0.0}, {"rental_uris": {"ios": "https://dc.lft.to/lastmile_qr_scan", "android": "https://dc.lft.to/lastmile_qr_scan"}, "type": "electric_scooter", "name": "dcd20be1afaa31db606f1c29679a9669", "is_reserved": 0, "lon": -77.04862616666666, "is_disabled": 0, "fusion_lat": 0.0, "lat": 38.904580333333335, "bike_id": "dcd20be1afaa31db606f1c29679a9669", "fusion_lon": 0.0}, {"rental_uris": {"ios": "https://dc.lft.to/lastmile_qr_scan", "android": "https://dc.lft.to/lastmile_qr_scan"}, "type": "electric_scooter", "name": "a7861f39cabf0bb11a7aed1d726a426e", "is_reserved": 0, "lon": -77.04947016666667, "is_disabled": 0, "fusion_lat": 0.0, "lat": 38.9202065, "bike_id": "a7861f39cabf0bb11a7aed1d726a426e", "fusion_lon": 0.0}, {"rental_uris": {"ios": "https://dc.lft.to/lastmile_qr_scan", "android": "https://dc.lft.to/lastmile_qr_scan"}, "type": "electric_scooter", "name": "fba776cab79eca0804fcf29e96d93dfa", "is_reserved": 0, "lon": -77.03984683333333, "is_disabled": 0, "fusion_lat": 0.0, "lat": 38.924629, "bike_id": "fba776cab79eca0804fcf29e96d93dfa", "fusion_lon": 0.0}, {"rental_uris": {"ios": "https://dc.lft.to/lastmile_qr_scan", "android": "https://dc.lft.to/lastmile_qr_scan"}, "type": "electric_scooter", "name": "aecb961c149565ec9b0537da35bc2a39", "is_reserved": 0, "lon": -77.0464885, "is_disabled": 0, "fusion_lat": 0.0, "lat": 38.897316333333336, "bike_id": "aecb961c149565ec9b0537da35bc2a39", "fusion_lon": 0.0}, {"rental_uris": {"ios": "https://dc.lft.to/lastmile_qr_scan", "android": "https://dc.lft.to/lastmile_qr_scan"}, "type": "electric_bike", "name": "7a6775a84e1c5692cce8b7e2643b6716", "is_reserved": 0, "lon": -77.234093, "is_disabled": 0, "fusion_lat": 0.0, "lat": 38.87579516666667, "bike_id": "7a6775a84e1c5692cce8b7e2643b6716", "fusion_lon": 0.0}, {"rental_uris": {"ios": "https://dc.lft.to/lastmile_qr_scan", "android": "https://dc.lft.to/lastmile_qr_scan"}, "type": "electric_scooter", "name": "60d31e850201fe5d30198c2f7f33b8bc", "is_reserved": 0, "lon": -77.00062466666667, "is_disabled": 0, "fusion_lat": 0.0, "lat": 38.961336, "bike_id": "60d31e850201fe5d30198c2f7f33b8bc", "fusion_lon": 0.0}, {"rental_uris": {"ios": "https://dc.lft.to/lastmile_qr_scan", "android": "https://dc.lft.to/lastmile_qr_scan"}, "type": "electric_scooter", "name": "c4524c987119ce863beb1fafb256b622", "is_reserved": 0, "lon": -76.9762455, "is_disabled": 0, "fusion_lat": 0.0, "lat": 38.905710166666665, "bike_id": "c4524c987119ce863beb1fafb256b622", "fusion_lon": 0.0}, {"rental_uris": {"ios": "https://dc.lft.to/lastmile_qr_scan", "android": "https://dc.lft.to/lastmile_qr_scan"}, "type": "electric_scooter", "name": "bcee264d146900494efb0a02f725fd22", "is_reserved": 0, "lon": -77.03492583333333, "is_disabled": 0, "fusion_lat": 0.0, "lat": 38.932794333333334, "bike_id": "bcee264d146900494efb0a02f725fd22", "fusion_lon": 0.0}, {"rental_uris": {"ios": "https://dc.lft.to/lastmile_qr_scan", "android": "https://dc.lft.to/lastmile_qr_scan"}, "type": "electric_scooter", "name": "a447df7ddc1a08758df4e148a52b382d", "is_reserved": 0, "lon": -77.02105233333333, "is_disabled": 0, "fusion_lat": 0.0, "lat": 38.91203566666667, "bike_id": "a447df7ddc1a08758df4e148a52b382d", "fusion_lon": 0.0}, {"rental_uris": {"ios": "https://dc.lft.to/lastmile_qr_scan", "android": "https://dc.lft.to/lastmile_qr_scan"}, "type": "electric_scooter", "name": "7e0a27f7b968ffddb1aac17aa3f05197", "is_reserved": 0, "lon": -77.05524633333333, "is_disabled": 0, "fusion_lat": 0.0, "lat": 38.897264166666666, "bike_id": "7e0a27f7b968ffddb1aac17aa3f05197", "fusion_lon": 0.0}, {"rental_uris": {"ios": "https://dc.lft.to/lastmile_qr_scan", "android": "https://dc.lft.to/lastmile_qr_scan"}, "type": "electric_scooter", "name": "a91be1ad5d326782fe755fe87c940633", "is_reserved": 0, "lon": -77.0296675, "is_disabled": 0, "fusion_lat": 0.0, "lat": 38.922579166666665, "bike_id": "a91be1ad5d326782fe755fe87c940633", "fusion_lon": 0.0}, {"rental_uris": {"ios": "https://dc.lft.to/lastmile_qr_scan", "android": "https://dc.lft.to/lastmile_qr_scan"}, "type": "electric_scooter", "name": "b04627f0c28041f1139dc29fc86b5d26", "is_reserved": 0, "lon": -76.9894065, "is_disabled": 0, "fusion_lat": 0.0, "lat": 38.9039465, "bike_id": "b04627f0c28041f1139dc29fc86b5d26", "fusion_lon": 0.0}, {"rental_uris": {"ios": "https://dc.lft.to/lastmile_qr_scan", "android": "https://dc.lft.to/lastmile_qr_scan"}, "type": "electric_scooter", "name": "59dedb6787a6470b0f39fff3840126d4", "is_reserved": 0, "lon": -77.00940816666666, "is_disabled": 0, "fusion_lat": 0.0, "lat": 38.89690083333333, "bike_id": "59dedb6787a6470b0f39fff3840126d4", "fusion_lon": 0.0}, {"rental_uris": {"ios": "https://dc.lft.to/lastmile_qr_scan", "android": "https://dc.lft.to/lastmile_qr_scan"}, "type": "electric_scooter", "name": "530e810f293a426bdd6afd7baeb50451", "is_reserved": 0, "lon": -77.04761166666667, "is_disabled": 0, "fusion_lat": 0.0, "lat": 38.9187275, "bike_id": "530e810f293a426bdd6afd7baeb50451", "fusion_lon": 0.0}, {"rental_uris": {"ios": "https://dc.lft.to/lastmile_qr_scan", "android": "https://dc.lft.to/lastmile_qr_scan"}, "type": "electric_scooter", "name": "3b1ed120c0e121541467e2b9e89d47b1", "is_reserved": 0, "lon": -77.02550083333334, "is_disabled": 0, "fusion_lat": 0.0, "lat": 38.93086916666667, "bike_id": "3b1ed120c0e121541467e2b9e89d47b1", "fusion_lon": 0.0}, {"rental_uris": {"ios": "https://dc.lft.to/lastmile_qr_scan", "android": "https://dc.lft.to/lastmile_qr_scan"}, "type": "electric_scooter", "name": "e9a2ec5b26065b339755cfc075c8017c", "is_reserved": 0, "lon": -77.03318733333333, "is_disabled": 0, "fusion_lat": 0.0, "lat": 38.9180365, "bike_id": "e9a2ec5b26065b339755cfc075c8017c", "fusion_lon": 0.0}, {"rental_uris": {"ios": "https://dc.lft.to/lastmile_qr_scan", "android": "https://dc.lft.to/lastmile_qr_scan"}, "type": "electric_scooter", "name": "59189eb1b30cf455136e594ceaabd2f0", "is_reserved": 0, "lon": -77.02499816666666, "is_disabled": 0, "fusion_lat": 0.0, "lat": 38.89752333333333, "bike_id": "59189eb1b30cf455136e594ceaabd2f0", "fusion_lon": 0.0}, {"rental_uris": {"ios": "https://dc.lft.to/lastmile_qr_scan", "android": "https://dc.lft.to/lastmile_qr_scan"}, "type": "electric_scooter", "name": "c0c318b81c4c83f63da5cdb1244db7e2", "is_reserved": 0, "lon": -77.05268, "is_disabled": 0, "fusion_lat": 0.0, "lat": 38.92565283333333, "bike_id": "c0c318b81c4c83f63da5cdb1244db7e2", "fusion_lon": 0.0}, {"rental_uris": {"ios": "https://dc.lft.to/lastmile_qr_scan", "android": "https://dc.lft.to/lastmile_qr_scan"}, "type": "electric_scooter", "name": "1213bfc5e3fc4f3dd701da0b51be7c66", "is_reserved": 0, "lon": -77.03944333333334, "is_disabled": 0, "fusion_lat": 0.0, "lat": 38.9016085, "bike_id": "1213bfc5e3fc4f3dd701da0b51be7c66", "fusion_lon": 0.0}, {"rental_uris": {"ios": "https://dc.lft.to/lastmile_qr_scan", "android": "https://dc.lft.to/lastmile_qr_scan"}, "type": "electric_scooter", "name": "917c2b0c94f1af18e51f12eaec7a919f", "is_reserved": 0, "lon": -77.04324933333334, "is_disabled": 0, "fusion_lat": 0.0, "lat": 38.92625233333333, "bike_id": "917c2b0c94f1af18e51f12eaec7a919f", "fusion_lon": 0.0}, {"rental_uris": {"ios": "https://dc.lft.to/lastmile_qr_scan", "android": "https://dc.lft.to/lastmile_qr_scan"}, "type": "electric_scooter", "name": "e837fd4b9d9df0aec1b63f6dbd7c27ce", "is_reserved": 0, "lon": -77.007823, "is_disabled": 0, "fusion_lat": 0.0, "lat": 38.90726216666667, "bike_id": "e837fd4b9d9df0aec1b63f6dbd7c27ce", "fusion_lon": 0.0}, {"rental_uris": {"ios": "https://dc.lft.to/lastmile_qr_scan", "android": "https://dc.lft.to/lastmile_qr_scan"}, "type": "electric_scooter", "name": "ab0b8cd6349dc50afee143ecb5c4fe7b", "is_reserved": 0, "lon": -76.97958866666667, "is_disabled": 0, "fusion_lat": 0.0, "lat": 38.8961485, "bike_id": "ab0b8cd6349dc50afee143ecb5c4fe7b", "fusion_lon": 0.0}, {"rental_uris": {"ios": "https://dc.lft.to/lastmile_qr_scan", "android": "https://dc.lft.to/lastmile_qr_scan"}, "type": "electric_scooter", "name": "e3a6fdc88e79fca464b7e4fb6555a74d", "is_reserved": 0, "lon": -77.05622733333334, "is_disabled": 0, "fusion_lat": 0.0, "lat": 38.906885, "bike_id": "e3a6fdc88e79fca464b7e4fb6555a74d", "fusion_lon": 0.0}, {"rental_uris": {"ios": "https://dc.lft.to/lastmile_qr_scan", "android": "https://dc.lft.to/lastmile_qr_scan"}, "type": "electric_bike", "name": "b6ebbdd13b285f25292c77cd5c7d8875", "is_reserved": 0, "lon": -76.90732933333334, "is_disabled": 0, "fusion_lat": 0.0, "lat": 38.896152, "bike_id": "b6ebbdd13b285f25292c77cd5c7d8875", "fusion_lon": 0.0}, {"rental_uris": {"ios": "https://dc.lft.to/lastmile_qr_scan", "android": "https://dc.lft.to/lastmile_qr_scan"}, "type": "electric_scooter", "name": "15617f863e2325e3c62859639a55feb8", "is_reserved": 0, "lon": -77.03271866666667, "is_disabled": 0, "fusion_lat": 0.0, "lat": 38.92864183333333, "bike_id": "15617f863e2325e3c62859639a55feb8", "fusion_lon": 0.0}, {"rental_uris": {"ios": "https://dc.lft.to/lastmile_qr_scan", "android": "https://dc.lft.to/lastmile_qr_scan"}, "type": "electric_scooter", "name": "f9c0b231c5cbda39dc01484d2e30ff73", "is_reserved": 0, "lon": -76.998389, "is_disabled": 0, "fusion_lat": 0.0, "lat": 38.89186183333333, "bike_id": "f9c0b231c5cbda39dc01484d2e30ff73", "fusion_lon": 0.0}, {"rental_uris": {"ios": "https://dc.lft.to/lastmile_qr_scan", "android": "https://dc.lft.to/lastmile_qr_scan"}, "type": "electric_scooter", "name": "14c2406c98381a573d7a183bad89b970", "is_reserved": 0, "lon": -77.03498816666666, "is_disabled": 0, "fusion_lat": 0.0, "lat": 38.934614333333336, "bike_id": "14c2406c98381a573d7a183bad89b970", "fusion_lon": 0.0}, {"rental_uris": {"ios": "https://dc.lft.to/lastmile_qr_scan", "android": "https://dc.lft.to/lastmile_qr_scan"}, "type": "electric_scooter", "name": "e1c62c4a4f9edfef068727774dc47267", "is_reserved": 0, "lon": -77.03958866666666, "is_disabled": 0, "fusion_lat": 0.0, "lat": 38.892406666666666, "bike_id": "e1c62c4a4f9edfef068727774dc47267", "fusion_lon": 0.0}, {"rental_uris": {"ios": "https://dc.lft.to/lastmile_qr_scan", "android": "https://dc.lft.to/lastmile_qr_scan"}, "type": "electric_scooter", "name": "22a6bb3036ed478ad7a1782c67df2f17", "is_reserved": 0, "lon": -77.03960916666666, "is_disabled": 0, "fusion_lat": 0.0, "lat": 38.9031475, "bike_id": "22a6bb3036ed478ad7a1782c67df2f17", "fusion_lon": 0.0}, {"rental_uris": {"ios": "https://dc.lft.to/lastmile_qr_scan", "android": "https://dc.lft.to/lastmile_qr_scan"}, "type": "electric_scooter", "name": "ab43063b0e3966d075d34d30f918bbff", "is_reserved": 0, "lon": -76.9923395, "is_disabled": 0, "fusion_lat": 0.0, "lat": 38.887531333333335, "bike_id": "ab43063b0e3966d075d34d30f918bbff", "fusion_lon": 0.0}, {"rental_uris": {"ios": "https://dc.lft.to/lastmile_qr_scan", "android": "https://dc.lft.to/lastmile_qr_scan"}, "type": "electric_scooter", "name": "db70f08c27b3534f1a9008d7b5351d50", "is_reserved": 0, "lon": -77.022023, "is_disabled": 0, "fusion_lat": 0.0, "lat": 38.91013183333333, "bike_id": "db70f08c27b3534f1a9008d7b5351d50", "fusion_lon": 0.0}, {"rental_uris": {"ios": "https://dc.lft.to/lastmile_qr_scan", "android": "https://dc.lft.to/lastmile_qr_scan"}, "type": "electric_scooter", "name": "6be5876bd511e5fecb914d65f4b05a05", "is_reserved": 0, "lon": -77.0336135, "is_disabled": 0, "fusion_lat": 0.0, "lat": 38.928790166666666, "bike_id": "6be5876bd511e5fecb914d65f4b05a05", "fusion_lon": 0.0}, {"rental_uris": {"ios": "https://dc.lft.to/lastmile_qr_scan", "android": "https://dc.lft.to/lastmile_qr_scan"}, "type": "electric_scooter", "name": "f9dba63962c9b758658c54e4cf7dc46c", "is_reserved": 0, "lon": -77.01329183333333, "is_disabled": 0, "fusion_lat": 0.0, "lat": 38.912538833333336, "bike_id": "f9dba63962c9b758658c54e4cf7dc46c", "fusion_lon": 0.0}, {"rental_uris": {"ios": "https://dc.lft.to/lastmile_qr_scan", "android": "https://dc.lft.to/lastmile_qr_scan"}, "type": "electric_scooter", "name": "b7034764297d8b0664e62f6a2d90e329", "is_reserved": 0, "lon": -77.031739, "is_disabled": 0, "fusion_lat": 0.0, "lat": 38.88735533333333, "bike_id": "b7034764297d8b0664e62f6a2d90e329", "fusion_lon": 0.0}, {"rental_uris": {"ios": "https://dc.lft.to/lastmile_qr_scan", "android": "https://dc.lft.to/lastmile_qr_scan"}, "type": "electric_scooter", "name": "166ef6bc10970a3b4354a218108223e3", "is_reserved": 0, "lon": -77.024706, "is_disabled": 0, "fusion_lat": 0.0, "lat": 38.93959916666667, "bike_id": "166ef6bc10970a3b4354a218108223e3", "fusion_lon": 0.0}, {"rental_uris": {"ios": "https://dc.lft.to/lastmile_qr_scan", "android": "https://dc.lft.to/lastmile_qr_scan"}, "type": "electric_bike", "name": "77122ada399243d4354cc6bc1b9a9e3a", "is_reserved": 0, "lon": -77.012274, "is_disabled": 0, "fusion_lat": 0.0, "lat": 38.95087483333333, "bike_id": "77122ada399243d4354cc6bc1b9a9e3a", "fusion_lon": 0.0}, {"rental_uris": {"ios": "https://dc.lft.to/lastmile_qr_scan", "android": "https://dc.lft.to/lastmile_qr_scan"}, "type": "electric_scooter", "name": "64c431b33c50ab87b1742b4ac181b272", "is_reserved": 0, "lon": -77.04673733333334, "is_disabled": 0, "fusion_lat": 0.0, "lat": 38.90280533333333, "bike_id": "64c431b33c50ab87b1742b4ac181b272", "fusion_lon": 0.0}, {"rental_uris": {"ios": "https://dc.lft.to/lastmile_qr_scan", "android": "https://dc.lft.to/lastmile_qr_scan"}, "type": "electric_scooter", "name": "bf7ee442562368f1d0e511976b9de51e", "is_reserved": 0, "lon": -77.00616833333333, "is_disabled": 0, "fusion_lat": 0.0, "lat": 38.905723, "bike_id": "bf7ee442562368f1d0e511976b9de51e", "fusion_lon": 0.0}, {"rental_uris": {"ios": "https://dc.lft.to/lastmile_qr_scan", "android": "https://dc.lft.to/lastmile_qr_scan"}, "type": "electric_bike", "name": "fcf439e9dd194da49b9f02731297f76d", "is_reserved": 0, "lon": -77.12733266666666, "is_disabled": 0, "fusion_lat": 0.0, "lat": 38.895618666666664, "bike_id": "fcf439e9dd194da49b9f02731297f76d", "fusion_lon": 0.0}, {"rental_uris": {"ios": "https://dc.lft.to/lastmile_qr_scan", "android": "https://dc.lft.to/lastmile_qr_scan"}, "type": "electric_scooter", "name": "3f678ef44efb6f4b7bbc4c3b9ace1649", "is_reserved": 0, "lon": -76.93476366666667, "is_disabled": 0, "fusion_lat": 0.0, "lat": 38.89498533333333, "bike_id": "3f678ef44efb6f4b7bbc4c3b9ace1649", "fusion_lon": 0.0}, {"rental_uris": {"ios": "https://dc.lft.to/lastmile_qr_scan", "android": "https://dc.lft.to/lastmile_qr_scan"}, "type": "electric_scooter", "name": "7029ba779086b554525acf102f11a212", "is_reserved": 0, "lon": -77.03666166666666, "is_disabled": 0, "fusion_lat": 0.0, "lat": 38.939516166666664, "bike_id": "7029ba779086b554525acf102f11a212", "fusion_lon": 0.0}, {"rental_uris": {"ios": "https://dc.lft.to/lastmile_qr_scan", "android": "https://dc.lft.to/lastmile_qr_scan"}, "type": "electric_scooter", "name": "170d2c9de25c31074ae98786aefc4c0f", "is_reserved": 0, "lon": -77.01062916666666, "is_disabled": 0, "fusion_lat": 0.0, "lat": 38.916502, "bike_id": "170d2c9de25c31074ae98786aefc4c0f", "fusion_lon": 0.0}, {"rental_uris": {"ios": "https://dc.lft.to/lastmile_qr_scan", "android": "https://dc.lft.to/lastmile_qr_scan"}, "type": "electric_bike", "name": "3f0b950c35ab733551528e458359b300", "is_reserved": 0, "lon": -76.9374815, "is_disabled": 0, "fusion_lat": 0.0, "lat": 38.8714585, "bike_id": "3f0b950c35ab733551528e458359b300", "fusion_lon": 0.0}, {"rental_uris": {"ios": "https://dc.lft.to/lastmile_qr_scan", "android": "https://dc.lft.to/lastmile_qr_scan"}, "type": "electric_scooter", "name": "ffdc0552b6fba655856db3f39ff0ce56", "is_reserved": 0, "lon": -77.03656883333333, "is_disabled": 0, "fusion_lat": 0.0, "lat": 38.936344, "bike_id": "ffdc0552b6fba655856db3f39ff0ce56", "fusion_lon": 0.0}, {"rental_uris": {"ios": "https://dc.lft.to/lastmile_qr_scan", "android": "https://dc.lft.to/lastmile_qr_scan"}, "type": "electric_scooter", "name": "cea3b7d19f5523f1c5c2032d79392dc7", "is_reserved": 0, "lon": -77.032181, "is_disabled": 0, "fusion_lat": 0.0, "lat": 38.920745833333335, "bike_id": "cea3b7d19f5523f1c5c2032d79392dc7", "fusion_lon": 0.0}, {"rental_uris": {"ios": "https://dc.lft.to/lastmile_qr_scan", "android": "https://dc.lft.to/lastmile_qr_scan"}, "type": "electric_scooter", "name": "7e73dde5d94c972112345aff5432884b", "is_reserved": 0, "lon": -77.04265383333333, "is_disabled": 0, "fusion_lat": 0.0, "lat": 38.9041115, "bike_id": "7e73dde5d94c972112345aff5432884b", "fusion_lon": 0.0}, {"rental_uris": {"ios": "https://dc.lft.to/lastmile_qr_scan", "android": "https://dc.lft.to/lastmile_qr_scan"}, "type": "electric_scooter", "name": "1521bff06c992fd7aad38a9d2ccde50e", "is_reserved": 0, "lon": -77.03050866666666, "is_disabled": 0, "fusion_lat": 0.0, "lat": 38.924672, "bike_id": "1521bff06c992fd7aad38a9d2ccde50e", "fusion_lon": 0.0}, {"rental_uris": {"ios": "https://dc.lft.to/lastmile_qr_scan", "android": "https://dc.lft.to/lastmile_qr_scan"}, "type": "electric_scooter", "name": "8aaa1b3f669445c3bb080c11c31df3ad", "is_reserved": 0, "lon": -77.01358366666666, "is_disabled": 0, "fusion_lat": 0.0, "lat": 38.89585116666667, "bike_id": "8aaa1b3f669445c3bb080c11c31df3ad", "fusion_lon": 0.0}, {"rental_uris": {"ios": "https://dc.lft.to/lastmile_qr_scan", "android": "https://dc.lft.to/lastmile_qr_scan"}, "type": "electric_scooter", "name": "a97297976bef2be8b21079aed16e47ed", "is_reserved": 0, "lon": -77.0464385, "is_disabled": 0, "fusion_lat": 0.0, "lat": 38.911832, "bike_id": "a97297976bef2be8b21079aed16e47ed", "fusion_lon": 0.0}, {"rental_uris": {"ios": "https://dc.lft.to/lastmile_qr_scan", "android": "https://dc.lft.to/lastmile_qr_scan"}, "type": "electric_scooter", "name": "61f751f0e9fe6c96784fef845c767478", "is_reserved": 0, "lon": -77.05527516666666, "is_disabled": 0, "fusion_lat": 0.0, "lat": 38.899937333333334, "bike_id": "61f751f0e9fe6c96784fef845c767478", "fusion_lon": 0.0}, {"rental_uris": {"ios": "https://dc.lft.to/lastmile_qr_scan", "android": "https://dc.lft.to/lastmile_qr_scan"}, "type": "electric_scooter", "name": "acbd93d3de232f83a925ead9cc2e8761", "is_reserved": 0, "lon": -77.01804866666667, "is_disabled": 0, "fusion_lat": 0.0, "lat": 38.91989266666667, "bike_id": "acbd93d3de232f83a925ead9cc2e8761", "fusion_lon": 0.0}, {"rental_uris": {"ios": "https://dc.lft.to/lastmile_qr_scan", "android": "https://dc.lft.to/lastmile_qr_scan"}, "type": "electric_scooter", "name": "1c0dc07fb769d27150820bdac45daad9", "is_reserved": 0, "lon": -76.9520185, "is_disabled": 0, "fusion_lat": 0.0, "lat": 38.9051155, "bike_id": "1c0dc07fb769d27150820bdac45daad9", "fusion_lon": 0.0}, {"rental_uris": {"ios": "https://dc.lft.to/lastmile_qr_scan", "android": "https://dc.lft.to/lastmile_qr_scan"}, "type": "electric_scooter", "name": "41a488241c0a0dc6468b8b722869c641", "is_reserved": 0, "lon": -76.99930133333334, "is_disabled": 0, "fusion_lat": 0.0, "lat": 38.95755, "bike_id": "41a488241c0a0dc6468b8b722869c641", "fusion_lon": 0.0}, {"rental_uris": {"ios": "https://dc.lft.to/lastmile_qr_scan", "android": "https://dc.lft.to/lastmile_qr_scan"}, "type": "electric_scooter", "name": "ad2dd7f72c482c27a55dd0831f671511", "is_reserved": 0, "lon": -77.03268666666666, "is_disabled": 0, "fusion_lat": 0.0, "lat": 38.90420733333333, "bike_id": "ad2dd7f72c482c27a55dd0831f671511", "fusion_lon": 0.0}, {"rental_uris": {"ios": "https://dc.lft.to/lastmile_qr_scan", "android": "https://dc.lft.to/lastmile_qr_scan"}, "type": "electric_scooter", "name": "aeaa3a495a1c45e20137275b8b22aef2", "is_reserved": 0, "lon": -77.00778866666667, "is_disabled": 0, "fusion_lat": 0.0, "lat": 38.89735533333333, "bike_id": "aeaa3a495a1c45e20137275b8b22aef2", "fusion_lon": 0.0}, {"rental_uris": {"ios": "https://dc.lft.to/lastmile_qr_scan", "android": "https://dc.lft.to/lastmile_qr_scan"}, "type": "electric_scooter", "name": "c0ca87263231ec3ee8a859179015e320", "is_reserved": 0, "lon": -77.03287616666667, "is_disabled": 0, "fusion_lat": 0.0, "lat": 38.927572166666664, "bike_id": "c0ca87263231ec3ee8a859179015e320", "fusion_lon": 0.0},