{"data": {"bikes": [{"rental_uris": {"ios": "https://dc.lft.to/lastmile_qr_scan", "android": "https://dc.lft.to/lastmile_qr_scan"}, "type": "electric_scooter", "name": "b157c68bdfa11af9b73be0fafaa95158", "is_reserved": 0, "lon": -77.08338483333333, "is_disabled": 0, "fusion_lat": 0.0, "lat": 38.894173333333335, "bike_id": "b157c68bdfa11af9b73be0fafaa95158", "fusion_lon": 0.0}, {"rental_uris": {"ios": "https://dc.lft.to/lastmile_qr_scan", "android": "https://dc.lft.to/lastmile_qr_scan"}, "type": "electric_scooter", "name": "7791e34e3975c3993e996471ce1c030e", "is_reserved": 0, "lon": -77.03811366666666, "is_disabled": 0, "fusion_lat": 0.0, "lat": 38.914195666666664, "bike_id": "7791e34e3975c3993e996471ce1c030e", "fusion_lon": 0.0}, {"rental_uris": {"ios": "https://dc.lft.to/lastmile_qr_scan", "android": "https://dc.lft.to/lastmile_qr_scan"}, "type": "electric_scooter", "name": "dba68af309fd19cfb3654d4f363a9093", "is_reserved": 0, "lon": -77.03232983333334, "is_disabled": 0, "fusion_lat": 0.0, "lat": 38.93883733333333, "bike_id": "dba68af309fd19cfb3654d4f363a9093", "fusion_lon": 0.0}, {"rental_uris": {"ios": "https://dc.lft.to/lastmile_qr_scan", "android": "https://dc.lft.to/lastmile_qr_scan"}, "type": "electric_scooter", "name": "09f92a0b86c0f04335a5293b0343a6a7", "is_reserved": 0, "lon": -77.0407735, "is_disabled": 0, "fusion_lat": 0.0, "lat": 38.90452533333333, "bike_id": "09f92a0b86c0f04335a5293b0343a6a7", "fusion_lon": 0.0}, {"rental_uris": {"ios": "https://dc.lft.to/lastmile_qr_scan", "android": "https://dc.lft.to/lastmile_qr_scan"}, "type": "electric_scooter", "name": "8404e3ad4b2cae9b79838021390dd66c", "is_reserved": 0, "lon": -77.01362066666667, "is_disabled": 0, "fusion_lat": 0.0, "lat": 38.91930983333334, "bike_id": "8404e3ad4b2cae9b79838021390dd66c", "fusion_lon": 0.0}, {"rental_uris": {"ios": "https://dc.lft.to/lastmile_qr_scan", "android": "https://dc.lft.to/lastmile_qr_scan"}, "type": "electric_scooter", "name": "14b91c1ffddc73fac9b148994884d401", "is_reserved": 0, "lon": -76.99700816666666, "is_disabled": 0, "fusion_lat": 0.0, "lat": 38.921927333333336, "bike_id": "14b91c1ffddc73fac9b148994884d401", "fusion_lon": 0.0}, {"rental_uris": {"ios": "https://dc.lft.to/lastmile_qr_scan", "android": "https://dc.lft.to/lastmile_qr_scan"}, "type": "electric_scooter", "name": "9dfde441a72ff3a74a5ea59602003407", "is_reserved": 0, "lon": -77.02417416666667, "is_disabled": 0, "fusion_lat": 0.0, "lat": 38.9208795, "bike_id": "9dfde441a72ff3a74a5ea59602003407", "fusion_lon": 0.0}, {"rental_uris": {"ios": "https://dc.lft.to/lastmile_qr_scan", "android": "https://dc.lft.to/lastmile_qr_scan"}, "type": "electric_scooter", "name": "d8e74e33f7cd9629859a59144b269345", "is_reserved": 0, "lon": -77.02575133333333, "is_disabled": 0, "fusion_lat": 0.0, "lat": 38.8848195, "bike_id": "d8e74e33f7cd9629859a59144b269345", "fusion_lon": 0.0}, {"rental_uris": {"ios": "https://dc.lft.to/lastmile_qr_scan", "android": "https://dc.lft.to/lastmile_qr_scan"}, "type": "electric_scooter", "name": "ef38f2f3629a9cca32fc5c75b41d95bb", "is_reserved": 0, "lon": -77.03218416666667, "is_disabled": 0, "fusion_lat": 0.0, "lat": 38.9004035, "bike_id": "ef38f2f3629a9cca32fc5c75b41d95bb", "fusion_lon": 0.0}, {"rental_uris": {"ios": "https://dc.lft.to/lastmile_qr_scan", "android": "https://dc.lft.to/lastmile_qr_scan"}, "type": "electric_scooter", "name": "84357b41072c0838a9a8b1ad96b2b52a", "is_reserved": 0, "lon": -77.04305016666666, "is_disabled": 0, "fusion_lat": 0.0, "lat": 38.910279833333334, "bike_id": "84357b41072c0838a9a8b1ad96b2b52a", "fusion_lon": 0.0}, {"rental_uris": {"ios": "https://dc.lft.to/lastmile_qr_scan", "android": "https://dc.lft.to/lastmile_qr_scan"}, "type": "electric_scooter", "name": "d32cbf0710b6675e59183c612d8a14e5", "is_reserved": 0, "lon": -77.03659516666667, "is_disabled": 0, "fusion_lat": 0.0, "lat": 38.91541316666667, "bike_id": "d32cbf0710b6675e59183c612d8a14e5", "fusion_lon": 0.0}, {"rental_uris": {"ios": "https://dc.lft.to/lastmile_qr_scan", "android": "https://dc.lft.to/lastmile_qr_scan"}, "type": "electric_scooter", "name": "fa8fae97958558ab211f9cdf2c6f1c3b", "is_reserved": 0, "lon": -77.0253955, "is_disabled": 0, "fusion_lat": 0.0, "lat": 38.916927, "bike_id": "fa8fae97958558ab211f9cdf2c6f1c3b", "fusion_lon": 0.0}, {"rental_uris": {"ios": "https://dc.lft.to/lastmile_qr_scan", "android": "https://dc.lft.to/lastmile_qr_scan"}, "type": "electric_scooter", "name": "cc07aef691f81909cfa6344566cde4d2", "is_reserved": 0, "lon": -77.02828883333333, "is_disabled": 0, "fusion_lat": 0.0, "lat": 38.9324775, "bike_id": "cc07aef691f81909cfa6344566cde4d2", "fusion_lon": 0.0}, {"rental_uris": {"ios": "https://dc.lft.to/lastmile_qr_scan", "android": "https://dc.lft.to/lastmile_qr_scan"}, "type": "electric_scooter", "name": "32d5968a4062cf051ebc72a5444702ae", "is_reserved": 0, "lon": -77.07211466666666, "is_disabled": 0, "fusion_lat": 0.0, "lat": 38.913742, "bike_id": "32d5968a4062cf051ebc72a5444702ae", "fusion_lon": 0.0}, {"rental_uris": {"ios": "https://dc.lft.to/lastmile_qr_scan", "android": "https://dc.lft.to/lastmile_qr_scan"}, "type": "electric_scooter", "name": "455e00c7488c597c40892a10a5130188", "is_reserved": 0, "lon": -77.02194233333333, "is_disabled": 0, "fusion_lat": 0.0, "lat": 38.9199615, "bike_id": "455e00c7488c597c40892a10a5130188", "fusion_lon": 0.0}, {"rental_uris": {"ios": "https://dc.lft.to/lastmile_qr_scan", "android": "https://dc.lft.to/lastmile_qr_scan"}, "type": "electric_scooter", "name": "dbf1b3fe50337142ff390297f6b2d8cd", "is_reserved": 0, "lon": -77.00717766666666, "is_disabled": 0, "fusion_lat": 0.0, "lat": 38.876690333333336, "bike_id": "dbf1b3fe50337142ff390297f6b2d8cd", "fusion_lon": 0.0}, {"rental_uris": {"ios": "https://dc.lft.to/lastmile_qr_scan", "android": "https://dc.lft.to/lastmile_qr_scan"}, "type": "electric_scooter", "name": "b9982ef1a41db2b29f5a86a4162dae83", "is_reserved": 0, "lon": -77.04133233333333, "is_disabled": 0, "fusion_lat": 0.0, "lat": 38.905845666666664, "bike_id": "b9982ef1a41db2b29f5a86a4162dae83", "fusion_lon": 0.0}, {"rental_uris": {"ios": "https://dc.lft.to/lastmile_qr_scan", "android": "https://dc.lft.to/lastmile_qr_scan"}, "type": "electric_scooter", "name": "acc73e14d778a11ab7120ee9252614ed", "is_reserved": 0, "lon": -77.04493866666667, "is_disabled": 0, "fusion_lat": 0.0, "lat": 38.91219, "bike_id": "acc73e14d778a11ab7120ee9252614ed", "fusion_lon": 0.0}, {"rental_uris": {"ios": "https://dc.lft.to/lastmile_qr_scan", "android": "https://dc.lft.to/lastmile_qr_scan"}, "type": "electric_bike", "name": "2155b1bb6ee6988aa788c5f242cc5c99", "is_reserved": 0, "lon": -76.98057166666666, "is_disabled": 0, "fusion_lat": 0.0, "lat": 38.9725255, "bike_id": "2155b1bb6ee6988aa788c5f242cc5c99", "fusion_lon": 0.0}, {"rental_uris": {"ios": "https://dc.lft.to/lastmile_qr_scan", "android": "https://dc.lft.to/lastmile_qr_scan"}, "type": "electric_bike", "name": "1d5b4683fa0db1fa82179347e9f4299a", "is_reserved": 0, "lon": -77.00404883333333, "is_disabled": 0, "fusion_lat": 0.0, "lat": 38.9211575, "bike_id": "1d5b4683fa0db1fa82179347e9f4299a", "fusion_lon": 0.0}, {"rental_uris": {"ios": "https://dc.lft.to/lastmile_qr_scan", "android": "https://dc.lft.to/lastmile_qr_scan"}, "type": "electric_scooter", "name": "525e832c5b6dd37e5fa500aca5b6322a", "is_reserved": 0, "lon": -77.00646216666667, "is_disabled": 0, "fusion_lat": 0.0, "lat": 38.91252933333333, "bike_id": "525e832c5b6dd37e5fa500aca5b6322a", "fusion_lon": 0.0}, {"rental_uris": {"ios": "https://dc.lft.to/lastmile_qr_scan", "android": "https://dc.lft.to/lastmile_qr_scan"}, "type": "electric_scooter", "name": "0780067927417e2058be46a69b34e14d", "is_reserved": 0, "lon": -77.0189835, "is_disabled": 0, "fusion_lat": 0.0, "lat": 38.874681833333334, "bike_id": "0780067927417e2058be46a69b34e14d", "fusion_lon": 0.0}, {"rental_uris": {"ios": "https://dc.lft.to/lastmile_qr_scan", "android": "https://dc.lft.to/lastmile_qr_scan"}, "type": "electric_scooter", "name": "b5e6ae662982163945a1c84ed2ba13f4", "is_reserved": 0, "lon": -77.0425405, "is_disabled": 0, "fusion_lat": 0.0, "lat": 38.9224785, "bike_id": "b5e6ae662982163945a1c84ed2ba13f4", "fusion_lon": 0.0}, {"rental_uris": {"ios": "https://dc.lft.to/lastmile_qr_scan", "android": "https://dc.lft.to/lastmile_qr_scan"}, "type": "electric_scooter", "name": "b663297e97ac9cd8f25213c8def00e17", "is_reserved": 0, "lon": -77.04422083333333, "is_disabled": 0, "fusion_lat": 0.0, "lat": 38.91133633333333, "bike_id": "b663297e97ac9cd8f25213c8def00e17", "fusion_lon": 0.0}, {"rental_uris": {"ios": "https://dc.lft.to/lastmile_qr_scan", "android": "https://dc.lft.to/lastmile_qr_scan"}, "type": "electric_scooter", "name": "33c9623cb7fc6fad9033b44f922cbedf", "is_reserved": 0, "lon": -77.024088, "is_disabled": 0, "fusion_lat": 0.0, "lat": 38.945227333333335, "bike_id": "33c9623cb7fc6fad9033b44f922cbedf", "fusion_lon": 0.0}, {"rental_uris": {"ios": "https://dc.lft.to/lastmile_qr_scan", "android": "https://dc.lft.to/lastmile_qr_scan"}, "type": "electric_scooter", "name": "6b4273bcde5656e9449960a58b02e22f", "is_reserved": 0, "lon": -77.02133733333334, "is_disabled": 0, "fusion_lat": 0.0, "lat": 38.887465, "bike_id": "6b4273bcde5656e9449960a58b02e22f", "fusion_lon": 0.0}, {"rental_uris": {"ios": "https://dc.lft.to/lastmile_qr_scan", "android": "https://dc.lft.to/lastmile_qr_scan"}, "type": "electric_scooter", "name": "ff7fee0ffffa81bf324f480955e1616a", "is_reserved": 0, "lon": -77.02377783333333, "is_disabled": 0, "fusion_lat": 0.0, "lat": 38.91185133333333, "bike_id": "ff7fee0ffffa81bf324f480955e1616a", "fusion_lon": 0.0}, {"rental_uris": {"ios": "https://dc.lft.to/lastmile_qr_scan", "android": "https://dc.lft.to/lastmile_qr_scan"}, "type": "electric_scooter", "name": "978c47d2861662cba77a5e860954b76f", "is_reserved": 0, "lon": -77.00688083333333, "is_disabled": 0, "fusion_lat": 0.0, "lat": 38.88428566666666, "bike_id": "978c47d2861662cba77a5e860954b76f", "fusion_lon": 0.0}, {"rental_uris": {"ios": "https://dc.lft.to/lastmile_qr_scan", "android": "https://dc.lft.to/lastmile_qr_scan"}, "type": "electric_scooter", "name": "e690d37ec2a7a9140309e3fa55797059", "is_reserved": 0, "lon": -77.0411555, "is_disabled": 0, "fusion_lat": 0.0, "lat": 38.909734, "bike_id": "e690d37ec2a7a9140309e3fa55797059", "fusion_lon": 0.0}, {"rental_uris": {"ios": "https://dc.lft.to/lastmile_qr_scan", "android": "https://dc.lft.to/lastmile_qr_scan"}, "type": "electric_scooter", "name": "905cabb50423df29c2e773bc39f7bf18", "is_reserved": 0, "lon": -77.02789033333333, "is_disabled": 0, "fusion_lat": 0.0, "lat": 38.89234166666667, "bike_id": "905cabb50423df29c2e773bc39f7bf18", "fusion_lon": 0.0}, {"rental_uris": {"ios": "https://dc.lft.to/lastmile_qr_scan", "android": "https://dc.lft.to/lastmile_qr_scan"}, "type": "electric_scooter", "name": "c0bc5106cc5c19d426455f4819bd0795", "is_reserved": 0, "lon": -77.031915, "is_disabled": 0, "fusion_lat": 0.0, "lat": 38.913093333333336, "bike_id": "c0bc5106cc5c19d426455f4819bd0795", "fusion_lon": 0.0}, {"rental_uris": {"ios": "https://dc.lft.to/lastmile_qr_scan", "android": "https://dc.lft.to/lastmile_qr_scan"}, "type": "electric_scooter", "name": "c6e6163d709e71dad485f6a979df36d9", "is_reserved": 0, "lon": -77.09547416666666, "is_disabled": 0, "fusion_lat": 0.0, "lat": 38.887331333333336, "bike_id": "c6e6163d709e71dad485f6a979df36d9", "fusion_lon": 0.0}, {"rental_uris": {"ios": "https://dc.lft.to/lastmile_qr_scan", "android": "https://dc.lft.to/lastmile_qr_scan"}, "type": "electric_scooter", "name": "6794e75f9e5465aab582bd135a270550", "is_reserved": 0, "lon": -77.022196, "is_disabled": 0, "fusion_lat": 0.0, "lat": 38.899871, "bike_id": "6794e75f9e5465aab582bd135a270550", "fusion_lon": 0.0}, {"rental_uris": {"ios": "https://dc.lft.to/lastmile_qr_scan", "android": "https://dc.lft.to/lastmile_qr_scan"}, "type": "electric_scooter", "name": "3ca67576f17a3b3e3f4d0794a57c54e5", "is_reserved": 0, "lon": -77.04186116666666, "is_disabled": 0, "fusion_lat": 0.0, "lat": 38.903818, "bike_id": "3ca67576f17a3b3e3f4d0794a57c54e5", "fusion_lon": 0.0}, {"rental_uris": {"ios": "https://dc.lft.to/lastmile_qr_scan", "android": "https://dc.lft.to/lastmile_qr_scan"}, "type": "electric_scooter", "name": "77659a65f6bfa96ae04b58fbc93f2d67", "is_reserved": 0, "lon": -77.07399166666667, "is_disabled": 0, "fusion_lat": 0.0, "lat": 38.937478, "bike_id": "77659a65f6bfa96ae04b58fbc93f2d67", "fusion_lon": 0.0}, {"rental_uris": {"ios": "https://dc.lft.to/lastmile_qr_scan", "android": "https://dc.lft.to/lastmile_qr_scan"}, "type": "electric_scooter", "name": "ba3ad0eb7ae306b8982425e471c6bc4b", "is_reserved": 0, "lon": -77.028031, "is_disabled": 0, "fusion_lat": 0.0, "lat": 38.9232175, "bike_id": "ba3ad0eb7ae306b8982425e471c6bc4b", "fusion_lon": 0.0}, {"rental_uris": {"ios": "https://dc.lft.to/lastmile_qr_scan", "android": "https://dc.lft.to/lastmile_qr_scan"}, "type": "electric_scooter", "name": "f12d15454c416cbc9ea6b73cb4d16846", "is_reserved": 0, "lon": -77.0384815, "is_disabled": 0, "fusion_lat": 0.0, "lat": 38.909550333333335, "bike_id": "f12d15454c416cbc9ea6b73cb4d16846", "fusion_lon": 0.0}, {"rental_uris": {"ios": "https://dc.lft.to/lastmile_qr_scan", "android": "https://dc.lft.to/lastmile_qr_scan"}, "type": "electric_scooter", "name": "122e3b1ee1b0ec9da3ba4a8a34236add", "is_reserved": 0, "lon": -77.01433116666666, "is_disabled": 0, "fusion_lat": 0.0, "lat": 38.887537333333334, "bike_id": "122e3b1ee1b0ec9da3ba4a8a34236add", "fusion_lon": 0.0}, {"rental_uris": {"ios": "https://dc.lft.to/lastmile_qr_scan", "android": "https://dc.lft.to/lastmile_qr_scan"}, "type": "electric_scooter", "name": "008766955d31b2d53e6557d23fe5a8b4", "is_reserved": 0, "lon": -77.02414233333333, "is_disabled": 0, "fusion_lat": 0.0, "lat": 38.91779183333333, "bike_id": "008766955d31b2d53e6557d23fe5a8b4", "fusion_lon": 0.0}, {"rental_uris": {"ios": "https://dc.lft.to/lastmile_qr_scan", "android": "https://dc.lft.to/lastmile_qr_scan"}, "type": "electric_scooter", "name": "4c708850b00912c464fab65f5ec8e07d", "is_reserved": 0, "lon": -77.04440083333333, "is_disabled": 0, "fusion_lat": 0.0, "lat": 38.9213555, "bike_id": "4c708850b00912c464fab65f5ec8e07d", "fusion_lon": 0.0}, {"rental_uris": {"ios": "https://dc.lft.to/lastmile_qr_scan", "android": "https://dc.lft.to/lastmile_qr_scan"}, "type": "electric_bike", "name": "d94636eff2cfdb242550b8f09c5f90ad", "is_reserved": 0, "lon": -77.02492916666667, "is_disabled": 0, "fusion_lat": 0.0, "lat": 38.919895833333335, "bike_id": "d94636eff2cfdb242550b8f09c5f90ad", "fusion_lon": 0.0}, {"rental_uris": {"ios": "https://dc.lft.to/lastmile_qr_scan", "android": "https://dc.lft.to/lastmile_qr_scan"}, "type": "electric_bike", "name": "ee2551f9a93654837f940e446ab1977b", "is_reserved": 0, "lon": -76.92894966666667, "is_disabled": 0, "fusion_lat": 0.0, "lat": 38.9783205, "bike_id": "ee2551f9a93654837f940e446ab1977b", "fusion_lon": 0.0}, {"rental_uris": {"ios": "https://dc.lft.to/lastmile_qr_scan", "android": "https://dc.lft.to/lastmile_qr_scan"}, "type": "electric_scooter", "name": "99fc60d7210e27d7b1e99691a23077a6", "is_reserved": 0, "lon": -77.02140216666666, "is_disabled": 0, "fusion_lat": 0.0, "lat": 38.9023665, "bike_id": "99fc60d7210e27d7b1e99691a23077a6", "fusion_lon": 0.0}, {"rental_uris": {"ios": "https://dc.lft.to/lastmile_qr_scan", "android": "https://dc.lft.to/lastmile_qr_scan"}, "type": "electric_bike", "name": "8a1b0c0cd60c31a423a2ce45f9fe3d33", "is_reserved": 0, "lon": -76.98354866666666, "is_disabled": 0, "fusion_lat": 0.0, "lat": 38.86272916666667, "bike_id": "8a1b0c0cd60c31a423a2ce45f9fe3d33", "fusion_lon": 0.0}, {"rental_uris": {"ios": "https://dc.lft.to/lastmile_qr_scan", "android": "https://dc.lft.to/lastmile_qr_scan"}, "type": "electric_scooter", "name": "b87ff7007817ba3f46e174f9e2f6bfa6", "is_reserved": 0, "lon": -77.0277285, "is_disabled": 0, "fusion_lat": 0.0, "lat": 38.91695833333333, "bike_id": "b87ff7007817ba3f46e174f9e2f6bfa6", "fusion_lon": 0.0}, {"rental_uris": {"ios": "https://dc.lft.to/lastmile_qr_scan", "android": "https://dc.lft.to/lastmile_qr_scan"}, "type": "electric_scooter", "name": "8a779ca5ee1ec5263348b0d338b93efa", "is_reserved": 0, "lon": -77.030597, "is_disabled": 0, "fusion_lat": 0.0, "lat": 38.923812166666664, "bike_id": "8a779ca5ee1ec5263348b0d338b93efa", "fusion_lon": 0.0}, {"rental_uris": {"ios": "https://dc.lft.to/lastmile_qr_scan", "android": "https://dc.lft.to/lastmile_qr_scan"}, "type": "electric_scooter", "name": "faa02aa6d2661de7e863029ea0b8d427", "is_reserved": 0, "lon": -77.0518795, "is_disabled": 0, "fusion_lat": 0.0, "lat": 38.92430733333333, "bike_id": "faa02aa6d2661de7e863029ea0b8d427", "fusion_lon": 0.0}, {"rental_uris": {"ios": "https://dc.lft.to/lastmile_qr_scan", "android": "https://dc.lft.to/lastmile_qr_scan"}, "type": "electric_scooter", "name": "4a21853d0a12537226ff127c08d38f21", "is_reserved": 0, "lon": -77.02290166666667, "is_disabled": 0, "fusion_lat": 0.0, "lat": 38.916656333333336, "bike_id": "4a21853d0a12537226ff127c08d38f21", "fusion_lon": 0.0}, {"rental_uris": {"ios": "https://dc.lft.to/lastmile_qr_scan", "android": "https://dc.lft.to/lastmile_qr_scan"}, "type": "electric_bike", "name": "74c802208a39ba51ac78f450c840058c", "is_reserved": 0, "lon": -76.910801, "is_disabled": 0, "fusion_lat": 0.0, "lat": 39.01074833333333, "bike_id": "74c802208a39ba51ac78f450c840058c", "fusion_lon": 0.0}, {"rental_uris": {"ios": "https://dc.lft.to/lastmile_qr_scan", "android": "https://dc.lft.to/lastmile_qr_scan"}, "type": "electric_scooter", "name": "d69b459d2310e04793b9075057fddf58", "is_reserved": 0, "lon": -77.03478483333333, "is_disabled": 0, "fusion_lat": 0.0, "lat": 38.930299833333336, "bike_id": "d69b459d2310e04793b9075057fddf58", "fusion_lon": 0.0}, {"rental_uris": {"ios": "https://dc.lft.to/lastmile_qr_scan", "android": "https://dc.lft.to/lastmile_qr_scan"}, "type": "electric_scooter", "name": "da5813e0d109c39c66ddabda5895c63c", "is_reserved": 0, "lon": -77.04229733333334, "is_disabled": 0, "fusion_lat": 0.0, "lat": 38.911122666666664, "bike_id": "da5813e0d109c39c66ddabda5895c63c", "fusion_lon": 0.0}, {"rental_uris": {"ios": "https://dc.lft.to/lastmile_qr_scan", "android": "https://dc.lft.to/lastmile_qr_scan"}, "type": "electric_scooter", "name": "c59da5346ca55cb45da929e2cb2541ed", "is_reserved": 0, "lon": -76.99413066666666, "is_disabled": 0, "fusion_lat": 0.0, "lat": 38.877855, "bike_id": "c59da5346ca55cb45da929e2cb2541ed", "fusion_lon": 0.0}, {"rental_uris": {"ios": "https://dc.lft.to/lastmile_qr_scan", "android": "https://dc.lft.to/lastmile_qr_scan"}, "type": "electric_scooter", "name": "b08d8891a9088f7d4d92a74946793d8c", "is_reserved": 0, "lon": -77.008733, "is_disabled": 0, "fusion_lat": 0.0, "lat": 38.91263633333333, "bike_id": "b08d8891a9088f7d4d92a74946793d8c", "fusion_lon": 0.0}, {"rental_uris": {"ios": "https://dc.lft.to/lastmile_qr_scan", "android": "https://dc.lft.to/lastmile_qr_scan"}, "type": "electric_scooter", "name": "9699ac0eb85bbdd404ce2384569c0483", "is_reserved": 0, "lon": -77.03413883333333, "is_disabled": 0, "fusion_lat": 0.0, "lat": 38.928765166666665, "bike_id": "9699ac0eb85bbdd404ce2384569c0483", "fusion_lon": 0.0}, {"rental_uris": {"ios": "https://dc.lft.to/lastmile_qr_scan", "android": "https://dc.lft.to/lastmile_qr_scan"}, "type": "electric_scooter", "name": "e2a0638fe05f3970390bb6e13b35e2b9", "is_reserved": 0, "lon": -77.01735983333333, "is_disabled": 0, "fusion_lat": 0.0, "lat": 38.87921583333333, "bike_id": "e2a0638fe05f3970390bb6e13b35e2b9", "fusion_lon": 0.0}, {"rental_uris": {"ios": "https://dc.lft.to/lastmile_qr_scan", "android": "https://dc.lft.to/lastmile_qr_scan"}, "type": "electric_scooter", "name": "7ea2bfe7e6711c17eaed88bf9e88dea9", "is_reserved": 0, "lon": -76.984048, "is_disabled": 0, "fusion_lat": 0.0, "lat": 38.92519633333333, "bike_id": "7ea2bfe7e6711c17eaed88bf9e88dea9", "fusion_lon": 0.0}, {"rental_uris": {"ios": "https://dc.lft.to/lastmile_qr_scan", "android": "https://dc.lft.to/lastmile_qr_scan"}, "type": "electric_scooter", "name": "2a46e970809b74d637a8ae496e31e7e2", "is_reserved": 0, "lon": -77.04560716666667, "is_disabled": 0, "fusion_lat": 0.0, "lat": 38.896184, "bike_id": "2a46e970809b74d637a8ae496e31e7e2", "fusion_lon": 0.0}, {"rental_uris": {"ios": "https://dc.lft.to/lastmile_qr_scan", "android": "https://dc.lft.to/lastmile_qr_scan"}, "type": "electric_scooter", "name": "6ba18364ffa0c9c654711946d1406c7f", "is_reserved": 0, "lon": -76.998421, "is_disabled": 0, "fusion_lat": 0.0, "lat": 38.90052933333333, "bike_id": "6ba18364ffa0c9c654711946d1406c7f", "fusion_lon": 0.0}, {"rental_uris": {"ios": "https://dc.lft.to/lastmile_qr_scan", "android": "https://dc.lft.to/lastmile_qr_scan"}, "type": "electric_scooter", "name": "c83287593f12d36b1e53034fe3966e2f", "is_reserved": 0, "lon": -77.05920966666666, "is_disabled": 0, "fusion_lat": 0.0, "lat": 38.937085333333336, "bike_id": "c83287593f12d36b1e53034fe3966e2f", "fusion_lon": 0.0}, {"rental_uris": {"ios": "https://dc.lft.to/lastmile_qr_scan", "android": "https://dc.lft.to/lastmile_qr_scan"}, "type": "electric_bike", "name": "e7ef99c9cb2803b808f1f969a18d0643", "is_reserved": 0, "lon": -76.99924716666666, "is_disabled": 0, "fusion_lat": 0.0, "lat": 38.994692666666666, "bike_id": "e7ef99c9cb2803b808f1f969a18d0643", "fusion_lon": 0.0}, {"rental_uris": {"ios": "https://dc.lft.to/lastmile_qr_scan", "android": "https://dc.lft.to/lastmile_qr_scan"}, "type": "electric_scooter", "name": "1f06c793f1939fe66506cfc416111668", "is_reserved": 0, "lon": -77.06613, "is_disabled": 0, "fusion_lat": 0.0, "lat": 38.9111705, "bike_id": "1f06c793f1939fe66506cfc416111668", "fusion_lon": 0.0}, {"rental_uris": {"ios": "https://dc.lft.to/lastmile_qr_scan", "android": "https://dc.lft.to/lastmile_qr_scan"}, "type": "electric_scooter", "name": "c0e02aa396d92012c79586d00eee03b3", "is_reserved": 0, "lon": -77.03164166666667, "is_disabled": 0, "fusion_lat": 0.0, "lat": 38.91679833333333, "bike_id": "c0e02aa396d92012c79586d00eee03b3", "fusion_lon": 0.0}, {"rental_uris": {"ios": "https://dc.lft.to/lastmile_qr_scan", "android": "https://dc.lft.to/lastmile_qr_scan"}, "type": "electric_scooter", "name": "e27b28c580bd9f3a854a4c72c9f10289", "is_reserved": 0, "lon": -77.04451883333333, "is_disabled": 0, "fusion_lat": 0.0, "lat": 38.9100145, "bike_id": "e27b28c580bd9f3a854a4c72c9f10289", "fusion_lon": 0.0}, {"rental_uris": {"ios": "https://dc.lft.to/lastmile_qr_scan", "android": "https://dc.lft.to/lastmile_qr_scan"}, "type": "electric_scooter", "name": "3f6a95f57baf4d111d86bce4bd06b6b7", "is_reserved": 0, "lon": -77.05122033333333, "is_disabled": 0, "fusion_lat": 0.0, "lat": 38.92535383333333, "bike_id": "3f6a95f57baf4d111d86bce4bd06b6b7", "fusion_lon": 0.0}, {"rental_uris": {"ios": "https://dc.lft.to/lastmile_qr_scan", "android": "https://dc.lft.to/lastmile_qr_scan"}, "type": "electric_scooter", "name": "e1308012330f1540d7f635bccfa46fb1", "is_reserved": 0, "lon": -77.04469016666667, "is_disabled": 0, "fusion_lat": 0.0, "lat": 38.922897166666665, "bike_id": "e1308012330f1540d7f635bccfa46fb1", "fusion_lon": 0.0}, {"rental_uris": {"ios": "https://dc.lft.to/lastmile_qr_scan", "android": "https://dc.lft.to/lastmile_qr_scan"}, "type": "electric_scooter", "name": "3085ee6ad4e890e0a0c714454e40c821", "is_reserved": 0, "lon": -77.0466875, "is_disabled": 0, "fusion_lat": 0.0, "lat": 38.892840666666665, "bike_id": "3085ee6ad4e890e0a0c714454e40c821", "fusion_lon": 0.0}, {"rental_uris": {"ios": "https://dc.lft.to/lastmile_qr_scan", "android": "https://dc.lft.to/lastmile_qr_scan"}, "type": "electric_scooter", "name": "6c67c01a4fc54ed2bf95b7b5e07db7ad", "is_reserved": 0, "lon": -77.04157616666667, "is_disabled": 0, "fusion_lat": 0.0, "lat": 38.9108705, "bike_id": "6c67c01a4fc54ed2bf95b7b5e07db7ad", "fusion_lon": 0.0}, {"rental_uris": {"ios": "https://dc.lft.to/lastmile_qr_scan", "android": "https://dc.lft.to/lastmile_qr_scan"}, "type": "electric_scooter", "name": "9b52bf70cbe36b6967e2455fd469b1b3", "is_reserved": 0, "lon": -77.039649, "is_disabled": 0, "fusion_lat": 0.0, "lat": 38.89349433333334, "bike_id": "9b52bf70cbe36b6967e2455fd469b1b3", "fusion_lon": 0.0}, {"rental_uris": {"ios": "https://dc.lft.to/lastmile_qr_scan", "android": "https://dc.lft.to/lastmile_qr_scan"}, "type": "electric_scooter", "name": "915e5b46b2f393f08b93f627f910d7b7", "is_reserved": 0, "lon": -77.02145683333333, "is_disabled": 0, "fusion_lat": 0.0, "lat": 38.925047166666666, "bike_id": "915e5b46b2f393f08b93f627f910d7b7", "fusion_lon": 0.0}, {"rental_uris": {"ios": "https://dc.lft.to/lastmile_qr_scan", "android": "https://dc.lft.to/lastmile_qr_scan"}, "type": "electric_scooter", "name": "04bf55560cd28eabfe5e158562beed33", "is_reserved": 0, "lon": -77.031362, "is_disabled": 0, "fusion_lat": 0.0, "lat": 38.91860366666667, "bike_id": "04bf55560cd28eabfe5e158562beed33", "fusion_lon": 0.0}, {"rental_uris": {"ios": "https://dc.lft.to/lastmile_qr_scan", "android": "https://dc.lft.to/lastmile_qr_scan"}, "type": "electric_scooter", "name": "e54dc88f14b6d7b378960822856a304a", "is_reserved": 0, "lon": -77.04149966666667, "is_disabled": 0, "fusion_lat": 0.0, "lat": 38.901455, "bike_id": "e54dc88f14b6d7b378960822856a304a", "fusion_lon": 0.0}, {"rental_uris": {"ios": "https://dc.lft.to/lastmile_qr_scan", "android": "https://dc.lft.to/lastmile_qr_scan"}, "type": "electric_scooter", "name": "cefc2eda575f217c02234512472ddfff", "is_reserved": 0, "lon": -77.04401266666666, "is_disabled": 0, "fusion_lat": 0.0, "lat": 38.91094966666667, "bike_id": "cefc2eda575f217c02234512472ddfff", "fusion_lon": 0.0}, {"rental_uris": {"ios": "https://dc.lft.to/lastmile_qr_scan", "android": "https://dc.lft.to/lastmile_qr_scan"}, "type": "electric_scooter", "name": "a359b7dd63ae3ddc03dd5adb3f337c0c", "is_reserved": 0, "lon": -76.99099083333333, "is_disabled": 0, "fusion_lat": 0.0, "lat": 38.857352666666664, "bike_id": "a359b7dd63ae3ddc03dd5adb3f337c0c", "fusion_lon": 0.0}, {"rental_uris": {"ios": "https://dc.lft.to/lastmile_qr_scan", "android": "https://dc.lft.to/lastmile_qr_scan"}, "type": "electric_scooter", "name": "a389aed848b7908cde243ab099eb97a9", "is_reserved": 0, "lon": -77.04326066666667, "is_disabled": 0, "fusion_lat": 0.0, "lat": 38.90330733333333, "bike_id": "a389aed848b7908cde243ab099eb97a9", "fusion_lon": 0.0}, {"rental_uris": {"ios": "https://dc.lft.to/lastmile_qr_scan", "android": "https://dc.lft.to/lastmile_qr_scan"}, "type": "electric_scooter", "name": "6da1cf87f26095cacd03de56b60b253f", "is_reserved": 0, "lon": -77.01556583333333, "is_disabled": 0, "fusion_lat": 0.0, "lat": 38.90253516666667, "bike_id": "6da1cf87f26095cacd03de56b60b253f", "fusion_lon": 0.0}, {"rental_uris": {"ios": "https://dc.lft.to/lastmile_qr_scan", "android": "https://dc.lft.to/lastmile_qr_scan"}, "type": "electric_scooter", "name": "99e7e7d3b9545f75c99c113216fb6729", "is_reserved": 0, "lon": -77.03101283333334, "is_disabled": 0, "fusion_lat": 0.0, "lat": 38.9157355, "bike_id": "99e7e7d3b9545f75c99c113216fb6729", "fusion_lon": 0.0}, {"rental_uris": {"ios": "https://dc.lft.to/lastmile_qr_scan", "android": "https://dc.lft.to/lastmile_qr_scan"}, "type": "electric_scooter", "name": "cacdaa85801e7c5a3e13477759bcf79c", "is_reserved": 0, "lon": -77.02213166666667, "is_disabled": 0, "fusion_lat": 0.0, "lat": 38.914198666666664, "bike_id": "cacdaa85801e7c5a3e13477759bcf79c", "fusion_lon": 0.0}, {"rental_uris": {"ios": "https://dc.lft.to/lastmile_qr_scan", "android": "https://dc.lft.to/lastmile_qr_scan"}, "type": "electric_scooter", "name": "f1de2a8b2b1dfebd478a4d06aececc0c", "is_reserved": 0, "lon": -76.98889833333334, "is_disabled": 0, "fusion_lat": 0.0, "lat": 38.899616333333334, "bike_id": "f1de2a8b2b1dfebd478a4d06aececc0c", "fusion_lon": 0.0}, {"rental_uris": {"ios": "https://dc.lft.to/lastmile_qr_scan", "android": "https://dc.lft.to/lastmile_qr_scan"}, "type": "electric_scooter", "name": "0a4aa034222be607c07a09d8aec8af8e", "is_reserved": 0, "lon": -77.035208, "is_disabled": 0, "fusion_lat": 0.0, "lat": 38.934003833333335, "bike_id": "0a4aa034222be607c07a09d8aec8af8e", "fusion_lon": 0.0}, {"rental_uris": {"ios": "https://dc.lft.to/lastmile_qr_scan", "android": "https://dc.lft.to/lastmile_qr_scan"}, "type": "electric_scooter", "name": "dba56830c304e76ee3d72c04992e9f3a", "is_reserved": 0, "lon": -77.03437466666666, "is_disabled": 0, "fusion_lat": 0.0, "lat": 38.90802983333333, "bike_id": "dba56830c304e76ee3d72c04992e9f3a", "fusion_lon": 0.0}, {"rental_uris": {"ios": "https://dc.lft.to/lastmile_qr_scan", "android": "https://dc.lft.to/lastmile_qr_scan"}, "type": "electric_scooter", "name": "f99591ad39fdc6b2d215cdb664942563", "is_reserved": 0, "lon": -77.0419215, "is_disabled": 0, "fusion_lat": 0.0, "lat": 38.920517833333335, "bike_id": "f99591ad39fdc6b2d215cdb664942563", "fusion_lon": 0.0}, {"rental_uris": {"ios": "https://dc.lft.to/lastmile_qr_scan", "android": "https://dc.lft.to/lastmile_qr_scan"}, "type": "electric_scooter", "name": "52ee2278bf2b70c3113e1502be24f58f", "is_reserved": 0, "lon": -77.042409, "is_disabled": 0, "fusion_lat": 0.0, "lat": 38.92278916666667, "bike_id": "52ee2278bf2b70c3113e1502be24f58f", "fusion_lon": 0.0}, {"rental_uris": {"ios": "https://dc.lft.to/lastmile_qr_scan", "android": "https://dc.lft.to/lastmile_qr_scan"}, "type": "electric_scooter", "name": "94b9e274c5dd1cecadef9e78ad45f67a", "is_reserved": 0, "lon": -77.02562366666666, "is_disabled": 0, "fusion_lat": 0.0, "lat": 38.9012315, "bike_id": "94b9e274c5dd1cecadef9e78ad45f67a", "fusion_lon": 0.0}, {"rental_uris": {"ios": "https://dc.lft.to/lastmile_qr_scan", "android": "https://dc.lft.to/lastmile_qr_scan"}, "type": "electric_scooter", "name": "7a6cfcf90628b073b982ba60fc631307", "is_reserved": 0, "lon": -77.05322783333334, "is_disabled": 0, "fusion_lat": 0.0, "lat": 38.923565833333335, "bike_id": "7a6cfcf90628b073b982ba60fc631307", "fusion_lon": 0.0}, {"rental_uris": {"ios": "https://dc.lft.to/lastmile_qr_scan", "android": "https://dc.lft.to/lastmile_qr_scan"}, "type": "electric_scooter", "name": "4d94fcad2411b0c62b31611f90a6e622", "is_reserved": 0, "lon": -77.0416685, "is_disabled": 0, "fusion_lat": 0.0, "lat": 38.897935833333335, "bike_id": "4d94fcad2411b0c62b31611f90a6e622", "fusion_lon": 0.0}, {"rental_uris": {"ios": "https://dc.lft.to/lastmile_qr_scan", "android": "https://dc.lft.to/lastmile_qr_scan"}, "type": "electric_scooter", "name": "f0bb74ae47e3402912807353df3462a0", "is_reserved": 0, "lon": -77.00336733333333, "is_disabled": 0, "fusion_lat": 0.0, "lat": 38.889882, "bike_id": "f0bb74ae47e3402912807353df3462a0", "fusion_lon": 0.0}, {"rental_uris": {"ios": "https://dc.lft.to/lastmile_qr_scan", "android": "https://dc.lft.to/lastmile_qr_scan"}, "type": "electric_bike", "name": "478bb70458e8b7ba590d346799a7d039", "is_reserved": 0, "lon": -76.97325583333334, "is_disabled": 0, "fusion_lat": 0.0, "lat": 38.857854833333334, "bike_id": "478bb70458e8b7ba590d346799a7d039", "fusion_lon": 0.0}, {"rental_uris": {"ios": "https://dc.lft.to/lastmile_qr_scan", "android": "https://dc.lft.to/lastmile_qr_scan"}, "type": "electric_scooter", "name": "8fd64062c153067a08a1c07d83923b03", "is_reserved": 0, "lon": -77.020047, "is_disabled": 0, "fusion_lat": 0.0, "lat": 38.91567366666666, "bike_id": "8fd64062c153067a08a1c07d83923b03", "fusion_lon": 0.0}, {"rental_uris": {"ios": "https://dc.lft.to/lastmile_qr_scan", "android": "https://dc.lft.to/lastmile_qr_scan"}, "type": "electric_scooter", "name": "91c77c456eef0a3028cd7367d979bbe4", "is_reserved": 0, "lon": -77.02500983333333, "is_disabled": 0, "fusion_lat": 0.0, "lat": 38.90615, "bike_id": "91c77c456eef0a3028cd7367d979bbe4", "fusion_lon": 0.0}, {"rental_uris": {"ios": "https://dc.lft.to/lastmile_qr_scan", "android": "https://dc.lft.to/lastmile_qr_scan"}, "type": "electric_scooter", "name": "3c5769900874bcf3f32a7b54455ff767", "is_reserved": 0, "lon": -76.999284, "is_disabled": 0, "fusion_lat": 0.0, "lat": 38.90055433333333, "bike_id": "3c5769900874bcf3f32a7b54455ff767", "fusion_lon": 0.0}, {"rental_uris": {"ios": "https://dc.lft.to/lastmile_qr_scan", "android": "https://dc.lft.to/lastmile_qr_scan"}, "type": "electric_bike", "name": "619f1571772b1ce0bb452d49b2734a6d", "is_reserved": 0, "lon": -76.99529283333334, "is_disabled": 0, "fusion_lat": 0.0, "lat": 38.884128, "bike_id": "619f1571772b1ce0bb452d49b2734a6d", "fusion_lon": 0.0}, {"rental_uris": {"ios": "https://dc.lft.to/lastmile_qr_scan", "android": "https://dc.lft.to/lastmile_qr_scan"}, "type": "electric_scooter", "name": "da01240345c3cd8e6ca512689c6c4083", "is_reserved": 0, "lon": -77.038326, "is_disabled": 0, "fusion_lat": 0.0, "lat": 38.96267316666667, "bike_id": "da01240345c3cd8e6ca512689c6c4083", "fusion_lon": 0.0}, {"rental_uris": {"ios": "https://dc.lft.to/lastmile_qr_scan", "android": "https://dc.lft.to/lastmile_qr_scan"}, "type": "electric_scooter", "name": "2d9c1e2f021570d8b37779d4132871c2", "is_reserved": 0, "lon": -77.07015416666667, "is_disabled": 0, "fusion_lat": 0.0, "lat": 38.894039166666666, "bike_id": "2d9c1e2f021570d8b37779d4132871c2", "fusion_lon": 0.0}, {"rental_uris": {"ios": "https://dc.lft.to/lastmile_qr_scan", "android": "https://dc.lft.to/lastmile_qr_scan"}, "type": "electric_scooter", "name": "2b958a34a2f9d8cca085351a605d5351", "is_reserved": 0, "lon": -76.931889, "is_disabled": 0, "fusion_lat": 0.0, "lat": 38.89884983333334, "bike_id": "2b958a34a2f9d8cca085351a605d5351", "fusion_lon": 0.0}, {"rental_uris": {"ios": "https://dc.lft.to/lastmile_qr_scan", "android": "https://dc.lft.to/lastmile_qr_scan"}, "type": "electric_scooter", "name": "e1d730e184fa6eaa2d77082c7bec8764", "is_reserved": 0, "lon": -77.00038683333334, "is_disabled": 0, "fusion_lat": 0.0, "lat": 38.874470333333335, "bike_id": "e1d730e184fa6eaa2d77082c7bec8764", "fusion_lon": 0.0}, {"rental_uris": {"ios": "https://dc.lft.to/lastmile_qr_scan", "android": "https://dc.lft.to/lastmile_qr_scan"}, "type": "electric_scooter", "name": "a79e3bc51ec84555c7ae5331ec7a4c93", "is_reserved": 0, "lon": -77.0095615, "is_disabled": 0, "fusion_lat": 0.0, "lat": 38.91924566666667, "bike_id": "a79e3bc51ec84555c7ae5331ec7a4c93", "fusion_lon": 0.0}, {"rental_uris": {"ios": "https://dc.lft.to/lastmile_qr_scan", "android": "https://dc.lft.to/lastmile_qr_scan"}, "type": "electric_scooter", "name": "318589e4e24d2755b1084945652165ff", "is_reserved": 0, "lon": -77.0458365, "is_disabled": 0, "fusion_lat": 0.0, "lat": 38.909555166666664, "bike_id": "318589e4e24d2755b1084945652165ff", "fusion_lon": 0.0}, {"rental_uris": {"ios": "https://dc.lft.to/lastmile_qr_scan", "android": "https://dc.lft.to/lastmile_qr_scan"}, "type": "electric_scooter", "name": "552a05caddb1b47c0535ff5d43e1095c", "is_reserved": 0, "lon": -77.055332, "is_disabled": 0, "fusion_lat": 0.0, "lat": 38.91006183333333, "bike_id": "552a05caddb1b47c0535ff5d43e1095c", "fusion_lon": 0.0}, {"rental_uris": {"ios": "https://dc.lft.to/lastmile_qr_scan", "android": "https://dc.lft.to/lastmile_qr_scan"}, "type": "electric_bike", "name": "aff4e13981f46f0f080517f7b922d804", "is_reserved": 0, "lon": -76.94160183333334, "is_disabled": 0, "fusion_lat": 0.0, "lat": 38.890223666666664, "bike_id": "aff4e13981f46f0f080517f7b922d804", "fusion_lon": 0.0}, {"rental_uris": {"ios": "https://dc.lft.to/lastmile_qr_scan", "android": "https://dc.lft.to/lastmile_qr_scan"}, "type": "electric_scooter", "name": "0212bbbc989c8cae8d7f6d72a5481246", "is_reserved": 0, "lon": -77.031712, "is_disabled": 0, "fusion_lat": 0.0, "lat": 38.9141485, "bike_id": "0212bbbc989c8cae8d7f6d72a5481246", "fusion_lon": 0.0}, {"rental_uris": {"ios": "https://dc.lft.to/lastmile_qr_scan", "android": "https://dc.lft.to/lastmile_qr_scan"}, "type": "electric_bike", "name": "29add5dee964611184bb18c0ebba8cec", "is_reserved": 0, "lon": -77.12937283333333, "is_disabled": 0, "fusion_lat": 0.0, "lat": 38.8658565, "bike_id": "29add5dee964611184bb18c0ebba8cec", "fusion_lon": 0.0}, {"rental_uris": {"ios": "https://dc.lft.to/lastmile_qr_scan", "android": "https://dc.lft.to/lastmile_qr_scan"}, "type": "electric_scooter", "name": "bbb18faf24b65f4fb6c4a56b8e08e07a", "is_reserved": 0, "lon": -77.02189533333333, "is_disabled": 0, "fusion_lat": 0.0, "lat": 38.909767333333335, "bike_id": "bbb18faf24b65f4fb6c4a56b8e08e07a", "fusion_lon": 0.0}, {"rental_uris": {"ios": "https://dc.lft.to/lastmile_qr_scan", "android": "https://dc.lft.to/lastmile_qr_scan"}, "type": "electric_scooter", "name": "3417dae128074324ab6550dfed0c1153", "is_reserved": 0, "lon": -77.03828016666667, "is_disabled": 0, "fusion_lat": 0.0, "lat": 38.912723, "bike_id": "3417dae128074324ab6550dfed0c1153", "fusion_lon": 0.0}, {"rental_uris": {"ios": "https://dc.lft.to/lastmile_qr_scan", "android": "https://dc.lft.to/lastmile_qr_scan"}, "type": "electric_scooter", "name": "1f1d20a0209733a7b2c053dfe2c77533", "is_reserved": 0, "lon": -77.0500445, "is_disabled": 0, "fusion_lat": 0.0, "lat": 38.8923235, "bike_id": "1f1d20a0209733a7b2c053dfe2c77533", "fusion_lon": 0.0}, {"rental_uris": {"ios": "https://dc.lft.to/lastmile_qr_scan", "android": "https://dc.lft.to/lastmile_qr_scan"}, "type": "electric_scooter", "name": "0faca991347e99f5e8d2789ee172faa2", "is_reserved": 0, "lon": -76.995541, "is_disabled": 0, "fusion_lat": 0.0, "lat": 38.8623145, "bike_id": "0faca991347e99f5e8d2789ee172faa2", "fusion_lon": 0.0}, {"rental_uris": {"ios": "https://dc.lft.to/lastmile_qr_scan", "android": "https://dc.lft.to/lastmile_qr_scan"}, "type": "electric_scooter", "name": "66139775b33f1ca7e1c66798a588d3e2", "is_reserved": 0, "lon": -77.032095, "is_disabled": 0, "fusion_lat": 0.0, "lat": 38.920804333333336, "bike_id": "66139775b33f1ca7e1c66798a588d3e2", "fusion_lon": 0.0}, {"rental_uris": {"ios": "https://dc.lft.to/lastmile_qr_scan", "android": "https://dc.lft.to/lastmile_qr_scan"}, "type": "electric_scooter", "name": "65db73f853cd85f60c541cfbeaa29f21", "is_reserved": 0, "lon": -77.01863633333333, "is_disabled": 0, "fusion_lat": 0.0, "lat": 38.9026335, "bike_id": "65db73f853cd85f60c541cfbeaa29f21", "fusion_lon": 0.0}, {"rental_uris": {"ios": "https://dc.lft.to/lastmile_qr_scan", "android": "https://dc.lft.to/lastmile_qr_scan"}, "type": "electric_scooter", "name": "11cb3cb5453fe8912c8c21ce62a3ec83", "is_reserved": 0, "lon": -77.02140366666667, "is_disabled": 0, "fusion_lat": 0.0, "lat": 38.90000283333333, "bike_id": "11cb3cb5453fe8912c8c21ce62a3ec83", "fusion_lon": 0.0}, {"rental_uris": {"ios": "https://dc.lft.to/lastmile_qr_scan", "android": "https://dc.lft.to/lastmile_qr_scan"}, "type": "electric_scooter", "name": "0b199e8a637e11c59d818e9f91106854", "is_reserved": 0, "lon": -77.05016616666667, "is_disabled": 0, "fusion_lat": 0.0, "lat": 38.92368583333333, "bike_id": "0b199e8a637e11c59d818e9f91106854", "fusion_lon": 0.0}, {"rental_uris": {"ios": "https://dc.lft.to/lastmile_qr_scan", "android": "https://dc.lft.to/lastmile_qr_scan"}, "type": "electric_scooter", "name": "dcd8ad6d055b9d50e2cd1a6167db8baa", "is_reserved": 0, "lon": -77.03461633333333, "is_disabled": 0, "fusion_lat": 0.0, "lat": 38.905778833333336, "bike_id": "dcd8ad6d055b9d50e2cd1a6167db8baa", "fusion_lon": 0.0}, {"rental_uris": {"ios": "https://dc.lft.to/lastmile_qr_scan", "android": "https://dc.lft.to/lastmile_qr_scan"}, "type": "electric_scooter", "name": "5e72d03099261dca93d8f38a8b5253b8", "is_reserved": 0, "lon": -77.03848983333333, "is_disabled": 0, "fusion_lat": 0.0, "lat": 38.90950333333333, "bike_id": "5e72d03099261dca93d8f38a8b5253b8", "fusion_lon": 0.0}, {"rental_uris": {"ios": "https://dc.lft.to/lastmile_qr_scan", "android": "https://dc.lft.to/lastmile_qr_scan"}, "type": "electric_scooter", "name": "9a2d58efd966ca053914babfea954528", "is_reserved": 0, "lon": -77.03201083333333, "is_disabled": 0, "fusion_lat": 0.0, "lat": 38.930695666666665, "bike_id": "9a2d58efd966ca053914babfea954528", "fusion_lon": 0.0}, {"rental_uris": {"ios": "https://dc.lft.to/lastmile_qr_scan", "android": "https://dc.lft.to/lastmile_qr_scan"}, "type": "electric_scooter", "name": "be32bc94fce041b9917b57fe386adb9a", "is_reserved": 0, "lon": -77.02600216666667, "is_disabled": 0, "fusion_lat": 0.0, "lat": 38.916994, "bike_id": "be32bc94fce041b9917b57fe386adb9a", "fusion_lon": 0.0}, {"rental_uris": {"ios": "https://dc.lft.to/lastmile_qr_scan", "android": "https://dc.lft.to/lastmile_qr_scan"}, "type": "electric_scooter", "name": "b93d4a78cbd4c19cf79468191a90cf70", "is_reserved": 0, "lon": -77.03047083333334, "is_disabled": 0, "fusion_lat": 0.0, "lat": 38.990352333333334, "bike_id": "b93d4a78cbd4c19cf79468191a90cf70", "fusion_lon": 0.0}, {"rental_uris": {"ios": "https://dc.lft.to/lastmile_qr_scan", "android": "https://dc.lft.to/lastmile_qr_scan"}, "type": "electric_scooter", "name": "ed363222975ccb48d805a5fe370f7d89", "is_reserved": 0, "lon": -77.03207433333333, "is_disabled": 0, "fusion_lat": 0.0, "lat": 38.91744466666667, "bike_id": "ed363222975ccb48d805a5fe370f7d89", "fusion_lon": 0.0}, {"rental_uris": {"ios": "https://dc.lft.to/lastmile_qr_scan", "android": "https://dc.lft.to/lastmile_qr_scan"}, "type": "electric_scooter", "name": "6d11d7bd524dce49d9c07196a233df94", "is_reserved": 0, "lon": -77.02975933333333, "is_disabled": 0, "fusion_lat": 0.0, "lat": 38.916879333333334, "bike_id": "6d11d7bd524dce49d9c07196a233df94", "fusion_lon": 0.0}, {"rental_uris": {"ios": "https://dc.lft.to/lastmile_qr_scan", "android": "https://dc.lft.to/lastmile_qr_scan"}, "type": "electric_scooter", "name": "6543dd75bfa76fa0c71db55510138616", "is_reserved": 0, "lon": -77.0347645, "is_disabled": 0, "fusion_lat": 0.0, "lat": 38.9022905, "bike_id": "6543dd75bfa76fa0c71db55510138616", "fusion_lon": 0.0}, {"rental_uris": {"ios": "https://dc.lft.to/lastmile_qr_scan", "android": "https://dc.lft.to/lastmile_qr_scan"}, "type": "electric_scooter", "name": "a0979c535f0119a8031394c09ca124fa", "is_reserved": 0, "lon": -76.94055466666667, "is_disabled": 0, "fusion_lat": 0.0, "lat": 38.885801, "bike_id": "a0979c535f0119a8031394c09ca124fa", "fusion_lon": 0.0}, {"rental_uris": {"ios": "https://dc.lft.to/lastmile_qr_scan", "android": "https://dc.lft.to/lastmile_qr_scan"}, "type": "electric_scooter", "name": "fe3dd0e39f8af0f4334185a74852d745", "is_reserved": 0, "lon": -77.00472033333334, "is_disabled": 0, "fusion_lat": 0.0, "lat": 38.885212333333335, "bike_id": "fe3dd0e39f8af0f4334185a74852d745", "fusion_lon": 0.0}, {"rental_uris": {"ios": "https://dc.lft.to/lastmile_qr_scan", "android": "https://dc.lft.to/lastmile_qr_scan"}, "type": "electric_scooter", "name": "8d29f7cbde63a9e32e6476ca74da392f", "is_reserved": 0, "lon": -76.99505283333333, "is_disabled": 0, "fusion_lat": 0.0, "lat": 38.909789833333335, "bike_id": "8d29f7cbde63a9e32e6476ca74da392f", "fusion_lon": 0.0}, {"rental_uris": {"ios": "https://dc.lft.to/lastmile_qr_scan", "android": "https://dc.lft.to/lastmile_qr_scan"}, "type": "electric_scooter", "name": "35bac6d8168bd75a41ee6638dbe40ee3", "is_reserved": 0, "lon": -77.0394535, "is_disabled": 0, "fusion_lat": 0.0, "lat": 38.90958966666667, "bike_id": "35bac6d8168bd75a41ee6638dbe40ee3", "fusion_lon": 0.0}, {"rental_uris": {"ios": "https://dc.lft.to/lastmile_qr_scan", "android": "https://dc.lft.to/lastmile_qr_scan"}, "type": "electric_scooter", "name": "661d628e22aaf6efd1bf22ae82109d47", "is_reserved": 0, "lon": -77.02319033333333, "is_disabled": 0, "fusion_lat": 0.0, "lat": 38.9380655, "bike_id": "661d628e22aaf6efd1bf22ae82109d47", "fusion_lon": 0.0}, {"rental_uris": {"ios": "https://dc.lft.to/lastmile_qr_scan", "android": "https://dc.lft.to/lastmile_qr_scan"}, "type": "electric_scooter", "name": "daca1d33ae8938bc2e437edfbd70540b", "is_reserved": 0, "lon": -77.04387833333334, "is_disabled": 0, "fusion_lat": 0.0, "lat": 38.934314666666666, "bike_id": "daca1d33ae8938bc2e437edfbd70540b", "fusion_lon": 0.0}, {"rental_uris": {"ios": "https://dc.lft.to/lastmile_qr_scan", "android": "https://dc.lft.to/lastmile_qr_scan"}, "type": "electric_scooter", "name": "4344e9a88780967ed64f1510ce2e5a53", "is_reserved": 0, "lon": -76.98339483333334, "is_disabled": 0, "fusion_lat": 0.0, "lat": 38.900863333333334, "bike_id": "4344e9a88780967ed64f1510ce2e5a53", "fusion_lon": 0.0}, {"rental_uris": {"ios": "https://dc.lft.to/lastmile_qr_scan", "android": "https://dc.lft.to/lastmile_qr_scan"}, "type": "electric_scooter", "name": "5c0daabd33066031ce7912e81a983c46", "is_reserved": 0, "lon": -77.02342083333333, "is_disabled": 0, "fusion_lat": 0.0, "lat": 38.929415666666664, "bike_id": "5c0daabd33066031ce7912e81a983c46", "fusion_lon": 0.0}, {"rental_uris": {"ios": "https://dc.lft.to/lastmile_qr_scan", "android": "https://dc.lft.to/lastmile_qr_scan"}, "type": "electric_scooter", "name": "f3fd5a47f79e73fe07552d08f849485d", "is_reserved": 0, "lon": -77.03394, "is_disabled": 0, "fusion_lat": 0.0, "lat": 38.89980966666667, "bike_id": "f3fd5a47f79e73fe07552d08f849485d", "fusion_lon": 0.0}, {"rental_uris": {"ios": "https://dc.lft.to/lastmile_qr_scan", "android": "https://dc.lft.to/lastmile_qr_scan"}, "type": "electric_scooter", "name": "3ed162e3364a2e636fa7ffeb8bb98fab", "is_reserved": 0, "lon": -77.019045, "is_disabled": 0, "fusion_lat": 0.0, "lat": 38.90324533333333, "bike_id": "3ed162e3364a2e636fa7ffeb8bb98fab", "fusion_lon": 0.0}, {"rental_uris": {"ios": "https://dc.lft.to/lastmile_qr_scan", "android": "https://dc.lft.to/lastmile_qr_scan"}, "type": "electric_scooter", "name": "d9ab82cb3e8bdabc70b3475eae0c24f7", "is_reserved": 0, "lon": -77.02489, "is_disabled": 0, "fusion_lat": 0.0, "lat": 38.918228666666664, "bike_id": "d9ab82cb3e8bdabc70b3475eae0c24f7", "fusion_lon": 0.0}, {"rental_uris": {"ios": "https://dc.lft.to/lastmile_qr_scan", "android": "https://dc.lft.to/lastmile_qr_scan"}, "type": "electric_scooter", "name": "7ba855a81dfd0a7d0c67efea317d6c38", "is_reserved": 0, "lon": -77.031653, "is_disabled": 0, "fusion_lat": 0.0, "lat": 38.959391, "bike_id": "7ba855a81dfd0a7d0c67efea317d6c38", "fusion_lon": 0.0}, {"rental_uris": {"ios": "https://dc.lft.to/lastmile_qr_scan", "android": "https://dc.lft.to/lastmile_qr_scan"}, "type": "electric_scooter", "name": "f9d17ac7e6ea1e912dfdcc32aa104502", "is_reserved": 0, "lon": -76.990704, "is_disabled": 0, "fusion_lat": 0.0, "lat": 38.90423083333334, "bike_id": "f9d17ac7e6ea1e912dfdcc32aa104502", "fusion_lon": 0.0}, {"rental_uris": {"ios": "https://dc.lft.to/lastmile_qr_scan", "android": "https://dc.lft.to/lastmile_qr_scan"}, "type": "electric_scooter", "name": "5660a61df04b40914438a495a5d896ea", "is_reserved": 0, "lon": -77.02142633333334, "is_disabled": 0, "fusion_lat": 0.0, "lat": 38.8874535, "bike_id": "5660a61df04b40914438a495a5d896ea", "fusion_lon": 0.0}, {"rental_uris": {"ios": "https://dc.lft.to/lastmile_qr_scan", "android": "https://dc.lft.to/lastmile_qr_scan"}, "type": "electric_scooter", "name": "fa16f9a0c73a9dae499ac5a6bd3b04a8", "is_reserved": 0, "lon": -77.04988033333333, "is_disabled": 0, "fusion_lat": 0.0, "lat": 38.907976166666664, "bike_id": "fa16f9a0c73a9dae499ac5a6bd3b04a8", "fusion_lon": 0.0}, {"rental_uris": {"ios": "https://dc.lft.to/lastmile_qr_scan", "android": "https://dc.lft.to/lastmile_qr_scan"}, "type": "electric_scooter", "name": "fcfa6d1db5f766ec2fd135663c04ae82", "is_reserved": 0, "lon": -77.05124816666667, "is_disabled": 0, "fusion_lat": 0.0, "lat": 38.923468666666665, "bike_id": "fcfa6d1db5f766ec2fd135663c04ae82", "fusion_lon": 0.0}, {"rental_uris": {"ios": "https://dc.lft.to/lastmile_qr_scan", "android": "https://dc.lft.to/lastmile_qr_scan"}, "type": "electric_bike", "name": "f564d554972696b11e864c5ebbc9000e", "is_reserved": 0, "lon": -77.00159116666667, "is_disabled": 0, "fusion_lat": 0.0, "lat": 38.94168533333333, "bike_id": "f564d554972696b11e864c5ebbc9000e", "fusion_lon": 0.0}, {"rental_uris": {"ios": "https://dc.lft.to/lastmile_qr_scan", "android": "https://dc.lft.to/lastmile_qr_scan"}, "type": "electric_scooter", "name": "5b61941b4692f23dbc9a59d96b2c02eb", "is_reserved": 0, "lon": -77.02630933333333, "is_disabled": 0, "fusion_lat": 0.0, "lat": 38.925964, "bike_id": "5b61941b4692f23dbc9a59d96b2c02eb", "fusion_lon": 0.0}, {"rental_uris": {"ios": "https://dc.lft.to/lastmile_qr_scan", "android": "https://dc.lft.to/lastmile_qr_scan"}, "type": "electric_bike", "name": "3afc3873fa0f67b49c10b3fab2dd7161", "is_reserved": 0, "lon": -77.05049783333334, "is_disabled": 0, "fusion_lat": 0.0, "lat": 38.92423016666667, "bike_id": "3afc3873fa0f67b49c10b3fab2dd7161", "fusion_lon": 0.0}, {"rental_uris": {"ios": "https://dc.lft.to/lastmile_qr_scan", "android": "https://dc.lft.to/lastmile_qr_scan"}, "type": "electric_scooter", "name": "1f52b3bb36e77b7d0be15a3cb4b1fd7a", "is_reserved": 0, "lon": -77.008121, "is_disabled": 0, "fusion_lat": 0.0, "lat": 38.905766666666665, "bike_id": "1f52b3bb36e77b7d0be15a3cb4b1fd7a", "fusion_lon": 0.0}, {"rental_uris": {"ios": "https://dc.lft.to/lastmile_qr_scan", "android": "https://dc.lft.to/lastmile_qr_scan"}, "type": "electric_bike", "name": "93e7183f93062b7b13e61c218726ac28", "is_reserved": 0, "lon": -77.00777383333333, "is_disabled": 0, "fusion_lat": 0.0, "lat": 38.9813685, "bike_id": "93e7183f93062b7b13e61c218726ac28", "fusion_lon": 0.0}, {"rental_uris": {"ios": "https://dc.lft.to/lastmile_qr_scan", "android": "https://dc.lft.to/lastmile_qr_scan"}, "type": "electric_scooter", "name": "c7051dbd13ab4d3cba1408cec5916fce", "is_reserved": 0, "lon": -77.02708666666666, "is_disabled": 0, "fusion_lat": 0.0, "lat": 38.9025885, "bike_id": "c7051dbd13ab4d3cba1408cec5916fce", "fusion_lon": 0.0}, {"rental_uris": {"ios": "https://dc.lft.to/lastmile_qr_scan", "android": "https://dc.lft.to/lastmile_qr_scan"}, "type": "electric_scooter", "name": "2e12d0a693857385c851a593d074801e", "is_reserved": 0, "lon": -76.92638266666667, "is_disabled": 0, "fusion_lat": 0.0, "lat": 38.901998666666664, "bike_id": "2e12d0a693857385c851a593d074801e", "fusion_lon": 0.0}, {"rental_uris": {"ios": "https://dc.lft.to/lastmile_qr_scan", "android": "https://dc.lft.to/lastmile_qr_scan"}, "type": "electric_bike", "name": "00178497e20eaad30fbc6580386ba514", "is_reserved": 0, "lon": -77.127385, "is_disabled": 0, "fusion_lat": 0.0, "lat": 38.89572783333333, "bike_id": "00178497e20eaad30fbc6580386ba514", "fusion_lon": 0.0}, {"rental_uris": {"ios": "https://dc.lft.to/lastmile_qr_scan", "android": "https://dc.lft.to/lastmile_qr_scan"}, "type": "electric_scooter", "name": "848de0b7186e4ebd093d0ad3d97cd85c", "is_reserved": 0, "lon": -77.059662, "is_disabled": 0, "fusion_lat": 0.0, "lat": 38.88515116666667, "bike_id": "848de0b7186e4ebd093d0ad3d97cd85c", "fusion_lon": 0.0}, {"rental_uris": {"ios": "https://dc.lft.to/lastmile_qr_scan", "android": "https://dc.lft.to/lastmile_qr_scan"}, "type": "electric_scooter", "name": "5ee0a6d54745253188abf9559d15e360", "is_reserved": 0, "lon": -77.02954183333334, "is_disabled": 0, "fusion_lat": 0.0, "lat": 38.91712016666666, "bike_id": "5ee0a6d54745253188abf9559d15e360", "fusion_lon": 0.0}, {"rental_uris": {"ios": "https://dc.lft.to/lastmile_qr_scan", "android": "https://dc.lft.to/lastmile_qr_scan"}, "type": "electric_bike", "name": "31051619a512c639d3d5566ca673048e", "is_reserved": 0, "lon": -77.09626133333333, "is_disabled": 0, "fusion_lat": 0.0, "lat": 38.95250983333333, "bike_id": "31051619a512c639d3d5566ca673048e", "fusion_lon": 0.0}, {"rental_uris": {"ios": "https://dc.lft.to/lastmile_qr_scan", "android": "https://dc.lft.to/lastmile_qr_scan"}, "type": "electric_bike", "name": "212593d05bb94acc01763ca3da87d7b6", "is_reserved": 0, "lon": -77.03087483333333, "is_disabled": 0, "fusion_lat": 0.0, "lat": 38.90446633333333, "bike_id": "212593d05bb94acc01763ca3da87d7b6", "fusion_lon": 0.0}, {"rental_uris": {"ios": "https://dc.lft.to/lastmile_qr_scan", "android": "https://dc.lft.to/lastmile_qr_scan"}, "type": "electric_scooter", "name": "341bc51fe5cd62f065a85fa17bd15bb0", "is_reserved": 0, "lon": -77.01838283333333, "is_disabled": 0, "fusion_lat": 0.0, "lat": 38.922179666666665, "bike_id": "341bc51fe5cd62f065a85fa17bd15bb0", "fusion_lon": 0.0}, {"rental_uris": {"ios": "https://dc.lft.to/lastmile_qr_scan", "android": "https://dc.lft.to/lastmile_qr_scan"}, "type": "electric_bike", "name": "2f1137a1d9219e108925b453c7f2e2c5", "is_reserved": 0, "lon": -77.038845, "is_disabled": 0, "fusion_lat": 0.0, "lat": 39.026393, "bike_id": "2f1137a1d9219e108925b453c7f2e2c5", "fusion_lon": 0.0}, {"rental_uris": {"ios": "https://dc.lft.to/lastmile_qr_scan", "android": "https://dc.lft.to/lastmile_qr_scan"}, "type": "electric_scooter", "name": "626e8aeddc4a37dca2f17ab3de854f32", "is_reserved": 0, "lon": -76.98301533333333, "is_disabled": 0, "fusion_lat": 0.0, "lat": 38.9255355, "bike_id": "626e8aeddc4a37dca2f17ab3de854f32", "fusion_lon": 0.0}, {"rental_uris": {"ios": "https://dc.lft.to/lastmile_qr_scan", "android": "https://dc.lft.to/lastmile_qr_scan"}, "type": "electric_scooter", "name": "a00a23a024bf015d9654c55a5faa3c54", "is_reserved": 0, "lon": -77.04409666666666, "is_disabled": 0, "fusion_lat": 0.0, "lat": 38.90594633333333, "bike_id": "a00a23a024bf015d9654c55a5faa3c54", "fusion_lon": 0.0}, {"rental_uris": {"ios": "https://dc.lft.to/lastmile_qr_scan", "android": "https://dc.lft.to/lastmile_qr_scan"}, "type": "electric_scooter", "name": "bdb687c371faa322ef8b1c87a4e18ce6", "is_reserved": 0, "lon": -77.023442, "is_disabled": 0, "fusion_lat": 0.0, "lat": 38.931786333333335, "bike_id": "bdb687c371faa322ef8b1c87a4e18ce6", "fusion_lon": 0.0}, {"rental_uris": {"ios": "https://dc.lft.to/lastmile_qr_scan", "android": "https://dc.lft.to/lastmile_qr_scan"}, "type": "electric_bike", "name": "d4e00124c8522d4ddecaf854ed8b57b9", "is_reserved": 0, "lon": -76.99447583333334, "is_disabled": 0, "fusion_lat": 0.0, "lat": 38.831104, "bike_id": "d4e00124c8522d4ddecaf854ed8b57b9", "fusion_lon": 0.0}, {"rental_uris": {"ios": "https://dc.lft.to/lastmile_qr_scan", "android": "https://dc.lft.to/lastmile_qr_scan"}, "type": "electric_scooter", "name": "a9bbad12e832f1d8c58e609a4f674f50", "is_reserved": 0, "lon": -77.0023075, "is_disabled": 0, "fusion_lat": 0.0, "lat": 38.900405166666665, "bike_id": "a9bbad12e832f1d8c58e609a4f674f50", "fusion_lon": 0.0}, {"rental_uris": {"ios": "https://dc.lft.to/lastmile_qr_scan", "android": "https://dc.lft.to/lastmile_qr_scan"}, "type": "electric_scooter", "name": "095494284233139805298b298765a1be", "is_reserved": 0, "lon": -77.0485675, "is_disabled": 0, "fusion_lat": 0.0, "lat": 38.912662166666664, "bike_id": "095494284233139805298b298765a1be", "fusion_lon": 0.0}, {"rental_uris": {"ios": "https://dc.lft.to/lastmile_qr_scan", "android": "https://dc.lft.to/lastmile_qr_scan"}, "type": "electric_scooter", "name": "ae61964c84a23ee3afd1d208220d0a39", "is_reserved": 0, "lon": -77.03188583333333, "is_disabled": 0, "fusion_lat": 0.0, "lat": 38.918063833333335, "bike_id": "ae61964c84a23ee3afd1d208220d0a39", "fusion_lon": 0.0}, {"rental_uris": {"ios": "https://dc.lft.to/lastmile_qr_scan", "android": "https://dc.lft.to/lastmile_qr_scan"}, "type": "electric_scooter", "name": "cd45007327389c990e4767a52cbc7bed", "is_reserved": 0, "lon": -76.93377083333333, "is_disabled": 0, "fusion_lat": 0.0, "lat": 38.89872533333333, "bike_id": "cd45007327389c990e4767a52cbc7bed", "fusion_lon": 0.0}, {"rental_uris": {"ios": "https://dc.lft.to/lastmile_qr_scan", "android": "https://dc.lft.to/lastmile_qr_scan"}, "type": "electric_scooter", "name": "6f817960bea3c8dd6b9b043d8fbe6c58", "is_reserved": 0, "lon": -77.0252865, "is_disabled": 0, "fusion_lat": 0.0, "lat": 38.94535583333333, "bike_id": "6f817960bea3c8dd6b9b043d8fbe6c58", "fusion_lon": 0.0}, {"rental_uris": {"ios": "https://dc.lft.to/lastmile_qr_scan", "android": "https://dc.lft.to/lastmile_qr_scan"}, "type": "electric_scooter", "name": "0da5c7d404bfb729eddf40cf1807cd60", "is_reserved": 0, "lon": -77.00660316666666, "is_disabled": 0, "fusion_lat": 0.0, "lat": 38.901141833333334, "bike_id": "0da5c7d404bfb729eddf40cf1807cd60", "fusion_lon": 0.0}, {"rental_uris": {"ios": "https://dc.lft.to/lastmile_qr_scan", "android": "https://dc.lft.to/lastmile_qr_scan"}, "type": "electric_scooter", "name": "8c4ebfeebbd057a6634866b254daeca9", "is_reserved": 0, "lon": -76.98890483333334, "is_disabled": 0, "fusion_lat": 0.0, "lat": 38.90648983333333, "bike_id": "8c4ebfeebbd057a6634866b254daeca9", "fusion_lon": 0.0}, {"rental_uris": {"ios": "https://dc.lft.to/lastmile_qr_scan", "android": "https://dc.lft.to/lastmile_qr_scan"}, "type": "electric_scooter", "name": "8f87dcc37a920c70a1db96d032ac7fc0", "is_reserved": 0, "lon": -77.04173966666667, "is_disabled": 0, "fusion_lat": 0.0, "lat": 38.905680833333335, "bike_id": "8f87dcc37a920c70a1db96d032ac7fc0", "fusion_lon": 0.0}, {"rental_uris": {"ios": "https://dc.lft.to/lastmile_qr_scan", "android": "https://dc.lft.to/lastmile_qr_scan"}, "type": "electric_scooter", "name": "6e9481610e976dd4d85ef49cfefbd45c", "is_reserved": 0, "lon": -77.043991, "is_disabled": 0, "fusion_lat": 0.0, "lat": 38.920464333333335, "bike_id": "6e9481610e976dd4d85ef49cfefbd45c", "fusion_lon": 0.0}, {"rental_uris": {"ios": "https://dc.lft.to/lastmile_qr_scan", "android": "https://dc.lft.to/lastmile_qr_scan"}, "type": "electric_scooter", "name": "afcb3a5edb4b2fa65374fd79e4965197", "is_reserved": 0, "lon": -77.073477, "is_disabled": 0, "fusion_lat": 0.0, "lat": 38.928688, "bike_id": "afcb3a5edb4b2fa65374fd79e4965197", "fusion_lon": 0.0}, {"rental_uris": {"ios": "https://dc.lft.to/lastmile_qr_scan", "android": "https://dc.lft.to/lastmile_qr_scan"}, "type": "electric_scooter", "name": "0e29136a4150328bd1d0e72c8aa8cb6a", "is_reserved": 0, "lon": -77.0435625, "is_disabled": 0, "fusion_lat": 0.0, "lat": 38.91060016666667, "bike_id": "0e29136a4150328bd1d0e72c8aa8cb6a", "fusion_lon": 0.0}, {"rental_uris": {"ios": "https://dc.lft.to/lastmile_qr_scan", "android": "https://dc.lft.to/lastmile_qr_scan"}, "type": "electric_scooter", "name": "38d77ae01aad8621e4587b4a4315dd0f", "is_reserved": 0, "lon": -77.021513, "is_disabled": 0, "fusion_lat": 0.0, "lat": 38.8874795, "bike_id": "38d77ae01aad8621e4587b4a4315dd0f", "fusion_lon": 0.0}, {"rental_uris": {"ios": "https://dc.lft.to/lastmile_qr_scan", "android": "https://dc.lft.to/lastmile_qr_scan"}, "type": "electric_scooter", "name": "c56ebf5ba223f1e53019608eef1ef27a", "is_reserved": 0, "lon": -77.02807333333334, "is_disabled": 0, "fusion_lat": 0.0, "lat": 38.9074235, "bike_id": "c56ebf5ba223f1e53019608eef1ef27a", "fusion_lon": 0.0}, {"rental_uris": {"ios": "https://dc.lft.to/lastmile_qr_scan", "android": "https://dc.lft.to/lastmile_qr_scan"}, "type": "electric_scooter", "name": "6f417994be09c406f0bd256bddddf7d4", "is_reserved": 0, "lon": -77.0464725, "is_disabled": 0, "fusion_lat": 0.0, "lat": 38.90564233333333, "bike_id": "6f417994be09c406f0bd256bddddf7d4", "fusion_lon": 0.0}, {"rental_uris": {"ios": "https://dc.lft.to/lastmile_qr_scan", "android": "https://dc.lft.to/lastmile_qr_scan"}, "type": "electric_scooter", "name": "840319db43b2556e584b372f0f11fd9a", "is_reserved": 0, "lon": -77.0572975, "is_disabled": 0, "fusion_lat": 0.0, "lat": 38.933640833333335, "bike_id": "840319db43b2556e584b372f0f11fd9a", "fusion_lon": 0.0}, {"rental_uris": {"ios": "https://dc.lft.to/lastmile_qr_scan", "android": "https://dc.lft.to/lastmile_qr_scan"}, "type": "electric_scooter", "name": "fa8a0dc7a5a846b9db14665cb55bef5c", "is_reserved": 0, "lon": -77.03197166666666, "is_disabled": 0, "fusion_lat": 0.0, "lat": 38.916903833333336, "bike_id": "fa8a0dc7a5a846b9db14665cb55bef5c", "fusion_lon": 0.0}, {"rental_uris": {"ios": "https://dc.lft.to/lastmile_qr_scan", "android": "https://dc.lft.to/lastmile_qr_scan"}, "type": "electric_scooter", "name": "f2bd4cf2aa711b48f1dee9621f4bb011", "is_reserved": 0, "lon": -77.04503616666666, "is_disabled": 0, "fusion_lat": 0.0, "lat": 38.892290333333335, "bike_id": "f2bd4cf2aa711b48f1dee9621f4bb011", "fusion_lon": 0.0}, {"rental_uris": {"ios": "https://dc.lft.to/lastmile_qr_scan", "android": "https://dc.lft.to/lastmile_qr_scan"}, "type": "electric_scooter", "name": "557cf103e210ff98e57e9bfacd3a4f35", "is_reserved": 0, "lon": -77.05453583333333, "is_disabled": 0, "fusion_lat": 0.0, "lat": 38.929075, "bike_id": "557cf103e210ff98e57e9bfacd3a4f35", "fusion_lon": 0.0}, {"rental_uris": {"ios": "https://dc.lft.to/lastmile_qr_scan", "android": "https://dc.lft.to/lastmile_qr_scan"}, "type": "electric_scooter", "name": "6c216843ea88f160b9158024088d31e6", "is_reserved": 0, "lon": -77.02292733333333, "is_disabled": 0, "fusion_lat": 0.0, "lat": 38.91790966666667, "bike_id": "6c216843ea88f160b9158024088d31e6", "fusion_lon": 0.0}, {"rental_uris": {"ios": "https://dc.lft.to/lastmile_qr_scan", "android": "https://dc.lft.to/lastmile_qr_scan"}, "type": "electric_scooter", "name": "a93fbb494e993aa3b95f27aa2b8018e1", "is_reserved": 0, "lon": -77.02205733333334, "is_disabled": 0, "fusion_lat": 0.0, "lat": 38.910425000000004, "bike_id": "a93fbb494e993aa3b95f27aa2b8018e1", "fusion_lon": 0.0}, {"rental_uris": {"ios": "https://dc.lft.to/lastmile_qr_scan", "android": "https://dc.lft.to/lastmile_qr_scan"}, "type": "electric_scooter", "name": "e21e6c7a67883990e0f48e8c8576a190", "is_reserved": 0, "lon": -77.041246, "is_disabled": 0, "fusion_lat": 0.0, "lat": 38.906243333333336, "bike_id": "e21e6c7a67883990e0f48e8c8576a190", "fusion_lon": 0.0}, {"rental_uris": {"ios": "https://dc.lft.to/lastmile_qr_scan", "android": "https://dc.lft.to/lastmile_qr_scan"}, "type": "electric_scooter", "name": "3ddca615379147e728a23a9e2f657edb", "is_reserved": 0, "lon": -77.048388, "is_disabled": 0, "fusion_lat": 0.0, "lat": 38.90461033333333, "bike_id": "3ddca615379147e728a23a9e2f657edb", "fusion_lon": 0.0}, {"rental_uris": {"ios": "https://dc.lft.to/lastmile_qr_scan", "android": "https://dc.lft.to/lastmile_qr_scan"}, "type": "electric_scooter", "name": "bd930384f1ea15088ae5a84c70f1546e", "is_reserved": 0, "lon": -77.03664783333333, "is_disabled": 0, "fusion_lat": 0.0, "lat": 38.9161025, "bike_id": "bd930384f1ea15088ae5a84c70f1546e", "fusion_lon": 0.0}, {"rental_uris": {"ios": "https://dc.lft.to/lastmile_qr_scan", "android": "https://dc.lft.to/lastmile_qr_scan"}, "type": "electric_scooter", "name": "132eaef255b82827ff79c93ff9efb121", "is_reserved": 0, "lon": -77.03466816666666, "is_disabled": 0, "fusion_lat": 0.0, "lat": 38.90440233333333, "bike_id": "132eaef255b82827ff79c93ff9efb121", "fusion_lon": 0.0}, {"rental_uris": {"ios": "https://dc.lft.to/lastmile_qr_scan", "android": "https://dc.lft.to/lastmile_qr_scan"}, "type": "electric_scooter", "name": "6e86dd02821b7240dfb8d28940182eb1", "is_reserved": 0, "lon": -77.0491945, "is_disabled": 0, "fusion_lat": 0.0, "lat": 38.910435, "bike_id": "6e86dd02821b7240dfb8d28940182eb1", "fusion_lon": 0.0}, {"rental_uris": {"ios": "https://dc.lft.to/lastmile_qr_scan", "android": "https://dc.lft.to/lastmile_qr_scan"}, "type": "electric_scooter", "name": "fb23d4dfff16042c338e6a3613f5af05", "is_reserved": 0, "lon": -77.0327645, "is_disabled": 0, "fusion_lat": 0.0, "lat": 38.90731533333334, "bike_id": "fb23d4dfff16042c338e6a3613f5af05", "fusion_lon": 0.0}, {"rental_uris": {"ios": "https://dc.lft.to/lastmile_qr_scan", "android": "https://dc.lft.to/lastmile_qr_scan"}, "type": "electric_scooter", "name": "1fccd4cb26c34a0a412a18bfeb4ce79f", "is_reserved": 0, "lon": -77.0180555, "is_disabled": 0, "fusion_lat": 0.0, "lat": 38.919885, "bike_id": "1fccd4cb26c34a0a412a18bfeb4ce79f", "fusion_lon": 0.0}, {"rental_uris": {"ios": "https://dc.lft.to/lastmile_qr_scan", "android": "https://dc.lft.to/lastmile_qr_scan"}, "type": "electric_bike", "name": "ba6788c5c399c19237aef3d9291c3008", "is_reserved": 0, "lon": -76.90737166666666, "is_disabled": 0, "fusion_lat": 0.0, "lat": 38.89617716666667, "bike_id": "ba6788c5c399c19237aef3d9291c3008", "fusion_lon": 0.0}, {"rental_uris": {"ios": "https://dc.lft.to/lastmile_qr_scan", "android": "https://dc.lft.to/lastmile_qr_scan"}, "type": "electric_scooter", "name": "23ce019e0a7e6df8902993283d86b01d", "is_reserved": 0, "lon": -77.04059116666667, "is_disabled": 0, "fusion_lat": 0.0, "lat": 38.903986, "bike_id": "23ce019e0a7e6df8902993283d86b01d", "fusion_lon": 0.0}, {"rental_uris": {"ios": "https://dc.lft.to/lastmile_qr_scan", "android": "https://dc.lft.to/lastmile_qr_scan"}, "type": "electric_scooter", "name": "e6c316a3c8e6d2848db69ecd995a6e6d", "is_reserved": 0, "lon": -77.0231705, "is_disabled": 0, "fusion_lat": 0.0, "lat": 38.917932, "bike_id": "e6c316a3c8e6d2848db69ecd995a6e6d", "fusion_lon": 0.0}, {"rental_uris": {"ios": "https://dc.lft.to/lastmile_qr_scan", "android": "https://dc.lft.to/lastmile_qr_scan"}, "type": "electric_scooter", "name": "0124697af936f2fe195bbf5b402f428b", "is_reserved": 0, "lon": -77.04592866666667, "is_disabled": 0, "fusion_lat": 0.0, "lat": 38.9173435, "bike_id": "0124697af936f2fe195bbf5b402f428b", "fusion_lon": 0.0}, {"rental_uris": {"ios": "https://dc.lft.to/lastmile_qr_scan", "android": "https://dc.lft.to/lastmile_qr_scan"}, "type": "electric_scooter", "name": "6b3c34948801f061afb3294c411390e0", "is_reserved": 0, "lon": -76.97314133333333, "is_disabled": 0, "fusion_lat": 0.0, "lat": 38.9199675, "bike_id": "6b3c34948801f061afb3294c411390e0", "fusion_lon": 0.0}, {"rental_uris": {"ios": "https://dc.lft.to/lastmile_qr_scan", "android": "https://dc.lft.to/lastmile_qr_scan"}, "type": "electric_scooter", "name": "84618b7b239d11bf1bcfa03d7b0b2031", "is_reserved": 0, "lon": -77.034301, "is_disabled": 0, "fusion_lat": 0.0, "lat": 38.9010105, "bike_id": "84618b7b239d11bf1bcfa03d7b0b2031", "fusion_lon": 0.0}, {"rental_uris": {"ios": "https://dc.lft.to/lastmile_qr_scan", "android": "https://dc.lft.to/lastmile_qr_scan"}, "type": "electric_scooter", "name": "e6a749af813bb588b6f843d8472ad823", "is_reserved": 0, "lon": -77.04349916666666, "is_disabled": 0, "fusion_lat": 0.0, "lat": 38.9105605, "bike_id": "e6a749af813bb588b6f843d8472ad823", "fusion_lon": 0.0}, {"rental_uris": {"ios": "https://dc.lft.to/lastmile_qr_scan", "android": "https://dc.lft.to/lastmile_qr_scan"}, "type": "electric_scooter", "name": "9aed20fb8e2504e6edb6b1a84846041f", "is_reserved": 0, "lon": -77.0308555, "is_disabled": 0, "fusion_lat": 0.0, "lat": 38.910841833333336, "bike_id": "9aed20fb8e2504e6edb6b1a84846041f", "fusion_lon": 0.0}, {"rental_uris": {"ios": "https://dc.lft.to/lastmile_qr_scan", "android": "https://dc.lft.to/lastmile_qr_scan"}, "type": "electric_scooter", "name": "1ab396c355eaa1347c18d93468b675d8", "is_reserved": 0, "lon": -77.01227883333334, "is_disabled": 0, "fusion_lat": 0.0, "lat": 38.867240833333334, "bike_id": "1ab396c355eaa1347c18d93468b675d8", "fusion_lon": 0.0}, {"rental_uris": {"ios": "https://dc.lft.to/lastmile_qr_scan", "android": "https://dc.lft.to/lastmile_qr_scan"}, "type": "electric_scooter", "name": "c06fbee3ebcdb33e8f5766823b93cd2a", "is_reserved": 0, "lon": -77.0562295, "is_disabled": 0, "fusion_lat": 0.0, "lat": 38.90688083333333, "bike_id": "c06fbee3ebcdb33e8f5766823b93cd2a", "fusion_lon": 0.0}, {"rental_uris": {"ios": "https://dc.lft.to/lastmile_qr_scan", "android": "https://dc.lft.to/lastmile_qr_scan"}, "type": "electric_scooter", "name": "2422c5bc3a4c6e3d7f933679f66bfbec", "is_reserved": 0, "lon": -76.99734583333333, "is_disabled": 0, "fusion_lat": 0.0, "lat": 38.904414, "bike_id": "2422c5bc3a4c6e3d7f933679f66bfbec", "fusion_lon": 0.0}, {"rental_uris": {"ios": "https://dc.lft.to/lastmile_qr_scan", "android": "https://dc.lft.to/lastmile_qr_scan"}, "type": "electric_scooter", "name": "873020c412340347810df44eca005eee", "is_reserved": 0, "lon": -77.00828583333333, "is_disabled": 0, "fusion_lat": 0.0, "lat": 38.91372233333333, "bike_id": "873020c412340347810df44eca005eee", "fusion_lon": 0.0}, {"rental_uris": {"ios": "https://dc.lft.to/lastmile_qr_scan", "android": "https://dc.lft.to/lastmile_qr_scan"}, "type": "electric_scooter", "name": "3345e0842e087566beb05d176d9e8e9a", "is_reserved": 0, "lon": -77.04760266666666, "is_disabled": 0, "fusion_lat": 0.0, "lat": 38.941005833333335, "bike_id": "3345e0842e087566beb05d176d9e8e9a", "fusion_lon": 0.0}, {"rental_uris": {"ios": "https://dc.lft.to/lastmile_qr_scan", "android": "https://dc.lft.to/lastmile_qr_scan"}, "type": "electric_scooter", "name": "355c88c15f0ffda32b8825be447187cb", "is_reserved": 0, "lon": -76.9923355, "is_disabled": 0, "fusion_lat": 0.0, "lat": 38.887519833333336, "bike_id": "355c88c15f0ffda32b8825be447187cb", "fusion_lon": 0.0}, {"rental_uris": {"ios": "https://dc.lft.to/lastmile_qr_scan", "android": "https://dc.lft.to/lastmile_qr_scan"}, "type": "electric_scooter", "name": "aa1ba07b76dd0a630b1f85fd35e5c304", "is_reserved": 0, "lon": -77.0494625, "is_disabled": 0, "fusion_lat": 0.0, "lat": 38.920223, "bike_id": "aa1ba07b76dd0a630b1f85fd35e5c304", "fusion_lon": 0.0}, {"rental_uris": {"ios": "https://dc.lft.to/lastmile_qr_scan", "android": "https://dc.lft.to/lastmile_qr_scan"}, "type": "electric_scooter", "name": "b974ce872300159b6c3b5399599608d7", "is_reserved": 0, "lon": -77.0592415, "is_disabled": 0, "fusion_lat": 0.0, "lat": 38.937057, "bike_id": "b974ce872300159b6c3b5399599608d7", "fusion_lon": 0.0}, {"rental_uris": {"ios": "https://dc.lft.to/lastmile_qr_scan", "android": "https://dc.lft.to/lastmile_qr_scan"}, "type": "electric_scooter", "name": "b6c454cb9ba4524cc90ddcfa4a8cea3c", "is_reserved": 0, "lon": -77.02585916666666, "is_disabled": 0, "fusion_lat": 0.0, "lat": 38.8984115, "bike_id": "b6c454cb9ba4524cc90ddcfa4a8cea3c", "fusion_lon": 0.0}, {"rental_uris": {"ios": "https://dc.lft.to/lastmile_qr_scan", "android": "https://dc.lft.to/lastmile_qr_scan"}, "type": "electric_scooter", "name": "d260a7658da45bdc680b9065972cffed", "is_reserved": 0, "lon": -77.03346333333333, "is_disabled": 0, "fusion_lat": 0.0, "lat": 38.919908166666666, "bike_id": "d260a7658da45bdc680b9065972cffed", "fusion_lon": 0.0}, {"rental_uris": {"ios": "https://dc.lft.to/lastmile_qr_scan", "android": "https://dc.lft.to/lastmile_qr_scan"}, "type": "electric_scooter", "name": "841335eb0dba8f53b3643177e215c274", "is_reserved": 0, "lon": -77.052188, "is_disabled": 0, "fusion_lat": 0.0, "lat": 38.92497433333333, "bike_id": "841335eb0dba8f53b3643177e215c274", "fusion_lon": 0.0}, {"rental_uris": {"ios": "https://dc.lft.to/lastmile_qr_scan", "android": "https://dc.lft.to/lastmile_qr_scan"}, "type": "electric_bike", "name": "be7204487d5dc5141e190edcd47fa555", "is_reserved": 0, "lon": -77.23414916666667, "is_disabled": 0, "fusion_lat": 0.0, "lat": 38.875824333333334, "bike_id": "be7204487d5dc5141e190edcd47fa555", "fusion_lon": 0.0}, {"rental_uris": {"ios": "https://dc.lft.to/lastmile_qr_scan", "android": "https://dc.lft.to/lastmile_qr_scan"}, "type": "electric_scooter", "name": "9402b3679690483934a487b81681c7f0", "is_reserved": 0, "lon": -77.073083, "is_disabled": 0, "fusion_lat": 0.0, "lat": 38.93028116666667, "bike_id": "9402b3679690483934a487b81681c7f0", "fusion_lon": 0.0}, {"rental_uris": {"ios": "https://dc.lft.to/lastmile_qr_scan", "android": "https://dc.lft.to/lastmile_qr_scan"}, "type": "electric_scooter", "name": "6b38a0e8cc98fe114024873fb357809e", "is_reserved": 0, "lon": -77.07348383333333, "is_disabled": 0, "fusion_lat": 0.0, "lat": 38.943293833333335, "bike_id": "6b38a0e8cc98fe114024873fb357809e", "fusion_lon": 0.0}, {"rental_uris": {"ios": "https://dc.lft.to/lastmile_qr_scan", "android": "https://dc.lft.to/lastmile_qr_scan"}, "type": "electric_scooter", "name": "dbb8da5df56f4004c777bd063afeb3b5", "is_reserved": 0, "lon": -77.02513866666666, "is_disabled": 0, "fusion_lat": 0.0, "lat": 38.903449, "bike_id": "dbb8da5df56f4004c777bd063afeb3b5", "fusion_lon": 0.0}, {"rental_uris": {"ios": "https://dc.lft.to/lastmile_qr_scan", "android": "https://dc.lft.to/lastmile_qr_scan"}, "type": "electric_scooter", "name": "40eda484b820962d3f7aaad1dbcd1ebc", "is_reserved": 0, "lon": -77.02589383333333, "is_disabled": 0, "fusion_lat": 0.0, "lat": 38.9204385, "bike_id": "40eda484b820962d3f7aaad1dbcd1ebc", "fusion_lon": 0.0}, {"rental_uris": {"ios": "https://dc.lft.to/lastmile_qr_scan", "android": "https://dc.lft.to/lastmile_qr_scan"}, "type": "electric_scooter", "name": "36367a170333cb5d9859af5ed4d7b89f", "is_reserved": 0, "lon": -77.04148116666667, "is_disabled": 0, "fusion_lat": 0.0, "lat": 38.89430566666667, "bike_id": "36367a170333cb5d9859af5ed4d7b89f", "fusion_lon": 0.0}, {"rental_uris": {"ios": "https://dc.lft.to/lastmile_qr_scan", "android": "https://dc.lft.to/lastmile_qr_scan"}, "type": "electric_scooter", "name": "a3c8b9bdc13f07f2cd70de10973bc592", "is_reserved": 0, "lon": -76.97630366666667, "is_disabled": 0, "fusion_lat": 0.0, "lat": 38.90574866666667, "bike_id": "a3c8b9bdc13f07f2cd70de10973bc592", "fusion_lon": 0.0}, {"rental_uris": {"ios": "https://dc.lft.to/lastmile_qr_scan", "android": "https://dc.lft.to/lastmile_qr_scan"}, "type": "electric_scooter", "name": "6e89f455eac2558c7a92255aeb5cddba", "is_reserved": 0, "lon": -77.02289366666666, "is_disabled": 0, "fusion_lat": 0.0, "lat": 38.917322166666665, "bike_id": "6e89f455eac2558c7a92255aeb5cddba", "fusion_lon": 0.0}, {"rental_uris": {"ios": "https://dc.lft.to/lastmile_qr_scan", "android": "https://dc.lft.to/lastmile_qr_scan"}, "type": "electric_scooter", "name": "ee701bd72ee9073aed2ae73182001373", "is_reserved": 0, "lon": -77.0235295, "is_disabled": 0, "fusion_lat": 0.0, "lat": 38.93177133333333, "bike_id": "ee701bd72ee9073aed2ae73182001373", "fusion_lon": 0.0}, {"rental_uris": {"ios": "https://dc.lft.to/lastmile_qr_scan", "android": "https://dc.lft.to/lastmile_qr_scan"}, "type": "electric_scooter", "name": "5cb9d2d85bc75c7c2cfe454ec6efb195", "is_reserved": 0, "lon": -77.03204933333333, "is_disabled": 0, "fusion_lat": 0.0, "lat": 38.911036833333334, "bike_id": "5cb9d2d85bc75c7c2cfe454ec6efb195", "fusion_lon": 0.0}, {"rental_uris": {"ios": "https://dc.lft.to/lastmile_qr_scan", "android": "https://dc.lft.to/lastmile_qr_scan"}, "type": "electric_scooter", "name": "c1e8eef468ad0d6b85bd758e49b5f66c", "is_reserved": 0, "lon": -77.0122015, "is_disabled": 0, "fusion_lat": 0.0, "lat": 38.92040433333333, "bike_id": "c1e8eef468ad0d6b85bd758e49b5f66c", "fusion_lon": 0.0}, {"rental_uris": {"ios": "https://dc.lft.to/lastmile_qr_scan", "android": "https://dc.lft.to/lastmile_qr_scan"}, "type": "electric_scooter", "name": "e510ffb14817512fdc8b6c5a26c03666", "is_reserved": 0, "lon": -77.03661533333333, "is_disabled": 0, "fusion_lat": 0.0, "lat": 38.9213245, "bike_id": "e510ffb14817512fdc8b6c5a26c03666", "fusion_lon": 0.0}, {"rental_uris": {"ios": "https://dc.lft.to/lastmile_qr_scan", "android": "https://dc.lft.to/lastmile_qr_scan"}, "type": "electric_scooter", "name": "bc2a7f4fd68826216ba4a077f9b040ca", "is_reserved": 0, "lon": -77.01949716666667, "is_disabled": 0, "fusion_lat": 0.0, "lat": 38.924283833333334, "bike_id": "bc2a7f4fd68826216ba4a077f9b040ca", "fusion_lon": 0.0}, {"rental_uris": {"ios": "https://dc.lft.to/lastmile_qr_scan", "android": "https://dc.lft.to/lastmile_qr_scan"}, "type": "electric_scooter", "name": "92bbd4ee7af499ccca0ddb4946111977", "is_reserved": 0, "lon": -77.022783, "is_disabled": 0, "fusion_lat": 0.0, "lat": 38.91632116666667, "bike_id": "92bbd4ee7af499ccca0ddb4946111977", "fusion_lon": 0.0}, {"rental_uris": {"ios": "https://dc.lft.to/lastmile_qr_scan", "android": "https://dc.lft.to/lastmile_qr_scan"}, "type": "electric_scooter", "name": "5661439f0744083fb236a9e13af07f2c", "is_reserved": 0, "lon": -77.020913, "is_disabled": 0, "fusion_lat": 0.0, "lat": 38.881896833333336, "bike_id": "5661439f0744083fb236a9e13af07f2c", "fusion_lon": 0.0}, {"rental_uris": {"ios": "https://dc.lft.to/lastmile_qr_scan", "android": "https://dc.lft.to/lastmile_qr_scan"}, "type": "electric_scooter", "name": "a2b32c5a6f89466fc99888920e258463", "is_reserved": 0, "lon": -77.0092565, "is_disabled": 0, "fusion_lat": 0.0, "lat": 38.8819475, "bike_id": "a2b32c5a6f89466fc99888920e258463", "fusion_lon": 0.0}, {"rental_uris": {"ios": "https://dc.lft.to/lastmile_qr_scan", "android": "https://dc.lft.to/lastmile_qr_scan"}, "type": "electric_scooter", "name": "03da1c6d2da9f9db817195915beff71e", "is_reserved": 0, "lon": -77.0258725, "is_disabled": 0, "fusion_lat": 0.0, "lat": 38.920431666666666, "bike_id": "03da1c6d2da9f9db817195915beff71e", "fusion_lon": 0.0}, {"rental_uris": {"ios": "https://dc.lft.to/lastmile_qr_scan", "android": "https://dc.lft.to/lastmile_qr_scan"}, "type": "electric_scooter", "name": "66b197efcd1a95c0319145c9cc3b73d6", "is_reserved": 0, "lon": -76.92307566666666, "is_disabled": 0, "fusion_lat": 0.0, "lat": 38.89390266666667, "bike_id": "66b197efcd1a95c0319145c9cc3b73d6", "fusion_lon": 0.0}, {"rental_uris": {"ios": "https://dc.lft.to/lastmile_qr_scan", "android": "https://dc.lft.to/lastmile_qr_scan"}, "type": "electric_scooter", "name": "5f81df4574e44c4d615acf1689ac39f7", "is_reserved": 0, "lon": -77.03445366666666, "is_disabled": 0, "fusion_lat": 0.0, "lat": 38.90134466666667, "bike_id": "5f81df4574e44c4d615acf1689ac39f7", "fusion_lon": 0.0}, {"rental_uris": {"ios": "https://dc.lft.to/lastmile_qr_scan", "android": "https://dc.lft.to/lastmile_qr_scan"}, "type": "electric_scooter", "name": "aef28df8978baaa9df02980c99c4311f", "is_reserved": 0, "lon": -77.03191933333333, "is_disabled": 0, "fusion_lat": 0.0, "lat": 38.913328166666666, "bike_id": "aef28df8978baaa9df02980c99c4311f", "fusion_lon": 0.0}, {"rental_uris": {"ios": "https://dc.lft.to/lastmile_qr_scan", "android": "https://dc.lft.to/lastmile_qr_scan"}, "type": "electric_scooter", "name": "f637919732a4159ff510d1f49f1ac81a", "is_reserved": 0, "lon": -77.0056335, "is_disabled": 0, "fusion_lat": 0.0, "lat": 38.87667733333333, "bike_id": "f637919732a4159ff510d1f49f1ac81a", "fusion_lon": 0.0}, {"rental_uris": {"ios": "https://dc.lft.to/lastmile_qr_scan", "android": "https://dc.lft.to/lastmile_qr_scan"}, "type": "electric_scooter", "name": "2478a94d7363f38c78c331e305ea5a45", "is_reserved": 0, "lon": -77.02005116666666, "is_disabled": 0, "fusion_lat": 0.0, "lat": 38.92808483333334, "bike_id": "2478a94d7363f38c78c331e305ea5a45", "fusion_lon": 0.0}, {"rental_uris": {"ios": "https://dc.lft.to/lastmile_qr_scan", "android": "https://dc.lft.to/lastmile_qr_scan"}, "type": "electric_scooter", "name": "a080e8c573e5934d397601b1aade8b72", "is_reserved": 0, "lon": -77.04379483333334, "is_disabled": 0, "fusion_lat": 0.0, "lat": 38.916547, "bike_id": "a080e8c573e5934d397601b1aade8b72", "fusion_lon": 0.0}, {"rental_uris": {"ios": "https://dc.lft.to/lastmile_qr_scan", "android": "https://dc.lft.to/lastmile_qr_scan"}, "type": "electric_scooter", "name": "ab9468f0e1e66ab4bae673270490f9a3", "is_reserved": 0, "lon": -77.0212075, "is_disabled": 0, "fusion_lat": 0.0, "lat": 38.9156295, "bike_id": "ab9468f0e1e66ab4bae673270490f9a3", "fusion_lon": 0.0}, {"rental_uris": {"ios": "https://dc.lft.to/lastmile_qr_scan", "android": "https://dc.lft.to/lastmile_qr_scan"}, "type": "electric_scooter", "name": "fb2dd38b6c3ad0590699dc35a298295d", "is_reserved": 0, "lon": -76.98651983333333, "is_disabled": 0, "fusion_lat": 0.0, "lat": 38.90545216666666, "bike_id": "fb2dd38b6c3ad0590699dc35a298295d", "fusion_lon": 0.0}, {"rental_uris": {"ios": "https://dc.lft.to/lastmile_qr_scan", "android": "https://dc.lft.to/lastmile_qr_scan"}, "type": "electric_bike", "name": "2bd9af6757d5378475c7276a410e00a1", "is_reserved": 0, "lon": -77.029777, "is_disabled": 0, "fusion_lat": 0.0, "lat": 38.917404166666664, "bike_id": "2bd9af6757d5378475c7276a410e00a1", "fusion_lon": 0.0}, {"rental_uris": {"ios": "https://dc.lft.to/lastmile_qr_scan", "android": "https://dc.lft.to/lastmile_qr_scan"}, "type": "electric_scooter", "name": "185a37a1bb602a0f60185612bed24d8d", "is_reserved": 0, "lon": -77.025731, "is_disabled": 0, "fusion_lat": 0.0, "lat": 38.94847933333333, "bike_id": "185a37a1bb602a0f60185612bed24d8d", "fusion_lon": 0.0}, {"rental_uris": {"ios": "https://dc.lft.to/lastmile_qr_scan", "android": "https://dc.lft.to/lastmile_qr_scan"}, "type": "electric_bike", "name": "86aabcf4541d42b3e6eff15403b4f034", "is_reserved": 0, "lon": -77.23177733333333, "is_disabled": 0, "fusion_lat": 0.0, "lat": 38.92899366666666, "bike_id": "86aabcf4541d42b3e6eff15403b4f034", "fusion_lon": 0.0}, {"rental_uris": {"ios": "https://dc.lft.to/lastmile_qr_scan", "android": "https://dc.lft.to/lastmile_qr_scan"}, "type": "electric_bike", "name": "bc8a6d8905366314320ed9dd2d1bb4d1", "is_reserved": 0, "lon": -77.10293883333334, "is_disabled": 0, "fusion_lat": 0.0, "lat": 38.852551, "bike_id": "bc8a6d8905366314320ed9dd2d1bb4d1", "fusion_lon": 0.0}, {"rental_uris": {"ios": "https://dc.lft.to/lastmile_qr_scan", "android": "https://dc.lft.to/lastmile_qr_scan"}, "type": "electric_scooter", "name": "c2c44504b43a539c92b90f71452bf6b9", "is_reserved": 0, "lon": -77.01640666666667, "is_disabled": 0, "fusion_lat": 0.0, "lat": 38.90370033333333, "bike_id": "c2c44504b43a539c92b90f71452bf6b9", "fusion_lon": 0.0}, {"rental_uris": {"ios": "https://dc.lft.to/lastmile_qr_scan", "android": "https://dc.lft.to/lastmile_qr_scan"}, "type": "electric_bike", "name": "fd6c838d0f1fecec335f6cc2331ae905", "is_reserved": 0, "lon": -76.9793355, "is_disabled": 0, "fusion_lat": 0.0, "lat": 38.9200235, "bike_id": "fd6c838d0f1fecec335f6cc2331ae905", "fusion_lon": 0.0}, {"rental_uris": {"ios": "https://dc.lft.to/lastmile_qr_scan", "android": "https://dc.lft.to/lastmile_qr_scan"}, "type": "electric_bike", "name": "bf949a70a23b963a1469c2ba9855e581", "is_reserved": 0, "lon": -77.06493166666667, "is_disabled": 0, "fusion_lat": 0.0, "lat": 38.909791, "bike_id": "bf949a70a23b963a1469c2ba9855e581", "fusion_lon": 0.0}, {"rental_uris": {"ios": "https://dc.lft.to/lastmile_qr_scan", "android": "https://dc.lft.to/lastmile_qr_scan"}, "type": "electric_scooter", "name": "ce9ccaed0d3172946bcdd4b8ea118d84", "is_reserved": 0, "lon": -77.073342, "is_disabled": 0, "fusion_lat": 0.0, "lat": 38.90780983333333, "bike_id": "ce9ccaed0d3172946bcdd4b8ea118d84", "fusion_lon": 0.0}, {"rental_uris": {"ios": "https://dc.lft.to/lastmile_qr_scan", "android": "https://dc.lft.to/lastmile_qr_scan"}, "type": "electric_scooter", "name": "358818d2ac38967aae073b2557138982", "is_reserved": 0, "lon": -77.04402633333333, "is_disabled": 0, "fusion_lat": 0.0, "lat": 38.9295655, "bike_id": "358818d2ac38967aae073b2557138982", "fusion_lon": 0.0}, {"rental_uris": {"ios": "https://dc.lft.to/lastmile_qr_scan", "android": "https://dc.lft.to/lastmile_qr_scan"}, "type": "electric_bike", "name": "840fddca5b7480a5e6721028266480cf", "is_reserved": 0, "lon": -77.07021566666667, "is_disabled": 0, "fusion_lat": 0.0, "lat": 38.841127666666665, "bike_id": "840fddca5b7480a5e6721028266480cf", "fusion_lon": 0.0}, {"rental_uris": {"ios": "https://dc.lft.to/lastmile_qr_scan", "android": "https://dc.lft.to/lastmile_qr_scan"}, "type": "electric_scooter", "name": "2cb157c835d1cbf6f76aaf6a44997ba9", "is_reserved": 0, "lon": -76.94814233333334, "is_disabled": 0, "fusion_lat": 0.0, "lat": 38.89349766666667, "bike_id": "2cb157c835d1cbf6f76aaf6a44997ba9", "fusion_lon": 0.0}, {"rental_uris": {"ios": "https://dc.lft.to/lastmile_qr_scan", "android": "https://dc.lft.to/lastmile_qr_scan"}, "type": "electric_scooter", "name": "2fde952303729351032c71a23913ca6e", "is_reserved": 0, "lon": -77.038623, "is_disabled": 0, "fusion_lat": 0.0, "lat": 38.91095283333333, "bike_id": "2fde952303729351032c71a23913ca6e", "fusion_lon": 0.0}, {"rental_uris": {"ios": "https://dc.lft.to/lastmile_qr_scan", "android": "https://dc.lft.to/lastmile_qr_scan"}, "type": "electric_scooter", "name": "563bfe2b49fc7742336ccc316f518825", "is_reserved": 0, "lon": -76.943834, "is_disabled": 0, "fusion_lat": 0.0, "lat": 38.891141, "bike_id": "563bfe2b49fc7742336ccc316f518825", "fusion_lon": 0.0}, {"rental_uris": {"ios": "https://dc.lft.to/lastmile_qr_scan", "android": "https://dc.lft.to/lastmile_qr_scan"}, "type": "electric_scooter", "name": "3b0e802a72818df87f84652b8eea789b", "is_reserved": 0, "lon": -77.02823883333333, "is_disabled": 0, "fusion_lat": 0.0, "lat": 38.89374333333333, "bike_id": "3b0e802a72818df87f84652b8eea789b", "fusion_lon": 0.0}, {"rental_uris": {"ios": "https://dc.lft.to/lastmile_qr_scan", "android": "https://dc.lft.to/lastmile_qr_scan"}, "type": "electric_scooter", "name": "25cb445637fc4b5f1376bb512ad93884", "is_reserved": 0, "lon": -77.03172583333334, "is_disabled": 0, "fusion_lat": 0.0, "lat": 38.914231, "bike_id": "25cb445637fc4b5f1376bb512ad93884", "fusion_lon": 0.0}, {"rental_uris": {"ios": "https://dc.lft.to/lastmile_qr_scan", "android": "https://dc.lft.to/lastmile_qr_scan"}, "type": "electric_scooter", "name": "cb7f16872769c2b659c3417c08953d89", "is_reserved": 0, "lon": -77.04882633333334, "is_disabled": 0, "fusion_lat": 0.0, "lat": 38.91029283333334, "bike_id": "cb7f16872769c2b659c3417c08953d89", "fusion_lon": 0.0}, {"rental_uris": {"ios": "https://dc.lft.to/lastmile_qr_scan", "android": "https://dc.lft.to/lastmile_qr_scan"}, "type": "electric_scooter", "name": "59488a8f64820642c157989ccb2ea72a", "is_reserved": 0, "lon": -77.00555133333333, "is_disabled": 0, "fusion_lat": 0.0, "lat": 38.911951333333334, "bike_id": "59488a8f64820642c157989ccb2ea72a", "fusion_lon": 0.0}, {"rental_uris": {"ios": "https://dc.lft.to/lastmile_qr_scan", "android": "https://dc.lft.to/lastmile_qr_scan"}, "type": "electric_scooter", "name": "c8fb654d1792c363496d0b5c03570d74", "is_reserved": 0, "lon": -77.03848183333334, "is_disabled": 0, "fusion_lat": 0.0, "lat": 38.90951483333333, "bike_id": "c8fb654d1792c363496d0b5c03570d74", "fusion_lon": 0.0}, {"rental_uris": {"ios": "https://dc.lft.to/lastmile_qr_scan", "android": "https://dc.lft.to/lastmile_qr_scan"}, "type": "electric_scooter", "name": "586ecfff041463dc94cd48031f45a5f6", "is_reserved": 0, "lon": -77.0029495, "is_disabled": 0, "fusion_lat": 0.0, "lat": 38.909008, "bike_id": "586ecfff041463dc94cd48031f45a5f6", "fusion_lon": 0.0}, {"rental_uris": {"ios": "https://dc.lft.to/lastmile_qr_scan", "android": "https://dc.lft.to/lastmile_qr_scan"}, "type": "electric_bike", "name": "6afc6c1e0d9ecfff18e0288e25d1ac47", "is_reserved": 0, "lon": -77.06169583333333, "is_disabled": 0, "fusion_lat": 0.0, "lat": 38.92912666666667, "bike_id": "6afc6c1e0d9ecfff18e0288e25d1ac47", "fusion_lon": 0.0}, {"rental_uris": {"ios": "https://dc.lft.to/lastmile_qr_scan", "android": "https://dc.lft.to/lastmile_qr_scan"}, "type": "electric_bike", "name": "833085acc61c7a76e224e3254e19e1a9", "is_reserved": 0, "lon": -77.0401425, "is_disabled": 0, "fusion_lat": 0.0, "lat": 38.92894483333333, "bike_id": "833085acc61c7a76e224e3254e19e1a9", "fusion_lon": 0.0}, {"rental_uris": {"ios": "https://dc.lft.to/lastmile_qr_scan", "android": "https://dc.lft.to/lastmile_qr_scan"}, "type": "electric_bike", "name": "56a939aacc6597e93383d43afb78fdfe", "is_reserved": 0, "lon": -76.96329516666667, "is_disabled": 0, "fusion_lat": 0.0, "lat": 38.93899533333333, "bike_id": "56a939aacc6597e93383d43afb78fdfe", "fusion_lon": 0.0}, {"rental_uris": {"ios": "https://dc.lft.to/lastmile_qr_scan", "android": "https://dc.lft.to/lastmile_qr_scan"}, "type": "electric_scooter", "name": "bc3da9d498d326b13700c3ace7415b48", "is_reserved": 0, "lon": -77.03819283333333, "is_disabled": 0, "fusion_lat": 0.0, "lat": 38.9082615, "bike_id": "bc3da9d498d326b13700c3ace7415b48", "fusion_lon": 0.0}, {"rental_uris": {"ios": "https://dc.lft.to/lastmile_qr_scan", "android": "https://dc.lft.to/lastmile_qr_scan"}, "type": "electric_scooter", "name": "ffd074d83a9054bd5a52a94724861843", "is_reserved": 0, "lon": -77.046341, "is_disabled": 0, "fusion_lat": 0.0, "lat": 38.90067483333333, "bike_id": "ffd074d83a9054bd5a52a94724861843", "fusion_lon": 0.0}, {"rental_uris": {"ios": "https://dc.lft.to/lastmile_qr_scan", "android": "https://dc.lft.to/lastmile_qr_scan"}, "type": "electric_scooter", "name": "7dfb24bdce9fb3f32384d2d4964d9c97", "is_reserved": 0, "lon": -77.042815, "is_disabled": 0, "fusion_lat": 0.0, "lat": 38.922731666666664, "bike_id": "7dfb24bdce9fb3f32384d2d4964d9c97", "fusion_lon": 0.0}, {"rental_uris": {"ios": "https://dc.lft.to/lastmile_qr_scan", "android": "https://dc.lft.to/lastmile_qr_scan"}, "type": "electric_scooter", "name": "1dff1e22699e4ba5c9585550e52ad28a", "is_reserved": 0, "lon": -77.01772816666667, "is_disabled": 0, "fusion_lat": 0.0, "lat": 38.92051033333333, "bike_id": "1dff1e22699e4ba5c9585550e52ad28a", "fusion_lon": 0.0}, {"rental_uris": {"ios": "https://dc.lft.to/lastmile_qr_scan", "android": "https://dc.lft.to/lastmile_qr_scan"}, "type": "electric_scooter", "name": "dc8745f64f52123814034a214938a860", "is_reserved": 0, "lon": -77.0297695, "is_disabled": 0, "fusion_lat": 0.0, "lat": 38.91691466666666, "bike_id": "dc8745f64f52123814034a214938a860", "fusion_lon": 0.0}, {"rental_uris": {"ios": "https://dc.lft.to/lastmile_qr_scan", "android": "https://dc.lft.to/lastmile_qr_scan"}, "type": "electric_bike", "name": "90c33a93fb59f7225940c7660feadd95", "is_reserved": 0, "lon": -77.08141, "is_disabled": 0, "fusion_lat": 0.0, "lat": 38.82299, "bike_id": "90c33a93fb59f7225940c7660feadd95", "fusion_lon": 0.0}, {"rental_uris": {"ios": "https://dc.lft.to/lastmile_qr_scan", "android": "https://dc.lft.to/lastmile_qr_scan"}, "type": "electric_scooter", "name": "9c852baa2053345edb621ac8c828166c", "is_reserved": 0, "lon": -77.03929, "is_disabled": 0, "fusion_lat": 0.0, "lat": 38.91559016666667, "bike_id": "9c852baa2053345edb621ac8c828166c", "fusion_lon": 0.0}, {"rental_uris": {"ios": "https://dc.lft.to/lastmile_qr_scan", "android": "https://dc.lft.to/lastmile_qr_scan"}, "type": "electric_scooter", "name": "b08aaf1c837aa471610a3d03417cab73", "is_reserved": 0, "lon": -77.0393865, "is_disabled": 0, "fusion_lat": 0.0, "lat": 38.90139533333333, "bike_id": "b08aaf1c837aa471610a3d03417cab73", "fusion_lon": 0.0}, {"rental_uris": {"ios": "https://dc.lft.to/lastmile_qr_scan", "android": "https://dc.lft.to/lastmile_qr_scan"}, "type": "electric_scooter", "name": "aad81074ccdb33f408bb8c4c14eb8ba7", "is_reserved": 0, "lon": -77.04189233333334, "is_disabled": 0, "fusion_lat": 0.0, "lat": 38.91667483333333, "bike_id": "aad81074ccdb33f408bb8c4c14eb8ba7", "fusion_lon": 0.0}, {"rental_uris": {"ios": "https://dc.lft.to/lastmile_qr_scan", "android": "https://dc.lft.to/lastmile_qr_scan"}, "type": "electric_scooter", "name": "e39de761675e86787a482ccb15e56a4b", "is_reserved": 0, "lon": -77.0243275, "is_disabled": 0, "fusion_lat": 0.0, "lat": 38.926630833333334, "bike_id": "e39de761675e86787a482ccb15e56a4b", "fusion_lon": 0.0}, {"rental_uris": {"ios": "https://dc.lft.to/lastmile_qr_scan", "android": "https://dc.lft.to/lastmile_qr_scan"}, "type": "electric_scooter", "name": "7238344658289e4d2ee973994906571a", "is_reserved": 0, "lon": -77.039327, "is_disabled": 0, "fusion_lat": 0.0, "lat": 38.932806, "bike_id": "7238344658289e4d2ee973994906571a", "fusion_lon": 0.0}, {"rental_uris": {"ios": "https://dc.lft.to/lastmile_qr_scan", "android": "https://dc.lft.to/lastmile_qr_scan"}, "type": "electric_scooter", "name": "f2c2b8f36429f5830a2a3aea08df923e", "is_reserved": 0, "lon": -77.02402166666667, "is_disabled": 0, "fusion_lat": 0.0, "lat": 38.91792483333333, "bike_id": "f2c2b8f36429f5830a2a3aea08df923e", "fusion_lon": 0.0}, {"rental_uris": {"ios": "https://dc.lft.to/lastmile_qr_scan", "android": "https://dc.lft.to/lastmile_qr_scan"}, "type": "electric_scooter", "name": "897d467ae217026a04fe20e1e1ab70ea", "is_reserved": 0, "lon": -77.008163, "is_disabled": 0, "fusion_lat": 0.0, "lat": 38.91707666666667, "bike_id": "897d467ae217026a04fe20e1e1ab70ea", "fusion_lon": 0.0}, {"rental_uris": {"ios": "https://dc.lft.to/lastmile_qr_scan", "android": "https://dc.lft.to/lastmile_qr_scan"}, "type": "electric_scooter", "name": "fc449aaf58e100a4ab93743b33842586", "is_reserved": 0, "lon": -77.0212275, "is_disabled": 0, "fusion_lat": 0.0, "lat": 38.91560333333334, "bike_id": "fc449aaf58e100a4ab93743b33842586", "fusion_lon": 0.0}, {"rental_uris": {"ios": "https://dc.lft.to/lastmile_qr_scan", "android": "https://dc.lft.to/lastmile_qr_scan"}, "type": "electric_scooter", "name": "de9f7eb072f0d929cd26ae4a46d57a77", "is_reserved": 0, "lon": -77.0194455, "is_disabled": 0, "fusion_lat": 0.0, "lat": 38.947052, "bike_id": "de9f7eb072f0d929cd26ae4a46d57a77", "fusion_lon": 0.0}, {"rental_uris": {"ios": "https://dc.lft.to/lastmile_qr_scan", "android": "https://dc.lft.to/lastmile_qr_scan"}, "type": "electric_bike", "name": "0badc7acad1becbf219550914667a67e", "is_reserved": 0, "lon": -76.96088633333333, "is_disabled": 0, "fusion_lat": 0.0, "lat": 38.9186285, "bike_id": "0badc7acad1becbf219550914667a67e", "fusion_lon": 0.0}, {"rental_uris": {"ios": "https://dc.lft.to/lastmile_qr_scan", "android": "https://dc.lft.to/lastmile_qr_scan"}, "type": "electric_scooter", "name": "a5714a2ee74b4026874222bfe4668586", "is_reserved": 0, "lon": -76.99966466666666, "is_disabled": 0, "fusion_lat": 0.0, "lat": 38.9085435, "bike_id": "a5714a2ee74b4026874222bfe4668586", "fusion_lon": 0.0}, {"rental_uris": {"ios": "https://dc.lft.to/lastmile_qr_scan", "android": "https://dc.lft.to/lastmile_qr_scan"}, "type": "electric_scooter", "name": "58961997440b5452450288ef58e2ed2d", "is_reserved": 0, "lon": -77.04459016666667, "is_disabled": 0, "fusion_lat": 0.0, "lat": 38.90146933333333, "bike_id": "58961997440b5452450288ef58e2ed2d", "fusion_lon": 0.0}, {"rental_uris": {"ios": "https://dc.lft.to/lastmile_qr_scan", "android": "https://dc.lft.to/lastmile_qr_scan"}, "type": "electric_scooter", "name": "e194ac16204f6ff4b1b8043f533875e6", "is_reserved": 0, "lon": -77.04336283333333, "is_disabled": 0, "fusion_lat": 0.0, "lat": 38.917847, "bike_id": "e194ac16204f6ff4b1b8043f533875e6", "fusion_lon": 0.0}, {"rental_uris": {"ios": "https://dc.lft.to/lastmile_qr_scan", "android": "https://dc.lft.to/lastmile_qr_scan"}, "type": "electric_scooter", "name": "557f99ed28c56503d6d804a7f17cc92f", "is_reserved": 0, "lon": -77.03231983333333, "is_disabled": 0, "fusion_lat": 0.0, "lat": 38.914095833333334, "bike_id": "557f99ed28c56503d6d804a7f17cc92f", "fusion_lon": 0.0}, {"rental_uris": {"ios": "https://dc.lft.to/lastmile_qr_scan", "android": "https://dc.lft.to/lastmile_qr_scan"}, "type": "electric_scooter", "name": "538d5c0c8a0a74e2e443fb59dda62bf9", "is_reserved": 0, "lon": -77.00537733333333, "is_disabled": 0, "fusion_lat": 0.0, "lat": 38.87934966666667, "bike_id": "538d5c0c8a0a74e2e443fb59dda62bf9", "fusion_lon": 0.0}, {"rental_uris": {"ios": "https://dc.lft.to/lastmile_qr_scan", "android": "https://dc.lft.to/lastmile_qr_scan"}, "type": "electric_bike", "name": "d9fd3f4fc5387443410c9a6085d0b92c", "is_reserved": 0, "lon": -76.97310566666667, "is_disabled": 0, "fusion_lat": 0.0, "lat": 38.917639333333334, "bike_id": "d9fd3f4fc5387443410c9a6085d0b92c", "fusion_lon": 0.0}, {"rental_uris": {"ios": "https://dc.lft.to/lastmile_qr_scan", "android": "https://dc.lft.to/lastmile_qr_scan"}, "type": "electric_scooter", "name": "726c6d5f42a9f5d1716358c8fda4e64d", "is_reserved": 0, "lon": -77.0295875, "is_disabled": 0, "fusion_lat": 0.0, "lat": 38.9065475, "bike_id": "726c6d5f42a9f5d1716358c8fda4e64d", "fusion_lon": 0.0}, {"rental_uris": {"ios": "https://dc.lft.to/lastmile_qr_scan", "android": "https://dc.lft.to/lastmile_qr_scan"}, "type": "electric_scooter", "name": "f503221ca454613900f1881c978d5f7d", "is_reserved": 0, "lon": -77.031744, "is_disabled": 0, "fusion_lat": 0.0, "lat": 38.915533333333336, "bike_id": "f503221ca454613900f1881c978d5f7d", "fusion_lon": 0.0}, {"rental_uris": {"ios": "https://dc.lft.to/lastmile_qr_scan", "android": "https://dc.lft.to/lastmile_qr_scan"}, "type": "electric_scooter", "name": "353916f5436e702522577dcb300badcd", "is_reserved": 0, "lon": -77.04440416666667, "is_disabled": 0, "fusion_lat": 0.0, "lat": 38.917867333333334, "bike_id": "353916f5436e702522577dcb300badcd", "fusion_lon": 0.0}, {"rental_uris": {"ios": "https://dc.lft.to/lastmile_qr_scan", "android": "https://dc.lft.to/lastmile_qr_scan"}, "type": "electric_scooter", "name": "a12462d13e9158a0f0c4053c4dfa9c0b", "is_reserved": 0, "lon": -77.03166833333333, "is_disabled": 0, "fusion_lat": 0.0, "lat": 38.9142, "bike_id": "a12462d13e9158a0f0c4053c4dfa9c0b", "fusion_lon": 0.0}, {"rental_uris": {"ios": "https://dc.lft.to/lastmile_qr_scan", "android": "https://dc.lft.to/lastmile_qr_scan"}, "type": "electric_scooter", "name": "14221cbc89ca222492fc5f923ad4fa09", "is_reserved": 0, "lon": -77.01020516666667, "is_disabled": 0, "fusion_lat": 0.0, "lat": 38.9126375, "bike_id": "14221cbc89ca222492fc5f923ad4fa09", "fusion_lon": 0.0}, {"rental_uris": {"ios": "https://dc.lft.to/lastmile_qr_scan", "android": "https://dc.lft.to/lastmile_qr_scan"}, "type": "electric_scooter", "name": "abf919da40db330dc01a0a69a8b93861", "is_reserved": 0, "lon": -76.99424483333334, "is_disabled": 0, "fusion_lat": 0.0, "lat": 38.916872833333336, "bike_id": "abf919da40db330dc01a0a69a8b93861", "fusion_lon": 0.0}, {"rental_uris": {"ios": "https://dc.lft.to/lastmile_qr_scan", "android": "https://dc.lft.to/lastmile_qr_scan"}, "type": "electric_scooter", "name": "474de77f1b5860e23bb8306fe2432b16", "is_reserved": 0, "lon": -77.0432335, "is_disabled": 0, "fusion_lat": 0.0, "lat": 38.908876666666664, "bike_id": "474de77f1b5860e23bb8306fe2432b16", "fusion_lon": 0.0}, {"rental_uris": {"ios": "https://dc.lft.to/lastmile_qr_scan", "android": "https://dc.lft.to/lastmile_qr_scan"}, "type": "electric_scooter", "name": "90fb9524b885e791bbbb5e9730e30d9a", "is_reserved": 0, "lon": -76.99912533333334, "is_disabled": 0, "fusion_lat": 0.0, "lat": 38.909406833333335, "bike_id": "90fb9524b885e791bbbb5e9730e30d9a", "fusion_lon": 0.0}, {"rental_uris": {"ios": "https://dc.lft.to/lastmile_qr_scan", "android": "https://dc.lft.to/lastmile_qr_scan"}, "type": "electric_scooter", "name": "7cf4519a0c8a798c67bb7354d2025d2f", "is_reserved": 0, "lon": -77.04738133333333, "is_disabled": 0, "fusion_lat": 0.0, "lat": 38.89554833333333, "bike_id": "7cf4519a0c8a798c67bb7354d2025d2f", "fusion_lon": 0.0}, {"rental_uris": {"ios": "https://dc.lft.to/lastmile_qr_scan", "android": "https://dc.lft.to/lastmile_qr_scan"}, "type": "electric_scooter", "name": "7908b4309674c827f3f926b77a5d7357", "is_reserved": 0, "lon": -77.0055585, "is_disabled": 0, "fusion_lat": 0.0, "lat": 38.87537866666667, "bike_id": "7908b4309674c827f3f926b77a5d7357", "fusion_lon": 0.0}, {"rental_uris": {"ios": "https://dc.lft.to/lastmile_qr_scan", "android": "https://dc.lft.to/lastmile_qr_scan"}, "type": "electric_scooter", "name": "4e11a2d106ab8ef534e0ca9762845c9e", "is_reserved": 0, "lon": -77.03845133333333, "is_disabled": 0, "fusion_lat": 0.0, "lat": 38.90676, "bike_id": "4e11a2d106ab8ef534e0ca9762845c9e", "fusion_lon": 0.0}, {"rental_uris": {"ios": "https://dc.lft.to/lastmile_qr_scan", "android": "https://dc.lft.to/lastmile_qr_scan"}, "type": "electric_scooter", "name": "fab55eaa768b7d57c19a9f2a7e82ab47", "is_reserved": 0, "lon": -77.02581083333334, "is_disabled": 0, "fusion_lat": 0.0, "lat": 38.913456, "bike_id": "fab55eaa768b7d57c19a9f2a7e82ab47", "fusion_lon": 0.0}, {"rental_uris": {"ios": "https://dc.lft.to/lastmile_qr_scan", "android": "https://dc.lft.to/lastmile_qr_scan"}, "type": "electric_scooter", "name": "4152970e47af823fd8f68f7e1937fdbf", "is_reserved": 0, "lon": -76.992196, "is_disabled": 0, "fusion_lat": 0.0, "lat": 38.889739166666665, "bike_id": "4152970e47af823fd8f68f7e1937fdbf", "fusion_lon": 0.0}, {"rental_uris": {"ios": "https://dc.lft.to/lastmile_qr_scan", "android": "https://dc.lft.to/lastmile_qr_scan"}, "type": "electric_scooter", "name": "047cba80e9db60892b850e875c82015c", "is_reserved": 0, "lon": -77.06149966666666, "is_disabled": 0, "fusion_lat": 0.0, "lat": 38.91303283333333, "bike_id": "047cba80e9db60892b850e875c82015c", "fusion_lon": 0.0}, {"rental_uris": {"ios": "https://dc.lft.to/lastmile_qr_scan", "android": "https://dc.lft.to/lastmile_qr_scan"}, "type": "electric_scooter", "name": "d96a7a451b38f4813e5948a3ed07aa58", "is_reserved": 0, "lon": -76.9948055, "is_disabled": 0, "fusion_lat": 0.0, "lat": 38.86216733333333, "bike_id": "d96a7a451b38f4813e5948a3ed07aa58", "fusion_lon": 0.0}, {"rental_uris": {"ios": "https://dc.lft.to/lastmile_qr_scan", "android": "https://dc.lft.to/lastmile_qr_scan"}, "type": "electric_scooter", "name": "395c0d28ab658542157758fc5f34dad8", "is_reserved": 0, "lon": -77.02819683333334, "is_disabled": 0, "fusion_lat": 0.0, "lat": 38.904697166666665, "bike_id": "395c0d28ab658542157758fc5f34dad8", "fusion_lon": 0.0}, {"rental_uris": {"ios": "https://dc.lft.to/lastmile_qr_scan", "android": "https://dc.lft.to/lastmile_qr_scan"},