{"data": {"bikes": [{"rental_uris": {"ios": "https://dc.lft.to/lastmile_qr_scan", "android": "https://dc.lft.to/lastmile_qr_scan"}, "lon": -77.00888883333333, "type": "electric_scooter", "fusion_lat": 0.0, "lat": 38.912335, "name": "b8f7ce3509f5dcf278fb3eda29f85941", "fusion_lon": 0.0, "bike_id": "b8f7ce3509f5dcf278fb3eda29f85941", "is_disabled": 0, "is_reserved": 0}, {"rental_uris": {"ios": "https://dc.lft.to/lastmile_qr_scan", "android": "https://dc.lft.to/lastmile_qr_scan"}, "lon": -77.016046, "type": "electric_scooter", "fusion_lat": 0.0, "lat": 38.911357333333335, "name": "eb37b5508c9740888a8b50328723d03c", "fusion_lon": 0.0, "bike_id": "eb37b5508c9740888a8b50328723d03c", "is_disabled": 0, "is_reserved": 0}, {"rental_uris": {"ios": "https://dc.lft.to/lastmile_qr_scan", "android": "https://dc.lft.to/lastmile_qr_scan"}, "lon": -76.9317515, "type": "electric_scooter", "fusion_lat": 0.0, "lat": 38.89885183333333, "name": "221c70cadce3d066f5d57e3394a896f2", "fusion_lon": 0.0, "bike_id": "221c70cadce3d066f5d57e3394a896f2", "is_disabled": 0, "is_reserved": 0}, {"rental_uris": {"ios": "https://dc.lft.to/lastmile_qr_scan", "android": "https://dc.lft.to/lastmile_qr_scan"}, "lon": -76.92711533333333, "type": "electric_scooter", "fusion_lat": 0.0, "lat": 38.8876965, "name": "d86485fa4dabe8886cec4ee7353d9179", "fusion_lon": 0.0, "bike_id": "d86485fa4dabe8886cec4ee7353d9179", "is_disabled": 0, "is_reserved": 0}, {"rental_uris": {"ios": "https://dc.lft.to/lastmile_qr_scan", "android": "https://dc.lft.to/lastmile_qr_scan"}, "lon": -77.04555766666667, "type": "electric_scooter", "fusion_lat": 0.0, "lat": 38.912699833333335, "name": "c3f5e0b9bc6decf39a42fd9db166812a", "fusion_lon": 0.0, "bike_id": "c3f5e0b9bc6decf39a42fd9db166812a", "is_disabled": 0, "is_reserved": 0}, {"rental_uris": {"ios": "https://dc.lft.to/lastmile_qr_scan", "android": "https://dc.lft.to/lastmile_qr_scan"}, "lon": -77.03165616666666, "type": "electric_scooter", "fusion_lat": 0.0, "lat": 38.897651, "name": "872a1cf6de242b93a75063e4e1d03792", "fusion_lon": 0.0, "bike_id": "872a1cf6de242b93a75063e4e1d03792", "is_disabled": 0, "is_reserved": 0}, {"rental_uris": {"ios": "https://dc.lft.to/lastmile_qr_scan", "android": "https://dc.lft.to/lastmile_qr_scan"}, "lon": -77.360879, "type": "electric_bike", "fusion_lat": 0.0, "lat": 38.939551, "name": "80166aa3d5fa003d012ede3aa53ba1dd", "fusion_lon": 0.0, "bike_id": "80166aa3d5fa003d012ede3aa53ba1dd", "is_disabled": 0, "is_reserved": 0}, {"rental_uris": {"ios": "https://dc.lft.to/lastmile_qr_scan", "android": "https://dc.lft.to/lastmile_qr_scan"}, "lon": -77.02177516666667, "type": "electric_scooter", "fusion_lat": 0.0, "lat": 38.898886833333336, "name": "35a13b961fd5c9d7998ee5328f3bcc67", "fusion_lon": 0.0, "bike_id": "35a13b961fd5c9d7998ee5328f3bcc67", "is_disabled": 0, "is_reserved": 0}, {"rental_uris": {"ios": "https://dc.lft.to/lastmile_qr_scan", "android": "https://dc.lft.to/lastmile_qr_scan"}, "lon": -77.0209745, "type": "electric_scooter", "fusion_lat": 0.0, "lat": 38.9101115, "name": "a0d38d184d95339ae8f0f7487b955efa", "fusion_lon": 0.0, "bike_id": "a0d38d184d95339ae8f0f7487b955efa", "is_disabled": 0, "is_reserved": 0}, {"rental_uris": {"ios": "https://dc.lft.to/lastmile_qr_scan", "android": "https://dc.lft.to/lastmile_qr_scan"}, "lon": -77.03291683333333, "type": "electric_scooter", "fusion_lat": 0.0, "lat": 38.922196166666666, "name": "b8ba6d57a1e477e3ca5e52f68046c4e3", "fusion_lon": 0.0, "bike_id": "b8ba6d57a1e477e3ca5e52f68046c4e3", "is_disabled": 0, "is_reserved": 0}, {"rental_uris": {"ios": "https://dc.lft.to/lastmile_qr_scan", "android": "https://dc.lft.to/lastmile_qr_scan"}, "lon": -77.05002783333333, "type": "electric_scooter", "fusion_lat": 0.0, "lat": 38.892305666666665, "name": "8d7ae17481eca6a8db5104d8bb43f591", "fusion_lon": 0.0, "bike_id": "8d7ae17481eca6a8db5104d8bb43f591", "is_disabled": 0, "is_reserved": 0}, {"rental_uris": {"ios": "https://dc.lft.to/lastmile_qr_scan", "android": "https://dc.lft.to/lastmile_qr_scan"}, "lon": -77.0280595, "type": "electric_scooter", "fusion_lat": 0.0, "lat": 38.893498666666666, "name": "5aa8925c2e429d212ee12668daa7b67e", "fusion_lon": 0.0, "bike_id": "5aa8925c2e429d212ee12668daa7b67e", "is_disabled": 0, "is_reserved": 0}, {"rental_uris": {"ios": "https://dc.lft.to/lastmile_qr_scan", "android": "https://dc.lft.to/lastmile_qr_scan"}, "lon": -77.04084183333333, "type": "electric_scooter", "fusion_lat": 0.0, "lat": 38.90738733333333, "name": "11f3c31229578b9508f394c34055ce0a", "fusion_lon": 0.0, "bike_id": "11f3c31229578b9508f394c34055ce0a", "is_disabled": 0, "is_reserved": 0}, {"rental_uris": {"ios": "https://dc.lft.to/lastmile_qr_scan", "android": "https://dc.lft.to/lastmile_qr_scan"}, "lon": -76.97985166666666, "type": "electric_bike", "fusion_lat": 0.0, "lat": 38.87752016666666, "name": "abda4e44d43ee07b1ec3fd7eed25bd1b", "fusion_lon": 0.0, "bike_id": "abda4e44d43ee07b1ec3fd7eed25bd1b", "is_disabled": 0, "is_reserved": 0}, {"rental_uris": {"ios": "https://dc.lft.to/lastmile_qr_scan", "android": "https://dc.lft.to/lastmile_qr_scan"}, "lon": -77.13594566666667, "type": "electric_bike", "fusion_lat": 0.0, "lat": 39.0534705, "name": "bd24e025498efa4d3a2bbfcbb8f7f13e", "fusion_lon": 0.0, "bike_id": "bd24e025498efa4d3a2bbfcbb8f7f13e", "is_disabled": 0, "is_reserved": 0}, {"rental_uris": {"ios": "https://dc.lft.to/lastmile_qr_scan", "android": "https://dc.lft.to/lastmile_qr_scan"}, "lon": -76.98631066666667, "type": "electric_scooter", "fusion_lat": 0.0, "lat": 38.86818733333333, "name": "7ee351604bc1203c0f91de5b77c901ae", "fusion_lon": 0.0, "bike_id": "7ee351604bc1203c0f91de5b77c901ae", "is_disabled": 0, "is_reserved": 0}, {"rental_uris": {"ios": "https://dc.lft.to/lastmile_qr_scan", "android": "https://dc.lft.to/lastmile_qr_scan"}, "lon": -77.03343216666667, "type": "electric_scooter", "fusion_lat": 0.0, "lat": 38.91909483333333, "name": "27608d196acf148a8033212b1375421f", "fusion_lon": 0.0, "bike_id": "27608d196acf148a8033212b1375421f", "is_disabled": 0, "is_reserved": 0}, {"rental_uris": {"ios": "https://dc.lft.to/lastmile_qr_scan", "android": "https://dc.lft.to/lastmile_qr_scan"}, "lon": -77.05251366666667, "type": "electric_scooter", "fusion_lat": 0.0, "lat": 38.923749666666666, "name": "24ec3847847f960f2c03599b8c2e3e86", "fusion_lon": 0.0, "bike_id": "24ec3847847f960f2c03599b8c2e3e86", "is_disabled": 0, "is_reserved": 0}, {"rental_uris": {"ios": "https://dc.lft.to/lastmile_qr_scan", "android": "https://dc.lft.to/lastmile_qr_scan"}, "lon": -77.0125975, "type": "electric_scooter", "fusion_lat": 0.0, "lat": 38.899661, "name": "4d48e8f8682673f3a48b7b6810e9c9e6", "fusion_lon": 0.0, "bike_id": "4d48e8f8682673f3a48b7b6810e9c9e6", "is_disabled": 0, "is_reserved": 0}, {"rental_uris": {"ios": "https://dc.lft.to/lastmile_qr_scan", "android": "https://dc.lft.to/lastmile_qr_scan"}, "lon": -76.99001783333334, "type": "electric_scooter", "fusion_lat": 0.0, "lat": 38.86504266666667, "name": "04836d247fdd98046a5f2b0e1319e636", "fusion_lon": 0.0, "bike_id": "04836d247fdd98046a5f2b0e1319e636", "is_disabled": 0, "is_reserved": 0}, {"rental_uris": {"ios": "https://dc.lft.to/lastmile_qr_scan", "android": "https://dc.lft.to/lastmile_qr_scan"}, "lon": -77.03560983333334, "type": "electric_scooter", "fusion_lat": 0.0, "lat": 38.926742, "name": "eda2cd0d1a83fb9fd80559f286d139a5", "fusion_lon": 0.0, "bike_id": "eda2cd0d1a83fb9fd80559f286d139a5", "is_disabled": 0, "is_reserved": 0}, {"rental_uris": {"ios": "https://dc.lft.to/lastmile_qr_scan", "android": "https://dc.lft.to/lastmile_qr_scan"}, "lon": -77.02671133333334, "type": "electric_scooter", "fusion_lat": 0.0, "lat": 38.91695383333333, "name": "b53cb9e6aeaa26154c7847a23bd81389", "fusion_lon": 0.0, "bike_id": "b53cb9e6aeaa26154c7847a23bd81389", "is_disabled": 0, "is_reserved": 0}, {"rental_uris": {"ios": "https://dc.lft.to/lastmile_qr_scan", "android": "https://dc.lft.to/lastmile_qr_scan"}, "lon": -76.93810333333333, "type": "electric_scooter", "fusion_lat": 0.0, "lat": 38.91307533333333, "name": "a4720ffa8bd71596f2ade476319a030d", "fusion_lon": 0.0, "bike_id": "a4720ffa8bd71596f2ade476319a030d", "is_disabled": 0, "is_reserved": 0}, {"rental_uris": {"ios": "https://dc.lft.to/lastmile_qr_scan", "android": "https://dc.lft.to/lastmile_qr_scan"}, "lon": -77.03460516666667, "type": "electric_scooter", "fusion_lat": 0.0, "lat": 38.91666016666667, "name": "38551e41f763c2fea340027cb455e081", "fusion_lon": 0.0, "bike_id": "38551e41f763c2fea340027cb455e081", "is_disabled": 0, "is_reserved": 0}, {"rental_uris": {"ios": "https://dc.lft.to/lastmile_qr_scan", "android": "https://dc.lft.to/lastmile_qr_scan"}, "lon": -77.06665666666666, "type": "electric_scooter", "fusion_lat": 0.0, "lat": 38.9497245, "name": "62b3bf0d9e53607b935a4332824f3043", "fusion_lon": 0.0, "bike_id": "62b3bf0d9e53607b935a4332824f3043", "is_disabled": 0, "is_reserved": 0}, {"rental_uris": {"ios": "https://dc.lft.to/lastmile_qr_scan", "android": "https://dc.lft.to/lastmile_qr_scan"}, "lon": -77.04318866666667, "type": "electric_scooter", "fusion_lat": 0.0, "lat": 38.89588366666667, "name": "82c3f0974758a587726ea9b02cabc68d", "fusion_lon": 0.0, "bike_id": "82c3f0974758a587726ea9b02cabc68d", "is_disabled": 0, "is_reserved": 0}, {"rental_uris": {"ios": "https://dc.lft.to/lastmile_qr_scan", "android": "https://dc.lft.to/lastmile_qr_scan"}, "lon": -77.0493, "type": "electric_scooter", "fusion_lat": 0.0, "lat": 38.89673, "name": "0eca7590adf4d448b01ae3ff8098e85c", "fusion_lon": 0.0, "bike_id": "0eca7590adf4d448b01ae3ff8098e85c", "is_disabled": 0, "is_reserved": 0}, {"rental_uris": {"ios": "https://dc.lft.to/lastmile_qr_scan", "android": "https://dc.lft.to/lastmile_qr_scan"}, "lon": -76.97889833333333, "type": "electric_scooter", "fusion_lat": 0.0, "lat": 38.916742666666664, "name": "6d7133ee05f30f8665267eb7d94fcc61", "fusion_lon": 0.0, "bike_id": "6d7133ee05f30f8665267eb7d94fcc61", "is_disabled": 0, "is_reserved": 0}, {"rental_uris": {"ios": "https://dc.lft.to/lastmile_qr_scan", "android": "https://dc.lft.to/lastmile_qr_scan"}, "lon": -77.1273825, "type": "electric_bike", "fusion_lat": 0.0, "lat": 38.8881865, "name": "4ac4f95972a1a8d4b7614e718d7a54b2", "fusion_lon": 0.0, "bike_id": "4ac4f95972a1a8d4b7614e718d7a54b2", "is_disabled": 0, "is_reserved": 0}, {"rental_uris": {"ios": "https://dc.lft.to/lastmile_qr_scan", "android": "https://dc.lft.to/lastmile_qr_scan"}, "lon": -77.02391583333333, "type": "electric_scooter", "fusion_lat": 0.0, "lat": 38.90668483333334, "name": "c2b079329475e0077c8ef8a021cc2a64", "fusion_lon": 0.0, "bike_id": "c2b079329475e0077c8ef8a021cc2a64", "is_disabled": 0, "is_reserved": 0}, {"rental_uris": {"ios": "https://dc.lft.to/lastmile_qr_scan", "android": "https://dc.lft.to/lastmile_qr_scan"}, "lon": -77.03168283333333, "type": "electric_scooter", "fusion_lat": 0.0, "lat": 38.896051166666666, "name": "2219507907603e92b768bc946b9220a2", "fusion_lon": 0.0, "bike_id": "2219507907603e92b768bc946b9220a2", "is_disabled": 0, "is_reserved": 0}, {"rental_uris": {"ios": "https://dc.lft.to/lastmile_qr_scan", "android": "https://dc.lft.to/lastmile_qr_scan"}, "lon": -76.98772616666666, "type": "electric_scooter", "fusion_lat": 0.0, "lat": 38.911751833333334, "name": "bf8b1fa64c33fe46c74fa774f4b75f10", "fusion_lon": 0.0, "bike_id": "bf8b1fa64c33fe46c74fa774f4b75f10", "is_disabled": 0, "is_reserved": 0}, {"rental_uris": {"ios": "https://dc.lft.to/lastmile_qr_scan", "android": "https://dc.lft.to/lastmile_qr_scan"}, "lon": -77.040375, "type": "electric_scooter", "fusion_lat": 0.0, "lat": 38.925610666666664, "name": "07e26fde91c49d44495979679215e291", "fusion_lon": 0.0, "bike_id": "07e26fde91c49d44495979679215e291", "is_disabled": 0, "is_reserved": 0}, {"rental_uris": {"ios": "https://dc.lft.to/lastmile_qr_scan", "android": "https://dc.lft.to/lastmile_qr_scan"}, "lon": -77.06162783333333, "type": "electric_scooter", "fusion_lat": 0.0, "lat": 38.94216816666667, "name": "8edb3ad6453048628f9ab48c2089662e", "fusion_lon": 0.0, "bike_id": "8edb3ad6453048628f9ab48c2089662e", "is_disabled": 0, "is_reserved": 0}, {"rental_uris": {"ios": "https://dc.lft.to/lastmile_qr_scan", "android": "https://dc.lft.to/lastmile_qr_scan"}, "lon": -77.0283945, "type": "electric_scooter", "fusion_lat": 0.0, "lat": 38.887664666666666, "name": "cfcdaaf71a0b81eb4cc9eb36a75d3e05", "fusion_lon": 0.0, "bike_id": "cfcdaaf71a0b81eb4cc9eb36a75d3e05", "is_disabled": 0, "is_reserved": 0}, {"rental_uris": {"ios": "https://dc.lft.to/lastmile_qr_scan", "android": "https://dc.lft.to/lastmile_qr_scan"}, "lon": -77.03209883333334, "type": "electric_scooter", "fusion_lat": 0.0, "lat": 38.911348333333336, "name": "06d09c3370b6d0bacba4ce442edf11a1", "fusion_lon": 0.0, "bike_id": "06d09c3370b6d0bacba4ce442edf11a1", "is_disabled": 0, "is_reserved": 0}, {"rental_uris": {"ios": "https://dc.lft.to/lastmile_qr_scan", "android": "https://dc.lft.to/lastmile_qr_scan"}, "lon": -77.02834283333334, "type": "electric_scooter", "fusion_lat": 0.0, "lat": 38.892315833333335, "name": "c5512f6d9d2ee4d2b62fd2d8a601bde4", "fusion_lon": 0.0, "bike_id": "c5512f6d9d2ee4d2b62fd2d8a601bde4", "is_disabled": 0, "is_reserved": 0}, {"rental_uris": {"ios": "https://dc.lft.to/lastmile_qr_scan", "android": "https://dc.lft.to/lastmile_qr_scan"}, "lon": -77.08955116666667, "type": "electric_bike", "fusion_lat": 0.0, "lat": 38.841204833333336, "name": "ab4369804493c18f2fc4be8ef059b4c2", "fusion_lon": 0.0, "bike_id": "ab4369804493c18f2fc4be8ef059b4c2", "is_disabled": 0, "is_reserved": 0}, {"rental_uris": {"ios": "https://dc.lft.to/lastmile_qr_scan", "android": "https://dc.lft.to/lastmile_qr_scan"}, "lon": -77.04507916666667, "type": "electric_scooter", "fusion_lat": 0.0, "lat": 38.905284333333334, "name": "d5993dc46f03ff61e20ffdb6fad907aa", "fusion_lon": 0.0, "bike_id": "d5993dc46f03ff61e20ffdb6fad907aa", "is_disabled": 0, "is_reserved": 0}, {"rental_uris": {"ios": "https://dc.lft.to/lastmile_qr_scan", "android": "https://dc.lft.to/lastmile_qr_scan"}, "lon": -77.0056685, "type": "electric_scooter", "fusion_lat": 0.0, "lat": 38.879250166666665, "name": "2e0fddedccea31bbcbe7370620aa3802", "fusion_lon": 0.0, "bike_id": "2e0fddedccea31bbcbe7370620aa3802", "is_disabled": 0, "is_reserved": 0}, {"rental_uris": {"ios": "https://dc.lft.to/lastmile_qr_scan", "android": "https://dc.lft.to/lastmile_qr_scan"}, "lon": -77.03653783333333, "type": "electric_scooter", "fusion_lat": 0.0, "lat": 38.956247, "name": "db3d54ebc114a51057962348d7c70369", "fusion_lon": 0.0, "bike_id": "db3d54ebc114a51057962348d7c70369", "is_disabled": 0, "is_reserved": 0}, {"rental_uris": {"ios": "https://dc.lft.to/lastmile_qr_scan", "android": "https://dc.lft.to/lastmile_qr_scan"}, "lon": -77.0150725, "type": "electric_scooter", "fusion_lat": 0.0, "lat": 38.89043133333333, "name": "e870c6bb5c39e3b0622e2cf7fca58db2", "fusion_lon": 0.0, "bike_id": "e870c6bb5c39e3b0622e2cf7fca58db2", "is_disabled": 0, "is_reserved": 0}, {"rental_uris": {"ios": "https://dc.lft.to/lastmile_qr_scan", "android": "https://dc.lft.to/lastmile_qr_scan"}, "lon": -77.03554066666666, "type": "electric_scooter", "fusion_lat": 0.0, "lat": 38.908389666666665, "name": "c67a9ce71b20349436f1e4aaf162c684", "fusion_lon": 0.0, "bike_id": "c67a9ce71b20349436f1e4aaf162c684", "is_disabled": 0, "is_reserved": 0}, {"rental_uris": {"ios": "https://dc.lft.to/lastmile_qr_scan", "android": "https://dc.lft.to/lastmile_qr_scan"}, "lon": -77.0321555, "type": "electric_scooter", "fusion_lat": 0.0, "lat": 38.912647666666665, "name": "05f0d54daa707559017f76e57d0c5282", "fusion_lon": 0.0, "bike_id": "05f0d54daa707559017f76e57d0c5282", "is_disabled": 0, "is_reserved": 0}, {"rental_uris": {"ios": "https://dc.lft.to/lastmile_qr_scan", "android": "https://dc.lft.to/lastmile_qr_scan"}, "lon": -77.06120733333333, "type": "electric_scooter", "fusion_lat": 0.0, "lat": 38.90206833333333, "name": "da8412d27b60370687d6cc9555397852", "fusion_lon": 0.0, "bike_id": "da8412d27b60370687d6cc9555397852", "is_disabled": 0, "is_reserved": 0}, {"rental_uris": {"ios": "https://dc.lft.to/lastmile_qr_scan", "android": "https://dc.lft.to/lastmile_qr_scan"}, "lon": -77.12031616666667, "type": "electric_bike", "fusion_lat": 0.0, "lat": 38.855079, "name": "d5d1d6f9c8d2f6a1ee5555482d086dbb", "fusion_lon": 0.0, "bike_id": "d5d1d6f9c8d2f6a1ee5555482d086dbb", "is_disabled": 0, "is_reserved": 0}, {"rental_uris": {"ios": "https://dc.lft.to/lastmile_qr_scan", "android": "https://dc.lft.to/lastmile_qr_scan"}, "lon": -76.93175133333334, "type": "electric_scooter", "fusion_lat": 0.0, "lat": 38.898829, "name": "9bb1ee2a20b5dca5ec5d9068df7b191c", "fusion_lon": 0.0, "bike_id": "9bb1ee2a20b5dca5ec5d9068df7b191c", "is_disabled": 0, "is_reserved": 0}, {"rental_uris": {"ios": "https://dc.lft.to/lastmile_qr_scan", "android": "https://dc.lft.to/lastmile_qr_scan"}, "lon": -77.0465805, "type": "electric_scooter", "fusion_lat": 0.0, "lat": 38.893345, "name": "b21fe53129bcb0622d12e29fe8e8b6b6", "fusion_lon": 0.0, "bike_id": "b21fe53129bcb0622d12e29fe8e8b6b6", "is_disabled": 0, "is_reserved": 0}, {"rental_uris": {"ios": "https://dc.lft.to/lastmile_qr_scan", "android": "https://dc.lft.to/lastmile_qr_scan"}, "lon": -77.0514825, "type": "electric_scooter", "fusion_lat": 0.0, "lat": 38.897756666666666, "name": "aaea891e08a1ca1295aaedc17ca703d5", "fusion_lon": 0.0, "bike_id": "aaea891e08a1ca1295aaedc17ca703d5", "is_disabled": 0, "is_reserved": 0}, {"rental_uris": {"ios": "https://dc.lft.to/lastmile_qr_scan", "android": "https://dc.lft.to/lastmile_qr_scan"}, "lon": -77.002076, "type": "electric_scooter", "fusion_lat": 0.0, "lat": 38.90219783333333, "name": "7f8003d74a928c7a69c2cb1814650fab", "fusion_lon": 0.0, "bike_id": "7f8003d74a928c7a69c2cb1814650fab", "is_disabled": 0, "is_reserved": 0}, {"rental_uris": {"ios": "https://dc.lft.to/lastmile_qr_scan", "android": "https://dc.lft.to/lastmile_qr_scan"}, "lon": -77.03788833333333, "type": "electric_scooter", "fusion_lat": 0.0, "lat": 38.90563383333333, "name": "7da04fc17176d4095917b29149b06b60", "fusion_lon": 0.0, "bike_id": "7da04fc17176d4095917b29149b06b60", "is_disabled": 0, "is_reserved": 0}, {"rental_uris": {"ios": "https://dc.lft.to/lastmile_qr_scan", "android": "https://dc.lft.to/lastmile_qr_scan"}, "lon": -77.0238365, "type": "electric_scooter", "fusion_lat": 0.0, "lat": 38.91595366666667, "name": "a68fecded5f1ec445e0199a06f1d942c", "fusion_lon": 0.0, "bike_id": "a68fecded5f1ec445e0199a06f1d942c", "is_disabled": 0, "is_reserved": 0}, {"rental_uris": {"ios": "https://dc.lft.to/lastmile_qr_scan", "android": "https://dc.lft.to/lastmile_qr_scan"}, "lon": -77.0319405, "type": "electric_scooter", "fusion_lat": 0.0, "lat": 38.912349666666664, "name": "c0d774bc14ba2f41e7c9456141e0f880", "fusion_lon": 0.0, "bike_id": "c0d774bc14ba2f41e7c9456141e0f880", "is_disabled": 0, "is_reserved": 0}, {"rental_uris": {"ios": "https://dc.lft.to/lastmile_qr_scan", "android": "https://dc.lft.to/lastmile_qr_scan"}, "lon": -76.99800166666667, "type": "electric_scooter", "fusion_lat": 0.0, "lat": 38.90856, "name": "b79776e6ed02e5b5b2a5483a46406cf7", "fusion_lon": 0.0, "bike_id": "b79776e6ed02e5b5b2a5483a46406cf7", "is_disabled": 0, "is_reserved": 0}, {"rental_uris": {"ios": "https://dc.lft.to/lastmile_qr_scan", "android": "https://dc.lft.to/lastmile_qr_scan"}, "lon": -77.05005333333334, "type": "electric_scooter", "fusion_lat": 0.0, "lat": 38.892257, "name": "a0b3d8f638b101f898cd638ce25eb296", "fusion_lon": 0.0, "bike_id": "a0b3d8f638b101f898cd638ce25eb296", "is_disabled": 0, "is_reserved": 0}, {"rental_uris": {"ios": "https://dc.lft.to/lastmile_qr_scan", "android": "https://dc.lft.to/lastmile_qr_scan"}, "lon": -77.05300183333334, "type": "electric_scooter", "fusion_lat": 0.0, "lat": 38.927884666666664, "name": "3bc621c1aa8de855b81e5aba5b0d0414", "fusion_lon": 0.0, "bike_id": "3bc621c1aa8de855b81e5aba5b0d0414", "is_disabled": 0, "is_reserved": 0}, {"rental_uris": {"ios": "https://dc.lft.to/lastmile_qr_scan", "android": "https://dc.lft.to/lastmile_qr_scan"}, "lon": -77.12897466666666, "type": "electric_bike", "fusion_lat": 0.0, "lat": 38.86376766666667, "name": "2d236409243baa8543a5ff943d6b7773", "fusion_lon": 0.0, "bike_id": "2d236409243baa8543a5ff943d6b7773", "is_disabled": 0, "is_reserved": 0}, {"rental_uris": {"ios": "https://dc.lft.to/lastmile_qr_scan", "android": "https://dc.lft.to/lastmile_qr_scan"}, "lon": -77.05331666666666, "type": "electric_scooter", "fusion_lat": 0.0, "lat": 38.92332483333333, "name": "87dbced0085f3aaf1acbc8e71b21ca0b", "fusion_lon": 0.0, "bike_id": "87dbced0085f3aaf1acbc8e71b21ca0b", "is_disabled": 0, "is_reserved": 0}, {"rental_uris": {"ios": "https://dc.lft.to/lastmile_qr_scan", "android": "https://dc.lft.to/lastmile_qr_scan"}, "lon": -77.00708316666666, "type": "electric_scooter", "fusion_lat": 0.0, "lat": 38.90569966666666, "name": "75afe2248f1412126b25ff83f0659b3c", "fusion_lon": 0.0, "bike_id": "75afe2248f1412126b25ff83f0659b3c", "is_disabled": 0, "is_reserved": 0}, {"rental_uris": {"ios": "https://dc.lft.to/lastmile_qr_scan", "android": "https://dc.lft.to/lastmile_qr_scan"}, "lon": -77.03767333333333, "type": "electric_scooter", "fusion_lat": 0.0, "lat": 38.9169565, "name": "af06117d0493d426f026f4bba61a189a", "fusion_lon": 0.0, "bike_id": "af06117d0493d426f026f4bba61a189a", "is_disabled": 0, "is_reserved": 0}, {"rental_uris": {"ios": "https://dc.lft.to/lastmile_qr_scan", "android": "https://dc.lft.to/lastmile_qr_scan"}, "lon": -77.01179466666666, "type": "electric_scooter", "fusion_lat": 0.0, "lat": 38.9065335, "name": "7339d45709f0f8a88501285cc895b16f", "fusion_lon": 0.0, "bike_id": "7339d45709f0f8a88501285cc895b16f", "is_disabled": 0, "is_reserved": 0}, {"rental_uris": {"ios": "https://dc.lft.to/lastmile_qr_scan", "android": "https://dc.lft.to/lastmile_qr_scan"}, "lon": -76.94879233333333, "type": "electric_scooter", "fusion_lat": 0.0, "lat": 38.89500266666667, "name": "0452d712d0e68ed62696a8b3ad808bc2", "fusion_lon": 0.0, "bike_id": "0452d712d0e68ed62696a8b3ad808bc2", "is_disabled": 0, "is_reserved": 0}, {"rental_uris": {"ios": "https://dc.lft.to/lastmile_qr_scan", "android": "https://dc.lft.to/lastmile_qr_scan"}, "lon": -77.05322583333333, "type": "electric_scooter", "fusion_lat": 0.0, "lat": 38.93964183333333, "name": "9a733f986cb84e798ef43744866edd39", "fusion_lon": 0.0, "bike_id": "9a733f986cb84e798ef43744866edd39", "is_disabled": 0, "is_reserved": 0}, {"rental_uris": {"ios": "https://dc.lft.to/lastmile_qr_scan", "android": "https://dc.lft.to/lastmile_qr_scan"}, "lon": -77.032053, "type": "electric_scooter", "fusion_lat": 0.0, "lat": 38.9051735, "name": "08685e5ff4ff83838cdd745f5f422f55", "fusion_lon": 0.0, "bike_id": "08685e5ff4ff83838cdd745f5f422f55", "is_disabled": 0, "is_reserved": 0}, {"rental_uris": {"ios": "https://dc.lft.to/lastmile_qr_scan", "android": "https://dc.lft.to/lastmile_qr_scan"}, "lon": -77.03914266666666, "type": "electric_scooter", "fusion_lat": 0.0, "lat": 38.923198666666664, "name": "b3e51d92ee0e9a3c07bdcb25db8fcfe7", "fusion_lon": 0.0, "bike_id": "b3e51d92ee0e9a3c07bdcb25db8fcfe7", "is_disabled": 0, "is_reserved": 0}, {"rental_uris": {"ios": "https://dc.lft.to/lastmile_qr_scan", "android": "https://dc.lft.to/lastmile_qr_scan"}, "lon": -77.02489066666666, "type": "electric_scooter", "fusion_lat": 0.0, "lat": 38.897473166666664, "name": "cb1fbb9d4a8185c6bfea0d646c140de5", "fusion_lon": 0.0, "bike_id": "cb1fbb9d4a8185c6bfea0d646c140de5", "is_disabled": 0, "is_reserved": 0}, {"rental_uris": {"ios": "https://dc.lft.to/lastmile_qr_scan", "android": "https://dc.lft.to/lastmile_qr_scan"}, "lon": -76.94741283333333, "type": "electric_scooter", "fusion_lat": 0.0, "lat": 38.89680283333333, "name": "03e8ab172aa0e5ee2871dbba409c75de", "fusion_lon": 0.0, "bike_id": "03e8ab172aa0e5ee2871dbba409c75de", "is_disabled": 0, "is_reserved": 0}, {"rental_uris": {"ios": "https://dc.lft.to/lastmile_qr_scan", "android": "https://dc.lft.to/lastmile_qr_scan"}, "lon": -77.04001366666667, "type": "electric_scooter", "fusion_lat": 0.0, "lat": 38.90731316666667, "name": "471635aa7f0ddf9992033a20d1774724", "fusion_lon": 0.0, "bike_id": "471635aa7f0ddf9992033a20d1774724", "is_disabled": 0, "is_reserved": 0}, {"rental_uris": {"ios": "https://dc.lft.to/lastmile_qr_scan", "android": "https://dc.lft.to/lastmile_qr_scan"}, "lon": -77.033641, "type": "electric_scooter", "fusion_lat": 0.0, "lat": 38.901435166666666, "name": "1269d45f18740c81e43dd076541c0884", "fusion_lon": 0.0, "bike_id": "1269d45f18740c81e43dd076541c0884", "is_disabled": 0, "is_reserved": 0}, {"rental_uris": {"ios": "https://dc.lft.to/lastmile_qr_scan", "android": "https://dc.lft.to/lastmile_qr_scan"}, "lon": -77.01696883333334, "type": "electric_scooter", "fusion_lat": 0.0, "lat": 38.90514483333333, "name": "14046bb1ff29ce769332f91dd163119c", "fusion_lon": 0.0, "bike_id": "14046bb1ff29ce769332f91dd163119c", "is_disabled": 0, "is_reserved": 0}, {"rental_uris": {"ios": "https://dc.lft.to/lastmile_qr_scan", "android": "https://dc.lft.to/lastmile_qr_scan"}, "lon": -77.03231516666666, "type": "electric_scooter", "fusion_lat": 0.0, "lat": 38.928899333333334, "name": "50909c9209fdfb593315e3ed2e44c341", "fusion_lon": 0.0, "bike_id": "50909c9209fdfb593315e3ed2e44c341", "is_disabled": 0, "is_reserved": 0}, {"rental_uris": {"ios": "https://dc.lft.to/lastmile_qr_scan", "android": "https://dc.lft.to/lastmile_qr_scan"}, "lon": -76.9885025, "type": "electric_scooter", "fusion_lat": 0.0, "lat": 38.90344966666667, "name": "463c9992c23906296eae198cd013e678", "fusion_lon": 0.0, "bike_id": "463c9992c23906296eae198cd013e678", "is_disabled": 0, "is_reserved": 0}, {"rental_uris": {"ios": "https://dc.lft.to/lastmile_qr_scan", "android": "https://dc.lft.to/lastmile_qr_scan"}, "lon": -77.00493483333334, "type": "electric_scooter", "fusion_lat": 0.0, "lat": 38.878937, "name": "6375fb36299f57299771b77c46feec78", "fusion_lon": 0.0, "bike_id": "6375fb36299f57299771b77c46feec78", "is_disabled": 0, "is_reserved": 0}, {"rental_uris": {"ios": "https://dc.lft.to/lastmile_qr_scan", "android": "https://dc.lft.to/lastmile_qr_scan"}, "lon": -76.99504666666667, "type": "electric_scooter", "fusion_lat": 0.0, "lat": 38.886245833333334, "name": "98727c5722aa07c29f25c7d00470ff1e", "fusion_lon": 0.0, "bike_id": "98727c5722aa07c29f25c7d00470ff1e", "is_disabled": 0, "is_reserved": 0}, {"rental_uris": {"ios": "https://dc.lft.to/lastmile_qr_scan", "android": "https://dc.lft.to/lastmile_qr_scan"}, "lon": -77.04163316666667, "type": "electric_scooter", "fusion_lat": 0.0, "lat": 38.91897983333333, "name": "09ba57b4ee476bc0858368c7f2fdc7c4", "fusion_lon": 0.0, "bike_id": "09ba57b4ee476bc0858368c7f2fdc7c4", "is_disabled": 0, "is_reserved": 0}, {"rental_uris": {"ios": "https://dc.lft.to/lastmile_qr_scan", "android": "https://dc.lft.to/lastmile_qr_scan"}, "lon": -76.99842166666667, "type": "electric_bike", "fusion_lat": 0.0, "lat": 38.839151, "name": "37e9671dfee88c731c0501c6b29220ab", "fusion_lon": 0.0, "bike_id": "37e9671dfee88c731c0501c6b29220ab", "is_disabled": 0, "is_reserved": 0}, {"rental_uris": {"ios": "https://dc.lft.to/lastmile_qr_scan", "android": "https://dc.lft.to/lastmile_qr_scan"}, "lon": -76.95885666666666, "type": "electric_scooter", "fusion_lat": 0.0, "lat": 38.85848283333333, "name": "f64c79b40b8bac21c32af9114b39205b", "fusion_lon": 0.0, "bike_id": "f64c79b40b8bac21c32af9114b39205b", "is_disabled": 0, "is_reserved": 0}, {"rental_uris": {"ios": "https://dc.lft.to/lastmile_qr_scan", "android": "https://dc.lft.to/lastmile_qr_scan"}, "lon": -76.98019266666667, "type": "electric_scooter", "fusion_lat": 0.0, "lat": 38.90379933333333, "name": "5908073b9b1958fbfa70420f5bc51068", "fusion_lon": 0.0, "bike_id": "5908073b9b1958fbfa70420f5bc51068", "is_disabled": 0, "is_reserved": 0}, {"rental_uris": {"ios": "https://dc.lft.to/lastmile_qr_scan", "android": "https://dc.lft.to/lastmile_qr_scan"}, "lon": -77.043399, "type": "electric_scooter", "fusion_lat": 0.0, "lat": 38.92789116666667, "name": "492a3bacde0630c330e2a90e5f074ed5", "fusion_lon": 0.0, "bike_id": "492a3bacde0630c330e2a90e5f074ed5", "is_disabled": 0, "is_reserved": 0}, {"rental_uris": {"ios": "https://dc.lft.to/lastmile_qr_scan", "android": "https://dc.lft.to/lastmile_qr_scan"}, "lon": -76.95754, "type": "electric_scooter", "fusion_lat": 0.0, "lat": 38.886926333333335, "name": "113bf176391cc86925f6767ecce7225c", "fusion_lon": 0.0, "bike_id": "113bf176391cc86925f6767ecce7225c", "is_disabled": 0, "is_reserved": 0}, {"rental_uris": {"ios": "https://dc.lft.to/lastmile_qr_scan", "android": "https://dc.lft.to/lastmile_qr_scan"}, "lon": -77.0249735, "type": "electric_scooter", "fusion_lat": 0.0, "lat": 38.89733433333333, "name": "a1fd73802e448c5fa0774038c6f4c8f9", "fusion_lon": 0.0, "bike_id": "a1fd73802e448c5fa0774038c6f4c8f9", "is_disabled": 0, "is_reserved": 0}, {"rental_uris": {"ios": "https://dc.lft.to/lastmile_qr_scan", "android": "https://dc.lft.to/lastmile_qr_scan"}, "lon": -77.01153183333334, "type": "electric_bike", "fusion_lat": 0.0, "lat": 38.911793, "name": "e87c33dfdc994789c0d72ca63ba185aa", "fusion_lon": 0.0, "bike_id": "e87c33dfdc994789c0d72ca63ba185aa", "is_disabled": 0, "is_reserved": 0}, {"rental_uris": {"ios": "https://dc.lft.to/lastmile_qr_scan", "android": "https://dc.lft.to/lastmile_qr_scan"}, "lon": -77.06536066666666, "type": "electric_scooter", "fusion_lat": 0.0, "lat": 38.904764, "name": "12583ada311ed9ce4318cf2011be44dd", "fusion_lon": 0.0, "bike_id": "12583ada311ed9ce4318cf2011be44dd", "is_disabled": 0, "is_reserved": 0}, {"rental_uris": {"ios": "https://dc.lft.to/lastmile_qr_scan", "android": "https://dc.lft.to/lastmile_qr_scan"}, "lon": -77.01373, "type": "electric_scooter", "fusion_lat": 0.0, "lat": 38.892212666666666, "name": "1d839c0e1e590315405458e835caf809", "fusion_lon": 0.0, "bike_id": "1d839c0e1e590315405458e835caf809", "is_disabled": 0, "is_reserved": 0}, {"rental_uris": {"ios": "https://dc.lft.to/lastmile_qr_scan", "android": "https://dc.lft.to/lastmile_qr_scan"}, "lon": -77.02267866666666, "type": "electric_scooter", "fusion_lat": 0.0, "lat": 38.91275816666667, "name": "043021b5df7c04d450e452faaa31c4d5", "fusion_lon": 0.0, "bike_id": "043021b5df7c04d450e452faaa31c4d5", "is_disabled": 0, "is_reserved": 0}, {"rental_uris": {"ios": "https://dc.lft.to/lastmile_qr_scan", "android": "https://dc.lft.to/lastmile_qr_scan"}, "lon": -76.97406133333334, "type": "electric_scooter", "fusion_lat": 0.0, "lat": 38.9016205, "name": "e53121be979e0b3064e8eb76099474e2", "fusion_lon": 0.0, "bike_id": "e53121be979e0b3064e8eb76099474e2", "is_disabled": 0, "is_reserved": 0}, {"rental_uris": {"ios": "https://dc.lft.to/lastmile_qr_scan", "android": "https://dc.lft.to/lastmile_qr_scan"}, "lon": -77.0220095, "type": "electric_scooter", "fusion_lat": 0.0, "lat": 38.914938166666666, "name": "d6ef371f1532e5ab7221aa2519b0ee29", "fusion_lon": 0.0, "bike_id": "d6ef371f1532e5ab7221aa2519b0ee29", "is_disabled": 0, "is_reserved": 0}, {"rental_uris": {"ios": "https://dc.lft.to/lastmile_qr_scan", "android": "https://dc.lft.to/lastmile_qr_scan"}, "lon": -77.03967633333333, "type": "electric_scooter", "fusion_lat": 0.0, "lat": 38.90064916666667, "name": "e0edf8daab94514a856dfdea56a5c958", "fusion_lon": 0.0, "bike_id": "e0edf8daab94514a856dfdea56a5c958", "is_disabled": 0, "is_reserved": 0}, {"rental_uris": {"ios": "https://dc.lft.to/lastmile_qr_scan", "android": "https://dc.lft.to/lastmile_qr_scan"}, "lon": -77.00261766666667, "type": "electric_scooter", "fusion_lat": 0.0, "lat": 38.911817, "name": "5d7c8a471694a354f37a683d41695fa7", "fusion_lon": 0.0, "bike_id": "5d7c8a471694a354f37a683d41695fa7", "is_disabled": 0, "is_reserved": 0}, {"rental_uris": {"ios": "https://dc.lft.to/lastmile_qr_scan", "android": "https://dc.lft.to/lastmile_qr_scan"}, "lon": -77.01795683333333, "type": "electric_scooter", "fusion_lat": 0.0, "lat": 38.89236483333333, "name": "274da8a37ca4113c658521efab3d68da", "fusion_lon": 0.0, "bike_id": "274da8a37ca4113c658521efab3d68da", "is_disabled": 0, "is_reserved": 0}, {"rental_uris": {"ios": "https://dc.lft.to/lastmile_qr_scan", "android": "https://dc.lft.to/lastmile_qr_scan"}, "lon": -76.9371905, "type": "electric_scooter", "fusion_lat": 0.0, "lat": 38.89591183333334, "name": "d235667b6693ab40c1dd0ec02d724e36", "fusion_lon": 0.0, "bike_id": "d235667b6693ab40c1dd0ec02d724e36", "is_disabled": 0, "is_reserved": 0}, {"rental_uris": {"ios": "https://dc.lft.to/lastmile_qr_scan", "android": "https://dc.lft.to/lastmile_qr_scan"}, "lon": -77.040062, "type": "electric_scooter", "fusion_lat": 0.0, "lat": 38.903569166666664, "name": "216b5b83c1789e412fa68f7975c88746", "fusion_lon": 0.0, "bike_id": "216b5b83c1789e412fa68f7975c88746", "is_disabled": 0, "is_reserved": 0}, {"rental_uris": {"ios": "https://dc.lft.to/lastmile_qr_scan", "android": "https://dc.lft.to/lastmile_qr_scan"}, "lon": -77.04174316666666, "type": "electric_scooter", "fusion_lat": 0.0, "lat": 38.917658833333334, "name": "6aa2cc5379880fc63cc69ef01bdea20e", "fusion_lon": 0.0, "bike_id": "6aa2cc5379880fc63cc69ef01bdea20e", "is_disabled": 0, "is_reserved": 0}, {"rental_uris": {"ios": "https://dc.lft.to/lastmile_qr_scan", "android": "https://dc.lft.to/lastmile_qr_scan"}, "lon": -76.97493866666667, "type": "electric_bike", "fusion_lat": 0.0, "lat": 38.9200565, "name": "ccebe75e6a90c0e3dc5b1dd70afb9bf5", "fusion_lon": 0.0, "bike_id": "ccebe75e6a90c0e3dc5b1dd70afb9bf5", "is_disabled": 0, "is_reserved": 0}, {"rental_uris": {"ios": "https://dc.lft.to/lastmile_qr_scan", "android": "https://dc.lft.to/lastmile_qr_scan"}, "lon": -77.04174366666666, "type": "electric_scooter", "fusion_lat": 0.0, "lat": 38.90546, "name": "4d8e28cc1b58fdd4781ed3e94a0dbcfc", "fusion_lon": 0.0, "bike_id": "4d8e28cc1b58fdd4781ed3e94a0dbcfc", "is_disabled": 0, "is_reserved": 0}, {"rental_uris": {"ios": "https://dc.lft.to/lastmile_qr_scan", "android": "https://dc.lft.to/lastmile_qr_scan"}, "lon": -77.04111783333333, "type": "electric_scooter", "fusion_lat": 0.0, "lat": 38.924433666666665, "name": "c8c062004df02dbeea2b030cd7f6f05d", "fusion_lon": 0.0, "bike_id": "c8c062004df02dbeea2b030cd7f6f05d", "is_disabled": 0, "is_reserved": 0}, {"rental_uris": {"ios": "https://dc.lft.to/lastmile_qr_scan", "android": "https://dc.lft.to/lastmile_qr_scan"}, "lon": -76.99852233333333, "type": "electric_scooter", "fusion_lat": 0.0, "lat": 38.90004533333333, "name": "ef2d9b178809114748767c74098cbc95", "fusion_lon": 0.0, "bike_id": "ef2d9b178809114748767c74098cbc95", "is_disabled": 0, "is_reserved": 0}, {"rental_uris": {"ios": "https://dc.lft.to/lastmile_qr_scan", "android": "https://dc.lft.to/lastmile_qr_scan"}, "lon": -76.97931733333333, "type": "electric_scooter", "fusion_lat": 0.0, "lat": 38.906689666666665, "name": "561b519d15d63ef8fc61880b2b9fd4d0", "fusion_lon": 0.0, "bike_id": "561b519d15d63ef8fc61880b2b9fd4d0", "is_disabled": 0, "is_reserved": 0}, {"rental_uris": {"ios": "https://dc.lft.to/lastmile_qr_scan", "android": "https://dc.lft.to/lastmile_qr_scan"}, "lon": -77.03469766666667, "type": "electric_scooter", "fusion_lat": 0.0, "lat": 38.9127105, "name": "fecdc0e47f483e210a22618749c012dc", "fusion_lon": 0.0, "bike_id": "fecdc0e47f483e210a22618749c012dc", "is_disabled": 0, "is_reserved": 0}, {"rental_uris": {"ios": "https://dc.lft.to/lastmile_qr_scan", "android": "https://dc.lft.to/lastmile_qr_scan"}, "lon": -77.03352916666667, "type": "electric_scooter", "fusion_lat": 0.0, "lat": 38.91187, "name": "fae1aba3cb2d47b3e54c4f2ac4550861", "fusion_lon": 0.0, "bike_id": "fae1aba3cb2d47b3e54c4f2ac4550861", "is_disabled": 0, "is_reserved": 0}, {"rental_uris": {"ios": "https://dc.lft.to/lastmile_qr_scan", "android": "https://dc.lft.to/lastmile_qr_scan"}, "lon": -77.05318383333334, "type": "electric_bike", "fusion_lat": 0.0, "lat": 38.905314, "name": "2409afc42f3c3915ebf1134f4db51bf1", "fusion_lon": 0.0, "bike_id": "2409afc42f3c3915ebf1134f4db51bf1", "is_disabled": 0, "is_reserved": 0}, {"rental_uris": {"ios": "https://dc.lft.to/lastmile_qr_scan", "android": "https://dc.lft.to/lastmile_qr_scan"}, "lon": -77.04188966666666, "type": "electric_scooter", "fusion_lat": 0.0, "lat": 38.9220725, "name": "f702e5125b6927485690041b96793a68", "fusion_lon": 0.0, "bike_id": "f702e5125b6927485690041b96793a68", "is_disabled": 0, "is_reserved": 0}, {"rental_uris": {"ios": "https://dc.lft.to/lastmile_qr_scan", "android": "https://dc.lft.to/lastmile_qr_scan"}, "lon": -77.02615166666666, "type": "electric_scooter", "fusion_lat": 0.0, "lat": 38.951888333333336, "name": "492fb8752e8dfb96b70f34cafc83fa91", "fusion_lon": 0.0, "bike_id": "492fb8752e8dfb96b70f34cafc83fa91", "is_disabled": 0, "is_reserved": 0}, {"rental_uris": {"ios": "https://dc.lft.to/lastmile_qr_scan", "android": "https://dc.lft.to/lastmile_qr_scan"}, "lon": -77.03957166666666, "type": "electric_scooter", "fusion_lat": 0.0, "lat": 38.926085, "name": "0f7bb1a7c7426c3e005c013986e01679", "fusion_lon": 0.0, "bike_id": "0f7bb1a7c7426c3e005c013986e01679", "is_disabled": 0, "is_reserved": 0}, {"rental_uris": {"ios": "https://dc.lft.to/lastmile_qr_scan", "android": "https://dc.lft.to/lastmile_qr_scan"}, "lon": -77.0549705, "type": "electric_scooter", "fusion_lat": 0.0, "lat": 38.9296945, "name": "0b2636d98c803b02ce46d4f317cfb705", "fusion_lon": 0.0, "bike_id": "0b2636d98c803b02ce46d4f317cfb705", "is_disabled": 0, "is_reserved": 0}, {"rental_uris": {"ios": "https://dc.lft.to/lastmile_qr_scan", "android": "https://dc.lft.to/lastmile_qr_scan"}, "lon": -77.02981933333334, "type": "electric_scooter", "fusion_lat": 0.0, "lat": 38.958330333333336, "name": "4e83031b486e6cbf159113c3447b2361", "fusion_lon": 0.0, "bike_id": "4e83031b486e6cbf159113c3447b2361", "is_disabled": 0, "is_reserved": 0}, {"rental_uris": {"ios": "https://dc.lft.to/lastmile_qr_scan", "android": "https://dc.lft.to/lastmile_qr_scan"}, "lon": -77.032335, "type": "electric_scooter", "fusion_lat": 0.0, "lat": 38.92897283333333, "name": "ddf8c5e6af19f30a8b44186857f7ea4a", "fusion_lon": 0.0, "bike_id": "ddf8c5e6af19f30a8b44186857f7ea4a", "is_disabled": 0, "is_reserved": 0}, {"rental_uris": {"ios": "https://dc.lft.to/lastmile_qr_scan", "android": "https://dc.lft.to/lastmile_qr_scan"}, "lon": -77.02354916666667, "type": "electric_scooter", "fusion_lat": 0.0, "lat": 38.931989333333334, "name": "07ab97ab5704519e2916df3b9ae576cb", "fusion_lon": 0.0, "bike_id": "07ab97ab5704519e2916df3b9ae576cb", "is_disabled": 0, "is_reserved": 0}, {"rental_uris": {"ios": "https://dc.lft.to/lastmile_qr_scan", "android": "https://dc.lft.to/lastmile_qr_scan"}, "lon": -77.03654066666667, "type": "electric_scooter", "fusion_lat": 0.0, "lat": 38.9032795, "name": "256d49fd247a3ae842da9bb68dac8beb", "fusion_lon": 0.0, "bike_id": "256d49fd247a3ae842da9bb68dac8beb", "is_disabled": 0, "is_reserved": 0}, {"rental_uris": {"ios": "https://dc.lft.to/lastmile_qr_scan", "android": "https://dc.lft.to/lastmile_qr_scan"}, "lon": -77.02989233333334, "type": "electric_scooter", "fusion_lat": 0.0, "lat": 38.9562565, "name": "75574ec9d489968ac3dbc6a4216ff51d", "fusion_lon": 0.0, "bike_id": "75574ec9d489968ac3dbc6a4216ff51d", "is_disabled": 0, "is_reserved": 0}, {"rental_uris": {"ios": "https://dc.lft.to/lastmile_qr_scan", "android": "https://dc.lft.to/lastmile_qr_scan"}, "lon": -77.0265715, "type": "electric_scooter", "fusion_lat": 0.0, "lat": 38.975452, "name": "e8f84ee457a14f66ca90cc0cfc163bb9", "fusion_lon": 0.0, "bike_id": "e8f84ee457a14f66ca90cc0cfc163bb9", "is_disabled": 0, "is_reserved": 0}, {"rental_uris": {"ios": "https://dc.lft.to/lastmile_qr_scan", "android": "https://dc.lft.to/lastmile_qr_scan"}, "lon": -77.03250166666666, "type": "electric_scooter", "fusion_lat": 0.0, "lat": 38.928953666666665, "name": "c42b307caee4ec081c7e2ce9a9f15cc9", "fusion_lon": 0.0, "bike_id": "c42b307caee4ec081c7e2ce9a9f15cc9", "is_disabled": 0, "is_reserved": 0}, {"rental_uris": {"ios": "https://dc.lft.to/lastmile_qr_scan", "android": "https://dc.lft.to/lastmile_qr_scan"}, "lon": -77.03165566666667, "type": "electric_scooter", "fusion_lat": 0.0, "lat": 38.92106733333333, "name": "c1bb5d7668e9b9552a684f9c02165008", "fusion_lon": 0.0, "bike_id": "c1bb5d7668e9b9552a684f9c02165008", "is_disabled": 0, "is_reserved": 0}, {"rental_uris": {"ios": "https://dc.lft.to/lastmile_qr_scan", "android": "https://dc.lft.to/lastmile_qr_scan"}, "lon": -76.99583516666667, "type": "electric_scooter", "fusion_lat": 0.0, "lat": 38.88744, "name": "84fb207d7a15cfc3d497ba4b4bc73707", "fusion_lon": 0.0, "bike_id": "84fb207d7a15cfc3d497ba4b4bc73707", "is_disabled": 0, "is_reserved": 0}, {"rental_uris": {"ios": "https://dc.lft.to/lastmile_qr_scan", "android": "https://dc.lft.to/lastmile_qr_scan"}, "lon": -77.0894445, "type": "electric_bike", "fusion_lat": 0.0, "lat": 38.84097466666667, "name": "30b4cc68b351cf0ce97a58ef553cef1c", "fusion_lon": 0.0, "bike_id": "30b4cc68b351cf0ce97a58ef553cef1c", "is_disabled": 0, "is_reserved": 0}, {"rental_uris": {"ios": "https://dc.lft.to/lastmile_qr_scan", "android": "https://dc.lft.to/lastmile_qr_scan"}, "lon": -77.03966266666667, "type": "electric_bike", "fusion_lat": 0.0, "lat": 38.8052, "name": "38c82bffd178411ede3e344df7dc2f08", "fusion_lon": 0.0, "bike_id": "38c82bffd178411ede3e344df7dc2f08", "is_disabled": 0, "is_reserved": 0}, {"rental_uris": {"ios": "https://dc.lft.to/lastmile_qr_scan", "android": "https://dc.lft.to/lastmile_qr_scan"}, "lon": -77.03030216666667, "type": "electric_scooter", "fusion_lat": 0.0, "lat": 38.9225095, "name": "6f3c911e40b39d2c21a5ea514c894484", "fusion_lon": 0.0, "bike_id": "6f3c911e40b39d2c21a5ea514c894484", "is_disabled": 0, "is_reserved": 0}, {"rental_uris": {"ios": "https://dc.lft.to/lastmile_qr_scan", "android": "https://dc.lft.to/lastmile_qr_scan"}, "lon": -77.0365025, "type": "electric_scooter", "fusion_lat": 0.0, "lat": 38.95636433333333, "name": "8a9c64b9860f828a8563a7f5261a1e0d", "fusion_lon": 0.0, "bike_id": "8a9c64b9860f828a8563a7f5261a1e0d", "is_disabled": 0, "is_reserved": 0}, {"rental_uris": {"ios": "https://dc.lft.to/lastmile_qr_scan", "android": "https://dc.lft.to/lastmile_qr_scan"}, "lon": -77.03229833333333, "type": "electric_scooter", "fusion_lat": 0.0, "lat": 38.914053333333335, "name": "7cd73c40ce768b532afdb41065c9561b", "fusion_lon": 0.0, "bike_id": "7cd73c40ce768b532afdb41065c9561b", "is_disabled": 0, "is_reserved": 0}, {"rental_uris": {"ios": "https://dc.lft.to/lastmile_qr_scan", "android": "https://dc.lft.to/lastmile_qr_scan"}, "lon": -76.946315, "type": "electric_scooter", "fusion_lat": 0.0, "lat": 38.8984415, "name": "eac4e1d8b71f9ce2fef5ecb9fb7789db", "fusion_lon": 0.0, "bike_id": "eac4e1d8b71f9ce2fef5ecb9fb7789db", "is_disabled": 0, "is_reserved": 0}, {"rental_uris": {"ios": "https://dc.lft.to/lastmile_qr_scan", "android": "https://dc.lft.to/lastmile_qr_scan"}, "lon": -77.00920783333333, "type": "electric_scooter", "fusion_lat": 0.0, "lat": 38.8735685, "name": "757403208ea944163442f88e986a62a9", "fusion_lon": 0.0, "bike_id": "757403208ea944163442f88e986a62a9", "is_disabled": 0, "is_reserved": 0}, {"rental_uris": {"ios": "https://dc.lft.to/lastmile_qr_scan", "android": "https://dc.lft.to/lastmile_qr_scan"}, "lon": -77.024184, "type": "electric_scooter", "fusion_lat": 0.0, "lat": 38.8922075, "name": "832cc1a0bdf3ec1eecff652122236c1c", "fusion_lon": 0.0, "bike_id": "832cc1a0bdf3ec1eecff652122236c1c", "is_disabled": 0, "is_reserved": 0}, {"rental_uris": {"ios": "https://dc.lft.to/lastmile_qr_scan", "android": "https://dc.lft.to/lastmile_qr_scan"}, "lon": -76.99919116666666, "type": "electric_scooter", "fusion_lat": 0.0, "lat": 38.900253666666664, "name": "0b98adbacddeac3b660d8d164c59d8b0", "fusion_lon": 0.0, "bike_id": "0b98adbacddeac3b660d8d164c59d8b0", "is_disabled": 0, "is_reserved": 0}, {"rental_uris": {"ios": "https://dc.lft.to/lastmile_qr_scan", "android": "https://dc.lft.to/lastmile_qr_scan"}, "lon": -76.98343966666667, "type": "electric_scooter", "fusion_lat": 0.0, "lat": 38.91533533333333, "name": "5f00e0733d1610bf4b81bb90eb783069", "fusion_lon": 0.0, "bike_id": "5f00e0733d1610bf4b81bb90eb783069", "is_disabled": 0, "is_reserved": 0}, {"rental_uris": {"ios": "https://dc.lft.to/lastmile_qr_scan", "android": "https://dc.lft.to/lastmile_qr_scan"}, "lon": -77.032156, "type": "electric_scooter", "fusion_lat": 0.0, "lat": 38.916935333333335, "name": "a1021d8e81f7e97347901718a48113f0", "fusion_lon": 0.0, "bike_id": "a1021d8e81f7e97347901718a48113f0", "is_disabled": 0, "is_reserved": 0}, {"rental_uris": {"ios": "https://dc.lft.to/lastmile_qr_scan", "android": "https://dc.lft.to/lastmile_qr_scan"}, "lon": -77.041612, "type": "electric_scooter", "fusion_lat": 0.0, "lat": 38.9152065, "name": "658b5083eef9e9db11c9316c1fd6de9c", "fusion_lon": 0.0, "bike_id": "658b5083eef9e9db11c9316c1fd6de9c", "is_disabled": 0, "is_reserved": 0}, {"rental_uris": {"ios": "https://dc.lft.to/lastmile_qr_scan", "android": "https://dc.lft.to/lastmile_qr_scan"}, "lon": -76.98839883333333, "type": "electric_scooter", "fusion_lat": 0.0, "lat": 38.8929225, "name": "b169c3bcf6c66b564861c470d81a9c58", "fusion_lon": 0.0, "bike_id": "b169c3bcf6c66b564861c470d81a9c58", "is_disabled": 0, "is_reserved": 0}, {"rental_uris": {"ios": "https://dc.lft.to/lastmile_qr_scan", "android": "https://dc.lft.to/lastmile_qr_scan"}, "lon": -76.99736933333334, "type": "electric_scooter", "fusion_lat": 0.0, "lat": 38.90025966666666, "name": "fdcbac8274833e8fa985b82e3e88c77f", "fusion_lon": 0.0, "bike_id": "fdcbac8274833e8fa985b82e3e88c77f", "is_disabled": 0, "is_reserved": 0}, {"rental_uris": {"ios": "https://dc.lft.to/lastmile_qr_scan", "android": "https://dc.lft.to/lastmile_qr_scan"}, "lon": -77.063827, "type": "electric_scooter", "fusion_lat": 0.0, "lat": 38.9052, "name": "20b8ed780dd8b604ae2ea9b5b2dbfde3", "fusion_lon": 0.0, "bike_id": "20b8ed780dd8b604ae2ea9b5b2dbfde3", "is_disabled": 0, "is_reserved": 0}, {"rental_uris": {"ios": "https://dc.lft.to/lastmile_qr_scan", "android": "https://dc.lft.to/lastmile_qr_scan"}, "lon": -76.96850333333333, "type": "electric_scooter", "fusion_lat": 0.0, "lat": 38.87465366666667, "name": "73bea2e81b3c6f2ead72735589134f96", "fusion_lon": 0.0, "bike_id": "73bea2e81b3c6f2ead72735589134f96", "is_disabled": 0, "is_reserved": 0}, {"rental_uris": {"ios": "https://dc.lft.to/lastmile_qr_scan", "android": "https://dc.lft.to/lastmile_qr_scan"}, "lon": -77.02361133333333, "type": "electric_scooter", "fusion_lat": 0.0, "lat": 38.9316575, "name": "3660fd0dcf2ba8c8a880c9526acbbf77", "fusion_lon": 0.0, "bike_id": "3660fd0dcf2ba8c8a880c9526acbbf77", "is_disabled": 0, "is_reserved": 0}, {"rental_uris": {"ios": "https://dc.lft.to/lastmile_qr_scan", "android": "https://dc.lft.to/lastmile_qr_scan"}, "lon": -77.0237635, "type": "electric_scooter", "fusion_lat": 0.0, "lat": 38.90592766666666, "name": "a4fac3725f145cfc276eeade9c6fceae", "fusion_lon": 0.0, "bike_id": "a4fac3725f145cfc276eeade9c6fceae", "is_disabled": 0, "is_reserved": 0}, {"rental_uris": {"ios": "https://dc.lft.to/lastmile_qr_scan", "android": "https://dc.lft.to/lastmile_qr_scan"}, "lon": -77.069184, "type": "electric_bike", "fusion_lat": 0.0, "lat": 38.90982616666667, "name": "d4a5a015673cd04b10491afb66a9db3a", "fusion_lon": 0.0, "bike_id": "d4a5a015673cd04b10491afb66a9db3a", "is_disabled": 0, "is_reserved": 0}, {"rental_uris": {"ios": "https://dc.lft.to/lastmile_qr_scan", "android": "https://dc.lft.to/lastmile_qr_scan"}, "lon": -77.07542283333333, "type": "electric_bike", "fusion_lat": 0.0, "lat": 38.90680866666667, "name": "c3290caa961199ef3bd9a2708a23ab01", "fusion_lon": 0.0, "bike_id": "c3290caa961199ef3bd9a2708a23ab01", "is_disabled": 0, "is_reserved": 0}, {"rental_uris": {"ios": "https://dc.lft.to/lastmile_qr_scan", "android": "https://dc.lft.to/lastmile_qr_scan"}, "lon": -77.03642316666667, "type": "electric_scooter", "fusion_lat": 0.0, "lat": 38.90793633333333, "name": "d4a7b6ddf6d5d72bdf913f0809d84f4b", "fusion_lon": 0.0, "bike_id": "d4a7b6ddf6d5d72bdf913f0809d84f4b", "is_disabled": 0, "is_reserved": 0}, {"rental_uris": {"ios": "https://dc.lft.to/lastmile_qr_scan", "android": "https://dc.lft.to/lastmile_qr_scan"}, "lon": -76.99757216666667, "type": "electric_scooter", "fusion_lat": 0.0, "lat": 38.90032, "name": "625443fc83dc2830d86879a10da89fa3", "fusion_lon": 0.0, "bike_id": "625443fc83dc2830d86879a10da89fa3", "is_disabled": 0, "is_reserved": 0}, {"rental_uris": {"ios": "https://dc.lft.to/lastmile_qr_scan", "android": "https://dc.lft.to/lastmile_qr_scan"}, "lon": -77.03197233333333, "type": "electric_scooter", "fusion_lat": 0.0, "lat": 38.9115715, "name": "2f442dab5c9f0d9bbc94822f67558fd4", "fusion_lon": 0.0, "bike_id": "2f442dab5c9f0d9bbc94822f67558fd4", "is_disabled": 0, "is_reserved": 0}, {"rental_uris": {"ios": "https://dc.lft.to/lastmile_qr_scan", "android": "https://dc.lft.to/lastmile_qr_scan"}, "lon": -77.107053, "type": "electric_bike", "fusion_lat": 0.0, "lat": 38.8553345, "name": "125bcba243a407fc79e5b580f6137549", "fusion_lon": 0.0, "bike_id": "125bcba243a407fc79e5b580f6137549", "is_disabled": 0, "is_reserved": 0}, {"rental_uris": {"ios": "https://dc.lft.to/lastmile_qr_scan", "android": "https://dc.lft.to/lastmile_qr_scan"}, "lon": -77.04001433333333, "type": "electric_scooter", "fusion_lat": 0.0, "lat": 38.91818633333333, "name": "e36eedebbaa1a8df6d0b07dcb796b1ac", "fusion_lon": 0.0, "bike_id": "e36eedebbaa1a8df6d0b07dcb796b1ac", "is_disabled": 0, "is_reserved": 0}, {"rental_uris": {"ios": "https://dc.lft.to/lastmile_qr_scan", "android": "https://dc.lft.to/lastmile_qr_scan"}, "lon": -77.044432, "type": "electric_scooter", "fusion_lat": 0.0, "lat": 38.91874516666667, "name": "c537bbfcac188b3918c05a4b3124164f", "fusion_lon": 0.0, "bike_id": "c537bbfcac188b3918c05a4b3124164f", "is_disabled": 0, "is_reserved": 0}, {"rental_uris": {"ios": "https://dc.lft.to/lastmile_qr_scan", "android": "https://dc.lft.to/lastmile_qr_scan"}, "lon": -77.108973, "type": "electric_bike", "fusion_lat": 0.0, "lat": 38.830432333333334, "name": "4032200682142dbae9331043491a7bec", "fusion_lon": 0.0, "bike_id": "4032200682142dbae9331043491a7bec", "is_disabled": 0, "is_reserved": 0}, {"rental_uris": {"ios": "https://dc.lft.to/lastmile_qr_scan", "android": "https://dc.lft.to/lastmile_qr_scan"}, "lon": -77.04376383333333, "type": "electric_scooter", "fusion_lat": 0.0, "lat": 38.920873666666665, "name": "9cfa4c2f65d04a0a2a8e5be14b90c065", "fusion_lon": 0.0, "bike_id": "9cfa4c2f65d04a0a2a8e5be14b90c065", "is_disabled": 0, "is_reserved": 0}, {"rental_uris": {"ios": "https://dc.lft.to/lastmile_qr_scan", "android": "https://dc.lft.to/lastmile_qr_scan"}, "lon": -77.05809166666667, "type": "electric_scooter", "fusion_lat": 0.0, "lat": 38.90301916666667, "name": "fab2db7b2e86c2b8ad23784b9787528a", "fusion_lon": 0.0, "bike_id": "fab2db7b2e86c2b8ad23784b9787528a", "is_disabled": 0, "is_reserved": 0}, {"rental_uris": {"ios": "https://dc.lft.to/lastmile_qr_scan", "android": "https://dc.lft.to/lastmile_qr_scan"}, "lon": -76.97335983333333, "type": "electric_scooter", "fusion_lat": 0.0, "lat": 38.90483566666666, "name": "20929c4f333aea8246535a99ab5b0b5e", "fusion_lon": 0.0, "bike_id": "20929c4f333aea8246535a99ab5b0b5e", "is_disabled": 0, "is_reserved": 0}, {"rental_uris": {"ios": "https://dc.lft.to/lastmile_qr_scan", "android": "https://dc.lft.to/lastmile_qr_scan"}, "lon": -76.99148133333334, "type": "electric_scooter", "fusion_lat": 0.0, "lat": 38.89344716666667, "name": "fb91f4c8630aaf8e07dcf70a953b9868", "fusion_lon": 0.0, "bike_id": "fb91f4c8630aaf8e07dcf70a953b9868", "is_disabled": 0, "is_reserved": 0}, {"rental_uris": {"ios": "https://dc.lft.to/lastmile_qr_scan", "android": "https://dc.lft.to/lastmile_qr_scan"}, "lon": -77.02879883333334, "type": "electric_scooter", "fusion_lat": 0.0, "lat": 38.91706966666667, "name": "93f7c9efc367bd12bb498bfcc5060247", "fusion_lon": 0.0, "bike_id": "93f7c9efc367bd12bb498bfcc5060247", "is_disabled": 0, "is_reserved": 0}, {"rental_uris": {"ios": "https://dc.lft.to/lastmile_qr_scan", "android": "https://dc.lft.to/lastmile_qr_scan"}, "lon": -77.04155216666666, "type": "electric_scooter", "fusion_lat": 0.0, "lat": 38.915157, "name": "fd64e27b8290d89da1fdcefa20e4f5ae", "fusion_lon": 0.0, "bike_id": "fd64e27b8290d89da1fdcefa20e4f5ae", "is_disabled": 0, "is_reserved": 0}, {"rental_uris": {"ios": "https://dc.lft.to/lastmile_qr_scan", "android": "https://dc.lft.to/lastmile_qr_scan"}, "lon": -76.9948805, "type": "electric_scooter", "fusion_lat": 0.0, "lat": 38.883322166666666, "name": "3e48d2a2481d014423b254b6d55a78d0", "fusion_lon": 0.0, "bike_id": "3e48d2a2481d014423b254b6d55a78d0", "is_disabled": 0, "is_reserved": 0}, {"rental_uris": {"ios": "https://dc.lft.to/lastmile_qr_scan", "android": "https://dc.lft.to/lastmile_qr_scan"}, "lon": -77.080449, "type": "electric_bike", "fusion_lat": 0.0, "lat": 38.848450666666665, "name": "bfc1466663eb8e6f3bed80319add92d6", "fusion_lon": 0.0, "bike_id": "bfc1466663eb8e6f3bed80319add92d6", "is_disabled": 0, "is_reserved": 0}, {"rental_uris": {"ios": "https://dc.lft.to/lastmile_qr_scan", "android": "https://dc.lft.to/lastmile_qr_scan"}, "lon": -76.986117, "type": "electric_scooter", "fusion_lat": 0.0, "lat": 38.878422, "name": "181c1b7c23337d6a45a47c188216449e", "fusion_lon": 0.0, "bike_id": "181c1b7c23337d6a45a47c188216449e", "is_disabled": 0, "is_reserved": 0}, {"rental_uris": {"ios": "https://dc.lft.to/lastmile_qr_scan", "android": "https://dc.lft.to/lastmile_qr_scan"}, "lon": -77.035597, "type": "electric_scooter", "fusion_lat": 0.0, "lat": 38.9398115, "name": "600c8731ce3e1f58fcd63465e177bd6e", "fusion_lon": 0.0, "bike_id": "600c8731ce3e1f58fcd63465e177bd6e", "is_disabled": 0, "is_reserved": 0}, {"rental_uris": {"ios": "https://dc.lft.to/lastmile_qr_scan", "android": "https://dc.lft.to/lastmile_qr_scan"}, "lon": -77.03962216666666, "type": "electric_scooter", "fusion_lat": 0.0, "lat": 38.902588, "name": "1875636f8e59e3322335c29c9910bf59", "fusion_lon": 0.0, "bike_id": "1875636f8e59e3322335c29c9910bf59", "is_disabled": 0, "is_reserved": 0}, {"rental_uris": {"ios": "https://dc.lft.to/lastmile_qr_scan", "android": "https://dc.lft.to/lastmile_qr_scan"}, "lon": -76.9874855, "type": "electric_scooter", "fusion_lat": 0.0, "lat": 38.910200333333336, "name": "76b959a6396ae0dbb84250413eb68390", "fusion_lon": 0.0, "bike_id": "76b959a6396ae0dbb84250413eb68390", "is_disabled": 0, "is_reserved": 0}, {"rental_uris": {"ios": "https://dc.lft.to/lastmile_qr_scan", "android": "https://dc.lft.to/lastmile_qr_scan"}, "lon": -77.031241, "type": "electric_scooter", "fusion_lat": 0.0, "lat": 38.91278583333333, "name": "00ce1733a30e60df6b7a6bea264903ea", "fusion_lon": 0.0, "bike_id": "00ce1733a30e60df6b7a6bea264903ea", "is_disabled": 0, "is_reserved": 0}, {"rental_uris": {"ios": "https://dc.lft.to/lastmile_qr_scan", "android": "https://dc.lft.to/lastmile_qr_scan"}, "lon": -76.956789, "type": "electric_bike", "fusion_lat": 0.0, "lat": 38.947334833333336, "name": "1c6c5eb84aa18b27dc224155cbbe8338", "fusion_lon": 0.0, "bike_id": "1c6c5eb84aa18b27dc224155cbbe8338", "is_disabled": 0, "is_reserved": 0}, {"rental_uris": {"ios": "https://dc.lft.to/lastmile_qr_scan", "android": "https://dc.lft.to/lastmile_qr_scan"}, "lon": -77.02947533333334, "type": "electric_scooter", "fusion_lat": 0.0, "lat": 38.917193166666664, "name": "9bc753f3c392e3a199a22bfe772d9558", "fusion_lon": 0.0, "bike_id": "9bc753f3c392e3a199a22bfe772d9558", "is_disabled": 0, "is_reserved": 0}, {"rental_uris": {"ios": "https://dc.lft.to/lastmile_qr_scan", "android": "https://dc.lft.to/lastmile_qr_scan"}, "lon": -77.055397, "type": "electric_scooter", "fusion_lat": 0.0, "lat": 38.92526333333333, "name": "f0c9044d761e2b719da9a762eb82f9ee", "fusion_lon": 0.0, "bike_id": "f0c9044d761e2b719da9a762eb82f9ee", "is_disabled": 0, "is_reserved": 0}, {"rental_uris": {"ios": "https://dc.lft.to/lastmile_qr_scan", "android": "https://dc.lft.to/lastmile_qr_scan"}, "lon": -76.93960666666666, "type": "electric_scooter", "fusion_lat": 0.0, "lat": 38.89965983333333, "name": "751fc3a305c7179a94fa0badb31a2cd3", "fusion_lon": 0.0, "bike_id": "751fc3a305c7179a94fa0badb31a2cd3", "is_disabled": 0, "is_reserved": 0}, {"rental_uris": {"ios": "https://dc.lft.to/lastmile_qr_scan", "android": "https://dc.lft.to/lastmile_qr_scan"}, "lon": -76.9741165, "type": "electric_scooter", "fusion_lat": 0.0, "lat": 38.90235216666667, "name": "23c3db9d3cc4bf31a6c0b3d88b370375", "fusion_lon": 0.0, "bike_id": "23c3db9d3cc4bf31a6c0b3d88b370375", "is_disabled": 0, "is_reserved": 0}, {"rental_uris": {"ios": "https://dc.lft.to/lastmile_qr_scan", "android": "https://dc.lft.to/lastmile_qr_scan"}, "lon": -77.034119, "type": "electric_scooter", "fusion_lat": 0.0, "lat": 38.924229, "name": "870166fbfc12bd04140c5a928a477bc7", "fusion_lon": 0.0, "bike_id": "870166fbfc12bd04140c5a928a477bc7", "is_disabled": 0, "is_reserved": 0}, {"rental_uris": {"ios": "https://dc.lft.to/lastmile_qr_scan", "android": "https://dc.lft.to/lastmile_qr_scan"}, "lon": -77.04711733333333, "type": "electric_scooter", "fusion_lat": 0.0, "lat": 38.9025595, "name": "9f7580e37edbc6595f018e6ad8d6dc22", "fusion_lon": 0.0, "bike_id": "9f7580e37edbc6595f018e6ad8d6dc22", "is_disabled": 0, "is_reserved": 0}, {"rental_uris": {"ios": "https://dc.lft.to/lastmile_qr_scan", "android": "https://dc.lft.to/lastmile_qr_scan"}, "lon": -76.938852, "type": "electric_scooter", "fusion_lat": 0.0, "lat": 38.89105433333334, "name": "f2ce33a585dd4fb2d3add04fc6225981", "fusion_lon": 0.0, "bike_id": "f2ce33a585dd4fb2d3add04fc6225981", "is_disabled": 0, "is_reserved": 0}, {"rental_uris": {"ios": "https://dc.lft.to/lastmile_qr_scan", "android": "https://dc.lft.to/lastmile_qr_scan"}, "lon": -76.99517466666667, "type": "electric_scooter", "fusion_lat": 0.0, "lat": 38.862564166666665, "name": "458588dc25d6a27614e51a128355c544", "fusion_lon": 0.0, "bike_id": "458588dc25d6a27614e51a128355c544", "is_disabled": 0, "is_reserved": 0}, {"rental_uris": {"ios": "https://dc.lft.to/lastmile_qr_scan", "android": "https://dc.lft.to/lastmile_qr_scan"}, "lon": -77.05992366666666, "type": "electric_scooter", "fusion_lat": 0.0, "lat": 38.905204, "name": "93941b37cacb49571234dbc6f8f94457", "fusion_lon": 0.0, "bike_id": "93941b37cacb49571234dbc6f8f94457", "is_disabled": 0, "is_reserved": 0}, {"rental_uris": {"ios": "https://dc.lft.to/lastmile_qr_scan", "android": "https://dc.lft.to/lastmile_qr_scan"}, "lon": -76.95759133333334, "type": "electric_scooter", "fusion_lat": 0.0, "lat": 38.884279666666664, "name": "17ca0e81a014bc224f8bfd5e38a77e8b", "fusion_lon": 0.0, "bike_id": "17ca0e81a014bc224f8bfd5e38a77e8b", "is_disabled": 0, "is_reserved": 0}, {"rental_uris": {"ios": "https://dc.lft.to/lastmile_qr_scan", "android": "https://dc.lft.to/lastmile_qr_scan"}, "lon": -76.92878133333333, "type": "electric_scooter", "fusion_lat": 0.0, "lat": 38.8844285, "name": "a3f5d93f3e68b35dab7168cba86fd8c4", "fusion_lon": 0.0, "bike_id": "a3f5d93f3e68b35dab7168cba86fd8c4", "is_disabled": 0, "is_reserved": 0}, {"rental_uris": {"ios": "https://dc.lft.to/lastmile_qr_scan", "android": "https://dc.lft.to/lastmile_qr_scan"}, "lon": -77.023715, "type": "electric_scooter", "fusion_lat": 0.0, "lat": 38.8992345, "name": "eaa8fe47066d3ad388aa599488ee348c", "fusion_lon": 0.0, "bike_id": "eaa8fe47066d3ad388aa599488ee348c", "is_disabled": 0, "is_reserved": 0}, {"rental_uris": {"ios": "https://dc.lft.to/lastmile_qr_scan", "android": "https://dc.lft.to/lastmile_qr_scan"}, "lon": -76.94822066666667, "type": "electric_scooter", "fusion_lat": 0.0, "lat": 38.884099666666664, "name": "59b662434d6574be06092fe30991e822", "fusion_lon": 0.0, "bike_id": "59b662434d6574be06092fe30991e822", "is_disabled": 0, "is_reserved": 0}, {"rental_uris": {"ios": "https://dc.lft.to/lastmile_qr_scan", "android": "https://dc.lft.to/lastmile_qr_scan"}, "lon": -76.9946005, "type": "electric_scooter", "fusion_lat": 0.0, "lat": 38.851597166666664, "name": "3d641553da30e225776c66823a9c6514", "fusion_lon": 0.0, "bike_id": "3d641553da30e225776c66823a9c6514", "is_disabled": 0, "is_reserved": 0}, {"rental_uris": {"ios": "https://dc.lft.to/lastmile_qr_scan", "android": "https://dc.lft.to/lastmile_qr_scan"}, "lon": -76.998687, "type": "electric_scooter", "fusion_lat": 0.0, "lat": 38.900287666666664, "name": "25d1269b6041a13f25bfd2f55c1716c3", "fusion_lon": 0.0, "bike_id": "25d1269b6041a13f25bfd2f55c1716c3", "is_disabled": 0, "is_reserved": 0}, {"rental_uris": {"ios": "https://dc.lft.to/lastmile_qr_scan", "android": "https://dc.lft.to/lastmile_qr_scan"}, "lon": -76.97499716666667, "type": "electric_bike", "fusion_lat": 0.0, "lat": 38.919352333333336, "name": "06a2e0206b6b98606371c1cb87481161", "fusion_lon": 0.0, "bike_id": "06a2e0206b6b98606371c1cb87481161", "is_disabled": 0, "is_reserved": 0}, {"rental_uris": {"ios": "https://dc.lft.to/lastmile_qr_scan", "android": "https://dc.lft.to/lastmile_qr_scan"}, "lon": -77.05676666666666, "type": "electric_scooter", "fusion_lat": 0.0, "lat": 38.90517583333333, "name": "474e2ea4201610121617a6fee6cf164c", "fusion_lon": 0.0, "bike_id": "474e2ea4201610121617a6fee6cf164c", "is_disabled": 0, "is_reserved": 0}, {"rental_uris": {"ios": "https://dc.lft.to/lastmile_qr_scan", "android": "https://dc.lft.to/lastmile_qr_scan"}, "lon": -77.03528033333333, "type": "electric_scooter", "fusion_lat": 0.0, "lat": 38.92859833333333, "name": "408c913aad4bd794e7286401cf004e3d", "fusion_lon": 0.0, "bike_id": "408c913aad4bd794e7286401cf004e3d", "is_disabled": 0, "is_reserved": 0}, {"rental_uris": {"ios": "https://dc.lft.to/lastmile_qr_scan", "android": "https://dc.lft.to/lastmile_qr_scan"}, "lon": -76.99606933333334, "type": "electric_scooter", "fusion_lat": 0.0, "lat": 38.886247833333336, "name": "1f42284e447f0f951955b38010f6631e", "fusion_lon": 0.0, "bike_id": "1f42284e447f0f951955b38010f6631e", "is_disabled": 0, "is_reserved": 0}, {"rental_uris": {"ios": "https://dc.lft.to/lastmile_qr_scan", "android": "https://dc.lft.to/lastmile_qr_scan"}, "lon": -77.04235316666667, "type": "electric_scooter", "fusion_lat": 0.0, "lat": 38.92132383333333, "name": "d289a33728036a5a2c6503c7b774408d", "fusion_lon": 0.0, "bike_id": "d289a33728036a5a2c6503c7b774408d", "is_disabled": 0, "is_reserved": 0}, {"rental_uris": {"ios": "https://dc.lft.to/lastmile_qr_scan", "android": "https://dc.lft.to/lastmile_qr_scan"}, "lon": -76.97325383333333, "type": "electric_scooter", "fusion_lat": 0.0, "lat": 38.930284, "name": "3dff5d01a6d6b1d3454fb5e6a22bb7cf", "fusion_lon": 0.0, "bike_id": "3dff5d01a6d6b1d3454fb5e6a22bb7cf", "is_disabled": 0, "is_reserved": 0}, {"rental_uris": {"ios": "https://dc.lft.to/lastmile_qr_scan", "android": "https://dc.lft.to/lastmile_qr_scan"}, "lon": -76.98569483333333, "type": "electric_scooter", "fusion_lat": 0.0, "lat": 38.861445833333335, "name": "02d61f1e1cf1b96e25519a070f7eee36", "fusion_lon": 0.0, "bike_id": "02d61f1e1cf1b96e25519a070f7eee36", "is_disabled": 0, "is_reserved": 0}, {"rental_uris": {"ios": "https://dc.lft.to/lastmile_qr_scan", "android": "https://dc.lft.to/lastmile_qr_scan"}, "lon": -77.02830533333334, "type": "electric_scooter", "fusion_lat": 0.0, "lat": 38.896353833333336, "name": "a5437c6c6eed8dca501b9826d418139a", "fusion_lon": 0.0, "bike_id": "a5437c6c6eed8dca501b9826d418139a", "is_disabled": 0, "is_reserved": 0}, {"rental_uris": {"ios": "https://dc.lft.to/lastmile_qr_scan", "android": "https://dc.lft.to/lastmile_qr_scan"}, "lon": -77.03358583333333, "type": "electric_scooter", "fusion_lat": 0.0, "lat": 38.9034955, "name": "6946b8cd89abdc2a84db4cb679316f67", "fusion_lon": 0.0, "bike_id": "6946b8cd89abdc2a84db4cb679316f67", "is_disabled": 0, "is_reserved": 0}, {"rental_uris": {"ios": "https://dc.lft.to/lastmile_qr_scan", "android": "https://dc.lft.to/lastmile_qr_scan"}, "lon": -77.00507866666666, "type": "electric_scooter", "fusion_lat": 0.0, "lat": 38.895933666666664, "name": "80d53f9c66bfa9f4be4bf374fc61c93a", "fusion_lon": 0.0, "bike_id": "80d53f9c66bfa9f4be4bf374fc61c93a", "is_disabled": 0, "is_reserved": 0}, {"rental_uris": {"ios": "https://dc.lft.to/lastmile_qr_scan", "android": "https://dc.lft.to/lastmile_qr_scan"}, "lon": -77.02343, "type": "electric_scooter", "fusion_lat": 0.0, "lat": 38.96205883333333, "name": "3f36fd5f21c7e5a08f76f1cb8a01966d", "fusion_lon": 0.0, "bike_id": "3f36fd5f21c7e5a08f76f1cb8a01966d", "is_disabled": 0, "is_reserved": 0}, {"rental_uris": {"ios": "https://dc.lft.to/lastmile_qr_scan", "android": "https://dc.lft.to/lastmile_qr_scan"}, "lon": -77.01205933333334, "type": "electric_scooter", "fusion_lat": 0.0, "lat": 38.89998683333334, "name": "644b873f4c88c70f120a6e1809bce83e", "fusion_lon": 0.0, "bike_id": "644b873f4c88c70f120a6e1809bce83e", "is_disabled": 0, "is_reserved": 0}, {"rental_uris": {"ios": "https://dc.lft.to/lastmile_qr_scan", "android": "https://dc.lft.to/lastmile_qr_scan"}, "lon": -77.04174966666666, "type": "electric_scooter", "fusion_lat": 0.0, "lat": 38.9198235, "name": "e78ce6401edcf9f5110d777fe04c1b60", "fusion_lon": 0.0, "bike_id": "e78ce6401edcf9f5110d777fe04c1b60", "is_disabled": 0, "is_reserved": 0}, {"rental_uris": {"ios": "https://dc.lft.to/lastmile_qr_scan", "android": "https://dc.lft.to/lastmile_qr_scan"}, "lon": -77.04654, "type": "electric_scooter", "fusion_lat": 0.0, "lat": 38.912773, "name": "c37544d26c0094904cdfc494ffc60f07", "fusion_lon": 0.0, "bike_id": "c37544d26c0094904cdfc494ffc60f07", "is_disabled": 0, "is_reserved": 0}, {"rental_uris": {"ios": "https://dc.lft.to/lastmile_qr_scan", "android": "https://dc.lft.to/lastmile_qr_scan"}, "lon": -77.00521466666666, "type": "electric_scooter", "fusion_lat": 0.0, "lat": 38.929027166666664, "name": "aead75f6defc09d8810a7ceb5f4f3997", "fusion_lon": 0.0, "bike_id": "aead75f6defc09d8810a7ceb5f4f3997", "is_disabled": 0, "is_reserved": 0}, {"rental_uris": {"ios": "https://dc.lft.to/lastmile_qr_scan", "android": "https://dc.lft.to/lastmile_qr_scan"}, "lon": -77.06411033333333, "type": "electric_scooter", "fusion_lat": 0.0, "lat": 38.909080333333335, "name": "e0680a6cfa983b5e6feb432814d4408b", "fusion_lon": 0.0, "bike_id": "e0680a6cfa983b5e6feb432814d4408b", "is_disabled": 0, "is_reserved": 0}, {"rental_uris": {"ios": "https://dc.lft.to/lastmile_qr_scan", "android": "https://dc.lft.to/lastmile_qr_scan"}, "lon": -77.05631633333333, "type": "electric_scooter", "fusion_lat": 0.0, "lat": 38.92756216666667, "name": "7b4fb580af338c2292b824db4c183edc", "fusion_lon": 0.0, "bike_id": "7b4fb580af338c2292b824db4c183edc", "is_disabled": 0, "is_reserved": 0}, {"rental_uris": {"ios": "https://dc.lft.to/lastmile_qr_scan", "android": "https://dc.lft.to/lastmile_qr_scan"}, "lon": -77.01403416666666, "type": "electric_scooter", "fusion_lat": 0.0, "lat": 38.919490333333336, "name": "be8274f2340d175779a86b4aa61b99c7", "fusion_lon": 0.0, "bike_id": "be8274f2340d175779a86b4aa61b99c7", "is_disabled": 0, "is_reserved": 0}, {"rental_uris": {"ios": "https://dc.lft.to/lastmile_qr_scan", "android": "https://dc.lft.to/lastmile_qr_scan"}, "lon": -77.04028233333334, "type": "electric_scooter", "fusion_lat": 0.0, "lat": 38.92446433333333, "name": "ee9263202cf91f24050b0b36feacd906", "fusion_lon": 0.0, "bike_id": "ee9263202cf91f24050b0b36feacd906", "is_disabled": 0, "is_reserved": 0}, {"rental_uris": {"ios": "https://dc.lft.to/lastmile_qr_scan", "android": "https://dc.lft.to/lastmile_qr_scan"}, "lon": -77.04680283333333, "type": "electric_scooter", "fusion_lat": 0.0, "lat": 38.90540566666667, "name": "ea72ad0568aa30332a0c1ecb4c4e8df1", "fusion_lon": 0.0, "bike_id": "ea72ad0568aa30332a0c1ecb4c4e8df1", "is_disabled": 0, "is_reserved": 0}, {"rental_uris": {"ios": "https://dc.lft.to/lastmile_qr_scan", "android": "https://dc.lft.to/lastmile_qr_scan"}, "lon": -77.0721475, "type": "electric_scooter", "fusion_lat": 0.0, "lat": 38.9338705, "name": "7c3c036c1757322b2f5f30f92daa9f93", "fusion_lon": 0.0, "bike_id": "7c3c036c1757322b2f5f30f92daa9f93", "is_disabled": 0, "is_reserved": 0}, {"rental_uris": {"ios": "https://dc.lft.to/lastmile_qr_scan", "android": "https://dc.lft.to/lastmile_qr_scan"}, "lon": -77.03177716666667, "type": "electric_scooter", "fusion_lat": 0.0, "lat": 38.9179255, "name": "c059a4489fc70f8e7fcb36a9035bbd3d", "fusion_lon": 0.0, "bike_id": "c059a4489fc70f8e7fcb36a9035bbd3d", "is_disabled": 0, "is_reserved": 0}, {"rental_uris": {"ios": "https://dc.lft.to/lastmile_qr_scan", "android": "https://dc.lft.to/lastmile_qr_scan"}, "lon": -77.074768, "type": "electric_scooter", "fusion_lat": 0.0, "lat": 38.960380666666666, "name": "1b6531bfb4499bfd5c495d3d01d4d03d", "fusion_lon": 0.0, "bike_id": "1b6531bfb4499bfd5c495d3d01d4d03d", "is_disabled": 0, "is_reserved": 0}, {"rental_uris": {"ios": "https://dc.lft.to/lastmile_qr_scan", "android": "https://dc.lft.to/lastmile_qr_scan"}, "lon": -77.07268416666666, "type": "electric_scooter", "fusion_lat": 0.0, "lat": 38.9348035, "name": "d7ef3c1e952753fcaedfab9e31f7187f", "fusion_lon": 0.0, "bike_id": "d7ef3c1e952753fcaedfab9e31f7187f", "is_disabled": 0, "is_reserved": 0}, {"rental_uris": {"ios": "https://dc.lft.to/lastmile_qr_scan", "android": "https://dc.lft.to/lastmile_qr_scan"}, "lon": -76.97705833333333, "type": "electric_scooter", "fusion_lat": 0.0, "lat": 38.902523, "name": "6caca4ff5a1bd8fe5c970759f6dac5ef", "fusion_lon": 0.0, "bike_id": "6caca4ff5a1bd8fe5c970759f6dac5ef", "is_disabled": 0, "is_reserved": 0}, {"rental_uris": {"ios": "https://dc.lft.to/lastmile_qr_scan", "android": "https://dc.lft.to/lastmile_qr_scan"}, "lon": -76.98554616666667, "type": "electric_scooter", "fusion_lat": 0.0, "lat": 38.899529, "name": "fbf76fb86794f57d7b480f0cac65cfdb", "fusion_lon": 0.0, "bike_id": "fbf76fb86794f57d7b480f0cac65cfdb", "is_disabled": 0, "is_reserved": 0}, {"rental_uris": {"ios": "https://dc.lft.to/lastmile_qr_scan", "android": "https://dc.lft.to/lastmile_qr_scan"}, "lon": -76.98884916666667, "type": "electric_scooter", "fusion_lat": 0.0, "lat": 38.86662283333333, "name": "067e61bf8ebf4dcf3d506f42584bb75d", "fusion_lon": 0.0, "bike_id": "067e61bf8ebf4dcf3d506f42584bb75d", "is_disabled": 0, "is_reserved": 0}, {"rental_uris": {"ios": "https://dc.lft.to/lastmile_qr_scan", "android": "https://dc.lft.to/lastmile_qr_scan"}, "lon": -77.0344905, "type": "electric_scooter", "fusion_lat": 0.0, "lat": 38.91006, "name": "b3cfc9fa6927543325609a9b0959cc36", "fusion_lon": 0.0, "bike_id": "b3cfc9fa6927543325609a9b0959cc36", "is_disabled": 0, "is_reserved": 0}, {"rental_uris": {"ios": "https://dc.lft.to/lastmile_qr_scan", "android": "https://dc.lft.to/lastmile_qr_scan"}, "lon": -77.02047266666666, "type": "electric_scooter", "fusion_lat": 0.0, "lat": 38.9155625, "name": "2575c3779a06db09e11b7f5505a45e40", "fusion_lon": 0.0, "bike_id": "2575c3779a06db09e11b7f5505a45e40", "is_disabled": 0, "is_reserved": 0}, {"rental_uris": {"ios": "https://dc.lft.to/lastmile_qr_scan", "android": "https://dc.lft.to/lastmile_qr_scan"}, "lon": -77.04341366666667, "type": "electric_scooter", "fusion_lat": 0.0, "lat": 38.9083935, "name": "1141a90663da183f98159e21e8fa7a3c", "fusion_lon": 0.0, "bike_id": "1141a90663da183f98159e21e8fa7a3c", "is_disabled": 0, "is_reserved": 0}, {"rental_uris": {"ios": "https://dc.lft.to/lastmile_qr_scan", "android": "https://dc.lft.to/lastmile_qr_scan"}, "lon": -76.99031083333334, "type": "electric_scooter", "fusion_lat": 0.0, "lat": 38.8887905, "name": "d4d5a76b03eb52b22d2b0f494d0858b3", "fusion_lon": 0.0, "bike_id": "d4d5a76b03eb52b22d2b0f494d0858b3", "is_disabled": 0, "is_reserved": 0}, {"rental_uris": {"ios": "https://dc.lft.to/lastmile_qr_scan", "android": "https://dc.lft.to/lastmile_qr_scan"}, "lon": -77.02281516666666, "type": "electric_scooter", "fusion_lat": 0.0, "lat": 38.9096, "name": "804e73350323db99f2f5b41a340e81ba", "fusion_lon": 0.0, "bike_id": "804e73350323db99f2f5b41a340e81ba", "is_disabled": 0, "is_reserved": 0}, {"rental_uris": {"ios": "https://dc.lft.to/lastmile_qr_scan", "android": "https://dc.lft.to/lastmile_qr_scan"}, "lon": -77.01792683333333, "type": "electric_scooter", "fusion_lat": 0.0, "lat": 38.91464783333333, "name": "c02c4919fe8fc2d5c5861be284b62bf2", "fusion_lon": 0.0, "bike_id": "c02c4919fe8fc2d5c5861be284b62bf2", "is_disabled": 0, "is_reserved": 0}, {"rental_uris": {"ios": "https://dc.lft.to/lastmile_qr_scan", "android": "https://dc.lft.to/lastmile_qr_scan"}, "lon": -77.096726, "type": "electric_scooter", "fusion_lat": 0.0, "lat": 38.91770566666667, "name": "cd38ecba19abcf559f566e2cfe84aba3", "fusion_lon": 0.0, "bike_id": "cd38ecba19abcf559f566e2cfe84aba3", "is_disabled": 0, "is_reserved": 0}, {"rental_uris": {"ios": "https://dc.lft.to/lastmile_qr_scan", "android": "https://dc.lft.to/lastmile_qr_scan"}, "lon": -77.04259716666667, "type": "electric_scooter", "fusion_lat": 0.0, "lat": 38.920534833333335, "name": "9abf54c18c1d484e8859f60614cf8f37", "fusion_lon": 0.0, "bike_id": "9abf54c18c1d484e8859f60614cf8f37", "is_disabled": 0, "is_reserved": 0}, {"rental_uris": {"ios": "https://dc.lft.to/lastmile_qr_scan", "android": "https://dc.lft.to/lastmile_qr_scan"}, "lon": -77.03181716666667, "type": "electric_scooter", "fusion_lat": 0.0, "lat": 38.9132565, "name": "a45f1ca94246734b3140352e45d23661", "fusion_lon": 0.0, "bike_id": "a45f1ca94246734b3140352e45d23661", "is_disabled": 0, "is_reserved": 0}, {"rental_uris": {"ios": "https://dc.lft.to/lastmile_qr_scan", "android": "https://dc.lft.to/lastmile_qr_scan"}, "lon": -77.0378815, "type": "electric_scooter", "fusion_lat": 0.0, "lat": 38.90561783333333, "name": "be8453583b91c2871ba5e049a565d319", "fusion_lon": 0.0, "bike_id": "be8453583b91c2871ba5e049a565d319", "is_disabled": 0, "is_reserved": 0}, {"rental_uris": {"ios": "https://dc.lft.to/lastmile_qr_scan", "android": "https://dc.lft.to/lastmile_qr_scan"}, "lon": -77.02390733333333, "type": "electric_scooter", "fusion_lat": 0.0, "lat": 38.90586233333333, "name": "a434753a13a43f50e9a14c46720e565e", "fusion_lon": 0.0, "bike_id": "a434753a13a43f50e9a14c46720e565e", "is_disabled": 0, "is_reserved": 0}, {"rental_uris": {"ios": "https://dc.lft.to/lastmile_qr_scan", "android": "https://dc.lft.to/lastmile_qr_scan"}, "lon": -77.03184266666666, "type": "electric_scooter", "fusion_lat": 0.0, "lat": 38.91852566666667, "name": "d675984426c1d9228765060f66b731b2", "fusion_lon": 0.0, "bike_id": "d675984426c1d9228765060f66b731b2", "is_disabled": 0, "is_reserved": 0}, {"rental_uris": {"ios": "https://dc.lft.to/lastmile_qr_scan", "android": "https://dc.lft.to/lastmile_qr_scan"}, "lon": -77.03183766666666, "type": "electric_scooter", "fusion_lat": 0.0, "lat": 38.91492383333333, "name": "2700a9b25f45e2d0026712daa7f37c46", "fusion_lon": 0.0, "bike_id": "2700a9b25f45e2d0026712daa7f37c46", "is_disabled": 0, "is_reserved": 0}, {"rental_uris": {"ios": "https://dc.lft.to/lastmile_qr_scan", "android": "https://dc.lft.to/lastmile_qr_scan"}, "lon": -77.01201283333333, "type": "electric_scooter", "fusion_lat": 0.0, "lat": 38.91559016666667, "name": "293bd64750fabe9d38332ac51f191fe5", "fusion_lon": 0.0, "bike_id": "293bd64750fabe9d38332ac51f191fe5", "is_disabled": 0, "is_reserved": 0}, {"rental_uris": {"ios": "https://dc.lft.to/lastmile_qr_scan", "android": "https://dc.lft.to/lastmile_qr_scan"}, "lon": -77.11520866666666, "type": "electric_bike", "fusion_lat": 0.0, "lat": 38.85491483333333, "name": "62fcbcf220f3848f0b533afe9dec5a15", "fusion_lon": 0.0, "bike_id": "62fcbcf220f3848f0b533afe9dec5a15", "is_disabled": 0, "is_reserved": 0}, {"rental_uris": {"ios": "https://dc.lft.to/lastmile_qr_scan", "android": "https://dc.lft.to/lastmile_qr_scan"}, "lon": -77.057442, "type": "electric_scooter", "fusion_lat": 0.0, "lat": 38.9339825, "name": "79225fb98f4130a07f044ebdba56ec67", "fusion_lon": 0.0, "bike_id": "79225fb98f4130a07f044ebdba56ec67", "is_disabled": 0, "is_reserved": 0}, {"rental_uris": {"ios": "https://dc.lft.to/lastmile_qr_scan", "android": "https://dc.lft.to/lastmile_qr_scan"}, "lon": -77.0481465, "type": "electric_scooter", "fusion_lat": 0.0, "lat": 38.916526, "name": "a29139d14333ad45968c7caf501d31fa", "fusion_lon": 0.0, "bike_id": "a29139d14333ad45968c7caf501d31fa", "is_disabled": 0, "is_reserved": 0}, {"rental_uris": {"ios": "https://dc.lft.to/lastmile_qr_scan", "android": "https://dc.lft.to/lastmile_qr_scan"}, "lon": -76.9989735, "type": "electric_scooter", "fusion_lat": 0.0, "lat": 38.90943, "name": "984781794e46089dd86fedb8d88670f4", "fusion_lon": 0.0, "bike_id": "984781794e46089dd86fedb8d88670f4", "is_disabled": 0, "is_reserved": 0}, {"rental_uris": {"ios": "https://dc.lft.to/lastmile_qr_scan", "android": "https://dc.lft.to/lastmile_qr_scan"}, "lon": -77.03457166666666, "type": "electric_scooter", "fusion_lat": 0.0, "lat": 38.9086485, "name": "b9868cc39f8ebf98280a209344269731", "fusion_lon": 0.0, "bike_id": "b9868cc39f8ebf98280a209344269731", "is_disabled": 0, "is_reserved": 0}, {"rental_uris": {"ios": "https://dc.lft.to/lastmile_qr_scan", "android": "https://dc.lft.to/lastmile_qr_scan"}, "lon": -77.03180816666666, "type": "electric_scooter", "fusion_lat": 0.0, "lat": 38.917892, "name": "3ff7002c1fef5dbdb85f2d9ad57245bc", "fusion_lon": 0.0, "bike_id": "3ff7002c1fef5dbdb85f2d9ad57245bc", "is_disabled": 0, "is_reserved": 0}, {"rental_uris": {"ios": "https://dc.lft.to/lastmile_qr_scan", "android": "https://dc.lft.to/lastmile_qr_scan"}, "lon": -77.12497533333334, "type": "electric_bike", "fusion_lat": 0.0, "lat": 39.02420883333333, "name": "6491b967692a29e7d3ce67244b772baf", "fusion_lon": 0.0, "bike_id": "6491b967692a29e7d3ce67244b772baf", "is_disabled": 0, "is_reserved": 0}, {"rental_uris": {"ios": "https://dc.lft.to/lastmile_qr_scan", "android": "https://dc.lft.to/lastmile_qr_scan"}, "lon": -77.07556833333334, "type": "electric_scooter", "fusion_lat": 0.0, "lat": 38.92092266666667, "name": "ba9b21a58d478d153c33ae685018c9a4", "fusion_lon": 0.0, "bike_id": "ba9b21a58d478d153c33ae685018c9a4", "is_disabled": 0, "is_reserved": 0}, {"rental_uris": {"ios": "https://dc.lft.to/lastmile_qr_scan", "android": "https://dc.lft.to/lastmile_qr_scan"}, "lon": -77.02637833333333, "type": "electric_scooter", "fusion_lat": 0.0, "lat": 38.89854716666667, "name": "fbe268b8a8661c543801aa8b2dc1f699", "fusion_lon": 0.0, "bike_id": "fbe268b8a8661c543801aa8b2dc1f699", "is_disabled": 0, "is_reserved": 0}, {"rental_uris": {"ios": "https://dc.lft.to/lastmile_qr_scan", "android": "https://dc.lft.to/lastmile_qr_scan"}, "lon": -77.04506416666666, "type": "electric_bike", "fusion_lat": 0.0, "lat": 38.91955466666667, "name": "1d7e328c86a36e9eb58e704898606270", "fusion_lon": 0.0, "bike_id": "1d7e328c86a36e9eb58e704898606270", "is_disabled": 0, "is_reserved": 0}, {"rental_uris": {"ios": "https://dc.lft.to/lastmile_qr_scan", "android": "https://dc.lft.to/lastmile_qr_scan"}, "lon": -77.03067366666667, "type": "electric_scooter", "fusion_lat": 0.0, "lat": 38.907501333333336, "name": "4eed8ee2e2eb583f37ce98a0bf799548", "fusion_lon": 0.0, "bike_id": "4eed8ee2e2eb583f37ce98a0bf799548", "is_disabled": 0, "is_reserved": 0}, {"rental_uris": {"ios": "https://dc.lft.to/lastmile_qr_scan", "android": "https://dc.lft.to/lastmile_qr_scan"}, "lon": -77.0550415, "type": "electric_scooter", "fusion_lat": 0.0, "lat": 38.9298005, "name": "93d5073b275fcfb62262836919e0b267", "fusion_lon": 0.0, "bike_id": "93d5073b275fcfb62262836919e0b267", "is_disabled": 0, "is_reserved": 0}, {"rental_uris": {"ios": "https://dc.lft.to/lastmile_qr_scan", "android": "https://dc.lft.to/lastmile_qr_scan"}, "lon": -77.032273, "type": "electric_scooter", "fusion_lat": 0.0, "lat": 38.914068, "name": "dc45a95b7541aecfa11d347a324cbf07", "fusion_lon": 0.0, "bike_id": "dc45a95b7541aecfa11d347a324cbf07", "is_disabled": 0, "is_reserved": 0}, {"rental_uris": {"ios": "https://dc.lft.to/lastmile_qr_scan", "android": "https://dc.lft.to/lastmile_qr_scan"}, "lon": -76.95753816666667, "type": "electric_scooter", "fusion_lat": 0.0, "lat": 38.88426366666667, "name": "aabe6637f3de2fe7f033321dfc629d0e", "fusion_lon": 0.0, "bike_id": "aabe6637f3de2fe7f033321dfc629d0e", "is_disabled": 0, "is_reserved": 0}, {"rental_uris": {"ios": "https://dc.lft.to/lastmile_qr_scan", "android": "https://dc.lft.to/lastmile_qr_scan"}, "lon": -76.94652666666667, "type": "electric_scooter", "fusion_lat": 0.0, "lat": 38.89824183333333, "name": "10eddd1b7d1af36275d66819fdf354cc", "fusion_lon": 0.0, "bike_id": "10eddd1b7d1af36275d66819fdf354cc", "is_disabled": 0, "is_reserved": 0}, {"rental_uris": {"ios": "https://dc.lft.to/lastmile_qr_scan", "android": "https://dc.lft.to/lastmile_qr_scan"}, "lon": -77.011102, "type": "electric_scooter", "fusion_lat": 0.0, "lat": 38.89533483333334, "name": "354d63d74759c19977d7cf73030ea4bc", "fusion_lon": 0.0, "bike_id": "354d63d74759c19977d7cf73030ea4bc", "is_disabled": 0, "is_reserved": 0}, {"rental_uris": {"ios": "https://dc.lft.to/lastmile_qr_scan", "android": "https://dc.lft.to/lastmile_qr_scan"}, "lon": -77.02387116666667, "type": "electric_scooter", "fusion_lat": 0.0, "lat": 38.91601333333333, "name": "ce49f484f6a69f6d43a476dc1196c5fa", "fusion_lon": 0.0, "bike_id": "ce49f484f6a69f6d43a476dc1196c5fa", "is_disabled": 0, "is_reserved": 0}, {"rental_uris": {"ios": "https://dc.lft.to/lastmile_qr_scan", "android": "https://dc.lft.to/lastmile_qr_scan"}, "lon": -77.06350366666666, "type": "electric_bike", "fusion_lat": 0.0, "lat": 38.908527166666666, "name": "059395ec57eb6d9446af259852b1c5f5", "fusion_lon": 0.0, "bike_id": "059395ec57eb6d9446af259852b1c5f5", "is_disabled": 0, "is_reserved": 0}, {"rental_uris": {"ios": "https://dc.lft.to/lastmile_qr_scan", "android": "https://dc.lft.to/lastmile_qr_scan"}, "lon": -77.03360966666666, "type": "electric_scooter", "fusion_lat": 0.0, "lat": 38.9063445, "name": "c85d4e025a07b1415580912ecd547a82", "fusion_lon": 0.0, "bike_id": "c85d4e025a07b1415580912ecd547a82", "is_disabled": 0, "is_reserved": 0}, {"rental_uris": {"ios": "https://dc.lft.to/lastmile_qr_scan", "android": "https://dc.lft.to/lastmile_qr_scan"}, "lon": -77.03186683333334, "type": "electric_scooter", "fusion_lat": 0.0, "lat": 38.919192, "name": "f7455423883d37da96f137f47cff1e30", "fusion_lon": 0.0, "bike_id": "f7455423883d37da96f137f47cff1e30", "is_disabled": 0, "is_reserved": 0}, {"rental_uris": {"ios": "https://dc.lft.to/lastmile_qr_scan", "android": "https://dc.lft.to/lastmile_qr_scan"}, "lon": -76.97251166666666, "type": "electric_bike", "fusion_lat": 0.0, "lat": 38.95741733333333, "name": "42d88fff429037f67cff29bdfda13eb3", "fusion_lon": 0.0, "bike_id": "42d88fff429037f67cff29bdfda13eb3", "is_disabled": 0, "is_reserved": 0}, {"rental_uris": {"ios": "https://dc.lft.to/lastmile_qr_scan", "android": "https://dc.lft.to/lastmile_qr_scan"}, "lon": -77.04889433333334, "type": "electric_scooter", "fusion_lat": 0.0, "lat": 38.90652433333333, "name": "f4b745203dda5bc58b6084aeae80ce1f", "fusion_lon": 0.0, "bike_id": "f4b745203dda5bc58b6084aeae80ce1f", "is_disabled": 0, "is_reserved": 0}, {"rental_uris": {"ios": "https://dc.lft.to/lastmile_qr_scan", "android": "https://dc.lft.to/lastmile_qr_scan"}, "lon": -77.03207816666666, "type": "electric_scooter", "fusion_lat": 0.0, "lat": 38.93758016666666, "name": "7e60e13e4bf1888dcf4e53ff0f1a822e", "fusion_lon": 0.0, "bike_id": "7e60e13e4bf1888dcf4e53ff0f1a822e", "is_disabled": 0, "is_reserved": 0}, {"rental_uris": {"ios": "https://dc.lft.to/lastmile_qr_scan", "android": "https://dc.lft.to/lastmile_qr_scan"}, "lon": -77.00487766666667, "type": "electric_scooter", "fusion_lat": 0.0, "lat": 38.912562, "name": "d1de972524ae98b956068c890efdbb88", "fusion_lon": 0.0, "bike_id": "d1de972524ae98b956068c890efdbb88", "is_disabled": 0, "is_reserved": 0}, {"rental_uris": {"ios": "https://dc.lft.to/lastmile_qr_scan", "android": "https://dc.lft.to/lastmile_qr_scan"}, "lon": -77.0499905, "type": "electric_scooter", "fusion_lat": 0.0, "lat": 38.90421416666667, "name": "b9ec01f9b43e8c78e02dd8106265c6cb", "fusion_lon": 0.0, "bike_id": "b9ec01f9b43e8c78e02dd8106265c6cb", "is_disabled": 0, "is_reserved": 0}, {"rental_uris": {"ios": "https://dc.lft.to/lastmile_qr_scan", "android": "https://dc.lft.to/lastmile_qr_scan"}, "lon": -77.01551616666667, "type": "electric_scooter", "fusion_lat": 0.0, "lat": 38.9026205, "name": "334816c49d2b643c59c6528b71e65570", "fusion_lon": 0.0, "bike_id": "334816c49d2b643c59c6528b71e65570", "is_disabled": 0, "is_reserved": 0}, {"rental_uris": {"ios": "https://dc.lft.to/lastmile_qr_scan", "android": "https://dc.lft.to/lastmile_qr_scan"}, "lon": -77.021604, "type": "electric_scooter", "fusion_lat": 0.0, "lat": 38.91624816666667, "name": "e4a764290ebdfa93ebec7c34c1e91a09", "fusion_lon": 0.0, "bike_id": "e4a764290ebdfa93ebec7c34c1e91a09", "is_disabled": 0, "is_reserved": 0}, {"rental_uris": {"ios": "https://dc.lft.to/lastmile_qr_scan", "android": "https://dc.lft.to/lastmile_qr_scan"}, "lon": -77.03212983333333, "type": "electric_scooter", "fusion_lat": 0.0, "lat": 38.91719366666667, "name": "98a26e1682a4939b3339a02ef7c46899", "fusion_lon": 0.0, "bike_id": "98a26e1682a4939b3339a02ef7c46899", "is_disabled": 0, "is_reserved": 0}, {"rental_uris": {"ios": "https://dc.lft.to/lastmile_qr_scan", "android": "https://dc.lft.to/lastmile_qr_scan"}, "lon": -77.05882166666666, "type": "electric_scooter", "fusion_lat": 0.0, "lat": 38.93633633333334, "name": "af7878b3accf3af04b95c998ecca9755", "fusion_lon": 0.0, "bike_id": "af7878b3accf3af04b95c998ecca9755", "is_disabled": 0, "is_reserved": 0}, {"rental_uris": {"ios": "https://dc.lft.to/lastmile_qr_scan", "android": "https://dc.lft.to/lastmile_qr_scan"}, "lon": -76.946332, "type": "electric_scooter", "fusion_lat": 0.0, "lat": 38.89843166666667, "name": "653faa44eca8ee4b49adc29044a31090", "fusion_lon": 0.0, "bike_id": "653faa44eca8ee4b49adc29044a31090", "is_disabled": 0, "is_reserved": 0}, {"rental_uris": {"ios": "https://dc.lft.to/lastmile_qr_scan", "android": "https://dc.lft.to/lastmile_qr_scan"}, "lon": -77.04823333333333, "type": "electric_scooter", "fusion_lat": 0.0, "lat": 38.907971, "name": "eef6008831b32f838789b7f0cfd01fd4", "fusion_lon": 0.0, "bike_id": "eef6008831b32f838789b7f0cfd01fd4", "is_disabled": 0, "is_reserved": 0}, {"rental_uris": {"ios": "https://dc.lft.to/lastmile_qr_scan", "android": "https://dc.lft.to/lastmile_qr_scan"}, "lon": -77.02876783333333, "type": "electric_scooter", "fusion_lat": 0.0, "lat": 38.93980083333334, "name": "7ff321e84934348964094be45f054388", "fusion_lon": 0.0, "bike_id": "7ff321e84934348964094be45f054388", "is_disabled": 0, "is_reserved": 0}, {"rental_uris": {"ios": "https://dc.lft.to/lastmile_qr_scan", "android": "https://dc.lft.to/lastmile_qr_scan"}, "lon": -77.003465, "type": "electric_scooter", "fusion_lat": 0.0, "lat": 38.892616333333336, "name": "f818ab6f62bc13a53631da8233069c18", "fusion_lon": 0.0, "bike_id": "f818ab6f62bc13a53631da8233069c18", "is_disabled": 0, "is_reserved": 0}, {"rental_uris": {"ios": "https://dc.lft.to/lastmile_qr_scan", "android": "https://dc.lft.to/lastmile_qr_scan"}, "lon": -77.00488333333334, "type": "electric_scooter", "fusion_lat": 0.0, "lat": 38.878949666666664, "name": "430293edcdec14bc92f685731068344b", "fusion_lon": 0.0, "bike_id": "430293edcdec14bc92f685731068344b", "is_disabled": 0, "is_reserved": 0}, {"rental_uris": {"ios": "https://dc.lft.to/lastmile_qr_scan", "android": "https://dc.lft.to/lastmile_qr_scan"}, "lon": -77.0292015, "type": "electric_scooter", "fusion_lat": 0.0, "lat": 38.899296666666665, "name": "ea1af08a2241b88579e6beafaa418bf8", "fusion_lon": 0.0, "bike_id": "ea1af08a2241b88579e6beafaa418bf8", "is_disabled": 0, "is_reserved": 0}, {"rental_uris": {"ios": "https://dc.lft.to/lastmile_qr_scan", "android": "https://dc.lft.to/lastmile_qr_scan"}, "lon": -77.08863266666667, "type": "electric_scooter", "fusion_lat": 0.0, "lat": 38.909878166666665, "name": "b6b8d956f7cb827d9801471ba790aee6", "fusion_lon": 0.0, "bike_id": "b6b8d956f7cb827d9801471ba790aee6", "is_disabled": 0, "is_reserved": 0}, {"rental_uris": {"ios": "https://dc.lft.to/lastmile_qr_scan", "android": "https://dc.lft.to/lastmile_qr_scan"}, "lon": -77.07024133333333, "type": "electric_bike", "fusion_lat": 0.0, "lat": 38.9063005, "name": "23165bf09555e918a0a962c9b931e4c7", "fusion_lon": 0.0, "bike_id": "23165bf09555e918a0a962c9b931e4c7", "is_disabled": 0, "is_reserved": 0}, {"rental_uris": {"ios": "https://dc.lft.to/lastmile_qr_scan", "android": "https://dc.lft.to/lastmile_qr_scan"}, "lon": -77.00730916666667, "type": "electric_scooter", "fusion_lat": 0.0, "lat": 38.8717605, "name": "d788f3c7a7d541d2b5719fa259b22382", "fusion_lon": 0.0, "bike_id": "d788f3c7a7d541d2b5719fa259b22382", "is_disabled": 0, "is_reserved": 0}, {"rental_uris": {"ios": "https://dc.lft.to/lastmile_qr_scan", "android": "https://dc.lft.to/lastmile_qr_scan"}, "lon": -76.916526, "type": "electric_bike", "fusion_lat": 0.0, "lat": 38.868585833333334, "name": "c5196d1afc99eb9561e9a2ae1665eda1", "fusion_lon": 0.0, "bike_id": "c5196d1afc99eb9561e9a2ae1665eda1", "is_disabled": 0, "is_reserved": 0}, {"rental_uris": {"ios": "https://dc.lft.to/lastmile_qr_scan", "android": "https://dc.lft.to/lastmile_qr_scan"}, "lon": -76.94847833333333, "type": "electric_scooter", "fusion_lat": 0.0, "lat": 38.8958405, "name": "9ed4fc0ac3ca1ed4a5b6150b87c42cdc", "fusion_lon": 0.0, "bike_id": "9ed4fc0ac3ca1ed4a5b6150b87c42cdc", "is_disabled": 0, "is_reserved": 0}, {"rental_uris": {"ios": "https://dc.lft.to/lastmile_qr_scan", "android": "https://dc.lft.to/lastmile_qr_scan"}, "lon": -77.04164516666667, "type": "electric_scooter", "fusion_lat": 0.0, "lat": 38.913435166666666, "name": "7f713f16ead82a3be53fbe42e5327ffd", "fusion_lon": 0.0, "bike_id": "7f713f16ead82a3be53fbe42e5327ffd", "is_disabled": 0, "is_reserved": 0}, {"rental_uris": {"ios": "https://dc.lft.to/lastmile_qr_scan", "android": "https://dc.lft.to/lastmile_qr_scan"}, "lon": -77.02520066666666, "type": "electric_scooter", "fusion_lat": 0.0, "lat": 38.90203966666667, "name": "e0c9f874bbfd22dae783b14dd02f956f", "fusion_lon": 0.0, "bike_id": "e0c9f874bbfd22dae783b14dd02f956f", "is_disabled": 0, "is_reserved": 0}, {"rental_uris": {"ios": "https://dc.lft.to/lastmile_qr_scan", "android": "https://dc.lft.to/lastmile_qr_scan"}, "lon": -77.04487383333333, "type": "electric_scooter", "fusion_lat": 0.0, "lat": 38.919210666666665, "name": "ba10923a94c73d1bb94097eb7c587c98", "fusion_lon": 0.0, "bike_id": "ba10923a94c73d1bb94097eb7c587c98", "is_disabled": 0, "is_reserved": 0}, {"rental_uris": {"ios": "https://dc.lft.to/lastmile_qr_scan", "android": "https://dc.lft.to/lastmile_qr_scan"}, "lon": -77.01221833333334, "type": "electric_scooter", "fusion_lat": 0.0, "lat": 38.91017816666667, "name": "8b8a57cc6a731b6eaabe82a03fae3380", "fusion_lon": 0.0, "bike_id": "8b8a57cc6a731b6eaabe82a03fae3380", "is_disabled": 0, "is_reserved": 0}, {"rental_uris": {"ios": "https://dc.lft.to/lastmile_qr_scan", "android": "https://dc.lft.to/lastmile_qr_scan"}, "lon": -77.071498, "type": "electric_scooter", "fusion_lat": 0.0, "lat": 38.907737, "name": "ea1bee0f0abebe9db275ecc18b9a1f38", "fusion_lon": 0.0, "bike_id": "ea1bee0f0abebe9db275ecc18b9a1f38", "is_disabled": 0, "is_reserved": 0}, {"rental_uris": {"ios": "https://dc.lft.to/lastmile_qr_scan", "android": "https://dc.lft.to/lastmile_qr_scan"}, "lon": -77.0020335, "type": "electric_scooter", "fusion_lat": 0.0, "lat": 38.902200666666666, "name": "44aa4c94e67fc1d8d68efa76eb8222b5", "fusion_lon": 0.0, "bike_id": "44aa4c94e67fc1d8d68efa76eb8222b5", "is_disabled": 0, "is_reserved": 0}, {"rental_uris": {"ios": "https://dc.lft.to/lastmile_qr_scan", "android": "https://dc.lft.to/lastmile_qr_scan"}, "lon": -77.03253083333334, "type": "electric_scooter", "fusion_lat": 0.0, "lat": 38.932424833333336, "name": "a22baab7fef1c78fd11ba60d383087ab", "fusion_lon": 0.0, "bike_id": "a22baab7fef1c78fd11ba60d383087ab", "is_disabled": 0, "is_reserved": 0}, {"rental_uris": {"ios": "https://dc.lft.to/lastmile_qr_scan", "android": "https://dc.lft.to/lastmile_qr_scan"}, "lon": -77.02250916666667, "type": "electric_scooter", "fusion_lat": 0.0, "lat": 38.9166345, "name": "674ee6a376c75c4e3adb314384bf4e4b", "fusion_lon": 0.0, "bike_id": "674ee6a376c75c4e3adb314384bf4e4b", "is_disabled": 0, "is_reserved": 0}, {"rental_uris": {"ios": "https://dc.lft.to/lastmile_qr_scan", "android": "https://dc.lft.to/lastmile_qr_scan"}, "lon": -76.97728216666667, "type": "electric_scooter", "fusion_lat": 0.0, "lat": 38.87287366666666, "name": "a8b9394bb0b8cc4009d0478d4ae71fb2", "fusion_lon": 0.0, "bike_id": "a8b9394bb0b8cc4009d0478d4ae71fb2", "is_disabled": 0, "is_reserved": 0}, {"rental_uris": {"ios": "https://dc.lft.to/lastmile_qr_scan", "android": "https://dc.lft.to/lastmile_qr_scan"}, "lon": -77.03944233333333, "type": "electric_scooter", "fusion_lat": 0.0, "lat": 38.931538833333335, "name": "539920e42b5906ebb8ea80ef282fcd4a", "fusion_lon": 0.0, "bike_id": "539920e42b5906ebb8ea80ef282fcd4a", "is_disabled": 0, "is_reserved": 0}, {"rental_uris": {"ios": "https://dc.lft.to/lastmile_qr_scan", "android": "https://dc.lft.to/lastmile_qr_scan"}, "lon": -77.01531083333333, "type": "electric_scooter", "fusion_lat": 0.0, "lat": 38.8982035, "name": "792232bb8232ae86ca57de975d926672", "fusion_lon": 0.0, "bike_id": "792232bb8232ae86ca57de975d926672", "is_disabled": 0, "is_reserved": 0}, {"rental_uris": {"ios": "https://dc.lft.to/lastmile_qr_scan", "android": "https://dc.lft.to/lastmile_qr_scan"}, "lon": -77.05471566666667, "type": "electric_scooter", "fusion_lat": 0.0, "lat": 38.90502716666667, "name": "117cda91a80f8715d2d14f45a8dc428d", "fusion_lon": 0.0, "bike_id": "117cda91a80f8715d2d14f45a8dc428d", "is_disabled": 0, "is_reserved": 0}, {"rental_uris": {"ios": "https://dc.lft.to/lastmile_qr_scan", "android": "https://dc.lft.to/lastmile_qr_scan"}, "lon": -76.99775700000001, "type": "electric_scooter", "fusion_lat": 0.0, "lat": 38.844254166666666, "name": "95c1f193c1247a7236334abc4b8d3663", "fusion_lon": 0.0, "bike_id": "95c1f193c1247a7236334abc4b8d3663", "is_disabled": 0, "is_reserved": 0}, {"rental_uris": {"ios": "https://dc.lft.to/lastmile_qr_scan", "android": "https://dc.lft.to/lastmile_qr_scan"}, "lon": -77.04291616666667, "type": "electric_scooter", "fusion_lat": 0.0, "lat": 38.907319666666666, "name": "ea526c16ceb398d5d0da8191dcbf80ae", "fusion_lon": 0.0, "bike_id": "ea526c16ceb398d5d0da8191dcbf80ae", "is_disabled": 0, "is_reserved": 0}, {"rental_uris": {"ios": "https://dc.lft.to/lastmile_qr_scan", "android": "https://dc.lft.to/lastmile_qr_scan"}, "lon": -77.024992, "type": "electric_scooter", "fusion_lat": 0.0, "lat": 38.88031516666667, "name": "19a02e908785367de6713c3bf9f0ee0f", "fusion_lon": 0.0, "bike_id": "19a02e908785367de6713c3bf9f0ee0f", "is_disabled": 0, "is_reserved": 0}, {"rental_uris": {"ios": "https://dc.lft.to/lastmile_qr_scan", "android": "https://dc.lft.to/lastmile_qr_scan"}, "lon": -77.03788116666666, "type": "electric_bike", "fusion_lat": 0.0, "lat": 38.996777, "name": "4331040ad0542048b361dc25c3b9b6af", "fusion_lon": 0.0, "bike_id": "4331040ad0542048b361dc25c3b9b6af", "is_disabled": 0, "is_reserved": 0}, {"rental_uris": {"ios": "https://dc.lft.to/lastmile_qr_scan", "android": "https://dc.lft.to/lastmile_qr_scan"}, "lon": -77.04479883333333, "type": "electric_scooter", "fusion_lat": 0.0, "lat": 38.911001, "name": "2f83bdadaacdb6d766527261e4822ae2", "fusion_lon": 0.0, "bike_id": "2f83bdadaacdb6d766527261e4822ae2", "is_disabled": 0, "is_reserved": 0}, {"rental_uris": {"ios": "https://dc.lft.to/lastmile_qr_scan", "android": "https://dc.lft.to/lastmile_qr_scan"}, "lon": -77.02977733333333, "type": "electric_scooter", "fusion_lat": 0.0, "lat": 38.900528666666666, "name": "3a409c08c880a619367a6aa88964565c", "fusion_lon": 0.0, "bike_id": "3a409c08c880a619367a6aa88964565c", "is_disabled": 0, "is_reserved": 0}, {"rental_uris": {"ios": "https://dc.lft.to/lastmile_qr_scan", "android": "https://dc.lft.to/lastmile_qr_scan"}, "lon": -77.13178366666666, "type": "electric_bike", "fusion_lat": 0.0, "lat": 38.869127666666664, "name": "a4f3f065af58b3c2daccd2fcc30df933", "fusion_lon": 0.0, "bike_id": "a4f3f065af58b3c2daccd2fcc30df933", "is_disabled": 0, "is_reserved": 0}, {"rental_uris": {"ios": "https://dc.lft.to/lastmile_qr_scan", "android": "https://dc.lft.to/lastmile_qr_scan"}, "lon": -76.9743115, "type": "electric_bike", "fusion_lat": 0.0, "lat": 38.864099, "name": "557273552a3148ddae4e9e663221e8ba", "fusion_lon": 0.0, "bike_id": "557273552a3148ddae4e9e663221e8ba", "is_disabled": 0, "is_reserved": 0}, {"rental_uris": {"ios": "https://dc.lft.to/lastmile_qr_scan", "android": "https://dc.lft.to/lastmile_qr_scan"}, "lon": -77.0314695, "type": "electric_scooter", "fusion_lat": 0.0, "lat": 38.91264133333333, "name": "6dc4e6ee71a3c13390c826eb3f8389a0", "fusion_lon": 0.0, "bike_id": "6dc4e6ee71a3c13390c826eb3f8389a0", "is_disabled": 0, "is_reserved": 0}, {"rental_uris": {"ios": "https://dc.lft.to/lastmile_qr_scan", "android": "https://dc.lft.to/lastmile_qr_scan"}, "lon": -77.03631066666667, "type": "electric_scooter", "fusion_lat": 0.0, "lat": 38.93715683333333, "name": "a8fc46b0e5cafcda7869ee1b7f05f80a", "fusion_lon": 0.0, "bike_id": "a8fc46b0e5cafcda7869ee1b7f05f80a", "is_disabled": 0, "is_reserved": 0}, {"rental_uris": {"ios": "https://dc.lft.to/lastmile_qr_scan", "android": "https://dc.lft.to/lastmile_qr_scan"}, "lon": -76.94942233333333, "type": "electric_scooter", "fusion_lat": 0.0, "lat": 38.88377116666667, "name": "9137827a94ac2e4c27f90c26f5ad3a3a", "fusion_lon": 0.0, "bike_id": "9137827a94ac2e4c27f90c26f5ad3a3a", "is_disabled": 0, "is_reserved": 0}, {"rental_uris": {"ios": "https://dc.lft.to/lastmile_qr_scan", "android": "https://dc.lft.to/lastmile_qr_scan"}, "lon": -77.03931233333333, "type": "electric_scooter", "fusion_lat": 0.0, "lat": 38.9210435, "name": "79b01aef21f631f4140fcfd58f1de826", "fusion_lon": 0.0, "bike_id": "79b01aef21f631f4140fcfd58f1de826", "is_disabled": 0, "is_reserved": 0}, {"rental_uris": {"ios": "https://dc.lft.to/lastmile_qr_scan", "android": "https://dc.lft.to/lastmile_qr_scan"}, "lon": -76.95740983333333, "type": "electric_scooter", "fusion_lat": 0.0, "lat": 38.8921665, "name": "da70e36272ddfd7df055e33949422a81", "fusion_lon": 0.0, "bike_id": "da70e36272ddfd7df055e33949422a81", "is_disabled": 0, "is_reserved": 0}, {"rental_uris": {"ios": "https://dc.lft.to/lastmile_qr_scan", "android": "https://dc.lft.to/lastmile_qr_scan"}, "lon": -77.0331055, "type": "electric_scooter", "fusion_lat": 0.0, "lat": 38.901534166666664, "name": "733e08bb9d7c187767eb8fcd7e970b93", "fusion_lon": 0.0, "bike_id": "733e08bb9d7c187767eb8fcd7e970b93", "is_disabled": 0, "is_reserved": 0}, {"rental_uris": {"ios": "https://dc.lft.to/lastmile_qr_scan", "android": "https://dc.lft.to/lastmile_qr_scan"}, "lon": -77.0613645, "type": "electric_scooter", "fusion_lat": 0.0, "lat": 38.90241233333333, "name": "fd6708a6551bdb437509069211fceec9", "fusion_lon": 0.0, "bike_id": "fd6708a6551bdb437509069211fceec9", "is_disabled": 0, "is_reserved": 0}, {"rental_uris": {"ios": "https://dc.lft.to/lastmile_qr_scan", "android": "https://dc.lft.to/lastmile_qr_scan"}, "lon": -77.05903066666667, "type": "electric_scooter", "fusion_lat": 0.0, "lat": 38.9008095, "name": "73e9fe6fca219cebb1f16ce0989f6708", "fusion_lon": 0.0, "bike_id": "73e9fe6fca219cebb1f16ce0989f6708", "is_disabled": 0, "is_reserved": 0}, {"rental_uris": {"ios": "https://dc.lft.to/lastmile_qr_scan", "android": "https://dc.lft.to/lastmile_qr_scan"}, "lon": -77.05509783333333, "type": "electric_scooter", "fusion_lat": 0.0, "lat": 38.9284355, "name": "4707f97caeafe16c6d6b6e68ed3eb3dd", "fusion_lon": 0.0, "bike_id": "4707f97caeafe16c6d6b6e68ed3eb3dd", "is_disabled": 0, "is_reserved": 0}, {"rental_uris": {"ios": "https://dc.lft.to/lastmile_qr_scan", "android": "https://dc.lft.to/lastmile_qr_scan"}, "lon": -77.016159, "type": "electric_scooter", "fusion_lat": 0.0, "lat": 38.90657, "name": "8aaf56d1ae39ba1a72cf35c3af149713", "fusion_lon": 0.0, "bike_id": "8aaf56d1ae39ba1a72cf35c3af149713", "is_disabled": 0, "is_reserved": 0}, {"rental_uris": {"ios": "https://dc.lft.to/lastmile_qr_scan", "android": "https://dc.lft.to/lastmile_qr_scan"}, "lon": -77.00567416666667, "type": "electric_bike", "fusion_lat": 0.0, "lat": 38.90949083333334, "name": "8b1d2e93f52b7488b47033e01a28b906", "fusion_lon": 0.0, "bike_id": "8b1d2e93f52b7488b47033e01a28b906", "is_disabled": 0, "is_reserved": 0}, {"rental_uris": {"ios": "https://dc.lft.to/lastmile_qr_scan", "android": "https://dc.lft.to/lastmile_qr_scan"},