{"data": {"bikes": [{"bike_id": "3f2ddd8cf1caa0bb6d7cd4a581d921a4", "type": "electric_scooter", "is_disabled": 0, "lat": 38.873859, "rental_uris": {"ios": "https://dc.lft.to/lastmile_qr_scan", "android": "https://dc.lft.to/lastmile_qr_scan"}, "is_reserved": 0, "fusion_lon": 0.0, "fusion_lat": 0.0, "lon": -77.04345266666667, "name": "3f2ddd8cf1caa0bb6d7cd4a581d921a4"}, {"bike_id": "d98420e314ae7a702a2545e64cc4a43a", "type": "electric_scooter", "is_disabled": 0, "lat": 38.88510516666667, "rental_uris": {"ios": "https://dc.lft.to/lastmile_qr_scan", "android": "https://dc.lft.to/lastmile_qr_scan"}, "is_reserved": 0, "fusion_lon": 0.0, "fusion_lat": 0.0, "lon": -77.0172755, "name": "d98420e314ae7a702a2545e64cc4a43a"}, {"bike_id": "e9ca612c27cf4cff90f56b4a34f0005d", "type": "electric_scooter", "is_disabled": 0, "lat": 38.90948216666666, "rental_uris": {"ios": "https://dc.lft.to/lastmile_qr_scan", "android": "https://dc.lft.to/lastmile_qr_scan"}, "is_reserved": 0, "fusion_lon": 0.0, "fusion_lat": 0.0, "lon": -77.03445133333334, "name": "e9ca612c27cf4cff90f56b4a34f0005d"}, {"bike_id": "adcd343ad7aed9a1bec8d339fe1f6e50", "type": "electric_scooter", "is_disabled": 0, "lat": 38.90038666666667, "rental_uris": {"ios": "https://dc.lft.to/lastmile_qr_scan", "android": "https://dc.lft.to/lastmile_qr_scan"}, "is_reserved": 0, "fusion_lon": 0.0, "fusion_lat": 0.0, "lon": -77.036636, "name": "adcd343ad7aed9a1bec8d339fe1f6e50"}, {"bike_id": "60baffc82c88aa80ea46066ebba6f143", "type": "electric_scooter", "is_disabled": 0, "lat": 38.91077633333333, "rental_uris": {"ios": "https://dc.lft.to/lastmile_qr_scan", "android": "https://dc.lft.to/lastmile_qr_scan"}, "is_reserved": 0, "fusion_lon": 0.0, "fusion_lat": 0.0, "lon": -77.03852316666666, "name": "60baffc82c88aa80ea46066ebba6f143"}, {"bike_id": "ed2c7dceff428ef76847447e7fef6e1b", "type": "electric_scooter", "is_disabled": 0, "lat": 38.866855, "rental_uris": {"ios": "https://dc.lft.to/lastmile_qr_scan", "android": "https://dc.lft.to/lastmile_qr_scan"}, "is_reserved": 0, "fusion_lon": 0.0, "fusion_lat": 0.0, "lon": -76.98576683333333, "name": "ed2c7dceff428ef76847447e7fef6e1b"}, {"bike_id": "0638ea41e8e94e323c933d4b8c054772", "type": "electric_scooter", "is_disabled": 0, "lat": 38.9056215, "rental_uris": {"ios": "https://dc.lft.to/lastmile_qr_scan", "android": "https://dc.lft.to/lastmile_qr_scan"}, "is_reserved": 0, "fusion_lon": 0.0, "fusion_lat": 0.0, "lon": -77.028303, "name": "0638ea41e8e94e323c933d4b8c054772"}, {"bike_id": "09f6cbba57b2bd958e94ea072a2c4754", "type": "electric_scooter", "is_disabled": 0, "lat": 38.92472, "rental_uris": {"ios": "https://dc.lft.to/lastmile_qr_scan", "android": "https://dc.lft.to/lastmile_qr_scan"}, "is_reserved": 0, "fusion_lon": 0.0, "fusion_lat": 0.0, "lon": -77.052061, "name": "09f6cbba57b2bd958e94ea072a2c4754"}, {"bike_id": "03eaedfd3086fe512f8b879417262cb6", "type": "electric_scooter", "is_disabled": 0, "lat": 38.8985775, "rental_uris": {"ios": "https://dc.lft.to/lastmile_qr_scan", "android": "https://dc.lft.to/lastmile_qr_scan"}, "is_reserved": 0, "fusion_lon": 0.0, "fusion_lat": 0.0, "lon": -77.04875866666667, "name": "03eaedfd3086fe512f8b879417262cb6"}, {"bike_id": "20677816e463ec68c7714dd3303b1bb3", "type": "electric_scooter", "is_disabled": 0, "lat": 38.89672366666667, "rental_uris": {"ios": "https://dc.lft.to/lastmile_qr_scan", "android": "https://dc.lft.to/lastmile_qr_scan"}, "is_reserved": 0, "fusion_lon": 0.0, "fusion_lat": 0.0, "lon": -76.98823233333333, "name": "20677816e463ec68c7714dd3303b1bb3"}, {"bike_id": "e13232b564ceff68cd8721610f3d102a", "type": "electric_scooter", "is_disabled": 0, "lat": 38.90030983333333, "rental_uris": {"ios": "https://dc.lft.to/lastmile_qr_scan", "android": "https://dc.lft.to/lastmile_qr_scan"}, "is_reserved": 0, "fusion_lon": 0.0, "fusion_lat": 0.0, "lon": -76.99899883333333, "name": "e13232b564ceff68cd8721610f3d102a"}, {"bike_id": "1b8d228670f0fb17dc82f0a776da5737", "type": "electric_scooter", "is_disabled": 0, "lat": 38.89738916666667, "rental_uris": {"ios": "https://dc.lft.to/lastmile_qr_scan", "android": "https://dc.lft.to/lastmile_qr_scan"}, "is_reserved": 0, "fusion_lon": 0.0, "fusion_lat": 0.0, "lon": -77.03336766666666, "name": "1b8d228670f0fb17dc82f0a776da5737"}, {"bike_id": "ec1840da816b50b281168ab6e7e642a8", "type": "electric_scooter", "is_disabled": 0, "lat": 38.91353566666667, "rental_uris": {"ios": "https://dc.lft.to/lastmile_qr_scan", "android": "https://dc.lft.to/lastmile_qr_scan"}, "is_reserved": 0, "fusion_lon": 0.0, "fusion_lat": 0.0, "lon": -77.0318345, "name": "ec1840da816b50b281168ab6e7e642a8"}, {"bike_id": "b1b45aa6352df53130f14f691005edcf", "type": "electric_scooter", "is_disabled": 0, "lat": 38.92089716666667, "rental_uris": {"ios": "https://dc.lft.to/lastmile_qr_scan", "android": "https://dc.lft.to/lastmile_qr_scan"}, "is_reserved": 0, "fusion_lon": 0.0, "fusion_lat": 0.0, "lon": -77.02538233333334, "name": "b1b45aa6352df53130f14f691005edcf"}, {"bike_id": "8435758f02d838df324712b85ecf1bd7", "type": "electric_scooter", "is_disabled": 0, "lat": 38.8706955, "rental_uris": {"ios": "https://dc.lft.to/lastmile_qr_scan", "android": "https://dc.lft.to/lastmile_qr_scan"}, "is_reserved": 0, "fusion_lon": 0.0, "fusion_lat": 0.0, "lon": -76.98909716666667, "name": "8435758f02d838df324712b85ecf1bd7"}, {"bike_id": "7f95c857a3c62c036d08e76a84cacffa", "type": "electric_scooter", "is_disabled": 0, "lat": 38.903042666666664, "rental_uris": {"ios": "https://dc.lft.to/lastmile_qr_scan", "android": "https://dc.lft.to/lastmile_qr_scan"}, "is_reserved": 0, "fusion_lon": 0.0, "fusion_lat": 0.0, "lon": -76.98345166666667, "name": "7f95c857a3c62c036d08e76a84cacffa"}, {"bike_id": "1e8cb99418bcc6d18fa3c1dabdc251b2", "type": "electric_scooter", "is_disabled": 0, "lat": 38.906828, "rental_uris": {"ios": "https://dc.lft.to/lastmile_qr_scan", "android": "https://dc.lft.to/lastmile_qr_scan"}, "is_reserved": 0, "fusion_lon": 0.0, "fusion_lat": 0.0, "lon": -77.07165433333333, "name": "1e8cb99418bcc6d18fa3c1dabdc251b2"}, {"bike_id": "07d9fab3ec80e68e61871f1c67498a35", "type": "electric_scooter", "is_disabled": 0, "lat": 38.909517, "rental_uris": {"ios": "https://dc.lft.to/lastmile_qr_scan", "android": "https://dc.lft.to/lastmile_qr_scan"}, "is_reserved": 0, "fusion_lon": 0.0, "fusion_lat": 0.0, "lon": -77.0345035, "name": "07d9fab3ec80e68e61871f1c67498a35"}, {"bike_id": "e1f65cbe28b52eeb69fe9882c6432ad5", "type": "electric_scooter", "is_disabled": 0, "lat": 38.93242033333333, "rental_uris": {"ios": "https://dc.lft.to/lastmile_qr_scan", "android": "https://dc.lft.to/lastmile_qr_scan"}, "is_reserved": 0, "fusion_lon": 0.0, "fusion_lat": 0.0, "lon": -77.03385066666667, "name": "e1f65cbe28b52eeb69fe9882c6432ad5"}, {"bike_id": "7abc40a84b4f64a905e393ae3b6e92aa", "type": "electric_scooter", "is_disabled": 0, "lat": 38.926137, "rental_uris": {"ios": "https://dc.lft.to/lastmile_qr_scan", "android": "https://dc.lft.to/lastmile_qr_scan"}, "is_reserved": 0, "fusion_lon": 0.0, "fusion_lat": 0.0, "lon": -77.0216185, "name": "7abc40a84b4f64a905e393ae3b6e92aa"}, {"bike_id": "bdd8c640e532887b0c10e09b9f7dd47e", "type": "electric_scooter", "is_disabled": 0, "lat": 38.9148095, "rental_uris": {"ios": "https://dc.lft.to/lastmile_qr_scan", "android": "https://dc.lft.to/lastmile_qr_scan"}, "is_reserved": 0, "fusion_lon": 0.0, "fusion_lat": 0.0, "lon": -77.0392055, "name": "bdd8c640e532887b0c10e09b9f7dd47e"}, {"bike_id": "79bec4b526d43508a2dabf0e0cb20179", "type": "electric_scooter", "is_disabled": 0, "lat": 38.9345845, "rental_uris": {"ios": "https://dc.lft.to/lastmile_qr_scan", "android": "https://dc.lft.to/lastmile_qr_scan"}, "is_reserved": 0, "fusion_lon": 0.0, "fusion_lat": 0.0, "lon": -77.0304345, "name": "79bec4b526d43508a2dabf0e0cb20179"}, {"bike_id": "0987a51e1d9586b66f7fc2e4472a0c48", "type": "electric_scooter", "is_disabled": 0, "lat": 38.891985166666664, "rental_uris": {"ios": "https://dc.lft.to/lastmile_qr_scan", "android": "https://dc.lft.to/lastmile_qr_scan"}, "is_reserved": 0, "fusion_lon": 0.0, "fusion_lat": 0.0, "lon": -77.0023455, "name": "0987a51e1d9586b66f7fc2e4472a0c48"}, {"bike_id": "5ecb954709ab2a7f19f0848435609ba0", "type": "electric_scooter", "is_disabled": 0, "lat": 38.920651666666664, "rental_uris": {"ios": "https://dc.lft.to/lastmile_qr_scan", "android": "https://dc.lft.to/lastmile_qr_scan"}, "is_reserved": 0, "fusion_lon": 0.0, "fusion_lat": 0.0, "lon": -77.03462816666666, "name": "5ecb954709ab2a7f19f0848435609ba0"}, {"bike_id": "79c5ce7f5c8eb652945c7c449d65ea40", "type": "electric_scooter", "is_disabled": 0, "lat": 38.8850595, "rental_uris": {"ios": "https://dc.lft.to/lastmile_qr_scan", "android": "https://dc.lft.to/lastmile_qr_scan"}, "is_reserved": 0, "fusion_lon": 0.0, "fusion_lat": 0.0, "lon": -77.01541216666666, "name": "79c5ce7f5c8eb652945c7c449d65ea40"}, {"bike_id": "b331666978fd1be251b2300e6c5c1224", "type": "electric_scooter", "is_disabled": 0, "lat": 38.892238166666665, "rental_uris": {"ios": "https://dc.lft.to/lastmile_qr_scan", "android": "https://dc.lft.to/lastmile_qr_scan"}, "is_reserved": 0, "fusion_lon": 0.0, "fusion_lat": 0.0, "lon": -77.0222845, "name": "b331666978fd1be251b2300e6c5c1224"}, {"bike_id": "3856733e2740caf77b99bdb5d5606fc6", "type": "electric_scooter", "is_disabled": 0, "lat": 38.926819, "rental_uris": {"ios": "https://dc.lft.to/lastmile_qr_scan", "android": "https://dc.lft.to/lastmile_qr_scan"}, "is_reserved": 0, "fusion_lon": 0.0, "fusion_lat": 0.0, "lon": -77.02787483333333, "name": "3856733e2740caf77b99bdb5d5606fc6"}, {"bike_id": "0471a651cec15dc69885907cee25efbb", "type": "electric_scooter", "is_disabled": 0, "lat": 38.9147745, "rental_uris": {"ios": "https://dc.lft.to/lastmile_qr_scan", "android": "https://dc.lft.to/lastmile_qr_scan"}, "is_reserved": 0, "fusion_lon": 0.0, "fusion_lat": 0.0, "lon": -77.00928766666667, "name": "0471a651cec15dc69885907cee25efbb"}, {"bike_id": "1cc0669929a34993b5c24191e913e14b", "type": "electric_scooter", "is_disabled": 0, "lat": 38.8747605, "rental_uris": {"ios": "https://dc.lft.to/lastmile_qr_scan", "android": "https://dc.lft.to/lastmile_qr_scan"}, "is_reserved": 0, "fusion_lon": 0.0, "fusion_lat": 0.0, "lon": -77.010666, "name": "1cc0669929a34993b5c24191e913e14b"}, {"bike_id": "81290608837d4bc09e8ec339e1acfc1c", "type": "electric_scooter", "is_disabled": 0, "lat": 38.91415583333333, "rental_uris": {"ios": "https://dc.lft.to/lastmile_qr_scan", "android": "https://dc.lft.to/lastmile_qr_scan"}, "is_reserved": 0, "fusion_lon": 0.0, "fusion_lat": 0.0, "lon": -77.04463783333334, "name": "81290608837d4bc09e8ec339e1acfc1c"}, {"bike_id": "cf3216130dd46cdafc43c604ff0aca12", "type": "electric_scooter", "is_disabled": 0, "lat": 38.884310666666664, "rental_uris": {"ios": "https://dc.lft.to/lastmile_qr_scan", "android": "https://dc.lft.to/lastmile_qr_scan"}, "is_reserved": 0, "fusion_lon": 0.0, "fusion_lat": 0.0, "lon": -76.95747116666666, "name": "cf3216130dd46cdafc43c604ff0aca12"}, {"bike_id": "2dbabbda1dc88ecf233d2e36f7b47226", "type": "electric_scooter", "is_disabled": 0, "lat": 38.93108766666667, "rental_uris": {"ios": "https://dc.lft.to/lastmile_qr_scan", "android": "https://dc.lft.to/lastmile_qr_scan"}, "is_reserved": 0, "fusion_lon": 0.0, "fusion_lat": 0.0, "lon": -77.03810883333334, "name": "2dbabbda1dc88ecf233d2e36f7b47226"}, {"bike_id": "ac011a11dca1518e461f6c4f6b0ead11", "type": "electric_scooter", "is_disabled": 0, "lat": 38.93653966666667, "rental_uris": {"ios": "https://dc.lft.to/lastmile_qr_scan", "android": "https://dc.lft.to/lastmile_qr_scan"}, "is_reserved": 0, "fusion_lon": 0.0, "fusion_lat": 0.0, "lon": -77.02638, "name": "ac011a11dca1518e461f6c4f6b0ead11"}, {"bike_id": "59f02554058f19b71e4d7fe1511b9a65", "type": "electric_scooter", "is_disabled": 0, "lat": 38.91823216666667, "rental_uris": {"ios": "https://dc.lft.to/lastmile_qr_scan", "android": "https://dc.lft.to/lastmile_qr_scan"}, "is_reserved": 0, "fusion_lon": 0.0, "fusion_lat": 0.0, "lon": -77.0242065, "name": "59f02554058f19b71e4d7fe1511b9a65"}, {"bike_id": "bf6fbdbd292a8bf0f3603e9046e90773", "type": "electric_scooter", "is_disabled": 0, "lat": 38.922760333333336, "rental_uris": {"ios": "https://dc.lft.to/lastmile_qr_scan", "android": "https://dc.lft.to/lastmile_qr_scan"}, "is_reserved": 0, "fusion_lon": 0.0, "fusion_lat": 0.0, "lon": -77.03667483333334, "name": "bf6fbdbd292a8bf0f3603e9046e90773"}, {"bike_id": "20a02d3304f507f30ab07a4669b84ef0", "type": "electric_scooter", "is_disabled": 0, "lat": 38.88848616666667, "rental_uris": {"ios": "https://dc.lft.to/lastmile_qr_scan", "android": "https://dc.lft.to/lastmile_qr_scan"}, "is_reserved": 0, "fusion_lon": 0.0, "fusion_lat": 0.0, "lon": -76.92680966666667, "name": "20a02d3304f507f30ab07a4669b84ef0"}, {"bike_id": "2b2b4c6a90d274f8faebda8a2895b0a0", "type": "electric_scooter", "is_disabled": 0, "lat": 38.95734866666667, "rental_uris": {"ios": "https://dc.lft.to/lastmile_qr_scan", "android": "https://dc.lft.to/lastmile_qr_scan"}, "is_reserved": 0, "fusion_lon": 0.0, "fusion_lat": 0.0, "lon": -77.02420383333333, "name": "2b2b4c6a90d274f8faebda8a2895b0a0"}, {"bike_id": "2cd0623e3bb98cf8c4229c3f05899c5f", "type": "electric_scooter", "is_disabled": 0, "lat": 38.8670075, "rental_uris": {"ios": "https://dc.lft.to/lastmile_qr_scan", "android": "https://dc.lft.to/lastmile_qr_scan"}, "is_reserved": 0, "fusion_lon": 0.0, "fusion_lat": 0.0, "lon": -76.9871315, "name": "2cd0623e3bb98cf8c4229c3f05899c5f"}, {"bike_id": "34955c79bec4b677fd49a0ca0ac2a1fc", "type": "electric_scooter", "is_disabled": 0, "lat": 38.918256166666666, "rental_uris": {"ios": "https://dc.lft.to/lastmile_qr_scan", "android": "https://dc.lft.to/lastmile_qr_scan"}, "is_reserved": 0, "fusion_lon": 0.0, "fusion_lat": 0.0, "lon": -77.02421533333333, "name": "34955c79bec4b677fd49a0ca0ac2a1fc"}, {"bike_id": "99daa3f8dc6bf0dc01198ca5aa0358bd", "type": "electric_bike", "is_disabled": 0, "lat": 38.86940966666667, "rental_uris": {"ios": "https://dc.lft.to/lastmile_qr_scan", "android": "https://dc.lft.to/lastmile_qr_scan"}, "is_reserved": 0, "fusion_lon": 0.0, "fusion_lat": 0.0, "lon": -77.094719, "name": "99daa3f8dc6bf0dc01198ca5aa0358bd"}, {"bike_id": "1860f2a8f45f57a5915a5de859711dce", "type": "electric_scooter", "is_disabled": 0, "lat": 38.9160785, "rental_uris": {"ios": "https://dc.lft.to/lastmile_qr_scan", "android": "https://dc.lft.to/lastmile_qr_scan"}, "is_reserved": 0, "fusion_lon": 0.0, "fusion_lat": 0.0, "lon": -77.0228515, "name": "1860f2a8f45f57a5915a5de859711dce"}, {"bike_id": "aa820ba262ae0597f3e360ee0f0866d0", "type": "electric_scooter", "is_disabled": 0, "lat": 38.89255816666667, "rental_uris": {"ios": "https://dc.lft.to/lastmile_qr_scan", "android": "https://dc.lft.to/lastmile_qr_scan"}, "is_reserved": 0, "fusion_lon": 0.0, "fusion_lat": 0.0, "lon": -77.02418016666667, "name": "aa820ba262ae0597f3e360ee0f0866d0"}, {"bike_id": "6b4bdded3ffbf76983aee687dd927bb8", "type": "electric_scooter", "is_disabled": 0, "lat": 38.9065295, "rental_uris": {"ios": "https://dc.lft.to/lastmile_qr_scan", "android": "https://dc.lft.to/lastmile_qr_scan"}, "is_reserved": 0, "fusion_lon": 0.0, "fusion_lat": 0.0, "lon": -77.024808, "name": "6b4bdded3ffbf76983aee687dd927bb8"}, {"bike_id": "67a4fdea3e190c65819c95bf38ce934a", "type": "electric_scooter", "is_disabled": 0, "lat": 38.92603583333333, "rental_uris": {"ios": "https://dc.lft.to/lastmile_qr_scan", "android": "https://dc.lft.to/lastmile_qr_scan"}, "is_reserved": 0, "fusion_lon": 0.0, "fusion_lat": 0.0, "lon": -77.02156266666667, "name": "67a4fdea3e190c65819c95bf38ce934a"}, {"bike_id": "814c369352515f146f37fd565286bcf8", "type": "electric_scooter", "is_disabled": 0, "lat": 38.892362, "rental_uris": {"ios": "https://dc.lft.to/lastmile_qr_scan", "android": "https://dc.lft.to/lastmile_qr_scan"}, "is_reserved": 0, "fusion_lon": 0.0, "fusion_lat": 0.0, "lon": -77.02383783333333, "name": "814c369352515f146f37fd565286bcf8"}, {"bike_id": "e470cc7385ff7301bca852d93d3fdb4b", "type": "electric_scooter", "is_disabled": 0, "lat": 38.9134805, "rental_uris": {"ios": "https://dc.lft.to/lastmile_qr_scan", "android": "https://dc.lft.to/lastmile_qr_scan"}, "is_reserved": 0, "fusion_lon": 0.0, "fusion_lat": 0.0, "lon": -77.0457205, "name": "e470cc7385ff7301bca852d93d3fdb4b"}, {"bike_id": "5c9d84bd3917ef5afa8edfaa61cd6619", "type": "electric_scooter", "is_disabled": 0, "lat": 38.898428, "rental_uris": {"ios": "https://dc.lft.to/lastmile_qr_scan", "android": "https://dc.lft.to/lastmile_qr_scan"}, "is_reserved": 0, "fusion_lon": 0.0, "fusion_lat": 0.0, "lon": -76.9463355, "name": "5c9d84bd3917ef5afa8edfaa61cd6619"}, {"bike_id": "d1aa63d4ed4e5870f9727029cad1951d", "type": "electric_scooter", "is_disabled": 0, "lat": 38.87477483333333, "rental_uris": {"ios": "https://dc.lft.to/lastmile_qr_scan", "android": "https://dc.lft.to/lastmile_qr_scan"}, "is_reserved": 0, "fusion_lon": 0.0, "fusion_lat": 0.0, "lon": -77.01072633333334, "name": "d1aa63d4ed4e5870f9727029cad1951d"}, {"bike_id": "6ef0a2cb2ab85a55f27baadbd14b3f3b", "type": "electric_scooter", "is_disabled": 0, "lat": 38.89532966666667, "rental_uris": {"ios": "https://dc.lft.to/lastmile_qr_scan", "android": "https://dc.lft.to/lastmile_qr_scan"}, "is_reserved": 0, "fusion_lon": 0.0, "fusion_lat": 0.0, "lon": -77.03350733333333, "name": "6ef0a2cb2ab85a55f27baadbd14b3f3b"}, {"bike_id": "b4a589ca5a710a2a1900d7a1c5054048", "type": "electric_scooter", "is_disabled": 0, "lat": 38.900565666666665, "rental_uris": {"ios": "https://dc.lft.to/lastmile_qr_scan", "android": "https://dc.lft.to/lastmile_qr_scan"}, "is_reserved": 0, "fusion_lon": 0.0, "fusion_lat": 0.0, "lon": -77.01431316666667, "name": "b4a589ca5a710a2a1900d7a1c5054048"}, {"bike_id": "0c712d5eedb6c9ea8679c4fc787951fb", "type": "electric_scooter", "is_disabled": 0, "lat": 38.940762166666666, "rental_uris": {"ios": "https://dc.lft.to/lastmile_qr_scan", "android": "https://dc.lft.to/lastmile_qr_scan"}, "is_reserved": 0, "fusion_lon": 0.0, "fusion_lat": 0.0, "lon": -77.0521775, "name": "0c712d5eedb6c9ea8679c4fc787951fb"}, {"bike_id": "501a881e77fc058680aa4c8284b76167", "type": "electric_scooter", "is_disabled": 0, "lat": 38.90193983333333, "rental_uris": {"ios": "https://dc.lft.to/lastmile_qr_scan", "android": "https://dc.lft.to/lastmile_qr_scan"}, "is_reserved": 0, "fusion_lon": 0.0, "fusion_lat": 0.0, "lon": -76.98840583333333, "name": "501a881e77fc058680aa4c8284b76167"}, {"bike_id": "47428c254494c106e402bed256cce74f", "type": "electric_scooter", "is_disabled": 0, "lat": 38.90415566666667, "rental_uris": {"ios": "https://dc.lft.to/lastmile_qr_scan", "android": "https://dc.lft.to/lastmile_qr_scan"}, "is_reserved": 0, "fusion_lon": 0.0, "fusion_lat": 0.0, "lon": -77.02876466666666, "name": "47428c254494c106e402bed256cce74f"}, {"bike_id": "0420b122d177da532bed8915356882cf", "type": "electric_scooter", "is_disabled": 0, "lat": 38.92064283333333, "rental_uris": {"ios": "https://dc.lft.to/lastmile_qr_scan", "android": "https://dc.lft.to/lastmile_qr_scan"}, "is_reserved": 0, "fusion_lon": 0.0, "fusion_lat": 0.0, "lon": -77.034628, "name": "0420b122d177da532bed8915356882cf"}, {"bike_id": "1489ea541b309365826ca04963004928", "type": "electric_scooter", "is_disabled": 0, "lat": 38.9111005, "rental_uris": {"ios": "https://dc.lft.to/lastmile_qr_scan", "android": "https://dc.lft.to/lastmile_qr_scan"}, "is_reserved": 0, "fusion_lon": 0.0, "fusion_lat": 0.0, "lon": -77.044752, "name": "1489ea541b309365826ca04963004928"}, {"bike_id": "979af8155aa507d3348237c8dbfea534", "type": "electric_scooter", "is_disabled": 0, "lat": 38.915813666666665, "rental_uris": {"ios": "https://dc.lft.to/lastmile_qr_scan", "android": "https://dc.lft.to/lastmile_qr_scan"}, "is_reserved": 0, "fusion_lon": 0.0, "fusion_lat": 0.0, "lon": -77.0319535, "name": "979af8155aa507d3348237c8dbfea534"}, {"bike_id": "a2fd968ade5732f936f75d474cd302f0", "type": "electric_scooter", "is_disabled": 0, "lat": 38.884867166666666, "rental_uris": {"ios": "https://dc.lft.to/lastmile_qr_scan", "android": "https://dc.lft.to/lastmile_qr_scan"}, "is_reserved": 0, "fusion_lon": 0.0, "fusion_lat": 0.0, "lon": -77.0150265, "name": "a2fd968ade5732f936f75d474cd302f0"}, {"bike_id": "cf61ec18e77a992c6a9b4d74e9432ea2", "type": "electric_scooter", "is_disabled": 0, "lat": 38.917088666666665, "rental_uris": {"ios": "https://dc.lft.to/lastmile_qr_scan", "android": "https://dc.lft.to/lastmile_qr_scan"}, "is_reserved": 0, "fusion_lon": 0.0, "fusion_lat": 0.0, "lon": -77.041252, "name": "cf61ec18e77a992c6a9b4d74e9432ea2"}, {"bike_id": "4c81429908632083cdfcad2ff5d385d0", "type": "electric_scooter", "is_disabled": 0, "lat": 38.91661216666667, "rental_uris": {"ios": "https://dc.lft.to/lastmile_qr_scan", "android": "https://dc.lft.to/lastmile_qr_scan"}, "is_reserved": 0, "fusion_lon": 0.0, "fusion_lat": 0.0, "lon": -77.038546, "name": "4c81429908632083cdfcad2ff5d385d0"}, {"bike_id": "1a28564ce25bc5d9826e3c4e8dcb3dbb", "type": "electric_scooter", "is_disabled": 0, "lat": 38.95684266666667, "rental_uris": {"ios": "https://dc.lft.to/lastmile_qr_scan", "android": "https://dc.lft.to/lastmile_qr_scan"}, "is_reserved": 0, "fusion_lon": 0.0, "fusion_lat": 0.0, "lon": -77.0240235, "name": "1a28564ce25bc5d9826e3c4e8dcb3dbb"}, {"bike_id": "303a375c9212ea9ed3657683ea89ead7", "type": "electric_scooter", "is_disabled": 0, "lat": 38.9134875, "rental_uris": {"ios": "https://dc.lft.to/lastmile_qr_scan", "android": "https://dc.lft.to/lastmile_qr_scan"}, "is_reserved": 0, "fusion_lon": 0.0, "fusion_lat": 0.0, "lon": -77.04348366666666, "name": "303a375c9212ea9ed3657683ea89ead7"}, {"bike_id": "7a3cb55bc4170b4e0844bd89a1e626c6", "type": "electric_scooter", "is_disabled": 0, "lat": 38.90732833333333, "rental_uris": {"ios": "https://dc.lft.to/lastmile_qr_scan", "android": "https://dc.lft.to/lastmile_qr_scan"}, "is_reserved": 0, "fusion_lon": 0.0, "fusion_lat": 0.0, "lon": -77.05332216666666, "name": "7a3cb55bc4170b4e0844bd89a1e626c6"}, {"bike_id": "9aecefd0ce613d429f79007c7d77a98e", "type": "electric_scooter", "is_disabled": 0, "lat": 38.926868166666665, "rental_uris": {"ios": "https://dc.lft.to/lastmile_qr_scan", "android": "https://dc.lft.to/lastmile_qr_scan"}, "is_reserved": 0, "fusion_lon": 0.0, "fusion_lat": 0.0, "lon": -77.02158866666667, "name": "9aecefd0ce613d429f79007c7d77a98e"}, {"bike_id": "1a3f6d4d19e06b72065600d042c440bd", "type": "electric_scooter", "is_disabled": 0, "lat": 38.9075045, "rental_uris": {"ios": "https://dc.lft.to/lastmile_qr_scan", "android": "https://dc.lft.to/lastmile_qr_scan"}, "is_reserved": 0, "fusion_lon": 0.0, "fusion_lat": 0.0, "lon": -77.03195116666667, "name": "1a3f6d4d19e06b72065600d042c440bd"}, {"bike_id": "4fe567a5f2305647f917e4c550e7fbb9", "type": "electric_scooter", "is_disabled": 0, "lat": 38.91610133333333, "rental_uris": {"ios": "https://dc.lft.to/lastmile_qr_scan", "android": "https://dc.lft.to/lastmile_qr_scan"}, "is_reserved": 0, "fusion_lon": 0.0, "fusion_lat": 0.0, "lon": -77.02312983333333, "name": "4fe567a5f2305647f917e4c550e7fbb9"}, {"bike_id": "b9d17438d1c734e9a6053cd09869cfe8", "type": "electric_scooter", "is_disabled": 0, "lat": 38.907298833333336, "rental_uris": {"ios": "https://dc.lft.to/lastmile_qr_scan", "android": "https://dc.lft.to/lastmile_qr_scan"}, "is_reserved": 0, "fusion_lon": 0.0, "fusion_lat": 0.0, "lon": -77.01314183333334, "name": "b9d17438d1c734e9a6053cd09869cfe8"}, {"bike_id": "11a0973e47bc71ed93b4c919e79d93be", "type": "electric_scooter", "is_disabled": 0, "lat": 38.90344983333333, "rental_uris": {"ios": "https://dc.lft.to/lastmile_qr_scan", "android": "https://dc.lft.to/lastmile_qr_scan"}, "is_reserved": 0, "fusion_lon": 0.0, "fusion_lat": 0.0, "lon": -77.05294083333334, "name": "11a0973e47bc71ed93b4c919e79d93be"}, {"bike_id": "43aa07db1395a25141c342f6d899b2c5", "type": "electric_scooter", "is_disabled": 0, "lat": 38.9175335, "rental_uris": {"ios": "https://dc.lft.to/lastmile_qr_scan", "android": "https://dc.lft.to/lastmile_qr_scan"}, "is_reserved": 0, "fusion_lon": 0.0, "fusion_lat": 0.0, "lon": -77.03668683333333, "name": "43aa07db1395a25141c342f6d899b2c5"}, {"bike_id": "cb9a50a15ec079ddca1d158773831e14", "type": "electric_scooter", "is_disabled": 0, "lat": 38.898241166666665, "rental_uris": {"ios": "https://dc.lft.to/lastmile_qr_scan", "android": "https://dc.lft.to/lastmile_qr_scan"}, "is_reserved": 0, "fusion_lon": 0.0, "fusion_lat": 0.0, "lon": -77.025242, "name": "cb9a50a15ec079ddca1d158773831e14"}, {"bike_id": "d3ebfb284681febbd9c7d6abd2b6c9ff", "type": "electric_scooter", "is_disabled": 0, "lat": 38.911892333333334, "rental_uris": {"ios": "https://dc.lft.to/lastmile_qr_scan", "android": "https://dc.lft.to/lastmile_qr_scan"}, "is_reserved": 0, "fusion_lon": 0.0, "fusion_lat": 0.0, "lon": -77.059405, "name": "d3ebfb284681febbd9c7d6abd2b6c9ff"}, {"bike_id": "21f923f21fe187d743af8c7d4f33511d", "type": "electric_scooter", "is_disabled": 0, "lat": 38.88215816666667, "rental_uris": {"ios": "https://dc.lft.to/lastmile_qr_scan", "android": "https://dc.lft.to/lastmile_qr_scan"}, "is_reserved": 0, "fusion_lon": 0.0, "fusion_lat": 0.0, "lon": -77.02907933333333, "name": "21f923f21fe187d743af8c7d4f33511d"}, {"bike_id": "1fdf71b49385bfbc6236ea5403cc7d51", "type": "electric_scooter", "is_disabled": 0, "lat": 38.90813266666667, "rental_uris": {"ios": "https://dc.lft.to/lastmile_qr_scan", "android": "https://dc.lft.to/lastmile_qr_scan"}, "is_reserved": 0, "fusion_lon": 0.0, "fusion_lat": 0.0, "lon": -77.04331333333333, "name": "1fdf71b49385bfbc6236ea5403cc7d51"}, {"bike_id": "d21ea5a822d25cddb6194c646cdc6ac7", "type": "electric_scooter", "is_disabled": 0, "lat": 38.884323333333334, "rental_uris": {"ios": "https://dc.lft.to/lastmile_qr_scan", "android": "https://dc.lft.to/lastmile_qr_scan"}, "is_reserved": 0, "fusion_lon": 0.0, "fusion_lat": 0.0, "lon": -76.95755616666666, "name": "d21ea5a822d25cddb6194c646cdc6ac7"}, {"bike_id": "0271031113f8abba757e0934b2340408", "type": "electric_scooter", "is_disabled": 0, "lat": 38.897019, "rental_uris": {"ios": "https://dc.lft.to/lastmile_qr_scan", "android": "https://dc.lft.to/lastmile_qr_scan"}, "is_reserved": 0, "fusion_lon": 0.0, "fusion_lat": 0.0, "lon": -76.930009, "name": "0271031113f8abba757e0934b2340408"}, {"bike_id": "fda8d9cfd4457fd750b0c0ad61db24a5", "type": "electric_scooter", "is_disabled": 0, "lat": 38.90240816666667, "rental_uris": {"ios": "https://dc.lft.to/lastmile_qr_scan", "android": "https://dc.lft.to/lastmile_qr_scan"}, "is_reserved": 0, "fusion_lon": 0.0, "fusion_lat": 0.0, "lon": -76.99629066666667, "name": "fda8d9cfd4457fd750b0c0ad61db24a5"}, {"bike_id": "5ffea34d532c9103dd3c536673f8e05a", "type": "electric_scooter", "is_disabled": 0, "lat": 38.90730116666667, "rental_uris": {"ios": "https://dc.lft.to/lastmile_qr_scan", "android": "https://dc.lft.to/lastmile_qr_scan"}, "is_reserved": 0, "fusion_lon": 0.0, "fusion_lat": 0.0, "lon": -77.04014033333333, "name": "5ffea34d532c9103dd3c536673f8e05a"}, {"bike_id": "7751b32ae09ebd1934c47db459f4dcdd", "type": "electric_scooter", "is_disabled": 0, "lat": 38.901555333333334, "rental_uris": {"ios": "https://dc.lft.to/lastmile_qr_scan", "android": "https://dc.lft.to/lastmile_qr_scan"}, "is_reserved": 0, "fusion_lon": 0.0, "fusion_lat": 0.0, "lon": -76.99026033333334, "name": "7751b32ae09ebd1934c47db459f4dcdd"}, {"bike_id": "f6e99cfd988ea179421b18d1dc1862d4", "type": "electric_scooter", "is_disabled": 0, "lat": 38.92480883333333, "rental_uris": {"ios": "https://dc.lft.to/lastmile_qr_scan", "android": "https://dc.lft.to/lastmile_qr_scan"}, "is_reserved": 0, "fusion_lon": 0.0, "fusion_lat": 0.0, "lon": -77.028427, "name": "f6e99cfd988ea179421b18d1dc1862d4"}, {"bike_id": "40df946e1aed33fa19217e9569c4d387", "type": "electric_scooter", "is_disabled": 0, "lat": 38.9245845, "rental_uris": {"ios": "https://dc.lft.to/lastmile_qr_scan", "android": "https://dc.lft.to/lastmile_qr_scan"}, "is_reserved": 0, "fusion_lon": 0.0, "fusion_lat": 0.0, "lon": -77.0523135, "name": "40df946e1aed33fa19217e9569c4d387"}, {"bike_id": "e11cef5764abfb42c1b80584e0d3751f", "type": "electric_scooter", "is_disabled": 0, "lat": 38.913417833333334, "rental_uris": {"ios": "https://dc.lft.to/lastmile_qr_scan", "android": "https://dc.lft.to/lastmile_qr_scan"}, "is_reserved": 0, "fusion_lon": 0.0, "fusion_lat": 0.0, "lon": -77.0318075, "name": "e11cef5764abfb42c1b80584e0d3751f"}, {"bike_id": "83037f3ec974007dc7ed8b90e73785b8", "type": "electric_scooter", "is_disabled": 0, "lat": 38.877962, "rental_uris": {"ios": "https://dc.lft.to/lastmile_qr_scan", "android": "https://dc.lft.to/lastmile_qr_scan"}, "is_reserved": 0, "fusion_lon": 0.0, "fusion_lat": 0.0, "lon": -76.93087066666666, "name": "83037f3ec974007dc7ed8b90e73785b8"}, {"bike_id": "65d7b9bf54d8d9c72dc6ea75e330300f", "type": "electric_scooter", "is_disabled": 0, "lat": 38.93033466666667, "rental_uris": {"ios": "https://dc.lft.to/lastmile_qr_scan", "android": "https://dc.lft.to/lastmile_qr_scan"}, "is_reserved": 0, "fusion_lon": 0.0, "fusion_lat": 0.0, "lon": -77.032817, "name": "65d7b9bf54d8d9c72dc6ea75e330300f"}, {"bike_id": "e6c89bd386735df79b3c95d6c834b4ee", "type": "electric_scooter", "is_disabled": 0, "lat": 38.90142516666667, "rental_uris": {"ios": "https://dc.lft.to/lastmile_qr_scan", "android": "https://dc.lft.to/lastmile_qr_scan"}, "is_reserved": 0, "fusion_lon": 0.0, "fusion_lat": 0.0, "lon": -77.03490333333333, "name": "e6c89bd386735df79b3c95d6c834b4ee"}, {"bike_id": "e475f6084b09d49eec9f590aadb6fb24", "type": "electric_bike", "is_disabled": 0, "lat": 38.875579333333334, "rental_uris": {"ios": "https://dc.lft.to/lastmile_qr_scan", "android": "https://dc.lft.to/lastmile_qr_scan"}, "is_reserved": 0, "fusion_lon": 0.0, "fusion_lat": 0.0, "lon": -76.96501333333333, "name": "e475f6084b09d49eec9f590aadb6fb24"}, {"bike_id": "5e9cd85c8e57b1838c67f162903ad565", "type": "electric_scooter", "is_disabled": 0, "lat": 38.95687016666667, "rental_uris": {"ios": "https://dc.lft.to/lastmile_qr_scan", "android": "https://dc.lft.to/lastmile_qr_scan"}, "is_reserved": 0, "fusion_lon": 0.0, "fusion_lat": 0.0, "lon": -77.01151083333333, "name": "5e9cd85c8e57b1838c67f162903ad565"}, {"bike_id": "fcd450b4e4db60abfb34eb3d53718569", "type": "electric_scooter", "is_disabled": 0, "lat": 38.917760666666666, "rental_uris": {"ios": "https://dc.lft.to/lastmile_qr_scan", "android": "https://dc.lft.to/lastmile_qr_scan"}, "is_reserved": 0, "fusion_lon": 0.0, "fusion_lat": 0.0, "lon": -77.03452883333334, "name": "fcd450b4e4db60abfb34eb3d53718569"}, {"bike_id": "671f5c7c1c615bf56e461b267397356e", "type": "electric_scooter", "is_disabled": 0, "lat": 38.90526216666667, "rental_uris": {"ios": "https://dc.lft.to/lastmile_qr_scan", "android": "https://dc.lft.to/lastmile_qr_scan"}, "is_reserved": 0, "fusion_lon": 0.0, "fusion_lat": 0.0, "lon": -77.06383616666666, "name": "671f5c7c1c615bf56e461b267397356e"}, {"bike_id": "e4928acb6106c5b6ee36bb1e2dfadeda", "type": "electric_scooter", "is_disabled": 0, "lat": 38.9059605, "rental_uris": {"ios": "https://dc.lft.to/lastmile_qr_scan", "android": "https://dc.lft.to/lastmile_qr_scan"}, "is_reserved": 0, "fusion_lon": 0.0, "fusion_lat": 0.0, "lon": -77.00378233333333, "name": "e4928acb6106c5b6ee36bb1e2dfadeda"}, {"bike_id": "7debb97e78c79cfd0c02e0b8627f0d43", "type": "electric_scooter", "is_disabled": 0, "lat": 38.91931866666667, "rental_uris": {"ios": "https://dc.lft.to/lastmile_qr_scan", "android": "https://dc.lft.to/lastmile_qr_scan"}, "is_reserved": 0, "fusion_lon": 0.0, "fusion_lat": 0.0, "lon": -77.04564533333334, "name": "7debb97e78c79cfd0c02e0b8627f0d43"}, {"bike_id": "d188c4f120e19f2d38c6adc67dbc79fd", "type": "electric_scooter", "is_disabled": 0, "lat": 38.90650933333333, "rental_uris": {"ios": "https://dc.lft.to/lastmile_qr_scan", "android": "https://dc.lft.to/lastmile_qr_scan"}, "is_reserved": 0, "fusion_lon": 0.0, "fusion_lat": 0.0, "lon": -77.05326566666666, "name": "d188c4f120e19f2d38c6adc67dbc79fd"}, {"bike_id": "585c4980c5f89cd977ee1219e995fb1e", "type": "electric_scooter", "is_disabled": 0, "lat": 38.89218983333333, "rental_uris": {"ios": "https://dc.lft.to/lastmile_qr_scan", "android": "https://dc.lft.to/lastmile_qr_scan"}, "is_reserved": 0, "fusion_lon": 0.0, "fusion_lat": 0.0, "lon": -77.02630666666667, "name": "585c4980c5f89cd977ee1219e995fb1e"}, {"bike_id": "99fb5fa12d68f25f01434324affb9d61", "type": "electric_scooter", "is_disabled": 0, "lat": 38.91701833333333, "rental_uris": {"ios": "https://dc.lft.to/lastmile_qr_scan", "android": "https://dc.lft.to/lastmile_qr_scan"}, "is_reserved": 0, "fusion_lon": 0.0, "fusion_lat": 0.0, "lon": -77.0421435, "name": "99fb5fa12d68f25f01434324affb9d61"}, {"bike_id": "37499e1d988f3314a4e61aa2ab09dada", "type": "electric_scooter", "is_disabled": 0, "lat": 38.921526, "rental_uris": {"ios": "https://dc.lft.to/lastmile_qr_scan", "android": "https://dc.lft.to/lastmile_qr_scan"}, "is_reserved": 0, "fusion_lon": 0.0, "fusion_lat": 0.0, "lon": -77.03206266666666, "name": "37499e1d988f3314a4e61aa2ab09dada"}, {"bike_id": "5ba236214f35b59af28fb14127b87d6c", "type": "electric_scooter", "is_disabled": 0, "lat": 38.884978833333335, "rental_uris": {"ios": "https://dc.lft.to/lastmile_qr_scan", "android": "https://dc.lft.to/lastmile_qr_scan"}, "is_reserved": 0, "fusion_lon": 0.0, "fusion_lat": 0.0, "lon": -76.9983825, "name": "5ba236214f35b59af28fb14127b87d6c"}, {"bike_id": "e3d8491c50f041058881afd2809f2741", "type": "electric_scooter", "is_disabled": 0, "lat": 38.910585833333336, "rental_uris": {"ios": "https://dc.lft.to/lastmile_qr_scan", "android": "https://dc.lft.to/lastmile_qr_scan"}, "is_reserved": 0, "fusion_lon": 0.0, "fusion_lat": 0.0, "lon": -77.03091783333333, "name": "e3d8491c50f041058881afd2809f2741"}, {"bike_id": "71d795b6271cb4b385ed3351d38a1b29", "type": "electric_scooter", "is_disabled": 0, "lat": 38.892053, "rental_uris": {"ios": "https://dc.lft.to/lastmile_qr_scan", "android": "https://dc.lft.to/lastmile_qr_scan"}, "is_reserved": 0, "fusion_lon": 0.0, "fusion_lat": 0.0, "lon": -76.99932783333334, "name": "71d795b6271cb4b385ed3351d38a1b29"}, {"bike_id": "b428f62adde66cb1029f271a96bb7c8e", "type": "electric_scooter", "is_disabled": 0, "lat": 38.90854316666667, "rental_uris": {"ios": "https://dc.lft.to/lastmile_qr_scan", "android": "https://dc.lft.to/lastmile_qr_scan"}, "is_reserved": 0, "fusion_lon": 0.0, "fusion_lat": 0.0, "lon": -77.04766216666667, "name": "b428f62adde66cb1029f271a96bb7c8e"}, {"bike_id": "0ea910ffe39495926c4fbe1b718121a2", "type": "electric_scooter", "is_disabled": 0, "lat": 38.905025333333334, "rental_uris": {"ios": "https://dc.lft.to/lastmile_qr_scan", "android": "https://dc.lft.to/lastmile_qr_scan"}, "is_reserved": 0, "fusion_lon": 0.0, "fusion_lat": 0.0, "lon": -76.98981466666666, "name": "0ea910ffe39495926c4fbe1b718121a2"}, {"bike_id": "33aeaabe83a641126a791ac72c205eb3", "type": "electric_scooter", "is_disabled": 0, "lat": 38.902387166666664, "rental_uris": {"ios": "https://dc.lft.to/lastmile_qr_scan", "android": "https://dc.lft.to/lastmile_qr_scan"}, "is_reserved": 0, "fusion_lon": 0.0, "fusion_lat": 0.0, "lon": -77.00199583333334, "name": "33aeaabe83a641126a791ac72c205eb3"}, {"bike_id": "0066035ffdf8da7af51d692e1878230a", "type": "electric_scooter", "is_disabled": 0, "lat": 38.8996705, "rental_uris": {"ios": "https://dc.lft.to/lastmile_qr_scan", "android": "https://dc.lft.to/lastmile_qr_scan"}, "is_reserved": 0, "fusion_lon": 0.0, "fusion_lat": 0.0, "lon": -76.98297683333334, "name": "0066035ffdf8da7af51d692e1878230a"}, {"bike_id": "22f1a9be5d66b8998d68782eeba8faa9", "type": "electric_scooter", "is_disabled": 0, "lat": 38.90409916666667, "rental_uris": {"ios": "https://dc.lft.to/lastmile_qr_scan", "android": "https://dc.lft.to/lastmile_qr_scan"}, "is_reserved": 0, "fusion_lon": 0.0, "fusion_lat": 0.0, "lon": -76.97331233333334, "name": "22f1a9be5d66b8998d68782eeba8faa9"}, {"bike_id": "a4cf39ef4ffcd1a9c3bdf6d67d8bf817", "type": "electric_scooter", "is_disabled": 0, "lat": 38.9157155, "rental_uris": {"ios": "https://dc.lft.to/lastmile_qr_scan", "android": "https://dc.lft.to/lastmile_qr_scan"}, "is_reserved": 0, "fusion_lon": 0.0, "fusion_lat": 0.0, "lon": -77.03200966666667, "name": "a4cf39ef4ffcd1a9c3bdf6d67d8bf817"}, {"bike_id": "c051a9579491f9226c3e9728bed65e03", "type": "electric_scooter", "is_disabled": 0, "lat": 38.89994033333333, "rental_uris": {"ios": "https://dc.lft.to/lastmile_qr_scan", "android": "https://dc.lft.to/lastmile_qr_scan"}, "is_reserved": 0, "fusion_lon": 0.0, "fusion_lat": 0.0, "lon": -77.0214625, "name": "c051a9579491f9226c3e9728bed65e03"}, {"bike_id": "64b8111ad501001b2242a1afbbd252b4", "type": "electric_scooter", "is_disabled": 0, "lat": 38.94557483333333, "rental_uris": {"ios": "https://dc.lft.to/lastmile_qr_scan", "android": "https://dc.lft.to/lastmile_qr_scan"}, "is_reserved": 0, "fusion_lon": 0.0, "fusion_lat": 0.0, "lon": -77.07125833333333, "name": "64b8111ad501001b2242a1afbbd252b4"}, {"bike_id": "e7f9c41288db06ff4676df84d53803cb", "type": "electric_bike", "is_disabled": 0, "lat": 38.871008, "rental_uris": {"ios": "https://dc.lft.to/lastmile_qr_scan", "android": "https://dc.lft.to/lastmile_qr_scan"}, "is_reserved": 0, "fusion_lon": 0.0, "fusion_lat": 0.0, "lon": -77.01204316666667, "name": "e7f9c41288db06ff4676df84d53803cb"}, {"bike_id": "e7d858a95552784f5249ba80719707a0", "type": "electric_scooter", "is_disabled": 0, "lat": 38.88449966666667, "rental_uris": {"ios": "https://dc.lft.to/lastmile_qr_scan", "android": "https://dc.lft.to/lastmile_qr_scan"}, "is_reserved": 0, "fusion_lon": 0.0, "fusion_lat": 0.0, "lon": -76.9509845, "name": "e7d858a95552784f5249ba80719707a0"}, {"bike_id": "15194a2a5af44c4b2ed1ce52ca7bb04b", "type": "electric_bike", "is_disabled": 0, "lat": 38.8589395, "rental_uris": {"ios": "https://dc.lft.to/lastmile_qr_scan", "android": "https://dc.lft.to/lastmile_qr_scan"}, "is_reserved": 0, "fusion_lon": 0.0, "fusion_lat": 0.0, "lon": -77.1186565, "name": "15194a2a5af44c4b2ed1ce52ca7bb04b"}, {"bike_id": "6b1fea424b5a714bc07c81ee77020e53", "type": "electric_scooter", "is_disabled": 0, "lat": 38.9097605, "rental_uris": {"ios": "https://dc.lft.to/lastmile_qr_scan", "android": "https://dc.lft.to/lastmile_qr_scan"}, "is_reserved": 0, "fusion_lon": 0.0, "fusion_lat": 0.0, "lon": -77.03433016666666, "name": "6b1fea424b5a714bc07c81ee77020e53"}, {"bike_id": "c9b58e9215c87fcb46bf07b006d269be", "type": "electric_scooter", "is_disabled": 0, "lat": 38.92393966666667, "rental_uris": {"ios": "https://dc.lft.to/lastmile_qr_scan", "android": "https://dc.lft.to/lastmile_qr_scan"}, "is_reserved": 0, "fusion_lon": 0.0, "fusion_lat": 0.0, "lon": -77.04473733333333, "name": "c9b58e9215c87fcb46bf07b006d269be"}, {"bike_id": "35ce331189569f228fcff994fa5dc4e6", "type": "electric_scooter", "is_disabled": 0, "lat": 38.9187145, "rental_uris": {"ios": "https://dc.lft.to/lastmile_qr_scan", "android": "https://dc.lft.to/lastmile_qr_scan"}, "is_reserved": 0, "fusion_lon": 0.0, "fusion_lat": 0.0, "lon": -77.03473383333333, "name": "35ce331189569f228fcff994fa5dc4e6"}, {"bike_id": "e314ab9c97715945fef3cf111f49852c", "type": "electric_scooter", "is_disabled": 0, "lat": 38.9239755, "rental_uris": {"ios": "https://dc.lft.to/lastmile_qr_scan", "android": "https://dc.lft.to/lastmile_qr_scan"}, "is_reserved": 0, "fusion_lon": 0.0, "fusion_lat": 0.0, "lon": -77.02259366666667, "name": "e314ab9c97715945fef3cf111f49852c"}, {"bike_id": "d1bcfb91c9a4a02527d345cd4b3eb872", "type": "electric_scooter", "is_disabled": 0, "lat": 38.914033, "rental_uris": {"ios": "https://dc.lft.to/lastmile_qr_scan", "android": "https://dc.lft.to/lastmile_qr_scan"}, "is_reserved": 0, "fusion_lon": 0.0, "fusion_lat": 0.0, "lon": -77.03446933333333, "name": "d1bcfb91c9a4a02527d345cd4b3eb872"}, {"bike_id": "0786e52c88500fa55088759af94e62d4", "type": "electric_scooter", "is_disabled": 0, "lat": 38.86506416666667, "rental_uris": {"ios": "https://dc.lft.to/lastmile_qr_scan", "android": "https://dc.lft.to/lastmile_qr_scan"}, "is_reserved": 0, "fusion_lon": 0.0, "fusion_lat": 0.0, "lon": -76.99004066666667, "name": "0786e52c88500fa55088759af94e62d4"}, {"bike_id": "9542c9b97d6236f6ed9db0dc13090d84", "type": "electric_bike", "is_disabled": 0, "lat": 38.80760333333333, "rental_uris": {"ios": "https://dc.lft.to/lastmile_qr_scan", "android": "https://dc.lft.to/lastmile_qr_scan"}, "is_reserved": 0, "fusion_lon": 0.0, "fusion_lat": 0.0, "lon": -77.09467616666667, "name": "9542c9b97d6236f6ed9db0dc13090d84"}, {"bike_id": "7de28e48aba0168acc2d9494fbd39eea", "type": "electric_scooter", "is_disabled": 0, "lat": 38.92335816666667, "rental_uris": {"ios": "https://dc.lft.to/lastmile_qr_scan", "android": "https://dc.lft.to/lastmile_qr_scan"}, "is_reserved": 0, "fusion_lon": 0.0, "fusion_lat": 0.0, "lon": -77.035358, "name": "7de28e48aba0168acc2d9494fbd39eea"}, {"bike_id": "0104da66c688247c90708978f3c475cb", "type": "electric_scooter", "is_disabled": 0, "lat": 38.9231585, "rental_uris": {"ios": "https://dc.lft.to/lastmile_qr_scan", "android": "https://dc.lft.to/lastmile_qr_scan"}, "is_reserved": 0, "fusion_lon": 0.0, "fusion_lat": 0.0, "lon": -77.040407, "name": "0104da66c688247c90708978f3c475cb"}, {"bike_id": "a65e947fe3a9d4d6f7ac9954bddced6f", "type": "electric_bike", "is_disabled": 0, "lat": 38.993453333333335, "rental_uris": {"ios": "https://dc.lft.to/lastmile_qr_scan", "android": "https://dc.lft.to/lastmile_qr_scan"}, "is_reserved": 0, "fusion_lon": 0.0, "fusion_lat": 0.0, "lon": -77.11571616666667, "name": "a65e947fe3a9d4d6f7ac9954bddced6f"}, {"bike_id": "f882c3be5a2bc0b0f4b4219730910f75", "type": "electric_scooter", "is_disabled": 0, "lat": 38.92084233333333, "rental_uris": {"ios": "https://dc.lft.to/lastmile_qr_scan", "android": "https://dc.lft.to/lastmile_qr_scan"}, "is_reserved": 0, "fusion_lon": 0.0, "fusion_lat": 0.0, "lon": -77.0240185, "name": "f882c3be5a2bc0b0f4b4219730910f75"}, {"bike_id": "6dd9b29bfb278438b5722be5d20ea4b4", "type": "electric_scooter", "is_disabled": 0, "lat": 38.916108666666666, "rental_uris": {"ios": "https://dc.lft.to/lastmile_qr_scan", "android": "https://dc.lft.to/lastmile_qr_scan"}, "is_reserved": 0, "fusion_lon": 0.0, "fusion_lat": 0.0, "lon": -77.0339045, "name": "6dd9b29bfb278438b5722be5d20ea4b4"}, {"bike_id": "910083972ea5b72ee4c9b5f8a401d881", "type": "electric_scooter", "is_disabled": 0, "lat": 38.877942, "rental_uris": {"ios": "https://dc.lft.to/lastmile_qr_scan", "android": "https://dc.lft.to/lastmile_qr_scan"}, "is_reserved": 0, "fusion_lon": 0.0, "fusion_lat": 0.0, "lon": -77.01746266666666, "name": "910083972ea5b72ee4c9b5f8a401d881"}, {"bike_id": "ecad97ee601b7c0af953e0716a1940e2", "type": "electric_scooter", "is_disabled": 0, "lat": 38.9179705, "rental_uris": {"ios": "https://dc.lft.to/lastmile_qr_scan", "android": "https://dc.lft.to/lastmile_qr_scan"}, "is_reserved": 0, "fusion_lon": 0.0, "fusion_lat": 0.0, "lon": -77.0414635, "name": "ecad97ee601b7c0af953e0716a1940e2"}, {"bike_id": "26730c5e4013427e94a27d402b89f5ae", "type": "electric_scooter", "is_disabled": 0, "lat": 38.882339, "rental_uris": {"ios": "https://dc.lft.to/lastmile_qr_scan", "android": "https://dc.lft.to/lastmile_qr_scan"}, "is_reserved": 0, "fusion_lon": 0.0, "fusion_lat": 0.0, "lon": -76.92658983333334, "name": "26730c5e4013427e94a27d402b89f5ae"}, {"bike_id": "433fcb8b683ef9c70e88417236875824", "type": "electric_scooter", "is_disabled": 0, "lat": 38.905594, "rental_uris": {"ios": "https://dc.lft.to/lastmile_qr_scan", "android": "https://dc.lft.to/lastmile_qr_scan"}, "is_reserved": 0, "fusion_lon": 0.0, "fusion_lat": 0.0, "lon": -77.03820316666666, "name": "433fcb8b683ef9c70e88417236875824"}, {"bike_id": "ede75a9a41785a989bb3333c7f850e34", "type": "electric_scooter", "is_disabled": 0, "lat": 38.9244415, "rental_uris": {"ios": "https://dc.lft.to/lastmile_qr_scan", "android": "https://dc.lft.to/lastmile_qr_scan"}, "is_reserved": 0, "fusion_lon": 0.0, "fusion_lat": 0.0, "lon": -77.03355883333333, "name": "ede75a9a41785a989bb3333c7f850e34"}, {"bike_id": "a5c35130ee2913d4a8ce8d01fcf5520e", "type": "electric_scooter", "is_disabled": 0, "lat": 38.928551666666664, "rental_uris": {"ios": "https://dc.lft.to/lastmile_qr_scan", "android": "https://dc.lft.to/lastmile_qr_scan"}, "is_reserved": 0, "fusion_lon": 0.0, "fusion_lat": 0.0, "lon": -77.01953366666666, "name": "a5c35130ee2913d4a8ce8d01fcf5520e"}, {"bike_id": "96225cf8acd117a5bae1d48cb5b598dc", "type": "electric_scooter", "is_disabled": 0, "lat": 38.914213, "rental_uris": {"ios": "https://dc.lft.to/lastmile_qr_scan", "android": "https://dc.lft.to/lastmile_qr_scan"}, "is_reserved": 0, "fusion_lon": 0.0, "fusion_lat": 0.0, "lon": -77.04810466666666, "name": "96225cf8acd117a5bae1d48cb5b598dc"}, {"bike_id": "bad5f1dd29a981a70f96f7bef960a906", "type": "electric_bike", "is_disabled": 0, "lat": 38.88059633333334, "rental_uris": {"ios": "https://dc.lft.to/lastmile_qr_scan", "android": "https://dc.lft.to/lastmile_qr_scan"}, "is_reserved": 0, "fusion_lon": 0.0, "fusion_lat": 0.0, "lon": -76.96241333333333, "name": "bad5f1dd29a981a70f96f7bef960a906"}, {"bike_id": "70bfe41d68c25421bf92f977ef22aeaa", "type": "electric_scooter", "is_disabled": 0, "lat": 38.91370333333333, "rental_uris": {"ios": "https://dc.lft.to/lastmile_qr_scan", "android": "https://dc.lft.to/lastmile_qr_scan"}, "is_reserved": 0, "fusion_lon": 0.0, "fusion_lat": 0.0, "lon": -77.07269483333333, "name": "70bfe41d68c25421bf92f977ef22aeaa"}, {"bike_id": "b5ccc15fe54373fde5681f962d40c360", "type": "electric_bike", "is_disabled": 0, "lat": 38.91015183333333, "rental_uris": {"ios": "https://dc.lft.to/lastmile_qr_scan", "android": "https://dc.lft.to/lastmile_qr_scan"}, "is_reserved": 0, "fusion_lon": 0.0, "fusion_lat": 0.0, "lon": -77.2279765, "name": "b5ccc15fe54373fde5681f962d40c360"}, {"bike_id": "ffc60cb55ae8de702011c43d4fb5d660", "type": "electric_scooter", "is_disabled": 0, "lat": 38.921518666666664, "rental_uris": {"ios": "https://dc.lft.to/lastmile_qr_scan", "android": "https://dc.lft.to/lastmile_qr_scan"}, "is_reserved": 0, "fusion_lon": 0.0, "fusion_lat": 0.0, "lon": -77.03532716666666, "name": "ffc60cb55ae8de702011c43d4fb5d660"}, {"bike_id": "18fb30788783ca58cd4b8fe23950c3e3", "type": "electric_scooter", "is_disabled": 0, "lat": 38.9140515, "rental_uris": {"ios": "https://dc.lft.to/lastmile_qr_scan", "android": "https://dc.lft.to/lastmile_qr_scan"}, "is_reserved": 0, "fusion_lon": 0.0, "fusion_lat": 0.0, "lon": -77.015573, "name": "18fb30788783ca58cd4b8fe23950c3e3"}, {"bike_id": "d3cfd67962c6490c1ed9597ea8d584ac", "type": "electric_scooter", "is_disabled": 0, "lat": 38.9068695, "rental_uris": {"ios": "https://dc.lft.to/lastmile_qr_scan", "android": "https://dc.lft.to/lastmile_qr_scan"}, "is_reserved": 0, "fusion_lon": 0.0, "fusion_lat": 0.0, "lon": -77.03596283333333, "name": "d3cfd67962c6490c1ed9597ea8d584ac"}, {"bike_id": "bddc1b02bd7a6cd7dc3ad4591ffb6ab4", "type": "electric_scooter", "is_disabled": 0, "lat": 38.90532983333333, "rental_uris": {"ios": "https://dc.lft.to/lastmile_qr_scan", "android": "https://dc.lft.to/lastmile_qr_scan"}, "is_reserved": 0, "fusion_lon": 0.0, "fusion_lat": 0.0, "lon": -77.04186583333333, "name": "bddc1b02bd7a6cd7dc3ad4591ffb6ab4"}, {"bike_id": "edbf26ceed6f40d1b74f621cd14a5439", "type": "electric_scooter", "is_disabled": 0, "lat": 38.869786500000004, "rental_uris": {"ios": "https://dc.lft.to/lastmile_qr_scan", "android": "https://dc.lft.to/lastmile_qr_scan"}, "is_reserved": 0, "fusion_lon": 0.0, "fusion_lat": 0.0, "lon": -76.98177083333333, "name": "edbf26ceed6f40d1b74f621cd14a5439"}, {"bike_id": "abc4855d9da1b72ee56772f54e5264ad", "type": "electric_scooter", "is_disabled": 0, "lat": 38.93538916666667, "rental_uris": {"ios": "https://dc.lft.to/lastmile_qr_scan", "android": "https://dc.lft.to/lastmile_qr_scan"}, "is_reserved": 0, "fusion_lon": 0.0, "fusion_lat": 0.0, "lon": -77.02351383333334, "name": "abc4855d9da1b72ee56772f54e5264ad"}, {"bike_id": "e1ea294be52ba53859c88121acffc59f", "type": "electric_scooter", "is_disabled": 0, "lat": 38.9470485, "rental_uris": {"ios": "https://dc.lft.to/lastmile_qr_scan", "android": "https://dc.lft.to/lastmile_qr_scan"}, "is_reserved": 0, "fusion_lon": 0.0, "fusion_lat": 0.0, "lon": -77.0194015, "name": "e1ea294be52ba53859c88121acffc59f"}, {"bike_id": "c62ad970fc48d96737e9933e2d49fa79", "type": "electric_scooter", "is_disabled": 0, "lat": 38.928282833333334, "rental_uris": {"ios": "https://dc.lft.to/lastmile_qr_scan", "android": "https://dc.lft.to/lastmile_qr_scan"}, "is_reserved": 0, "fusion_lon": 0.0, "fusion_lat": 0.0, "lon": -77.00600883333334, "name": "c62ad970fc48d96737e9933e2d49fa79"}, {"bike_id": "4d317d7d7692a59f5b3d447adefb6c60", "type": "electric_scooter", "is_disabled": 0, "lat": 38.9479025, "rental_uris": {"ios": "https://dc.lft.to/lastmile_qr_scan", "android": "https://dc.lft.to/lastmile_qr_scan"}, "is_reserved": 0, "fusion_lon": 0.0, "fusion_lat": 0.0, "lon": -77.02136433333334, "name": "4d317d7d7692a59f5b3d447adefb6c60"}, {"bike_id": "c71c02bd18584587414a97dfa90dd2e1", "type": "electric_bike", "is_disabled": 0, "lat": 38.924170833333335, "rental_uris": {"ios": "https://dc.lft.to/lastmile_qr_scan", "android": "https://dc.lft.to/lastmile_qr_scan"}, "is_reserved": 0, "fusion_lon": 0.0, "fusion_lat": 0.0, "lon": -77.05042433333334, "name": "c71c02bd18584587414a97dfa90dd2e1"}, {"bike_id": "16fc6025df9ae361fac26e88b110507a", "type": "electric_bike", "is_disabled": 0, "lat": 38.872815, "rental_uris": {"ios": "https://dc.lft.to/lastmile_qr_scan", "android": "https://dc.lft.to/lastmile_qr_scan"}, "is_reserved": 0, "fusion_lon": 0.0, "fusion_lat": 0.0, "lon": -77.2331805, "name": "16fc6025df9ae361fac26e88b110507a"}, {"bike_id": "c5f6ba087c6abf67c4842cfcecb8acb2", "type": "electric_scooter", "is_disabled": 0, "lat": 38.94840633333333, "rental_uris": {"ios": "https://dc.lft.to/lastmile_qr_scan", "android": "https://dc.lft.to/lastmile_qr_scan"}, "is_reserved": 0, "fusion_lon": 0.0, "fusion_lat": 0.0, "lon": -77.025439, "name": "c5f6ba087c6abf67c4842cfcecb8acb2"}, {"bike_id": "f26ab944c7ec0bd211fe2588f57d6b8d", "type": "electric_scooter", "is_disabled": 0, "lat": 38.884909666666665, "rental_uris": {"ios": "https://dc.lft.to/lastmile_qr_scan", "android": "https://dc.lft.to/lastmile_qr_scan"}, "is_reserved": 0, "fusion_lon": 0.0, "fusion_lat": 0.0, "lon": -77.00716716666666, "name": "f26ab944c7ec0bd211fe2588f57d6b8d"}, {"bike_id": "29fc726e1382cfec46b1ea4048b97ca5", "type": "electric_scooter", "is_disabled": 0, "lat": 38.934647, "rental_uris": {"ios": "https://dc.lft.to/lastmile_qr_scan", "android": "https://dc.lft.to/lastmile_qr_scan"}, "is_reserved": 0, "fusion_lon": 0.0, "fusion_lat": 0.0, "lon": -77.027989, "name": "29fc726e1382cfec46b1ea4048b97ca5"}, {"bike_id": "b84ce92048cb4976be47cdd5702558b7", "type": "electric_scooter", "is_disabled": 0, "lat": 38.934193, "rental_uris": {"ios": "https://dc.lft.to/lastmile_qr_scan", "android": "https://dc.lft.to/lastmile_qr_scan"}, "is_reserved": 0, "fusion_lon": 0.0, "fusion_lat": 0.0, "lon": -77.03912533333333, "name": "b84ce92048cb4976be47cdd5702558b7"}, {"bike_id": "c09a8cc5852c217d8208bdd38f92d589", "type": "electric_scooter", "is_disabled": 0, "lat": 38.90027716666667, "rental_uris": {"ios": "https://dc.lft.to/lastmile_qr_scan", "android": "https://dc.lft.to/lastmile_qr_scan"}, "is_reserved": 0, "fusion_lon": 0.0, "fusion_lat": 0.0, "lon": -76.997591, "name": "c09a8cc5852c217d8208bdd38f92d589"}, {"bike_id": "6cc9bc5c67c60781eedd104c8d2abef6", "type": "electric_scooter", "is_disabled": 0, "lat": 38.8875535, "rental_uris": {"ios": "https://dc.lft.to/lastmile_qr_scan", "android": "https://dc.lft.to/lastmile_qr_scan"}, "is_reserved": 0, "fusion_lon": 0.0, "fusion_lat": 0.0, "lon": -77.00267483333333, "name": "6cc9bc5c67c60781eedd104c8d2abef6"}, {"bike_id": "a4994fbbc8e52c18ee67469124f6eac7", "type": "electric_scooter", "is_disabled": 0, "lat": 38.85444616666667, "rental_uris": {"ios": "https://dc.lft.to/lastmile_qr_scan", "android": "https://dc.lft.to/lastmile_qr_scan"}, "is_reserved": 0, "fusion_lon": 0.0, "fusion_lat": 0.0, "lon": -76.9860865, "name": "a4994fbbc8e52c18ee67469124f6eac7"}, {"bike_id": "5b796876729d7d3be3866d0931f4f732", "type": "electric_scooter", "is_disabled": 0, "lat": 38.935364666666665, "rental_uris": {"ios": "https://dc.lft.to/lastmile_qr_scan", "android": "https://dc.lft.to/lastmile_qr_scan"}, "is_reserved": 0, "fusion_lon": 0.0, "fusion_lat": 0.0, "lon": -77.02353883333333, "name": "5b796876729d7d3be3866d0931f4f732"}, {"bike_id": "b69211df3178864a534b468e6decd0d9", "type": "electric_bike", "is_disabled": 0, "lat": 38.854128333333335, "rental_uris": {"ios": "https://dc.lft.to/lastmile_qr_scan", "android": "https://dc.lft.to/lastmile_qr_scan"}, "is_reserved": 0, "fusion_lon": 0.0, "fusion_lat": 0.0, "lon": -77.12079083333333, "name": "b69211df3178864a534b468e6decd0d9"}, {"bike_id": "a563189f6a055560f6ce5ef4341d57ec", "type": "electric_scooter", "is_disabled": 0, "lat": 38.933225666666665, "rental_uris": {"ios": "https://dc.lft.to/lastmile_qr_scan", "android": "https://dc.lft.to/lastmile_qr_scan"}, "is_reserved": 0, "fusion_lon": 0.0, "fusion_lat": 0.0, "lon": -77.02921466666666, "name": "a563189f6a055560f6ce5ef4341d57ec"}, {"bike_id": "47b4801e9bc3fc80961d7329bfcb0957", "type": "electric_scooter", "is_disabled": 0, "lat": 38.94294216666667, "rental_uris": {"ios": "https://dc.lft.to/lastmile_qr_scan", "android": "https://dc.lft.to/lastmile_qr_scan"}, "is_reserved": 0, "fusion_lon": 0.0, "fusion_lat": 0.0, "lon": -77.02167083333333, "name": "47b4801e9bc3fc80961d7329bfcb0957"}, {"bike_id": "babef1eef32f24c3a19316b8a7ceb59e", "type": "electric_scooter", "is_disabled": 0, "lat": 38.92452633333333, "rental_uris": {"ios": "https://dc.lft.to/lastmile_qr_scan", "android": "https://dc.lft.to/lastmile_qr_scan"}, "is_reserved": 0, "fusion_lon": 0.0, "fusion_lat": 0.0, "lon": -77.02414533333334, "name": "babef1eef32f24c3a19316b8a7ceb59e"}, {"bike_id": "622c4f021458fd8d2499a107cdfdc8ec", "type": "electric_scooter", "is_disabled": 0, "lat": 38.908094, "rental_uris": {"ios": "https://dc.lft.to/lastmile_qr_scan", "android": "https://dc.lft.to/lastmile_qr_scan"}, "is_reserved": 0, "fusion_lon": 0.0, "fusion_lat": 0.0, "lon": -77.04337266666667, "name": "622c4f021458fd8d2499a107cdfdc8ec"}, {"bike_id": "ade4ea45781c5d82deb673bc5fb53220", "type": "electric_scooter", "is_disabled": 0, "lat": 38.924064333333334, "rental_uris": {"ios": "https://dc.lft.to/lastmile_qr_scan", "android": "https://dc.lft.to/lastmile_qr_scan"}, "is_reserved": 0, "fusion_lon": 0.0, "fusion_lat": 0.0, "lon": -77.051634, "name": "ade4ea45781c5d82deb673bc5fb53220"}, {"bike_id": "5754dba7a852f894941be7ccc075dc47", "type": "electric_scooter", "is_disabled": 0, "lat": 38.86246833333333, "rental_uris": {"ios": "https://dc.lft.to/lastmile_qr_scan", "android": "https://dc.lft.to/lastmile_qr_scan"}, "is_reserved": 0, "fusion_lon": 0.0, "fusion_lat": 0.0, "lon": -76.99499566666667, "name": "5754dba7a852f894941be7ccc075dc47"}, {"bike_id": "f981dff747e879f66098a9cfadca847e", "type": "electric_scooter", "is_disabled": 0, "lat": 38.901771833333335, "rental_uris": {"ios": "https://dc.lft.to/lastmile_qr_scan", "android": "https://dc.lft.to/lastmile_qr_scan"}, "is_reserved": 0, "fusion_lon": 0.0, "fusion_lat": 0.0, "lon": -76.9845145, "name": "f981dff747e879f66098a9cfadca847e"}, {"bike_id": "b554316bd14ede860a2d19e425e24724", "type": "electric_scooter", "is_disabled": 0, "lat": 38.917536, "rental_uris": {"ios": "https://dc.lft.to/lastmile_qr_scan", "android": "https://dc.lft.to/lastmile_qr_scan"}, "is_reserved": 0, "fusion_lon": 0.0, "fusion_lat": 0.0, "lon": -77.03859666666666, "name": "b554316bd14ede860a2d19e425e24724"}, {"bike_id": "b8e753ec106b5f861ae847da6b896ede", "type": "electric_scooter", "is_disabled": 0, "lat": 38.9227155, "rental_uris": {"ios": "https://dc.lft.to/lastmile_qr_scan", "android": "https://dc.lft.to/lastmile_qr_scan"}, "is_reserved": 0, "fusion_lon": 0.0, "fusion_lat": 0.0, "lon": -77.0224335, "name": "b8e753ec106b5f861ae847da6b896ede"}, {"bike_id": "58189b6fa4d22005f7ae68793dfaf909", "type": "electric_scooter", "is_disabled": 0, "lat": 38.91569, "rental_uris": {"ios": "https://dc.lft.to/lastmile_qr_scan", "android": "https://dc.lft.to/lastmile_qr_scan"}, "is_reserved": 0, "fusion_lon": 0.0, "fusion_lat": 0.0, "lon": -77.0428275, "name": "58189b6fa4d22005f7ae68793dfaf909"}, {"bike_id": "ed1eaec287dd1f268ced6891b2ceea6a", "type": "electric_scooter", "is_disabled": 0, "lat": 38.905657166666664, "rental_uris": {"ios": "https://dc.lft.to/lastmile_qr_scan", "android": "https://dc.lft.to/lastmile_qr_scan"}, "is_reserved": 0, "fusion_lon": 0.0, "fusion_lat": 0.0, "lon": -77.00711116666666, "name": "ed1eaec287dd1f268ced6891b2ceea6a"}, {"bike_id": "b2205204157f143042a67d614df460ac", "type": "electric_scooter", "is_disabled": 0, "lat": 38.91258583333333, "rental_uris": {"ios": "https://dc.lft.to/lastmile_qr_scan", "android": "https://dc.lft.to/lastmile_qr_scan"}, "is_reserved": 0, "fusion_lon": 0.0, "fusion_lat": 0.0, "lon": -77.06794716666667, "name": "b2205204157f143042a67d614df460ac"}, {"bike_id": "8da4bc7fcbb528b9aabd05d1485b102a", "type": "electric_scooter", "is_disabled": 0, "lat": 38.8924095, "rental_uris": {"ios": "https://dc.lft.to/lastmile_qr_scan", "android": "https://dc.lft.to/lastmile_qr_scan"}, "is_reserved": 0, "fusion_lon": 0.0, "fusion_lat": 0.0, "lon": -77.03166483333334, "name": "8da4bc7fcbb528b9aabd05d1485b102a"}, {"bike_id": "7023d155e5953e38c6d6ec45ba0a5708", "type": "electric_scooter", "is_disabled": 0, "lat": 38.916659333333335, "rental_uris": {"ios": "https://dc.lft.to/lastmile_qr_scan", "android": "https://dc.lft.to/lastmile_qr_scan"}, "is_reserved": 0, "fusion_lon": 0.0, "fusion_lat": 0.0, "lon": -77.0288855, "name": "7023d155e5953e38c6d6ec45ba0a5708"}, {"bike_id": "1b216c8af00ed16aab1c99ad51df5edb", "type": "electric_scooter", "is_disabled": 0, "lat": 38.888524833333335, "rental_uris": {"ios": "https://dc.lft.to/lastmile_qr_scan", "android": "https://dc.lft.to/lastmile_qr_scan"}, "is_reserved": 0, "fusion_lon": 0.0, "fusion_lat": 0.0, "lon": -77.00052783333334, "name": "1b216c8af00ed16aab1c99ad51df5edb"}, {"bike_id": "6e5e38c356be0120d30bb51d7581d1d7", "type": "electric_scooter", "is_disabled": 0, "lat": 38.92435, "rental_uris": {"ios": "https://dc.lft.to/lastmile_qr_scan", "android": "https://dc.lft.to/lastmile_qr_scan"}, "is_reserved": 0, "fusion_lon": 0.0, "fusion_lat": 0.0, "lon": -77.0520965, "name": "6e5e38c356be0120d30bb51d7581d1d7"}, {"bike_id": "029a8a014bde832fb7a1a799bd42e0e7", "type": "electric_scooter", "is_disabled": 0, "lat": 38.913193166666666, "rental_uris": {"ios": "https://dc.lft.to/lastmile_qr_scan", "android": "https://dc.lft.to/lastmile_qr_scan"}, "is_reserved": 0, "fusion_lon": 0.0, "fusion_lat": 0.0, "lon": -77.03659033333334, "name": "029a8a014bde832fb7a1a799bd42e0e7"}, {"bike_id": "eb7017939d0132b30de11a7cdd4a3279", "type": "electric_scooter", "is_disabled": 0, "lat": 38.92274466666667, "rental_uris": {"ios": "https://dc.lft.to/lastmile_qr_scan", "android": "https://dc.lft.to/lastmile_qr_scan"}, "is_reserved": 0, "fusion_lon": 0.0, "fusion_lat": 0.0, "lon": -77.041933, "name": "eb7017939d0132b30de11a7cdd4a3279"}, {"bike_id": "aaa006b7ed7ae91f700ead2ee8b455a6", "type": "electric_scooter", "is_disabled": 0, "lat": 38.9027835, "rental_uris": {"ios": "https://dc.lft.to/lastmile_qr_scan", "android": "https://dc.lft.to/lastmile_qr_scan"}, "is_reserved": 0, "fusion_lon": 0.0, "fusion_lat": 0.0, "lon": -77.0383775, "name": "aaa006b7ed7ae91f700ead2ee8b455a6"}, {"bike_id": "3fe037e20a11331fcbe4079c342cbdad", "type": "electric_scooter", "is_disabled": 0, "lat": 38.90533283333333, "rental_uris": {"ios": "https://dc.lft.to/lastmile_qr_scan", "android": "https://dc.lft.to/lastmile_qr_scan"}, "is_reserved": 0, "fusion_lon": 0.0, "fusion_lat": 0.0, "lon": -77.05936633333333, "name": "3fe037e20a11331fcbe4079c342cbdad"}, {"bike_id": "eea3eb3376a24535070f836ac0fd0132", "type": "electric_scooter", "is_disabled": 0, "lat": 38.91688716666667, "rental_uris": {"ios": "https://dc.lft.to/lastmile_qr_scan", "android": "https://dc.lft.to/lastmile_qr_scan"}, "is_reserved": 0, "fusion_lon": 0.0, "fusion_lat": 0.0, "lon": -77.02953566666666, "name": "eea3eb3376a24535070f836ac0fd0132"}, {"bike_id": "189de937d79869ac720084bd60bff7f3", "type": "electric_scooter", "is_disabled": 0, "lat": 38.862177833333334, "rental_uris": {"ios": "https://dc.lft.to/lastmile_qr_scan", "android": "https://dc.lft.to/lastmile_qr_scan"}, "is_reserved": 0, "fusion_lon": 0.0, "fusion_lat": 0.0, "lon": -76.994844, "name": "189de937d79869ac720084bd60bff7f3"}, {"bike_id": "bb97fe85967478eaa10bf34e9f57d06d", "type": "electric_scooter", "is_disabled": 0, "lat": 38.872022, "rental_uris": {"ios": "https://dc.lft.to/lastmile_qr_scan", "android": "https://dc.lft.to/lastmile_qr_scan"}, "is_reserved": 0, "fusion_lon": 0.0, "fusion_lat": 0.0, "lon": -77.00932016666667, "name": "bb97fe85967478eaa10bf34e9f57d06d"}, {"bike_id": "6da9468ae91c5aa70da00cbe1fbe214b", "type": "electric_scooter", "is_disabled": 0, "lat": 38.90948916666667, "rental_uris": {"ios": "https://dc.lft.to/lastmile_qr_scan", "android": "https://dc.lft.to/lastmile_qr_scan"}, "is_reserved": 0, "fusion_lon": 0.0, "fusion_lat": 0.0, "lon": -77.034462, "name": "6da9468ae91c5aa70da00cbe1fbe214b"}, {"bike_id": "460517b461d2bea4509dad3b0a66cc1a", "type": "electric_scooter", "is_disabled": 0, "lat": 38.9015205, "rental_uris": {"ios": "https://dc.lft.to/lastmile_qr_scan", "android": "https://dc.lft.to/lastmile_qr_scan"}, "is_reserved": 0, "fusion_lon": 0.0, "fusion_lat": 0.0, "lon": -76.930608, "name": "460517b461d2bea4509dad3b0a66cc1a"}, {"bike_id": "fb8565c4cb07f94a3ea647e219b9cc48", "type": "electric_bike", "is_disabled": 0, "lat": 39.0629665, "rental_uris": {"ios": "https://dc.lft.to/lastmile_qr_scan", "android": "https://dc.lft.to/lastmile_qr_scan"}, "is_reserved": 0, "fusion_lon": 0.0, "fusion_lat": 0.0, "lon": -77.0498205, "name": "fb8565c4cb07f94a3ea647e219b9cc48"}, {"bike_id": "a1cb69cf3a671d0f799e19fb42025de6", "type": "electric_scooter", "is_disabled": 0, "lat": 38.938845, "rental_uris": {"ios": "https://dc.lft.to/lastmile_qr_scan", "android": "https://dc.lft.to/lastmile_qr_scan"}, "is_reserved": 0, "fusion_lon": 0.0, "fusion_lat": 0.0, "lon": -77.02493716666666, "name": "a1cb69cf3a671d0f799e19fb42025de6"}, {"bike_id": "bc226242ab0e9e9c287a43efe151ea2a", "type": "electric_scooter", "is_disabled": 0, "lat": 38.93845183333333, "rental_uris": {"ios": "https://dc.lft.to/lastmile_qr_scan", "android": "https://dc.lft.to/lastmile_qr_scan"}, "is_reserved": 0, "fusion_lon": 0.0, "fusion_lat": 0.0, "lon": -77.07230816666667, "name": "bc226242ab0e9e9c287a43efe151ea2a"}, {"bike_id": "6c668a971ab49cec5c3e11e8e0fff999", "type": "electric_scooter", "is_disabled": 0, "lat": 38.892267, "rental_uris": {"ios": "https://dc.lft.to/lastmile_qr_scan", "android": "https://dc.lft.to/lastmile_qr_scan"}, "is_reserved": 0, "fusion_lon": 0.0, "fusion_lat": 0.0, "lon": -77.02579833333333, "name": "6c668a971ab49cec5c3e11e8e0fff999"}, {"bike_id": "599ef455d533e5d0e0f83543c23e1322", "type": "electric_scooter", "is_disabled": 0, "lat": 38.929256333333335, "rental_uris": {"ios": "https://dc.lft.to/lastmile_qr_scan", "android": "https://dc.lft.to/lastmile_qr_scan"}, "is_reserved": 0, "fusion_lon": 0.0, "fusion_lat": 0.0, "lon": -77.032878, "name": "599ef455d533e5d0e0f83543c23e1322"}, {"bike_id": "80a85134f702756a91e83f5bef0a5ece", "type": "electric_scooter", "is_disabled": 0, "lat": 38.93363733333333, "rental_uris": {"ios": "https://dc.lft.to/lastmile_qr_scan", "android": "https://dc.lft.to/lastmile_qr_scan"}, "is_reserved": 0, "fusion_lon": 0.0, "fusion_lat": 0.0, "lon": -77.08856133333333, "name": "80a85134f702756a91e83f5bef0a5ece"}, {"bike_id": "96b1aeb81ef13a7b0a3f250934e308d6", "type": "electric_scooter", "is_disabled": 0, "lat": 38.92377716666667, "rental_uris": {"ios": "https://dc.lft.to/lastmile_qr_scan", "android": "https://dc.lft.to/lastmile_qr_scan"}, "is_reserved": 0, "fusion_lon": 0.0, "fusion_lat": 0.0, "lon": -77.01938933333334, "name": "96b1aeb81ef13a7b0a3f250934e308d6"}, {"bike_id": "a8ed92aa27e23db9ecf80c0f6eb4b96c", "type": "electric_scooter", "is_disabled": 0, "lat": 38.86628316666667, "rental_uris": {"ios": "https://dc.lft.to/lastmile_qr_scan", "android": "https://dc.lft.to/lastmile_qr_scan"}, "is_reserved": 0, "fusion_lon": 0.0, "fusion_lat": 0.0, "lon": -76.98716866666666, "name": "a8ed92aa27e23db9ecf80c0f6eb4b96c"}, {"bike_id": "b8dafa7ee872d9a243690311a1ff9875", "type": "electric_scooter", "is_disabled": 0, "lat": 38.90390683333333, "rental_uris": {"ios": "https://dc.lft.to/lastmile_qr_scan", "android": "https://dc.lft.to/lastmile_qr_scan"}, "is_reserved": 0, "fusion_lon": 0.0, "fusion_lat": 0.0, "lon": -77.0241115, "name": "b8dafa7ee872d9a243690311a1ff9875"}, {"bike_id": "43e3162400f9f53b844def2a2f63097c", "type": "electric_scooter", "is_disabled": 0, "lat": 38.9265565, "rental_uris": {"ios": "https://dc.lft.to/lastmile_qr_scan", "android": "https://dc.lft.to/lastmile_qr_scan"}, "is_reserved": 0, "fusion_lon": 0.0, "fusion_lat": 0.0, "lon": -77.03732166666667, "name": "43e3162400f9f53b844def2a2f63097c"}, {"bike_id": "674eb5267c52750718afe5bb13569a58", "type": "electric_scooter", "is_disabled": 0, "lat": 38.91569366666667, "rental_uris": {"ios": "https://dc.lft.to/lastmile_qr_scan", "android": "https://dc.lft.to/lastmile_qr_scan"}, "is_reserved": 0, "fusion_lon": 0.0, "fusion_lat": 0.0, "lon": -77.0448595, "name": "674eb5267c52750718afe5bb13569a58"}, {"bike_id": "a268b18d2862025b0f4fec490ebabcd8", "type": "electric_scooter", "is_disabled": 0, "lat": 38.8963295, "rental_uris": {"ios": "https://dc.lft.to/lastmile_qr_scan", "android": "https://dc.lft.to/lastmile_qr_scan"}, "is_reserved": 0, "fusion_lon": 0.0, "fusion_lat": 0.0, "lon": -77.03317133333333, "name": "a268b18d2862025b0f4fec490ebabcd8"}, {"bike_id": "20fa3d397e0ca04dff785bc2e4d4bca7", "type": "electric_scooter", "is_disabled": 0, "lat": 38.905320833333334, "rental_uris": {"ios": "https://dc.lft.to/lastmile_qr_scan", "android": "https://dc.lft.to/lastmile_qr_scan"}, "is_reserved": 0, "fusion_lon": 0.0, "fusion_lat": 0.0, "lon": -77.059389, "name": "20fa3d397e0ca04dff785bc2e4d4bca7"}, {"bike_id": "9137de833e2135d9a84921b4aa2c0ba2", "type": "electric_scooter", "is_disabled": 0, "lat": 38.90591783333333, "rental_uris": {"ios": "https://dc.lft.to/lastmile_qr_scan", "android": "https://dc.lft.to/lastmile_qr_scan"}, "is_reserved": 0, "fusion_lon": 0.0, "fusion_lat": 0.0, "lon": -77.062859, "name": "9137de833e2135d9a84921b4aa2c0ba2"}, {"bike_id": "e1b880ab1dca34b8037203ca6d12c206", "type": "electric_bike", "is_disabled": 0, "lat": 38.95622266666667, "rental_uris": {"ios": "https://dc.lft.to/lastmile_qr_scan", "android": "https://dc.lft.to/lastmile_qr_scan"}, "is_reserved": 0, "fusion_lon": 0.0, "fusion_lat": 0.0, "lon": -77.02597133333333, "name": "e1b880ab1dca34b8037203ca6d12c206"}, {"bike_id": "933348fa1aff0cd75b4ffa3fe47cbf81", "type": "electric_scooter", "is_disabled": 0, "lat": 38.90604416666667, "rental_uris": {"ios": "https://dc.lft.to/lastmile_qr_scan", "android": "https://dc.lft.to/lastmile_qr_scan"}, "is_reserved": 0, "fusion_lon": 0.0, "fusion_lat": 0.0, "lon": -77.06299283333334, "name": "933348fa1aff0cd75b4ffa3fe47cbf81"}, {"bike_id": "6aaf11d5292465703c1f1af48e155a08", "type": "electric_scooter", "is_disabled": 0, "lat": 38.913752333333335, "rental_uris": {"ios": "https://dc.lft.to/lastmile_qr_scan", "android": "https://dc.lft.to/lastmile_qr_scan"}, "is_reserved": 0, "fusion_lon": 0.0, "fusion_lat": 0.0, "lon": -77.03014966666667, "name": "6aaf11d5292465703c1f1af48e155a08"}, {"bike_id": "5dc36da6061e79b4536ea4bb4b4239e2", "type": "electric_scooter", "is_disabled": 0, "lat": 38.862143333333336, "rental_uris": {"ios": "https://dc.lft.to/lastmile_qr_scan", "android": "https://dc.lft.to/lastmile_qr_scan"}, "is_reserved": 0, "fusion_lon": 0.0, "fusion_lat": 0.0, "lon": -76.99481966666667, "name": "5dc36da6061e79b4536ea4bb4b4239e2"}, {"bike_id": "d42c59100cf9394b0e0f934ca49154af", "type": "electric_scooter", "is_disabled": 0, "lat": 38.9005435, "rental_uris": {"ios": "https://dc.lft.to/lastmile_qr_scan", "android": "https://dc.lft.to/lastmile_qr_scan"}, "is_reserved": 0, "fusion_lon": 0.0, "fusion_lat": 0.0, "lon": -77.00708366666667, "name": "d42c59100cf9394b0e0f934ca49154af"}, {"bike_id": "371df80173883f979628cfbc8448b159", "type": "electric_scooter", "is_disabled": 0, "lat": 38.90237583333333, "rental_uris": {"ios": "https://dc.lft.to/lastmile_qr_scan", "android": "https://dc.lft.to/lastmile_qr_scan"}, "is_reserved": 0, "fusion_lon": 0.0, "fusion_lat": 0.0, "lon": -77.0414355, "name": "371df80173883f979628cfbc8448b159"}, {"bike_id": "b89ea03992856b2d94143fd98d2ff457", "type": "electric_scooter", "is_disabled": 0, "lat": 38.900313, "rental_uris": {"ios": "https://dc.lft.to/lastmile_qr_scan", "android": "https://dc.lft.to/lastmile_qr_scan"}, "is_reserved": 0, "fusion_lon": 0.0, "fusion_lat": 0.0, "lon": -76.9980985, "name": "b89ea03992856b2d94143fd98d2ff457"}, {"bike_id": "804d03d86fa000ad5dd366782919a7ee", "type": "electric_scooter", "is_disabled": 0, "lat": 38.9500285, "rental_uris": {"ios": "https://dc.lft.to/lastmile_qr_scan", "android": "https://dc.lft.to/lastmile_qr_scan"}, "is_reserved": 0, "fusion_lon": 0.0, "fusion_lat": 0.0, "lon": -77.01554316666666, "name": "804d03d86fa000ad5dd366782919a7ee"}, {"bike_id": "244ae31dd02912fbc1eeef7b13211183", "type": "electric_scooter", "is_disabled": 0, "lat": 38.90123716666667, "rental_uris": {"ios": "https://dc.lft.to/lastmile_qr_scan", "android": "https://dc.lft.to/lastmile_qr_scan"}, "is_reserved": 0, "fusion_lon": 0.0, "fusion_lat": 0.0, "lon": -77.01837433333333, "name": "244ae31dd02912fbc1eeef7b13211183"}, {"bike_id": "47297cabd3ce025cf824b3ab913408e4", "type": "electric_scooter", "is_disabled": 0, "lat": 38.904658166666664, "rental_uris": {"ios": "https://dc.lft.to/lastmile_qr_scan", "android": "https://dc.lft.to/lastmile_qr_scan"}, "is_reserved": 0, "fusion_lon": 0.0, "fusion_lat": 0.0, "lon": -77.06618566666667, "name": "47297cabd3ce025cf824b3ab913408e4"}, {"bike_id": "7b13f35b46abf1d398322a7beadf1b51", "type": "electric_scooter", "is_disabled": 0, "lat": 38.92321833333333, "rental_uris": {"ios": "https://dc.lft.to/lastmile_qr_scan", "android": "https://dc.lft.to/lastmile_qr_scan"}, "is_reserved": 0, "fusion_lon": 0.0, "fusion_lat": 0.0, "lon": -77.03881916666667, "name": "7b13f35b46abf1d398322a7beadf1b51"}, {"bike_id": "3f472f73dd1e6c52ef667ca9cbd02e2d", "type": "electric_scooter", "is_disabled": 0, "lat": 38.890081333333335, "rental_uris": {"ios": "https://dc.lft.to/lastmile_qr_scan", "android": "https://dc.lft.to/lastmile_qr_scan"}, "is_reserved": 0, "fusion_lon": 0.0, "fusion_lat": 0.0, "lon": -76.93744466666666, "name": "3f472f73dd1e6c52ef667ca9cbd02e2d"}, {"bike_id": "97d974362f26c349fd1d6a787bfcebda", "type": "electric_scooter", "is_disabled": 0, "lat": 38.885349166666664, "rental_uris": {"ios": "https://dc.lft.to/lastmile_qr_scan", "android": "https://dc.lft.to/lastmile_qr_scan"}, "is_reserved": 0, "fusion_lon": 0.0, "fusion_lat": 0.0, "lon": -76.99827316666666, "name": "97d974362f26c349fd1d6a787bfcebda"}, {"bike_id": "f6ddb6a6d07490637eaa9fce6f38f600", "type": "electric_scooter", "is_disabled": 0, "lat": 38.95663866666666, "rental_uris": {"ios": "https://dc.lft.to/lastmile_qr_scan", "android": "https://dc.lft.to/lastmile_qr_scan"}, "is_reserved": 0, "fusion_lon": 0.0, "fusion_lat": 0.0, "lon": -77.02399033333333, "name": "f6ddb6a6d07490637eaa9fce6f38f600"}, {"bike_id": "7c60528a5e0b813f4264ee407c002adc", "type": "electric_scooter", "is_disabled": 0, "lat": 38.92319966666667, "rental_uris": {"ios": "https://dc.lft.to/lastmile_qr_scan", "android": "https://dc.lft.to/lastmile_qr_scan"}, "is_reserved": 0, "fusion_lon": 0.0, "fusion_lat": 0.0, "lon": -77.03907566666666, "name": "7c60528a5e0b813f4264ee407c002adc"}, {"bike_id": "2165bef03b581ff63f8244d6f42607e1", "type": "electric_scooter", "is_disabled": 0, "lat": 38.86249383333333, "rental_uris": {"ios": "https://dc.lft.to/lastmile_qr_scan", "android": "https://dc.lft.to/lastmile_qr_scan"}, "is_reserved": 0, "fusion_lon": 0.0, "fusion_lat": 0.0, "lon": -76.99509033333334, "name": "2165bef03b581ff63f8244d6f42607e1"}, {"bike_id": "9c9ba1f438d0cb5cfc036ea40610e89f", "type": "electric_scooter", "is_disabled": 0, "lat": 38.88625233333333, "rental_uris": {"ios": "https://dc.lft.to/lastmile_qr_scan", "android": "https://dc.lft.to/lastmile_qr_scan"}, "is_reserved": 0, "fusion_lon": 0.0, "fusion_lat": 0.0, "lon": -76.99607483333334, "name": "9c9ba1f438d0cb5cfc036ea40610e89f"}, {"bike_id": "ecf5ab255037d60d13a909eab2d72ee9", "type": "electric_scooter", "is_disabled": 0, "lat": 38.915562, "rental_uris": {"ios": "https://dc.lft.to/lastmile_qr_scan", "android": "https://dc.lft.to/lastmile_qr_scan"}, "is_reserved": 0, "fusion_lon": 0.0, "fusion_lat": 0.0, "lon": -77.03437333333333, "name": "ecf5ab255037d60d13a909eab2d72ee9"}, {"bike_id": "c81cfe986c07de51873dddb77459fa0d", "type": "electric_scooter", "is_disabled": 0, "lat": 38.905638, "rental_uris": {"ios": "https://dc.lft.to/lastmile_qr_scan", "android": "https://dc.lft.to/lastmile_qr_scan"}, "is_reserved": 0, "fusion_lon": 0.0, "fusion_lat": 0.0, "lon": -76.9813925, "name": "c81cfe986c07de51873dddb77459fa0d"}, {"bike_id": "cbfe0bbcfef1aa4edec2dbd71529e9e5", "type": "electric_scooter", "is_disabled": 0, "lat": 38.92677166666667, "rental_uris": {"ios": "https://dc.lft.to/lastmile_qr_scan", "android": "https://dc.lft.to/lastmile_qr_scan"}, "is_reserved": 0, "fusion_lon": 0.0, "fusion_lat": 0.0, "lon": -77.043524, "name": "cbfe0bbcfef1aa4edec2dbd71529e9e5"}, {"bike_id": "5343fd8c235650d94fd83383e4027ea0", "type": "electric_scooter", "is_disabled": 0, "lat": 38.895000333333336, "rental_uris": {"ios": "https://dc.lft.to/lastmile_qr_scan", "android": "https://dc.lft.to/lastmile_qr_scan"}, "is_reserved": 0, "fusion_lon": 0.0, "fusion_lat": 0.0, "lon": -77.0006195, "name": "5343fd8c235650d94fd83383e4027ea0"}, {"bike_id": "665013574e3f2dfb5c4526a92fac888a", "type": "electric_scooter", "is_disabled": 0, "lat": 38.91125666666667, "rental_uris": {"ios": "https://dc.lft.to/lastmile_qr_scan", "android": "https://dc.lft.to/lastmile_qr_scan"}, "is_reserved": 0, "fusion_lon": 0.0, "fusion_lat": 0.0, "lon": -77.06535583333333, "name": "665013574e3f2dfb5c4526a92fac888a"}, {"bike_id": "0b07e22850104613af95f635f853eabc", "type": "electric_bike", "is_disabled": 0, "lat": 38.85789066666667, "rental_uris": {"ios": "https://dc.lft.to/lastmile_qr_scan", "android": "https://dc.lft.to/lastmile_qr_scan"}, "is_reserved": 0, "fusion_lon": 0.0, "fusion_lat": 0.0, "lon": -77.1201915, "name": "0b07e22850104613af95f635f853eabc"}, {"bike_id": "ee808b1fa9fe5efd85ae54a5060ad1db", "type": "electric_scooter", "is_disabled": 0, "lat": 38.88417033333333, "rental_uris": {"ios": "https://dc.lft.to/lastmile_qr_scan", "android": "https://dc.lft.to/lastmile_qr_scan"}, "is_reserved": 0, "fusion_lon": 0.0, "fusion_lat": 0.0, "lon": -77.03201633333333, "name": "ee808b1fa9fe5efd85ae54a5060ad1db"}, {"bike_id": "5ef086eb07cc7237c7b4baa85456330c", "type": "electric_scooter", "is_disabled": 0, "lat": 38.932950166666664, "rental_uris": {"ios": "https://dc.lft.to/lastmile_qr_scan", "android": "https://dc.lft.to/lastmile_qr_scan"}, "is_reserved": 0, "fusion_lon": 0.0, "fusion_lat": 0.0, "lon": -77.04122533333333, "name": "5ef086eb07cc7237c7b4baa85456330c"}, {"bike_id": "ee73ae2745e65bd6cd750c92429d49da", "type": "electric_scooter", "is_disabled": 0, "lat": 38.89546283333333, "rental_uris": {"ios": "https://dc.lft.to/lastmile_qr_scan", "android": "https://dc.lft.to/lastmile_qr_scan"}, "is_reserved": 0, "fusion_lon": 0.0, "fusion_lat": 0.0, "lon": -76.92953716666666, "name": "ee73ae2745e65bd6cd750c92429d49da"}, {"bike_id": "02a64af3efeae512a2a7ad3ee18b13b1", "type": "electric_scooter", "is_disabled": 0, "lat": 38.890049, "rental_uris": {"ios": "https://dc.lft.to/lastmile_qr_scan", "android": "https://dc.lft.to/lastmile_qr_scan"}, "is_reserved": 0, "fusion_lon": 0.0, "fusion_lat": 0.0, "lon": -76.93743483333333, "name": "02a64af3efeae512a2a7ad3ee18b13b1"}, {"bike_id": "952550ee719e0f98e6f20c37f7b7ec7b", "type": "electric_scooter", "is_disabled": 0, "lat": 38.89888333333333, "rental_uris": {"ios": "https://dc.lft.to/lastmile_qr_scan", "android": "https://dc.lft.to/lastmile_qr_scan"}, "is_reserved": 0, "fusion_lon": 0.0, "fusion_lat": 0.0, "lon": -77.01510833333333, "name": "952550ee719e0f98e6f20c37f7b7ec7b"}, {"bike_id": "5fe592246dc5e592a4d2ecfda7e35215", "type": "electric_scooter", "is_disabled": 0, "lat": 38.8932375, "rental_uris": {"ios": "https://dc.lft.to/lastmile_qr_scan", "android": "https://dc.lft.to/lastmile_qr_scan"}, "is_reserved": 0, "fusion_lon": 0.0, "fusion_lat": 0.0, "lon": -77.04877383333333, "name": "5fe592246dc5e592a4d2ecfda7e35215"}, {"bike_id": "e9f65dc0820a5c1c24e7ee570e4e2282", "type": "electric_scooter", "is_disabled": 0, "lat": 38.951554, "rental_uris": {"ios": "https://dc.lft.to/lastmile_qr_scan", "android": "https://dc.lft.to/lastmile_qr_scan"}, "is_reserved": 0, "fusion_lon": 0.0, "fusion_lat": 0.0, "lon": -77.018695, "name": "e9f65dc0820a5c1c24e7ee570e4e2282"}, {"bike_id": "0f41185f68b019e284032f476ecb345e", "type": "electric_scooter", "is_disabled": 0, "lat": 38.8953525, "rental_uris": {"ios": "https://dc.lft.to/lastmile_qr_scan", "android": "https://dc.lft.to/lastmile_qr_scan"}, "is_reserved": 0, "fusion_lon": 0.0, "fusion_lat": 0.0, "lon": -76.94887133333333, "name": "0f41185f68b019e284032f476ecb345e"}, {"bike_id": "0a5faf4705446f0b0cff734bbc378b1c", "type": "electric_scooter", "is_disabled": 0, "lat": 38.9170735, "rental_uris": {"ios": "https://dc.lft.to/lastmile_qr_scan", "android": "https://dc.lft.to/lastmile_qr_scan"}, "is_reserved": 0, "fusion_lon": 0.0, "fusion_lat": 0.0, "lon": -77.02888616666667, "name": "0a5faf4705446f0b0cff734bbc378b1c"}, {"bike_id": "c3804b18a68ba78b0aca2645204f37f0", "type": "electric_scooter", "is_disabled": 0, "lat": 38.94271166666667, "rental_uris": {"ios": "https://dc.lft.to/lastmile_qr_scan", "android": "https://dc.lft.to/lastmile_qr_scan"}, "is_reserved": 0, "fusion_lon": 0.0, "fusion_lat": 0.0, "lon": -77.0325655, "name": "c3804b18a68ba78b0aca2645204f37f0"}, {"bike_id": "d42036a03d799bc1606759583db41a0a", "type": "electric_scooter", "is_disabled": 0, "lat": 38.878647, "rental_uris": {"ios": "https://dc.lft.to/lastmile_qr_scan", "android": "https://dc.lft.to/lastmile_qr_scan"}, "is_reserved": 0, "fusion_lon": 0.0, "fusion_lat": 0.0, "lon": -76.96983283333333, "name": "d42036a03d799bc1606759583db41a0a"}, {"bike_id": "a236cf73960a6eb8cfe1a78de072a1b7", "type": "electric_scooter", "is_disabled": 0, "lat": 38.95477233333333, "rental_uris": {"ios": "https://dc.lft.to/lastmile_qr_scan", "android": "https://dc.lft.to/lastmile_qr_scan"}, "is_reserved": 0, "fusion_lon": 0.0, "fusion_lat": 0.0, "lon": -77.08218766666667, "name": "a236cf73960a6eb8cfe1a78de072a1b7"}, {"bike_id": "9d6cdeaca6c3e18e2592d69c6965c692", "type": "electric_scooter", "is_disabled": 0, "lat": 38.895482, "rental_uris": {"ios": "https://dc.lft.to/lastmile_qr_scan", "android": "https://dc.lft.to/lastmile_qr_scan"}, "is_reserved": 0, "fusion_lon": 0.0, "fusion_lat": 0.0, "lon": -77.01111533333334, "name": "9d6cdeaca6c3e18e2592d69c6965c692"}, {"bike_id": "d161d8c42b294ed1eef52df1cb3be435", "type": "electric_scooter", "is_disabled": 0, "lat": 38.89006633333333, "rental_uris": {"ios": "https://dc.lft.to/lastmile_qr_scan", "android": "https://dc.lft.to/lastmile_qr_scan"}, "is_reserved": 0, "fusion_lon": 0.0, "fusion_lat": 0.0, "lon": -76.93746883333333, "name": "d161d8c42b294ed1eef52df1cb3be435"}, {"bike_id": "d2c4d21db94389d64e7696545aad0bff", "type": "electric_scooter", "is_disabled": 0, "lat": 38.91577066666667, "rental_uris": {"ios": "https://dc.lft.to/lastmile_qr_scan", "android": "https://dc.lft.to/lastmile_qr_scan"}, "is_reserved": 0, "fusion_lon": 0.0, "fusion_lat": 0.0, "lon": -77.02056933333333, "name": "d2c4d21db94389d64e7696545aad0bff"}, {"bike_id": "9919b55c969b7ec3123abb0e9d0dcd10", "type": "electric_bike", "is_disabled": 0, "lat": 38.89737866666667, "rental_uris": {"ios": "https://dc.lft.to/lastmile_qr_scan", "android": "https://dc.lft.to/lastmile_qr_scan"}, "is_reserved": 0, "fusion_lon": 0.0, "fusion_lat": 0.0, "lon": -76.99216483333333, "name": "9919b55c969b7ec3123abb0e9d0dcd10"}, {"bike_id": "a410c11440a10a3a879800d35c27370f", "type": "electric_scooter", "is_disabled": 0, "lat": 38.874193, "rental_uris": {"ios": "https://dc.lft.to/lastmile_qr_scan", "android": "https://dc.lft.to/lastmile_qr_scan"}, "is_reserved": 0, "fusion_lon": 0.0, "fusion_lat": 0.0, "lon": -76.96906733333333, "name": "a410c11440a10a3a879800d35c27370f"}, {"bike_id": "2035be4d12771a3fac8aeee39b618bd3", "type": "electric_scooter", "is_disabled": 0, "lat": 38.863742, "rental_uris": {"ios": "https://dc.lft.to/lastmile_qr_scan", "android": "https://dc.lft.to/lastmile_qr_scan"}, "is_reserved": 0, "fusion_lon": 0.0, "fusion_lat": 0.0, "lon": -76.99058883333333, "name": "2035be4d12771a3fac8aeee39b618bd3"}, {"bike_id": "1bb81b7a98e4fdc705db9c57250fcdd0", "type": "electric_scooter", "is_disabled": 0, "lat": 38.90779116666667, "rental_uris": {"ios": "https://dc.lft.to/lastmile_qr_scan", "android": "https://dc.lft.to/lastmile_qr_scan"}, "is_reserved": 0, "fusion_lon": 0.0, "fusion_lat": 0.0, "lon": -77.04510366666666, "name": "1bb81b7a98e4fdc705db9c57250fcdd0"}, {"bike_id": "880f543361920ebdef2432fc555550de", "type": "electric_scooter", "is_disabled": 0, "lat": 38.90034083333333, "rental_uris": {"ios": "https://dc.lft.to/lastmile_qr_scan", "android": "https://dc.lft.to/lastmile_qr_scan"}, "is_reserved": 0, "fusion_lon": 0.0, "fusion_lat": 0.0, "lon": -77.03512883333333, "name": "880f543361920ebdef2432fc555550de"}, {"bike_id": "c52b79846c78e01a2d48d38ff780331e", "type": "electric_scooter", "is_disabled": 0, "lat": 38.90135733333334, "rental_uris": {"ios": "https://dc.lft.to/lastmile_qr_scan", "android": "https://dc.lft.to/lastmile_qr_scan"}, "is_reserved": 0, "fusion_lon": 0.0, "fusion_lat": 0.0, "lon": -77.040649, "name": "c52b79846c78e01a2d48d38ff780331e"}, {"bike_id": "ab893d1cd44936d636807232a27ff08e", "type": "electric_scooter", "is_disabled": 0, "lat": 38.90709533333333, "rental_uris": {"ios": "https://dc.lft.to/lastmile_qr_scan", "android": "https://dc.lft.to/lastmile_qr_scan"}, "is_reserved": 0, "fusion_lon": 0.0, "fusion_lat": 0.0, "lon": -77.04167483333333, "name": "ab893d1cd44936d636807232a27ff08e"}, {"bike_id": "088a5d9505fb7e9dc538708bf03ea21e", "type": "electric_scooter", "is_disabled": 0, "lat": 38.902746, "rental_uris": {"ios": "https://dc.lft.to/lastmile_qr_scan", "android": "https://dc.lft.to/lastmile_qr_scan"}, "is_reserved": 0, "fusion_lon": 0.0, "fusion_lat": 0.0, "lon": -77.03841316666667, "name": "088a5d9505fb7e9dc538708bf03ea21e"}, {"bike_id": "f1d41c929057fa47e0372ca44a7e84fb", "type": "electric_scooter", "is_disabled": 0, "lat": 38.92880816666667, "rental_uris": {"ios": "https://dc.lft.to/lastmile_qr_scan", "android": "https://dc.lft.to/lastmile_qr_scan"}, "is_reserved": 0, "fusion_lon": 0.0, "fusion_lat": 0.0, "lon": -77.03264283333333, "name": "f1d41c929057fa47e0372ca44a7e84fb"}, {"bike_id": "8d43616f03ad3b45a96f3208de288bf7", "type": "electric_scooter", "is_disabled": 0, "lat": 38.905777666666665, "rental_uris": {"ios": "https://dc.lft.to/lastmile_qr_scan", "android": "https://dc.lft.to/lastmile_qr_scan"}, "is_reserved": 0, "fusion_lon": 0.0, "fusion_lat": 0.0, "lon": -77.030346, "name": "8d43616f03ad3b45a96f3208de288bf7"}, {"bike_id": "8eb26830275fb2e937af37c27203c794", "type": "electric_scooter", "is_disabled": 0, "lat": 38.89253566666667, "rental_uris": {"ios": "https://dc.lft.to/lastmile_qr_scan", "android": "https://dc.lft.to/lastmile_qr_scan"}, "is_reserved": 0, "fusion_lon": 0.0, "fusion_lat": 0.0, "lon": -77.04678416666667, "name": "8eb26830275fb2e937af37c27203c794"}, {"bike_id": "7e6fe063b989b0c0d3dd05eaf3f6e95e", "type": "electric_scooter", "is_disabled": 0, "lat": 38.92268516666667, "rental_uris": {"ios": "https://dc.lft.to/lastmile_qr_scan", "android": "https://dc.lft.to/lastmile_qr_scan"}, "is_reserved": 0, "fusion_lon": 0.0, "fusion_lat": 0.0, "lon": -77.03393966666667, "name": "7e6fe063b989b0c0d3dd05eaf3f6e95e"}, {"bike_id": "3d597c14b9e752078adab05281441bdf", "type": "electric_scooter", "is_disabled": 0, "lat": 38.892254666666666, "rental_uris": {"ios": "https://dc.lft.to/lastmile_qr_scan", "android": "https://dc.lft.to/lastmile_qr_scan"}, "is_reserved": 0, "fusion_lon": 0.0, "fusion_lat": 0.0, "lon": -77.01559283333333, "name": "3d597c14b9e752078adab05281441bdf"}, {"bike_id": "c5a48f64005095bd3294ddc7c1192049", "type": "electric_scooter", "is_disabled": 0, "lat": 38.90978666666667, "rental_uris": {"ios": "https://dc.lft.to/lastmile_qr_scan", "android": "https://dc.lft.to/lastmile_qr_scan"}, "is_reserved": 0, "fusion_lon": 0.0, "fusion_lat": 0.0, "lon": -77.02177916666666, "name": "c5a48f64005095bd3294ddc7c1192049"}, {"bike_id": "b84f622715589f3a9bbf45b336dc01eb", "type": "electric_scooter", "is_disabled": 0, "lat": 38.905306, "rental_uris": {"ios": "https://dc.lft.to/lastmile_qr_scan", "android": "https://dc.lft.to/lastmile_qr_scan"}, "is_reserved": 0, "fusion_lon": 0.0, "fusion_lat": 0.0, "lon": -77.060089, "name": "b84f622715589f3a9bbf45b336dc01eb"}, {"bike_id": "bbd8f5f92c0c4b6826df6d2e235c9ddc", "type": "electric_bike", "is_disabled": 0, "lat": 38.87480333333333, "rental_uris": {"ios": "https://dc.lft.to/lastmile_qr_scan", "android": "https://dc.lft.to/lastmile_qr_scan"}, "is_reserved": 0, "fusion_lon": 0.0, "fusion_lat": 0.0, "lon": -76.965198, "name": "bbd8f5f92c0c4b6826df6d2e235c9ddc"}, {"bike_id": "3dfb42b4697e2be978add781eb35d88e", "type": "electric_scooter", "is_disabled": 0, "lat": 38.886992, "rental_uris": {"ios": "https://dc.lft.to/lastmile_qr_scan", "android": "https://dc.lft.to/lastmile_qr_scan"}, "is_reserved": 0, "fusion_lon": 0.0, "fusion_lat": 0.0, "lon": -76.99612016666667, "name": "3dfb42b4697e2be978add781eb35d88e"}, {"bike_id": "c296dead9a514ebe8b8adbd187fa140e", "type": "electric_scooter", "is_disabled": 0, "lat": 38.9241385, "rental_uris": {"ios": "https://dc.lft.to/lastmile_qr_scan", "android": "https://dc.lft.to/lastmile_qr_scan"}, "is_reserved": 0, "fusion_lon": 0.0, "fusion_lat": 0.0, "lon": -77.05062333333333, "name": "c296dead9a514ebe8b8adbd187fa140e"}, {"bike_id": "d65a4664b9b249b2fc42b303e5310ae8", "type": "electric_scooter", "is_disabled": 0, "lat": 38.902479666666665, "rental_uris": {"ios": "https://dc.lft.to/lastmile_qr_scan", "android": "https://dc.lft.to/lastmile_qr_scan"}, "is_reserved": 0, "fusion_lon": 0.0, "fusion_lat": 0.0, "lon": -77.02133933333333, "name": "d65a4664b9b249b2fc42b303e5310ae8"}, {"bike_id": "be43f436e03dfa93e19aac777dc9afb1", "type": "electric_scooter", "is_disabled": 0, "lat": 38.9563485, "rental_uris": {"ios": "https://dc.lft.to/lastmile_qr_scan", "android": "https://dc.lft.to/lastmile_qr_scan"}, "is_reserved": 0, "fusion_lon": 0.0, "fusion_lat": 0.0, "lon": -77.01158633333333, "name": "be43f436e03dfa93e19aac777dc9afb1"}, {"bike_id": "46898c26a5f76f6d12b4251e4cfe9771", "type": "electric_scooter", "is_disabled": 0, "lat": 38.887409, "rental_uris": {"ios": "https://dc.lft.to/lastmile_qr_scan", "android": "https://dc.lft.to/lastmile_qr_scan"}, "is_reserved": 0, "fusion_lon": 0.0, "fusion_lat": 0.0, "lon": -77.01534133333334, "name": "46898c26a5f76f6d12b4251e4cfe9771"}, {"bike_id": "eaf711e49b3d264301035e535290042f", "type": "electric_scooter", "is_disabled": 0, "lat": 38.90168216666667, "rental_uris": {"ios": "https://dc.lft.to/lastmile_qr_scan", "android": "https://dc.lft.to/lastmile_qr_scan"}, "is_reserved": 0, "fusion_lon": 0.0, "fusion_lat": 0.0, "lon": -76.93026266666666, "name": "eaf711e49b3d264301035e535290042f"}, {"bike_id": "23b1b2e314b91c5d6fb2406d8dee0308", "type": "electric_scooter", "is_disabled": 0, "lat": 38.9040055, "rental_uris": {"ios": "https://dc.lft.to/lastmile_qr_scan", "android": "https://dc.lft.to/lastmile_qr_scan"}, "is_reserved": 0, "fusion_lon": 0.0, "fusion_lat": 0.0, "lon": -77.00577833333334, "name": "23b1b2e314b91c5d6fb2406d8dee0308"}, {"bike_id": "87083bdda2040d548753cb04d1600c89", "type": "electric_scooter", "is_disabled": 0, "lat": 38.88739, "rental_uris": {"ios": "https://dc.lft.to/lastmile_qr_scan", "android": "https://dc.lft.to/lastmile_qr_scan"}, "is_reserved": 0, "fusion_lon": 0.0, "fusion_lat": 0.0, "lon": -77.01536566666667, "name": "87083bdda2040d548753cb04d1600c89"}, {"bike_id": "a29bcc4df326b580192304d4f062c785", "type": "electric_scooter", "is_disabled": 0, "lat": 38.905187166666664, "rental_uris": {"ios": "https://dc.lft.to/lastmile_qr_scan", "android": "https://dc.lft.to/lastmile_qr_scan"}, "is_reserved": 0, "fusion_lon": 0.0, "fusion_lat": 0.0, "lon": -77.0302805, "name": "a29bcc4df326b580192304d4f062c785"}, {"bike_id": "8fcc16db154772a0b125bc008c0a1bcd", "type": "electric_scooter", "is_disabled": 0, "lat": 38.897312, "rental_uris": {"ios": "https://dc.lft.to/lastmile_qr_scan", "android": "https://dc.lft.to/lastmile_qr_scan"}, "is_reserved": 0, "fusion_lon": 0.0, "fusion_lat": 0.0, "lon": -77.04852833333334, "name": "8fcc16db154772a0b125bc008c0a1bcd"}, {"bike_id": "90e44eef7e71f301feabaec36f520043", "type": "electric_scooter", "is_disabled": 0, "lat": 38.8921885, "rental_uris": {"ios": "https://dc.lft.to/lastmile_qr_scan", "android": "https://dc.lft.to/lastmile_qr_scan"}, "is_reserved": 0, "fusion_lon": 0.0, "fusion_lat": 0.0, "lon": -77.0316395, "name": "90e44eef7e71f301feabaec36f520043"}, {"bike_id": "0cbc3e8dd740d30bc9f8bb0cc25e09e8", "type": "electric_scooter", "is_disabled": 0, "lat": 38.95653333333333, "rental_uris": {"ios": "https://dc.lft.to/lastmile_qr_scan", "android": "https://dc.lft.to/lastmile_qr_scan"}, "is_reserved": 0, "fusion_lon": 0.0, "fusion_lat": 0.0, "lon": -77.01005616666667, "name": "0cbc3e8dd740d30bc9f8bb0cc25e09e8"}, {"bike_id": "bb30e5a17c847d39442aa90e8d827775", "type": "electric_bike", "is_disabled": 0, "lat": 38.81310883333333, "rental_uris": {"ios": "https://dc.lft.to/lastmile_qr_scan", "android": "https://dc.lft.to/lastmile_qr_scan"}, "is_reserved": 0, "fusion_lon": 0.0, "fusion_lat": 0.0, "lon": -77.10963266666667, "name": "bb30e5a17c847d39442aa90e8d827775"}, {"bike_id": "88968ba3facaee1532e2ffb549fa143a", "type": "electric_scooter", "is_disabled": 0, "lat": 38.876411166666664, "rental_uris": {"ios": "https://dc.lft.to/lastmile_qr_scan", "android": "https://dc.lft.to/lastmile_qr_scan"}, "is_reserved": 0, "fusion_lon": 0.0, "fusion_lat": 0.0, "lon": -77.01693166666666, "name": "88968ba3facaee1532e2ffb549fa143a"}, {"bike_id": "5eb065ca0430f57aa07d5e4fa24bb426", "type": "electric_scooter", "is_disabled": 0, "lat": 38.92056, "rental_uris": {"ios": "https://dc.lft.to/lastmile_qr_scan", "android": "https://dc.lft.to/lastmile_qr_scan"}, "is_reserved": 0, "fusion_lon": 0.0, "fusion_lat": 0.0, "lon": -76.99882216666667, "name": "5eb065ca0430f57aa07d5e4fa24bb426"}, {"bike_id": "719f9a4648506bb762f3959c39b78985", "type": "electric_scooter", "is_disabled": 0, "lat": 38.93344333333334, "rental_uris": {"ios": "https://dc.lft.to/lastmile_qr_scan", "android": "https://dc.lft.to/lastmile_qr_scan"}, "is_reserved": 0, "fusion_lon": 0.0, "fusion_lat": 0.0, "lon": -77.04540833333333, "name": "719f9a4648506bb762f3959c39b78985"}, {"bike_id": "dbe61dea8a84b2409e876b9056680f74", "type": "electric_scooter", "is_disabled": 0, "lat": 38.930069, "rental_uris": {"ios": "https://dc.lft.to/lastmile_qr_scan", "android": "https://dc.lft.to/lastmile_qr_scan"}, "is_reserved": 0, "fusion_lon": 0.0, "fusion_lat": 0.0, "lon": -77.03776533333334, "name": "dbe61dea8a84b2409e876b9056680f74"}, {"bike_id": "9eff75a034f16599d5ce49a9341f5672", "type": "electric_scooter", "is_disabled": 0, "lat": 38.908103833333335, "rental_uris": {"ios": "https://dc.lft.to/lastmile_qr_scan", "android": "https://dc.lft.to/lastmile_qr_scan"}, "is_reserved": 0, "fusion_lon": 0.0, "fusion_lat": 0.0, "lon": -77.04973316666667, "name": "9eff75a034f16599d5ce49a9341f5672"}, {"bike_id": "bee4b4ed88a490ea787fa54b95de30fc", "type": "electric_scooter", "is_disabled": 0, "lat": 38.95191416666667, "rental_uris": {"ios": "https://dc.lft.to/lastmile_qr_scan", "android": "https://dc.lft.to/lastmile_qr_scan"}, "is_reserved": 0, "fusion_lon": 0.0, "fusion_lat": 0.0, "lon": -77.02618816666667, "name": "bee4b4ed88a490ea787fa54b95de30fc"}, {"bike_id": "b06a23e65e5c1413de9b83e5736a2b84", "type": "electric_scooter", "is_disabled": 0, "lat": 38.923345833333336, "rental_uris": {"ios": "https://dc.lft.to/lastmile_qr_scan", "android": "https://dc.lft.to/lastmile_qr_scan"}, "is_reserved": 0, "fusion_lon": 0.0, "fusion_lat": 0.0, "lon": -77.03613566666667, "name": "b06a23e65e5c1413de9b83e5736a2b84"}, {"bike_id": "d9a534ace04660c9ed133322a4e44b1a", "type": "electric_scooter", "is_disabled": 0, "lat": 38.866601, "rental_uris": {"ios": "https://dc.lft.to/lastmile_qr_scan", "android": "https://dc.lft.to/lastmile_qr_scan"}, "is_reserved": 0, "fusion_lon": 0.0, "fusion_lat": 0.0, "lon": -76.98885833333334, "name": "d9a534ace04660c9ed133322a4e44b1a"}, {"bike_id": "142bf4e92c865ed7b301955542a08706", "type": "electric_scooter", "is_disabled": 0, "lat": 38.92905733333333, "rental_uris": {"ios": "https://dc.lft.to/lastmile_qr_scan", "android": "https://dc.lft.to/lastmile_qr_scan"}, "is_reserved": 0, "fusion_lon": 0.0, "fusion_lat": 0.0, "lon": -77.02268466666666, "name": "142bf4e92c865ed7b301955542a08706"}, {"bike_id": "78761708cbf94a5db36817d9f067ab1f", "type": "electric_bike", "is_disabled": 0, "lat": 38.944743, "rental_uris": {"ios": "https://dc.lft.to/lastmile_qr_scan", "android": "https://dc.lft.to/lastmile_qr_scan"}, "is_reserved": 0, "fusion_lon": 0.0, "fusion_lat": 0.0, "lon": -76.98686233333333, "name": "78761708cbf94a5db36817d9f067ab1f"}, {"bike_id": "73f2d277e68623451de7eb75cbb9f1da", "type": "electric_scooter", "is_disabled": 0, "lat": 38.91029183333333, "rental_uris": {"ios": "https://dc.lft.to/lastmile_qr_scan", "android": "https://dc.lft.to/lastmile_qr_scan"}, "is_reserved": 0, "fusion_lon": 0.0, "fusion_lat": 0.0, "lon": -76.98667, "name": "73f2d277e68623451de7eb75cbb9f1da"}, {"bike_id": "37eddc334a1c457a0838cda4aa13800d", "type": "electric_scooter", "is_disabled": 0, "lat": 38.9042505, "rental_uris": {"ios": "https://dc.lft.to/lastmile_qr_scan", "android": "https://dc.lft.to/lastmile_qr_scan"}, "is_reserved": 0, "fusion_lon": 0.0, "fusion_lat": 0.0, "lon": -77.06879083333334, "name": "37eddc334a1c457a0838cda4aa13800d"}, {"bike_id": "1429efded2fb7439a2d846280ba77862", "type": "electric_scooter", "is_disabled": 0, "lat": 38.899402333333335, "rental_uris": {"ios": "https://dc.lft.to/lastmile_qr_scan", "android": "https://dc.lft.to/lastmile_qr_scan"}, "is_reserved": 0, "fusion_lon": 0.0, "fusion_lat": 0.0, "lon": -77.047647, "name": "1429efded2fb7439a2d846280ba77862"}, {"bike_id": "c808f8c80f7fb253cb22acaaf7fdfb30", "type": "electric_scooter", "is_disabled": 0, "lat": 38.9155335, "rental_uris": {"ios": "https://dc.lft.to/lastmile_qr_scan", "android": "https://dc.lft.to/lastmile_qr_scan"}, "is_reserved": 0, "fusion_lon": 0.0, "fusion_lat": 0.0, "lon": -77.03440733333333, "name": "c808f8c80f7fb253cb22acaaf7fdfb30"}, {"bike_id": "dbd7aab8687a1a21c9df2c8c43716650", "type": "electric_scooter", "is_disabled": 0, "lat": 38.8922235, "rental_uris": {"ios": "https://dc.lft.to/lastmile_qr_scan", "android": "https://dc.lft.to/lastmile_qr_scan"}, "is_reserved": 0, "fusion_lon": 0.0, "fusion_lat": 0.0, "lon": -77.01730783333333, "name": "dbd7aab8687a1a21c9df2c8c43716650"}, {"bike_id": "57edf95a8da47a23ad40b33ee3876e96", "type": "electric_scooter", "is_disabled": 0, "lat": 38.912443833333334, "rental_uris": {"ios": "https://dc.lft.to/lastmile_qr_scan", "android": "https://dc.lft.to/lastmile_qr_scan"}, "is_reserved": 0, "fusion_lon": 0.0, "fusion_lat": 0.0, "lon": -77.03861566666667, "name": "57edf95a8da47a23ad40b33ee3876e96"}, {"bike_id": "46f244ee86e0e9f03ec4c0d6f2a8e190", "type": "electric_bike", "is_disabled": 0, "lat": 38.92457266666667, "rental_uris": {"ios": "https://dc.lft.to/lastmile_qr_scan", "android": "https://dc.lft.to/lastmile_qr_scan"}, "is_reserved": 0, "fusion_lon": 0.0, "fusion_lat": 0.0, "lon": -77.22562266666667, "name": "46f244ee86e0e9f03ec4c0d6f2a8e190"}, {"bike_id": "9c5a2f3b544734311a16316328fd76a4", "type": "electric_scooter", "is_disabled": 0, "lat": 38.935410833333336, "rental_uris": {"ios": "https://dc.lft.to/lastmile_qr_scan", "android": "https://dc.lft.to/lastmile_qr_scan"}, "is_reserved": 0, "fusion_lon": 0.0, "fusion_lat": 0.0, "lon": -77.0582295, "name": "9c5a2f3b544734311a16316328fd76a4"}, {"bike_id": "6a047cb9e1ee58400854d5823f662fd1", "type": "electric_bike", "is_disabled": 0, "lat": 38.836721, "rental_uris": {"ios": "https://dc.lft.to/lastmile_qr_scan", "android": "https://dc.lft.to/lastmile_qr_scan"}, "is_reserved": 0, "fusion_lon": 0.0, "fusion_lat": 0.0, "lon": -76.99361266666666, "name": "6a047cb9e1ee58400854d5823f662fd1"}, {"bike_id": "6f7b5b35c603cd2577689873c5041eb9", "type": "electric_scooter", "is_disabled": 0, "lat": 38.90141366666667, "rental_uris": {"ios": "https://dc.lft.to/lastmile_qr_scan", "android": "https://dc.lft.to/lastmile_qr_scan"}, "is_reserved": 0, "fusion_lon": 0.0, "fusion_lat": 0.0, "lon": -77.02863966666666, "name": "6f7b5b35c603cd2577689873c5041eb9"}, {"bike_id": "22c9de9c255d5b2df008046be17b88e4", "type": "electric_scooter", "is_disabled": 0, "lat": 38.9347745, "rental_uris": {"ios": "https://dc.lft.to/lastmile_qr_scan", "android": "https://dc.lft.to/lastmile_qr_scan"}, "is_reserved": 0, "fusion_lon": 0.0, "fusion_lat": 0.0, "lon": -77.02612666666667, "name": "22c9de9c255d5b2df008046be17b88e4"}, {"bike_id": "48679ceb32a0412752b50df7f2db8a6f", "type": "electric_scooter", "is_disabled": 0, "lat": 38.90071966666667, "rental_uris": {"ios": "https://dc.lft.to/lastmile_qr_scan", "android": "https://dc.lft.to/lastmile_qr_scan"}, "is_reserved": 0, "fusion_lon": 0.0, "fusion_lat": 0.0, "lon": -77.0310475, "name": "48679ceb32a0412752b50df7f2db8a6f"}, {"bike_id": "36619e191c2b23727971a2d7ec2f2b3f", "type": "electric_scooter", "is_disabled": 0, "lat": 38.914023666666665, "rental_uris": {"ios": "https://dc.lft.to/lastmile_qr_scan", "android": "https://dc.lft.to/lastmile_qr_scan"}, "is_reserved": 0, "fusion_lon": 0.0, "fusion_lat": 0.0, "lon": -77.031462, "name": "36619e191c2b23727971a2d7ec2f2b3f"}, {"bike_id": "0402d9a3d0cbb57ad9bb266709982b62", "type": "electric_scooter", "is_disabled": 0, "lat": 38.92739533333334, "rental_uris": {"ios": "https://dc.lft.to/lastmile_qr_scan", "android": "https://dc.lft.to/lastmile_qr_scan"}, "is_reserved": 0, "fusion_lon": 0.0, "fusion_lat": 0.0, "lon": -77.03392483333333, "name": "0402d9a3d0cbb57ad9bb266709982b62"}, {"bike_id": "2b47bf451b6de3887e964568cfa5f375", "type": "electric_scooter", "is_disabled": 0, "lat": 38.92469166666667, "rental_uris": {"ios": "https://dc.lft.to/lastmile_qr_scan", "android": "https://dc.lft.to/lastmile_qr_scan"}, "is_reserved": 0, "fusion_lon": 0.0, "fusion_lat": 0.0, "lon": -77.05205466666666, "name": "2b47bf451b6de3887e964568cfa5f375"}, {"bike_id": "dd9dd0f5ad7cc9f7b17849991c5280e8", "type": "electric_bike", "is_disabled": 0, "lat": 38.82380766666667, "rental_uris": {"ios": "https://dc.lft.to/lastmile_qr_scan", "android": "https://dc.lft.to/lastmile_qr_scan"}, "is_reserved": 0, "fusion_lon": 0.0, "fusion_lat": 0.0, "lon": -77.00226383333333, "name": "dd9dd0f5ad7cc9f7b17849991c5280e8"}, {"bike_id": "9d626c8d3222e79fded59ddabfad7fe3", "type": "electric_scooter", "is_disabled": 0, "lat": 38.905958, "rental_uris": {"ios": "https://dc.lft.to/lastmile_qr_scan", "android": "https://dc.lft.to/lastmile_qr_scan"}, "is_reserved": 0, "fusion_lon": 0.0, "fusion_lat": 0.0, "lon": -77.0348575, "name": "9d626c8d3222e79fded59ddabfad7fe3"},