{"data": {"bikes": [{"fusion_lat": 0.0, "is_disabled": 0, "lat": 38.89634383333333, "lon": -77.04058666666667, "fusion_lon": 0.0, "bike_id": "7eb4c97b553d5071622f59ea0194e93c", "type": "electric_scooter", "name": "7eb4c97b553d5071622f59ea0194e93c", "is_reserved": 0, "rental_uris": {"ios": "https://dc.lft.to/lastmile_qr_scan", "android": "https://dc.lft.to/lastmile_qr_scan"}}, {"fusion_lat": 0.0, "is_disabled": 0, "lat": 38.87784216666667, "lon": -76.99406433333333, "fusion_lon": 0.0, "bike_id": "1dad7b6d2b6e9315ff6f0ee3065d83bb", "type": "electric_scooter", "name": "1dad7b6d2b6e9315ff6f0ee3065d83bb", "is_reserved": 0, "rental_uris": {"ios": "https://dc.lft.to/lastmile_qr_scan", "android": "https://dc.lft.to/lastmile_qr_scan"}}, {"fusion_lat": 0.0, "is_disabled": 0, "lat": 38.92666933333334, "lon": -77.060142, "fusion_lon": 0.0, "bike_id": "2516563cf0c732566dcab2752ccca319", "type": "electric_scooter", "name": "2516563cf0c732566dcab2752ccca319", "is_reserved": 0, "rental_uris": {"ios": "https://dc.lft.to/lastmile_qr_scan", "android": "https://dc.lft.to/lastmile_qr_scan"}}, {"fusion_lat": 0.0, "is_disabled": 0, "lat": 38.92204983333333, "lon": -77.020354, "fusion_lon": 0.0, "bike_id": "8af1203b1f4e886c284d2de35ae49705", "type": "electric_scooter", "name": "8af1203b1f4e886c284d2de35ae49705", "is_reserved": 0, "rental_uris": {"ios": "https://dc.lft.to/lastmile_qr_scan", "android": "https://dc.lft.to/lastmile_qr_scan"}}, {"fusion_lat": 0.0, "is_disabled": 0, "lat": 38.90706383333333, "lon": -77.0418975, "fusion_lon": 0.0, "bike_id": "7d6e71e472a34ac3afab8e3c53b0fe8d", "type": "electric_scooter", "name": "7d6e71e472a34ac3afab8e3c53b0fe8d", "is_reserved": 0, "rental_uris": {"ios": "https://dc.lft.to/lastmile_qr_scan", "android": "https://dc.lft.to/lastmile_qr_scan"}}, {"fusion_lat": 0.0, "is_disabled": 0, "lat": 38.90939483333333, "lon": -77.032023, "fusion_lon": 0.0, "bike_id": "1230ef73de49ba91bb16136e55968dfa", "type": "electric_scooter", "name": "1230ef73de49ba91bb16136e55968dfa", "is_reserved": 0, "rental_uris": {"ios": "https://dc.lft.to/lastmile_qr_scan", "android": "https://dc.lft.to/lastmile_qr_scan"}}, {"fusion_lat": 0.0, "is_disabled": 0, "lat": 38.84024616666667, "lon": -76.98860466666666, "fusion_lon": 0.0, "bike_id": "2aa50c3b9e873efa6ac7fe15f0a1ccee", "type": "electric_bike", "name": "2aa50c3b9e873efa6ac7fe15f0a1ccee", "is_reserved": 0, "rental_uris": {"ios": "https://dc.lft.to/lastmile_qr_scan", "android": "https://dc.lft.to/lastmile_qr_scan"}}, {"fusion_lat": 0.0, "is_disabled": 0, "lat": 38.93759416666666, "lon": -76.9905715, "fusion_lon": 0.0, "bike_id": "dd930a62dbfba1494796208c239cbc03", "type": "electric_bike", "name": "dd930a62dbfba1494796208c239cbc03", "is_reserved": 0, "rental_uris": {"ios": "https://dc.lft.to/lastmile_qr_scan", "android": "https://dc.lft.to/lastmile_qr_scan"}}, {"fusion_lat": 0.0, "is_disabled": 0, "lat": 38.906995, "lon": -77.038173, "fusion_lon": 0.0, "bike_id": "1b7f3fdc7387ea959573ff872ce40750", "type": "electric_scooter", "name": "1b7f3fdc7387ea959573ff872ce40750", "is_reserved": 0, "rental_uris": {"ios": "https://dc.lft.to/lastmile_qr_scan", "android": "https://dc.lft.to/lastmile_qr_scan"}}, {"fusion_lat": 0.0, "is_disabled": 0, "lat": 38.956535833333334, "lon": -77.01236483333334, "fusion_lon": 0.0, "bike_id": "f555531eae3e7d1f43cdf6f64f866db8", "type": "electric_scooter", "name": "f555531eae3e7d1f43cdf6f64f866db8", "is_reserved": 0, "rental_uris": {"ios": "https://dc.lft.to/lastmile_qr_scan", "android": "https://dc.lft.to/lastmile_qr_scan"}}, {"fusion_lat": 0.0, "is_disabled": 0, "lat": 38.90839733333333, "lon": -77.023912, "fusion_lon": 0.0, "bike_id": "44693b82288388f93a346a74d6fc118a", "type": "electric_scooter", "name": "44693b82288388f93a346a74d6fc118a", "is_reserved": 0, "rental_uris": {"ios": "https://dc.lft.to/lastmile_qr_scan", "android": "https://dc.lft.to/lastmile_qr_scan"}}, {"fusion_lat": 0.0, "is_disabled": 0, "lat": 38.8633265, "lon": -76.98724166666666, "fusion_lon": 0.0, "bike_id": "ee5dc57a3349fc6fcb72ecee6d22b40c", "type": "electric_bike", "name": "ee5dc57a3349fc6fcb72ecee6d22b40c", "is_reserved": 0, "rental_uris": {"ios": "https://dc.lft.to/lastmile_qr_scan", "android": "https://dc.lft.to/lastmile_qr_scan"}}, {"fusion_lat": 0.0, "is_disabled": 0, "lat": 38.90403666666667, "lon": -77.04651233333334, "fusion_lon": 0.0, "bike_id": "38c8f17ce9f1dd59d1b9cf6482a9b006", "type": "electric_scooter", "name": "38c8f17ce9f1dd59d1b9cf6482a9b006", "is_reserved": 0, "rental_uris": {"ios": "https://dc.lft.to/lastmile_qr_scan", "android": "https://dc.lft.to/lastmile_qr_scan"}}, {"fusion_lat": 0.0, "is_disabled": 0, "lat": 38.962247, "lon": -77.013582, "fusion_lon": 0.0, "bike_id": "dd211168f48a9e32e944c78eedf9be35", "type": "electric_scooter", "name": "dd211168f48a9e32e944c78eedf9be35", "is_reserved": 0, "rental_uris": {"ios": "https://dc.lft.to/lastmile_qr_scan", "android": "https://dc.lft.to/lastmile_qr_scan"}}, {"fusion_lat": 0.0, "is_disabled": 0, "lat": 38.957020666666665, "lon": -76.973752, "fusion_lon": 0.0, "bike_id": "a9d07eea0d43776e15dcabf09fab0f15", "type": "electric_bike", "name": "a9d07eea0d43776e15dcabf09fab0f15", "is_reserved": 0, "rental_uris": {"ios": "https://dc.lft.to/lastmile_qr_scan", "android": "https://dc.lft.to/lastmile_qr_scan"}}, {"fusion_lat": 0.0, "is_disabled": 0, "lat": 38.804821, "lon": -76.991077, "fusion_lon": 0.0, "bike_id": "f9809b3d0fe38d4d8f21400b32b1e73e", "type": "electric_bike", "name": "f9809b3d0fe38d4d8f21400b32b1e73e", "is_reserved": 0, "rental_uris": {"ios": "https://dc.lft.to/lastmile_qr_scan", "android": "https://dc.lft.to/lastmile_qr_scan"}}, {"fusion_lat": 0.0, "is_disabled": 0, "lat": 38.927958, "lon": -77.015523, "fusion_lon": 0.0, "bike_id": "5d7650943df94df44e3b9cd70ef3cd7f", "type": "electric_scooter", "name": "5d7650943df94df44e3b9cd70ef3cd7f", "is_reserved": 0, "rental_uris": {"ios": "https://dc.lft.to/lastmile_qr_scan", "android": "https://dc.lft.to/lastmile_qr_scan"}}, {"fusion_lat": 0.0, "is_disabled": 0, "lat": 38.90533933333333, "lon": -77.00707466666667, "fusion_lon": 0.0, "bike_id": "a1ad2e57ea331289f039f084f8d8f3c1", "type": "electric_scooter", "name": "a1ad2e57ea331289f039f084f8d8f3c1", "is_reserved": 0, "rental_uris": {"ios": "https://dc.lft.to/lastmile_qr_scan", "android": "https://dc.lft.to/lastmile_qr_scan"}}, {"fusion_lat": 0.0, "is_disabled": 0, "lat": 38.78460333333334, "lon": -77.05438933333333, "fusion_lon": 0.0, "bike_id": "b334a35a2d1d18784e35e57e53db33e0", "type": "electric_bike", "name": "b334a35a2d1d18784e35e57e53db33e0", "is_reserved": 0, "rental_uris": {"ios": "https://dc.lft.to/lastmile_qr_scan", "android": "https://dc.lft.to/lastmile_qr_scan"}}, {"fusion_lat": 0.0, "is_disabled": 0, "lat": 38.931047666666664, "lon": -77.021347, "fusion_lon": 0.0, "bike_id": "ca9910f5f6f60e34e9a50c472814a77c", "type": "electric_scooter", "name": "ca9910f5f6f60e34e9a50c472814a77c", "is_reserved": 0, "rental_uris": {"ios": "https://dc.lft.to/lastmile_qr_scan", "android": "https://dc.lft.to/lastmile_qr_scan"}}, {"fusion_lat": 0.0, "is_disabled": 0, "lat": 38.89083133333333, "lon": -76.95469233333333, "fusion_lon": 0.0, "bike_id": "007da31989f50b4d10c1b7beeb947172", "type": "electric_bike", "name": "007da31989f50b4d10c1b7beeb947172", "is_reserved": 0, "rental_uris": {"ios": "https://dc.lft.to/lastmile_qr_scan", "android": "https://dc.lft.to/lastmile_qr_scan"}}, {"fusion_lat": 0.0, "is_disabled": 0, "lat": 38.92796033333333, "lon": -77.029789, "fusion_lon": 0.0, "bike_id": "bb32afe6d7f5539b27cc17ec2ac3888d", "type": "electric_scooter", "name": "bb32afe6d7f5539b27cc17ec2ac3888d", "is_reserved": 0, "rental_uris": {"ios": "https://dc.lft.to/lastmile_qr_scan", "android": "https://dc.lft.to/lastmile_qr_scan"}}, {"fusion_lat": 0.0, "is_disabled": 0, "lat": 38.8870345, "lon": -77.02171366666667, "fusion_lon": 0.0, "bike_id": "27b835c257706cb9349f12b788108d3f", "type": "electric_scooter", "name": "27b835c257706cb9349f12b788108d3f", "is_reserved": 0, "rental_uris": {"ios": "https://dc.lft.to/lastmile_qr_scan", "android": "https://dc.lft.to/lastmile_qr_scan"}}, {"fusion_lat": 0.0, "is_disabled": 0, "lat": 38.93197933333333, "lon": -77.01866833333334, "fusion_lon": 0.0, "bike_id": "f80c0a4d0487c1438fbd51df30e4341d", "type": "electric_scooter", "name": "f80c0a4d0487c1438fbd51df30e4341d", "is_reserved": 0, "rental_uris": {"ios": "https://dc.lft.to/lastmile_qr_scan", "android": "https://dc.lft.to/lastmile_qr_scan"}}, {"fusion_lat": 0.0, "is_disabled": 0, "lat": 38.907213666666664, "lon": -77.04049116666667, "fusion_lon": 0.0, "bike_id": "65f63c58570c2cbf931a93af8c5d50ec", "type": "electric_scooter", "name": "65f63c58570c2cbf931a93af8c5d50ec", "is_reserved": 0, "rental_uris": {"ios": "https://dc.lft.to/lastmile_qr_scan", "android": "https://dc.lft.to/lastmile_qr_scan"}}, {"fusion_lat": 0.0, "is_disabled": 0, "lat": 38.876607, "lon": -77.01997266666666, "fusion_lon": 0.0, "bike_id": "a2fcfdc10a0ae5f0919f0551cd26ee35", "type": "electric_scooter", "name": "a2fcfdc10a0ae5f0919f0551cd26ee35", "is_reserved": 0, "rental_uris": {"ios": "https://dc.lft.to/lastmile_qr_scan", "android": "https://dc.lft.to/lastmile_qr_scan"}}, {"fusion_lat": 0.0, "is_disabled": 0, "lat": 38.91680233333334, "lon": -77.02962, "fusion_lon": 0.0, "bike_id": "cc07e2357e91a01cae13da8eb57ca2c2", "type": "electric_scooter", "name": "cc07e2357e91a01cae13da8eb57ca2c2", "is_reserved": 0, "rental_uris": {"ios": "https://dc.lft.to/lastmile_qr_scan", "android": "https://dc.lft.to/lastmile_qr_scan"}}, {"fusion_lat": 0.0, "is_disabled": 0, "lat": 38.90277366666667, "lon": -77.03841166666666, "fusion_lon": 0.0, "bike_id": "d8532e0ce5ce94a333c22c4bb955e607", "type": "electric_scooter", "name": "d8532e0ce5ce94a333c22c4bb955e607", "is_reserved": 0, "rental_uris": {"ios": "https://dc.lft.to/lastmile_qr_scan", "android": "https://dc.lft.to/lastmile_qr_scan"}}, {"fusion_lat": 0.0, "is_disabled": 0, "lat": 38.92342333333333, "lon": -77.0189725, "fusion_lon": 0.0, "bike_id": "e4063d913add69222194f181035d747f", "type": "electric_scooter", "name": "e4063d913add69222194f181035d747f", "is_reserved": 0, "rental_uris": {"ios": "https://dc.lft.to/lastmile_qr_scan", "android": "https://dc.lft.to/lastmile_qr_scan"}}, {"fusion_lat": 0.0, "is_disabled": 0, "lat": 38.878015833333336, "lon": -76.98828366666666, "fusion_lon": 0.0, "bike_id": "aaba7bb788bb46b275ca5da9274ea128", "type": "electric_scooter", "name": "aaba7bb788bb46b275ca5da9274ea128", "is_reserved": 0, "rental_uris": {"ios": "https://dc.lft.to/lastmile_qr_scan", "android": "https://dc.lft.to/lastmile_qr_scan"}}, {"fusion_lat": 0.0, "is_disabled": 0, "lat": 38.925834, "lon": -77.03640816666666, "fusion_lon": 0.0, "bike_id": "783f7fcfb70b1a4ca74ea4596f8f34fb", "type": "electric_scooter", "name": "783f7fcfb70b1a4ca74ea4596f8f34fb", "is_reserved": 0, "rental_uris": {"ios": "https://dc.lft.to/lastmile_qr_scan", "android": "https://dc.lft.to/lastmile_qr_scan"}}, {"fusion_lat": 0.0, "is_disabled": 0, "lat": 38.85802283333334, "lon": -76.98757533333334, "fusion_lon": 0.0, "bike_id": "1fdd5e15c0cc034ba8e1e7e4d9ec2e9e", "type": "electric_bike", "name": "1fdd5e15c0cc034ba8e1e7e4d9ec2e9e", "is_reserved": 0, "rental_uris": {"ios": "https://dc.lft.to/lastmile_qr_scan", "android": "https://dc.lft.to/lastmile_qr_scan"}}, {"fusion_lat": 0.0, "is_disabled": 0, "lat": 38.902375166666666, "lon": -77.0382405, "fusion_lon": 0.0, "bike_id": "6d8aef62b4f86e8e8f420558081b604a", "type": "electric_scooter", "name": "6d8aef62b4f86e8e8f420558081b604a", "is_reserved": 0, "rental_uris": {"ios": "https://dc.lft.to/lastmile_qr_scan", "android": "https://dc.lft.to/lastmile_qr_scan"}}, {"fusion_lat": 0.0, "is_disabled": 0, "lat": 38.91120816666667, "lon": -77.06546116666667, "fusion_lon": 0.0, "bike_id": "735b7cbbba1e8bb13d9da4c66cf35566", "type": "electric_scooter", "name": "735b7cbbba1e8bb13d9da4c66cf35566", "is_reserved": 0, "rental_uris": {"ios": "https://dc.lft.to/lastmile_qr_scan", "android": "https://dc.lft.to/lastmile_qr_scan"}}, {"fusion_lat": 0.0, "is_disabled": 0, "lat": 38.89619483333333, "lon": -77.023159, "fusion_lon": 0.0, "bike_id": "8aa1aa6ad5f4560390fe3cf4295cd53d", "type": "electric_scooter", "name": "8aa1aa6ad5f4560390fe3cf4295cd53d", "is_reserved": 0, "rental_uris": {"ios": "https://dc.lft.to/lastmile_qr_scan", "android": "https://dc.lft.to/lastmile_qr_scan"}}, {"fusion_lat": 0.0, "is_disabled": 0, "lat": 38.90672983333333, "lon": -76.9837215, "fusion_lon": 0.0, "bike_id": "1b55ab733809d2ca772937500f29779b", "type": "electric_scooter", "name": "1b55ab733809d2ca772937500f29779b", "is_reserved": 0, "rental_uris": {"ios": "https://dc.lft.to/lastmile_qr_scan", "android": "https://dc.lft.to/lastmile_qr_scan"}}, {"fusion_lat": 0.0, "is_disabled": 0, "lat": 38.92462883333334, "lon": -77.02222916666666, "fusion_lon": 0.0, "bike_id": "7f184480617237e80a01cbbf4e678ef6", "type": "electric_scooter", "name": "7f184480617237e80a01cbbf4e678ef6", "is_reserved": 0, "rental_uris": {"ios": "https://dc.lft.to/lastmile_qr_scan", "android": "https://dc.lft.to/lastmile_qr_scan"}}, {"fusion_lat": 0.0, "is_disabled": 0, "lat": 38.961400833333336, "lon": -77.03172966666666, "fusion_lon": 0.0, "bike_id": "f491962b2a571b5f9b95371bccf38114", "type": "electric_bike", "name": "f491962b2a571b5f9b95371bccf38114", "is_reserved": 0, "rental_uris": {"ios": "https://dc.lft.to/lastmile_qr_scan", "android": "https://dc.lft.to/lastmile_qr_scan"}}, {"fusion_lat": 0.0, "is_disabled": 0, "lat": 38.8802475, "lon": -76.94322866666667, "fusion_lon": 0.0, "bike_id": "bb9c04fbdf273695a28d1db2e72995e2", "type": "electric_scooter", "name": "bb9c04fbdf273695a28d1db2e72995e2", "is_reserved": 0, "rental_uris": {"ios": "https://dc.lft.to/lastmile_qr_scan", "android": "https://dc.lft.to/lastmile_qr_scan"}}, {"fusion_lat": 0.0, "is_disabled": 0, "lat": 38.887130666666664, "lon": -76.98346033333334, "fusion_lon": 0.0, "bike_id": "86f338afa23c2b42941796bc07ae5baf", "type": "electric_scooter", "name": "86f338afa23c2b42941796bc07ae5baf", "is_reserved": 0, "rental_uris": {"ios": "https://dc.lft.to/lastmile_qr_scan", "android": "https://dc.lft.to/lastmile_qr_scan"}}, {"fusion_lat": 0.0, "is_disabled": 0, "lat": 38.89404, "lon": -77.02122766666666, "fusion_lon": 0.0, "bike_id": "343864c88f3320df483ce31625c3287b", "type": "electric_scooter", "name": "343864c88f3320df483ce31625c3287b", "is_reserved": 0, "rental_uris": {"ios": "https://dc.lft.to/lastmile_qr_scan", "android": "https://dc.lft.to/lastmile_qr_scan"}}, {"fusion_lat": 0.0, "is_disabled": 0, "lat": 38.90072333333333, "lon": -77.0178045, "fusion_lon": 0.0, "bike_id": "67ff34aea474338d3bd3725a4757680e", "type": "electric_scooter", "name": "67ff34aea474338d3bd3725a4757680e", "is_reserved": 0, "rental_uris": {"ios": "https://dc.lft.to/lastmile_qr_scan", "android": "https://dc.lft.to/lastmile_qr_scan"}}, {"fusion_lat": 0.0, "is_disabled": 0, "lat": 38.920520833333335, "lon": -77.0176885, "fusion_lon": 0.0, "bike_id": "b912ccc919226effd68117d18f9587c1", "type": "electric_scooter", "name": "b912ccc919226effd68117d18f9587c1", "is_reserved": 0, "rental_uris": {"ios": "https://dc.lft.to/lastmile_qr_scan", "android": "https://dc.lft.to/lastmile_qr_scan"}}, {"fusion_lat": 0.0, "is_disabled": 0, "lat": 38.91874466666667, "lon": -77.04090866666667, "fusion_lon": 0.0, "bike_id": "897115a909abe06cf92829786ff2f884", "type": "electric_scooter", "name": "897115a909abe06cf92829786ff2f884", "is_reserved": 0, "rental_uris": {"ios": "https://dc.lft.to/lastmile_qr_scan", "android": "https://dc.lft.to/lastmile_qr_scan"}}, {"fusion_lat": 0.0, "is_disabled": 0, "lat": 38.90106333333333, "lon": -77.03252766666667, "fusion_lon": 0.0, "bike_id": "572265405c4af7f70b2ec8f23591ecbf", "type": "electric_scooter", "name": "572265405c4af7f70b2ec8f23591ecbf", "is_reserved": 0, "rental_uris": {"ios": "https://dc.lft.to/lastmile_qr_scan", "android": "https://dc.lft.to/lastmile_qr_scan"}}, {"fusion_lat": 0.0, "is_disabled": 0, "lat": 38.80379, "lon": -76.988164, "fusion_lon": 0.0, "bike_id": "63042b47a1edb4f03b4791c68eeec14c", "type": "electric_bike", "name": "63042b47a1edb4f03b4791c68eeec14c", "is_reserved": 0, "rental_uris": {"ios": "https://dc.lft.to/lastmile_qr_scan", "android": "https://dc.lft.to/lastmile_qr_scan"}}, {"fusion_lat": 0.0, "is_disabled": 0, "lat": 38.898309833333336, "lon": -77.0454545, "fusion_lon": 0.0, "bike_id": "a9ba2739800ce556851ebc4f37b940c3", "type": "electric_scooter", "name": "a9ba2739800ce556851ebc4f37b940c3", "is_reserved": 0, "rental_uris": {"ios": "https://dc.lft.to/lastmile_qr_scan", "android": "https://dc.lft.to/lastmile_qr_scan"}}, {"fusion_lat": 0.0, "is_disabled": 0, "lat": 38.92908366666666, "lon": -77.032844, "fusion_lon": 0.0, "bike_id": "3303ce42c0dc1dd4073f0a400e0dd6d4", "type": "electric_scooter", "name": "3303ce42c0dc1dd4073f0a400e0dd6d4", "is_reserved": 0, "rental_uris": {"ios": "https://dc.lft.to/lastmile_qr_scan", "android": "https://dc.lft.to/lastmile_qr_scan"}}, {"fusion_lat": 0.0, "is_disabled": 0, "lat": 38.919367, "lon": -77.03219483333334, "fusion_lon": 0.0, "bike_id": "5825a1c182a27a352f25781dc079d21d", "type": "electric_scooter", "name": "5825a1c182a27a352f25781dc079d21d", "is_reserved": 0, "rental_uris": {"ios": "https://dc.lft.to/lastmile_qr_scan", "android": "https://dc.lft.to/lastmile_qr_scan"}}, {"fusion_lat": 0.0, "is_disabled": 0, "lat": 38.9117935, "lon": -77.03139883333333, "fusion_lon": 0.0, "bike_id": "6bbfb4acd65137cedda688be6e60f6e5", "type": "electric_scooter", "name": "6bbfb4acd65137cedda688be6e60f6e5", "is_reserved": 0, "rental_uris": {"ios": "https://dc.lft.to/lastmile_qr_scan", "android": "https://dc.lft.to/lastmile_qr_scan"}}, {"fusion_lat": 0.0, "is_disabled": 0, "lat": 38.920211333333334, "lon": -77.03104466666667, "fusion_lon": 0.0, "bike_id": "df3a4f7aad94b3ea5efe916779230803", "type": "electric_scooter", "name": "df3a4f7aad94b3ea5efe916779230803", "is_reserved": 0, "rental_uris": {"ios": "https://dc.lft.to/lastmile_qr_scan", "android": "https://dc.lft.to/lastmile_qr_scan"}}, {"fusion_lat": 0.0, "is_disabled": 0, "lat": 38.95762916666666, "lon": -77.00913916666667, "fusion_lon": 0.0, "bike_id": "dec22099b04927dd41fa9afaa04f5e5c", "type": "electric_scooter", "name": "dec22099b04927dd41fa9afaa04f5e5c", "is_reserved": 0, "rental_uris": {"ios": "https://dc.lft.to/lastmile_qr_scan", "android": "https://dc.lft.to/lastmile_qr_scan"}}, {"fusion_lat": 0.0, "is_disabled": 0, "lat": 38.911833333333334, "lon": -77.04283033333333, "fusion_lon": 0.0, "bike_id": "72ed93807da5e09b93ad5f7c2ca1c28a", "type": "electric_scooter", "name": "72ed93807da5e09b93ad5f7c2ca1c28a", "is_reserved": 0, "rental_uris": {"ios": "https://dc.lft.to/lastmile_qr_scan", "android": "https://dc.lft.to/lastmile_qr_scan"}}, {"fusion_lat": 0.0, "is_disabled": 0, "lat": 38.92313133333333, "lon": -77.0271005, "fusion_lon": 0.0, "bike_id": "e8d21693260129c83f35f214888b9b3e", "type": "electric_scooter", "name": "e8d21693260129c83f35f214888b9b3e", "is_reserved": 0, "rental_uris": {"ios": "https://dc.lft.to/lastmile_qr_scan", "android": "https://dc.lft.to/lastmile_qr_scan"}}, {"fusion_lat": 0.0, "is_disabled": 0, "lat": 38.89599316666666, "lon": -77.02213683333333, "fusion_lon": 0.0, "bike_id": "97b02a25d06e2ffbabdf3bb61ca964ea", "type": "electric_scooter", "name": "97b02a25d06e2ffbabdf3bb61ca964ea", "is_reserved": 0, "rental_uris": {"ios": "https://dc.lft.to/lastmile_qr_scan", "android": "https://dc.lft.to/lastmile_qr_scan"}}, {"fusion_lat": 0.0, "is_disabled": 0, "lat": 38.92245466666667, "lon": -77.01945583333334, "fusion_lon": 0.0, "bike_id": "41c47857e4d037ecbf675f0c5e5b3d49", "type": "electric_scooter", "name": "41c47857e4d037ecbf675f0c5e5b3d49", "is_reserved": 0, "rental_uris": {"ios": "https://dc.lft.to/lastmile_qr_scan", "android": "https://dc.lft.to/lastmile_qr_scan"}}, {"fusion_lat": 0.0, "is_disabled": 0, "lat": 38.92577633333333, "lon": -77.02567216666667, "fusion_lon": 0.0, "bike_id": "520c035a14bbc3d3846168dd48e9a48c", "type": "electric_scooter", "name": "520c035a14bbc3d3846168dd48e9a48c", "is_reserved": 0, "rental_uris": {"ios": "https://dc.lft.to/lastmile_qr_scan", "android": "https://dc.lft.to/lastmile_qr_scan"}}, {"fusion_lat": 0.0, "is_disabled": 0, "lat": 38.92408783333333, "lon": -77.03551583333333, "fusion_lon": 0.0, "bike_id": "7c5c2fbeb44b0579dd4b33763042f08c", "type": "electric_scooter", "name": "7c5c2fbeb44b0579dd4b33763042f08c", "is_reserved": 0, "rental_uris": {"ios": "https://dc.lft.to/lastmile_qr_scan", "android": "https://dc.lft.to/lastmile_qr_scan"}}, {"fusion_lat": 0.0, "is_disabled": 0, "lat": 38.897265, "lon": -77.02089216666667, "fusion_lon": 0.0, "bike_id": "4f0ab0ac12d87d09ec24f428da69d27f", "type": "electric_scooter", "name": "4f0ab0ac12d87d09ec24f428da69d27f", "is_reserved": 0, "rental_uris": {"ios": "https://dc.lft.to/lastmile_qr_scan", "android": "https://dc.lft.to/lastmile_qr_scan"}}, {"fusion_lat": 0.0, "is_disabled": 0, "lat": 38.9360235, "lon": -77.03187966666667, "fusion_lon": 0.0, "bike_id": "a9e6d01a3a3ead044cf9354c1e8b550f", "type": "electric_scooter", "name": "a9e6d01a3a3ead044cf9354c1e8b550f", "is_reserved": 0, "rental_uris": {"ios": "https://dc.lft.to/lastmile_qr_scan", "android": "https://dc.lft.to/lastmile_qr_scan"}}, {"fusion_lat": 0.0, "is_disabled": 0, "lat": 38.9075075, "lon": -77.04528733333333, "fusion_lon": 0.0, "bike_id": "37ae0f53fd8aa52bae65944c2f322930", "type": "electric_scooter", "name": "37ae0f53fd8aa52bae65944c2f322930", "is_reserved": 0, "rental_uris": {"ios": "https://dc.lft.to/lastmile_qr_scan", "android": "https://dc.lft.to/lastmile_qr_scan"}}, {"fusion_lat": 0.0, "is_disabled": 0, "lat": 38.887023666666664, "lon": -77.02172783333333, "fusion_lon": 0.0, "bike_id": "1327d99817a570c99ff8afc675357d48", "type": "electric_scooter", "name": "1327d99817a570c99ff8afc675357d48", "is_reserved": 0, "rental_uris": {"ios": "https://dc.lft.to/lastmile_qr_scan", "android": "https://dc.lft.to/lastmile_qr_scan"}}, {"fusion_lat": 0.0, "is_disabled": 0, "lat": 38.9140585, "lon": -77.023798, "fusion_lon": 0.0, "bike_id": "32d823c066aed5c3c612c8d9ee964098", "type": "electric_scooter", "name": "32d823c066aed5c3c612c8d9ee964098", "is_reserved": 0, "rental_uris": {"ios": "https://dc.lft.to/lastmile_qr_scan", "android": "https://dc.lft.to/lastmile_qr_scan"}}, {"fusion_lat": 0.0, "is_disabled": 0, "lat": 38.921333833333335, "lon": -77.05158016666667, "fusion_lon": 0.0, "bike_id": "6fe1aae259dce12794d510d19d9d4af8", "type": "electric_scooter", "name": "6fe1aae259dce12794d510d19d9d4af8", "is_reserved": 0, "rental_uris": {"ios": "https://dc.lft.to/lastmile_qr_scan", "android": "https://dc.lft.to/lastmile_qr_scan"}}, {"fusion_lat": 0.0, "is_disabled": 0, "lat": 38.91770233333333, "lon": -77.04100766666667, "fusion_lon": 0.0, "bike_id": "599f7da09de1a75c6b6cc068ff64de89", "type": "electric_scooter", "name": "599f7da09de1a75c6b6cc068ff64de89", "is_reserved": 0, "rental_uris": {"ios": "https://dc.lft.to/lastmile_qr_scan", "android": "https://dc.lft.to/lastmile_qr_scan"}}, {"fusion_lat": 0.0, "is_disabled": 0, "lat": 38.887193833333335, "lon": -77.02826716666667, "fusion_lon": 0.0, "bike_id": "19e33e5693e8869ff9c9b73fee24747c", "type": "electric_scooter", "name": "19e33e5693e8869ff9c9b73fee24747c", "is_reserved": 0, "rental_uris": {"ios": "https://dc.lft.to/lastmile_qr_scan", "android": "https://dc.lft.to/lastmile_qr_scan"}}, {"fusion_lat": 0.0, "is_disabled": 0, "lat": 38.9036175, "lon": -77.02625483333334, "fusion_lon": 0.0, "bike_id": "8e91c6d5d64aaa407540a290a4978161", "type": "electric_scooter", "name": "8e91c6d5d64aaa407540a290a4978161", "is_reserved": 0, "rental_uris": {"ios": "https://dc.lft.to/lastmile_qr_scan", "android": "https://dc.lft.to/lastmile_qr_scan"}}, {"fusion_lat": 0.0, "is_disabled": 0, "lat": 38.931158833333335, "lon": -77.03011233333334, "fusion_lon": 0.0, "bike_id": "73b92fb465f15bf8e159c8e992d5a881", "type": "electric_scooter", "name": "73b92fb465f15bf8e159c8e992d5a881", "is_reserved": 0, "rental_uris": {"ios": "https://dc.lft.to/lastmile_qr_scan", "android": "https://dc.lft.to/lastmile_qr_scan"}}, {"fusion_lat": 0.0, "is_disabled": 0, "lat": 38.90594016666667, "lon": -77.04078566666666, "fusion_lon": 0.0, "bike_id": "d4b74fa7d8917cab60eb973ae2a62af4", "type": "electric_scooter", "name": "d4b74fa7d8917cab60eb973ae2a62af4", "is_reserved": 0, "rental_uris": {"ios": "https://dc.lft.to/lastmile_qr_scan", "android": "https://dc.lft.to/lastmile_qr_scan"}}, {"fusion_lat": 0.0, "is_disabled": 0, "lat": 38.89884516666667, "lon": -77.04766133333334, "fusion_lon": 0.0, "bike_id": "ffb4237db0dabe92e1cbf952c8affe35", "type": "electric_scooter", "name": "ffb4237db0dabe92e1cbf952c8affe35", "is_reserved": 0, "rental_uris": {"ios": "https://dc.lft.to/lastmile_qr_scan", "android": "https://dc.lft.to/lastmile_qr_scan"}}, {"fusion_lat": 0.0, "is_disabled": 0, "lat": 38.921055, "lon": -77.03195816666667, "fusion_lon": 0.0, "bike_id": "9489138399a110521bea04e047ad7ef5", "type": "electric_scooter", "name": "9489138399a110521bea04e047ad7ef5", "is_reserved": 0, "rental_uris": {"ios": "https://dc.lft.to/lastmile_qr_scan", "android": "https://dc.lft.to/lastmile_qr_scan"}}, {"fusion_lat": 0.0, "is_disabled": 0, "lat": 38.9242145, "lon": -77.02034216666667, "fusion_lon": 0.0, "bike_id": "5b43efbbb3d74a743b14d30e87de0bc0", "type": "electric_scooter", "name": "5b43efbbb3d74a743b14d30e87de0bc0", "is_reserved": 0, "rental_uris": {"ios": "https://dc.lft.to/lastmile_qr_scan", "android": "https://dc.lft.to/lastmile_qr_scan"}}, {"fusion_lat": 0.0, "is_disabled": 0, "lat": 38.897831333333336, "lon": -77.01197083333334, "fusion_lon": 0.0, "bike_id": "e99b4e9fa39b1bcb2b02f43dad7722db", "type": "electric_scooter", "name": "e99b4e9fa39b1bcb2b02f43dad7722db", "is_reserved": 0, "rental_uris": {"ios": "https://dc.lft.to/lastmile_qr_scan", "android": "https://dc.lft.to/lastmile_qr_scan"}}, {"fusion_lat": 0.0, "is_disabled": 0, "lat": 38.902458333333335, "lon": -77.04524183333334, "fusion_lon": 0.0, "bike_id": "6a74b4c9b984759a591e479f5281ea57", "type": "electric_scooter", "name": "6a74b4c9b984759a591e479f5281ea57", "is_reserved": 0, "rental_uris": {"ios": "https://dc.lft.to/lastmile_qr_scan", "android": "https://dc.lft.to/lastmile_qr_scan"}}, {"fusion_lat": 0.0, "is_disabled": 0, "lat": 38.901429666666665, "lon": -77.04450516666667, "fusion_lon": 0.0, "bike_id": "3902fff0a520ee1384a11dad66b9e3eb", "type": "electric_scooter", "name": "3902fff0a520ee1384a11dad66b9e3eb", "is_reserved": 0, "rental_uris": {"ios": "https://dc.lft.to/lastmile_qr_scan", "android": "https://dc.lft.to/lastmile_qr_scan"}}, {"fusion_lat": 0.0, "is_disabled": 0, "lat": 38.89220733333333, "lon": -77.027445, "fusion_lon": 0.0, "bike_id": "9474353b18d4fddb2db2c349da1e3eca", "type": "electric_scooter", "name": "9474353b18d4fddb2db2c349da1e3eca", "is_reserved": 0, "rental_uris": {"ios": "https://dc.lft.to/lastmile_qr_scan", "android": "https://dc.lft.to/lastmile_qr_scan"}}, {"fusion_lat": 0.0, "is_disabled": 0, "lat": 38.89516366666667, "lon": -77.01971633333334, "fusion_lon": 0.0, "bike_id": "7029dd79120476f4790f3e09ba1a13b1", "type": "electric_scooter", "name": "7029dd79120476f4790f3e09ba1a13b1", "is_reserved": 0, "rental_uris": {"ios": "https://dc.lft.to/lastmile_qr_scan", "android": "https://dc.lft.to/lastmile_qr_scan"}}, {"fusion_lat": 0.0, "is_disabled": 0, "lat": 38.9335525, "lon": -77.061428, "fusion_lon": 0.0, "bike_id": "b5e49f03882179419e9dbb2acd8cad96", "type": "electric_scooter", "name": "b5e49f03882179419e9dbb2acd8cad96", "is_reserved": 0, "rental_uris": {"ios": "https://dc.lft.to/lastmile_qr_scan", "android": "https://dc.lft.to/lastmile_qr_scan"}}, {"fusion_lat": 0.0, "is_disabled": 0, "lat": 38.895767166666666, "lon": -77.01349733333333, "fusion_lon": 0.0, "bike_id": "a7d3fa9422d39aadb4067d8644c0123b", "type": "electric_scooter", "name": "a7d3fa9422d39aadb4067d8644c0123b", "is_reserved": 0, "rental_uris": {"ios": "https://dc.lft.to/lastmile_qr_scan", "android": "https://dc.lft.to/lastmile_qr_scan"}}, {"fusion_lat": 0.0, "is_disabled": 0, "lat": 38.935219333333336, "lon": -77.03262266666667, "fusion_lon": 0.0, "bike_id": "50ca55d3bd3ba3f200f8a4400d6a7aac", "type": "electric_scooter", "name": "50ca55d3bd3ba3f200f8a4400d6a7aac", "is_reserved": 0, "rental_uris": {"ios": "https://dc.lft.to/lastmile_qr_scan", "android": "https://dc.lft.to/lastmile_qr_scan"}}, {"fusion_lat": 0.0, "is_disabled": 0, "lat": 38.9060235, "lon": -77.12880966666667, "fusion_lon": 0.0, "bike_id": "22af938aa7b36393d42f3a6b667326d1", "type": "electric_bike", "name": "22af938aa7b36393d42f3a6b667326d1", "is_reserved": 0, "rental_uris": {"ios": "https://dc.lft.to/lastmile_qr_scan", "android": "https://dc.lft.to/lastmile_qr_scan"}}, {"fusion_lat": 0.0, "is_disabled": 0, "lat": 38.89224516666667, "lon": -77.0242195, "fusion_lon": 0.0, "bike_id": "e483ffd3393ed6eed4a67602f2776a49", "type": "electric_scooter", "name": "e483ffd3393ed6eed4a67602f2776a49", "is_reserved": 0, "rental_uris": {"ios": "https://dc.lft.to/lastmile_qr_scan", "android": "https://dc.lft.to/lastmile_qr_scan"}}, {"fusion_lat": 0.0, "is_disabled": 0, "lat": 38.895033166666664, "lon": -77.0033685, "fusion_lon": 0.0, "bike_id": "4a38439cd1130824221eaa15bed535b1", "type": "electric_scooter", "name": "4a38439cd1130824221eaa15bed535b1", "is_reserved": 0, "rental_uris": {"ios": "https://dc.lft.to/lastmile_qr_scan", "android": "https://dc.lft.to/lastmile_qr_scan"}}, {"fusion_lat": 0.0, "is_disabled": 0, "lat": 38.92060466666667, "lon": -76.97071483333333, "fusion_lon": 0.0, "bike_id": "611d39babd5e6fa188ba314e4fb9b060", "type": "electric_bike", "name": "611d39babd5e6fa188ba314e4fb9b060", "is_reserved": 0, "rental_uris": {"ios": "https://dc.lft.to/lastmile_qr_scan", "android": "https://dc.lft.to/lastmile_qr_scan"}}, {"fusion_lat": 0.0, "is_disabled": 0, "lat": 38.90396166666667, "lon": -77.06296766666667, "fusion_lon": 0.0, "bike_id": "5fb58d1a29e6021aeb4471bbb198e302", "type": "electric_scooter", "name": "5fb58d1a29e6021aeb4471bbb198e302", "is_reserved": 0, "rental_uris": {"ios": "https://dc.lft.to/lastmile_qr_scan", "android": "https://dc.lft.to/lastmile_qr_scan"}}, {"fusion_lat": 0.0, "is_disabled": 0, "lat": 38.9344745, "lon": -77.02980933333333, "fusion_lon": 0.0, "bike_id": "205f8878c8293bbf9b8ddeac802a9245", "type": "electric_scooter", "name": "205f8878c8293bbf9b8ddeac802a9245", "is_reserved": 0, "rental_uris": {"ios": "https://dc.lft.to/lastmile_qr_scan", "android": "https://dc.lft.to/lastmile_qr_scan"}}, {"fusion_lat": 0.0, "is_disabled": 0, "lat": 38.8967235, "lon": -77.0326175, "fusion_lon": 0.0, "bike_id": "e6fc0edcf907821dada227cf067ec427", "type": "electric_scooter", "name": "e6fc0edcf907821dada227cf067ec427", "is_reserved": 0, "rental_uris": {"ios": "https://dc.lft.to/lastmile_qr_scan", "android": "https://dc.lft.to/lastmile_qr_scan"}}, {"fusion_lat": 0.0, "is_disabled": 0, "lat": 38.911195, "lon": -77.03619616666667, "fusion_lon": 0.0, "bike_id": "d0ab680a3be6661a99d4870474b95242", "type": "electric_scooter", "name": "d0ab680a3be6661a99d4870474b95242", "is_reserved": 0, "rental_uris": {"ios": "https://dc.lft.to/lastmile_qr_scan", "android": "https://dc.lft.to/lastmile_qr_scan"}}, {"fusion_lat": 0.0, "is_disabled": 0, "lat": 38.89956633333333, "lon": -77.030894, "fusion_lon": 0.0, "bike_id": "830c06bb8a418c4cd79731db552dee3c", "type": "electric_scooter", "name": "830c06bb8a418c4cd79731db552dee3c", "is_reserved": 0, "rental_uris": {"ios": "https://dc.lft.to/lastmile_qr_scan", "android": "https://dc.lft.to/lastmile_qr_scan"}}, {"fusion_lat": 0.0, "is_disabled": 0, "lat": 38.906328, "lon": -77.05135933333334, "fusion_lon": 0.0, "bike_id": "9ba9294761d78691ec4d63f3843c0ae9", "type": "electric_scooter", "name": "9ba9294761d78691ec4d63f3843c0ae9", "is_reserved": 0, "rental_uris": {"ios": "https://dc.lft.to/lastmile_qr_scan", "android": "https://dc.lft.to/lastmile_qr_scan"}}, {"fusion_lat": 0.0, "is_disabled": 0, "lat": 38.9334985, "lon": -77.085751, "fusion_lon": 0.0, "bike_id": "2c9b17ced1468a76b7a4582a6f13aeb9", "type": "electric_scooter", "name": "2c9b17ced1468a76b7a4582a6f13aeb9", "is_reserved": 0, "rental_uris": {"ios": "https://dc.lft.to/lastmile_qr_scan", "android": "https://dc.lft.to/lastmile_qr_scan"}}, {"fusion_lat": 0.0, "is_disabled": 0, "lat": 38.9040005, "lon": -77.05328666666666, "fusion_lon": 0.0, "bike_id": "84fee7a4a505d32451bb38194d6df33e", "type": "electric_scooter", "name": "84fee7a4a505d32451bb38194d6df33e", "is_reserved": 0, "rental_uris": {"ios": "https://dc.lft.to/lastmile_qr_scan", "android": "https://dc.lft.to/lastmile_qr_scan"}}, {"fusion_lat": 0.0, "is_disabled": 0, "lat": 38.9206175, "lon": -77.03465733333333, "fusion_lon": 0.0, "bike_id": "431e6aaa7104f2e2a9c365027a8001ee", "type": "electric_scooter", "name": "431e6aaa7104f2e2a9c365027a8001ee", "is_reserved": 0, "rental_uris": {"ios": "https://dc.lft.to/lastmile_qr_scan", "android": "https://dc.lft.to/lastmile_qr_scan"}}, {"fusion_lat": 0.0, "is_disabled": 0, "lat": 38.92841283333333, "lon": -77.03637866666666, "fusion_lon": 0.0, "bike_id": "444b22d829da3b291c060fd9dfc9a811", "type": "electric_scooter", "name": "444b22d829da3b291c060fd9dfc9a811", "is_reserved": 0, "rental_uris": {"ios": "https://dc.lft.to/lastmile_qr_scan", "android": "https://dc.lft.to/lastmile_qr_scan"}}, {"fusion_lat": 0.0, "is_disabled": 0, "lat": 38.9402645, "lon": -77.02917066666667, "fusion_lon": 0.0, "bike_id": "5048945f96a3a9879891b48a0fbf30d3", "type": "electric_scooter", "name": "5048945f96a3a9879891b48a0fbf30d3", "is_reserved": 0, "rental_uris": {"ios": "https://dc.lft.to/lastmile_qr_scan", "android": "https://dc.lft.to/lastmile_qr_scan"}}, {"fusion_lat": 0.0, "is_disabled": 0, "lat": 38.92468383333333, "lon": -77.0393955, "fusion_lon": 0.0, "bike_id": "4de3fa646d9123d7680cce6ff5e2f445", "type": "electric_scooter", "name": "4de3fa646d9123d7680cce6ff5e2f445", "is_reserved": 0, "rental_uris": {"ios": "https://dc.lft.to/lastmile_qr_scan", "android": "https://dc.lft.to/lastmile_qr_scan"}}, {"fusion_lat": 0.0, "is_disabled": 0, "lat": 38.941415166666665, "lon": -77.02325566666667, "fusion_lon": 0.0, "bike_id": "e8b69c1b83f55e48157d91e109468fc6", "type": "electric_scooter", "name": "e8b69c1b83f55e48157d91e109468fc6", "is_reserved": 0, "rental_uris": {"ios": "https://dc.lft.to/lastmile_qr_scan", "android": "https://dc.lft.to/lastmile_qr_scan"}}, {"fusion_lat": 0.0, "is_disabled": 0, "lat": 38.9217055, "lon": -77.01873716666667, "fusion_lon": 0.0, "bike_id": "6402901667fdb022f50f562b26bdcf66", "type": "electric_scooter", "name": "6402901667fdb022f50f562b26bdcf66", "is_reserved": 0, "rental_uris": {"ios": "https://dc.lft.to/lastmile_qr_scan", "android": "https://dc.lft.to/lastmile_qr_scan"}}, {"fusion_lat": 0.0, "is_disabled": 0, "lat": 38.901036833333336, "lon": -77.04981, "fusion_lon": 0.0, "bike_id": "0f98cc83ffcc41d6a300dfa6c9727ec4", "type": "electric_scooter", "name": "0f98cc83ffcc41d6a300dfa6c9727ec4", "is_reserved": 0, "rental_uris": {"ios": "https://dc.lft.to/lastmile_qr_scan", "android": "https://dc.lft.to/lastmile_qr_scan"}}, {"fusion_lat": 0.0, "is_disabled": 0, "lat": 38.90284416666667, "lon": -77.03450333333333, "fusion_lon": 0.0, "bike_id": "8b1b47dfe1168392ced22c52ac11f3bb", "type": "electric_scooter", "name": "8b1b47dfe1168392ced22c52ac11f3bb", "is_reserved": 0, "rental_uris": {"ios": "https://dc.lft.to/lastmile_qr_scan", "android": "https://dc.lft.to/lastmile_qr_scan"}}, {"fusion_lat": 0.0, "is_disabled": 0, "lat": 38.924527, "lon": -77.03796916666667, "fusion_lon": 0.0, "bike_id": "dec7bbf6e6e4ff27bc46c71ea5b7ed22", "type": "electric_scooter", "name": "dec7bbf6e6e4ff27bc46c71ea5b7ed22", "is_reserved": 0, "rental_uris": {"ios": "https://dc.lft.to/lastmile_qr_scan", "android": "https://dc.lft.to/lastmile_qr_scan"}}, {"fusion_lat": 0.0, "is_disabled": 0, "lat": 38.927052, "lon": -76.96080166666667, "fusion_lon": 0.0, "bike_id": "932f499ac079b79938a5bdbf66f54a47", "type": "electric_scooter", "name": "932f499ac079b79938a5bdbf66f54a47", "is_reserved": 0, "rental_uris": {"ios": "https://dc.lft.to/lastmile_qr_scan", "android": "https://dc.lft.to/lastmile_qr_scan"}}, {"fusion_lat": 0.0, "is_disabled": 0, "lat": 38.902565833333334, "lon": -77.0344015, "fusion_lon": 0.0, "bike_id": "582897f3bcc4dc71cdd4a6fa64831cce", "type": "electric_scooter", "name": "582897f3bcc4dc71cdd4a6fa64831cce", "is_reserved": 0, "rental_uris": {"ios": "https://dc.lft.to/lastmile_qr_scan", "android": "https://dc.lft.to/lastmile_qr_scan"}}, {"fusion_lat": 0.0, "is_disabled": 0, "lat": 38.89035583333333, "lon": -76.93752533333333, "fusion_lon": 0.0, "bike_id": "be8bae460616a19e4cb3ef73b7847b53", "type": "electric_scooter", "name": "be8bae460616a19e4cb3ef73b7847b53", "is_reserved": 0, "rental_uris": {"ios": "https://dc.lft.to/lastmile_qr_scan", "android": "https://dc.lft.to/lastmile_qr_scan"}}, {"fusion_lat": 0.0, "is_disabled": 0, "lat": 38.898197, "lon": -77.02395033333333, "fusion_lon": 0.0, "bike_id": "670ac2c15638274e4653921c2a9c466b", "type": "electric_scooter", "name": "670ac2c15638274e4653921c2a9c466b", "is_reserved": 0, "rental_uris": {"ios": "https://dc.lft.to/lastmile_qr_scan", "android": "https://dc.lft.to/lastmile_qr_scan"}}, {"fusion_lat": 0.0, "is_disabled": 0, "lat": 38.8970665, "lon": -77.008343, "fusion_lon": 0.0, "bike_id": "a3a52e635fcedd1cddeffa0c8e628216", "type": "electric_scooter", "name": "a3a52e635fcedd1cddeffa0c8e628216", "is_reserved": 0, "rental_uris": {"ios": "https://dc.lft.to/lastmile_qr_scan", "android": "https://dc.lft.to/lastmile_qr_scan"}}, {"fusion_lat": 0.0, "is_disabled": 0, "lat": 38.91701716666667, "lon": -77.02824916666667, "fusion_lon": 0.0, "bike_id": "891804b03e1e9099ab197d657f44069f", "type": "electric_scooter", "name": "891804b03e1e9099ab197d657f44069f", "is_reserved": 0, "rental_uris": {"ios": "https://dc.lft.to/lastmile_qr_scan", "android": "https://dc.lft.to/lastmile_qr_scan"}}, {"fusion_lat": 0.0, "is_disabled": 0, "lat": 38.899703, "lon": -77.03170716666666, "fusion_lon": 0.0, "bike_id": "8545c420ac9ce721294769356d05398c", "type": "electric_scooter", "name": "8545c420ac9ce721294769356d05398c", "is_reserved": 0, "rental_uris": {"ios": "https://dc.lft.to/lastmile_qr_scan", "android": "https://dc.lft.to/lastmile_qr_scan"}}, {"fusion_lat": 0.0, "is_disabled": 0, "lat": 38.87280283333333, "lon": -77.009864, "fusion_lon": 0.0, "bike_id": "37666450e577038454a1c6584d225889", "type": "electric_scooter", "name": "37666450e577038454a1c6584d225889", "is_reserved": 0, "rental_uris": {"ios": "https://dc.lft.to/lastmile_qr_scan", "android": "https://dc.lft.to/lastmile_qr_scan"}}, {"fusion_lat": 0.0, "is_disabled": 0, "lat": 38.9371715, "lon": -77.02424466666666, "fusion_lon": 0.0, "bike_id": "5b4e4b96109a38ad5085dbdcf8b525df", "type": "electric_scooter", "name": "5b4e4b96109a38ad5085dbdcf8b525df", "is_reserved": 0, "rental_uris": {"ios": "https://dc.lft.to/lastmile_qr_scan", "android": "https://dc.lft.to/lastmile_qr_scan"}}, {"fusion_lat": 0.0, "is_disabled": 0, "lat": 38.88393633333333, "lon": -76.99508183333333, "fusion_lon": 0.0, "bike_id": "5d68e4168b5ff3df124d7ecc66e66148", "type": "electric_scooter", "name": "5d68e4168b5ff3df124d7ecc66e66148", "is_reserved": 0, "rental_uris": {"ios": "https://dc.lft.to/lastmile_qr_scan", "android": "https://dc.lft.to/lastmile_qr_scan"}}, {"fusion_lat": 0.0, "is_disabled": 0, "lat": 38.89654216666667, "lon": -77.0242095, "fusion_lon": 0.0, "bike_id": "0a156ca896388a3a3f9b118a9f8607a2", "type": "electric_scooter", "name": "0a156ca896388a3a3f9b118a9f8607a2", "is_reserved": 0, "rental_uris": {"ios": "https://dc.lft.to/lastmile_qr_scan", "android": "https://dc.lft.to/lastmile_qr_scan"}}, {"fusion_lat": 0.0, "is_disabled": 0, "lat": 38.875214166666666, "lon": -77.01230833333334, "fusion_lon": 0.0, "bike_id": "cd39a56b64defdf7c8d326e8fce6fcc0", "type": "electric_scooter", "name": "cd39a56b64defdf7c8d326e8fce6fcc0", "is_reserved": 0, "rental_uris": {"ios": "https://dc.lft.to/lastmile_qr_scan", "android": "https://dc.lft.to/lastmile_qr_scan"}}, {"fusion_lat": 0.0, "is_disabled": 0, "lat": 38.92377366666667, "lon": -77.02259733333334, "fusion_lon": 0.0, "bike_id": "e2af5428e524fad207fc48cc9265a522", "type": "electric_scooter", "name": "e2af5428e524fad207fc48cc9265a522", "is_reserved": 0, "rental_uris": {"ios": "https://dc.lft.to/lastmile_qr_scan", "android": "https://dc.lft.to/lastmile_qr_scan"}}, {"fusion_lat": 0.0, "is_disabled": 0, "lat": 38.90319433333333, "lon": -77.03985933333334, "fusion_lon": 0.0, "bike_id": "3e5d5bce6f589f84b87ab1e57e4abfa3", "type": "electric_scooter", "name": "3e5d5bce6f589f84b87ab1e57e4abfa3", "is_reserved": 0, "rental_uris": {"ios": "https://dc.lft.to/lastmile_qr_scan", "android": "https://dc.lft.to/lastmile_qr_scan"}}, {"fusion_lat": 0.0, "is_disabled": 0, "lat": 38.903842833333336, "lon": -77.04755216666666, "fusion_lon": 0.0, "bike_id": "386da17e5a1d4a7000986bf14beee245", "type": "electric_scooter", "name": "386da17e5a1d4a7000986bf14beee245", "is_reserved": 0, "rental_uris": {"ios": "https://dc.lft.to/lastmile_qr_scan", "android": "https://dc.lft.to/lastmile_qr_scan"}}, {"fusion_lat": 0.0, "is_disabled": 0, "lat": 38.923333166666666, "lon": -77.05684483333333, "fusion_lon": 0.0, "bike_id": "7baf6bd0fb9be24e77126509f5d9feec", "type": "electric_scooter", "name": "7baf6bd0fb9be24e77126509f5d9feec", "is_reserved": 0, "rental_uris": {"ios": "https://dc.lft.to/lastmile_qr_scan", "android": "https://dc.lft.to/lastmile_qr_scan"}}, {"fusion_lat": 0.0, "is_disabled": 0, "lat": 38.89223166666667, "lon": -77.046422, "fusion_lon": 0.0, "bike_id": "f5de7d83308842f31ef1cb70a24b1c57", "type": "electric_scooter", "name": "f5de7d83308842f31ef1cb70a24b1c57", "is_reserved": 0, "rental_uris": {"ios": "https://dc.lft.to/lastmile_qr_scan", "android": "https://dc.lft.to/lastmile_qr_scan"}}, {"fusion_lat": 0.0, "is_disabled": 0, "lat": 38.90468166666667, "lon": -77.03559633333333, "fusion_lon": 0.0, "bike_id": "fe49e4143c2e3c0592cdfdb6281b08c2", "type": "electric_scooter", "name": "fe49e4143c2e3c0592cdfdb6281b08c2", "is_reserved": 0, "rental_uris": {"ios": "https://dc.lft.to/lastmile_qr_scan", "android": "https://dc.lft.to/lastmile_qr_scan"}}, {"fusion_lat": 0.0, "is_disabled": 0, "lat": 38.9241445, "lon": -77.02278033333333, "fusion_lon": 0.0, "bike_id": "553cd67e5e9a19c8fd4171e862b6f30a", "type": "electric_scooter", "name": "553cd67e5e9a19c8fd4171e862b6f30a", "is_reserved": 0, "rental_uris": {"ios": "https://dc.lft.to/lastmile_qr_scan", "android": "https://dc.lft.to/lastmile_qr_scan"}}, {"fusion_lat": 0.0, "is_disabled": 0, "lat": 38.9355035, "lon": -77.07707583333334, "fusion_lon": 0.0, "bike_id": "005f87f72016524f58862796ec40929d", "type": "electric_scooter", "name": "005f87f72016524f58862796ec40929d", "is_reserved": 0, "rental_uris": {"ios": "https://dc.lft.to/lastmile_qr_scan", "android": "https://dc.lft.to/lastmile_qr_scan"}}, {"fusion_lat": 0.0, "is_disabled": 0, "lat": 38.93854316666667, "lon": -76.99435916666667, "fusion_lon": 0.0, "bike_id": "18732da7ec4c3f0df0b5c89bbdfe000d", "type": "electric_scooter", "name": "18732da7ec4c3f0df0b5c89bbdfe000d", "is_reserved": 0, "rental_uris": {"ios": "https://dc.lft.to/lastmile_qr_scan", "android": "https://dc.lft.to/lastmile_qr_scan"}}, {"fusion_lat": 0.0, "is_disabled": 0, "lat": 38.922381, "lon": -77.03519366666667, "fusion_lon": 0.0, "bike_id": "88e80db667f3af17784f320f6cf45051", "type": "electric_scooter", "name": "88e80db667f3af17784f320f6cf45051", "is_reserved": 0, "rental_uris": {"ios": "https://dc.lft.to/lastmile_qr_scan", "android": "https://dc.lft.to/lastmile_qr_scan"}}, {"fusion_lat": 0.0, "is_disabled": 0, "lat": 38.91405316666667, "lon": -77.02416716666667, "fusion_lon": 0.0, "bike_id": "dbc591b4a2f5d0fa1763742abf59b67c", "type": "electric_scooter", "name": "dbc591b4a2f5d0fa1763742abf59b67c", "is_reserved": 0, "rental_uris": {"ios": "https://dc.lft.to/lastmile_qr_scan", "android": "https://dc.lft.to/lastmile_qr_scan"}}, {"fusion_lat": 0.0, "is_disabled": 0, "lat": 38.89890666666667, "lon": -77.0406125, "fusion_lon": 0.0, "bike_id": "d9e2c8ba16c0f88483c436ff481ad24b", "type": "electric_scooter", "name": "d9e2c8ba16c0f88483c436ff481ad24b", "is_reserved": 0, "rental_uris": {"ios": "https://dc.lft.to/lastmile_qr_scan", "android": "https://dc.lft.to/lastmile_qr_scan"}}, {"fusion_lat": 0.0, "is_disabled": 0, "lat": 38.92367266666667, "lon": -77.0514465, "fusion_lon": 0.0, "bike_id": "637e5eb309aa0a41792ebc1bb4ed0b56", "type": "electric_scooter", "name": "637e5eb309aa0a41792ebc1bb4ed0b56", "is_reserved": 0, "rental_uris": {"ios": "https://dc.lft.to/lastmile_qr_scan", "android": "https://dc.lft.to/lastmile_qr_scan"}}, {"fusion_lat": 0.0, "is_disabled": 0, "lat": 38.90241233333333, "lon": -77.03827083333333, "fusion_lon": 0.0, "bike_id": "96b4bf772f71133d21e0e57e76f42258", "type": "electric_scooter", "name": "96b4bf772f71133d21e0e57e76f42258", "is_reserved": 0, "rental_uris": {"ios": "https://dc.lft.to/lastmile_qr_scan", "android": "https://dc.lft.to/lastmile_qr_scan"}}, {"fusion_lat": 0.0, "is_disabled": 0, "lat": 38.9155535, "lon": -77.03213366666667, "fusion_lon": 0.0, "bike_id": "c9a7c7842e6116750d4e16b25c96e445", "type": "electric_scooter", "name": "c9a7c7842e6116750d4e16b25c96e445", "is_reserved": 0, "rental_uris": {"ios": "https://dc.lft.to/lastmile_qr_scan", "android": "https://dc.lft.to/lastmile_qr_scan"}}, {"fusion_lat": 0.0, "is_disabled": 0, "lat": 38.91699833333333, "lon": -77.03425166666666, "fusion_lon": 0.0, "bike_id": "f6130370f3aa1e4bdfa98112a24fbfd7", "type": "electric_scooter", "name": "f6130370f3aa1e4bdfa98112a24fbfd7", "is_reserved": 0, "rental_uris": {"ios": "https://dc.lft.to/lastmile_qr_scan", "android": "https://dc.lft.to/lastmile_qr_scan"}}, {"fusion_lat": 0.0, "is_disabled": 0, "lat": 38.902353166666664, "lon": -77.02693833333333, "fusion_lon": 0.0, "bike_id": "25de06bc0150ec1ba3eddb4180081ce7", "type": "electric_scooter", "name": "25de06bc0150ec1ba3eddb4180081ce7", "is_reserved": 0, "rental_uris": {"ios": "https://dc.lft.to/lastmile_qr_scan", "android": "https://dc.lft.to/lastmile_qr_scan"}}, {"fusion_lat": 0.0, "is_disabled": 0, "lat": 38.89221583333333, "lon": -77.0222105, "fusion_lon": 0.0, "bike_id": "1bc55c9b3ba82941e533b42e7ade07e1", "type": "electric_scooter", "name": "1bc55c9b3ba82941e533b42e7ade07e1", "is_reserved": 0, "rental_uris": {"ios": "https://dc.lft.to/lastmile_qr_scan", "android": "https://dc.lft.to/lastmile_qr_scan"}}, {"fusion_lat": 0.0, "is_disabled": 0, "lat": 38.91627166666667, "lon": -77.031953, "fusion_lon": 0.0, "bike_id": "f1711410f94d79fc5ec7b398e6643f0b", "type": "electric_scooter", "name": "f1711410f94d79fc5ec7b398e6643f0b", "is_reserved": 0, "rental_uris": {"ios": "https://dc.lft.to/lastmile_qr_scan", "android": "https://dc.lft.to/lastmile_qr_scan"}}, {"fusion_lat": 0.0, "is_disabled": 0, "lat": 38.88378066666667, "lon": -77.00888266666666, "fusion_lon": 0.0, "bike_id": "e34efb1e65f369b5767c20612cd42288", "type": "electric_scooter", "name": "e34efb1e65f369b5767c20612cd42288", "is_reserved": 0, "rental_uris": {"ios": "https://dc.lft.to/lastmile_qr_scan", "android": "https://dc.lft.to/lastmile_qr_scan"}}, {"fusion_lat": 0.0, "is_disabled": 0, "lat": 38.882714166666666, "lon": -76.93557433333334, "fusion_lon": 0.0, "bike_id": "5e403f0e6f3e3fc4a0f6a923b7d124fb", "type": "electric_scooter", "name": "5e403f0e6f3e3fc4a0f6a923b7d124fb", "is_reserved": 0, "rental_uris": {"ios": "https://dc.lft.to/lastmile_qr_scan", "android": "https://dc.lft.to/lastmile_qr_scan"}}, {"fusion_lat": 0.0, "is_disabled": 0, "lat": 38.8989545, "lon": -77.03970633333333, "fusion_lon": 0.0, "bike_id": "8c21b82db6982c58d3884421b116a5a1", "type": "electric_scooter", "name": "8c21b82db6982c58d3884421b116a5a1", "is_reserved": 0, "rental_uris": {"ios": "https://dc.lft.to/lastmile_qr_scan", "android": "https://dc.lft.to/lastmile_qr_scan"}}, {"fusion_lat": 0.0, "is_disabled": 0, "lat": 38.90379083333333, "lon": -77.029868, "fusion_lon": 0.0, "bike_id": "50718d22f6151dd9c5955f3e94f14002", "type": "electric_scooter", "name": "50718d22f6151dd9c5955f3e94f14002", "is_reserved": 0, "rental_uris": {"ios": "https://dc.lft.to/lastmile_qr_scan", "android": "https://dc.lft.to/lastmile_qr_scan"}}, {"fusion_lat": 0.0, "is_disabled": 0, "lat": 38.896332666666666, "lon": -77.04336666666667, "fusion_lon": 0.0, "bike_id": "6335ab40ab5e406386c2a708cd09abcb", "type": "electric_scooter", "name": "6335ab40ab5e406386c2a708cd09abcb", "is_reserved": 0, "rental_uris": {"ios": "https://dc.lft.to/lastmile_qr_scan", "android": "https://dc.lft.to/lastmile_qr_scan"}}, {"fusion_lat": 0.0, "is_disabled": 0, "lat": 38.92324833333333, "lon": -77.05391016666667, "fusion_lon": 0.0, "bike_id": "487e32ee0fd94d760a47b0199a68dc2c", "type": "electric_scooter", "name": "487e32ee0fd94d760a47b0199a68dc2c", "is_reserved": 0, "rental_uris": {"ios": "https://dc.lft.to/lastmile_qr_scan", "android": "https://dc.lft.to/lastmile_qr_scan"}}, {"fusion_lat": 0.0, "is_disabled": 0, "lat": 38.902699166666665, "lon": -77.04256866666667, "fusion_lon": 0.0, "bike_id": "1fe6e0951c68e4861e07735a99c41bb4", "type": "electric_scooter", "name": "1fe6e0951c68e4861e07735a99c41bb4", "is_reserved": 0, "rental_uris": {"ios": "https://dc.lft.to/lastmile_qr_scan", "android": "https://dc.lft.to/lastmile_qr_scan"}}, {"fusion_lat": 0.0, "is_disabled": 0, "lat": 38.90031616666667, "lon": -76.97226416666666, "fusion_lon": 0.0, "bike_id": "6cfb700dbf2838ad49c7f09a31871b63", "type": "electric_bike", "name": "6cfb700dbf2838ad49c7f09a31871b63", "is_reserved": 0, "rental_uris": {"ios": "https://dc.lft.to/lastmile_qr_scan", "android": "https://dc.lft.to/lastmile_qr_scan"}}, {"fusion_lat": 0.0, "is_disabled": 0, "lat": 39.034275666666666, "lon": -77.04312816666666, "fusion_lon": 0.0, "bike_id": "33c44efa4824f7b694bd2b031affcb67", "type": "electric_bike", "name": "33c44efa4824f7b694bd2b031affcb67", "is_reserved": 0, "rental_uris": {"ios": "https://dc.lft.to/lastmile_qr_scan", "android": "https://dc.lft.to/lastmile_qr_scan"}}, {"fusion_lat": 0.0, "is_disabled": 0, "lat": 38.91567766666667, "lon": -77.05037666666666, "fusion_lon": 0.0, "bike_id": "41a5d4cb1b1d82a2abab9611b24e316d", "type": "electric_scooter", "name": "41a5d4cb1b1d82a2abab9611b24e316d", "is_reserved": 0, "rental_uris": {"ios": "https://dc.lft.to/lastmile_qr_scan", "android": "https://dc.lft.to/lastmile_qr_scan"}}, {"fusion_lat": 0.0, "is_disabled": 0, "lat": 38.903611166666664, "lon": -77.00983983333333, "fusion_lon": 0.0, "bike_id": "c4a5e3dd793e19ebe2962c43ffdc9413", "type": "electric_scooter", "name": "c4a5e3dd793e19ebe2962c43ffdc9413", "is_reserved": 0, "rental_uris": {"ios": "https://dc.lft.to/lastmile_qr_scan", "android": "https://dc.lft.to/lastmile_qr_scan"}}, {"fusion_lat": 0.0, "is_disabled": 0, "lat": 38.921240166666664, "lon": -77.03656233333334, "fusion_lon": 0.0, "bike_id": "09a5bc769bc8ded4996679b76df65d90", "type": "electric_scooter", "name": "09a5bc769bc8ded4996679b76df65d90", "is_reserved": 0, "rental_uris": {"ios": "https://dc.lft.to/lastmile_qr_scan", "android": "https://dc.lft.to/lastmile_qr_scan"}}, {"fusion_lat": 0.0, "is_disabled": 0, "lat": 38.90576566666667, "lon": -77.04385633333334, "fusion_lon": 0.0, "bike_id": "6cdb0d6ef45c3a5482f711ec9ab1285d", "type": "electric_scooter", "name": "6cdb0d6ef45c3a5482f711ec9ab1285d", "is_reserved": 0, "rental_uris": {"ios": "https://dc.lft.to/lastmile_qr_scan", "android": "https://dc.lft.to/lastmile_qr_scan"}}, {"fusion_lat": 0.0, "is_disabled": 0, "lat": 38.91771383333333, "lon": -77.0320115, "fusion_lon": 0.0, "bike_id": "ebfb12dc265a4a5bf7b2baf94e254337", "type": "electric_scooter", "name": "ebfb12dc265a4a5bf7b2baf94e254337", "is_reserved": 0, "rental_uris": {"ios": "https://dc.lft.to/lastmile_qr_scan", "android": "https://dc.lft.to/lastmile_qr_scan"}}, {"fusion_lat": 0.0, "is_disabled": 0, "lat": 38.90542266666667, "lon": -77.00571983333333, "fusion_lon": 0.0, "bike_id": "2b40bc7cb4e6bb48c537ca96bb1e7a19", "type": "electric_scooter", "name": "2b40bc7cb4e6bb48c537ca96bb1e7a19", "is_reserved": 0, "rental_uris": {"ios": "https://dc.lft.to/lastmile_qr_scan", "android": "https://dc.lft.to/lastmile_qr_scan"}}, {"fusion_lat": 0.0, "is_disabled": 0, "lat": 38.89312816666666, "lon": -77.012045, "fusion_lon": 0.0, "bike_id": "2348c49fd4e15648f3e47541f5dba4c2", "type": "electric_scooter", "name": "2348c49fd4e15648f3e47541f5dba4c2", "is_reserved": 0, "rental_uris": {"ios": "https://dc.lft.to/lastmile_qr_scan", "android": "https://dc.lft.to/lastmile_qr_scan"}}, {"fusion_lat": 0.0, "is_disabled": 0, "lat": 38.924828, "lon": -77.02269566666666, "fusion_lon": 0.0, "bike_id": "0e488b94271091aa4cd24f0dedd02d6d", "type": "electric_scooter", "name": "0e488b94271091aa4cd24f0dedd02d6d", "is_reserved": 0, "rental_uris": {"ios": "https://dc.lft.to/lastmile_qr_scan", "android": "https://dc.lft.to/lastmile_qr_scan"}}, {"fusion_lat": 0.0, "is_disabled": 0, "lat": 38.89719783333334, "lon": -77.02992783333333, "fusion_lon": 0.0, "bike_id": "6ebd0a99873616e62f6f0cb906c1aeaf", "type": "electric_scooter", "name": "6ebd0a99873616e62f6f0cb906c1aeaf", "is_reserved": 0, "rental_uris": {"ios": "https://dc.lft.to/lastmile_qr_scan", "android": "https://dc.lft.to/lastmile_qr_scan"}}, {"fusion_lat": 0.0, "is_disabled": 0, "lat": 38.903933333333335, "lon": -77.04362166666667, "fusion_lon": 0.0, "bike_id": "a4f5b4ea99a3110d5106b182274711af", "type": "electric_scooter", "name": "a4f5b4ea99a3110d5106b182274711af", "is_reserved": 0, "rental_uris": {"ios": "https://dc.lft.to/lastmile_qr_scan", "android": "https://dc.lft.to/lastmile_qr_scan"}}, {"fusion_lat": 0.0, "is_disabled": 0, "lat": 38.87899983333333, "lon": -77.01369183333334, "fusion_lon": 0.0, "bike_id": "04f36a8dfbc154d7752a150b3ea20096", "type": "electric_scooter", "name": "04f36a8dfbc154d7752a150b3ea20096", "is_reserved": 0, "rental_uris": {"ios": "https://dc.lft.to/lastmile_qr_scan", "android": "https://dc.lft.to/lastmile_qr_scan"}}, {"fusion_lat": 0.0, "is_disabled": 0, "lat": 38.923071166666666, "lon": -77.02963666666666, "fusion_lon": 0.0, "bike_id": "19932b8fb186e68a2df949babdaed199", "type": "electric_scooter", "name": "19932b8fb186e68a2df949babdaed199", "is_reserved": 0, "rental_uris": {"ios": "https://dc.lft.to/lastmile_qr_scan", "android": "https://dc.lft.to/lastmile_qr_scan"}}, {"fusion_lat": 0.0, "is_disabled": 0, "lat": 38.89518066666667, "lon": -77.04479783333333, "fusion_lon": 0.0, "bike_id": "c1cbbba404f958997474a7033d5eb7a7", "type": "electric_scooter", "name": "c1cbbba404f958997474a7033d5eb7a7", "is_reserved": 0, "rental_uris": {"ios": "https://dc.lft.to/lastmile_qr_scan", "android": "https://dc.lft.to/lastmile_qr_scan"}}, {"fusion_lat": 0.0, "is_disabled": 0, "lat": 38.908766166666666, "lon": -77.07437466666667, "fusion_lon": 0.0, "bike_id": "a1ba81c57005a8aea19b14bfaedeb267", "type": "electric_scooter", "name": "a1ba81c57005a8aea19b14bfaedeb267", "is_reserved": 0, "rental_uris": {"ios": "https://dc.lft.to/lastmile_qr_scan", "android": "https://dc.lft.to/lastmile_qr_scan"}}, {"fusion_lat": 0.0, "is_disabled": 0, "lat": 38.9056265, "lon": -77.05699, "fusion_lon": 0.0, "bike_id": "2689eee68c2c9b0a647ca5a1d364078f", "type": "electric_scooter", "name": "2689eee68c2c9b0a647ca5a1d364078f", "is_reserved": 0, "rental_uris": {"ios": "https://dc.lft.to/lastmile_qr_scan", "android": "https://dc.lft.to/lastmile_qr_scan"}}, {"fusion_lat": 0.0, "is_disabled": 0, "lat": 38.90808666666667, "lon": -77.03387116666667, "fusion_lon": 0.0, "bike_id": "b92d7dabc41fafdc5536c0bc77a9eb7a", "type": "electric_scooter", "name": "b92d7dabc41fafdc5536c0bc77a9eb7a", "is_reserved": 0, "rental_uris": {"ios": "https://dc.lft.to/lastmile_qr_scan", "android": "https://dc.lft.to/lastmile_qr_scan"}}, {"fusion_lat": 0.0, "is_disabled": 0, "lat": 38.89952866666667, "lon": -77.04767166666667, "fusion_lon": 0.0, "bike_id": "c6fe7518739bb959a88fb927bb105d8e", "type": "electric_scooter", "name": "c6fe7518739bb959a88fb927bb105d8e", "is_reserved": 0, "rental_uris": {"ios": "https://dc.lft.to/lastmile_qr_scan", "android": "https://dc.lft.to/lastmile_qr_scan"}}, {"fusion_lat": 0.0, "is_disabled": 0, "lat": 38.846721, "lon": -77.13934733333333, "fusion_lon": 0.0, "bike_id": "5cfb87e591aa83dde14fe6b9ce343a7e", "type": "electric_bike", "name": "5cfb87e591aa83dde14fe6b9ce343a7e", "is_reserved": 0, "rental_uris": {"ios": "https://dc.lft.to/lastmile_qr_scan", "android": "https://dc.lft.to/lastmile_qr_scan"}}, {"fusion_lat": 0.0, "is_disabled": 0, "lat": 38.88972666666667, "lon": -76.9803735, "fusion_lon": 0.0, "bike_id": "1ee0e575427ef94c819de876881d0a4d", "type": "electric_scooter", "name": "1ee0e575427ef94c819de876881d0a4d", "is_reserved": 0, "rental_uris": {"ios": "https://dc.lft.to/lastmile_qr_scan", "android": "https://dc.lft.to/lastmile_qr_scan"}}, {"fusion_lat": 0.0, "is_disabled": 0, "lat": 38.91543866666667, "lon": -77.05104616666667, "fusion_lon": 0.0, "bike_id": "b1f82c333d7c9aafae71cf3f3ca3d084", "type": "electric_scooter", "name": "b1f82c333d7c9aafae71cf3f3ca3d084", "is_reserved": 0, "rental_uris": {"ios": "https://dc.lft.to/lastmile_qr_scan", "android": "https://dc.lft.to/lastmile_qr_scan"}}, {"fusion_lat": 0.0, "is_disabled": 0, "lat": 38.91315083333333, "lon": -77.0454565, "fusion_lon": 0.0, "bike_id": "669e1331ad04b248e4bfe9c48e08d436", "type": "electric_scooter", "name": "669e1331ad04b248e4bfe9c48e08d436", "is_reserved": 0, "rental_uris": {"ios": "https://dc.lft.to/lastmile_qr_scan", "android": "https://dc.lft.to/lastmile_qr_scan"}}, {"fusion_lat": 0.0, "is_disabled": 0, "lat": 38.89618016666667, "lon": -76.90754866666667, "fusion_lon": 0.0, "bike_id": "558b95e63dc002f4adec9829b0ca4c0a", "type": "electric_bike", "name": "558b95e63dc002f4adec9829b0ca4c0a", "is_reserved": 0, "rental_uris": {"ios": "https://dc.lft.to/lastmile_qr_scan", "android": "https://dc.lft.to/lastmile_qr_scan"}}, {"fusion_lat": 0.0, "is_disabled": 0, "lat": 38.94261983333333, "lon": -77.0284065, "fusion_lon": 0.0, "bike_id": "60709b6a4e556e2dbc47ed873825dbd9", "type": "electric_bike", "name": "60709b6a4e556e2dbc47ed873825dbd9", "is_reserved": 0, "rental_uris": {"ios": "https://dc.lft.to/lastmile_qr_scan", "android": "https://dc.lft.to/lastmile_qr_scan"}}, {"fusion_lat": 0.0, "is_disabled": 0, "lat": 38.892940833333334, "lon": -77.021788, "fusion_lon": 0.0, "bike_id": "93037d9e7c522a7a634535448d2985b1", "type": "electric_scooter", "name": "93037d9e7c522a7a634535448d2985b1", "is_reserved": 0, "rental_uris": {"ios": "https://dc.lft.to/lastmile_qr_scan", "android": "https://dc.lft.to/lastmile_qr_scan"}}, {"fusion_lat": 0.0, "is_disabled": 0, "lat": 38.9084565, "lon": -77.0019935, "fusion_lon": 0.0, "bike_id": "f229211ee46074ec427e7fca28303c90", "type": "electric_scooter", "name": "f229211ee46074ec427e7fca28303c90", "is_reserved": 0, "rental_uris": {"ios": "https://dc.lft.to/lastmile_qr_scan", "android": "https://dc.lft.to/lastmile_qr_scan"}}, {"fusion_lat": 0.0, "is_disabled": 0, "lat": 38.92236833333333, "lon": -77.03656266666667, "fusion_lon": 0.0, "bike_id": "af585499b325d581916deb1bdf393055", "type": "electric_scooter", "name": "af585499b325d581916deb1bdf393055", "is_reserved": 0, "rental_uris": {"ios": "https://dc.lft.to/lastmile_qr_scan", "android": "https://dc.lft.to/lastmile_qr_scan"}}, {"fusion_lat": 0.0, "is_disabled": 0, "lat": 38.91255066666667, "lon": -77.0387195, "fusion_lon": 0.0, "bike_id": "b6d122a8c07c34f39c39ec08ab86ef83", "type": "electric_scooter", "name": "b6d122a8c07c34f39c39ec08ab86ef83", "is_reserved": 0, "rental_uris": {"ios": "https://dc.lft.to/lastmile_qr_scan", "android": "https://dc.lft.to/lastmile_qr_scan"}}, {"fusion_lat": 0.0, "is_disabled": 0, "lat": 38.92146366666667, "lon": -77.02211016666666, "fusion_lon": 0.0, "bike_id": "07d5a16ddc569f2d51578c5def6d9423", "type": "electric_scooter", "name": "07d5a16ddc569f2d51578c5def6d9423", "is_reserved": 0, "rental_uris": {"ios": "https://dc.lft.to/lastmile_qr_scan", "android": "https://dc.lft.to/lastmile_qr_scan"}}, {"fusion_lat": 0.0, "is_disabled": 0, "lat": 38.9334535, "lon": -76.99437666666667, "fusion_lon": 0.0, "bike_id": "abaa0832ff8abb1cd56297485b23d8b4", "type": "electric_scooter", "name": "abaa0832ff8abb1cd56297485b23d8b4", "is_reserved": 0, "rental_uris": {"ios": "https://dc.lft.to/lastmile_qr_scan", "android": "https://dc.lft.to/lastmile_qr_scan"}}, {"fusion_lat": 0.0, "is_disabled": 0, "lat": 38.9039195, "lon": -76.98944683333333, "fusion_lon": 0.0, "bike_id": "3db6882682466c57b5d9a8d1f5069fda", "type": "electric_scooter", "name": "3db6882682466c57b5d9a8d1f5069fda", "is_reserved": 0, "rental_uris": {"ios": "https://dc.lft.to/lastmile_qr_scan", "android": "https://dc.lft.to/lastmile_qr_scan"}}, {"fusion_lat": 0.0, "is_disabled": 0, "lat": 38.93463666666667, "lon": -77.05813166666667, "fusion_lon": 0.0, "bike_id": "7b5714637594b9d579dd6cf72bdd8920", "type": "electric_scooter", "name": "7b5714637594b9d579dd6cf72bdd8920", "is_reserved": 0, "rental_uris": {"ios": "https://dc.lft.to/lastmile_qr_scan", "android": "https://dc.lft.to/lastmile_qr_scan"}}, {"fusion_lat": 0.0, "is_disabled": 0, "lat": 38.90153766666667, "lon": -77.03397383333333, "fusion_lon": 0.0, "bike_id": "21a20c28d1b25e1d5bec45c3ed288f6c", "type": "electric_scooter", "name": "21a20c28d1b25e1d5bec45c3ed288f6c", "is_reserved": 0, "rental_uris": {"ios": "https://dc.lft.to/lastmile_qr_scan", "android": "https://dc.lft.to/lastmile_qr_scan"}}, {"fusion_lat": 0.0, "is_disabled": 0, "lat": 38.9035175, "lon": -77.03774816666666, "fusion_lon": 0.0, "bike_id": "2820fe675918b8aafd4f1d8d8e7619d6", "type": "electric_scooter", "name": "2820fe675918b8aafd4f1d8d8e7619d6", "is_reserved": 0, "rental_uris": {"ios": "https://dc.lft.to/lastmile_qr_scan", "android": "https://dc.lft.to/lastmile_qr_scan"}}, {"fusion_lat": 0.0, "is_disabled": 0, "lat": 38.8922115, "lon": -77.02165383333333, "fusion_lon": 0.0, "bike_id": "9c892339ca5ca9e7095be2afd0d5e856", "type": "electric_scooter", "name": "9c892339ca5ca9e7095be2afd0d5e856", "is_reserved": 0, "rental_uris": {"ios": "https://dc.lft.to/lastmile_qr_scan", "android": "https://dc.lft.to/lastmile_qr_scan"}}, {"fusion_lat": 0.0, "is_disabled": 0, "lat": 38.9171255, "lon": -77.03867066666666, "fusion_lon": 0.0, "bike_id": "b63a898031b012841d007b07baba19ca", "type": "electric_scooter", "name": "b63a898031b012841d007b07baba19ca", "is_reserved": 0, "rental_uris": {"ios": "https://dc.lft.to/lastmile_qr_scan", "android": "https://dc.lft.to/lastmile_qr_scan"}}, {"fusion_lat": 0.0, "is_disabled": 0, "lat": 38.90572066666667, "lon": -77.03445033333334, "fusion_lon": 0.0, "bike_id": "657a5f40e01a079d867a2615af0669fe", "type": "electric_scooter", "name": "657a5f40e01a079d867a2615af0669fe", "is_reserved": 0, "rental_uris": {"ios": "https://dc.lft.to/lastmile_qr_scan", "android": "https://dc.lft.to/lastmile_qr_scan"}}, {"fusion_lat": 0.0, "is_disabled": 0, "lat": 38.92930283333333, "lon": -77.00672716666666, "fusion_lon": 0.0, "bike_id": "efa984c787fc5eabd366ed1b83e56a10", "type": "electric_scooter", "name": "efa984c787fc5eabd366ed1b83e56a10", "is_reserved": 0, "rental_uris": {"ios": "https://dc.lft.to/lastmile_qr_scan", "android": "https://dc.lft.to/lastmile_qr_scan"}}, {"fusion_lat": 0.0, "is_disabled": 0, "lat": 38.90339433333333, "lon": -77.04009266666667, "fusion_lon": 0.0, "bike_id": "23bc1b7bfd34cdda1647e3c55a56cfc7", "type": "electric_scooter", "name": "23bc1b7bfd34cdda1647e3c55a56cfc7", "is_reserved": 0, "rental_uris": {"ios": "https://dc.lft.to/lastmile_qr_scan", "android": "https://dc.lft.to/lastmile_qr_scan"}}, {"fusion_lat": 0.0, "is_disabled": 0, "lat": 38.897271833333335, "lon": -76.995112, "fusion_lon": 0.0, "bike_id": "baf1739cbe2f9a2b070263073ad94c03", "type": "electric_scooter", "name": "baf1739cbe2f9a2b070263073ad94c03", "is_reserved": 0, "rental_uris": {"ios": "https://dc.lft.to/lastmile_qr_scan", "android": "https://dc.lft.to/lastmile_qr_scan"}}, {"fusion_lat": 0.0, "is_disabled": 0, "lat": 38.892274, "lon": -77.04502983333333, "fusion_lon": 0.0, "bike_id": "91753f97c89f680f584c38a373e0b58f", "type": "electric_scooter", "name": "91753f97c89f680f584c38a373e0b58f", "is_reserved": 0, "rental_uris": {"ios": "https://dc.lft.to/lastmile_qr_scan", "android": "https://dc.lft.to/lastmile_qr_scan"}}, {"fusion_lat": 0.0, "is_disabled": 0, "lat": 38.92312483333333, "lon": -77.04216933333333, "fusion_lon": 0.0, "bike_id": "ad8e140c738fbe17ddb4033e35afe552", "type": "electric_scooter", "name": "ad8e140c738fbe17ddb4033e35afe552", "is_reserved": 0, "rental_uris": {"ios": "https://dc.lft.to/lastmile_qr_scan", "android": "https://dc.lft.to/lastmile_qr_scan"}}, {"fusion_lat": 0.0, "is_disabled": 0, "lat": 38.957767833333335, "lon": -77.02832583333333, "fusion_lon": 0.0, "bike_id": "e90d49878dca6c329a9255ebcb1c351e", "type": "electric_scooter", "name": "e90d49878dca6c329a9255ebcb1c351e", "is_reserved": 0, "rental_uris": {"ios": "https://dc.lft.to/lastmile_qr_scan", "android": "https://dc.lft.to/lastmile_qr_scan"}}, {"fusion_lat": 0.0, "is_disabled": 0, "lat": 38.917107333333334, "lon": -77.03338083333334, "fusion_lon": 0.0, "bike_id": "ac76c322f213fed42e3dfa2c73470448", "type": "electric_scooter", "name": "ac76c322f213fed42e3dfa2c73470448", "is_reserved": 0, "rental_uris": {"ios": "https://dc.lft.to/lastmile_qr_scan", "android": "https://dc.lft.to/lastmile_qr_scan"}}, {"fusion_lat": 0.0, "is_disabled": 0, "lat": 38.89491366666667, "lon": -77.00969216666667, "fusion_lon": 0.0, "bike_id": "082e2eec792bb2bd9f7fb7d443c30c3b", "type": "electric_scooter", "name": "082e2eec792bb2bd9f7fb7d443c30c3b", "is_reserved": 0, "rental_uris": {"ios": "https://dc.lft.to/lastmile_qr_scan", "android": "https://dc.lft.to/lastmile_qr_scan"}}, {"fusion_lat": 0.0, "is_disabled": 0, "lat": 38.901936, "lon": -76.98209033333333, "fusion_lon": 0.0, "bike_id": "e16bbebcb74dca67dc80dbf7bedd85e9", "type": "electric_scooter", "name": "e16bbebcb74dca67dc80dbf7bedd85e9", "is_reserved": 0, "rental_uris": {"ios": "https://dc.lft.to/lastmile_qr_scan", "android": "https://dc.lft.to/lastmile_qr_scan"}}, {"fusion_lat": 0.0, "is_disabled": 0, "lat": 38.92371983333334, "lon": -77.05149633333333, "fusion_lon": 0.0, "bike_id": "2bfcd907cf2a8c77773bda409835958c", "type": "electric_scooter", "name": "2bfcd907cf2a8c77773bda409835958c", "is_reserved": 0, "rental_uris": {"ios": "https://dc.lft.to/lastmile_qr_scan", "android": "https://dc.lft.to/lastmile_qr_scan"}}, {"fusion_lat": 0.0, "is_disabled": 0, "lat": 38.925019, "lon": -77.0215945, "fusion_lon": 0.0, "bike_id": "fd8fdfbe39f278d0c1dcac1ad3042d60", "type": "electric_scooter", "name": "fd8fdfbe39f278d0c1dcac1ad3042d60", "is_reserved": 0, "rental_uris": {"ios": "https://dc.lft.to/lastmile_qr_scan", "android": "https://dc.lft.to/lastmile_qr_scan"}}, {"fusion_lat": 0.0, "is_disabled": 0, "lat": 38.926835833333335, "lon": -77.05442166666667, "fusion_lon": 0.0, "bike_id": "48679835454fcd978fc2f1a25ca71e31", "type": "electric_scooter", "name": "48679835454fcd978fc2f1a25ca71e31", "is_reserved": 0, "rental_uris": {"ios": "https://dc.lft.to/lastmile_qr_scan", "android": "https://dc.lft.to/lastmile_qr_scan"}}, {"fusion_lat": 0.0, "is_disabled": 0, "lat": 38.86488033333333, "lon": -76.97743116666666, "fusion_lon": 0.0, "bike_id": "9c612133235fbad877316a9601e26188", "type": "electric_bike", "name": "9c612133235fbad877316a9601e26188", "is_reserved": 0, "rental_uris": {"ios": "https://dc.lft.to/lastmile_qr_scan", "android": "https://dc.lft.to/lastmile_qr_scan"}}, {"fusion_lat": 0.0, "is_disabled": 0, "lat": 38.898395666666666, "lon": -77.041113, "fusion_lon": 0.0, "bike_id": "aa747ca529c28a097ecd890d02ec024e", "type": "electric_scooter", "name": "aa747ca529c28a097ecd890d02ec024e", "is_reserved": 0, "rental_uris": {"ios": "https://dc.lft.to/lastmile_qr_scan", "android": "https://dc.lft.to/lastmile_qr_scan"}}, {"fusion_lat": 0.0, "is_disabled": 0, "lat": 38.90264066666667, "lon": -77.03914016666667, "fusion_lon": 0.0, "bike_id": "3c7c3df0a51856f09b6800593932778b", "type": "electric_scooter", "name": "3c7c3df0a51856f09b6800593932778b", "is_reserved": 0, "rental_uris": {"ios": "https://dc.lft.to/lastmile_qr_scan", "android": "https://dc.lft.to/lastmile_qr_scan"}}, {"fusion_lat": 0.0, "is_disabled": 0, "lat": 38.892255166666665, "lon": -77.04803166666666, "fusion_lon": 0.0, "bike_id": "e29b2c64e312afb7181a9c0e49953192", "type": "electric_scooter", "name": "e29b2c64e312afb7181a9c0e49953192", "is_reserved": 0, "rental_uris": {"ios": "https://dc.lft.to/lastmile_qr_scan", "android": "https://dc.lft.to/lastmile_qr_scan"}}, {"fusion_lat": 0.0, "is_disabled": 0, "lat": 38.88852716666667, "lon": -76.97715483333333, "fusion_lon": 0.0, "bike_id": "d6f57f1f4cad95606f35f38af139f736", "type": "electric_scooter", "name": "d6f57f1f4cad95606f35f38af139f736", "is_reserved": 0, "rental_uris": {"ios": "https://dc.lft.to/lastmile_qr_scan", "android": "https://dc.lft.to/lastmile_qr_scan"}}, {"fusion_lat": 0.0, "is_disabled": 0, "lat": 38.932378, "lon": -76.99723083333333, "fusion_lon": 0.0, "bike_id": "d48837c765d9ec71151d9a59b838c746", "type": "electric_bike", "name": "d48837c765d9ec71151d9a59b838c746", "is_reserved": 0, "rental_uris": {"ios": "https://dc.lft.to/lastmile_qr_scan", "android": "https://dc.lft.to/lastmile_qr_scan"}}, {"fusion_lat": 0.0, "is_disabled": 0, "lat": 38.9267475, "lon": -77.02744566666667, "fusion_lon": 0.0, "bike_id": "c9b32178361635df684c4170827d3924", "type": "electric_scooter", "name": "c9b32178361635df684c4170827d3924", "is_reserved": 0, "rental_uris": {"ios": "https://dc.lft.to/lastmile_qr_scan", "android": "https://dc.lft.to/lastmile_qr_scan"}}, {"fusion_lat": 0.0, "is_disabled": 0, "lat": 38.90819333333334, "lon": -77.0393905, "fusion_lon": 0.0, "bike_id": "87a4f8a01225d4bcad47f65cd12267c0", "type": "electric_scooter", "name": "87a4f8a01225d4bcad47f65cd12267c0", "is_reserved": 0, "rental_uris": {"ios": "https://dc.lft.to/lastmile_qr_scan", "android": "https://dc.lft.to/lastmile_qr_scan"}}, {"fusion_lat": 0.0, "is_disabled": 0, "lat": 38.92329816666667, "lon": -77.0368, "fusion_lon": 0.0, "bike_id": "68ab4594c5d44900ad038b4c4d32833d", "type": "electric_scooter", "name": "68ab4594c5d44900ad038b4c4d32833d", "is_reserved": 0, "rental_uris": {"ios": "https://dc.lft.to/lastmile_qr_scan", "android": "https://dc.lft.to/lastmile_qr_scan"}}, {"fusion_lat": 0.0, "is_disabled": 0, "lat": 38.91616883333333, "lon": -77.0239335, "fusion_lon": 0.0, "bike_id": "10d7dc4b468c6f9d90381ffe2fded86f", "type": "electric_scooter", "name": "10d7dc4b468c6f9d90381ffe2fded86f", "is_reserved": 0, "rental_uris": {"ios": "https://dc.lft.to/lastmile_qr_scan", "android": "https://dc.lft.to/lastmile_qr_scan"}}, {"fusion_lat": 0.0, "is_disabled": 0, "lat": 38.933117833333334, "lon": -77.03183366666667, "fusion_lon": 0.0, "bike_id": "6f8e361d4d5ebffec0fb3f0dc7ee170b", "type": "electric_scooter", "name": "6f8e361d4d5ebffec0fb3f0dc7ee170b", "is_reserved": 0, "rental_uris": {"ios": "https://dc.lft.to/lastmile_qr_scan", "android": "https://dc.lft.to/lastmile_qr_scan"}}, {"fusion_lat": 0.0, "is_disabled": 0, "lat": 38.91113683333333, "lon": -77.03835666666667, "fusion_lon": 0.0, "bike_id": "c7117d5cac988035e343a8bc5949305c", "type": "electric_scooter", "name": "c7117d5cac988035e343a8bc5949305c", "is_reserved": 0, "rental_uris": {"ios": "https://dc.lft.to/lastmile_qr_scan", "android": "https://dc.lft.to/lastmile_qr_scan"}}, {"fusion_lat": 0.0, "is_disabled": 0, "lat": 38.90460316666667, "lon": -77.0344095, "fusion_lon": 0.0, "bike_id": "0e183dcc2abc01da4ec03769159a5bf2", "type": "electric_scooter", "name": "0e183dcc2abc01da4ec03769159a5bf2", "is_reserved": 0, "rental_uris": {"ios": "https://dc.lft.to/lastmile_qr_scan", "android": "https://dc.lft.to/lastmile_qr_scan"}}, {"fusion_lat": 0.0, "is_disabled": 0, "lat": 38.89259716666667, "lon": -77.05024866666666, "fusion_lon": 0.0, "bike_id": "49fafbf3c3baa80b433aa6c88360780f", "type": "electric_scooter", "name": "49fafbf3c3baa80b433aa6c88360780f", "is_reserved": 0, "rental_uris": {"ios": "https://dc.lft.to/lastmile_qr_scan", "android": "https://dc.lft.to/lastmile_qr_scan"}}, {"fusion_lat": 0.0, "is_disabled": 0, "lat": 38.87642983333333, "lon": -76.935458, "fusion_lon": 0.0, "bike_id": "7991adf6409da8992758f18ccb4dab87", "type": "electric_bike", "name": "7991adf6409da8992758f18ccb4dab87", "is_reserved": 0, "rental_uris": {"ios": "https://dc.lft.to/lastmile_qr_scan", "android": "https://dc.lft.to/lastmile_qr_scan"}}, {"fusion_lat": 0.0, "is_disabled": 0, "lat": 38.884799666666666, "lon": -77.03344016666667, "fusion_lon": 0.0, "bike_id": "dc7bbea7fbb3f2aadb6468947fb7c1b8", "type": "electric_scooter", "name": "dc7bbea7fbb3f2aadb6468947fb7c1b8", "is_reserved": 0, "rental_uris": {"ios": "https://dc.lft.to/lastmile_qr_scan", "android": "https://dc.lft.to/lastmile_qr_scan"}}, {"fusion_lat": 0.0, "is_disabled": 0, "lat": 38.91117833333333, "lon": -77.04462333333333, "fusion_lon": 0.0, "bike_id": "844959e5e4b338af025198b51ed19106", "type": "electric_scooter", "name": "844959e5e4b338af025198b51ed19106", "is_reserved": 0, "rental_uris": {"ios": "https://dc.lft.to/lastmile_qr_scan", "android": "https://dc.lft.to/lastmile_qr_scan"}}, {"fusion_lat": 0.0, "is_disabled": 0, "lat": 38.910978666666665, "lon": -77.04485783333334, "fusion_lon": 0.0, "bike_id": "270210167a267d9577bfd876116fdf08", "type": "electric_scooter", "name": "270210167a267d9577bfd876116fdf08", "is_reserved": 0, "rental_uris": {"ios": "https://dc.lft.to/lastmile_qr_scan", "android": "https://dc.lft.to/lastmile_qr_scan"}}, {"fusion_lat": 0.0, "is_disabled": 0, "lat": 38.906642833333336, "lon": -77.02696083333333, "fusion_lon": 0.0, "bike_id": "f74d063e65af5e5d70f9b9b50c1ded74", "type": "electric_scooter", "name": "f74d063e65af5e5d70f9b9b50c1ded74", "is_reserved": 0, "rental_uris": {"ios": "https://dc.lft.to/lastmile_qr_scan", "android": "https://dc.lft.to/lastmile_qr_scan"}}, {"fusion_lat": 0.0, "is_disabled": 0, "lat": 38.89710733333333, "lon": -77.02291033333333, "fusion_lon": 0.0, "bike_id": "eb92cdb3d5299d5606955fc100a489b7", "type": "electric_scooter", "name": "eb92cdb3d5299d5606955fc100a489b7", "is_reserved": 0, "rental_uris": {"ios": "https://dc.lft.to/lastmile_qr_scan", "android": "https://dc.lft.to/lastmile_qr_scan"}}, {"fusion_lat": 0.0, "is_disabled": 0, "lat": 38.926948, "lon": -77.0077155, "fusion_lon": 0.0, "bike_id": "545a008853708fc4ede65dafff65f2b6", "type": "electric_scooter", "name": "545a008853708fc4ede65dafff65f2b6", "is_reserved": 0, "rental_uris": {"ios": "https://dc.lft.to/lastmile_qr_scan", "android": "https://dc.lft.to/lastmile_qr_scan"}}, {"fusion_lat": 0.0, "is_disabled": 0, "lat": 38.92757983333333, "lon": -77.03203233333333, "fusion_lon": 0.0, "bike_id": "7af54cc94eab615fead0dbc9dac86451", "type": "electric_scooter", "name": "7af54cc94eab615fead0dbc9dac86451", "is_reserved": 0, "rental_uris": {"ios": "https://dc.lft.to/lastmile_qr_scan", "android": "https://dc.lft.to/lastmile_qr_scan"}}, {"fusion_lat": 0.0, "is_disabled": 0, "lat": 38.90318966666667, "lon": -77.0189145, "fusion_lon": 0.0, "bike_id": "bfe7865138a09b7b88ad29d6605ee514", "type": "electric_scooter", "name": "bfe7865138a09b7b88ad29d6605ee514", "is_reserved": 0, "rental_uris": {"ios": "https://dc.lft.to/lastmile_qr_scan", "android": "https://dc.lft.to/lastmile_qr_scan"}}, {"fusion_lat": 0.0, "is_disabled": 0, "lat": 38.87515066666667, "lon": -77.11761416666667, "fusion_lon": 0.0, "bike_id": "9764eae88fe8ae246e3d16260cce4b75", "type": "electric_bike", "name": "9764eae88fe8ae246e3d16260cce4b75", "is_reserved": 0, "rental_uris": {"ios": "https://dc.lft.to/lastmile_qr_scan", "android": "https://dc.lft.to/lastmile_qr_scan"}}, {"fusion_lat": 0.0, "is_disabled": 0, "lat": 38.90232483333333, "lon": -77.0192575, "fusion_lon": 0.0, "bike_id": "48c12d3fa44b42d6957590a02f11f593", "type": "electric_scooter", "name": "48c12d3fa44b42d6957590a02f11f593", "is_reserved": 0, "rental_uris": {"ios": "https://dc.lft.to/lastmile_qr_scan", "android": "https://dc.lft.to/lastmile_qr_scan"}}, {"fusion_lat": 0.0, "is_disabled": 0, "lat": 38.89969266666667, "lon": -77.01591966666666, "fusion_lon": 0.0, "bike_id": "0fd1db8ea49efb1c3c4df7f7477d2be7", "type": "electric_scooter", "name": "0fd1db8ea49efb1c3c4df7f7477d2be7", "is_reserved": 0, "rental_uris": {"ios": "https://dc.lft.to/lastmile_qr_scan", "android": "https://dc.lft.to/lastmile_qr_scan"}}, {"fusion_lat": 0.0, "is_disabled": 0, "lat": 38.91602433333333, "lon": -77.03856616666667, "fusion_lon": 0.0, "bike_id": "6496ac608d636d39507b3857648567cd", "type": "electric_scooter", "name": "6496ac608d636d39507b3857648567cd", "is_reserved": 0, "rental_uris": {"ios": "https://dc.lft.to/lastmile_qr_scan", "android": "https://dc.lft.to/lastmile_qr_scan"}}, {"fusion_lat": 0.0, "is_disabled": 0, "lat": 38.918080833333335, "lon": -77.04155233333333, "fusion_lon": 0.0, "bike_id": "e047491a5080950ff284c15b756fef4e", "type": "electric_scooter", "name": "e047491a5080950ff284c15b756fef4e", "is_reserved": 0, "rental_uris": {"ios": "https://dc.lft.to/lastmile_qr_scan", "android": "https://dc.lft.to/lastmile_qr_scan"}}, {"fusion_lat": 0.0, "is_disabled": 0, "lat": 38.985653, "lon": -77.08745783333333, "fusion_lon": 0.0, "bike_id": "5e9d5e5f344e661cdea5434ef0cf111f", "type": "electric_bike", "name": "5e9d5e5f344e661cdea5434ef0cf111f", "is_reserved": 0, "rental_uris": {"ios": "https://dc.lft.to/lastmile_qr_scan", "android": "https://dc.lft.to/lastmile_qr_scan"}}, {"fusion_lat": 0.0, "is_disabled": 0, "lat": 38.892246, "lon": -77.04643533333333, "fusion_lon": 0.0, "bike_id": "a1f47bc96fa40f18fe9037726c9e82f8", "type": "electric_scooter", "name": "a1f47bc96fa40f18fe9037726c9e82f8", "is_reserved": 0, "rental_uris": {"ios": "https://dc.lft.to/lastmile_qr_scan", "android": "https://dc.lft.to/lastmile_qr_scan"}}, {"fusion_lat": 0.0, "is_disabled": 0, "lat": 38.898829, "lon": -77.032706, "fusion_lon": 0.0, "bike_id": "365fba9095c4ac5f390436819f482130", "type": "electric_scooter", "name": "365fba9095c4ac5f390436819f482130", "is_reserved": 0, "rental_uris": {"ios": "https://dc.lft.to/lastmile_qr_scan", "android": "https://dc.lft.to/lastmile_qr_scan"}}, {"fusion_lat": 0.0, "is_disabled": 0, "lat": 38.899892666666666, "lon": -77.04817433333334, "fusion_lon": 0.0, "bike_id": "697f6760e5fe37f6c2c96cc676c08a95", "type": "electric_scooter", "name": "697f6760e5fe37f6c2c96cc676c08a95", "is_reserved": 0, "rental_uris": {"ios": "https://dc.lft.to/lastmile_qr_scan", "android": "https://dc.lft.to/lastmile_qr_scan"}}, {"fusion_lat": 0.0, "is_disabled": 0, "lat": 38.901406, "lon": -77.0321355, "fusion_lon": 0.0, "bike_id": "d45cb5d5f702407408599317665693c3", "type": "electric_scooter", "name": "d45cb5d5f702407408599317665693c3", "is_reserved": 0, "rental_uris": {"ios": "https://dc.lft.to/lastmile_qr_scan", "android": "https://dc.lft.to/lastmile_qr_scan"}}, {"fusion_lat": 0.0, "is_disabled": 0, "lat": 38.80978733333333, "lon": -77.0766285, "fusion_lon": 0.0, "bike_id": "443c7e97b887d756f6878f775c076a6d", "type": "electric_bike", "name": "443c7e97b887d756f6878f775c076a6d", "is_reserved": 0, "rental_uris": {"ios": "https://dc.lft.to/lastmile_qr_scan", "android": "https://dc.lft.to/lastmile_qr_scan"}}, {"fusion_lat": 0.0, "is_disabled": 0, "lat": 38.924631, "lon": -77.022429, "fusion_lon": 0.0, "bike_id": "ba5b2e163c4b587b8a1fa852d91cfe78", "type": "electric_scooter", "name": "ba5b2e163c4b587b8a1fa852d91cfe78", "is_reserved": 0, "rental_uris": {"ios": "https://dc.lft.to/lastmile_qr_scan", "android": "https://dc.lft.to/lastmile_qr_scan"}}, {"fusion_lat": 0.0, "is_disabled": 0, "lat": 38.913615, "lon": -77.04493966666666, "fusion_lon": 0.0, "bike_id": "45872d2c6aef12eab2390fc7de27aa21", "type": "electric_scooter", "name": "45872d2c6aef12eab2390fc7de27aa21", "is_reserved": 0, "rental_uris": {"ios": "https://dc.lft.to/lastmile_qr_scan", "android": "https://dc.lft.to/lastmile_qr_scan"}}, {"fusion_lat": 0.0, "is_disabled": 0, "lat": 38.92008216666667, "lon": -77.04190333333334, "fusion_lon": 0.0, "bike_id": "9258feb779086ef05f22bd9db482f508", "type": "electric_scooter", "name": "9258feb779086ef05f22bd9db482f508", "is_reserved": 0, "rental_uris": {"ios": "https://dc.lft.to/lastmile_qr_scan", "android": "https://dc.lft.to/lastmile_qr_scan"}}, {"fusion_lat": 0.0, "is_disabled": 0, "lat": 38.892377833333335, "lon": -77.025139, "fusion_lon": 0.0, "bike_id": "43e6f94046ae223cd2f30c9ee6d7d90c", "type": "electric_scooter", "name": "43e6f94046ae223cd2f30c9ee6d7d90c", "is_reserved": 0, "rental_uris": {"ios": "https://dc.lft.to/lastmile_qr_scan", "android": "https://dc.lft.to/lastmile_qr_scan"}}, {"fusion_lat": 0.0, "is_disabled": 0, "lat": 38.910252666666665, "lon": -77.04504, "fusion_lon": 0.0, "bike_id": "d9eb26a3d4bbb8b5241c9d0051098643", "type": "electric_scooter", "name": "d9eb26a3d4bbb8b5241c9d0051098643", "is_reserved": 0, "rental_uris": {"ios": "https://dc.lft.to/lastmile_qr_scan", "android": "https://dc.lft.to/lastmile_qr_scan"}}, {"fusion_lat": 0.0, "is_disabled": 0, "lat": 38.91416666666667, "lon": -77.03177283333333, "fusion_lon": 0.0, "bike_id": "062aa2e3b5216b52d57ae8cd5ab609a7", "type": "electric_scooter", "name": "062aa2e3b5216b52d57ae8cd5ab609a7", "is_reserved": 0, "rental_uris": {"ios": "https://dc.lft.to/lastmile_qr_scan", "android": "https://dc.lft.to/lastmile_qr_scan"}}, {"fusion_lat": 0.0, "is_disabled": 0, "lat": 38.89911933333333, "lon": -76.93382383333334, "fusion_lon": 0.0, "bike_id": "503001121bc7c8dfe146294e8c517cfe", "type": "electric_scooter", "name": "503001121bc7c8dfe146294e8c517cfe", "is_reserved": 0, "rental_uris": {"ios": "https://dc.lft.to/lastmile_qr_scan", "android": "https://dc.lft.to/lastmile_qr_scan"}}, {"fusion_lat": 0.0, "is_disabled": 0, "lat": 38.923735, "lon": -77.02727433333334, "fusion_lon": 0.0, "bike_id": "db7a2245b723ae9ef14f6d59cb6568e3", "type": "electric_scooter", "name": "db7a2245b723ae9ef14f6d59cb6568e3", "is_reserved": 0, "rental_uris": {"ios": "https://dc.lft.to/lastmile_qr_scan", "android": "https://dc.lft.to/lastmile_qr_scan"}}, {"fusion_lat": 0.0, "is_disabled": 0, "lat": 38.81912, "lon": -77.12661533333333, "fusion_lon": 0.0, "bike_id": "547ed28126e6d02b7a3fc3029e36635f", "type": "electric_bike", "name": "547ed28126e6d02b7a3fc3029e36635f", "is_reserved": 0, "rental_uris": {"ios": "https://dc.lft.to/lastmile_qr_scan", "android": "https://dc.lft.to/lastmile_qr_scan"}}, {"fusion_lat": 0.0, "is_disabled": 0, "lat": 38.90787266666667, "lon": -77.07251483333333, "fusion_lon": 0.0, "bike_id": "45854968af6ae6b45416d38ceb1e685a", "type": "electric_scooter", "name": "45854968af6ae6b45416d38ceb1e685a", "is_reserved": 0, "rental_uris": {"ios": "https://dc.lft.to/lastmile_qr_scan", "android": "https://dc.lft.to/lastmile_qr_scan"}}, {"fusion_lat": 0.0, "is_disabled": 0, "lat": 38.916775333333334, "lon": -77.027172, "fusion_lon": 0.0, "bike_id": "4fb857a35a390e05ef3ed75e004e52a7", "type": "electric_scooter", "name": "4fb857a35a390e05ef3ed75e004e52a7", "is_reserved": 0, "rental_uris": {"ios": "https://dc.lft.to/lastmile_qr_scan", "android": "https://dc.lft.to/lastmile_qr_scan"}}, {"fusion_lat": 0.0, "is_disabled": 0, "lat": 38.87651783333333, "lon": -77.00082533333334, "fusion_lon": 0.0, "bike_id": "4b828d1ffa9b410a0a9f3c9084dff1f0", "type": "electric_scooter", "name": "4b828d1ffa9b410a0a9f3c9084dff1f0", "is_reserved": 0, "rental_uris": {"ios": "https://dc.lft.to/lastmile_qr_scan", "android": "https://dc.lft.to/lastmile_qr_scan"}}, {"fusion_lat": 0.0, "is_disabled": 0, "lat": 38.930938833333336, "lon": -77.02661633333334, "fusion_lon": 0.0, "bike_id": "78aa1bc897565cd7a9e117032f459a48", "type": "electric_scooter", "name": "78aa1bc897565cd7a9e117032f459a48", "is_reserved": 0, "rental_uris": {"ios": "https://dc.lft.to/lastmile_qr_scan", "android": "https://dc.lft.to/lastmile_qr_scan"}}, {"fusion_lat": 0.0, "is_disabled": 0, "lat": 38.882341333333336, "lon": -76.9949045, "fusion_lon": 0.0, "bike_id": "f44c59161dbb3748b7c1d01e335ef81f", "type": "electric_scooter", "name": "f44c59161dbb3748b7c1d01e335ef81f", "is_reserved": 0, "rental_uris": {"ios": "https://dc.lft.to/lastmile_qr_scan", "android": "https://dc.lft.to/lastmile_qr_scan"}}, {"fusion_lat": 0.0, "is_disabled": 0, "lat": 38.8983325, "lon": -77.02983883333333, "fusion_lon": 0.0, "bike_id": "e4069b34b93b4060afb74849cfb8b6e1", "type": "electric_scooter", "name": "e4069b34b93b4060afb74849cfb8b6e1", "is_reserved": 0, "rental_uris": {"ios": "https://dc.lft.to/lastmile_qr_scan", "android": "https://dc.lft.to/lastmile_qr_scan"}}, {"fusion_lat": 0.0, "is_disabled": 0, "lat": 38.91023233333333, "lon": -77.04342533333333, "fusion_lon": 0.0, "bike_id": "685d3366d72d01f63421fd854dcee5b4", "type": "electric_scooter", "name": "685d3366d72d01f63421fd854dcee5b4", "is_reserved": 0, "rental_uris": {"ios": "https://dc.lft.to/lastmile_qr_scan", "android": "https://dc.lft.to/lastmile_qr_scan"}}, {"fusion_lat": 0.0, "is_disabled": 0, "lat": 38.90567733333334, "lon": -77.041133, "fusion_lon": 0.0, "bike_id": "3df55ff3f147c10ecf2d9cf9eec3f6ff", "type": "electric_scooter", "name": "3df55ff3f147c10ecf2d9cf9eec3f6ff", "is_reserved": 0, "rental_uris": {"ios": "https://dc.lft.to/lastmile_qr_scan", "android": "https://dc.lft.to/lastmile_qr_scan"}}, {"fusion_lat": 0.0, "is_disabled": 0, "lat": 38.89727966666667, "lon": -77.0257, "fusion_lon": 0.0, "bike_id": "71172becc3f2a48e06cdef2331a824e7", "type": "electric_scooter", "name": "71172becc3f2a48e06cdef2331a824e7", "is_reserved": 0, "rental_uris": {"ios": "https://dc.lft.to/lastmile_qr_scan", "android": "https://dc.lft.to/lastmile_qr_scan"}}, {"fusion_lat": 0.0, "is_disabled": 0, "lat": 38.92482966666667, "lon": -77.022735, "fusion_lon": 0.0, "bike_id": "11bb2ab54e21e2a0d2ee7c5e2cf05817", "type": "electric_scooter", "name": "11bb2ab54e21e2a0d2ee7c5e2cf05817", "is_reserved": 0, "rental_uris": {"ios": "https://dc.lft.to/lastmile_qr_scan", "android": "https://dc.lft.to/lastmile_qr_scan"}}, {"fusion_lat": 0.0, "is_disabled": 0, "lat": 38.9465345, "lon": -77.02253666666667, "fusion_lon": 0.0, "bike_id": "828d6d702c4c38f902f9810a2b871458", "type": "electric_scooter", "name": "828d6d702c4c38f902f9810a2b871458", "is_reserved": 0, "rental_uris": {"ios": "https://dc.lft.to/lastmile_qr_scan", "android": "https://dc.lft.to/lastmile_qr_scan"}}, {"fusion_lat": 0.0, "is_disabled": 0, "lat": 38.90665766666667, "lon": -77.026951, "fusion_lon": 0.0, "bike_id": "d9ea131ca8ba3fc31cfe1a1fc64299d0", "type": "electric_scooter", "name": "d9ea131ca8ba3fc31cfe1a1fc64299d0", "is_reserved": 0, "rental_uris": {"ios": "https://dc.lft.to/lastmile_qr_scan", "android": "https://dc.lft.to/lastmile_qr_scan"}}, {"fusion_lat": 0.0, "is_disabled": 0, "lat": 38.89711116666667, "lon": -77.02207516666667, "fusion_lon": 0.0, "bike_id": "1125b45e9312e8619f60caf0710201a3", "type": "electric_scooter", "name": "1125b45e9312e8619f60caf0710201a3", "is_reserved": 0, "rental_uris": {"ios": "https://dc.lft.to/lastmile_qr_scan", "android": "https://dc.lft.to/lastmile_qr_scan"}}, {"fusion_lat": 0.0, "is_disabled": 0, "lat": 38.9185925, "lon": -76.96087833333333, "fusion_lon": 0.0, "bike_id": "696649fd8ec0ed8ef541a4901a92913a", "type": "electric_bike", "name": "696649fd8ec0ed8ef541a4901a92913a", "is_reserved": 0, "rental_uris": {"ios": "https://dc.lft.to/lastmile_qr_scan", "android": "https://dc.lft.to/lastmile_qr_scan"}}, {"fusion_lat": 0.0, "is_disabled": 0, "lat": 38.920534333333336, "lon": -77.0418715, "fusion_lon": 0.0, "bike_id": "fb25a918e6d6f5009c4bc24fd0a0a469", "type": "electric_scooter", "name": "fb25a918e6d6f5009c4bc24fd0a0a469", "is_reserved": 0, "rental_uris": {"ios": "https://dc.lft.to/lastmile_qr_scan", "android": "https://dc.lft.to/lastmile_qr_scan"}}, {"fusion_lat": 0.0, "is_disabled": 0, "lat": 38.91064733333333, "lon": -77.0448395, "fusion_lon": 0.0, "bike_id": "d9444166e428710aaccd048a57520103", "type": "electric_scooter", "name": "d9444166e428710aaccd048a57520103", "is_reserved": 0, "rental_uris": {"ios": "https://dc.lft.to/lastmile_qr_scan", "android": "https://dc.lft.to/lastmile_qr_scan"}}, {"fusion_lat": 0.0, "is_disabled": 0, "lat": 38.922385166666665, "lon": -77.0365805, "fusion_lon": 0.0, "bike_id": "666813eb3a0dcea75d14c56d5877c080", "type": "electric_scooter", "name": "666813eb3a0dcea75d14c56d5877c080", "is_reserved": 0, "rental_uris": {"ios": "https://dc.lft.to/lastmile_qr_scan", "android": "https://dc.lft.to/lastmile_qr_scan"}}, {"fusion_lat": 0.0, "is_disabled": 0, "lat": 38.90148166666667, "lon": -76.97424666666667, "fusion_lon": 0.0, "bike_id": "e81716def039f7152c5c9f20b7d9ecfe", "type": "electric_scooter", "name": "e81716def039f7152c5c9f20b7d9ecfe", "is_reserved": 0, "rental_uris": {"ios": "https://dc.lft.to/lastmile_qr_scan", "android": "https://dc.lft.to/lastmile_qr_scan"}}, {"fusion_lat": 0.0, "is_disabled": 0, "lat": 38.91486366666667, "lon": -77.02194083333333, "fusion_lon": 0.0, "bike_id": "4f4dad939dbc5cb4fd1bff93008cb604", "type": "electric_scooter", "name": "4f4dad939dbc5cb4fd1bff93008cb604", "is_reserved": 0, "rental_uris": {"ios": "https://dc.lft.to/lastmile_qr_scan", "android": "https://dc.lft.to/lastmile_qr_scan"}}, {"fusion_lat": 0.0, "is_disabled": 0, "lat": 38.82923866666667, "lon": -77.0686865, "fusion_lon": 0.0, "bike_id": "f4224f7182ff8f5dfb9f58ea0751bac1", "type": "electric_bike", "name": "f4224f7182ff8f5dfb9f58ea0751bac1", "is_reserved": 0, "rental_uris": {"ios": "https://dc.lft.to/lastmile_qr_scan", "android": "https://dc.lft.to/lastmile_qr_scan"}}, {"fusion_lat": 0.0, "is_disabled": 0, "lat": 38.92379966666667, "lon": -77.02932016666666, "fusion_lon": 0.0, "bike_id": "fb3755fc951caf9c9e7f19f4d4ab494e", "type": "electric_scooter", "name": "fb3755fc951caf9c9e7f19f4d4ab494e", "is_reserved": 0, "rental_uris": {"ios": "https://dc.lft.to/lastmile_qr_scan", "android": "https://dc.lft.to/lastmile_qr_scan"}}, {"fusion_lat": 0.0, "is_disabled": 0, "lat": 38.90983833333333, "lon": -77.04438866666666, "fusion_lon": 0.0, "bike_id": "2f1ad1cbb77d178f554b19fa02454007", "type": "electric_scooter", "name": "2f1ad1cbb77d178f554b19fa02454007", "is_reserved": 0, "rental_uris": {"ios": "https://dc.lft.to/lastmile_qr_scan", "android": "https://dc.lft.to/lastmile_qr_scan"}}, {"fusion_lat": 0.0, "is_disabled": 0, "lat": 38.89221883333333, "lon": -77.04366633333333, "fusion_lon": 0.0, "bike_id": "a554eba8e6de912716814b2e93d76f71", "type": "electric_scooter", "name": "a554eba8e6de912716814b2e93d76f71", "is_reserved": 0, "rental_uris": {"ios": "https://dc.lft.to/lastmile_qr_scan", "android": "https://dc.lft.to/lastmile_qr_scan"}}, {"fusion_lat": 0.0, "is_disabled": 0, "lat": 38.9275725, "lon": -77.032025, "fusion_lon": 0.0, "bike_id": "4d15b361a7869392459c3c6d5519a7aa", "type": "electric_scooter", "name": "4d15b361a7869392459c3c6d5519a7aa", "is_reserved": 0, "rental_uris": {"ios": "https://dc.lft.to/lastmile_qr_scan", "android": "https://dc.lft.to/lastmile_qr_scan"}}, {"fusion_lat": 0.0, "is_disabled": 0, "lat": 38.9063915, "lon": -77.06288766666667, "fusion_lon": 0.0, "bike_id": "ba4c644c32768d5104129ff87512599c", "type": "electric_scooter", "name": "ba4c644c32768d5104129ff87512599c", "is_reserved": 0, "rental_uris": {"ios": "https://dc.lft.to/lastmile_qr_scan", "android": "https://dc.lft.to/lastmile_qr_scan"}}, {"fusion_lat": 0.0, "is_disabled": 0, "lat": 38.90520683333333, "lon": -77.064527, "fusion_lon": 0.0, "bike_id": "95106cdef07922f457113a7880c86136", "type": "electric_scooter", "name": "95106cdef07922f457113a7880c86136", "is_reserved": 0, "rental_uris": {"ios": "https://dc.lft.to/lastmile_qr_scan", "android": "https://dc.lft.to/lastmile_qr_scan"}}, {"fusion_lat": 0.0, "is_disabled": 0, "lat": 38.906938333333336, "lon": -77.06306266666667, "fusion_lon": 0.0, "bike_id": "0046774075fe83aeddd1bcefe5621cfd", "type": "electric_scooter", "name": "0046774075fe83aeddd1bcefe5621cfd", "is_reserved": 0, "rental_uris": {"ios": "https://dc.lft.to/lastmile_qr_scan", "android": "https://dc.lft.to/lastmile_qr_scan"}}, {"fusion_lat": 0.0, "is_disabled": 0, "lat": 38.90550916666667, "lon": -77.03802966666667, "fusion_lon": 0.0, "bike_id": "6a9c9a07e314a4b00cf682268ed6d24d", "type": "electric_scooter", "name": "6a9c9a07e314a4b00cf682268ed6d24d", "is_reserved": 0, "rental_uris": {"ios": "https://dc.lft.to/lastmile_qr_scan", "android": "https://dc.lft.to/lastmile_qr_scan"}}, {"fusion_lat": 0.0, "is_disabled": 0, "lat": 38.916087166666664, "lon": -77.04846466666666, "fusion_lon": 0.0, "bike_id": "b1f54ce1dbe8905122c5974b558a3c9c", "type": "electric_scooter", "name": "b1f54ce1dbe8905122c5974b558a3c9c", "is_reserved": 0, "rental_uris": {"ios": "https://dc.lft.to/lastmile_qr_scan", "android": "https://dc.lft.to/lastmile_qr_scan"}}, {"fusion_lat": 0.0, "is_disabled": 0, "lat": 38.926719, "lon": -77.015129, "fusion_lon": 0.0, "bike_id": "92e1d1695b460812000235a4f4387f85", "type": "electric_scooter", "name": "92e1d1695b460812000235a4f4387f85", "is_reserved": 0, "rental_uris": {"ios": "https://dc.lft.to/lastmile_qr_scan", "android": "https://dc.lft.to/lastmile_qr_scan"}}, {"fusion_lat": 0.0, "is_disabled": 0, "lat": 38.90533466666667, "lon": -77.05326383333333, "fusion_lon": 0.0, "bike_id": "b50bedde57a9306558e4ff0a36310786", "type": "electric_scooter", "name": "b50bedde57a9306558e4ff0a36310786", "is_reserved": 0, "rental_uris": {"ios": "https://dc.lft.to/lastmile_qr_scan", "android": "https://dc.lft.to/lastmile_qr_scan"}}, {"fusion_lat": 0.0, "is_disabled": 0, "lat": 38.90291, "lon": -77.02218266666667, "fusion_lon": 0.0, "bike_id": "0f4739f266259fc03de403bfcff160a6", "type": "electric_scooter", "name": "0f4739f266259fc03de403bfcff160a6", "is_reserved": 0, "rental_uris": {"ios": "https://dc.lft.to/lastmile_qr_scan", "android": "https://dc.lft.to/lastmile_qr_scan"}}, {"fusion_lat": 0.0, "is_disabled": 0, "lat": 38.8991255, "lon": -76.93384283333333, "fusion_lon": 0.0, "bike_id": "0aadffb58e2e69f245ddeeb777afb6ed", "type": "electric_scooter", "name": "0aadffb58e2e69f245ddeeb777afb6ed", "is_reserved": 0, "rental_uris": {"ios": "https://dc.lft.to/lastmile_qr_scan", "android": "https://dc.lft.to/lastmile_qr_scan"}}, {"fusion_lat": 0.0, "is_disabled": 0, "lat": 38.890075333333336, "lon": -76.93741833333333, "fusion_lon": 0.0, "bike_id": "ee6e76bd281437563d087b80f728fa6d", "type": "electric_scooter", "name": "ee6e76bd281437563d087b80f728fa6d", "is_reserved": 0, "rental_uris": {"ios": "https://dc.lft.to/lastmile_qr_scan", "android": "https://dc.lft.to/lastmile_qr_scan"}}, {"fusion_lat": 0.0, "is_disabled": 0, "lat": 38.89830883333333, "lon": -77.0334875, "fusion_lon": 0.0, "bike_id": "5ebedf1d1efb2bc3e3076c606493dc49", "type": "electric_scooter", "name": "5ebedf1d1efb2bc3e3076c606493dc49", "is_reserved": 0, "rental_uris": {"ios": "https://dc.lft.to/lastmile_qr_scan", "android": "https://dc.lft.to/lastmile_qr_scan"}}, {"fusion_lat": 0.0, "is_disabled": 0, "lat": 38.9237065, "lon": -77.0195195, "fusion_lon": 0.0, "bike_id": "e690bbdb35ae38b61a5a10cd072bbd47", "type": "electric_scooter", "name": "e690bbdb35ae38b61a5a10cd072bbd47", "is_reserved": 0, "rental_uris": {"ios": "https://dc.lft.to/lastmile_qr_scan", "android": "https://dc.lft.to/lastmile_qr_scan"}}, {"fusion_lat": 0.0, "is_disabled": 0, "lat": 38.86754633333334, "lon": -76.9453585, "fusion_lon": 0.0, "bike_id": "6e0da577871b7453b52824d8173a6210", "type": "electric_bike", "name": "6e0da577871b7453b52824d8173a6210", "is_reserved": 0, "rental_uris": {"ios": "https://dc.lft.to/lastmile_qr_scan", "android": "https://dc.lft.to/lastmile_qr_scan"}}, {"fusion_lat": 0.0, "is_disabled": 0, "lat": 38.8922865, "lon": -77.0274735, "fusion_lon": 0.0, "bike_id": "320871599efea97d9fda78e07f0ffd7e", "type": "electric_scooter", "name": "320871599efea97d9fda78e07f0ffd7e", "is_reserved": 0, "rental_uris": {"ios": "https://dc.lft.to/lastmile_qr_scan", "android": "https://dc.lft.to/lastmile_qr_scan"}}, {"fusion_lat": 0.0, "is_disabled": 0, "lat": 38.90505666666667, "lon": -77.0603645, "fusion_lon": 0.0, "bike_id": "d579340f95f4dbe09896f654456edd7e", "type": "electric_scooter", "name": "d579340f95f4dbe09896f654456edd7e", "is_reserved": 0, "rental_uris": {"ios": "https://dc.lft.to/lastmile_qr_scan", "android": "https://dc.lft.to/lastmile_qr_scan"}}, {"fusion_lat": 0.0, "is_disabled": 0, "lat": 38.877099, "lon": -77.01769366666667, "fusion_lon": 0.0, "bike_id": "2f1f3b295703def3ec3a7a802dcbe693", "type": "electric_scooter", "name": "2f1f3b295703def3ec3a7a802dcbe693", "is_reserved": 0, "rental_uris": {"ios": "https://dc.lft.to/lastmile_qr_scan", "android": "https://dc.lft.to/lastmile_qr_scan"}}, {"fusion_lat": 0.0, "is_disabled": 0, "lat": 38.9024195, "lon": -77.0333985, "fusion_lon": 0.0, "bike_id": "ffa84b48e3929903d05d941f46860471", "type": "electric_scooter", "name": "ffa84b48e3929903d05d941f46860471", "is_reserved": 0, "rental_uris": {"ios": "https://dc.lft.to/lastmile_qr_scan", "android": "https://dc.lft.to/lastmile_qr_scan"}}, {"fusion_lat": 0.0, "is_disabled": 0, "lat": 38.92703566666667, "lon": -77.015106, "fusion_lon": 0.0, "bike_id": "5411102af8d9ae3e680203baa4775195", "type": "electric_scooter", "name": "5411102af8d9ae3e680203baa4775195", "is_reserved": 0, "rental_uris": {"ios": "https://dc.lft.to/lastmile_qr_scan", "android": "https://dc.lft.to/lastmile_qr_scan"}}, {"fusion_lat": 0.0, "is_disabled": 0, "lat": 38.908544666666664, "lon": -77.0100225, "fusion_lon": 0.0, "bike_id": "2758402d80bf0d91aafdb6ebcd7afb69", "type": "electric_scooter", "name": "2758402d80bf0d91aafdb6ebcd7afb69", "is_reserved": 0, "rental_uris": {"ios": "https://dc.lft.to/lastmile_qr_scan", "android": "https://dc.lft.to/lastmile_qr_scan"}}, {"fusion_lat": 0.0, "is_disabled": 0, "lat": 38.8921895, "lon": -77.02222366666666, "fusion_lon": 0.0, "bike_id": "345f19294bdbe5f0896769df65a0cf62", "type": "electric_scooter", "name": "345f19294bdbe5f0896769df65a0cf62", "is_reserved": 0, "rental_uris": {"ios": "https://dc.lft.to/lastmile_qr_scan", "android": "https://dc.lft.to/lastmile_qr_scan"}}, {"fusion_lat": 0.0, "is_disabled": 0, "lat": 38.924463, "lon": -77.02135733333333, "fusion_lon": 0.0, "bike_id": "bfba7fbb920a40edd9d3170aea3ad235", "type": "electric_scooter", "name": "bfba7fbb920a40edd9d3170aea3ad235", "is_reserved": 0, "rental_uris": {"ios": "https://dc.lft.to/lastmile_qr_scan", "android": "https://dc.lft.to/lastmile_qr_scan"}}, {"fusion_lat": 0.0, "is_disabled": 0, "lat": 38.9364185, "lon": -77.02457183333334, "fusion_lon": 0.0, "bike_id": "281406613e33d61406be32157d399fe6", "type": "electric_scooter", "name": "281406613e33d61406be32157d399fe6", "is_reserved": 0, "rental_uris": {"ios": "https://dc.lft.to/lastmile_qr_scan", "android": "https://dc.lft.to/lastmile_qr_scan"}}, {"fusion_lat": 0.0, "is_disabled": 0, "lat": 38.84053, "lon": -76.97667433333334, "fusion_lon": 0.0, "bike_id": "50d7a798f0392e381e0ec0efad4bc8bf", "type": "electric_scooter", "name": "50d7a798f0392e381e0ec0efad4bc8bf", "is_reserved": 0, "rental_uris": {"ios": "https://dc.lft.to/lastmile_qr_scan", "android": "https://dc.lft.to/lastmile_qr_scan"}}, {"fusion_lat": 0.0, "is_disabled": 0, "lat": 38.90237483333333, "lon": -77.00202683333333, "fusion_lon": 0.0, "bike_id": "b3e51bef9c0ac6c2fc1a84e964d3eb1c", "type": "electric_scooter", "name": "b3e51bef9c0ac6c2fc1a84e964d3eb1c", "is_reserved": 0, "rental_uris": {"ios": "https://dc.lft.to/lastmile_qr_scan", "android": "https://dc.lft.to/lastmile_qr_scan"}}, {"fusion_lat": 0.0, "is_disabled": 0, "lat": 38.92326933333333, "lon": -77.01956766666666, "fusion_lon": 0.0, "bike_id": "96f67b870982dbb5e86415e82fd9e53c", "type": "electric_scooter", "name": "96f67b870982dbb5e86415e82fd9e53c", "is_reserved": 0, "rental_uris": {"ios": "https://dc.lft.to/lastmile_qr_scan", "android": "https://dc.lft.to/lastmile_qr_scan"}}, {"fusion_lat": 0.0, "is_disabled": 0, "lat": 38.934469166666666, "lon": -77.08968333333334, "fusion_lon": 0.0, "bike_id": "e2061cfa65496b94b3c8ea3278f82683", "type": "electric_scooter", "name": "e2061cfa65496b94b3c8ea3278f82683", "is_reserved": 0, "rental_uris": {"ios": "https://dc.lft.to/lastmile_qr_scan", "android": "https://dc.lft.to/lastmile_qr_scan"}},