{"data": {"bikes": [{"name": "884043763290cfd054477337e498cb7c", "fusion_lon": 0.0, "lat": 38.89222616666667, "is_reserved": 0, "type": "electric_scooter", "bike_id": "884043763290cfd054477337e498cb7c", "is_disabled": 0, "rental_uris": {"android": "https://dc.lft.to/lastmile_qr_scan", "ios": "https://dc.lft.to/lastmile_qr_scan"}, "lon": -77.04085766666667, "fusion_lat": 0.0}, {"name": "d41758946bf9dce91ee0d5dc349fdb53", "fusion_lon": 0.0, "lat": 38.9141705, "is_reserved": 0, "type": "electric_scooter", "bike_id": "d41758946bf9dce91ee0d5dc349fdb53", "is_disabled": 0, "rental_uris": {"android": "https://dc.lft.to/lastmile_qr_scan", "ios": "https://dc.lft.to/lastmile_qr_scan"}, "lon": -77.04182, "fusion_lat": 0.0}, {"name": "55a580b7abd279c0100444a49dd58e74", "fusion_lon": 0.0, "lat": 38.924763, "is_reserved": 0, "type": "electric_scooter", "bike_id": "55a580b7abd279c0100444a49dd58e74", "is_disabled": 0, "rental_uris": {"android": "https://dc.lft.to/lastmile_qr_scan", "ios": "https://dc.lft.to/lastmile_qr_scan"}, "lon": -77.02841883333333, "fusion_lat": 0.0}, {"name": "e38c775f39a5e2fc11ec8fcc438ba127", "fusion_lon": 0.0, "lat": 38.9443895, "is_reserved": 0, "type": "electric_scooter", "bike_id": "e38c775f39a5e2fc11ec8fcc438ba127", "is_disabled": 0, "rental_uris": {"android": "https://dc.lft.to/lastmile_qr_scan", "ios": "https://dc.lft.to/lastmile_qr_scan"}, "lon": -77.063463, "fusion_lat": 0.0}, {"name": "38c2b0a56ec5890c5b9c056b2e25e7b3", "fusion_lon": 0.0, "lat": 38.91273183333333, "is_reserved": 0, "type": "electric_scooter", "bike_id": "38c2b0a56ec5890c5b9c056b2e25e7b3", "is_disabled": 0, "rental_uris": {"android": "https://dc.lft.to/lastmile_qr_scan", "ios": "https://dc.lft.to/lastmile_qr_scan"}, "lon": -77.02691066666667, "fusion_lat": 0.0}, {"name": "fb19e7389968b33dfee6a4c87e8410be", "fusion_lon": 0.0, "lat": 38.90140816666667, "is_reserved": 0, "type": "electric_scooter", "bike_id": "fb19e7389968b33dfee6a4c87e8410be", "is_disabled": 0, "rental_uris": {"android": "https://dc.lft.to/lastmile_qr_scan", "ios": "https://dc.lft.to/lastmile_qr_scan"}, "lon": -77.039768, "fusion_lat": 0.0}, {"name": "a0b5c46b051047408b31e7aeb0482516", "fusion_lon": 0.0, "lat": 38.917685666666664, "is_reserved": 0, "type": "electric_scooter", "bike_id": "a0b5c46b051047408b31e7aeb0482516", "is_disabled": 0, "rental_uris": {"android": "https://dc.lft.to/lastmile_qr_scan", "ios": "https://dc.lft.to/lastmile_qr_scan"}, "lon": -77.01469666666667, "fusion_lat": 0.0}, {"name": "76681597b959402f5c50f456c349090b", "fusion_lon": 0.0, "lat": 38.91600316666667, "is_reserved": 0, "type": "electric_scooter", "bike_id": "76681597b959402f5c50f456c349090b", "is_disabled": 0, "rental_uris": {"android": "https://dc.lft.to/lastmile_qr_scan", "ios": "https://dc.lft.to/lastmile_qr_scan"}, "lon": -77.03198166666667, "fusion_lat": 0.0}, {"name": "a1641ef62f364f3ddc355120b77c80d8", "fusion_lon": 0.0, "lat": 38.9037475, "is_reserved": 0, "type": "electric_scooter", "bike_id": "a1641ef62f364f3ddc355120b77c80d8", "is_disabled": 0, "rental_uris": {"android": "https://dc.lft.to/lastmile_qr_scan", "ios": "https://dc.lft.to/lastmile_qr_scan"}, "lon": -76.93771816666667, "fusion_lat": 0.0}, {"name": "21a2570b86565ae9b9708caa5d6ccb81", "fusion_lon": 0.0, "lat": 39.06294, "is_reserved": 0, "type": "electric_bike", "bike_id": "21a2570b86565ae9b9708caa5d6ccb81", "is_disabled": 0, "rental_uris": {"android": "https://dc.lft.to/lastmile_qr_scan", "ios": "https://dc.lft.to/lastmile_qr_scan"}, "lon": -77.04983516666667, "fusion_lat": 0.0}, {"name": "5b799e0c1e69ca74f18eb2bf23034981", "fusion_lon": 0.0, "lat": 38.9015565, "is_reserved": 0, "type": "electric_scooter", "bike_id": "5b799e0c1e69ca74f18eb2bf23034981", "is_disabled": 0, "rental_uris": {"android": "https://dc.lft.to/lastmile_qr_scan", "ios": "https://dc.lft.to/lastmile_qr_scan"}, "lon": -76.93061116666667, "fusion_lat": 0.0}, {"name": "7694e3136d7f8eeebe1e0ec0085a5253", "fusion_lon": 0.0, "lat": 38.9134335, "is_reserved": 0, "type": "electric_scooter", "bike_id": "7694e3136d7f8eeebe1e0ec0085a5253", "is_disabled": 0, "rental_uris": {"android": "https://dc.lft.to/lastmile_qr_scan", "ios": "https://dc.lft.to/lastmile_qr_scan"}, "lon": -77.03185116666667, "fusion_lat": 0.0}, {"name": "e566862aab85ab3caf84cf0a53a3fadf", "fusion_lon": 0.0, "lat": 38.907886166666664, "is_reserved": 0, "type": "electric_scooter", "bike_id": "e566862aab85ab3caf84cf0a53a3fadf", "is_disabled": 0, "rental_uris": {"android": "https://dc.lft.to/lastmile_qr_scan", "ios": "https://dc.lft.to/lastmile_qr_scan"}, "lon": -77.00199066666667, "fusion_lat": 0.0}, {"name": "71836a6b45da6e006c6ba39f85d1c1bb", "fusion_lon": 0.0, "lat": 38.95654283333333, "is_reserved": 0, "type": "electric_bike", "bike_id": "71836a6b45da6e006c6ba39f85d1c1bb", "is_disabled": 0, "rental_uris": {"android": "https://dc.lft.to/lastmile_qr_scan", "ios": "https://dc.lft.to/lastmile_qr_scan"}, "lon": -77.01280833333334, "fusion_lat": 0.0}, {"name": "5c0f55b82b9ff3915089e05eed673848", "fusion_lon": 0.0, "lat": 38.90085933333334, "is_reserved": 0, "type": "electric_scooter", "bike_id": "5c0f55b82b9ff3915089e05eed673848", "is_disabled": 0, "rental_uris": {"android": "https://dc.lft.to/lastmile_qr_scan", "ios": "https://dc.lft.to/lastmile_qr_scan"}, "lon": -76.930217, "fusion_lat": 0.0}, {"name": "4b9221d1341f194cfaa583d5d8704b80", "fusion_lon": 0.0, "lat": 38.9297715, "is_reserved": 0, "type": "electric_scooter", "bike_id": "4b9221d1341f194cfaa583d5d8704b80", "is_disabled": 0, "rental_uris": {"android": "https://dc.lft.to/lastmile_qr_scan", "ios": "https://dc.lft.to/lastmile_qr_scan"}, "lon": -77.01327483333333, "fusion_lat": 0.0}, {"name": "cd545b240afed83ab5ab0da15a8afe97", "fusion_lon": 0.0, "lat": 38.92651033333333, "is_reserved": 0, "type": "electric_scooter", "bike_id": "cd545b240afed83ab5ab0da15a8afe97", "is_disabled": 0, "rental_uris": {"android": "https://dc.lft.to/lastmile_qr_scan", "ios": "https://dc.lft.to/lastmile_qr_scan"}, "lon": -77.03713666666667, "fusion_lat": 0.0}, {"name": "caef3485f8006aa3e98957b3ec9a4325", "fusion_lon": 0.0, "lat": 38.900462833333336, "is_reserved": 0, "type": "electric_scooter", "bike_id": "caef3485f8006aa3e98957b3ec9a4325", "is_disabled": 0, "rental_uris": {"android": "https://dc.lft.to/lastmile_qr_scan", "ios": "https://dc.lft.to/lastmile_qr_scan"}, "lon": -77.0019735, "fusion_lat": 0.0}, {"name": "44c75e5c39c57cbba98c2a22e9defd54", "fusion_lon": 0.0, "lat": 38.918222, "is_reserved": 0, "type": "electric_scooter", "bike_id": "44c75e5c39c57cbba98c2a22e9defd54", "is_disabled": 0, "rental_uris": {"android": "https://dc.lft.to/lastmile_qr_scan", "ios": "https://dc.lft.to/lastmile_qr_scan"}, "lon": -77.0367095, "fusion_lat": 0.0}, {"name": "f23c2e2d11e73f3b374c8db74ffbe2d0", "fusion_lon": 0.0, "lat": 38.89864933333333, "is_reserved": 0, "type": "electric_scooter", "bike_id": "f23c2e2d11e73f3b374c8db74ffbe2d0", "is_disabled": 0, "rental_uris": {"android": "https://dc.lft.to/lastmile_qr_scan", "ios": "https://dc.lft.to/lastmile_qr_scan"}, "lon": -76.92752616666667, "fusion_lat": 0.0}, {"name": "0faa7996210c206ac3f9ae38fc65705c", "fusion_lon": 0.0, "lat": 38.90503533333333, "is_reserved": 0, "type": "electric_scooter", "bike_id": "0faa7996210c206ac3f9ae38fc65705c", "is_disabled": 0, "rental_uris": {"android": "https://dc.lft.to/lastmile_qr_scan", "ios": "https://dc.lft.to/lastmile_qr_scan"}, "lon": -77.0295, "fusion_lat": 0.0}, {"name": "3ecd471f0b113583e75019003cdde24b", "fusion_lon": 0.0, "lat": 38.8553955, "is_reserved": 0, "type": "electric_scooter", "bike_id": "3ecd471f0b113583e75019003cdde24b", "is_disabled": 0, "rental_uris": {"android": "https://dc.lft.to/lastmile_qr_scan", "ios": "https://dc.lft.to/lastmile_qr_scan"}, "lon": -76.9841775, "fusion_lat": 0.0}, {"name": "8d87fd2b73f628ba98acc90cdb40cd1c", "fusion_lon": 0.0, "lat": 38.931171166666665, "is_reserved": 0, "type": "electric_scooter", "bike_id": "8d87fd2b73f628ba98acc90cdb40cd1c", "is_disabled": 0, "rental_uris": {"android": "https://dc.lft.to/lastmile_qr_scan", "ios": "https://dc.lft.to/lastmile_qr_scan"}, "lon": -77.02102, "fusion_lat": 0.0}, {"name": "df4b9e150b3e71cb91998b1eaf54e8c4", "fusion_lon": 0.0, "lat": 38.9246325, "is_reserved": 0, "type": "electric_scooter", "bike_id": "df4b9e150b3e71cb91998b1eaf54e8c4", "is_disabled": 0, "rental_uris": {"android": "https://dc.lft.to/lastmile_qr_scan", "ios": "https://dc.lft.to/lastmile_qr_scan"}, "lon": -77.04013933333333, "fusion_lat": 0.0}, {"name": "a4fdfd1a5b6e708f40e18bb5b9ef2713", "fusion_lon": 0.0, "lat": 38.959431333333335, "is_reserved": 0, "type": "electric_scooter", "bike_id": "a4fdfd1a5b6e708f40e18bb5b9ef2713", "is_disabled": 0, "rental_uris": {"android": "https://dc.lft.to/lastmile_qr_scan", "ios": "https://dc.lft.to/lastmile_qr_scan"}, "lon": -77.03047783333334, "fusion_lat": 0.0}, {"name": "974a8c56a0e97c70cedf829507d4c8e5", "fusion_lon": 0.0, "lat": 38.8801865, "is_reserved": 0, "type": "electric_scooter", "bike_id": "974a8c56a0e97c70cedf829507d4c8e5", "is_disabled": 0, "rental_uris": {"android": "https://dc.lft.to/lastmile_qr_scan", "ios": "https://dc.lft.to/lastmile_qr_scan"}, "lon": -76.9312225, "fusion_lat": 0.0}, {"name": "6cdb50f1f10900368f5b0a66bb22e942", "fusion_lon": 0.0, "lat": 38.89956166666666, "is_reserved": 0, "type": "electric_bike", "bike_id": "6cdb50f1f10900368f5b0a66bb22e942", "is_disabled": 0, "rental_uris": {"android": "https://dc.lft.to/lastmile_qr_scan", "ios": "https://dc.lft.to/lastmile_qr_scan"}, "lon": -76.98571533333333, "fusion_lat": 0.0}, {"name": "9bb8f746469b5caaa8fd3de192010960", "fusion_lon": 0.0, "lat": 38.91560116666667, "is_reserved": 0, "type": "electric_scooter", "bike_id": "9bb8f746469b5caaa8fd3de192010960", "is_disabled": 0, "rental_uris": {"android": "https://dc.lft.to/lastmile_qr_scan", "ios": "https://dc.lft.to/lastmile_qr_scan"}, "lon": -77.01040916666666, "fusion_lat": 0.0}, {"name": "a56039f67dc3d1cd7cb13e78a9a0d373", "fusion_lon": 0.0, "lat": 38.866246333333336, "is_reserved": 0, "type": "electric_scooter", "bike_id": "a56039f67dc3d1cd7cb13e78a9a0d373", "is_disabled": 0, "rental_uris": {"android": "https://dc.lft.to/lastmile_qr_scan", "ios": "https://dc.lft.to/lastmile_qr_scan"}, "lon": -76.98913816666666, "fusion_lat": 0.0}, {"name": "57ff119d43d13c15a7f2ffa22f98c1f6", "fusion_lon": 0.0, "lat": 38.90391366666667, "is_reserved": 0, "type": "electric_scooter", "bike_id": "57ff119d43d13c15a7f2ffa22f98c1f6", "is_disabled": 0, "rental_uris": {"android": "https://dc.lft.to/lastmile_qr_scan", "ios": "https://dc.lft.to/lastmile_qr_scan"}, "lon": -77.045227, "fusion_lat": 0.0}, {"name": "9d5508694cb43cb91f9b634b7c57cc69", "fusion_lon": 0.0, "lat": 38.908425666666666, "is_reserved": 0, "type": "electric_scooter", "bike_id": "9d5508694cb43cb91f9b634b7c57cc69", "is_disabled": 0, "rental_uris": {"android": "https://dc.lft.to/lastmile_qr_scan", "ios": "https://dc.lft.to/lastmile_qr_scan"}, "lon": -77.00228566666667, "fusion_lat": 0.0}, {"name": "abc90cf55d92472011211e91708e4631", "fusion_lon": 0.0, "lat": 38.922524333333335, "is_reserved": 0, "type": "electric_scooter", "bike_id": "abc90cf55d92472011211e91708e4631", "is_disabled": 0, "rental_uris": {"android": "https://dc.lft.to/lastmile_qr_scan", "ios": "https://dc.lft.to/lastmile_qr_scan"}, "lon": -77.03026933333334, "fusion_lat": 0.0}, {"name": "1361b5d78f8768c2f7ce04d431ca30f3", "fusion_lon": 0.0, "lat": 38.9155435, "is_reserved": 0, "type": "electric_scooter", "bike_id": "1361b5d78f8768c2f7ce04d431ca30f3", "is_disabled": 0, "rental_uris": {"android": "https://dc.lft.to/lastmile_qr_scan", "ios": "https://dc.lft.to/lastmile_qr_scan"}, "lon": -77.0418015, "fusion_lat": 0.0}, {"name": "b3763dd3a9774f82ef706b8b70116b7f", "fusion_lon": 0.0, "lat": 38.91999116666667, "is_reserved": 0, "type": "electric_scooter", "bike_id": "b3763dd3a9774f82ef706b8b70116b7f", "is_disabled": 0, "rental_uris": {"android": "https://dc.lft.to/lastmile_qr_scan", "ios": "https://dc.lft.to/lastmile_qr_scan"}, "lon": -77.032199, "fusion_lat": 0.0}, {"name": "4fb92b9aeb62784f7325f40bac3f1f8f", "fusion_lon": 0.0, "lat": 38.897122333333336, "is_reserved": 0, "type": "electric_scooter", "bike_id": "4fb92b9aeb62784f7325f40bac3f1f8f", "is_disabled": 0, "rental_uris": {"android": "https://dc.lft.to/lastmile_qr_scan", "ios": "https://dc.lft.to/lastmile_qr_scan"}, "lon": -76.93003616666667, "fusion_lat": 0.0}, {"name": "fe8bd650e7714946789628a80a188a81", "fusion_lon": 0.0, "lat": 38.9163035, "is_reserved": 0, "type": "electric_scooter", "bike_id": "fe8bd650e7714946789628a80a188a81", "is_disabled": 0, "rental_uris": {"android": "https://dc.lft.to/lastmile_qr_scan", "ios": "https://dc.lft.to/lastmile_qr_scan"}, "lon": -77.02391366666667, "fusion_lat": 0.0}, {"name": "1585b68038b86f943c5bd9381aac6537", "fusion_lon": 0.0, "lat": 38.899247833333334, "is_reserved": 0, "type": "electric_scooter", "bike_id": "1585b68038b86f943c5bd9381aac6537", "is_disabled": 0, "rental_uris": {"android": "https://dc.lft.to/lastmile_qr_scan", "ios": "https://dc.lft.to/lastmile_qr_scan"}, "lon": -77.07063633333334, "fusion_lat": 0.0}, {"name": "1ecb2a070ee531d9c88ed28a555a4ff0", "fusion_lon": 0.0, "lat": 38.9237995, "is_reserved": 0, "type": "electric_scooter", "bike_id": "1ecb2a070ee531d9c88ed28a555a4ff0", "is_disabled": 0, "rental_uris": {"android": "https://dc.lft.to/lastmile_qr_scan", "ios": "https://dc.lft.to/lastmile_qr_scan"}, "lon": -77.03094016666667, "fusion_lat": 0.0}, {"name": "b0cd02a7b00a62a43f66b5cae6092779", "fusion_lon": 0.0, "lat": 38.9117485, "is_reserved": 0, "type": "electric_scooter", "bike_id": "b0cd02a7b00a62a43f66b5cae6092779", "is_disabled": 0, "rental_uris": {"android": "https://dc.lft.to/lastmile_qr_scan", "ios": "https://dc.lft.to/lastmile_qr_scan"}, "lon": -77.00448066666667, "fusion_lat": 0.0}, {"name": "62282a002549b3618783a301c578676e", "fusion_lon": 0.0, "lat": 38.898416, "is_reserved": 0, "type": "electric_scooter", "bike_id": "62282a002549b3618783a301c578676e", "is_disabled": 0, "rental_uris": {"android": "https://dc.lft.to/lastmile_qr_scan", "ios": "https://dc.lft.to/lastmile_qr_scan"}, "lon": -77.02387116666667, "fusion_lat": 0.0}, {"name": "5d84d1464a144bd8440e798a4e1ed375", "fusion_lon": 0.0, "lat": 38.9128825, "is_reserved": 0, "type": "electric_scooter", "bike_id": "5d84d1464a144bd8440e798a4e1ed375", "is_disabled": 0, "rental_uris": {"android": "https://dc.lft.to/lastmile_qr_scan", "ios": "https://dc.lft.to/lastmile_qr_scan"}, "lon": -77.02385533333333, "fusion_lat": 0.0}, {"name": "af7c7bee51b6da32666db36296e67886", "fusion_lon": 0.0, "lat": 38.89613833333333, "is_reserved": 0, "type": "electric_scooter", "bike_id": "af7c7bee51b6da32666db36296e67886", "is_disabled": 0, "rental_uris": {"android": "https://dc.lft.to/lastmile_qr_scan", "ios": "https://dc.lft.to/lastmile_qr_scan"}, "lon": -77.01602533333333, "fusion_lat": 0.0}, {"name": "1bf4141877cec866b6d80d0ba72f4603", "fusion_lon": 0.0, "lat": 38.896389166666665, "is_reserved": 0, "type": "electric_scooter", "bike_id": "1bf4141877cec866b6d80d0ba72f4603", "is_disabled": 0, "rental_uris": {"android": "https://dc.lft.to/lastmile_qr_scan", "ios": "https://dc.lft.to/lastmile_qr_scan"}, "lon": -77.02213816666666, "fusion_lat": 0.0}, {"name": "2c0b6776a4f59eef576e5ee203ab18e5", "fusion_lon": 0.0, "lat": 38.9212175, "is_reserved": 0, "type": "electric_bike", "bike_id": "2c0b6776a4f59eef576e5ee203ab18e5", "is_disabled": 0, "rental_uris": {"android": "https://dc.lft.to/lastmile_qr_scan", "ios": "https://dc.lft.to/lastmile_qr_scan"}, "lon": -77.01211716666667, "fusion_lat": 0.0}, {"name": "391b42cdc7d3bd15a699184bf1e0a0e4", "fusion_lon": 0.0, "lat": 38.910034333333336, "is_reserved": 0, "type": "electric_scooter", "bike_id": "391b42cdc7d3bd15a699184bf1e0a0e4", "is_disabled": 0, "rental_uris": {"android": "https://dc.lft.to/lastmile_qr_scan", "ios": "https://dc.lft.to/lastmile_qr_scan"}, "lon": -77.0527265, "fusion_lat": 0.0}, {"name": "306f173587d5808bfdc8368ff36c89fe", "fusion_lon": 0.0, "lat": 38.87448366666667, "is_reserved": 0, "type": "electric_scooter", "bike_id": "306f173587d5808bfdc8368ff36c89fe", "is_disabled": 0, "rental_uris": {"android": "https://dc.lft.to/lastmile_qr_scan", "ios": "https://dc.lft.to/lastmile_qr_scan"}, "lon": -77.00568833333334, "fusion_lat": 0.0}, {"name": "420d329f0f2111c10838deab30b751e4", "fusion_lon": 0.0, "lat": 38.9419925, "is_reserved": 0, "type": "electric_scooter", "bike_id": "420d329f0f2111c10838deab30b751e4", "is_disabled": 0, "rental_uris": {"android": "https://dc.lft.to/lastmile_qr_scan", "ios": "https://dc.lft.to/lastmile_qr_scan"}, "lon": -77.02515516666666, "fusion_lat": 0.0}, {"name": "a986ce79615f2e7502b34a4faadedc66", "fusion_lon": 0.0, "lat": 38.90937666666667, "is_reserved": 0, "type": "electric_scooter", "bike_id": "a986ce79615f2e7502b34a4faadedc66", "is_disabled": 0, "rental_uris": {"android": "https://dc.lft.to/lastmile_qr_scan", "ios": "https://dc.lft.to/lastmile_qr_scan"}, "lon": -77.03465466666667, "fusion_lat": 0.0}, {"name": "52a74619650c19535cc114cbbc1ffe2f", "fusion_lon": 0.0, "lat": 38.9000905, "is_reserved": 0, "type": "electric_scooter", "bike_id": "52a74619650c19535cc114cbbc1ffe2f", "is_disabled": 0, "rental_uris": {"android": "https://dc.lft.to/lastmile_qr_scan", "ios": "https://dc.lft.to/lastmile_qr_scan"}, "lon": -76.996345, "fusion_lat": 0.0}, {"name": "f5483bfb7ca203c609c3c52dc4a461f9", "fusion_lon": 0.0, "lat": 38.917079, "is_reserved": 0, "type": "electric_scooter", "bike_id": "f5483bfb7ca203c609c3c52dc4a461f9", "is_disabled": 0, "rental_uris": {"android": "https://dc.lft.to/lastmile_qr_scan", "ios": "https://dc.lft.to/lastmile_qr_scan"}, "lon": -77.0134005, "fusion_lat": 0.0}, {"name": "dc393421df77b074928969263f76195c", "fusion_lon": 0.0, "lat": 38.896144, "is_reserved": 0, "type": "electric_scooter", "bike_id": "dc393421df77b074928969263f76195c", "is_disabled": 0, "rental_uris": {"android": "https://dc.lft.to/lastmile_qr_scan", "ios": "https://dc.lft.to/lastmile_qr_scan"}, "lon": -76.98113733333334, "fusion_lat": 0.0}, {"name": "aba671cfa7827fed2aeb3f84f59e487e", "fusion_lon": 0.0, "lat": 38.921818333333334, "is_reserved": 0, "type": "electric_scooter", "bike_id": "aba671cfa7827fed2aeb3f84f59e487e", "is_disabled": 0, "rental_uris": {"android": "https://dc.lft.to/lastmile_qr_scan", "ios": "https://dc.lft.to/lastmile_qr_scan"}, "lon": -77.04693383333333, "fusion_lat": 0.0}, {"name": "2c7f8faefe03e8ebf7b8826f6d7fb426", "fusion_lon": 0.0, "lat": 38.934489166666665, "is_reserved": 0, "type": "electric_scooter", "bike_id": "2c7f8faefe03e8ebf7b8826f6d7fb426", "is_disabled": 0, "rental_uris": {"android": "https://dc.lft.to/lastmile_qr_scan", "ios": "https://dc.lft.to/lastmile_qr_scan"}, "lon": -77.03285983333333, "fusion_lat": 0.0}, {"name": "34488508a9a4121768c4e07f932e4704", "fusion_lon": 0.0, "lat": 38.957346666666666, "is_reserved": 0, "type": "electric_scooter", "bike_id": "34488508a9a4121768c4e07f932e4704", "is_disabled": 0, "rental_uris": {"android": "https://dc.lft.to/lastmile_qr_scan", "ios": "https://dc.lft.to/lastmile_qr_scan"}, "lon": -77.0243345, "fusion_lat": 0.0}, {"name": "70652b9582272ac29a00ae2430c2718c", "fusion_lon": 0.0, "lat": 38.881224, "is_reserved": 0, "type": "electric_bike", "bike_id": "70652b9582272ac29a00ae2430c2718c", "is_disabled": 0, "rental_uris": {"android": "https://dc.lft.to/lastmile_qr_scan", "ios": "https://dc.lft.to/lastmile_qr_scan"}, "lon": -77.01675366666667, "fusion_lat": 0.0}, {"name": "5959aa931e2d428b46d8e178c46ae5e1", "fusion_lon": 0.0, "lat": 38.951369, "is_reserved": 0, "type": "electric_scooter", "bike_id": "5959aa931e2d428b46d8e178c46ae5e1", "is_disabled": 0, "rental_uris": {"android": "https://dc.lft.to/lastmile_qr_scan", "ios": "https://dc.lft.to/lastmile_qr_scan"}, "lon": -77.02722916666667, "fusion_lat": 0.0}, {"name": "b0660f80a8edeb3541a5a62c3c9cfa7f", "fusion_lon": 0.0, "lat": 38.87647183333333, "is_reserved": 0, "type": "electric_scooter", "bike_id": "b0660f80a8edeb3541a5a62c3c9cfa7f", "is_disabled": 0, "rental_uris": {"android": "https://dc.lft.to/lastmile_qr_scan", "ios": "https://dc.lft.to/lastmile_qr_scan"}, "lon": -76.96509466666667, "fusion_lat": 0.0}, {"name": "430a6bc39455d4d6a4548b510098dcc0", "fusion_lon": 0.0, "lat": 38.91409866666667, "is_reserved": 0, "type": "electric_scooter", "bike_id": "430a6bc39455d4d6a4548b510098dcc0", "is_disabled": 0, "rental_uris": {"android": "https://dc.lft.to/lastmile_qr_scan", "ios": "https://dc.lft.to/lastmile_qr_scan"}, "lon": -77.04177966666667, "fusion_lat": 0.0}, {"name": "37b372e73d985c77121da42825758d38", "fusion_lon": 0.0, "lat": 38.919475166666665, "is_reserved": 0, "type": "electric_scooter", "bike_id": "37b372e73d985c77121da42825758d38", "is_disabled": 0, "rental_uris": {"android": "https://dc.lft.to/lastmile_qr_scan", "ios": "https://dc.lft.to/lastmile_qr_scan"}, "lon": -77.02890616666667, "fusion_lat": 0.0}, {"name": "5ec18b427e145fb3a609a53f0de7b107", "fusion_lon": 0.0, "lat": 38.9583615, "is_reserved": 0, "type": "electric_scooter", "bike_id": "5ec18b427e145fb3a609a53f0de7b107", "is_disabled": 0, "rental_uris": {"android": "https://dc.lft.to/lastmile_qr_scan", "ios": "https://dc.lft.to/lastmile_qr_scan"}, "lon": -77.01514116666667, "fusion_lat": 0.0}, {"name": "d43109487d8f2f70b0c68e3fd69da72c", "fusion_lon": 0.0, "lat": 38.892250833333335, "is_reserved": 0, "type": "electric_scooter", "bike_id": "d43109487d8f2f70b0c68e3fd69da72c", "is_disabled": 0, "rental_uris": {"android": "https://dc.lft.to/lastmile_qr_scan", "ios": "https://dc.lft.to/lastmile_qr_scan"}, "lon": -77.04308366666666, "fusion_lat": 0.0}, {"name": "207684365a31f8a68230c91cd96642a9", "fusion_lon": 0.0, "lat": 38.90029783333333, "is_reserved": 0, "type": "electric_scooter", "bike_id": "207684365a31f8a68230c91cd96642a9", "is_disabled": 0, "rental_uris": {"android": "https://dc.lft.to/lastmile_qr_scan", "ios": "https://dc.lft.to/lastmile_qr_scan"}, "lon": -76.99530983333334, "fusion_lat": 0.0}, {"name": "7c08db5b609f1300b12c50b5564d6d1c", "fusion_lon": 0.0, "lat": 39.03930916666667, "is_reserved": 0, "type": "electric_bike", "bike_id": "7c08db5b609f1300b12c50b5564d6d1c", "is_disabled": 0, "rental_uris": {"android": "https://dc.lft.to/lastmile_qr_scan", "ios": "https://dc.lft.to/lastmile_qr_scan"}, "lon": -77.02853583333334, "fusion_lat": 0.0}, {"name": "d72405844d9471ec8633b4105ae3277d", "fusion_lon": 0.0, "lat": 38.869790333333334, "is_reserved": 0, "type": "electric_scooter", "bike_id": "d72405844d9471ec8633b4105ae3277d", "is_disabled": 0, "rental_uris": {"android": "https://dc.lft.to/lastmile_qr_scan", "ios": "https://dc.lft.to/lastmile_qr_scan"}, "lon": -77.01228116666667, "fusion_lat": 0.0}, {"name": "15128589f32b562d7e36b92d149ad268", "fusion_lon": 0.0, "lat": 38.92453233333333, "is_reserved": 0, "type": "electric_scooter", "bike_id": "15128589f32b562d7e36b92d149ad268", "is_disabled": 0, "rental_uris": {"android": "https://dc.lft.to/lastmile_qr_scan", "ios": "https://dc.lft.to/lastmile_qr_scan"}, "lon": -77.02260333333334, "fusion_lat": 0.0}, {"name": "a95931437b1c99c21f87b4c85e477b33", "fusion_lon": 0.0, "lat": 38.9276055, "is_reserved": 0, "type": "electric_scooter", "bike_id": "a95931437b1c99c21f87b4c85e477b33", "is_disabled": 0, "rental_uris": {"android": "https://dc.lft.to/lastmile_qr_scan", "ios": "https://dc.lft.to/lastmile_qr_scan"}, "lon": -77.02302583333334, "fusion_lat": 0.0}, {"name": "a6b5ad06f2b65dc705c23712cce9b108", "fusion_lon": 0.0, "lat": 38.9005865, "is_reserved": 0, "type": "electric_scooter", "bike_id": "a6b5ad06f2b65dc705c23712cce9b108", "is_disabled": 0, "rental_uris": {"android": "https://dc.lft.to/lastmile_qr_scan", "ios": "https://dc.lft.to/lastmile_qr_scan"}, "lon": -76.9901905, "fusion_lat": 0.0}, {"name": "89daf3b2966492477cc243c49288fc1b", "fusion_lon": 0.0, "lat": 38.95506183333333, "is_reserved": 0, "type": "electric_bike", "bike_id": "89daf3b2966492477cc243c49288fc1b", "is_disabled": 0, "rental_uris": {"android": "https://dc.lft.to/lastmile_qr_scan", "ios": "https://dc.lft.to/lastmile_qr_scan"}, "lon": -76.9935655, "fusion_lat": 0.0}, {"name": "a94d43cc79126fa8a2acd0f4ee206bc6", "fusion_lon": 0.0, "lat": 38.95173616666667, "is_reserved": 0, "type": "electric_bike", "bike_id": "a94d43cc79126fa8a2acd0f4ee206bc6", "is_disabled": 0, "rental_uris": {"android": "https://dc.lft.to/lastmile_qr_scan", "ios": "https://dc.lft.to/lastmile_qr_scan"}, "lon": -76.977292, "fusion_lat": 0.0}, {"name": "5204ea50766a206b411902b9881b1a1f", "fusion_lon": 0.0, "lat": 38.9152395, "is_reserved": 0, "type": "electric_scooter", "bike_id": "5204ea50766a206b411902b9881b1a1f", "is_disabled": 0, "rental_uris": {"android": "https://dc.lft.to/lastmile_qr_scan", "ios": "https://dc.lft.to/lastmile_qr_scan"}, "lon": -77.0122555, "fusion_lat": 0.0}, {"name": "50732a312a4e649c432bf70ad802abe5", "fusion_lon": 0.0, "lat": 38.9060505, "is_reserved": 0, "type": "electric_scooter", "bike_id": "50732a312a4e649c432bf70ad802abe5", "is_disabled": 0, "rental_uris": {"android": "https://dc.lft.to/lastmile_qr_scan", "ios": "https://dc.lft.to/lastmile_qr_scan"}, "lon": -76.985088, "fusion_lat": 0.0}, {"name": "88fde7d9ef4d087e2d13b453a23440e0", "fusion_lon": 0.0, "lat": 38.9049385, "is_reserved": 0, "type": "electric_scooter", "bike_id": "88fde7d9ef4d087e2d13b453a23440e0", "is_disabled": 0, "rental_uris": {"android": "https://dc.lft.to/lastmile_qr_scan", "ios": "https://dc.lft.to/lastmile_qr_scan"}, "lon": -76.94958916666667, "fusion_lat": 0.0}, {"name": "e46b10a12f0ff92aeb88e00ab8fc75b9", "fusion_lon": 0.0, "lat": 38.918479, "is_reserved": 0, "type": "electric_scooter", "bike_id": "e46b10a12f0ff92aeb88e00ab8fc75b9", "is_disabled": 0, "rental_uris": {"android": "https://dc.lft.to/lastmile_qr_scan", "ios": "https://dc.lft.to/lastmile_qr_scan"}, "lon": -77.0230555, "fusion_lat": 0.0}, {"name": "6248bb1cd42ec96eb751915d05fe2bc3", "fusion_lon": 0.0, "lat": 38.96276866666667, "is_reserved": 0, "type": "electric_bike", "bike_id": "6248bb1cd42ec96eb751915d05fe2bc3", "is_disabled": 0, "rental_uris": {"android": "https://dc.lft.to/lastmile_qr_scan", "ios": "https://dc.lft.to/lastmile_qr_scan"}, "lon": -77.01453033333334, "fusion_lat": 0.0}, {"name": "9c99414a7b6e780e7a1ce8019d7a8092", "fusion_lon": 0.0, "lat": 38.9317065, "is_reserved": 0, "type": "electric_bike", "bike_id": "9c99414a7b6e780e7a1ce8019d7a8092", "is_disabled": 0, "rental_uris": {"android": "https://dc.lft.to/lastmile_qr_scan", "ios": "https://dc.lft.to/lastmile_qr_scan"}, "lon": -76.97637183333333, "fusion_lat": 0.0}, {"name": "d67bbc10a696f46d121667a0f7d932c1", "fusion_lon": 0.0, "lat": 38.9353575, "is_reserved": 0, "type": "electric_scooter", "bike_id": "d67bbc10a696f46d121667a0f7d932c1", "is_disabled": 0, "rental_uris": {"android": "https://dc.lft.to/lastmile_qr_scan", "ios": "https://dc.lft.to/lastmile_qr_scan"}, "lon": -77.023488, "fusion_lat": 0.0}, {"name": "8fb67ea0c13dc60136fd530f013d3c67", "fusion_lon": 0.0, "lat": 38.92866983333333, "is_reserved": 0, "type": "electric_scooter", "bike_id": "8fb67ea0c13dc60136fd530f013d3c67", "is_disabled": 0, "rental_uris": {"android": "https://dc.lft.to/lastmile_qr_scan", "ios": "https://dc.lft.to/lastmile_qr_scan"}, "lon": -77.02802316666667, "fusion_lat": 0.0}, {"name": "9c3f97a4625d1fdf55a0b6c7fc9ac4fc", "fusion_lon": 0.0, "lat": 38.91684883333333, "is_reserved": 0, "type": "electric_scooter", "bike_id": "9c3f97a4625d1fdf55a0b6c7fc9ac4fc", "is_disabled": 0, "rental_uris": {"android": "https://dc.lft.to/lastmile_qr_scan", "ios": "https://dc.lft.to/lastmile_qr_scan"}, "lon": -77.02699933333334, "fusion_lat": 0.0}, {"name": "80edbe795e85edd9d432b325a1db4ff7", "fusion_lon": 0.0, "lat": 38.911071666666665, "is_reserved": 0, "type": "electric_bike", "bike_id": "80edbe795e85edd9d432b325a1db4ff7", "is_disabled": 0, "rental_uris": {"android": "https://dc.lft.to/lastmile_qr_scan", "ios": "https://dc.lft.to/lastmile_qr_scan"}, "lon": -77.01501633333334, "fusion_lat": 0.0}, {"name": "5c8e083ed2994c523251e935a4c882b3", "fusion_lon": 0.0, "lat": 38.92181583333333, "is_reserved": 0, "type": "electric_scooter", "bike_id": "5c8e083ed2994c523251e935a4c882b3", "is_disabled": 0, "rental_uris": {"android": "https://dc.lft.to/lastmile_qr_scan", "ios": "https://dc.lft.to/lastmile_qr_scan"}, "lon": -77.02666516666666, "fusion_lat": 0.0}, {"name": "38c6e9b8691d3dbc594c570ad5fa7494", "fusion_lon": 0.0, "lat": 38.93090766666667, "is_reserved": 0, "type": "electric_scooter", "bike_id": "38c6e9b8691d3dbc594c570ad5fa7494", "is_disabled": 0, "rental_uris": {"android": "https://dc.lft.to/lastmile_qr_scan", "ios": "https://dc.lft.to/lastmile_qr_scan"}, "lon": -76.99621533333334, "fusion_lat": 0.0}, {"name": "d3838592a84d87f162ae7ab7659cb16d", "fusion_lon": 0.0, "lat": 38.93548066666666, "is_reserved": 0, "type": "electric_scooter", "bike_id": "d3838592a84d87f162ae7ab7659cb16d", "is_disabled": 0, "rental_uris": {"android": "https://dc.lft.to/lastmile_qr_scan", "ios": "https://dc.lft.to/lastmile_qr_scan"}, "lon": -77.05855183333334, "fusion_lat": 0.0}, {"name": "0683d9c838ca6accb9ceaea59f31f7d8", "fusion_lon": 0.0, "lat": 38.91569233333333, "is_reserved": 0, "type": "electric_scooter", "bike_id": "0683d9c838ca6accb9ceaea59f31f7d8", "is_disabled": 0, "rental_uris": {"android": "https://dc.lft.to/lastmile_qr_scan", "ios": "https://dc.lft.to/lastmile_qr_scan"}, "lon": -77.0229045, "fusion_lat": 0.0}, {"name": "fa6975843861f419190addc7ee1e8f5e", "fusion_lon": 0.0, "lat": 38.893606166666665, "is_reserved": 0, "type": "electric_scooter", "bike_id": "fa6975843861f419190addc7ee1e8f5e", "is_disabled": 0, "rental_uris": {"android": "https://dc.lft.to/lastmile_qr_scan", "ios": "https://dc.lft.to/lastmile_qr_scan"}, "lon": -76.94936, "fusion_lat": 0.0}, {"name": "d23f4a0c7a0851794897e8b1b6de0c62", "fusion_lon": 0.0, "lat": 38.90504166666667, "is_reserved": 0, "type": "electric_scooter", "bike_id": "d23f4a0c7a0851794897e8b1b6de0c62", "is_disabled": 0, "rental_uris": {"android": "https://dc.lft.to/lastmile_qr_scan", "ios": "https://dc.lft.to/lastmile_qr_scan"}, "lon": -77.02949266666667, "fusion_lat": 0.0}, {"name": "2aa070d3899a81debb56c1cea7cb7fc2", "fusion_lon": 0.0, "lat": 38.9078475, "is_reserved": 0, "type": "electric_scooter", "bike_id": "2aa070d3899a81debb56c1cea7cb7fc2", "is_disabled": 0, "rental_uris": {"android": "https://dc.lft.to/lastmile_qr_scan", "ios": "https://dc.lft.to/lastmile_qr_scan"}, "lon": -77.02386366666667, "fusion_lat": 0.0}, {"name": "d20a8ccac90ef7c68fcbaaea40a3381c", "fusion_lon": 0.0, "lat": 38.92320266666667, "is_reserved": 0, "type": "electric_scooter", "bike_id": "d20a8ccac90ef7c68fcbaaea40a3381c", "is_disabled": 0, "rental_uris": {"android": "https://dc.lft.to/lastmile_qr_scan", "ios": "https://dc.lft.to/lastmile_qr_scan"}, "lon": -77.041106, "fusion_lat": 0.0}, {"name": "0ebef9268ec20d71d2bdab80913a48f7", "fusion_lon": 0.0, "lat": 38.9169935, "is_reserved": 0, "type": "electric_scooter", "bike_id": "0ebef9268ec20d71d2bdab80913a48f7", "is_disabled": 0, "rental_uris": {"android": "https://dc.lft.to/lastmile_qr_scan", "ios": "https://dc.lft.to/lastmile_qr_scan"}, "lon": -77.0315695, "fusion_lat": 0.0}, {"name": "edf2857bfb14dbb4ed09dced70f1a4d1", "fusion_lon": 0.0, "lat": 38.86467483333333, "is_reserved": 0, "type": "electric_scooter", "bike_id": "edf2857bfb14dbb4ed09dced70f1a4d1", "is_disabled": 0, "rental_uris": {"android": "https://dc.lft.to/lastmile_qr_scan", "ios": "https://dc.lft.to/lastmile_qr_scan"}, "lon": -76.977345, "fusion_lat": 0.0}, {"name": "64e68fc7d11b2ac25f52f57eb5f7ebaf", "fusion_lon": 0.0, "lat": 38.91185933333333, "is_reserved": 0, "type": "electric_scooter", "bike_id": "64e68fc7d11b2ac25f52f57eb5f7ebaf", "is_disabled": 0, "rental_uris": {"android": "https://dc.lft.to/lastmile_qr_scan", "ios": "https://dc.lft.to/lastmile_qr_scan"}, "lon": -77.01015666666666, "fusion_lat": 0.0}, {"name": "64e818d43a8c6d0e0378bc6e8b65e34e", "fusion_lon": 0.0, "lat": 38.969609, "is_reserved": 0, "type": "electric_bike", "bike_id": "64e818d43a8c6d0e0378bc6e8b65e34e", "is_disabled": 0, "rental_uris": {"android": "https://dc.lft.to/lastmile_qr_scan", "ios": "https://dc.lft.to/lastmile_qr_scan"}, "lon": -76.957485, "fusion_lat": 0.0}, {"name": "137f8b79e670dd71fb24048f501e7200", "fusion_lon": 0.0, "lat": 38.917036, "is_reserved": 0, "type": "electric_scooter", "bike_id": "137f8b79e670dd71fb24048f501e7200", "is_disabled": 0, "rental_uris": {"android": "https://dc.lft.to/lastmile_qr_scan", "ios": "https://dc.lft.to/lastmile_qr_scan"}, "lon": -77.031632, "fusion_lat": 0.0}, {"name": "a1e81ca4f40994aae0c6b58d5e43b836", "fusion_lon": 0.0, "lat": 38.90596016666667, "is_reserved": 0, "type": "electric_scooter", "bike_id": "a1e81ca4f40994aae0c6b58d5e43b836", "is_disabled": 0, "rental_uris": {"android": "https://dc.lft.to/lastmile_qr_scan", "ios": "https://dc.lft.to/lastmile_qr_scan"}, "lon": -77.02214933333333, "fusion_lat": 0.0}, {"name": "b7433d2b1620cabc1eb4bf28b71caf87", "fusion_lon": 0.0, "lat": 38.9189695, "is_reserved": 0, "type": "electric_scooter", "bike_id": "b7433d2b1620cabc1eb4bf28b71caf87", "is_disabled": 0, "rental_uris": {"android": "https://dc.lft.to/lastmile_qr_scan", "ios": "https://dc.lft.to/lastmile_qr_scan"}, "lon": -77.03454133333334, "fusion_lat": 0.0}, {"name": "8493b4a5e2522228dd08c8dcb65e3a1c", "fusion_lon": 0.0, "lat": 38.91712733333333, "is_reserved": 0, "type": "electric_scooter", "bike_id": "8493b4a5e2522228dd08c8dcb65e3a1c", "is_disabled": 0, "rental_uris": {"android": "https://dc.lft.to/lastmile_qr_scan", "ios": "https://dc.lft.to/lastmile_qr_scan"}, "lon": -77.03337483333334, "fusion_lat": 0.0}, {"name": "8bf84b4eada5da275abeda490a7add76", "fusion_lon": 0.0, "lat": 38.892302, "is_reserved": 0, "type": "electric_scooter", "bike_id": "8bf84b4eada5da275abeda490a7add76", "is_disabled": 0, "rental_uris": {"android": "https://dc.lft.to/lastmile_qr_scan", "ios": "https://dc.lft.to/lastmile_qr_scan"}, "lon": -77.04656116666666, "fusion_lat": 0.0}, {"name": "a214a57212abac12b29a2304d03952e9", "fusion_lon": 0.0, "lat": 38.92931766666667, "is_reserved": 0, "type": "electric_scooter", "bike_id": "a214a57212abac12b29a2304d03952e9", "is_disabled": 0, "rental_uris": {"android": "https://dc.lft.to/lastmile_qr_scan", "ios": "https://dc.lft.to/lastmile_qr_scan"}, "lon": -77.0327055, "fusion_lat": 0.0}, {"name": "3a031663a13ae97c8571a9c500e859bc", "fusion_lon": 0.0, "lat": 38.902711, "is_reserved": 0, "type": "electric_scooter", "bike_id": "3a031663a13ae97c8571a9c500e859bc", "is_disabled": 0, "rental_uris": {"android": "https://dc.lft.to/lastmile_qr_scan", "ios": "https://dc.lft.to/lastmile_qr_scan"}, "lon": -77.01760966666667, "fusion_lat": 0.0}, {"name": "564119147ed2ef0e418e93efa5b2831c", "fusion_lon": 0.0, "lat": 38.875802, "is_reserved": 0, "type": "electric_scooter", "bike_id": "564119147ed2ef0e418e93efa5b2831c", "is_disabled": 0, "rental_uris": {"android": "https://dc.lft.to/lastmile_qr_scan", "ios": "https://dc.lft.to/lastmile_qr_scan"}, "lon": -77.00605766666666, "fusion_lat": 0.0}, {"name": "f31712186e9e3c1ac7243d5fa337a054", "fusion_lon": 0.0, "lat": 38.909, "is_reserved": 0, "type": "electric_scooter", "bike_id": "f31712186e9e3c1ac7243d5fa337a054", "is_disabled": 0, "rental_uris": {"android": "https://dc.lft.to/lastmile_qr_scan", "ios": "https://dc.lft.to/lastmile_qr_scan"}, "lon": -76.99854483333333, "fusion_lat": 0.0}, {"name": "a92652024c8224688ad21d24e8c5b75a", "fusion_lon": 0.0, "lat": 38.888494333333334, "is_reserved": 0, "type": "electric_scooter", "bike_id": "a92652024c8224688ad21d24e8c5b75a", "is_disabled": 0, "rental_uris": {"android": "https://dc.lft.to/lastmile_qr_scan", "ios": "https://dc.lft.to/lastmile_qr_scan"}, "lon": -76.92681233333333, "fusion_lat": 0.0}, {"name": "c591260d956974e7ebe0f5b499497b65", "fusion_lon": 0.0, "lat": 38.92035116666667, "is_reserved": 0, "type": "electric_scooter", "bike_id": "c591260d956974e7ebe0f5b499497b65", "is_disabled": 0, "rental_uris": {"android": "https://dc.lft.to/lastmile_qr_scan", "ios": "https://dc.lft.to/lastmile_qr_scan"}, "lon": -77.0258385, "fusion_lat": 0.0}, {"name": "a5aef3a24ec72906ebecf99fd2183ea1", "fusion_lon": 0.0, "lat": 38.90908016666667, "is_reserved": 0, "type": "electric_scooter", "bike_id": "a5aef3a24ec72906ebecf99fd2183ea1", "is_disabled": 0, "rental_uris": {"android": "https://dc.lft.to/lastmile_qr_scan", "ios": "https://dc.lft.to/lastmile_qr_scan"}, "lon": -77.02715933333333, "fusion_lat": 0.0}, {"name": "19a1e2404d6610ac6987f10316d6c496", "fusion_lon": 0.0, "lat": 38.928452166666666, "is_reserved": 0, "type": "electric_scooter", "bike_id": "19a1e2404d6610ac6987f10316d6c496", "is_disabled": 0, "rental_uris": {"android": "https://dc.lft.to/lastmile_qr_scan", "ios": "https://dc.lft.to/lastmile_qr_scan"}, "lon": -77.03269933333333, "fusion_lat": 0.0}, {"name": "ab3dfab8895208134a7cbb6d63363fd4", "fusion_lon": 0.0, "lat": 38.8693635, "is_reserved": 0, "type": "electric_bike", "bike_id": "ab3dfab8895208134a7cbb6d63363fd4", "is_disabled": 0, "rental_uris": {"android": "https://dc.lft.to/lastmile_qr_scan", "ios": "https://dc.lft.to/lastmile_qr_scan"}, "lon": -77.09468416666667, "fusion_lat": 0.0}, {"name": "169ca22cdb68a3f648c75ce6f7debc8e", "fusion_lon": 0.0, "lat": 38.927874, "is_reserved": 0, "type": "electric_scooter", "bike_id": "169ca22cdb68a3f648c75ce6f7debc8e", "is_disabled": 0, "rental_uris": {"android": "https://dc.lft.to/lastmile_qr_scan", "ios": "https://dc.lft.to/lastmile_qr_scan"}, "lon": -77.03155783333334, "fusion_lat": 0.0}, {"name": "8a88fef14aa914dde679bd7600fc159e", "fusion_lon": 0.0, "lat": 38.87178816666667, "is_reserved": 0, "type": "electric_scooter", "bike_id": "8a88fef14aa914dde679bd7600fc159e", "is_disabled": 0, "rental_uris": {"android": "https://dc.lft.to/lastmile_qr_scan", "ios": "https://dc.lft.to/lastmile_qr_scan"}, "lon": -77.00611533333333, "fusion_lat": 0.0}, {"name": "f354256c7465a40a92c9a8f7bae8843c", "fusion_lon": 0.0, "lat": 38.929033833333335, "is_reserved": 0, "type": "electric_scooter", "bike_id": "f354256c7465a40a92c9a8f7bae8843c", "is_disabled": 0, "rental_uris": {"android": "https://dc.lft.to/lastmile_qr_scan", "ios": "https://dc.lft.to/lastmile_qr_scan"}, "lon": -77.0164285, "fusion_lat": 0.0}, {"name": "73d5b43d46619bce8cf593e230d14d0b", "fusion_lon": 0.0, "lat": 38.88120266666667, "is_reserved": 0, "type": "electric_scooter", "bike_id": "73d5b43d46619bce8cf593e230d14d0b", "is_disabled": 0, "rental_uris": {"android": "https://dc.lft.to/lastmile_qr_scan", "ios": "https://dc.lft.to/lastmile_qr_scan"}, "lon": -77.016585, "fusion_lat": 0.0}, {"name": "94ea0f39900d55e158b003a16bc3c287", "fusion_lon": 0.0, "lat": 38.901902666666665, "is_reserved": 0, "type": "electric_scooter", "bike_id": "94ea0f39900d55e158b003a16bc3c287", "is_disabled": 0, "rental_uris": {"android": "https://dc.lft.to/lastmile_qr_scan", "ios": "https://dc.lft.to/lastmile_qr_scan"}, "lon": -77.01295216666666, "fusion_lat": 0.0}, {"name": "e4a23ca597dbcc1a54328202377a8a5a", "fusion_lon": 0.0, "lat": 38.907182166666665, "is_reserved": 0, "type": "electric_scooter", "bike_id": "e4a23ca597dbcc1a54328202377a8a5a", "is_disabled": 0, "rental_uris": {"android": "https://dc.lft.to/lastmile_qr_scan", "ios": "https://dc.lft.to/lastmile_qr_scan"}, "lon": -76.98459, "fusion_lat": 0.0}, {"name": "a1083374a8d646f61af7ae24ca0a7d95", "fusion_lon": 0.0, "lat": 38.87122083333333, "is_reserved": 0, "type": "electric_scooter", "bike_id": "a1083374a8d646f61af7ae24ca0a7d95", "is_disabled": 0, "rental_uris": {"android": "https://dc.lft.to/lastmile_qr_scan", "ios": "https://dc.lft.to/lastmile_qr_scan"}, "lon": -77.00734166666666, "fusion_lat": 0.0}, {"name": "0e79724d05d242e7c643f3ba09a0c349", "fusion_lon": 0.0, "lat": 38.88745383333333, "is_reserved": 0, "type": "electric_scooter", "bike_id": "0e79724d05d242e7c643f3ba09a0c349", "is_disabled": 0, "rental_uris": {"android": "https://dc.lft.to/lastmile_qr_scan", "ios": "https://dc.lft.to/lastmile_qr_scan"}, "lon": -77.02844883333333, "fusion_lat": 0.0}, {"name": "35776b430320890efe93bd47e38c1227", "fusion_lon": 0.0, "lat": 38.8930585, "is_reserved": 0, "type": "electric_scooter", "bike_id": "35776b430320890efe93bd47e38c1227", "is_disabled": 0, "rental_uris": {"android": "https://dc.lft.to/lastmile_qr_scan", "ios": "https://dc.lft.to/lastmile_qr_scan"}, "lon": -77.05007933333333, "fusion_lat": 0.0}, {"name": "644a976009312c88ef07ac5f4911d770", "fusion_lon": 0.0, "lat": 38.935766, "is_reserved": 0, "type": "electric_scooter", "bike_id": "644a976009312c88ef07ac5f4911d770", "is_disabled": 0, "rental_uris": {"android": "https://dc.lft.to/lastmile_qr_scan", "ios": "https://dc.lft.to/lastmile_qr_scan"}, "lon": -77.021272, "fusion_lat": 0.0}, {"name": "078e3432bcd8359fc985e628c5917fd1", "fusion_lon": 0.0, "lat": 38.8843165, "is_reserved": 0, "type": "electric_scooter", "bike_id": "078e3432bcd8359fc985e628c5917fd1", "is_disabled": 0, "rental_uris": {"android": "https://dc.lft.to/lastmile_qr_scan", "ios": "https://dc.lft.to/lastmile_qr_scan"}, "lon": -76.95747733333333, "fusion_lat": 0.0}, {"name": "f5405d87c767fb2bb1ab33dcb50103ca", "fusion_lon": 0.0, "lat": 38.936552666666664, "is_reserved": 0, "type": "electric_scooter", "bike_id": "f5405d87c767fb2bb1ab33dcb50103ca", "is_disabled": 0, "rental_uris": {"android": "https://dc.lft.to/lastmile_qr_scan", "ios": "https://dc.lft.to/lastmile_qr_scan"}, "lon": -77.02637466666667, "fusion_lat": 0.0}, {"name": "b46d7cceaa3c9c7b440729e19b6c4e64", "fusion_lon": 0.0, "lat": 38.92868333333333, "is_reserved": 0, "type": "electric_scooter", "bike_id": "b46d7cceaa3c9c7b440729e19b6c4e64", "is_disabled": 0, "rental_uris": {"android": "https://dc.lft.to/lastmile_qr_scan", "ios": "https://dc.lft.to/lastmile_qr_scan"}, "lon": -77.02849, "fusion_lat": 0.0}, {"name": "461e341cac4f234594a9547f9513ce4b", "fusion_lon": 0.0, "lat": 38.90203866666667, "is_reserved": 0, "type": "electric_scooter", "bike_id": "461e341cac4f234594a9547f9513ce4b", "is_disabled": 0, "rental_uris": {"android": "https://dc.lft.to/lastmile_qr_scan", "ios": "https://dc.lft.to/lastmile_qr_scan"}, "lon": -77.02378783333333, "fusion_lat": 0.0}, {"name": "65f6d42056d38f9c1b82907cc55b0825", "fusion_lon": 0.0, "lat": 38.914872333333335, "is_reserved": 0, "type": "electric_scooter", "bike_id": "65f6d42056d38f9c1b82907cc55b0825", "is_disabled": 0, "rental_uris": {"android": "https://dc.lft.to/lastmile_qr_scan", "ios": "https://dc.lft.to/lastmile_qr_scan"}, "lon": -76.985787, "fusion_lat": 0.0}, {"name": "2e926ef758a43d779586313c2fb09c13", "fusion_lon": 0.0, "lat": 38.917971, "is_reserved": 0, "type": "electric_scooter", "bike_id": "2e926ef758a43d779586313c2fb09c13", "is_disabled": 0, "rental_uris": {"android": "https://dc.lft.to/lastmile_qr_scan", "ios": "https://dc.lft.to/lastmile_qr_scan"}, "lon": -77.03214333333334, "fusion_lat": 0.0}, {"name": "a62d7e8c2d04d6219024754d30b5958b", "fusion_lon": 0.0, "lat": 38.92353033333333, "is_reserved": 0, "type": "electric_scooter", "bike_id": "a62d7e8c2d04d6219024754d30b5958b", "is_disabled": 0, "rental_uris": {"android": "https://dc.lft.to/lastmile_qr_scan", "ios": "https://dc.lft.to/lastmile_qr_scan"}, "lon": -77.05072966666667, "fusion_lat": 0.0}, {"name": "a5acc80b529ca503ef6eb137902a5dc6", "fusion_lon": 0.0, "lat": 38.902392666666664, "is_reserved": 0, "type": "electric_scooter", "bike_id": "a5acc80b529ca503ef6eb137902a5dc6", "is_disabled": 0, "rental_uris": {"android": "https://dc.lft.to/lastmile_qr_scan", "ios": "https://dc.lft.to/lastmile_qr_scan"}, "lon": -76.974073, "fusion_lat": 0.0}, {"name": "5579db423733e25d9323882091e69914", "fusion_lon": 0.0, "lat": 38.91986566666667, "is_reserved": 0, "type": "electric_scooter", "bike_id": "5579db423733e25d9323882091e69914", "is_disabled": 0, "rental_uris": {"android": "https://dc.lft.to/lastmile_qr_scan", "ios": "https://dc.lft.to/lastmile_qr_scan"}, "lon": -76.97304133333333, "fusion_lat": 0.0}, {"name": "038c63ec50b53ff33f2c1457f0a53a1e", "fusion_lon": 0.0, "lat": 38.92111383333334, "is_reserved": 0, "type": "electric_scooter", "bike_id": "038c63ec50b53ff33f2c1457f0a53a1e", "is_disabled": 0, "rental_uris": {"android": "https://dc.lft.to/lastmile_qr_scan", "ios": "https://dc.lft.to/lastmile_qr_scan"}, "lon": -77.033301, "fusion_lat": 0.0}, {"name": "0f6424f631e6867f559fc736f6419a0d", "fusion_lon": 0.0, "lat": 38.92503583333333, "is_reserved": 0, "type": "electric_scooter", "bike_id": "0f6424f631e6867f559fc736f6419a0d", "is_disabled": 0, "rental_uris": {"android": "https://dc.lft.to/lastmile_qr_scan", "ios": "https://dc.lft.to/lastmile_qr_scan"}, "lon": -77.0089075, "fusion_lat": 0.0}, {"name": "bd55a2f2eeb4a745ccfb914e2e3ac027", "fusion_lon": 0.0, "lat": 38.90777816666667, "is_reserved": 0, "type": "electric_scooter", "bike_id": "bd55a2f2eeb4a745ccfb914e2e3ac027", "is_disabled": 0, "rental_uris": {"android": "https://dc.lft.to/lastmile_qr_scan", "ios": "https://dc.lft.to/lastmile_qr_scan"}, "lon": -77.03827633333333, "fusion_lat": 0.0}, {"name": "2989b46f15d23dba9d0419173986654f", "fusion_lon": 0.0, "lat": 38.8624155, "is_reserved": 0, "type": "electric_scooter", "bike_id": "2989b46f15d23dba9d0419173986654f", "is_disabled": 0, "rental_uris": {"android": "https://dc.lft.to/lastmile_qr_scan", "ios": "https://dc.lft.to/lastmile_qr_scan"}, "lon": -76.994927, "fusion_lat": 0.0}, {"name": "6fb33d9d44d15ec469f5296860452dc5", "fusion_lon": 0.0, "lat": 38.874588833333334, "is_reserved": 0, "type": "electric_scooter", "bike_id": "6fb33d9d44d15ec469f5296860452dc5", "is_disabled": 0, "rental_uris": {"android": "https://dc.lft.to/lastmile_qr_scan", "ios": "https://dc.lft.to/lastmile_qr_scan"}, "lon": -77.00547333333333, "fusion_lat": 0.0}, {"name": "92a53a9c8f354d064dd974dcdc114b32", "fusion_lon": 0.0, "lat": 38.935291666666664, "is_reserved": 0, "type": "electric_scooter", "bike_id": "92a53a9c8f354d064dd974dcdc114b32", "is_disabled": 0, "rental_uris": {"android": "https://dc.lft.to/lastmile_qr_scan", "ios": "https://dc.lft.to/lastmile_qr_scan"}, "lon": -77.054485, "fusion_lat": 0.0}, {"name": "7f34382d2e206726a0c34700e49f0741", "fusion_lon": 0.0, "lat": 38.90645766666667, "is_reserved": 0, "type": "electric_scooter", "bike_id": "7f34382d2e206726a0c34700e49f0741", "is_disabled": 0, "rental_uris": {"android": "https://dc.lft.to/lastmile_qr_scan", "ios": "https://dc.lft.to/lastmile_qr_scan"}, "lon": -77.02493566666666, "fusion_lat": 0.0}, {"name": "07d27556fe3d9dcd8e2e462c12eeee6d", "fusion_lon": 0.0, "lat": 38.8922705, "is_reserved": 0, "type": "electric_scooter", "bike_id": "07d27556fe3d9dcd8e2e462c12eeee6d", "is_disabled": 0, "rental_uris": {"android": "https://dc.lft.to/lastmile_qr_scan", "ios": "https://dc.lft.to/lastmile_qr_scan"}, "lon": -77.043746, "fusion_lat": 0.0}, {"name": "d98db1d6acd3ccd59e99dce9ad58159d", "fusion_lon": 0.0, "lat": 38.92431466666667, "is_reserved": 0, "type": "electric_bike", "bike_id": "d98db1d6acd3ccd59e99dce9ad58159d", "is_disabled": 0, "rental_uris": {"android": "https://dc.lft.to/lastmile_qr_scan", "ios": "https://dc.lft.to/lastmile_qr_scan"}, "lon": -76.99645766666667, "fusion_lat": 0.0}, {"name": "ee42ae6571445d36b593e17c4cc9c793", "fusion_lon": 0.0, "lat": 38.89521966666667, "is_reserved": 0, "type": "electric_scooter", "bike_id": "ee42ae6571445d36b593e17c4cc9c793", "is_disabled": 0, "rental_uris": {"android": "https://dc.lft.to/lastmile_qr_scan", "ios": "https://dc.lft.to/lastmile_qr_scan"}, "lon": -76.988259, "fusion_lat": 0.0}, {"name": "adaaf3db0450ce683e9422c57ee11a9f", "fusion_lon": 0.0, "lat": 38.922813833333336, "is_reserved": 0, "type": "electric_scooter", "bike_id": "adaaf3db0450ce683e9422c57ee11a9f", "is_disabled": 0, "rental_uris": {"android": "https://dc.lft.to/lastmile_qr_scan", "ios": "https://dc.lft.to/lastmile_qr_scan"}, "lon": -77.04463316666667, "fusion_lat": 0.0}, {"name": "c6adae6ec0fd9970cfe0ca89885d8f95", "fusion_lon": 0.0, "lat": 38.887461333333334, "is_reserved": 0, "type": "electric_scooter", "bike_id": "c6adae6ec0fd9970cfe0ca89885d8f95", "is_disabled": 0, "rental_uris": {"android": "https://dc.lft.to/lastmile_qr_scan", "ios": "https://dc.lft.to/lastmile_qr_scan"}, "lon": -77.02573283333334, "fusion_lat": 0.0}, {"name": "f944127a03117fbc9babe01280cfd694", "fusion_lon": 0.0, "lat": 38.9002675, "is_reserved": 0, "type": "electric_scooter", "bike_id": "f944127a03117fbc9babe01280cfd694", "is_disabled": 0, "rental_uris": {"android": "https://dc.lft.to/lastmile_qr_scan", "ios": "https://dc.lft.to/lastmile_qr_scan"}, "lon": -76.99902233333333, "fusion_lat": 0.0}, {"name": "abb815775178c080b9f94e9cc8593632", "fusion_lon": 0.0, "lat": 38.895432, "is_reserved": 0, "type": "electric_scooter", "bike_id": "abb815775178c080b9f94e9cc8593632", "is_disabled": 0, "rental_uris": {"android": "https://dc.lft.to/lastmile_qr_scan", "ios": "https://dc.lft.to/lastmile_qr_scan"}, "lon": -76.94924933333333, "fusion_lat": 0.0}, {"name": "4a438e8917098b353e52547aede870f7", "fusion_lon": 0.0, "lat": 38.8369675, "is_reserved": 0, "type": "electric_scooter", "bike_id": "4a438e8917098b353e52547aede870f7", "is_disabled": 0, "rental_uris": {"android": "https://dc.lft.to/lastmile_qr_scan", "ios": "https://dc.lft.to/lastmile_qr_scan"}, "lon": -77.005693, "fusion_lat": 0.0}, {"name": "4e74ba65cceb9f5d95b8c2be796ef071", "fusion_lon": 0.0, "lat": 38.892248, "is_reserved": 0, "type": "electric_scooter", "bike_id": "4e74ba65cceb9f5d95b8c2be796ef071", "is_disabled": 0, "rental_uris": {"android": "https://dc.lft.to/lastmile_qr_scan", "ios": "https://dc.lft.to/lastmile_qr_scan"}, "lon": -77.04799166666666, "fusion_lat": 0.0}, {"name": "239c4635a3eeff23c08e70bc14bc3844", "fusion_lon": 0.0, "lat": 38.95850166666666, "is_reserved": 0, "type": "electric_scooter", "bike_id": "239c4635a3eeff23c08e70bc14bc3844", "is_disabled": 0, "rental_uris": {"android": "https://dc.lft.to/lastmile_qr_scan", "ios": "https://dc.lft.to/lastmile_qr_scan"}, "lon": -77.07004333333333, "fusion_lat": 0.0}, {"name": "65c613a2d0c19be821e3d583fa3f6190", "fusion_lon": 0.0, "lat": 38.925675166666664, "is_reserved": 0, "type": "electric_bike", "bike_id": "65c613a2d0c19be821e3d583fa3f6190", "is_disabled": 0, "rental_uris": {"android": "https://dc.lft.to/lastmile_qr_scan", "ios": "https://dc.lft.to/lastmile_qr_scan"}, "lon": -77.00173216666667, "fusion_lat": 0.0}, {"name": "1553afbdb66518d3ab28622cdf0649e4", "fusion_lon": 0.0, "lat": 38.9225525, "is_reserved": 0, "type": "electric_bike", "bike_id": "1553afbdb66518d3ab28622cdf0649e4", "is_disabled": 0, "rental_uris": {"android": "https://dc.lft.to/lastmile_qr_scan", "ios": "https://dc.lft.to/lastmile_qr_scan"}, "lon": -77.0194775, "fusion_lat": 0.0}, {"name": "51aec1ce5cb809e5c8eb05aa93861a82", "fusion_lon": 0.0, "lat": 38.90472033333333, "is_reserved": 0, "type": "electric_scooter", "bike_id": "51aec1ce5cb809e5c8eb05aa93861a82", "is_disabled": 0, "rental_uris": {"android": "https://dc.lft.to/lastmile_qr_scan", "ios": "https://dc.lft.to/lastmile_qr_scan"}, "lon": -77.0483275, "fusion_lat": 0.0}, {"name": "8e42341b19b9b1c63afbae4563615767", "fusion_lon": 0.0, "lat": 38.844294166666664, "is_reserved": 0, "type": "electric_scooter", "bike_id": "8e42341b19b9b1c63afbae4563615767", "is_disabled": 0, "rental_uris": {"android": "https://dc.lft.to/lastmile_qr_scan", "ios": "https://dc.lft.to/lastmile_qr_scan"}, "lon": -76.99777566666667, "fusion_lat": 0.0}, {"name": "ec43207210454c96802c450deaa1285a", "fusion_lon": 0.0, "lat": 38.916735, "is_reserved": 0, "type": "electric_scooter", "bike_id": "ec43207210454c96802c450deaa1285a", "is_disabled": 0, "rental_uris": {"android": "https://dc.lft.to/lastmile_qr_scan", "ios": "https://dc.lft.to/lastmile_qr_scan"}, "lon": -77.03406466666667, "fusion_lat": 0.0}, {"name": "9c7cc8180953cdda9815f5c9823556fe", "fusion_lon": 0.0, "lat": 38.908281, "is_reserved": 0, "type": "electric_scooter", "bike_id": "9c7cc8180953cdda9815f5c9823556fe", "is_disabled": 0, "rental_uris": {"android": "https://dc.lft.to/lastmile_qr_scan", "ios": "https://dc.lft.to/lastmile_qr_scan"}, "lon": -77.03309716666666, "fusion_lat": 0.0}, {"name": "1293e78a8bad413e2d1131c43741a94d", "fusion_lon": 0.0, "lat": 38.891159, "is_reserved": 0, "type": "electric_scooter", "bike_id": "1293e78a8bad413e2d1131c43741a94d", "is_disabled": 0, "rental_uris": {"android": "https://dc.lft.to/lastmile_qr_scan", "ios": "https://dc.lft.to/lastmile_qr_scan"}, "lon": -76.99164016666667, "fusion_lat": 0.0}, {"name": "5e8ef023d8901f1ac8238010969335e6", "fusion_lon": 0.0, "lat": 38.933787, "is_reserved": 0, "type": "electric_scooter", "bike_id": "5e8ef023d8901f1ac8238010969335e6", "is_disabled": 0, "rental_uris": {"android": "https://dc.lft.to/lastmile_qr_scan", "ios": "https://dc.lft.to/lastmile_qr_scan"}, "lon": -77.032584, "fusion_lat": 0.0}, {"name": "3ba3bbab2d354986995bb379f86edf2d", "fusion_lon": 0.0, "lat": 38.92554716666667, "is_reserved": 0, "type": "electric_scooter", "bike_id": "3ba3bbab2d354986995bb379f86edf2d", "is_disabled": 0, "rental_uris": {"android": "https://dc.lft.to/lastmile_qr_scan", "ios": "https://dc.lft.to/lastmile_qr_scan"}, "lon": -77.037816, "fusion_lat": 0.0}, {"name": "998358e8bf9fda2b983e7aec03cf286d", "fusion_lon": 0.0, "lat": 38.9186875, "is_reserved": 0, "type": "electric_scooter", "bike_id": "998358e8bf9fda2b983e7aec03cf286d", "is_disabled": 0, "rental_uris": {"android": "https://dc.lft.to/lastmile_qr_scan", "ios": "https://dc.lft.to/lastmile_qr_scan"}, "lon": -77.0476175, "fusion_lat": 0.0}, {"name": "b498f593796cde12d574b629e0a039f4", "fusion_lon": 0.0, "lat": 38.896107666666666, "is_reserved": 0, "type": "electric_scooter", "bike_id": "b498f593796cde12d574b629e0a039f4", "is_disabled": 0, "rental_uris": {"android": "https://dc.lft.to/lastmile_qr_scan", "ios": "https://dc.lft.to/lastmile_qr_scan"}, "lon": -77.0456255, "fusion_lat": 0.0}, {"name": "424d5c83d49f425fb74723fb9231469f", "fusion_lon": 0.0, "lat": 38.920857833333336, "is_reserved": 0, "type": "electric_scooter", "bike_id": "424d5c83d49f425fb74723fb9231469f", "is_disabled": 0, "rental_uris": {"android": "https://dc.lft.to/lastmile_qr_scan", "ios": "https://dc.lft.to/lastmile_qr_scan"}, "lon": -77.022911, "fusion_lat": 0.0}, {"name": "8052be086f8f8477129fd8f2cb6c7811", "fusion_lon": 0.0, "lat": 38.88595816666667, "is_reserved": 0, "type": "electric_scooter", "bike_id": "8052be086f8f8477129fd8f2cb6c7811", "is_disabled": 0, "rental_uris": {"android": "https://dc.lft.to/lastmile_qr_scan", "ios": "https://dc.lft.to/lastmile_qr_scan"}, "lon": -76.99100983333334, "fusion_lat": 0.0}, {"name": "e846f96d9520ee5f584263d2b8786059", "fusion_lon": 0.0, "lat": 38.915529666666664, "is_reserved": 0, "type": "electric_scooter", "bike_id": "e846f96d9520ee5f584263d2b8786059", "is_disabled": 0, "rental_uris": {"android": "https://dc.lft.to/lastmile_qr_scan", "ios": "https://dc.lft.to/lastmile_qr_scan"}, "lon": -77.0417545, "fusion_lat": 0.0}, {"name": "69eb0d7fa4d58699900ac500151eee1c", "fusion_lon": 0.0, "lat": 38.90626233333333, "is_reserved": 0, "type": "electric_scooter", "bike_id": "69eb0d7fa4d58699900ac500151eee1c", "is_disabled": 0, "rental_uris": {"android": "https://dc.lft.to/lastmile_qr_scan", "ios": "https://dc.lft.to/lastmile_qr_scan"}, "lon": -77.0412105, "fusion_lat": 0.0}, {"name": "051481cdfd5babef98e31c2facaee008", "fusion_lon": 0.0, "lat": 38.90726733333333, "is_reserved": 0, "type": "electric_scooter", "bike_id": "051481cdfd5babef98e31c2facaee008", "is_disabled": 0, "rental_uris": {"android": "https://dc.lft.to/lastmile_qr_scan", "ios": "https://dc.lft.to/lastmile_qr_scan"}, "lon": -77.04510116666667, "fusion_lat": 0.0}, {"name": "5d0eddfeb0bb08cbc364c423988dc020", "fusion_lon": 0.0, "lat": 38.95738333333333, "is_reserved": 0, "type": "electric_scooter", "bike_id": "5d0eddfeb0bb08cbc364c423988dc020", "is_disabled": 0, "rental_uris": {"android": "https://dc.lft.to/lastmile_qr_scan", "ios": "https://dc.lft.to/lastmile_qr_scan"}, "lon": -77.02408616666666, "fusion_lat": 0.0}, {"name": "669b0b98560577a214e3fe18a199ecd3", "fusion_lon": 0.0, "lat": 38.90362283333333, "is_reserved": 0, "type": "electric_scooter", "bike_id": "669b0b98560577a214e3fe18a199ecd3", "is_disabled": 0, "rental_uris": {"android": "https://dc.lft.to/lastmile_qr_scan", "ios": "https://dc.lft.to/lastmile_qr_scan"}, "lon": -77.039883, "fusion_lat": 0.0}, {"name": "becf6315241f71f77104903792370c16", "fusion_lon": 0.0, "lat": 38.92772683333333, "is_reserved": 0, "type": "electric_scooter", "bike_id": "becf6315241f71f77104903792370c16", "is_disabled": 0, "rental_uris": {"android": "https://dc.lft.to/lastmile_qr_scan", "ios": "https://dc.lft.to/lastmile_qr_scan"}, "lon": -77.027148, "fusion_lat": 0.0}, {"name": "406988a5cdd0b90d884b169c5c8d45f6", "fusion_lon": 0.0, "lat": 38.91990116666667, "is_reserved": 0, "type": "electric_scooter", "bike_id": "406988a5cdd0b90d884b169c5c8d45f6", "is_disabled": 0, "rental_uris": {"android": "https://dc.lft.to/lastmile_qr_scan", "ios": "https://dc.lft.to/lastmile_qr_scan"}, "lon": -77.04163216666667, "fusion_lat": 0.0}, {"name": "d651f065b6aa1685a5d29b4e01342de1", "fusion_lon": 0.0, "lat": 38.90630066666667, "is_reserved": 0, "type": "electric_scooter", "bike_id": "d651f065b6aa1685a5d29b4e01342de1", "is_disabled": 0, "rental_uris": {"android": "https://dc.lft.to/lastmile_qr_scan", "ios": "https://dc.lft.to/lastmile_qr_scan"}, "lon": -77.0691385, "fusion_lat": 0.0}, {"name": "86a6e341e8c9aafb0370d8e33c345ec3", "fusion_lon": 0.0, "lat": 38.904092166666665, "is_reserved": 0, "type": "electric_scooter", "bike_id": "86a6e341e8c9aafb0370d8e33c345ec3", "is_disabled": 0, "rental_uris": {"android": "https://dc.lft.to/lastmile_qr_scan", "ios": "https://dc.lft.to/lastmile_qr_scan"}, "lon": -76.973361, "fusion_lat": 0.0}, {"name": "3af5d5cb634f7183b3df6b6d18600700", "fusion_lon": 0.0, "lat": 38.88242483333333, "is_reserved": 0, "type": "electric_scooter", "bike_id": "3af5d5cb634f7183b3df6b6d18600700", "is_disabled": 0, "rental_uris": {"android": "https://dc.lft.to/lastmile_qr_scan", "ios": "https://dc.lft.to/lastmile_qr_scan"}, "lon": -76.99121683333334, "fusion_lat": 0.0}, {"name": "79d8c52a18be328a0692787159b854c9", "fusion_lon": 0.0, "lat": 38.90801233333333, "is_reserved": 0, "type": "electric_scooter", "bike_id": "79d8c52a18be328a0692787159b854c9", "is_disabled": 0, "rental_uris": {"android": "https://dc.lft.to/lastmile_qr_scan", "ios": "https://dc.lft.to/lastmile_qr_scan"}, "lon": -77.03426366666666, "fusion_lat": 0.0}, {"name": "c199330de2f8f4d8e22556f5215c76e7", "fusion_lon": 0.0, "lat": 38.89844566666667, "is_reserved": 0, "type": "electric_scooter", "bike_id": "c199330de2f8f4d8e22556f5215c76e7", "is_disabled": 0, "rental_uris": {"android": "https://dc.lft.to/lastmile_qr_scan", "ios": "https://dc.lft.to/lastmile_qr_scan"}, "lon": -77.0238845, "fusion_lat": 0.0}, {"name": "32a4caf83e94743e6090619a5eea76dd", "fusion_lon": 0.0, "lat": 38.91716983333333, "is_reserved": 0, "type": "electric_scooter", "bike_id": "32a4caf83e94743e6090619a5eea76dd", "is_disabled": 0, "rental_uris": {"android": "https://dc.lft.to/lastmile_qr_scan", "ios": "https://dc.lft.to/lastmile_qr_scan"}, "lon": -77.01213666666666, "fusion_lat": 0.0}, {"name": "aba30d00ae1046b070d1cdbe02973b9e", "fusion_lon": 0.0, "lat": 38.8972355, "is_reserved": 0, "type": "electric_scooter", "bike_id": "aba30d00ae1046b070d1cdbe02973b9e", "is_disabled": 0, "rental_uris": {"android": "https://dc.lft.to/lastmile_qr_scan", "ios": "https://dc.lft.to/lastmile_qr_scan"}, "lon": -77.0078135, "fusion_lat": 0.0}, {"name": "c058c921daceef88886ba9abf26b8c7b", "fusion_lon": 0.0, "lat": 38.919949, "is_reserved": 0, "type": "electric_scooter", "bike_id": "c058c921daceef88886ba9abf26b8c7b", "is_disabled": 0, "rental_uris": {"android": "https://dc.lft.to/lastmile_qr_scan", "ios": "https://dc.lft.to/lastmile_qr_scan"}, "lon": -77.0239385, "fusion_lat": 0.0}, {"name": "587923ca345750c43864001358f74e09", "fusion_lon": 0.0, "lat": 38.921565666666666, "is_reserved": 0, "type": "electric_scooter", "bike_id": "587923ca345750c43864001358f74e09", "is_disabled": 0, "rental_uris": {"android": "https://dc.lft.to/lastmile_qr_scan", "ios": "https://dc.lft.to/lastmile_qr_scan"}, "lon": -77.03517683333334, "fusion_lat": 0.0}, {"name": "aaf85052853c2c211fada7d2f14abc81", "fusion_lon": 0.0, "lat": 38.9114085, "is_reserved": 0, "type": "electric_scooter", "bike_id": "aaf85052853c2c211fada7d2f14abc81", "is_disabled": 0, "rental_uris": {"android": "https://dc.lft.to/lastmile_qr_scan", "ios": "https://dc.lft.to/lastmile_qr_scan"}, "lon": -77.02390416666667, "fusion_lat": 0.0}, {"name": "38ee23360a4c281ee79f8819a640b9f0", "fusion_lon": 0.0, "lat": 38.913755, "is_reserved": 0, "type": "electric_scooter", "bike_id": "38ee23360a4c281ee79f8819a640b9f0", "is_disabled": 0, "rental_uris": {"android": "https://dc.lft.to/lastmile_qr_scan", "ios": "https://dc.lft.to/lastmile_qr_scan"}, "lon": -77.01423066666666, "fusion_lat": 0.0}, {"name": "78c10bfedc4cc66a8ccd35d27f5a7f45", "fusion_lon": 0.0, "lat": 38.90379866666667, "is_reserved": 0, "type": "electric_scooter", "bike_id": "78c10bfedc4cc66a8ccd35d27f5a7f45", "is_disabled": 0, "rental_uris": {"android": "https://dc.lft.to/lastmile_qr_scan", "ios": "https://dc.lft.to/lastmile_qr_scan"}, "lon": -77.02948583333334, "fusion_lat": 0.0}, {"name": "1004aaa40e4d796585afb8ea51492780", "fusion_lon": 0.0, "lat": 38.90702316666667, "is_reserved": 0, "type": "electric_scooter", "bike_id": "1004aaa40e4d796585afb8ea51492780", "is_disabled": 0, "rental_uris": {"android": "https://dc.lft.to/lastmile_qr_scan", "ios": "https://dc.lft.to/lastmile_qr_scan"}, "lon": -77.03527416666667, "fusion_lat": 0.0}, {"name": "bc62c9a5b995dab99a26804004a3e6c3", "fusion_lon": 0.0, "lat": 38.865172333333334, "is_reserved": 0, "type": "electric_bike", "bike_id": "bc62c9a5b995dab99a26804004a3e6c3", "is_disabled": 0, "rental_uris": {"android": "https://dc.lft.to/lastmile_qr_scan", "ios": "https://dc.lft.to/lastmile_qr_scan"}, "lon": -76.973335, "fusion_lat": 0.0}, {"name": "45f9ca0685fa1b9a18d8eedf9cca91c7", "fusion_lon": 0.0, "lat": 38.898535333333335, "is_reserved": 0, "type": "electric_scooter", "bike_id": "45f9ca0685fa1b9a18d8eedf9cca91c7", "is_disabled": 0, "rental_uris": {"android": "https://dc.lft.to/lastmile_qr_scan", "ios": "https://dc.lft.to/lastmile_qr_scan"}, "lon": -76.99033683333333, "fusion_lat": 0.0}, {"name": "c7f9fe0b4d5d658b12b14260067e51c1", "fusion_lon": 0.0, "lat": 38.919982833333336, "is_reserved": 0, "type": "electric_scooter", "bike_id": "c7f9fe0b4d5d658b12b14260067e51c1", "is_disabled": 0, "rental_uris": {"android": "https://dc.lft.to/lastmile_qr_scan", "ios": "https://dc.lft.to/lastmile_qr_scan"}, "lon": -77.02392066666667, "fusion_lat": 0.0}, {"name": "9d7d671596d832cfd12c16e04c3030c9", "fusion_lon": 0.0, "lat": 38.91742633333333, "is_reserved": 0, "type": "electric_scooter", "bike_id": "9d7d671596d832cfd12c16e04c3030c9", "is_disabled": 0, "rental_uris": {"android": "https://dc.lft.to/lastmile_qr_scan", "ios": "https://dc.lft.to/lastmile_qr_scan"}, "lon": -77.03643916666667, "fusion_lat": 0.0}, {"name": "792a52d5b2fe6d86d318bebb92970f08", "fusion_lon": 0.0, "lat": 38.926782333333335, "is_reserved": 0, "type": "electric_scooter", "bike_id": "792a52d5b2fe6d86d318bebb92970f08", "is_disabled": 0, "rental_uris": {"android": "https://dc.lft.to/lastmile_qr_scan", "ios": "https://dc.lft.to/lastmile_qr_scan"}, "lon": -76.99556833333334, "fusion_lat": 0.0}, {"name": "415fb0cfac4c70914592d25619de8c15", "fusion_lon": 0.0, "lat": 38.90173433333333, "is_reserved": 0, "type": "electric_scooter", "bike_id": "415fb0cfac4c70914592d25619de8c15", "is_disabled": 0, "rental_uris": {"android": "https://dc.lft.to/lastmile_qr_scan", "ios": "https://dc.lft.to/lastmile_qr_scan"}, "lon": -76.98300133333333, "fusion_lat": 0.0}, {"name": "b018ba03d03c3cccee6f7378b4d301ef", "fusion_lon": 0.0, "lat": 38.887424833333334, "is_reserved": 0, "type": "electric_scooter", "bike_id": "b018ba03d03c3cccee6f7378b4d301ef", "is_disabled": 0, "rental_uris": {"android": "https://dc.lft.to/lastmile_qr_scan", "ios": "https://dc.lft.to/lastmile_qr_scan"}, "lon": -77.02732033333334, "fusion_lat": 0.0}, {"name": "49548c5a406d9a3ee93c41f31f691b62", "fusion_lon": 0.0, "lat": 38.915532, "is_reserved": 0, "type": "electric_scooter", "bike_id": "49548c5a406d9a3ee93c41f31f691b62", "is_disabled": 0, "rental_uris": {"android": "https://dc.lft.to/lastmile_qr_scan", "ios": "https://dc.lft.to/lastmile_qr_scan"}, "lon": -77.02440583333333, "fusion_lat": 0.0}, {"name": "487fb8c47ab13d0355976d0e583e4528", "fusion_lon": 0.0, "lat": 38.87552816666667, "is_reserved": 0, "type": "electric_scooter", "bike_id": "487fb8c47ab13d0355976d0e583e4528", "is_disabled": 0, "rental_uris": {"android": "https://dc.lft.to/lastmile_qr_scan", "ios": "https://dc.lft.to/lastmile_qr_scan"}, "lon": -77.0056965, "fusion_lat": 0.0}, {"name": "b010fcdcafdae0f1fd382d75e4cf2af5", "fusion_lon": 0.0, "lat": 38.88402716666667, "is_reserved": 0, "type": "electric_scooter", "bike_id": "b010fcdcafdae0f1fd382d75e4cf2af5", "is_disabled": 0, "rental_uris": {"android": "https://dc.lft.to/lastmile_qr_scan", "ios": "https://dc.lft.to/lastmile_qr_scan"}, "lon": -76.9539285, "fusion_lat": 0.0}, {"name": "2598bd5a8def27cd258e22b3a00b955f", "fusion_lon": 0.0, "lat": 38.9083745, "is_reserved": 0, "type": "electric_bike", "bike_id": "2598bd5a8def27cd258e22b3a00b955f", "is_disabled": 0, "rental_uris": {"android": "https://dc.lft.to/lastmile_qr_scan", "ios": "https://dc.lft.to/lastmile_qr_scan"}, "lon": -76.93315416666667, "fusion_lat": 0.0}, {"name": "99a12eae5d9b807ff24099df334c685b", "fusion_lon": 0.0, "lat": 38.919762166666665, "is_reserved": 0, "type": "electric_scooter", "bike_id": "99a12eae5d9b807ff24099df334c685b", "is_disabled": 0, "rental_uris": {"android": "https://dc.lft.to/lastmile_qr_scan", "ios": "https://dc.lft.to/lastmile_qr_scan"}, "lon": -77.04164866666666, "fusion_lat": 0.0}, {"name": "34788155c2d13430f3a26ea575d37249", "fusion_lon": 0.0, "lat": 38.9404205, "is_reserved": 0, "type": "electric_scooter", "bike_id": "34788155c2d13430f3a26ea575d37249", "is_disabled": 0, "rental_uris": {"android": "https://dc.lft.to/lastmile_qr_scan", "ios": "https://dc.lft.to/lastmile_qr_scan"}, "lon": -77.02897316666666, "fusion_lat": 0.0}, {"name": "580d740fe6f90263c356cde181e16551", "fusion_lon": 0.0, "lat": 38.83829166666666, "is_reserved": 0, "type": "electric_bike", "bike_id": "580d740fe6f90263c356cde181e16551", "is_disabled": 0, "rental_uris": {"android": "https://dc.lft.to/lastmile_qr_scan", "ios": "https://dc.lft.to/lastmile_qr_scan"}, "lon": -77.07913816666667, "fusion_lat": 0.0}, {"name": "118fb49271587cc6683d06738b235166", "fusion_lon": 0.0, "lat": 38.91071766666666, "is_reserved": 0, "type": "electric_scooter", "bike_id": "118fb49271587cc6683d06738b235166", "is_disabled": 0, "rental_uris": {"android": "https://dc.lft.to/lastmile_qr_scan", "ios": "https://dc.lft.to/lastmile_qr_scan"}, "lon": -77.03843533333334, "fusion_lat": 0.0}, {"name": "e230f4fc8425a93698d4502aac07fa6d", "fusion_lon": 0.0, "lat": 38.88658266666667, "is_reserved": 0, "type": "electric_scooter", "bike_id": "e230f4fc8425a93698d4502aac07fa6d", "is_disabled": 0, "rental_uris": {"android": "https://dc.lft.to/lastmile_qr_scan", "ios": "https://dc.lft.to/lastmile_qr_scan"}, "lon": -76.999888, "fusion_lat": 0.0}, {"name": "70ac250f9fd68d7fc6d0c99c6e40dd9c", "fusion_lon": 0.0, "lat": 38.924547833333335, "is_reserved": 0, "type": "electric_scooter", "bike_id": "70ac250f9fd68d7fc6d0c99c6e40dd9c", "is_disabled": 0, "rental_uris": {"android": "https://dc.lft.to/lastmile_qr_scan", "ios": "https://dc.lft.to/lastmile_qr_scan"}, "lon": -77.02711366666666, "fusion_lat": 0.0}, {"name": "17d1d042815fa6771ab906bbe0a95274", "fusion_lon": 0.0, "lat": 38.92454383333333, "is_reserved": 0, "type": "electric_scooter", "bike_id": "17d1d042815fa6771ab906bbe0a95274", "is_disabled": 0, "rental_uris": {"android": "https://dc.lft.to/lastmile_qr_scan", "ios": "https://dc.lft.to/lastmile_qr_scan"}, "lon": -77.03969066666667, "fusion_lat": 0.0}, {"name": "86cc67a2ee948602da74be016cb5df80", "fusion_lon": 0.0, "lat": 38.92182283333333, "is_reserved": 0, "type": "electric_scooter", "bike_id": "86cc67a2ee948602da74be016cb5df80", "is_disabled": 0, "rental_uris": {"android": "https://dc.lft.to/lastmile_qr_scan", "ios": "https://dc.lft.to/lastmile_qr_scan"}, "lon": -77.03843316666666, "fusion_lat": 0.0}, {"name": "158840b7cbf29b59d1fe8890e09f28a2", "fusion_lon": 0.0, "lat": 38.96784266666667, "is_reserved": 0, "type": "electric_bike", "bike_id": "158840b7cbf29b59d1fe8890e09f28a2", "is_disabled": 0, "rental_uris": {"android": "https://dc.lft.to/lastmile_qr_scan", "ios": "https://dc.lft.to/lastmile_qr_scan"}, "lon": -77.0003025, "fusion_lat": 0.0}, {"name": "db311687e9969a327b59b566b9406d1f", "fusion_lon": 0.0, "lat": 38.92286333333333, "is_reserved": 0, "type": "electric_scooter", "bike_id": "db311687e9969a327b59b566b9406d1f", "is_disabled": 0, "rental_uris": {"android": "https://dc.lft.to/lastmile_qr_scan", "ios": "https://dc.lft.to/lastmile_qr_scan"}, "lon": -77.01844716666666, "fusion_lat": 0.0}, {"name": "f07f3995ef917145ae9489aeb0770124", "fusion_lon": 0.0, "lat": 38.912550333333336, "is_reserved": 0, "type": "electric_scooter", "bike_id": "f07f3995ef917145ae9489aeb0770124", "is_disabled": 0, "rental_uris": {"android": "https://dc.lft.to/lastmile_qr_scan", "ios": "https://dc.lft.to/lastmile_qr_scan"}, "lon": -77.022265, "fusion_lat": 0.0}, {"name": "cc9c747f1634c3ef6dfc4892d03683a5", "fusion_lon": 0.0, "lat": 38.909739, "is_reserved": 0, "type": "electric_scooter", "bike_id": "cc9c747f1634c3ef6dfc4892d03683a5", "is_disabled": 0, "rental_uris": {"android": "https://dc.lft.to/lastmile_qr_scan", "ios": "https://dc.lft.to/lastmile_qr_scan"}, "lon": -77.03598716666667, "fusion_lat": 0.0}, {"name": "e15c59aa76e97b1a371113324b6c700d", "fusion_lon": 0.0, "lat": 38.865141, "is_reserved": 0, "type": "electric_scooter", "bike_id": "e15c59aa76e97b1a371113324b6c700d", "is_disabled": 0, "rental_uris": {"android": "https://dc.lft.to/lastmile_qr_scan", "ios": "https://dc.lft.to/lastmile_qr_scan"}, "lon": -76.99018866666667, "fusion_lat": 0.0}, {"name": "de95e74532dc44ecbe1211590fda0c59", "fusion_lon": 0.0, "lat": 38.915612833333334, "is_reserved": 0, "type": "electric_scooter", "bike_id": "de95e74532dc44ecbe1211590fda0c59", "is_disabled": 0, "rental_uris": {"android": "https://dc.lft.to/lastmile_qr_scan", "ios": "https://dc.lft.to/lastmile_qr_scan"}, "lon": -77.03763916666666, "fusion_lat": 0.0}, {"name": "b757fefa3eeebe43e9eabb036ff19573", "fusion_lon": 0.0, "lat": 38.89870883333333, "is_reserved": 0, "type": "electric_scooter", "bike_id": "b757fefa3eeebe43e9eabb036ff19573", "is_disabled": 0, "rental_uris": {"android": "https://dc.lft.to/lastmile_qr_scan", "ios": "https://dc.lft.to/lastmile_qr_scan"}, "lon": -77.02381833333334, "fusion_lat": 0.0}, {"name": "fee2c3111759af7676e059076dd8a00b", "fusion_lon": 0.0, "lat": 38.900475, "is_reserved": 0, "type": "electric_scooter", "bike_id": "fee2c3111759af7676e059076dd8a00b", "is_disabled": 0, "rental_uris": {"android": "https://dc.lft.to/lastmile_qr_scan", "ios": "https://dc.lft.to/lastmile_qr_scan"}, "lon": -77.04349866666666, "fusion_lat": 0.0}, {"name": "01b52e9be678e88a7e705c44cab81a7c", "fusion_lon": 0.0, "lat": 38.904470833333335, "is_reserved": 0, "type": "electric_scooter", "bike_id": "01b52e9be678e88a7e705c44cab81a7c", "is_disabled": 0, "rental_uris": {"android": "https://dc.lft.to/lastmile_qr_scan", "ios": "https://dc.lft.to/lastmile_qr_scan"}, "lon": -76.97999983333334, "fusion_lat": 0.0}, {"name": "a8602d4b06ff36d07347c1118c9f8d16", "fusion_lon": 0.0, "lat": 38.90307816666667, "is_reserved": 0, "type": "electric_scooter", "bike_id": "a8602d4b06ff36d07347c1118c9f8d16", "is_disabled": 0, "rental_uris": {"android": "https://dc.lft.to/lastmile_qr_scan", "ios": "https://dc.lft.to/lastmile_qr_scan"}, "lon": -77.03828833333333, "fusion_lat": 0.0}, {"name": "8ff88c784ad5db6c07a82cfa1fd58ae5", "fusion_lon": 0.0, "lat": 38.9207765, "is_reserved": 0, "type": "electric_scooter", "bike_id": "8ff88c784ad5db6c07a82cfa1fd58ae5", "is_disabled": 0, "rental_uris": {"android": "https://dc.lft.to/lastmile_qr_scan", "ios": "https://dc.lft.to/lastmile_qr_scan"}, "lon": -77.02415466666666, "fusion_lat": 0.0}, {"name": "3a5898d01707e3c3a1f3901125594905", "fusion_lon": 0.0, "lat": 38.917007, "is_reserved": 0, "type": "electric_scooter", "bike_id": "3a5898d01707e3c3a1f3901125594905", "is_disabled": 0, "rental_uris": {"android": "https://dc.lft.to/lastmile_qr_scan", "ios": "https://dc.lft.to/lastmile_qr_scan"}, "lon": -77.0316025, "fusion_lat": 0.0}, {"name": "089b5992737e9d63d6bbe7ba97ffb708", "fusion_lon": 0.0, "lat": 38.885328666666666, "is_reserved": 0, "type": "electric_scooter", "bike_id": "089b5992737e9d63d6bbe7ba97ffb708", "is_disabled": 0, "rental_uris": {"android": "https://dc.lft.to/lastmile_qr_scan", "ios": "https://dc.lft.to/lastmile_qr_scan"}, "lon": -76.99825766666666, "fusion_lat": 0.0}, {"name": "16b0c2c55c1fae14b370b02f4cfabad1", "fusion_lon": 0.0, "lat": 38.928831, "is_reserved": 0, "type": "electric_scooter", "bike_id": "16b0c2c55c1fae14b370b02f4cfabad1", "is_disabled": 0, "rental_uris": {"android": "https://dc.lft.to/lastmile_qr_scan", "ios": "https://dc.lft.to/lastmile_qr_scan"}, "lon": -77.03304716666666, "fusion_lat": 0.0}, {"name": "d82b2a457f951803f0918bceb4cc861d", "fusion_lon": 0.0, "lat": 38.930847666666665, "is_reserved": 0, "type": "electric_scooter", "bike_id": "d82b2a457f951803f0918bceb4cc861d", "is_disabled": 0, "rental_uris": {"android": "https://dc.lft.to/lastmile_qr_scan", "ios": "https://dc.lft.to/lastmile_qr_scan"}, "lon": -77.02792366666667, "fusion_lat": 0.0}, {"name": "3733c408b7f3a4e286bcf4b3f65e0f1f", "fusion_lon": 0.0, "lat": 38.9002665, "is_reserved": 0, "type": "electric_scooter", "bike_id": "3733c408b7f3a4e286bcf4b3f65e0f1f", "is_disabled": 0, "rental_uris": {"android": "https://dc.lft.to/lastmile_qr_scan", "ios": "https://dc.lft.to/lastmile_qr_scan"}, "lon": -76.99726983333333, "fusion_lat": 0.0}, {"name": "7a60406139e895d073ec00a69fe900ee", "fusion_lon": 0.0, "lat": 38.893567833333336, "is_reserved": 0, "type": "electric_scooter", "bike_id": "7a60406139e895d073ec00a69fe900ee", "is_disabled": 0, "rental_uris": {"android": "https://dc.lft.to/lastmile_qr_scan", "ios": "https://dc.lft.to/lastmile_qr_scan"}, "lon": -76.94936316666667, "fusion_lat": 0.0}, {"name": "f4098d02ace36585b1f583ae35796bfe", "fusion_lon": 0.0, "lat": 39.0430735, "is_reserved": 0, "type": "electric_bike", "bike_id": "f4098d02ace36585b1f583ae35796bfe", "is_disabled": 0, "rental_uris": {"android": "https://dc.lft.to/lastmile_qr_scan", "ios": "https://dc.lft.to/lastmile_qr_scan"}, "lon": -77.051614, "fusion_lat": 0.0}, {"name": "1c6099edecffd87bd157979126b8f718", "fusion_lon": 0.0, "lat": 38.9211825, "is_reserved": 0, "type": "electric_scooter", "bike_id": "1c6099edecffd87bd157979126b8f718", "is_disabled": 0, "rental_uris": {"android": "https://dc.lft.to/lastmile_qr_scan", "ios": "https://dc.lft.to/lastmile_qr_scan"}, "lon": -77.03661416666667, "fusion_lat": 0.0}, {"name": "2d4f4fcd0da7fdbcaa07482b058dc9eb", "fusion_lon": 0.0, "lat": 38.909023833333336, "is_reserved": 0, "type": "electric_scooter", "bike_id": "2d4f4fcd0da7fdbcaa07482b058dc9eb", "is_disabled": 0, "rental_uris": {"android": "https://dc.lft.to/lastmile_qr_scan", "ios": "https://dc.lft.to/lastmile_qr_scan"}, "lon": -77.03852633333334, "fusion_lat": 0.0}, {"name": "85cc72f394f3252e9ba6d20ace308bbc", "fusion_lon": 0.0, "lat": 38.8605695, "is_reserved": 0, "type": "electric_scooter", "bike_id": "85cc72f394f3252e9ba6d20ace308bbc", "is_disabled": 0, "rental_uris": {"android": "https://dc.lft.to/lastmile_qr_scan", "ios": "https://dc.lft.to/lastmile_qr_scan"}, "lon": -76.98503216666667, "fusion_lat": 0.0}, {"name": "ce2acf6ad2bb69be3da36b004b562000", "fusion_lon": 0.0, "lat": 38.9442715, "is_reserved": 0, "type": "electric_bike", "bike_id": "ce2acf6ad2bb69be3da36b004b562000", "is_disabled": 0, "rental_uris": {"android": "https://dc.lft.to/lastmile_qr_scan", "ios": "https://dc.lft.to/lastmile_qr_scan"}, "lon": -77.01548833333334, "fusion_lat": 0.0}, {"name": "d09008337f92a349a5c89c46c7fd38f7", "fusion_lon": 0.0, "lat": 38.900047, "is_reserved": 0, "type": "electric_scooter", "bike_id": "d09008337f92a349a5c89c46c7fd38f7", "is_disabled": 0, "rental_uris": {"android": "https://dc.lft.to/lastmile_qr_scan", "ios": "https://dc.lft.to/lastmile_qr_scan"}, "lon": -76.99625433333334, "fusion_lat": 0.0}, {"name": "5787628aa2d63a3f1f7cb2112900ffb7", "fusion_lon": 0.0, "lat": 38.9199505, "is_reserved": 0, "type": "electric_scooter", "bike_id": "5787628aa2d63a3f1f7cb2112900ffb7", "is_disabled": 0, "rental_uris": {"android": "https://dc.lft.to/lastmile_qr_scan", "ios": "https://dc.lft.to/lastmile_qr_scan"}, "lon": -77.04170316666666, "fusion_lat": 0.0}, {"name": "f9875056c9f31ce96dc382f4f38ef760", "fusion_lon": 0.0, "lat": 38.91718066666667, "is_reserved": 0, "type": "electric_scooter", "bike_id": "f9875056c9f31ce96dc382f4f38ef760", "is_disabled": 0, "rental_uris": {"android": "https://dc.lft.to/lastmile_qr_scan", "ios": "https://dc.lft.to/lastmile_qr_scan"}, "lon": -77.03856633333334, "fusion_lat": 0.0}, {"name": "ee2f9a434d7bb9ddf5dc297f8e781272", "fusion_lon": 0.0, "lat": 38.90860583333333, "is_reserved": 0, "type": "electric_scooter", "bike_id": "ee2f9a434d7bb9ddf5dc297f8e781272", "is_disabled": 0, "rental_uris": {"android": "https://dc.lft.to/lastmile_qr_scan", "ios": "https://dc.lft.to/lastmile_qr_scan"}, "lon": -77.02407933333333, "fusion_lat": 0.0}, {"name": "c4ff65b896b827092843b1312b45df69", "fusion_lon": 0.0, "lat": 38.906832, "is_reserved": 0, "type": "electric_scooter", "bike_id": "c4ff65b896b827092843b1312b45df69", "is_disabled": 0, "rental_uris": {"android": "https://dc.lft.to/lastmile_qr_scan", "ios": "https://dc.lft.to/lastmile_qr_scan"}, "lon": -77.07118466666667, "fusion_lat": 0.0}, {"name": "a414870a204b1d44c28d0f286d9f3695", "fusion_lon": 0.0, "lat": 38.892225, "is_reserved": 0, "type": "electric_scooter", "bike_id": "a414870a204b1d44c28d0f286d9f3695", "is_disabled": 0, "rental_uris": {"android": "https://dc.lft.to/lastmile_qr_scan", "ios": "https://dc.lft.to/lastmile_qr_scan"}, "lon": -77.0469005, "fusion_lat": 0.0}, {"name": "eaf8846fb488501790f465994c3f49fb", "fusion_lon": 0.0, "lat": 38.922182166666666, "is_reserved": 0, "type": "electric_scooter", "bike_id": "eaf8846fb488501790f465994c3f49fb", "is_disabled": 0, "rental_uris": {"android": "https://dc.lft.to/lastmile_qr_scan", "ios": "https://dc.lft.to/lastmile_qr_scan"}, "lon": -77.03662516666667, "fusion_lat": 0.0}, {"name": "f8a1917dd2af680455719b49e34b4d18", "fusion_lon": 0.0, "lat": 38.912645499999996, "is_reserved": 0, "type": "electric_scooter", "bike_id": "f8a1917dd2af680455719b49e34b4d18", "is_disabled": 0, "rental_uris": {"android": "https://dc.lft.to/lastmile_qr_scan", "ios": "https://dc.lft.to/lastmile_qr_scan"}, "lon": -77.03814416666667, "fusion_lat": 0.0}, {"name": "3ccbc77aea4e80e2ee6a9b5304314369", "fusion_lon": 0.0, "lat": 38.91543733333334, "is_reserved": 0, "type": "electric_scooter", "bike_id": "3ccbc77aea4e80e2ee6a9b5304314369", "is_disabled": 0, "rental_uris": {"android": "https://dc.lft.to/lastmile_qr_scan", "ios": "https://dc.lft.to/lastmile_qr_scan"}, "lon": -76.97015166666667, "fusion_lat": 0.0}, {"name": "7dbd066cd8e3b1a091453d47b136d11a", "fusion_lon": 0.0, "lat": 38.9101415, "is_reserved": 0, "type": "electric_scooter", "bike_id": "7dbd066cd8e3b1a091453d47b136d11a", "is_disabled": 0, "rental_uris": {"android": "https://dc.lft.to/lastmile_qr_scan", "ios": "https://dc.lft.to/lastmile_qr_scan"}, "lon": -77.00920383333333, "fusion_lat": 0.0}, {"name": "abb517fc0612a1db50de11d1210b6ab9", "fusion_lon": 0.0, "lat": 38.903675666666665, "is_reserved": 0, "type": "electric_scooter", "bike_id": "abb517fc0612a1db50de11d1210b6ab9", "is_disabled": 0, "rental_uris": {"android": "https://dc.lft.to/lastmile_qr_scan", "ios": "https://dc.lft.to/lastmile_qr_scan"}, "lon": -76.99712866666667, "fusion_lat": 0.0}, {"name": "24400dcf45abafb42dcdd72a92b05a24", "fusion_lon": 0.0, "lat": 38.92179133333333, "is_reserved": 0, "type": "electric_scooter", "bike_id": "24400dcf45abafb42dcdd72a92b05a24", "is_disabled": 0, "rental_uris": {"android": "https://dc.lft.to/lastmile_qr_scan", "ios": "https://dc.lft.to/lastmile_qr_scan"}, "lon": -77.03274383333333, "fusion_lat": 0.0}, {"name": "5595b01ffd603ae91f3ae6defc232097", "fusion_lon": 0.0, "lat": 38.91728, "is_reserved": 0, "type": "electric_scooter", "bike_id": "5595b01ffd603ae91f3ae6defc232097", "is_disabled": 0, "rental_uris": {"android": "https://dc.lft.to/lastmile_qr_scan", "ios": "https://dc.lft.to/lastmile_qr_scan"}, "lon": -77.03657616666666, "fusion_lat": 0.0}, {"name": "c44786fc78c1a517fb094f4eb3b8a8eb", "fusion_lon": 0.0, "lat": 38.91932633333333, "is_reserved": 0, "type": "electric_scooter", "bike_id": "c44786fc78c1a517fb094f4eb3b8a8eb", "is_disabled": 0, "rental_uris": {"android": "https://dc.lft.to/lastmile_qr_scan", "ios": "https://dc.lft.to/lastmile_qr_scan"}, "lon": -77.03216383333333, "fusion_lat": 0.0}, {"name": "f16c971d58670965a0cbf34f32760e8a", "fusion_lon": 0.0, "lat": 38.9221875, "is_reserved": 0, "type": "electric_scooter", "bike_id": "f16c971d58670965a0cbf34f32760e8a", "is_disabled": 0, "rental_uris": {"android": "https://dc.lft.to/lastmile_qr_scan", "ios": "https://dc.lft.to/lastmile_qr_scan"}, "lon": -77.0345765, "fusion_lat": 0.0}, {"name": "ea7f358c8629e59542936f7d711f65ff", "fusion_lon": 0.0, "lat": 38.809073166666664, "is_reserved": 0, "type": "electric_bike", "bike_id": "ea7f358c8629e59542936f7d711f65ff", "is_disabled": 0, "rental_uris": {"android": "https://dc.lft.to/lastmile_qr_scan", "ios": "https://dc.lft.to/lastmile_qr_scan"}, "lon": -77.08657416666667, "fusion_lat": 0.0}, {"name": "ff54204706cdcf586900c6c2e7bd19f7", "fusion_lon": 0.0, "lat": 38.928636166666664, "is_reserved": 0, "type": "electric_scooter", "bike_id": "ff54204706cdcf586900c6c2e7bd19f7", "is_disabled": 0, "rental_uris": {"android": "https://dc.lft.to/lastmile_qr_scan", "ios": "https://dc.lft.to/lastmile_qr_scan"}, "lon": -77.01404583333333, "fusion_lat": 0.0}, {"name": "e1e03acdd71428c6de483f113cdb5411", "fusion_lon": 0.0, "lat": 38.863833, "is_reserved": 0, "type": "electric_scooter", "bike_id": "e1e03acdd71428c6de483f113cdb5411", "is_disabled": 0, "rental_uris": {"android": "https://dc.lft.to/lastmile_qr_scan", "ios": "https://dc.lft.to/lastmile_qr_scan"}, "lon": -76.9903755, "fusion_lat": 0.0}, {"name": "abd3c28a36b07cde8e2294bd7672402f", "fusion_lon": 0.0, "lat": 38.88476266666667, "is_reserved": 0, "type": "electric_scooter", "bike_id": "abd3c28a36b07cde8e2294bd7672402f", "is_disabled": 0, "rental_uris": {"android": "https://dc.lft.to/lastmile_qr_scan", "ios": "https://dc.lft.to/lastmile_qr_scan"}, "lon": -77.03209183333334, "fusion_lat": 0.0}, {"name": "4d6fe2d6c0c72be5a8ed7f2194024802", "fusion_lon": 0.0, "lat": 38.9121255, "is_reserved": 0, "type": "electric_scooter", "bike_id": "4d6fe2d6c0c72be5a8ed7f2194024802", "is_disabled": 0, "rental_uris": {"android": "https://dc.lft.to/lastmile_qr_scan", "ios": "https://dc.lft.to/lastmile_qr_scan"}, "lon": -77.038411, "fusion_lat": 0.0}, {"name": "d75ad467d2b9bed091a8a53fdcc067c6", "fusion_lon": 0.0, "lat": 38.886230833333336, "is_reserved": 0, "type": "electric_scooter", "bike_id": "d75ad467d2b9bed091a8a53fdcc067c6", "is_disabled": 0, "rental_uris": {"android": "https://dc.lft.to/lastmile_qr_scan", "ios": "https://dc.lft.to/lastmile_qr_scan"}, "lon": -76.95584, "fusion_lat": 0.0}, {"name": "dce3f5d6d28fd701308527a650cc944e", "fusion_lon": 0.0, "lat": 38.900154, "is_reserved": 0, "type": "electric_scooter", "bike_id": "dce3f5d6d28fd701308527a650cc944e", "is_disabled": 0, "rental_uris": {"android": "https://dc.lft.to/lastmile_qr_scan", "ios": "https://dc.lft.to/lastmile_qr_scan"}, "lon": -77.04491, "fusion_lat": 0.0}, {"name": "e3d0575aaf4b7348e03fbe3a7d5e1d83", "fusion_lon": 0.0, "lat": 38.90322583333333, "is_reserved": 0, "type": "electric_scooter", "bike_id": "e3d0575aaf4b7348e03fbe3a7d5e1d83", "is_disabled": 0, "rental_uris": {"android": "https://dc.lft.to/lastmile_qr_scan", "ios": "https://dc.lft.to/lastmile_qr_scan"}, "lon": -76.97546716666666, "fusion_lat": 0.0}, {"name": "aa13d3866fd20133f1400ebcabefd7a0", "fusion_lon": 0.0, "lat": 38.936011666666666, "is_reserved": 0, "type": "electric_bike", "bike_id": "aa13d3866fd20133f1400ebcabefd7a0", "is_disabled": 0, "rental_uris": {"android": "https://dc.lft.to/lastmile_qr_scan", "ios": "https://dc.lft.to/lastmile_qr_scan"}, "lon": -77.03547666666667, "fusion_lat": 0.0}, {"name": "6f17892f25fd84e9931d4f63aec5ccd4", "fusion_lon": 0.0, "lat": 38.92343116666667, "is_reserved": 0, "type": "electric_scooter", "bike_id": "6f17892f25fd84e9931d4f63aec5ccd4", "is_disabled": 0, "rental_uris": {"android": "https://dc.lft.to/lastmile_qr_scan", "ios": "https://dc.lft.to/lastmile_qr_scan"}, "lon": -77.05083366666666, "fusion_lat": 0.0}, {"name": "d95a8888a96e3fe6c67d8901df92357f", "fusion_lon": 0.0, "lat": 38.8070885, "is_reserved": 0, "type": "electric_bike", "bike_id": "d95a8888a96e3fe6c67d8901df92357f", "is_disabled": 0, "rental_uris": {"android": "https://dc.lft.to/lastmile_qr_scan", "ios": "https://dc.lft.to/lastmile_qr_scan"}, "lon": -77.061725, "fusion_lat": 0.0}, {"name": "fcd20888503b293bd11a862d18c33f59", "fusion_lon": 0.0, "lat": 38.89860316666667, "is_reserved": 0, "type": "electric_scooter", "bike_id": "fcd20888503b293bd11a862d18c33f59", "is_disabled": 0, "rental_uris": {"android": "https://dc.lft.to/lastmile_qr_scan", "ios": "https://dc.lft.to/lastmile_qr_scan"}, "lon": -76.98170583333334, "fusion_lat": 0.0}, {"name": "c3888c2f9a464884591cf5828cbeee38", "fusion_lon": 0.0, "lat": 38.86521116666667, "is_reserved": 0, "type": "electric_scooter", "bike_id": "c3888c2f9a464884591cf5828cbeee38", "is_disabled": 0, "rental_uris": {"android": "https://dc.lft.to/lastmile_qr_scan", "ios": "https://dc.lft.to/lastmile_qr_scan"}, "lon": -76.9902435, "fusion_lat": 0.0}, {"name": "a1775f6a1a3d436c14fbb48413cc27c3", "fusion_lon": 0.0, "lat": 38.8875085, "is_reserved": 0, "type": "electric_scooter", "bike_id": "a1775f6a1a3d436c14fbb48413cc27c3", "is_disabled": 0, "rental_uris": {"android": "https://dc.lft.to/lastmile_qr_scan", "ios": "https://dc.lft.to/lastmile_qr_scan"}, "lon": -77.02728783333333, "fusion_lat": 0.0}, {"name": "c150db72005813123b98f94d198c6f6d", "fusion_lon": 0.0, "lat": 38.895050499999996, "is_reserved": 0, "type": "electric_scooter", "bike_id": "c150db72005813123b98f94d198c6f6d", "is_disabled": 0, "rental_uris": {"android": "https://dc.lft.to/lastmile_qr_scan", "ios": "https://dc.lft.to/lastmile_qr_scan"}, "lon": -76.934738, "fusion_lat": 0.0}, {"name": "bc6179e6298a62a2442624e922433a17", "fusion_lon": 0.0, "lat": 38.89043983333333, "is_reserved": 0, "type": "electric_scooter", "bike_id": "bc6179e6298a62a2442624e922433a17", "is_disabled": 0, "rental_uris": {"android": "https://dc.lft.to/lastmile_qr_scan", "ios": "https://dc.lft.to/lastmile_qr_scan"}, "lon": -76.99066716666667, "fusion_lat": 0.0}, {"name": "8435db4dde3a61d1f2093682d78a3daf", "fusion_lon": 0.0, "lat": 38.901348666666664, "is_reserved": 0, "type": "electric_scooter", "bike_id": "8435db4dde3a61d1f2093682d78a3daf", "is_disabled": 0, "rental_uris": {"android": "https://dc.lft.to/lastmile_qr_scan", "ios": "https://dc.lft.to/lastmile_qr_scan"}, "lon": -77.0085365, "fusion_lat": 0.0}, {"name": "4a77d5152c2f39013d8e89335cc2ba17", "fusion_lon": 0.0, "lat": 38.892182166666665, "is_reserved": 0, "type": "electric_scooter", "bike_id": "4a77d5152c2f39013d8e89335cc2ba17", "is_disabled": 0, "rental_uris": {"android": "https://dc.lft.to/lastmile_qr_scan", "ios": "https://dc.lft.to/lastmile_qr_scan"}, "lon": -77.02229166666666, "fusion_lat": 0.0}, {"name": "0444f969074ca650cbacb1e637ba7a3c", "fusion_lon": 0.0, "lat": 38.940400333333336, "is_reserved": 0, "type": "electric_scooter", "bike_id": "0444f969074ca650cbacb1e637ba7a3c", "is_disabled": 0, "rental_uris": {"android": "https://dc.lft.to/lastmile_qr_scan", "ios": "https://dc.lft.to/lastmile_qr_scan"}, "lon": -77.02901133333333, "fusion_lat": 0.0}, {"name": "ad9dc7efa7c8376404c8b05347a5143b", "fusion_lon": 0.0, "lat": 38.9052385, "is_reserved": 0, "type": "electric_scooter", "bike_id": "ad9dc7efa7c8376404c8b05347a5143b", "is_disabled": 0, "rental_uris": {"android": "https://dc.lft.to/lastmile_qr_scan", "ios": "https://dc.lft.to/lastmile_qr_scan"}, "lon": -77.04155333333334, "fusion_lat": 0.0}, {"name": "7df468683a965d689ff31330797437cc", "fusion_lon": 0.0, "lat": 38.949136833333334, "is_reserved": 0, "type": "electric_bike", "bike_id": "7df468683a965d689ff31330797437cc", "is_disabled": 0, "rental_uris": {"android": "https://dc.lft.to/lastmile_qr_scan", "ios": "https://dc.lft.to/lastmile_qr_scan"}, "lon": -77.02418783333333, "fusion_lat": 0.0}, {"name": "0f53b65c9d1da5c3abf0487a5135b1db", "fusion_lon": 0.0, "lat": 38.92010833333333, "is_reserved": 0, "type": "electric_scooter", "bike_id": "0f53b65c9d1da5c3abf0487a5135b1db", "is_disabled": 0, "rental_uris": {"android": "https://dc.lft.to/lastmile_qr_scan", "ios": "https://dc.lft.to/lastmile_qr_scan"}, "lon": -77.02387883333333, "fusion_lat": 0.0}, {"name": "5e074bae7e28e360e8380d6cd00c714f", "fusion_lon": 0.0, "lat": 38.92162066666667, "is_reserved": 0, "type": "electric_scooter", "bike_id": "5e074bae7e28e360e8380d6cd00c714f", "is_disabled": 0, "rental_uris": {"android": "https://dc.lft.to/lastmile_qr_scan", "ios": "https://dc.lft.to/lastmile_qr_scan"}, "lon": -77.02539583333333, "fusion_lat": 0.0}, {"name": "a0129f430783288b27952bfa00a344f8", "fusion_lon": 0.0, "lat": 38.93575966666667, "is_reserved": 0, "type": "electric_scooter", "bike_id": "a0129f430783288b27952bfa00a344f8", "is_disabled": 0, "rental_uris": {"android": "https://dc.lft.to/lastmile_qr_scan", "ios": "https://dc.lft.to/lastmile_qr_scan"}, "lon": -77.021154, "fusion_lat": 0.0}, {"name": "4e5319120ccd3caac6be58d45ae930e7", "fusion_lon": 0.0, "lat": 38.921081666666666, "is_reserved": 0, "type": "electric_scooter", "bike_id": "4e5319120ccd3caac6be58d45ae930e7", "is_disabled": 0, "rental_uris": {"android": "https://dc.lft.to/lastmile_qr_scan", "ios": "https://dc.lft.to/lastmile_qr_scan"}, "lon": -77.03187483333333, "fusion_lat": 0.0}, {"name": "a8b7056840693aee3eb225053fdd876d", "fusion_lon": 0.0, "lat": 38.91514166666666, "is_reserved": 0, "type": "electric_scooter", "bike_id": "a8b7056840693aee3eb225053fdd876d", "is_disabled": 0, "rental_uris": {"android": "https://dc.lft.to/lastmile_qr_scan", "ios": "https://dc.lft.to/lastmile_qr_scan"}, "lon": -76.983694, "fusion_lat": 0.0}, {"name": "66340176790a1bab5c1ba1647e917e70", "fusion_lon": 0.0, "lat": 38.91559083333333, "is_reserved": 0, "type": "electric_scooter", "bike_id": "66340176790a1bab5c1ba1647e917e70", "is_disabled": 0, "rental_uris": {"android": "https://dc.lft.to/lastmile_qr_scan", "ios": "https://dc.lft.to/lastmile_qr_scan"}, "lon": -77.038609, "fusion_lat": 0.0}, {"name": "02960dbca4d392f0fd4a3c16d08e074f", "fusion_lon": 0.0, "lat": 38.932466, "is_reserved": 0, "type": "electric_scooter", "bike_id": "02960dbca4d392f0fd4a3c16d08e074f", "is_disabled": 0, "rental_uris": {"android": "https://dc.lft.to/lastmile_qr_scan", "ios": "https://dc.lft.to/lastmile_qr_scan"}, "lon": -77.03272933333334, "fusion_lat": 0.0}, {"name": "b0480d0be2b0ed6e0bfd7dd527b8252b", "fusion_lon": 0.0, "lat": 38.95200083333334, "is_reserved": 0, "type": "electric_scooter", "bike_id": "b0480d0be2b0ed6e0bfd7dd527b8252b", "is_disabled": 0, "rental_uris": {"android": "https://dc.lft.to/lastmile_qr_scan", "ios": "https://dc.lft.to/lastmile_qr_scan"}, "lon": -77.02736433333334, "fusion_lat": 0.0}, {"name": "c5d3f08a44108cda9fe703d20d5af6bb", "fusion_lon": 0.0, "lat": 38.861926833333335, "is_reserved": 0, "type": "electric_bike", "bike_id": "c5d3f08a44108cda9fe703d20d5af6bb", "is_disabled": 0, "rental_uris": {"android": "https://dc.lft.to/lastmile_qr_scan", "ios": "https://dc.lft.to/lastmile_qr_scan"}, "lon": -76.94804283333333, "fusion_lat": 0.0}, {"name": "d0e7f449c9281b2f8df8ec0a11ce1d5f", "fusion_lon": 0.0, "lat": 38.9018165, "is_reserved": 0, "type": "electric_scooter", "bike_id": "d0e7f449c9281b2f8df8ec0a11ce1d5f", "is_disabled": 0, "rental_uris": {"android": "https://dc.lft.to/lastmile_qr_scan", "ios": "https://dc.lft.to/lastmile_qr_scan"}, "lon": -76.98818233333333, "fusion_lat": 0.0}, {"name": "c65ddebe2b90d2799c65f9d0b0f7e727", "fusion_lon": 0.0, "lat": 38.8663945, "is_reserved": 0, "type": "electric_scooter", "bike_id": "c65ddebe2b90d2799c65f9d0b0f7e727", "is_disabled": 0, "rental_uris": {"android": "https://dc.lft.to/lastmile_qr_scan", "ios": "https://dc.lft.to/lastmile_qr_scan"}, "lon": -76.9826825, "fusion_lat": 0.0}, {"name": "9d7c9e6ad8e42706e24898a39b94fe5e", "fusion_lon": 0.0, "lat": 38.928825833333335, "is_reserved": 0, "type": "electric_scooter", "bike_id": "9d7c9e6ad8e42706e24898a39b94fe5e", "is_disabled": 0, "rental_uris": {"android": "https://dc.lft.to/lastmile_qr_scan", "ios": "https://dc.lft.to/lastmile_qr_scan"}, "lon": -77.03295516666667, "fusion_lat": 0.0}, {"name": "e0a3d9a85b362abe74da55b27f9090e9", "fusion_lon": 0.0, "lat": 38.90586283333333, "is_reserved": 0, "type": "electric_scooter", "bike_id": "e0a3d9a85b362abe74da55b27f9090e9", "is_disabled": 0, "rental_uris": {"android": "https://dc.lft.to/lastmile_qr_scan", "ios": "https://dc.lft.to/lastmile_qr_scan"}, "lon": -77.041172, "fusion_lat": 0.0}, {"name": "3e8cd5380574b8b74e7fbdb3e84e7730", "fusion_lon": 0.0, "lat": 38.90405066666667, "is_reserved": 0, "type": "electric_scooter", "bike_id": "3e8cd5380574b8b74e7fbdb3e84e7730", "is_disabled": 0, "rental_uris": {"android": "https://dc.lft.to/lastmile_qr_scan", "ios": "https://dc.lft.to/lastmile_qr_scan"}, "lon": -77.04335933333333, "fusion_lat": 0.0}, {"name": "599452cb312fda61ce976c68b3235391", "fusion_lon": 0.0, "lat": 38.916374166666664, "is_reserved": 0, "type": "electric_scooter", "bike_id": "599452cb312fda61ce976c68b3235391", "is_disabled": 0, "rental_uris": {"android": "https://dc.lft.to/lastmile_qr_scan", "ios": "https://dc.lft.to/lastmile_qr_scan"}, "lon": -77.02302216666666, "fusion_lat": 0.0}, {"name": "a5b27bbd1ecc4c66a90776ebdef8e76e", "fusion_lon": 0.0, "lat": 38.9343805, "is_reserved": 0, "type": "electric_scooter", "bike_id": "a5b27bbd1ecc4c66a90776ebdef8e76e", "is_disabled": 0, "rental_uris": {"android": "https://dc.lft.to/lastmile_qr_scan", "ios": "https://dc.lft.to/lastmile_qr_scan"}, "lon": -77.04541083333334, "fusion_lat": 0.0}, {"name": "18992f13953e86832efe53176c3baf8c", "fusion_lon": 0.0, "lat": 38.94205783333334, "is_reserved": 0, "type": "electric_scooter", "bike_id": "18992f13953e86832efe53176c3baf8c", "is_disabled": 0, "rental_uris": {"android": "https://dc.lft.to/lastmile_qr_scan", "ios": "https://dc.lft.to/lastmile_qr_scan"}, "lon": -77.02513383333333, "fusion_lat": 0.0}, {"name": "3844b2e66b2932b01c5631ba6e68140f", "fusion_lon": 0.0, "lat": 38.90312266666667, "is_reserved": 0, "type": "electric_scooter", "bike_id": "3844b2e66b2932b01c5631ba6e68140f", "is_disabled": 0, "rental_uris": {"android": "https://dc.lft.to/lastmile_qr_scan", "ios": "https://dc.lft.to/lastmile_qr_scan"}, "lon": -77.022236, "fusion_lat": 0.0}, {"name": "c92024f68a569d238ec1a880df9a7ca9", "fusion_lon": 0.0, "lat": 38.949945666666665, "is_reserved": 0, "type": "electric_scooter", "bike_id": "c92024f68a569d238ec1a880df9a7ca9", "is_disabled": 0, "rental_uris": {"android": "https://dc.lft.to/lastmile_qr_scan", "ios": "https://dc.lft.to/lastmile_qr_scan"}, "lon": -77.03329766666667, "fusion_lat": 0.0}, {"name": "3aedefa11a771833e061f477919003a6", "fusion_lon": 0.0, "lat": 38.9238055, "is_reserved": 0, "type": "electric_scooter", "bike_id": "3aedefa11a771833e061f477919003a6", "is_disabled": 0, "rental_uris": {"android": "https://dc.lft.to/lastmile_qr_scan", "ios": "https://dc.lft.to/lastmile_qr_scan"}, "lon": -77.02061616666667, "fusion_lat": 0.0}, {"name": "7544ef8282fd715bf487ab69c16307f8", "fusion_lon": 0.0, "lat": 38.92929933333333, "is_reserved": 0, "type": "electric_bike", "bike_id": "7544ef8282fd715bf487ab69c16307f8", "is_disabled": 0, "rental_uris": {"android": "https://dc.lft.to/lastmile_qr_scan", "ios": "https://dc.lft.to/lastmile_qr_scan"}, "lon": -77.02778083333334, "fusion_lat": 0.0}, {"name": "14b465f51058cc93d900e85b7b4607d9", "fusion_lon": 0.0, "lat": 38.90588483333333, "is_reserved": 0, "type": "electric_scooter", "bike_id": "14b465f51058cc93d900e85b7b4607d9", "is_disabled": 0, "rental_uris": {"android": "https://dc.lft.to/lastmile_qr_scan", "ios": "https://dc.lft.to/lastmile_qr_scan"}, "lon": -77.00714666666667, "fusion_lat": 0.0}, {"name": "d854dead6750e3920e2e1fa60d96d008", "fusion_lon": 0.0, "lat": 38.92869233333333, "is_reserved": 0, "type": "electric_scooter", "bike_id": "d854dead6750e3920e2e1fa60d96d008", "is_disabled": 0, "rental_uris": {"android": "https://dc.lft.to/lastmile_qr_scan", "ios": "https://dc.lft.to/lastmile_qr_scan"}, "lon": -77.03501166666666, "fusion_lat": 0.0}, {"name": "b9712e97c2a69228496f37280ae560ef", "fusion_lon": 0.0, "lat": 38.87275833333333, "is_reserved": 0, "type": "electric_bike", "bike_id": "b9712e97c2a69228496f37280ae560ef", "is_disabled": 0, "rental_uris": {"android": "https://dc.lft.to/lastmile_qr_scan", "ios": "https://dc.lft.to/lastmile_qr_scan"}, "lon": -77.23326916666667, "fusion_lat": 0.0}, {"name": "1f64f6bf3d677c6b0a9ba07b62e0aace", "fusion_lon": 0.0, "lat": 38.90089783333333, "is_reserved": 0, "type": "electric_scooter", "bike_id": "1f64f6bf3d677c6b0a9ba07b62e0aace", "is_disabled": 0, "rental_uris": {"android": "https://dc.lft.to/lastmile_qr_scan", "ios": "https://dc.lft.to/lastmile_qr_scan"}, "lon": -77.0476455, "fusion_lat": 0.0}, {"name": "7a0148c7dc33a24cd7e6802689b13a65", "fusion_lon": 0.0, "lat": 38.906242166666665, "is_reserved": 0, "type": "electric_scooter", "bike_id": "7a0148c7dc33a24cd7e6802689b13a65", "is_disabled": 0, "rental_uris": {"android": "https://dc.lft.to/lastmile_qr_scan", "ios": "https://dc.lft.to/lastmile_qr_scan"}, "lon": -77.0690015, "fusion_lat": 0.0}, {"name": "930ca6cdfc6f9898aced24a25d5e0d1a", "fusion_lon": 0.0, "lat": 38.964781, "is_reserved": 0, "type": "electric_bike", "bike_id": "930ca6cdfc6f9898aced24a25d5e0d1a", "is_disabled": 0, "rental_uris": {"android": "https://dc.lft.to/lastmile_qr_scan", "ios": "https://dc.lft.to/lastmile_qr_scan"}, "lon": -77.03558633333333, "fusion_lat": 0.0}, {"name": "5cb95535a632f131aaa30054636d889f", "fusion_lon": 0.0, "lat": 38.899838333333335, "is_reserved": 0, "type": "electric_scooter", "bike_id": "5cb95535a632f131aaa30054636d889f", "is_disabled": 0, "rental_uris": {"android": "https://dc.lft.to/lastmile_qr_scan", "ios": "https://dc.lft.to/lastmile_qr_scan"}, "lon": -77.0066445, "fusion_lat": 0.0}, {"name": "da589c540cfed7c5388ce049c696a3b4", "fusion_lon": 0.0, "lat": 38.91384466666667, "is_reserved": 0, "type": "electric_scooter", "bike_id": "da589c540cfed7c5388ce049c696a3b4", "is_disabled": 0, "rental_uris": {"android": "https://dc.lft.to/lastmile_qr_scan", "ios": "https://dc.lft.to/lastmile_qr_scan"}, "lon": -77.0413265, "fusion_lat": 0.0}, {"name": "c2c7b6bd474f1311b6d3a3fdd57cd6fc", "fusion_lon": 0.0, "lat": 38.908273333333334, "is_reserved": 0, "type": "electric_scooter", "bike_id": "c2c7b6bd474f1311b6d3a3fdd57cd6fc", "is_disabled": 0, "rental_uris": {"android": "https://dc.lft.to/lastmile_qr_scan", "ios": "https://dc.lft.to/lastmile_qr_scan"}, "lon": -76.941608, "fusion_lat": 0.0}, {"name": "48dd508737c2e3d16b4dab42f0cfb965", "fusion_lon": 0.0, "lat": 38.920302666666664, "is_reserved": 0, "type": "electric_scooter", "bike_id": "48dd508737c2e3d16b4dab42f0cfb965", "is_disabled": 0, "rental_uris": {"android": "https://dc.lft.to/lastmile_qr_scan", "ios": "https://dc.lft.to/lastmile_qr_scan"}, "lon": -77.01135683333334, "fusion_lat": 0.0},