{"data": {"bikes": [{"bike_id": "a1cf3d00db2db8dc20675afc83986caa", "type": "electric_bike", "is_disabled": 0, "lat": 38.898165666666664, "rental_uris": {"ios": "https://dc.lft.to/lastmile_qr_scan", "android": "https://dc.lft.to/lastmile_qr_scan"}, "is_reserved": 0, "fusion_lon": 0.0, "fusion_lat": 0.0, "lon": -76.99074783333333, "name": "a1cf3d00db2db8dc20675afc83986caa"}, {"bike_id": "62bea401d8b53fb42e5c287df93d3ba2", "type": "electric_scooter", "is_disabled": 0, "lat": 38.91160933333333, "rental_uris": {"ios": "https://dc.lft.to/lastmile_qr_scan", "android": "https://dc.lft.to/lastmile_qr_scan"}, "is_reserved": 0, "fusion_lon": 0.0, "fusion_lat": 0.0, "lon": -77.01998566666667, "name": "62bea401d8b53fb42e5c287df93d3ba2"}, {"bike_id": "13350201950d3a0d88679ec5cc66481a", "type": "electric_bike", "is_disabled": 0, "lat": 38.859376166666664, "rental_uris": {"ios": "https://dc.lft.to/lastmile_qr_scan", "android": "https://dc.lft.to/lastmile_qr_scan"}, "is_reserved": 0, "fusion_lon": 0.0, "fusion_lat": 0.0, "lon": -77.11824866666667, "name": "13350201950d3a0d88679ec5cc66481a"}, {"bike_id": "05019675812e729ec737d5dd58d3fca5", "type": "electric_bike", "is_disabled": 0, "lat": 38.823708833333335, "rental_uris": {"ios": "https://dc.lft.to/lastmile_qr_scan", "android": "https://dc.lft.to/lastmile_qr_scan"}, "is_reserved": 0, "fusion_lon": 0.0, "fusion_lat": 0.0, "lon": -77.002211, "name": "05019675812e729ec737d5dd58d3fca5"}, {"bike_id": "ea515d72cc6a87a2b287d1803aa3ad21", "type": "electric_scooter", "is_disabled": 0, "lat": 38.91545933333333, "rental_uris": {"ios": "https://dc.lft.to/lastmile_qr_scan", "android": "https://dc.lft.to/lastmile_qr_scan"}, "is_reserved": 0, "fusion_lon": 0.0, "fusion_lat": 0.0, "lon": -77.01223166666666, "name": "ea515d72cc6a87a2b287d1803aa3ad21"}, {"bike_id": "97630e900fc01bae229d09cde229e799", "type": "electric_scooter", "is_disabled": 0, "lat": 38.923759, "rental_uris": {"ios": "https://dc.lft.to/lastmile_qr_scan", "android": "https://dc.lft.to/lastmile_qr_scan"}, "is_reserved": 0, "fusion_lon": 0.0, "fusion_lat": 0.0, "lon": -77.02986566666667, "name": "97630e900fc01bae229d09cde229e799"}, {"bike_id": "b91f4ed4b4e1e16dc0e01d4ff069bb89", "type": "electric_scooter", "is_disabled": 0, "lat": 38.911219, "rental_uris": {"ios": "https://dc.lft.to/lastmile_qr_scan", "android": "https://dc.lft.to/lastmile_qr_scan"}, "is_reserved": 0, "fusion_lon": 0.0, "fusion_lat": 0.0, "lon": -77.03734316666667, "name": "b91f4ed4b4e1e16dc0e01d4ff069bb89"}, {"bike_id": "8bc9a9e1482cd4c1ee088267b4ce8290", "type": "electric_bike", "is_disabled": 0, "lat": 38.939683, "rental_uris": {"ios": "https://dc.lft.to/lastmile_qr_scan", "android": "https://dc.lft.to/lastmile_qr_scan"}, "is_reserved": 0, "fusion_lon": 0.0, "fusion_lat": 0.0, "lon": -77.05253633333334, "name": "8bc9a9e1482cd4c1ee088267b4ce8290"}, {"bike_id": "371c2be2c9b29a19f5ab2d68fcee9a1e", "type": "electric_scooter", "is_disabled": 0, "lat": 38.882139333333335, "rental_uris": {"ios": "https://dc.lft.to/lastmile_qr_scan", "android": "https://dc.lft.to/lastmile_qr_scan"}, "is_reserved": 0, "fusion_lon": 0.0, "fusion_lat": 0.0, "lon": -76.98926616666667, "name": "371c2be2c9b29a19f5ab2d68fcee9a1e"}, {"bike_id": "e5a1867940c1f5a4473bf54df90f4800", "type": "electric_bike", "is_disabled": 0, "lat": 38.93372733333333, "rental_uris": {"ios": "https://dc.lft.to/lastmile_qr_scan", "android": "https://dc.lft.to/lastmile_qr_scan"}, "is_reserved": 0, "fusion_lon": 0.0, "fusion_lat": 0.0, "lon": -77.02417216666667, "name": "e5a1867940c1f5a4473bf54df90f4800"}, {"bike_id": "d50111d64575094ee4b6ae25db327a28", "type": "electric_scooter", "is_disabled": 0, "lat": 38.901290333333336, "rental_uris": {"ios": "https://dc.lft.to/lastmile_qr_scan", "android": "https://dc.lft.to/lastmile_qr_scan"}, "is_reserved": 0, "fusion_lon": 0.0, "fusion_lat": 0.0, "lon": -77.03649416666667, "name": "d50111d64575094ee4b6ae25db327a28"}, {"bike_id": "cdc29c1c5fb2688d276c9d66ab781731", "type": "electric_scooter", "is_disabled": 0, "lat": 38.90069583333333, "rental_uris": {"ios": "https://dc.lft.to/lastmile_qr_scan", "android": "https://dc.lft.to/lastmile_qr_scan"}, "is_reserved": 0, "fusion_lon": 0.0, "fusion_lat": 0.0, "lon": -77.04828216666667, "name": "cdc29c1c5fb2688d276c9d66ab781731"}, {"bike_id": "37c9d0b449cb0212789a7c5b9b5f79c0", "type": "electric_scooter", "is_disabled": 0, "lat": 38.926001666666664, "rental_uris": {"ios": "https://dc.lft.to/lastmile_qr_scan", "android": "https://dc.lft.to/lastmile_qr_scan"}, "is_reserved": 0, "fusion_lon": 0.0, "fusion_lat": 0.0, "lon": -77.0244225, "name": "37c9d0b449cb0212789a7c5b9b5f79c0"}, {"bike_id": "040e85310d5ac387d2fd1f9ba28e8f85", "type": "electric_scooter", "is_disabled": 0, "lat": 38.8987735, "rental_uris": {"ios": "https://dc.lft.to/lastmile_qr_scan", "android": "https://dc.lft.to/lastmile_qr_scan"}, "is_reserved": 0, "fusion_lon": 0.0, "fusion_lat": 0.0, "lon": -76.93184366666667, "name": "040e85310d5ac387d2fd1f9ba28e8f85"}, {"bike_id": "0f1a276357909626d209321081a1b88a", "type": "electric_scooter", "is_disabled": 0, "lat": 38.9247775, "rental_uris": {"ios": "https://dc.lft.to/lastmile_qr_scan", "android": "https://dc.lft.to/lastmile_qr_scan"}, "is_reserved": 0, "fusion_lon": 0.0, "fusion_lat": 0.0, "lon": -77.028304, "name": "0f1a276357909626d209321081a1b88a"}, {"bike_id": "6c4f575bb2f7485638f978189f4914d3", "type": "electric_scooter", "is_disabled": 0, "lat": 38.908147166666666, "rental_uris": {"ios": "https://dc.lft.to/lastmile_qr_scan", "android": "https://dc.lft.to/lastmile_qr_scan"}, "is_reserved": 0, "fusion_lon": 0.0, "fusion_lat": 0.0, "lon": -77.03451783333334, "name": "6c4f575bb2f7485638f978189f4914d3"}, {"bike_id": "75ffaad46c86360c34dd3ea290eb9241", "type": "electric_scooter", "is_disabled": 0, "lat": 38.91924816666667, "rental_uris": {"ios": "https://dc.lft.to/lastmile_qr_scan", "android": "https://dc.lft.to/lastmile_qr_scan"}, "is_reserved": 0, "fusion_lon": 0.0, "fusion_lat": 0.0, "lon": -77.041681, "name": "75ffaad46c86360c34dd3ea290eb9241"}, {"bike_id": "77966048c55d914f4610bf066389ee91", "type": "electric_scooter", "is_disabled": 0, "lat": 38.917101333333335, "rental_uris": {"ios": "https://dc.lft.to/lastmile_qr_scan", "android": "https://dc.lft.to/lastmile_qr_scan"}, "is_reserved": 0, "fusion_lon": 0.0, "fusion_lat": 0.0, "lon": -77.02895483333333, "name": "77966048c55d914f4610bf066389ee91"}, {"bike_id": "490cdbd0a53ac1fb423ec013eaf877c6", "type": "electric_scooter", "is_disabled": 0, "lat": 38.93085033333333, "rental_uris": {"ios": "https://dc.lft.to/lastmile_qr_scan", "android": "https://dc.lft.to/lastmile_qr_scan"}, "is_reserved": 0, "fusion_lon": 0.0, "fusion_lat": 0.0, "lon": -77.03086266666666, "name": "490cdbd0a53ac1fb423ec013eaf877c6"}, {"bike_id": "bc7d02b259c344225d8fb0ce92b0041b", "type": "electric_scooter", "is_disabled": 0, "lat": 38.915646, "rental_uris": {"ios": "https://dc.lft.to/lastmile_qr_scan", "android": "https://dc.lft.to/lastmile_qr_scan"}, "is_reserved": 0, "fusion_lon": 0.0, "fusion_lat": 0.0, "lon": -77.021047, "name": "bc7d02b259c344225d8fb0ce92b0041b"}, {"bike_id": "e36d41e4abf0d64858705f61e4728125", "type": "electric_scooter", "is_disabled": 0, "lat": 38.945615, "rental_uris": {"ios": "https://dc.lft.to/lastmile_qr_scan", "android": "https://dc.lft.to/lastmile_qr_scan"}, "is_reserved": 0, "fusion_lon": 0.0, "fusion_lat": 0.0, "lon": -77.07122683333333, "name": "e36d41e4abf0d64858705f61e4728125"}, {"bike_id": "0b871eb1f813e8025ef57e08d8dcaebb", "type": "electric_bike", "is_disabled": 0, "lat": 38.85894616666667, "rental_uris": {"ios": "https://dc.lft.to/lastmile_qr_scan", "android": "https://dc.lft.to/lastmile_qr_scan"}, "is_reserved": 0, "fusion_lon": 0.0, "fusion_lat": 0.0, "lon": -77.11859283333334, "name": "0b871eb1f813e8025ef57e08d8dcaebb"}, {"bike_id": "4805814b23e8be41171de41354a95970", "type": "electric_scooter", "is_disabled": 0, "lat": 38.9041255, "rental_uris": {"ios": "https://dc.lft.to/lastmile_qr_scan", "android": "https://dc.lft.to/lastmile_qr_scan"}, "is_reserved": 0, "fusion_lon": 0.0, "fusion_lat": 0.0, "lon": -76.9732935, "name": "4805814b23e8be41171de41354a95970"}, {"bike_id": "0038a41daf2560d23712cf3c86038c94", "type": "electric_scooter", "is_disabled": 0, "lat": 38.884525, "rental_uris": {"ios": "https://dc.lft.to/lastmile_qr_scan", "android": "https://dc.lft.to/lastmile_qr_scan"}, "is_reserved": 0, "fusion_lon": 0.0, "fusion_lat": 0.0, "lon": -76.95098766666666, "name": "0038a41daf2560d23712cf3c86038c94"}, {"bike_id": "288cfb6cb4e86470e52b4d2af675299c", "type": "electric_scooter", "is_disabled": 0, "lat": 38.9073655, "rental_uris": {"ios": "https://dc.lft.to/lastmile_qr_scan", "android": "https://dc.lft.to/lastmile_qr_scan"}, "is_reserved": 0, "fusion_lon": 0.0, "fusion_lat": 0.0, "lon": -77.041869, "name": "288cfb6cb4e86470e52b4d2af675299c"}, {"bike_id": "c080a45faf4df77c85c597f895e53bfc", "type": "electric_scooter", "is_disabled": 0, "lat": 38.90468766666667, "rental_uris": {"ios": "https://dc.lft.to/lastmile_qr_scan", "android": "https://dc.lft.to/lastmile_qr_scan"}, "is_reserved": 0, "fusion_lon": 0.0, "fusion_lat": 0.0, "lon": -77.00898283333333, "name": "c080a45faf4df77c85c597f895e53bfc"}, {"bike_id": "4b0395e17245fb27421b3ff0fba0c1a2", "type": "electric_scooter", "is_disabled": 0, "lat": 38.91590583333333, "rental_uris": {"ios": "https://dc.lft.to/lastmile_qr_scan", "android": "https://dc.lft.to/lastmile_qr_scan"}, "is_reserved": 0, "fusion_lon": 0.0, "fusion_lat": 0.0, "lon": -77.00197766666666, "name": "4b0395e17245fb27421b3ff0fba0c1a2"}, {"bike_id": "1c2993f910808b03ad022483b244b6bb", "type": "electric_scooter", "is_disabled": 0, "lat": 38.905735666666665, "rental_uris": {"ios": "https://dc.lft.to/lastmile_qr_scan", "android": "https://dc.lft.to/lastmile_qr_scan"}, "is_reserved": 0, "fusion_lon": 0.0, "fusion_lat": 0.0, "lon": -77.00619816666666, "name": "1c2993f910808b03ad022483b244b6bb"}, {"bike_id": "42e22e8c0a4f68e048598e1540cd004e", "type": "electric_bike", "is_disabled": 0, "lat": 38.95789216666667, "rental_uris": {"ios": "https://dc.lft.to/lastmile_qr_scan", "android": "https://dc.lft.to/lastmile_qr_scan"}, "is_reserved": 0, "fusion_lon": 0.0, "fusion_lat": 0.0, "lon": -77.01997116666666, "name": "42e22e8c0a4f68e048598e1540cd004e"}, {"bike_id": "61839c997c3fa543396ca434e97cac37", "type": "electric_scooter", "is_disabled": 0, "lat": 38.899716166666664, "rental_uris": {"ios": "https://dc.lft.to/lastmile_qr_scan", "android": "https://dc.lft.to/lastmile_qr_scan"}, "is_reserved": 0, "fusion_lon": 0.0, "fusion_lat": 0.0, "lon": -76.98303816666666, "name": "61839c997c3fa543396ca434e97cac37"}, {"bike_id": "736bc34bbb1b357583d698da2f135046", "type": "electric_scooter", "is_disabled": 0, "lat": 38.93156333333334, "rental_uris": {"ios": "https://dc.lft.to/lastmile_qr_scan", "android": "https://dc.lft.to/lastmile_qr_scan"}, "is_reserved": 0, "fusion_lon": 0.0, "fusion_lat": 0.0, "lon": -77.033453, "name": "736bc34bbb1b357583d698da2f135046"}, {"bike_id": "6e287874c8e839dd7c3f1ff504a5bfc8", "type": "electric_scooter", "is_disabled": 0, "lat": 38.90911116666667, "rental_uris": {"ios": "https://dc.lft.to/lastmile_qr_scan", "android": "https://dc.lft.to/lastmile_qr_scan"}, "is_reserved": 0, "fusion_lon": 0.0, "fusion_lat": 0.0, "lon": -77.0231345, "name": "6e287874c8e839dd7c3f1ff504a5bfc8"}, {"bike_id": "87e0921acbc9c0f59041dbe797bad5be", "type": "electric_scooter", "is_disabled": 0, "lat": 38.894802, "rental_uris": {"ios": "https://dc.lft.to/lastmile_qr_scan", "android": "https://dc.lft.to/lastmile_qr_scan"}, "is_reserved": 0, "fusion_lon": 0.0, "fusion_lat": 0.0, "lon": -76.94861333333333, "name": "87e0921acbc9c0f59041dbe797bad5be"}, {"bike_id": "4a5f533b0002abd6dcb76ed0f6bf1d84", "type": "electric_bike", "is_disabled": 0, "lat": 38.9788255, "rental_uris": {"ios": "https://dc.lft.to/lastmile_qr_scan", "android": "https://dc.lft.to/lastmile_qr_scan"}, "is_reserved": 0, "fusion_lon": 0.0, "fusion_lat": 0.0, "lon": -77.060275, "name": "4a5f533b0002abd6dcb76ed0f6bf1d84"}, {"bike_id": "7b37c4dc62be3b4523aa85c35726302f", "type": "electric_scooter", "is_disabled": 0, "lat": 38.90960583333333, "rental_uris": {"ios": "https://dc.lft.to/lastmile_qr_scan", "android": "https://dc.lft.to/lastmile_qr_scan"}, "is_reserved": 0, "fusion_lon": 0.0, "fusion_lat": 0.0, "lon": -77.0227815, "name": "7b37c4dc62be3b4523aa85c35726302f"}, {"bike_id": "165af5a339543034becd5e06d80b3312", "type": "electric_scooter", "is_disabled": 0, "lat": 38.92778116666667, "rental_uris": {"ios": "https://dc.lft.to/lastmile_qr_scan", "android": "https://dc.lft.to/lastmile_qr_scan"}, "is_reserved": 0, "fusion_lon": 0.0, "fusion_lat": 0.0, "lon": -76.98759683333333, "name": "165af5a339543034becd5e06d80b3312"}, {"bike_id": "7bdae98b7b443ba44d51fc36c0c9c6df", "type": "electric_scooter", "is_disabled": 0, "lat": 38.9346135, "rental_uris": {"ios": "https://dc.lft.to/lastmile_qr_scan", "android": "https://dc.lft.to/lastmile_qr_scan"}, "is_reserved": 0, "fusion_lon": 0.0, "fusion_lat": 0.0, "lon": -77.0241105, "name": "7bdae98b7b443ba44d51fc36c0c9c6df"}, {"bike_id": "f59660b7a0e8b3bf49922c6671b56315", "type": "electric_scooter", "is_disabled": 0, "lat": 38.906539333333335, "rental_uris": {"ios": "https://dc.lft.to/lastmile_qr_scan", "android": "https://dc.lft.to/lastmile_qr_scan"}, "is_reserved": 0, "fusion_lon": 0.0, "fusion_lat": 0.0, "lon": -77.05314083333333, "name": "f59660b7a0e8b3bf49922c6671b56315"}, {"bike_id": "c9740c66889e0b7a39e4a6e5282e519f", "type": "electric_scooter", "is_disabled": 0, "lat": 38.90965333333333, "rental_uris": {"ios": "https://dc.lft.to/lastmile_qr_scan", "android": "https://dc.lft.to/lastmile_qr_scan"}, "is_reserved": 0, "fusion_lon": 0.0, "fusion_lat": 0.0, "lon": -77.04781366666667, "name": "c9740c66889e0b7a39e4a6e5282e519f"}, {"bike_id": "92efe7d723a06302e29a5b7ee62c1cb0", "type": "electric_scooter", "is_disabled": 0, "lat": 38.91969366666667, "rental_uris": {"ios": "https://dc.lft.to/lastmile_qr_scan", "android": "https://dc.lft.to/lastmile_qr_scan"}, "is_reserved": 0, "fusion_lon": 0.0, "fusion_lat": 0.0, "lon": -77.039392, "name": "92efe7d723a06302e29a5b7ee62c1cb0"}, {"bike_id": "553268ec5590dccf21cb6f8fdf16ace3", "type": "electric_bike", "is_disabled": 0, "lat": 38.889308666666665, "rental_uris": {"ios": "https://dc.lft.to/lastmile_qr_scan", "android": "https://dc.lft.to/lastmile_qr_scan"}, "is_reserved": 0, "fusion_lon": 0.0, "fusion_lat": 0.0, "lon": -76.99175683333333, "name": "553268ec5590dccf21cb6f8fdf16ace3"}, {"bike_id": "3fe903de6811268a5b815bf3104e3fcb", "type": "electric_scooter", "is_disabled": 0, "lat": 38.87576816666667, "rental_uris": {"ios": "https://dc.lft.to/lastmile_qr_scan", "android": "https://dc.lft.to/lastmile_qr_scan"}, "is_reserved": 0, "fusion_lon": 0.0, "fusion_lat": 0.0, "lon": -77.01270733333334, "name": "3fe903de6811268a5b815bf3104e3fcb"}, {"bike_id": "6d48d9d166212240ad04153b73306287", "type": "electric_scooter", "is_disabled": 0, "lat": 38.930186666666664, "rental_uris": {"ios": "https://dc.lft.to/lastmile_qr_scan", "android": "https://dc.lft.to/lastmile_qr_scan"}, "is_reserved": 0, "fusion_lon": 0.0, "fusion_lat": 0.0, "lon": -77.02086816666667, "name": "6d48d9d166212240ad04153b73306287"}, {"bike_id": "48d4b2134777e804422877b24246dec7", "type": "electric_scooter", "is_disabled": 0, "lat": 38.928386833333334, "rental_uris": {"ios": "https://dc.lft.to/lastmile_qr_scan", "android": "https://dc.lft.to/lastmile_qr_scan"}, "is_reserved": 0, "fusion_lon": 0.0, "fusion_lat": 0.0, "lon": -77.03307783333334, "name": "48d4b2134777e804422877b24246dec7"}, {"bike_id": "3e01c0b398cb311920d2ab65a74a4061", "type": "electric_scooter", "is_disabled": 0, "lat": 38.88183183333334, "rental_uris": {"ios": "https://dc.lft.to/lastmile_qr_scan", "android": "https://dc.lft.to/lastmile_qr_scan"}, "is_reserved": 0, "fusion_lon": 0.0, "fusion_lat": 0.0, "lon": -77.02808183333333, "name": "3e01c0b398cb311920d2ab65a74a4061"}, {"bike_id": "28fa3b2ed028e6ffacb59f5bf6ff1063", "type": "electric_scooter", "is_disabled": 0, "lat": 38.901984166666665, "rental_uris": {"ios": "https://dc.lft.to/lastmile_qr_scan", "android": "https://dc.lft.to/lastmile_qr_scan"}, "is_reserved": 0, "fusion_lon": 0.0, "fusion_lat": 0.0, "lon": -76.98842316666666, "name": "28fa3b2ed028e6ffacb59f5bf6ff1063"}, {"bike_id": "c7a4656ab90abfdc93c331c0d8f230be", "type": "electric_scooter", "is_disabled": 0, "lat": 38.905401499999996, "rental_uris": {"ios": "https://dc.lft.to/lastmile_qr_scan", "android": "https://dc.lft.to/lastmile_qr_scan"}, "is_reserved": 0, "fusion_lon": 0.0, "fusion_lat": 0.0, "lon": -77.0501955, "name": "c7a4656ab90abfdc93c331c0d8f230be"}, {"bike_id": "7a0baa5df5cda87dbdd409f47d637f69", "type": "electric_bike", "is_disabled": 0, "lat": 39.034082166666664, "rental_uris": {"ios": "https://dc.lft.to/lastmile_qr_scan", "android": "https://dc.lft.to/lastmile_qr_scan"}, "is_reserved": 0, "fusion_lon": 0.0, "fusion_lat": 0.0, "lon": -77.04154783333334, "name": "7a0baa5df5cda87dbdd409f47d637f69"}, {"bike_id": "0b3be36fe1dd50cf29b749e2487306d4", "type": "electric_scooter", "is_disabled": 0, "lat": 38.91932716666667, "rental_uris": {"ios": "https://dc.lft.to/lastmile_qr_scan", "android": "https://dc.lft.to/lastmile_qr_scan"}, "is_reserved": 0, "fusion_lon": 0.0, "fusion_lat": 0.0, "lon": -77.03203816666667, "name": "0b3be36fe1dd50cf29b749e2487306d4"}, {"bike_id": "2ffe3f593a97ad5ed0a57b5000e235c0", "type": "electric_scooter", "is_disabled": 0, "lat": 38.92343283333334, "rental_uris": {"ios": "https://dc.lft.to/lastmile_qr_scan", "android": "https://dc.lft.to/lastmile_qr_scan"}, "is_reserved": 0, "fusion_lon": 0.0, "fusion_lat": 0.0, "lon": -77.05095516666667, "name": "2ffe3f593a97ad5ed0a57b5000e235c0"}, {"bike_id": "86f5347b1c8ca258a1431a80434a5723", "type": "electric_scooter", "is_disabled": 0, "lat": 38.897434, "rental_uris": {"ios": "https://dc.lft.to/lastmile_qr_scan", "android": "https://dc.lft.to/lastmile_qr_scan"}, "is_reserved": 0, "fusion_lon": 0.0, "fusion_lat": 0.0, "lon": -76.94724366666667, "name": "86f5347b1c8ca258a1431a80434a5723"}, {"bike_id": "c6467be4f59063055fd1b59509884e3f", "type": "electric_scooter", "is_disabled": 0, "lat": 38.91208683333333, "rental_uris": {"ios": "https://dc.lft.to/lastmile_qr_scan", "android": "https://dc.lft.to/lastmile_qr_scan"}, "is_reserved": 0, "fusion_lon": 0.0, "fusion_lat": 0.0, "lon": -77.03855266666666, "name": "c6467be4f59063055fd1b59509884e3f"}, {"bike_id": "b1223b01b3d255f250fac6bc1fafd3c9", "type": "electric_scooter", "is_disabled": 0, "lat": 38.90571816666667, "rental_uris": {"ios": "https://dc.lft.to/lastmile_qr_scan", "android": "https://dc.lft.to/lastmile_qr_scan"}, "is_reserved": 0, "fusion_lon": 0.0, "fusion_lat": 0.0, "lon": -77.04381966666666, "name": "b1223b01b3d255f250fac6bc1fafd3c9"}, {"bike_id": "685196fe3fa4c3f5a3d0076b7d28c48c", "type": "electric_scooter", "is_disabled": 0, "lat": 38.922775, "rental_uris": {"ios": "https://dc.lft.to/lastmile_qr_scan", "android": "https://dc.lft.to/lastmile_qr_scan"}, "is_reserved": 0, "fusion_lon": 0.0, "fusion_lat": 0.0, "lon": -77.03663883333333, "name": "685196fe3fa4c3f5a3d0076b7d28c48c"}, {"bike_id": "6be42fa488de54c8ba2c6d519c989afb", "type": "electric_scooter", "is_disabled": 0, "lat": 38.908956333333336, "rental_uris": {"ios": "https://dc.lft.to/lastmile_qr_scan", "android": "https://dc.lft.to/lastmile_qr_scan"}, "is_reserved": 0, "fusion_lon": 0.0, "fusion_lat": 0.0, "lon": -77.04505716666667, "name": "6be42fa488de54c8ba2c6d519c989afb"}, {"bike_id": "3dd2597efaef04bcbfb1f59eb4863e3c", "type": "electric_scooter", "is_disabled": 0, "lat": 38.892352333333335, "rental_uris": {"ios": "https://dc.lft.to/lastmile_qr_scan", "android": "https://dc.lft.to/lastmile_qr_scan"}, "is_reserved": 0, "fusion_lon": 0.0, "fusion_lat": 0.0, "lon": -77.0489285, "name": "3dd2597efaef04bcbfb1f59eb4863e3c"}, {"bike_id": "7e800dd0a442e6e8c6f5def0227038ee", "type": "electric_scooter", "is_disabled": 0, "lat": 38.9310675, "rental_uris": {"ios": "https://dc.lft.to/lastmile_qr_scan", "android": "https://dc.lft.to/lastmile_qr_scan"}, "is_reserved": 0, "fusion_lon": 0.0, "fusion_lat": 0.0, "lon": -77.0346455, "name": "7e800dd0a442e6e8c6f5def0227038ee"}, {"bike_id": "d25387b263d2258b1dbf24298cdc183c", "type": "electric_scooter", "is_disabled": 0, "lat": 38.915780166666664, "rental_uris": {"ios": "https://dc.lft.to/lastmile_qr_scan", "android": "https://dc.lft.to/lastmile_qr_scan"}, "is_reserved": 0, "fusion_lon": 0.0, "fusion_lat": 0.0, "lon": -77.03464783333334, "name": "d25387b263d2258b1dbf24298cdc183c"}, {"bike_id": "5b2c3182cc22e1ec1bc12030ead9bc88", "type": "electric_scooter", "is_disabled": 0, "lat": 38.9117555, "rental_uris": {"ios": "https://dc.lft.to/lastmile_qr_scan", "android": "https://dc.lft.to/lastmile_qr_scan"}, "is_reserved": 0, "fusion_lon": 0.0, "fusion_lat": 0.0, "lon": -77.0019695, "name": "5b2c3182cc22e1ec1bc12030ead9bc88"}, {"bike_id": "c801aa02d86170ca7d2d37b67a04d08c", "type": "electric_scooter", "is_disabled": 0, "lat": 38.915884, "rental_uris": {"ios": "https://dc.lft.to/lastmile_qr_scan", "android": "https://dc.lft.to/lastmile_qr_scan"}, "is_reserved": 0, "fusion_lon": 0.0, "fusion_lat": 0.0, "lon": -77.01142083333333, "name": "c801aa02d86170ca7d2d37b67a04d08c"}, {"bike_id": "c5e8e3e8eb35be5a8fa0dd3ca74134d4", "type": "electric_scooter", "is_disabled": 0, "lat": 38.9368825, "rental_uris": {"ios": "https://dc.lft.to/lastmile_qr_scan", "android": "https://dc.lft.to/lastmile_qr_scan"}, "is_reserved": 0, "fusion_lon": 0.0, "fusion_lat": 0.0, "lon": -77.06622983333334, "name": "c5e8e3e8eb35be5a8fa0dd3ca74134d4"}, {"bike_id": "2f72583776a318d86086b8ee4d2221d8", "type": "electric_scooter", "is_disabled": 0, "lat": 38.9265235, "rental_uris": {"ios": "https://dc.lft.to/lastmile_qr_scan", "android": "https://dc.lft.to/lastmile_qr_scan"}, "is_reserved": 0, "fusion_lon": 0.0, "fusion_lat": 0.0, "lon": -77.03848966666666, "name": "2f72583776a318d86086b8ee4d2221d8"}, {"bike_id": "4a5b2642b9784a49a73130657cb3774a", "type": "electric_scooter", "is_disabled": 0, "lat": 38.922969, "rental_uris": {"ios": "https://dc.lft.to/lastmile_qr_scan", "android": "https://dc.lft.to/lastmile_qr_scan"}, "is_reserved": 0, "fusion_lon": 0.0, "fusion_lat": 0.0, "lon": -77.07320033333333, "name": "4a5b2642b9784a49a73130657cb3774a"}, {"bike_id": "73cbda2ba6a7f69cf35638b6d57d7fa5", "type": "electric_scooter", "is_disabled": 0, "lat": 38.904186833333334, "rental_uris": {"ios": "https://dc.lft.to/lastmile_qr_scan", "android": "https://dc.lft.to/lastmile_qr_scan"}, "is_reserved": 0, "fusion_lon": 0.0, "fusion_lat": 0.0, "lon": -77.02497766666667, "name": "73cbda2ba6a7f69cf35638b6d57d7fa5"}, {"bike_id": "040e186d9e63056834f1912955855d06", "type": "electric_scooter", "is_disabled": 0, "lat": 38.92476383333333, "rental_uris": {"ios": "https://dc.lft.to/lastmile_qr_scan", "android": "https://dc.lft.to/lastmile_qr_scan"}, "is_reserved": 0, "fusion_lon": 0.0, "fusion_lat": 0.0, "lon": -77.02835033333334, "name": "040e186d9e63056834f1912955855d06"}, {"bike_id": "7f765f240de8245f1997fe213fab2331", "type": "electric_scooter", "is_disabled": 0, "lat": 38.904957833333334, "rental_uris": {"ios": "https://dc.lft.to/lastmile_qr_scan", "android": "https://dc.lft.to/lastmile_qr_scan"}, "is_reserved": 0, "fusion_lon": 0.0, "fusion_lat": 0.0, "lon": -76.94958966666667, "name": "7f765f240de8245f1997fe213fab2331"}, {"bike_id": "06690af0965c9519dbf182fbec41af2c", "type": "electric_scooter", "is_disabled": 0, "lat": 38.90976116666667, "rental_uris": {"ios": "https://dc.lft.to/lastmile_qr_scan", "android": "https://dc.lft.to/lastmile_qr_scan"}, "is_reserved": 0, "fusion_lon": 0.0, "fusion_lat": 0.0, "lon": -77.03435983333334, "name": "06690af0965c9519dbf182fbec41af2c"}, {"bike_id": "9b429aac3fe9f3bc8b0d7a4ac6b4acfc", "type": "electric_scooter", "is_disabled": 0, "lat": 38.91065433333333, "rental_uris": {"ios": "https://dc.lft.to/lastmile_qr_scan", "android": "https://dc.lft.to/lastmile_qr_scan"}, "is_reserved": 0, "fusion_lon": 0.0, "fusion_lat": 0.0, "lon": -77.02696533333334, "name": "9b429aac3fe9f3bc8b0d7a4ac6b4acfc"}, {"bike_id": "72b067fb1904fd34486ef9dbfb3ce803", "type": "electric_scooter", "is_disabled": 0, "lat": 38.863786, "rental_uris": {"ios": "https://dc.lft.to/lastmile_qr_scan", "android": "https://dc.lft.to/lastmile_qr_scan"}, "is_reserved": 0, "fusion_lon": 0.0, "fusion_lat": 0.0, "lon": -76.99060616666667, "name": "72b067fb1904fd34486ef9dbfb3ce803"}, {"bike_id": "c542eb846fed8b690e8c619ce7556d28", "type": "electric_scooter", "is_disabled": 0, "lat": 38.86687516666667, "rental_uris": {"ios": "https://dc.lft.to/lastmile_qr_scan", "android": "https://dc.lft.to/lastmile_qr_scan"}, "is_reserved": 0, "fusion_lon": 0.0, "fusion_lat": 0.0, "lon": -76.9855525, "name": "c542eb846fed8b690e8c619ce7556d28"}, {"bike_id": "8e5f6241d895b05fdd31a49335854520", "type": "electric_scooter", "is_disabled": 0, "lat": 38.906012833333335, "rental_uris": {"ios": "https://dc.lft.to/lastmile_qr_scan", "android": "https://dc.lft.to/lastmile_qr_scan"}, "is_reserved": 0, "fusion_lon": 0.0, "fusion_lat": 0.0, "lon": -77.0735815, "name": "8e5f6241d895b05fdd31a49335854520"}, {"bike_id": "7372ef351db4945f05eea4177f8d076a", "type": "electric_scooter", "is_disabled": 0, "lat": 38.922009833333334, "rental_uris": {"ios": "https://dc.lft.to/lastmile_qr_scan", "android": "https://dc.lft.to/lastmile_qr_scan"}, "is_reserved": 0, "fusion_lon": 0.0, "fusion_lat": 0.0, "lon": -77.04696083333333, "name": "7372ef351db4945f05eea4177f8d076a"}, {"bike_id": "92805e16d0ca6634265b2aeed74ecd60", "type": "electric_scooter", "is_disabled": 0, "lat": 38.923361166666666, "rental_uris": {"ios": "https://dc.lft.to/lastmile_qr_scan", "android": "https://dc.lft.to/lastmile_qr_scan"}, "is_reserved": 0, "fusion_lon": 0.0, "fusion_lat": 0.0, "lon": -77.03610816666666, "name": "92805e16d0ca6634265b2aeed74ecd60"}, {"bike_id": "2e3f07b934f51a6eee06b7f08dac117c", "type": "electric_scooter", "is_disabled": 0, "lat": 38.936069833333335, "rental_uris": {"ios": "https://dc.lft.to/lastmile_qr_scan", "android": "https://dc.lft.to/lastmile_qr_scan"}, "is_reserved": 0, "fusion_lon": 0.0, "fusion_lat": 0.0, "lon": -77.03787016666666, "name": "2e3f07b934f51a6eee06b7f08dac117c"}, {"bike_id": "b95e3ff7eb76b61f2acdc476ea1b5a00", "type": "electric_scooter", "is_disabled": 0, "lat": 38.92566566666667, "rental_uris": {"ios": "https://dc.lft.to/lastmile_qr_scan", "android": "https://dc.lft.to/lastmile_qr_scan"}, "is_reserved": 0, "fusion_lon": 0.0, "fusion_lat": 0.0, "lon": -77.04016016666667, "name": "b95e3ff7eb76b61f2acdc476ea1b5a00"}, {"bike_id": "62aa5bb4bb27a877df658ee37e719fc3", "type": "electric_bike", "is_disabled": 0, "lat": 38.873002166666666, "rental_uris": {"ios": "https://dc.lft.to/lastmile_qr_scan", "android": "https://dc.lft.to/lastmile_qr_scan"}, "is_reserved": 0, "fusion_lon": 0.0, "fusion_lat": 0.0, "lon": -77.139283, "name": "62aa5bb4bb27a877df658ee37e719fc3"}, {"bike_id": "e1f7af20b2185c934bf80ca29fd0ccb2", "type": "electric_scooter", "is_disabled": 0, "lat": 38.92978633333333, "rental_uris": {"ios": "https://dc.lft.to/lastmile_qr_scan", "android": "https://dc.lft.to/lastmile_qr_scan"}, "is_reserved": 0, "fusion_lon": 0.0, "fusion_lat": 0.0, "lon": -77.027722, "name": "e1f7af20b2185c934bf80ca29fd0ccb2"}, {"bike_id": "f5982db9b2e8131c57e32f97aca7c7d8", "type": "electric_scooter", "is_disabled": 0, "lat": 38.905755166666665, "rental_uris": {"ios": "https://dc.lft.to/lastmile_qr_scan", "android": "https://dc.lft.to/lastmile_qr_scan"}, "is_reserved": 0, "fusion_lon": 0.0, "fusion_lat": 0.0, "lon": -77.02215416666667, "name": "f5982db9b2e8131c57e32f97aca7c7d8"}, {"bike_id": "82f29baa4f42281e49a4207fbecdfd55", "type": "electric_scooter", "is_disabled": 0, "lat": 38.89492833333333, "rental_uris": {"ios": "https://dc.lft.to/lastmile_qr_scan", "android": "https://dc.lft.to/lastmile_qr_scan"}, "is_reserved": 0, "fusion_lon": 0.0, "fusion_lat": 0.0, "lon": -77.0108755, "name": "82f29baa4f42281e49a4207fbecdfd55"}, {"bike_id": "6aad7849d65bf5ddc54d1132fd81be1d", "type": "electric_scooter", "is_disabled": 0, "lat": 38.95315316666667, "rental_uris": {"ios": "https://dc.lft.to/lastmile_qr_scan", "android": "https://dc.lft.to/lastmile_qr_scan"}, "is_reserved": 0, "fusion_lon": 0.0, "fusion_lat": 0.0, "lon": -77.0697515, "name": "6aad7849d65bf5ddc54d1132fd81be1d"}, {"bike_id": "7681b93b38a0469fc5e61212f1c7bfea", "type": "electric_scooter", "is_disabled": 0, "lat": 38.91546616666667, "rental_uris": {"ios": "https://dc.lft.to/lastmile_qr_scan", "android": "https://dc.lft.to/lastmile_qr_scan"}, "is_reserved": 0, "fusion_lon": 0.0, "fusion_lat": 0.0, "lon": -77.0126865, "name": "7681b93b38a0469fc5e61212f1c7bfea"}, {"bike_id": "79c1658c7ed1b7b5d88beeba48634d7f", "type": "electric_scooter", "is_disabled": 0, "lat": 38.925739166666666, "rental_uris": {"ios": "https://dc.lft.to/lastmile_qr_scan", "android": "https://dc.lft.to/lastmile_qr_scan"}, "is_reserved": 0, "fusion_lon": 0.0, "fusion_lat": 0.0, "lon": -77.0379385, "name": "79c1658c7ed1b7b5d88beeba48634d7f"}, {"bike_id": "da3f9f6218ec07fa2dfbd348554e0328", "type": "electric_scooter", "is_disabled": 0, "lat": 38.911407833333335, "rental_uris": {"ios": "https://dc.lft.to/lastmile_qr_scan", "android": "https://dc.lft.to/lastmile_qr_scan"}, "is_reserved": 0, "fusion_lon": 0.0, "fusion_lat": 0.0, "lon": -76.99010333333334, "name": "da3f9f6218ec07fa2dfbd348554e0328"}, {"bike_id": "cd9b1c296e60b50e3706038bc7de790c", "type": "electric_scooter", "is_disabled": 0, "lat": 38.923438, "rental_uris": {"ios": "https://dc.lft.to/lastmile_qr_scan", "android": "https://dc.lft.to/lastmile_qr_scan"}, "is_reserved": 0, "fusion_lon": 0.0, "fusion_lat": 0.0, "lon": -77.03900833333333, "name": "cd9b1c296e60b50e3706038bc7de790c"}, {"bike_id": "5229b7e0074adfb8b1a0fcaf2713ba18", "type": "electric_bike", "is_disabled": 0, "lat": 38.943652666666665, "rental_uris": {"ios": "https://dc.lft.to/lastmile_qr_scan", "android": "https://dc.lft.to/lastmile_qr_scan"}, "is_reserved": 0, "fusion_lon": 0.0, "fusion_lat": 0.0, "lon": -76.96779816666667, "name": "5229b7e0074adfb8b1a0fcaf2713ba18"}, {"bike_id": "0a6f18d09d01a2c59f49227e86b77dac", "type": "electric_scooter", "is_disabled": 0, "lat": 38.862174833333334, "rental_uris": {"ios": "https://dc.lft.to/lastmile_qr_scan", "android": "https://dc.lft.to/lastmile_qr_scan"}, "is_reserved": 0, "fusion_lon": 0.0, "fusion_lat": 0.0, "lon": -76.99469933333333, "name": "0a6f18d09d01a2c59f49227e86b77dac"}, {"bike_id": "88b47a5b5da9517c3a9715db17d0b7fe", "type": "electric_scooter", "is_disabled": 0, "lat": 38.89541216666667, "rental_uris": {"ios": "https://dc.lft.to/lastmile_qr_scan", "android": "https://dc.lft.to/lastmile_qr_scan"}, "is_reserved": 0, "fusion_lon": 0.0, "fusion_lat": 0.0, "lon": -76.94927683333333, "name": "88b47a5b5da9517c3a9715db17d0b7fe"}, {"bike_id": "08ff8c7b905cc0cc5da598992ed5a003", "type": "electric_scooter", "is_disabled": 0, "lat": 38.91766166666667, "rental_uris": {"ios": "https://dc.lft.to/lastmile_qr_scan", "android": "https://dc.lft.to/lastmile_qr_scan"}, "is_reserved": 0, "fusion_lon": 0.0, "fusion_lat": 0.0, "lon": -77.04769483333334, "name": "08ff8c7b905cc0cc5da598992ed5a003"}, {"bike_id": "742b5cb5c0c9b6c0d3b902f9faf95fb7", "type": "electric_scooter", "is_disabled": 0, "lat": 38.9383425, "rental_uris": {"ios": "https://dc.lft.to/lastmile_qr_scan", "android": "https://dc.lft.to/lastmile_qr_scan"}, "is_reserved": 0, "fusion_lon": 0.0, "fusion_lat": 0.0, "lon": -77.033798, "name": "742b5cb5c0c9b6c0d3b902f9faf95fb7"}, {"bike_id": "1e571cd38d1aecca4b21aa599f42f053", "type": "electric_scooter", "is_disabled": 0, "lat": 38.924596666666666, "rental_uris": {"ios": "https://dc.lft.to/lastmile_qr_scan", "android": "https://dc.lft.to/lastmile_qr_scan"}, "is_reserved": 0, "fusion_lon": 0.0, "fusion_lat": 0.0, "lon": -77.032753, "name": "1e571cd38d1aecca4b21aa599f42f053"}, {"bike_id": "5f32966fea718b6bf7076011bd8de7a0", "type": "electric_scooter", "is_disabled": 0, "lat": 38.90416666666667, "rental_uris": {"ios": "https://dc.lft.to/lastmile_qr_scan", "android": "https://dc.lft.to/lastmile_qr_scan"}, "is_reserved": 0, "fusion_lon": 0.0, "fusion_lat": 0.0, "lon": -76.97332166666666, "name": "5f32966fea718b6bf7076011bd8de7a0"}, {"bike_id": "c0724852fc243985c5d3eeeb0c370975", "type": "electric_scooter", "is_disabled": 0, "lat": 38.94734366666667, "rental_uris": {"ios": "https://dc.lft.to/lastmile_qr_scan", "android": "https://dc.lft.to/lastmile_qr_scan"}, "is_reserved": 0, "fusion_lon": 0.0, "fusion_lat": 0.0, "lon": -77.07861783333334, "name": "c0724852fc243985c5d3eeeb0c370975"}, {"bike_id": "985f0c409386a2a33339b247c88dcfb6", "type": "electric_scooter", "is_disabled": 0, "lat": 38.91250133333333, "rental_uris": {"ios": "https://dc.lft.to/lastmile_qr_scan", "android": "https://dc.lft.to/lastmile_qr_scan"}, "is_reserved": 0, "fusion_lon": 0.0, "fusion_lat": 0.0, "lon": -77.01974266666667, "name": "985f0c409386a2a33339b247c88dcfb6"}, {"bike_id": "a741ff6a126ed987cea36148556921dc", "type": "electric_bike", "is_disabled": 0, "lat": 38.99675466666667, "rental_uris": {"ios": "https://dc.lft.to/lastmile_qr_scan", "android": "https://dc.lft.to/lastmile_qr_scan"}, "is_reserved": 0, "fusion_lon": 0.0, "fusion_lat": 0.0, "lon": -77.03790266666667, "name": "a741ff6a126ed987cea36148556921dc"}, {"bike_id": "ad09273ca54e7f149f3670d9b85cb41e", "type": "electric_bike", "is_disabled": 0, "lat": 38.934838, "rental_uris": {"ios": "https://dc.lft.to/lastmile_qr_scan", "android": "https://dc.lft.to/lastmile_qr_scan"}, "is_reserved": 0, "fusion_lon": 0.0, "fusion_lat": 0.0, "lon": -77.05788933333334, "name": "ad09273ca54e7f149f3670d9b85cb41e"}, {"bike_id": "1ef02c3b4500f0e8152c5ea5e5722634", "type": "electric_scooter", "is_disabled": 0, "lat": 38.928379, "rental_uris": {"ios": "https://dc.lft.to/lastmile_qr_scan", "android": "https://dc.lft.to/lastmile_qr_scan"}, "is_reserved": 0, "fusion_lon": 0.0, "fusion_lat": 0.0, "lon": -77.0275025, "name": "1ef02c3b4500f0e8152c5ea5e5722634"}, {"bike_id": "ed3efb471b86ade1c27760a8fb1319b5", "type": "electric_bike", "is_disabled": 0, "lat": 38.8961515, "rental_uris": {"ios": "https://dc.lft.to/lastmile_qr_scan", "android": "https://dc.lft.to/lastmile_qr_scan"}, "is_reserved": 0, "fusion_lon": 0.0, "fusion_lat": 0.0, "lon": -76.90733533333334, "name": "ed3efb471b86ade1c27760a8fb1319b5"}, {"bike_id": "ad0b7ee7ce5fb4f69b2123dd23b7e860", "type": "electric_scooter", "is_disabled": 0, "lat": 38.91990233333333, "rental_uris": {"ios": "https://dc.lft.to/lastmile_qr_scan", "android": "https://dc.lft.to/lastmile_qr_scan"}, "is_reserved": 0, "fusion_lon": 0.0, "fusion_lat": 0.0, "lon": -76.97301866666666, "name": "ad0b7ee7ce5fb4f69b2123dd23b7e860"}, {"bike_id": "189fba0fc4ef987c70cbc80eacdf89ec", "type": "electric_scooter", "is_disabled": 0, "lat": 38.90279016666667, "rental_uris": {"ios": "https://dc.lft.to/lastmile_qr_scan", "android": "https://dc.lft.to/lastmile_qr_scan"}, "is_reserved": 0, "fusion_lon": 0.0, "fusion_lat": 0.0, "lon": -77.00335666666666, "name": "189fba0fc4ef987c70cbc80eacdf89ec"}, {"bike_id": "6cb7e00c48fd33b9c3cf4c9030418e73", "type": "electric_bike", "is_disabled": 0, "lat": 38.872978333333336, "rental_uris": {"ios": "https://dc.lft.to/lastmile_qr_scan", "android": "https://dc.lft.to/lastmile_qr_scan"}, "is_reserved": 0, "fusion_lon": 0.0, "fusion_lat": 0.0, "lon": -76.969767, "name": "6cb7e00c48fd33b9c3cf4c9030418e73"}, {"bike_id": "de3f06282002542d765efdea535bfe16", "type": "electric_scooter", "is_disabled": 0, "lat": 38.90943266666667, "rental_uris": {"ios": "https://dc.lft.to/lastmile_qr_scan", "android": "https://dc.lft.to/lastmile_qr_scan"}, "is_reserved": 0, "fusion_lon": 0.0, "fusion_lat": 0.0, "lon": -77.04465816666666, "name": "de3f06282002542d765efdea535bfe16"}, {"bike_id": "0b2a9856ab095ad41601f34477aa60d0", "type": "electric_scooter", "is_disabled": 0, "lat": 38.91690533333333, "rental_uris": {"ios": "https://dc.lft.to/lastmile_qr_scan", "android": "https://dc.lft.to/lastmile_qr_scan"}, "is_reserved": 0, "fusion_lon": 0.0, "fusion_lat": 0.0, "lon": -77.03463983333333, "name": "0b2a9856ab095ad41601f34477aa60d0"}, {"bike_id": "bfe90365041009f6d18f392e8e008551", "type": "electric_bike", "is_disabled": 0, "lat": 38.842745, "rental_uris": {"ios": "https://dc.lft.to/lastmile_qr_scan", "android": "https://dc.lft.to/lastmile_qr_scan"}, "is_reserved": 0, "fusion_lon": 0.0, "fusion_lat": 0.0, "lon": -76.98839183333334, "name": "bfe90365041009f6d18f392e8e008551"}, {"bike_id": "86ef6a5e8241a92dfd1cb05329b4292f", "type": "electric_scooter", "is_disabled": 0, "lat": 38.900642833333336, "rental_uris": {"ios": "https://dc.lft.to/lastmile_qr_scan", "android": "https://dc.lft.to/lastmile_qr_scan"}, "is_reserved": 0, "fusion_lon": 0.0, "fusion_lat": 0.0, "lon": -77.03661266666667, "name": "86ef6a5e8241a92dfd1cb05329b4292f"}, {"bike_id": "8a4a7de1de84b39244a4db4316d65c2d", "type": "electric_scooter", "is_disabled": 0, "lat": 38.914076333333334, "rental_uris": {"ios": "https://dc.lft.to/lastmile_qr_scan", "android": "https://dc.lft.to/lastmile_qr_scan"}, "is_reserved": 0, "fusion_lon": 0.0, "fusion_lat": 0.0, "lon": -77.02116866666667, "name": "8a4a7de1de84b39244a4db4316d65c2d"}, {"bike_id": "97e50687415fe5624cb5bf1abeba243e", "type": "electric_scooter", "is_disabled": 0, "lat": 38.903814, "rental_uris": {"ios": "https://dc.lft.to/lastmile_qr_scan", "android": "https://dc.lft.to/lastmile_qr_scan"}, "is_reserved": 0, "fusion_lon": 0.0, "fusion_lat": 0.0, "lon": -77.03837716666666, "name": "97e50687415fe5624cb5bf1abeba243e"}, {"bike_id": "2549d259ff02d0fc6ab7468317ba99d0", "type": "electric_scooter", "is_disabled": 0, "lat": 38.93357566666667, "rental_uris": {"ios": "https://dc.lft.to/lastmile_qr_scan", "android": "https://dc.lft.to/lastmile_qr_scan"}, "is_reserved": 0, "fusion_lon": 0.0, "fusion_lat": 0.0, "lon": -77.073128, "name": "2549d259ff02d0fc6ab7468317ba99d0"}, {"bike_id": "895d268908dee9b3da78691a1e713ccd", "type": "electric_scooter", "is_disabled": 0, "lat": 38.89987133333333, "rental_uris": {"ios": "https://dc.lft.to/lastmile_qr_scan", "android": "https://dc.lft.to/lastmile_qr_scan"}, "is_reserved": 0, "fusion_lon": 0.0, "fusion_lat": 0.0, "lon": -77.02091283333333, "name": "895d268908dee9b3da78691a1e713ccd"}, {"bike_id": "c8d95701dd1a6630569699c9fba37eda", "type": "electric_scooter", "is_disabled": 0, "lat": 38.9126875, "rental_uris": {"ios": "https://dc.lft.to/lastmile_qr_scan", "android": "https://dc.lft.to/lastmile_qr_scan"}, "is_reserved": 0, "fusion_lon": 0.0, "fusion_lat": 0.0, "lon": -77.01220816666667, "name": "c8d95701dd1a6630569699c9fba37eda"}, {"bike_id": "f5663299804d386ff633538bbd1ddf89", "type": "electric_scooter", "is_disabled": 0, "lat": 38.91407183333333, "rental_uris": {"ios": "https://dc.lft.to/lastmile_qr_scan", "android": "https://dc.lft.to/lastmile_qr_scan"}, "is_reserved": 0, "fusion_lon": 0.0, "fusion_lat": 0.0, "lon": -77.03588666666667, "name": "f5663299804d386ff633538bbd1ddf89"}, {"bike_id": "63a84301b48eaad213b61ccb0fa86cac", "type": "electric_scooter", "is_disabled": 0, "lat": 38.93517333333333, "rental_uris": {"ios": "https://dc.lft.to/lastmile_qr_scan", "android": "https://dc.lft.to/lastmile_qr_scan"}, "is_reserved": 0, "fusion_lon": 0.0, "fusion_lat": 0.0, "lon": -77.03451183333334, "name": "63a84301b48eaad213b61ccb0fa86cac"}, {"bike_id": "59b7dbcc23146be8999aa3a664bed7d0", "type": "electric_scooter", "is_disabled": 0, "lat": 38.84316583333333, "rental_uris": {"ios": "https://dc.lft.to/lastmile_qr_scan", "android": "https://dc.lft.to/lastmile_qr_scan"}, "is_reserved": 0, "fusion_lon": 0.0, "fusion_lat": 0.0, "lon": -76.9991565, "name": "59b7dbcc23146be8999aa3a664bed7d0"}, {"bike_id": "7944e5295528b85ae7ee884de561c71e", "type": "electric_scooter", "is_disabled": 0, "lat": 38.9059845, "rental_uris": {"ios": "https://dc.lft.to/lastmile_qr_scan", "android": "https://dc.lft.to/lastmile_qr_scan"}, "is_reserved": 0, "fusion_lon": 0.0, "fusion_lat": 0.0, "lon": -77.04102933333333, "name": "7944e5295528b85ae7ee884de561c71e"}, {"bike_id": "42afdd2500a6c93fb7a7b32d04017481", "type": "electric_scooter", "is_disabled": 0, "lat": 38.90805233333333, "rental_uris": {"ios": "https://dc.lft.to/lastmile_qr_scan", "android": "https://dc.lft.to/lastmile_qr_scan"}, "is_reserved": 0, "fusion_lon": 0.0, "fusion_lat": 0.0, "lon": -77.03058633333333, "name": "42afdd2500a6c93fb7a7b32d04017481"}, {"bike_id": "c7c4d7a363fff45fa880dcc64f56f8ca", "type": "electric_scooter", "is_disabled": 0, "lat": 38.928280666666666, "rental_uris": {"ios": "https://dc.lft.to/lastmile_qr_scan", "android": "https://dc.lft.to/lastmile_qr_scan"}, "is_reserved": 0, "fusion_lon": 0.0, "fusion_lat": 0.0, "lon": -77.022534, "name": "c7c4d7a363fff45fa880dcc64f56f8ca"}, {"bike_id": "4e0b5513e40c77b39377828d92433d46", "type": "electric_scooter", "is_disabled": 0, "lat": 38.9171265, "rental_uris": {"ios": "https://dc.lft.to/lastmile_qr_scan", "android": "https://dc.lft.to/lastmile_qr_scan"}, "is_reserved": 0, "fusion_lon": 0.0, "fusion_lat": 0.0, "lon": -77.03862383333333, "name": "4e0b5513e40c77b39377828d92433d46"}, {"bike_id": "1eedb6f1923552f3f58c16b63d78a387", "type": "electric_scooter", "is_disabled": 0, "lat": 38.902733, "rental_uris": {"ios": "https://dc.lft.to/lastmile_qr_scan", "android": "https://dc.lft.to/lastmile_qr_scan"}, "is_reserved": 0, "fusion_lon": 0.0, "fusion_lat": 0.0, "lon": -77.06093966666667, "name": "1eedb6f1923552f3f58c16b63d78a387"}, {"bike_id": "933d5b54afc91a616298fc21318dafcf", "type": "electric_scooter", "is_disabled": 0, "lat": 38.91621133333334, "rental_uris": {"ios": "https://dc.lft.to/lastmile_qr_scan", "android": "https://dc.lft.to/lastmile_qr_scan"}, "is_reserved": 0, "fusion_lon": 0.0, "fusion_lat": 0.0, "lon": -77.02390883333334, "name": "933d5b54afc91a616298fc21318dafcf"}, {"bike_id": "f275e19bfd7d0c0e010fe9ecba848ec3", "type": "electric_scooter", "is_disabled": 0, "lat": 38.86507016666667, "rental_uris": {"ios": "https://dc.lft.to/lastmile_qr_scan", "android": "https://dc.lft.to/lastmile_qr_scan"}, "is_reserved": 0, "fusion_lon": 0.0, "fusion_lat": 0.0, "lon": -76.99004066666667, "name": "f275e19bfd7d0c0e010fe9ecba848ec3"}, {"bike_id": "b92746bd3e67d71208a35192325503b0", "type": "electric_scooter", "is_disabled": 0, "lat": 38.92259416666667, "rental_uris": {"ios": "https://dc.lft.to/lastmile_qr_scan", "android": "https://dc.lft.to/lastmile_qr_scan"}, "is_reserved": 0, "fusion_lon": 0.0, "fusion_lat": 0.0, "lon": -77.035144, "name": "b92746bd3e67d71208a35192325503b0"}, {"bike_id": "714635a9ece54dd5fb8923dd7181d6e5", "type": "electric_scooter", "is_disabled": 0, "lat": 38.91616066666667, "rental_uris": {"ios": "https://dc.lft.to/lastmile_qr_scan", "android": "https://dc.lft.to/lastmile_qr_scan"}, "is_reserved": 0, "fusion_lon": 0.0, "fusion_lat": 0.0, "lon": -77.03370883333334, "name": "714635a9ece54dd5fb8923dd7181d6e5"}, {"bike_id": "5af33fe208e9c58a932e0967017a4903", "type": "electric_scooter", "is_disabled": 0, "lat": 38.907417, "rental_uris": {"ios": "https://dc.lft.to/lastmile_qr_scan", "android": "https://dc.lft.to/lastmile_qr_scan"}, "is_reserved": 0, "fusion_lon": 0.0, "fusion_lat": 0.0, "lon": -77.0415215, "name": "5af33fe208e9c58a932e0967017a4903"}, {"bike_id": "f3ca32c5d7ef5000c297c4980664c8b1", "type": "electric_scooter", "is_disabled": 0, "lat": 38.9238915, "rental_uris": {"ios": "https://dc.lft.to/lastmile_qr_scan", "android": "https://dc.lft.to/lastmile_qr_scan"}, "is_reserved": 0, "fusion_lon": 0.0, "fusion_lat": 0.0, "lon": -77.0446845, "name": "f3ca32c5d7ef5000c297c4980664c8b1"}, {"bike_id": "ee7d6a85a6ee678ca89854830b2a2ad5", "type": "electric_bike", "is_disabled": 0, "lat": 38.8076245, "rental_uris": {"ios": "https://dc.lft.to/lastmile_qr_scan", "android": "https://dc.lft.to/lastmile_qr_scan"}, "is_reserved": 0, "fusion_lon": 0.0, "fusion_lat": 0.0, "lon": -77.09468, "name": "ee7d6a85a6ee678ca89854830b2a2ad5"}, {"bike_id": "13e482352ee49d247c07de375f878a0c", "type": "electric_scooter", "is_disabled": 0, "lat": 38.919856333333335, "rental_uris": {"ios": "https://dc.lft.to/lastmile_qr_scan", "android": "https://dc.lft.to/lastmile_qr_scan"}, "is_reserved": 0, "fusion_lon": 0.0, "fusion_lat": 0.0, "lon": -77.0182045, "name": "13e482352ee49d247c07de375f878a0c"}, {"bike_id": "bbba7451880d417c0ce8f747252d15d2", "type": "electric_scooter", "is_disabled": 0, "lat": 38.90722816666667, "rental_uris": {"ios": "https://dc.lft.to/lastmile_qr_scan", "android": "https://dc.lft.to/lastmile_qr_scan"}, "is_reserved": 0, "fusion_lon": 0.0, "fusion_lat": 0.0, "lon": -77.05025283333333, "name": "bbba7451880d417c0ce8f747252d15d2"}, {"bike_id": "d285e00987c2757f45edf6b7d66b66a8", "type": "electric_scooter", "is_disabled": 0, "lat": 38.90140916666667, "rental_uris": {"ios": "https://dc.lft.to/lastmile_qr_scan", "android": "https://dc.lft.to/lastmile_qr_scan"}, "is_reserved": 0, "fusion_lon": 0.0, "fusion_lat": 0.0, "lon": -77.03644433333334, "name": "d285e00987c2757f45edf6b7d66b66a8"}, {"bike_id": "84b17790bb6b95979a8900d973bc0d98", "type": "electric_scooter", "is_disabled": 0, "lat": 38.92147383333333, "rental_uris": {"ios": "https://dc.lft.to/lastmile_qr_scan", "android": "https://dc.lft.to/lastmile_qr_scan"}, "is_reserved": 0, "fusion_lon": 0.0, "fusion_lat": 0.0, "lon": -77.018002, "name": "84b17790bb6b95979a8900d973bc0d98"}, {"bike_id": "c3316ccf7aa78dd1eb9fc0f32aa06c07", "type": "electric_scooter", "is_disabled": 0, "lat": 38.9568475, "rental_uris": {"ios": "https://dc.lft.to/lastmile_qr_scan", "android": "https://dc.lft.to/lastmile_qr_scan"}, "is_reserved": 0, "fusion_lon": 0.0, "fusion_lat": 0.0, "lon": -77.02393016666667, "name": "c3316ccf7aa78dd1eb9fc0f32aa06c07"}, {"bike_id": "f7c8ba97123587ef70b051f25037b44a", "type": "electric_scooter", "is_disabled": 0, "lat": 38.9195425, "rental_uris": {"ios": "https://dc.lft.to/lastmile_qr_scan", "android": "https://dc.lft.to/lastmile_qr_scan"}, "is_reserved": 0, "fusion_lon": 0.0, "fusion_lat": 0.0, "lon": -77.04172833333334, "name": "f7c8ba97123587ef70b051f25037b44a"}, {"bike_id": "14a7b9c9baf0e89788c0da694ad35b7c", "type": "electric_scooter", "is_disabled": 0, "lat": 38.916823, "rental_uris": {"ios": "https://dc.lft.to/lastmile_qr_scan", "android": "https://dc.lft.to/lastmile_qr_scan"}, "is_reserved": 0, "fusion_lon": 0.0, "fusion_lat": 0.0, "lon": -77.023994, "name": "14a7b9c9baf0e89788c0da694ad35b7c"}, {"bike_id": "9d14f66171f0111bd4e1285b199631a9", "type": "electric_scooter", "is_disabled": 0, "lat": 38.92065733333333, "rental_uris": {"ios": "https://dc.lft.to/lastmile_qr_scan", "android": "https://dc.lft.to/lastmile_qr_scan"}, "is_reserved": 0, "fusion_lon": 0.0, "fusion_lat": 0.0, "lon": -77.03464216666667, "name": "9d14f66171f0111bd4e1285b199631a9"}, {"bike_id": "19dfc45f66298c6b56e8b4fa1e66b00c", "type": "electric_scooter", "is_disabled": 0, "lat": 38.932451666666665, "rental_uris": {"ios": "https://dc.lft.to/lastmile_qr_scan", "android": "https://dc.lft.to/lastmile_qr_scan"}, "is_reserved": 0, "fusion_lon": 0.0, "fusion_lat": 0.0, "lon": -77.035863, "name": "19dfc45f66298c6b56e8b4fa1e66b00c"}, {"bike_id": "aefe1349b238e054f2d3c11829566470", "type": "electric_scooter", "is_disabled": 0, "lat": 38.92152133333333, "rental_uris": {"ios": "https://dc.lft.to/lastmile_qr_scan", "android": "https://dc.lft.to/lastmile_qr_scan"}, "is_reserved": 0, "fusion_lon": 0.0, "fusion_lat": 0.0, "lon": -77.038738, "name": "aefe1349b238e054f2d3c11829566470"}, {"bike_id": "452f1c51460a6e1349ccd89b9023c35c", "type": "electric_scooter", "is_disabled": 0, "lat": 38.92687183333334, "rental_uris": {"ios": "https://dc.lft.to/lastmile_qr_scan", "android": "https://dc.lft.to/lastmile_qr_scan"}, "is_reserved": 0, "fusion_lon": 0.0, "fusion_lat": 0.0, "lon": -77.0216, "name": "452f1c51460a6e1349ccd89b9023c35c"}, {"bike_id": "ebc7837aa85727a93c096cbffc263f64", "type": "electric_scooter", "is_disabled": 0, "lat": 38.872922333333335, "rental_uris": {"ios": "https://dc.lft.to/lastmile_qr_scan", "android": "https://dc.lft.to/lastmile_qr_scan"}, "is_reserved": 0, "fusion_lon": 0.0, "fusion_lat": 0.0, "lon": -77.00985416666667, "name": "ebc7837aa85727a93c096cbffc263f64"}, {"bike_id": "984075a7b9c497074f0e35623e1e97e5", "type": "electric_scooter", "is_disabled": 0, "lat": 38.90723933333334, "rental_uris": {"ios": "https://dc.lft.to/lastmile_qr_scan", "android": "https://dc.lft.to/lastmile_qr_scan"}, "is_reserved": 0, "fusion_lon": 0.0, "fusion_lat": 0.0, "lon": -77.04644533333334, "name": "984075a7b9c497074f0e35623e1e97e5"}, {"bike_id": "be1c174af63ce46d3411a3d17efd6cf3", "type": "electric_scooter", "is_disabled": 0, "lat": 38.907260666666666, "rental_uris": {"ios": "https://dc.lft.to/lastmile_qr_scan", "android": "https://dc.lft.to/lastmile_qr_scan"}, "is_reserved": 0, "fusion_lon": 0.0, "fusion_lat": 0.0, "lon": -77.05324033333333, "name": "be1c174af63ce46d3411a3d17efd6cf3"}, {"bike_id": "67ddc3b7bb9072038352e73c517478b4", "type": "electric_scooter", "is_disabled": 0, "lat": 38.91924383333333, "rental_uris": {"ios": "https://dc.lft.to/lastmile_qr_scan", "android": "https://dc.lft.to/lastmile_qr_scan"}, "is_reserved": 0, "fusion_lon": 0.0, "fusion_lat": 0.0, "lon": -77.02576216666667, "name": "67ddc3b7bb9072038352e73c517478b4"}, {"bike_id": "9f36dd496c9068f63143d81cd0a803b8", "type": "electric_scooter", "is_disabled": 0, "lat": 38.918377166666666, "rental_uris": {"ios": "https://dc.lft.to/lastmile_qr_scan", "android": "https://dc.lft.to/lastmile_qr_scan"}, "is_reserved": 0, "fusion_lon": 0.0, "fusion_lat": 0.0, "lon": -77.02450533333334, "name": "9f36dd496c9068f63143d81cd0a803b8"}, {"bike_id": "81d71a2f4ffcd22e3fd96f8d4b1f157e", "type": "electric_scooter", "is_disabled": 0, "lat": 38.9478665, "rental_uris": {"ios": "https://dc.lft.to/lastmile_qr_scan", "android": "https://dc.lft.to/lastmile_qr_scan"}, "is_reserved": 0, "fusion_lon": 0.0, "fusion_lat": 0.0, "lon": -77.07934066666667, "name": "81d71a2f4ffcd22e3fd96f8d4b1f157e"}, {"bike_id": "33a47e2bcaa642292947b82f305a5289", "type": "electric_bike", "is_disabled": 0, "lat": 39.056377166666664, "rental_uris": {"ios": "https://dc.lft.to/lastmile_qr_scan", "android": "https://dc.lft.to/lastmile_qr_scan"}, "is_reserved": 0, "fusion_lon": 0.0, "fusion_lat": 0.0, "lon": -77.12526183333334, "name": "33a47e2bcaa642292947b82f305a5289"}, {"bike_id": "09474778fd7b9d5bd8a91dcb2e4097ca", "type": "electric_scooter", "is_disabled": 0, "lat": 38.942111833333335, "rental_uris": {"ios": "https://dc.lft.to/lastmile_qr_scan", "android": "https://dc.lft.to/lastmile_qr_scan"}, "is_reserved": 0, "fusion_lon": 0.0, "fusion_lat": 0.0, "lon": -77.02583583333333, "name": "09474778fd7b9d5bd8a91dcb2e4097ca"}, {"bike_id": "72199657fae90ec3245e1cdd21bb45c3", "type": "electric_scooter", "is_disabled": 0, "lat": 38.9073545, "rental_uris": {"ios": "https://dc.lft.to/lastmile_qr_scan", "android": "https://dc.lft.to/lastmile_qr_scan"}, "is_reserved": 0, "fusion_lon": 0.0, "fusion_lat": 0.0, "lon": -77.00936566666667, "name": "72199657fae90ec3245e1cdd21bb45c3"}, {"bike_id": "800c0d5c9a223e70091a019c6a396a38", "type": "electric_scooter", "is_disabled": 0, "lat": 38.936969, "rental_uris": {"ios": "https://dc.lft.to/lastmile_qr_scan", "android": "https://dc.lft.to/lastmile_qr_scan"}, "is_reserved": 0, "fusion_lon": 0.0, "fusion_lat": 0.0, "lon": -77.056641, "name": "800c0d5c9a223e70091a019c6a396a38"}, {"bike_id": "e12e10bd693e8e86ac8fc0de530efa1b", "type": "electric_scooter", "is_disabled": 0, "lat": 38.91113883333333, "rental_uris": {"ios": "https://dc.lft.to/lastmile_qr_scan", "android": "https://dc.lft.to/lastmile_qr_scan"}, "is_reserved": 0, "fusion_lon": 0.0, "fusion_lat": 0.0, "lon": -77.03251783333333, "name": "e12e10bd693e8e86ac8fc0de530efa1b"}, {"bike_id": "ffecf7c793cfa78316c2139c09c9f28e", "type": "electric_scooter", "is_disabled": 0, "lat": 38.923353166666665, "rental_uris": {"ios": "https://dc.lft.to/lastmile_qr_scan", "android": "https://dc.lft.to/lastmile_qr_scan"}, "is_reserved": 0, "fusion_lon": 0.0, "fusion_lat": 0.0, "lon": -77.05370533333334, "name": "ffecf7c793cfa78316c2139c09c9f28e"}, {"bike_id": "8fabc40517f6b6bac51585f9241e9928", "type": "electric_scooter", "is_disabled": 0, "lat": 38.894910333333335, "rental_uris": {"ios": "https://dc.lft.to/lastmile_qr_scan", "android": "https://dc.lft.to/lastmile_qr_scan"}, "is_reserved": 0, "fusion_lon": 0.0, "fusion_lat": 0.0, "lon": -77.00202666666667, "name": "8fabc40517f6b6bac51585f9241e9928"}, {"bike_id": "ab827fc2a8bb0df9f733bc8f6faa92d4", "type": "electric_scooter", "is_disabled": 0, "lat": 38.910707, "rental_uris": {"ios": "https://dc.lft.to/lastmile_qr_scan", "android": "https://dc.lft.to/lastmile_qr_scan"}, "is_reserved": 0, "fusion_lon": 0.0, "fusion_lat": 0.0, "lon": -77.02606533333334, "name": "ab827fc2a8bb0df9f733bc8f6faa92d4"}, {"bike_id": "e3b564381bcc8ddc003b78f4abce064d", "type": "electric_scooter", "is_disabled": 0, "lat": 38.909464166666666, "rental_uris": {"ios": "https://dc.lft.to/lastmile_qr_scan", "android": "https://dc.lft.to/lastmile_qr_scan"}, "is_reserved": 0, "fusion_lon": 0.0, "fusion_lat": 0.0, "lon": -77.055639, "name": "e3b564381bcc8ddc003b78f4abce064d"}, {"bike_id": "226bf28f347b90693e9830039eb4d3d8", "type": "electric_scooter", "is_disabled": 0, "lat": 38.84433716666667, "rental_uris": {"ios": "https://dc.lft.to/lastmile_qr_scan", "android": "https://dc.lft.to/lastmile_qr_scan"}, "is_reserved": 0, "fusion_lon": 0.0, "fusion_lat": 0.0, "lon": -76.99866116666666, "name": "226bf28f347b90693e9830039eb4d3d8"}, {"bike_id": "f032f8cd0109e8e068d69b31a90d3a80", "type": "electric_scooter", "is_disabled": 0, "lat": 38.938540333333336, "rental_uris": {"ios": "https://dc.lft.to/lastmile_qr_scan", "android": "https://dc.lft.to/lastmile_qr_scan"}, "is_reserved": 0, "fusion_lon": 0.0, "fusion_lat": 0.0, "lon": -77.07232983333333, "name": "f032f8cd0109e8e068d69b31a90d3a80"}, {"bike_id": "8b1b7b53e18356c601554c568d88444f", "type": "electric_scooter", "is_disabled": 0, "lat": 38.9070625, "rental_uris": {"ios": "https://dc.lft.to/lastmile_qr_scan", "android": "https://dc.lft.to/lastmile_qr_scan"}, "is_reserved": 0, "fusion_lon": 0.0, "fusion_lat": 0.0, "lon": -77.041867, "name": "8b1b7b53e18356c601554c568d88444f"}, {"bike_id": "be6f6f61ba14c1743c92333563e18df0", "type": "electric_scooter", "is_disabled": 0, "lat": 38.90840216666667, "rental_uris": {"ios": "https://dc.lft.to/lastmile_qr_scan", "android": "https://dc.lft.to/lastmile_qr_scan"}, "is_reserved": 0, "fusion_lon": 0.0, "fusion_lat": 0.0, "lon": -77.01980466666667, "name": "be6f6f61ba14c1743c92333563e18df0"}, {"bike_id": "05281a03272323916265886d176df4e2", "type": "electric_scooter", "is_disabled": 0, "lat": 38.934015333333335, "rental_uris": {"ios": "https://dc.lft.to/lastmile_qr_scan", "android": "https://dc.lft.to/lastmile_qr_scan"}, "is_reserved": 0, "fusion_lon": 0.0, "fusion_lat": 0.0, "lon": -77.035225, "name": "05281a03272323916265886d176df4e2"}, {"bike_id": "0d6631fcd077adb97f6a02487e19effd", "type": "electric_scooter", "is_disabled": 0, "lat": 38.909344833333336, "rental_uris": {"ios": "https://dc.lft.to/lastmile_qr_scan", "android": "https://dc.lft.to/lastmile_qr_scan"}, "is_reserved": 0, "fusion_lon": 0.0, "fusion_lat": 0.0, "lon": -77.06406833333334, "name": "0d6631fcd077adb97f6a02487e19effd"}, {"bike_id": "cead7b1777037b9efe27a0a276383ea8", "type": "electric_scooter", "is_disabled": 0, "lat": 38.911098833333334, "rental_uris": {"ios": "https://dc.lft.to/lastmile_qr_scan", "android": "https://dc.lft.to/lastmile_qr_scan"}, "is_reserved": 0, "fusion_lon": 0.0, "fusion_lat": 0.0, "lon": -77.01149666666667, "name": "cead7b1777037b9efe27a0a276383ea8"}, {"bike_id": "6fad388362bba2e000b45493ae2a0ed5", "type": "electric_scooter", "is_disabled": 0, "lat": 38.909830666666664, "rental_uris": {"ios": "https://dc.lft.to/lastmile_qr_scan", "android": "https://dc.lft.to/lastmile_qr_scan"}, "is_reserved": 0, "fusion_lon": 0.0, "fusion_lat": 0.0, "lon": -77.01513133333333, "name": "6fad388362bba2e000b45493ae2a0ed5"}, {"bike_id": "1b814b5bce142ac64a8a15194e4fa4ad", "type": "electric_scooter", "is_disabled": 0, "lat": 38.92488383333333, "rental_uris": {"ios": "https://dc.lft.to/lastmile_qr_scan", "android": "https://dc.lft.to/lastmile_qr_scan"}, "is_reserved": 0, "fusion_lon": 0.0, "fusion_lat": 0.0, "lon": -77.05212216666666, "name": "1b814b5bce142ac64a8a15194e4fa4ad"}, {"bike_id": "f09cc65df6493f7a0aa5c976094ae3bc", "type": "electric_scooter", "is_disabled": 0, "lat": 38.94418016666667, "rental_uris": {"ios": "https://dc.lft.to/lastmile_qr_scan", "android": "https://dc.lft.to/lastmile_qr_scan"}, "is_reserved": 0, "fusion_lon": 0.0, "fusion_lat": 0.0, "lon": -77.00733566666666, "name": "f09cc65df6493f7a0aa5c976094ae3bc"}, {"bike_id": "85c46a9dbfea7d82ee88142c751a59b6", "type": "electric_scooter", "is_disabled": 0, "lat": 38.914218, "rental_uris": {"ios": "https://dc.lft.to/lastmile_qr_scan", "android": "https://dc.lft.to/lastmile_qr_scan"}, "is_reserved": 0, "fusion_lon": 0.0, "fusion_lat": 0.0, "lon": -77.02256216666666, "name": "85c46a9dbfea7d82ee88142c751a59b6"}, {"bike_id": "24f335ab166d6fa65b2009bede4fee54", "type": "electric_scooter", "is_disabled": 0, "lat": 38.93186683333333, "rental_uris": {"ios": "https://dc.lft.to/lastmile_qr_scan", "android": "https://dc.lft.to/lastmile_qr_scan"}, "is_reserved": 0, "fusion_lon": 0.0, "fusion_lat": 0.0, "lon": -77.02369933333334, "name": "24f335ab166d6fa65b2009bede4fee54"}, {"bike_id": "efd2215dcdbc4afc0f93a1f8a1b03fa4", "type": "electric_scooter", "is_disabled": 0, "lat": 38.933448166666665, "rental_uris": {"ios": "https://dc.lft.to/lastmile_qr_scan", "android": "https://dc.lft.to/lastmile_qr_scan"}, "is_reserved": 0, "fusion_lon": 0.0, "fusion_lat": 0.0, "lon": -77.03979716666667, "name": "efd2215dcdbc4afc0f93a1f8a1b03fa4"}, {"bike_id": "2d4971818834290a4b2819aa450e394d", "type": "electric_scooter", "is_disabled": 0, "lat": 38.916916, "rental_uris": {"ios": "https://dc.lft.to/lastmile_qr_scan", "android": "https://dc.lft.to/lastmile_qr_scan"}, "is_reserved": 0, "fusion_lon": 0.0, "fusion_lat": 0.0, "lon": -77.03461433333334, "name": "2d4971818834290a4b2819aa450e394d"}, {"bike_id": "dc899b58d88abeaf2d55bf02628e8ef0", "type": "electric_scooter", "is_disabled": 0, "lat": 38.916933, "rental_uris": {"ios": "https://dc.lft.to/lastmile_qr_scan", "android": "https://dc.lft.to/lastmile_qr_scan"}, "is_reserved": 0, "fusion_lon": 0.0, "fusion_lat": 0.0, "lon": -77.0320135, "name": "dc899b58d88abeaf2d55bf02628e8ef0"}, {"bike_id": "9b2a3394f0d44ef14f1f965ac8472a50", "type": "electric_scooter", "is_disabled": 0, "lat": 38.91688666666667, "rental_uris": {"ios": "https://dc.lft.to/lastmile_qr_scan", "android": "https://dc.lft.to/lastmile_qr_scan"}, "is_reserved": 0, "fusion_lon": 0.0, "fusion_lat": 0.0, "lon": -77.03209283333334, "name": "9b2a3394f0d44ef14f1f965ac8472a50"}, {"bike_id": "90b352d0b916c863fbd6cd8c02d755bf", "type": "electric_scooter", "is_disabled": 0, "lat": 38.94295666666667, "rental_uris": {"ios": "https://dc.lft.to/lastmile_qr_scan", "android": "https://dc.lft.to/lastmile_qr_scan"}, "is_reserved": 0, "fusion_lon": 0.0, "fusion_lat": 0.0, "lon": -77.02176183333333, "name": "90b352d0b916c863fbd6cd8c02d755bf"}, {"bike_id": "4bc5fe6fe125abb5ca2e9ef93ff8fe8f", "type": "electric_scooter", "is_disabled": 0, "lat": 38.900289666666666, "rental_uris": {"ios": "https://dc.lft.to/lastmile_qr_scan", "android": "https://dc.lft.to/lastmile_qr_scan"}, "is_reserved": 0, "fusion_lon": 0.0, "fusion_lat": 0.0, "lon": -77.00182516666666, "name": "4bc5fe6fe125abb5ca2e9ef93ff8fe8f"}, {"bike_id": "ee5d68e0c9292abaeead6b95ddc5db0e", "type": "electric_scooter", "is_disabled": 0, "lat": 38.91258783333333, "rental_uris": {"ios": "https://dc.lft.to/lastmile_qr_scan", "android": "https://dc.lft.to/lastmile_qr_scan"}, "is_reserved": 0, "fusion_lon": 0.0, "fusion_lat": 0.0, "lon": -77.03864433333334, "name": "ee5d68e0c9292abaeead6b95ddc5db0e"}, {"bike_id": "0183fbb64fb8c3126cb237e112b12989", "type": "electric_scooter", "is_disabled": 0, "lat": 38.9260955, "rental_uris": {"ios": "https://dc.lft.to/lastmile_qr_scan", "android": "https://dc.lft.to/lastmile_qr_scan"}, "is_reserved": 0, "fusion_lon": 0.0, "fusion_lat": 0.0, "lon": -77.10237133333334, "name": "0183fbb64fb8c3126cb237e112b12989"}, {"bike_id": "644061e8c42be98d718ff8907654f536", "type": "electric_scooter", "is_disabled": 0, "lat": 38.91713933333333, "rental_uris": {"ios": "https://dc.lft.to/lastmile_qr_scan", "android": "https://dc.lft.to/lastmile_qr_scan"}, "is_reserved": 0, "fusion_lon": 0.0, "fusion_lat": 0.0, "lon": -77.0231975, "name": "644061e8c42be98d718ff8907654f536"}, {"bike_id": "baee618a78521957c89f2ebe29e0443b", "type": "electric_scooter", "is_disabled": 0, "lat": 38.9014545, "rental_uris": {"ios": "https://dc.lft.to/lastmile_qr_scan", "android": "https://dc.lft.to/lastmile_qr_scan"}, "is_reserved": 0, "fusion_lon": 0.0, "fusion_lat": 0.0, "lon": -76.9308545, "name": "baee618a78521957c89f2ebe29e0443b"}, {"bike_id": "d22e3bcee112648f175315233c42637e", "type": "electric_scooter", "is_disabled": 0, "lat": 38.899203, "rental_uris": {"ios": "https://dc.lft.to/lastmile_qr_scan", "android": "https://dc.lft.to/lastmile_qr_scan"}, "is_reserved": 0, "fusion_lon": 0.0, "fusion_lat": 0.0, "lon": -76.93362466666666, "name": "d22e3bcee112648f175315233c42637e"}, {"bike_id": "7a890bf23162eafd234136a6840cf295", "type": "electric_scooter", "is_disabled": 0, "lat": 38.898550666666665, "rental_uris": {"ios": "https://dc.lft.to/lastmile_qr_scan", "android": "https://dc.lft.to/lastmile_qr_scan"}, "is_reserved": 0, "fusion_lon": 0.0, "fusion_lat": 0.0, "lon": -77.03351683333334, "name": "7a890bf23162eafd234136a6840cf295"}, {"bike_id": "c3dc6d3063e888e1a35c502e5cc04ae4", "type": "electric_scooter", "is_disabled": 0, "lat": 38.930485, "rental_uris": {"ios": "https://dc.lft.to/lastmile_qr_scan", "android": "https://dc.lft.to/lastmile_qr_scan"}, "is_reserved": 0, "fusion_lon": 0.0, "fusion_lat": 0.0, "lon": -77.03297966666666, "name": "c3dc6d3063e888e1a35c502e5cc04ae4"}, {"bike_id": "153353d09956b6d5a60866f6c4fb5f03", "type": "electric_scooter", "is_disabled": 0, "lat": 38.9080305, "rental_uris": {"ios": "https://dc.lft.to/lastmile_qr_scan", "android": "https://dc.lft.to/lastmile_qr_scan"}, "is_reserved": 0, "fusion_lon": 0.0, "fusion_lat": 0.0, "lon": -77.04357816666666, "name": "153353d09956b6d5a60866f6c4fb5f03"}, {"bike_id": "955b25ccb6c5b0108a72467485dd542b", "type": "electric_scooter", "is_disabled": 0, "lat": 38.915086, "rental_uris": {"ios": "https://dc.lft.to/lastmile_qr_scan", "android": "https://dc.lft.to/lastmile_qr_scan"}, "is_reserved": 0, "fusion_lon": 0.0, "fusion_lat": 0.0, "lon": -77.01773433333334, "name": "955b25ccb6c5b0108a72467485dd542b"}, {"bike_id": "d4f853fc1daa3703cf1ec5c6f1c88ddf", "type": "electric_scooter", "is_disabled": 0, "lat": 38.911129, "rental_uris": {"ios": "https://dc.lft.to/lastmile_qr_scan", "android": "https://dc.lft.to/lastmile_qr_scan"}, "is_reserved": 0, "fusion_lon": 0.0, "fusion_lat": 0.0, "lon": -77.01137983333334, "name": "d4f853fc1daa3703cf1ec5c6f1c88ddf"}, {"bike_id": "3cb81dbaa3a042a2a19af7eaaa3a5d5e", "type": "electric_scooter", "is_disabled": 0, "lat": 38.905696666666664, "rental_uris": {"ios": "https://dc.lft.to/lastmile_qr_scan", "android": "https://dc.lft.to/lastmile_qr_scan"}, "is_reserved": 0, "fusion_lon": 0.0, "fusion_lat": 0.0, "lon": -77.04547416666666, "name": "3cb81dbaa3a042a2a19af7eaaa3a5d5e"}, {"bike_id": "b815f2e112f9bf947f3f9f6805b09270", "type": "electric_scooter", "is_disabled": 0, "lat": 38.9420305, "rental_uris": {"ios": "https://dc.lft.to/lastmile_qr_scan", "android": "https://dc.lft.to/lastmile_qr_scan"}, "is_reserved": 0, "fusion_lon": 0.0, "fusion_lat": 0.0, "lon": -77.02589516666667, "name": "b815f2e112f9bf947f3f9f6805b09270"}, {"bike_id": "c3e025479d5d01ad719f525c42b308fc", "type": "electric_scooter", "is_disabled": 0, "lat": 38.90510116666667, "rental_uris": {"ios": "https://dc.lft.to/lastmile_qr_scan", "android": "https://dc.lft.to/lastmile_qr_scan"}, "is_reserved": 0, "fusion_lon": 0.0, "fusion_lat": 0.0, "lon": -77.06908383333334, "name": "c3e025479d5d01ad719f525c42b308fc"}, {"bike_id": "e471f06aeed2b2233a9d2fa2b99d0116", "type": "electric_scooter", "is_disabled": 0, "lat": 38.89230366666666, "rental_uris": {"ios": "https://dc.lft.to/lastmile_qr_scan", "android": "https://dc.lft.to/lastmile_qr_scan"}, "is_reserved": 0, "fusion_lon": 0.0, "fusion_lat": 0.0, "lon": -77.05000333333334, "name": "e471f06aeed2b2233a9d2fa2b99d0116"}, {"bike_id": "2c047120b7e6894a2e6e55830f4231c4", "type": "electric_scooter", "is_disabled": 0, "lat": 38.882715166666664, "rental_uris": {"ios": "https://dc.lft.to/lastmile_qr_scan", "android": "https://dc.lft.to/lastmile_qr_scan"}, "is_reserved": 0, "fusion_lon": 0.0, "fusion_lat": 0.0, "lon": -76.99360233333333, "name": "2c047120b7e6894a2e6e55830f4231c4"}, {"bike_id": "7227d07acd3440b1b35289c2b6065d60", "type": "electric_scooter", "is_disabled": 0, "lat": 38.8805555, "rental_uris": {"ios": "https://dc.lft.to/lastmile_qr_scan", "android": "https://dc.lft.to/lastmile_qr_scan"}, "is_reserved": 0, "fusion_lon": 0.0, "fusion_lat": 0.0, "lon": -77.005381, "name": "7227d07acd3440b1b35289c2b6065d60"}, {"bike_id": "c8c7265b1ac7ddcf50ab19cbe1c2fa10", "type": "electric_scooter", "is_disabled": 0, "lat": 38.913212, "rental_uris": {"ios": "https://dc.lft.to/lastmile_qr_scan", "android": "https://dc.lft.to/lastmile_qr_scan"}, "is_reserved": 0, "fusion_lon": 0.0, "fusion_lat": 0.0, "lon": -77.03667333333334, "name": "c8c7265b1ac7ddcf50ab19cbe1c2fa10"}, {"bike_id": "c8c6f4295c8b1e77471f8696458d6be1", "type": "electric_scooter", "is_disabled": 0, "lat": 38.930718666666664, "rental_uris": {"ios": "https://dc.lft.to/lastmile_qr_scan", "android": "https://dc.lft.to/lastmile_qr_scan"}, "is_reserved": 0, "fusion_lon": 0.0, "fusion_lat": 0.0, "lon": -77.01986216666667, "name": "c8c6f4295c8b1e77471f8696458d6be1"}, {"bike_id": "f6b526abbafbd80b9d57814e87c86ce5", "type": "electric_scooter", "is_disabled": 0, "lat": 38.901261, "rental_uris": {"ios": "https://dc.lft.to/lastmile_qr_scan", "android": "https://dc.lft.to/lastmile_qr_scan"}, "is_reserved": 0, "fusion_lon": 0.0, "fusion_lat": 0.0, "lon": -77.01806166666667, "name": "f6b526abbafbd80b9d57814e87c86ce5"}, {"bike_id": "d1d66477c3d5da8bed164cb3123c8ccb", "type": "electric_scooter", "is_disabled": 0, "lat": 38.906516833333335, "rental_uris": {"ios": "https://dc.lft.to/lastmile_qr_scan", "android": "https://dc.lft.to/lastmile_qr_scan"}, "is_reserved": 0, "fusion_lon": 0.0, "fusion_lat": 0.0, "lon": -77.02944433333333, "name": "d1d66477c3d5da8bed164cb3123c8ccb"}, {"bike_id": "d8f3df8e39de63ab71d2e5149ab6ff08", "type": "electric_bike", "is_disabled": 0, "lat": 38.86265566666667, "rental_uris": {"ios": "https://dc.lft.to/lastmile_qr_scan", "android": "https://dc.lft.to/lastmile_qr_scan"}, "is_reserved": 0, "fusion_lon": 0.0, "fusion_lat": 0.0, "lon": -76.9834645, "name": "d8f3df8e39de63ab71d2e5149ab6ff08"}, {"bike_id": "f87f0df2773b9d534ea2940b193284b6", "type": "electric_scooter", "is_disabled": 0, "lat": 38.914027, "rental_uris": {"ios": "https://dc.lft.to/lastmile_qr_scan", "android": "https://dc.lft.to/lastmile_qr_scan"}, "is_reserved": 0, "fusion_lon": 0.0, "fusion_lat": 0.0, "lon": -77.01791216666666, "name": "f87f0df2773b9d534ea2940b193284b6"}, {"bike_id": "6f8812456f70826c0cfbcf5750dc7c1c", "type": "electric_scooter", "is_disabled": 0, "lat": 38.92001366666667, "rental_uris": {"ios": "https://dc.lft.to/lastmile_qr_scan", "android": "https://dc.lft.to/lastmile_qr_scan"}, "is_reserved": 0, "fusion_lon": 0.0, "fusion_lat": 0.0, "lon": -77.039687, "name": "6f8812456f70826c0cfbcf5750dc7c1c"}, {"bike_id": "e8380c608f60ed4f8bce7ca1e21ef166", "type": "electric_scooter", "is_disabled": 0, "lat": 38.92863766666667, "rental_uris": {"ios": "https://dc.lft.to/lastmile_qr_scan", "android": "https://dc.lft.to/lastmile_qr_scan"}, "is_reserved": 0, "fusion_lon": 0.0, "fusion_lat": 0.0, "lon": -77.037094, "name": "e8380c608f60ed4f8bce7ca1e21ef166"}, {"bike_id": "52da23a25d455f2deaf5424898f4778b", "type": "electric_scooter", "is_disabled": 0, "lat": 38.91483816666667, "rental_uris": {"ios": "https://dc.lft.to/lastmile_qr_scan", "android": "https://dc.lft.to/lastmile_qr_scan"}, "is_reserved": 0, "fusion_lon": 0.0, "fusion_lat": 0.0, "lon": -77.045549, "name": "52da23a25d455f2deaf5424898f4778b"}, {"bike_id": "2bf5f13ec7c27a474f92c48445ff25fa", "type": "electric_scooter", "is_disabled": 0, "lat": 38.909067, "rental_uris": {"ios": "https://dc.lft.to/lastmile_qr_scan", "android": "https://dc.lft.to/lastmile_qr_scan"}, "is_reserved": 0, "fusion_lon": 0.0, "fusion_lat": 0.0, "lon": -77.00296983333334, "name": "2bf5f13ec7c27a474f92c48445ff25fa"}, {"bike_id": "f95c0e38751b683acb09ec28c0f524ea", "type": "electric_scooter", "is_disabled": 0, "lat": 38.91426966666667, "rental_uris": {"ios": "https://dc.lft.to/lastmile_qr_scan", "android": "https://dc.lft.to/lastmile_qr_scan"}, "is_reserved": 0, "fusion_lon": 0.0, "fusion_lat": 0.0, "lon": -77.02298666666667, "name": "f95c0e38751b683acb09ec28c0f524ea"}, {"bike_id": "70ede39f08ba969203f7bb29d0cd9e7e", "type": "electric_scooter", "is_disabled": 0, "lat": 38.91769216666667, "rental_uris": {"ios": "https://dc.lft.to/lastmile_qr_scan", "android": "https://dc.lft.to/lastmile_qr_scan"}, "is_reserved": 0, "fusion_lon": 0.0, "fusion_lat": 0.0, "lon": -77.04766666666667, "name": "70ede39f08ba969203f7bb29d0cd9e7e"}, {"bike_id": "2794b10a291f32221b2f427c30566280", "type": "electric_scooter", "is_disabled": 0, "lat": 38.937351666666665, "rental_uris": {"ios": "https://dc.lft.to/lastmile_qr_scan", "android": "https://dc.lft.to/lastmile_qr_scan"}, "is_reserved": 0, "fusion_lon": 0.0, "fusion_lat": 0.0, "lon": -77.02426066666666, "name": "2794b10a291f32221b2f427c30566280"}, {"bike_id": "32cb01958d745479b28bf48323c3627b", "type": "electric_scooter", "is_disabled": 0, "lat": 38.91354883333333, "rental_uris": {"ios": "https://dc.lft.to/lastmile_qr_scan", "android": "https://dc.lft.to/lastmile_qr_scan"}, "is_reserved": 0, "fusion_lon": 0.0, "fusion_lat": 0.0, "lon": -77.025637, "name": "32cb01958d745479b28bf48323c3627b"}, {"bike_id": "38c0d6b8d3692f8ce82ce943d1e34763", "type": "electric_scooter", "is_disabled": 0, "lat": 38.927007333333336, "rental_uris": {"ios": "https://dc.lft.to/lastmile_qr_scan", "android": "https://dc.lft.to/lastmile_qr_scan"}, "is_reserved": 0, "fusion_lon": 0.0, "fusion_lat": 0.0, "lon": -77.02087266666666, "name": "38c0d6b8d3692f8ce82ce943d1e34763"}, {"bike_id": "8cb1bd17a59dfa343fc2de4a888d6ba1", "type": "electric_scooter", "is_disabled": 0, "lat": 38.908980166666666, "rental_uris": {"ios": "https://dc.lft.to/lastmile_qr_scan", "android": "https://dc.lft.to/lastmile_qr_scan"}, "is_reserved": 0, "fusion_lon": 0.0, "fusion_lat": 0.0, "lon": -77.04437116666666, "name": "8cb1bd17a59dfa343fc2de4a888d6ba1"}, {"bike_id": "bc66b48b407712047ebb52e4a8de44d4", "type": "electric_scooter", "is_disabled": 0, "lat": 38.908503833333334, "rental_uris": {"ios": "https://dc.lft.to/lastmile_qr_scan", "android": "https://dc.lft.to/lastmile_qr_scan"}, "is_reserved": 0, "fusion_lon": 0.0, "fusion_lat": 0.0, "lon": -77.04265483333333, "name": "bc66b48b407712047ebb52e4a8de44d4"}, {"bike_id": "5bcd99326421c851f7ce88cbbb62b992", "type": "electric_scooter", "is_disabled": 0, "lat": 38.964197666666664, "rental_uris": {"ios": "https://dc.lft.to/lastmile_qr_scan", "android": "https://dc.lft.to/lastmile_qr_scan"}, "is_reserved": 0, "fusion_lon": 0.0, "fusion_lat": 0.0, "lon": -77.0242795, "name": "5bcd99326421c851f7ce88cbbb62b992"}, {"bike_id": "e6cb9eafda16c081e0f058f083fa3dc2", "type": "electric_scooter", "is_disabled": 0, "lat": 38.918271, "rental_uris": {"ios": "https://dc.lft.to/lastmile_qr_scan", "android": "https://dc.lft.to/lastmile_qr_scan"}, "is_reserved": 0, "fusion_lon": 0.0, "fusion_lat": 0.0, "lon": -77.04938616666666, "name": "e6cb9eafda16c081e0f058f083fa3dc2"}, {"bike_id": "bcb7d14ba8239770a10821438b2123fa", "type": "electric_scooter", "is_disabled": 0, "lat": 38.898486166666665, "rental_uris": {"ios": "https://dc.lft.to/lastmile_qr_scan", "android": "https://dc.lft.to/lastmile_qr_scan"}, "is_reserved": 0, "fusion_lon": 0.0, "fusion_lat": 0.0, "lon": -77.04661016666667, "name": "bcb7d14ba8239770a10821438b2123fa"}, {"bike_id": "043874e7b8513a1b0b1045e40b5b0834", "type": "electric_scooter", "is_disabled": 0, "lat": 38.90845816666667, "rental_uris": {"ios": "https://dc.lft.to/lastmile_qr_scan", "android": "https://dc.lft.to/lastmile_qr_scan"}, "is_reserved": 0, "fusion_lon": 0.0, "fusion_lat": 0.0, "lon": -77.0328535, "name": "043874e7b8513a1b0b1045e40b5b0834"}, {"bike_id": "3da80db8d5c76a1a158b45c10d74c611", "type": "electric_scooter", "is_disabled": 0, "lat": 38.910459333333336, "rental_uris": {"ios": "https://dc.lft.to/lastmile_qr_scan", "android": "https://dc.lft.to/lastmile_qr_scan"}, "is_reserved": 0, "fusion_lon": 0.0, "fusion_lat": 0.0, "lon": -77.03826266666667, "name": "3da80db8d5c76a1a158b45c10d74c611"}, {"bike_id": "1dacc3a5f249b6f44dd5dc655242fb2f", "type": "electric_scooter", "is_disabled": 0, "lat": 38.922215, "rental_uris": {"ios": "https://dc.lft.to/lastmile_qr_scan", "android": "https://dc.lft.to/lastmile_qr_scan"}, "is_reserved": 0, "fusion_lon": 0.0, "fusion_lat": 0.0, "lon": -77.03288966666666, "name": "1dacc3a5f249b6f44dd5dc655242fb2f"}, {"bike_id": "17f67c619fed0cb38fc30f65fd0c237c", "type": "electric_scooter", "is_disabled": 0, "lat": 38.92451783333333, "rental_uris": {"ios": "https://dc.lft.to/lastmile_qr_scan", "android": "https://dc.lft.to/lastmile_qr_scan"}, "is_reserved": 0, "fusion_lon": 0.0, "fusion_lat": 0.0, "lon": -77.042003, "name": "17f67c619fed0cb38fc30f65fd0c237c"}, {"bike_id": "497b4542fc647cc5516b2eb8b02135d3", "type": "electric_scooter", "is_disabled": 0, "lat": 38.907606, "rental_uris": {"ios": "https://dc.lft.to/lastmile_qr_scan", "android": "https://dc.lft.to/lastmile_qr_scan"}, "is_reserved": 0, "fusion_lon": 0.0, "fusion_lat": 0.0, "lon": -77.035736, "name": "497b4542fc647cc5516b2eb8b02135d3"}, {"bike_id": "a77c67a38199f1fe257317cf0e1de1c0", "type": "electric_scooter", "is_disabled": 0, "lat": 38.91581166666667, "rental_uris": {"ios": "https://dc.lft.to/lastmile_qr_scan", "android": "https://dc.lft.to/lastmile_qr_scan"}, "is_reserved": 0, "fusion_lon": 0.0, "fusion_lat": 0.0, "lon": -77.0446535, "name": "a77c67a38199f1fe257317cf0e1de1c0"}, {"bike_id": "e2de9babdedad2fbd26bd731da047850", "type": "electric_scooter", "is_disabled": 0, "lat": 38.89738083333334, "rental_uris": {"ios": "https://dc.lft.to/lastmile_qr_scan", "android": "https://dc.lft.to/lastmile_qr_scan"}, "is_reserved": 0, "fusion_lon": 0.0, "fusion_lat": 0.0, "lon": -77.02447866666667, "name": "e2de9babdedad2fbd26bd731da047850"}, {"bike_id": "31adc09d0e1888c7825529745c5407bf", "type": "electric_bike", "is_disabled": 0, "lat": 38.897440833333334, "rental_uris": {"ios": "https://dc.lft.to/lastmile_qr_scan", "android": "https://dc.lft.to/lastmile_qr_scan"}, "is_reserved": 0, "fusion_lon": 0.0, "fusion_lat": 0.0, "lon": -76.92045216666666, "name": "31adc09d0e1888c7825529745c5407bf"}, {"bike_id": "5226dbbdae5525852fd0b89fd6cf3dc2", "type": "electric_scooter", "is_disabled": 0, "lat": 38.897454333333336, "rental_uris": {"ios": "https://dc.lft.to/lastmile_qr_scan", "android": "https://dc.lft.to/lastmile_qr_scan"}, "is_reserved": 0, "fusion_lon": 0.0, "fusion_lat": 0.0, "lon": -77.04421066666667, "name": "5226dbbdae5525852fd0b89fd6cf3dc2"}, {"bike_id": "2ffd28d13fc39be80f968b730a631a75", "type": "electric_scooter", "is_disabled": 0, "lat": 38.9219565, "rental_uris": {"ios": "https://dc.lft.to/lastmile_qr_scan", "android": "https://dc.lft.to/lastmile_qr_scan"}, "is_reserved": 0, "fusion_lon": 0.0, "fusion_lat": 0.0, "lon": -77.01972916666666, "name": "2ffd28d13fc39be80f968b730a631a75"}, {"bike_id": "2da032edb27fe81d2ed80b61799c3d08", "type": "electric_scooter", "is_disabled": 0, "lat": 38.927830666666665, "rental_uris": {"ios": "https://dc.lft.to/lastmile_qr_scan", "android": "https://dc.lft.to/lastmile_qr_scan"}, "is_reserved": 0, "fusion_lon": 0.0, "fusion_lat": 0.0, "lon": -77.04315033333333, "name": "2da032edb27fe81d2ed80b61799c3d08"}, {"bike_id": "e38dc6f49c8fcd7448f33fe596538e85", "type": "electric_scooter", "is_disabled": 0, "lat": 38.91068666666666, "rental_uris": {"ios": "https://dc.lft.to/lastmile_qr_scan", "android": "https://dc.lft.to/lastmile_qr_scan"}, "is_reserved": 0, "fusion_lon": 0.0, "fusion_lat": 0.0, "lon": -77.0373, "name": "e38dc6f49c8fcd7448f33fe596538e85"}, {"bike_id": "e47613fb102c014887c19394657ae626", "type": "electric_scooter", "is_disabled": 0, "lat": 38.90575533333333, "rental_uris": {"ios": "https://dc.lft.to/lastmile_qr_scan", "android": "https://dc.lft.to/lastmile_qr_scan"}, "is_reserved": 0, "fusion_lon": 0.0, "fusion_lat": 0.0, "lon": -76.97626216666667, "name": "e47613fb102c014887c19394657ae626"}, {"bike_id": "c90f1711fa54c41e58b0f0201e63d26a", "type": "electric_scooter", "is_disabled": 0, "lat": 38.87099083333333, "rental_uris": {"ios": "https://dc.lft.to/lastmile_qr_scan", "android": "https://dc.lft.to/lastmile_qr_scan"}, "is_reserved": 0, "fusion_lon": 0.0, "fusion_lat": 0.0, "lon": -77.012045, "name": "c90f1711fa54c41e58b0f0201e63d26a"}, {"bike_id": "211609374f700aa3443412d97039df93", "type": "electric_scooter", "is_disabled": 0, "lat": 38.900951666666664, "rental_uris": {"ios": "https://dc.lft.to/lastmile_qr_scan", "android": "https://dc.lft.to/lastmile_qr_scan"}, "is_reserved": 0, "fusion_lon": 0.0, "fusion_lat": 0.0, "lon": -77.01835, "name": "211609374f700aa3443412d97039df93"}, {"bike_id": "93f9f27026a76ab4a9b16a8335797c32", "type": "electric_scooter", "is_disabled": 0, "lat": 38.883980333333334, "rental_uris": {"ios": "https://dc.lft.to/lastmile_qr_scan", "android": "https://dc.lft.to/lastmile_qr_scan"}, "is_reserved": 0, "fusion_lon": 0.0, "fusion_lat": 0.0, "lon": -76.95391533333333, "name": "93f9f27026a76ab4a9b16a8335797c32"}, {"bike_id": "48376b6c15b8d3a72353676d206efdb4", "type": "electric_scooter", "is_disabled": 0, "lat": 38.912144, "rental_uris": {"ios": "https://dc.lft.to/lastmile_qr_scan", "android": "https://dc.lft.to/lastmile_qr_scan"}, "is_reserved": 0, "fusion_lon": 0.0, "fusion_lat": 0.0, "lon": -77.03838666666667, "name": "48376b6c15b8d3a72353676d206efdb4"}, {"bike_id": "5bdd75dcac44dc33cc60c03fb5a8a258", "type": "electric_scooter", "is_disabled": 0, "lat": 38.8910215, "rental_uris": {"ios": "https://dc.lft.to/lastmile_qr_scan", "android": "https://dc.lft.to/lastmile_qr_scan"}, "is_reserved": 0, "fusion_lon": 0.0, "fusion_lat": 0.0, "lon": -76.93850683333334, "name": "5bdd75dcac44dc33cc60c03fb5a8a258"}, {"bike_id": "4727910f3966a23790ffe1daab3793e1", "type": "electric_scooter", "is_disabled": 0, "lat": 38.901100666666665, "rental_uris": {"ios": "https://dc.lft.to/lastmile_qr_scan", "android": "https://dc.lft.to/lastmile_qr_scan"}, "is_reserved": 0, "fusion_lon": 0.0, "fusion_lat": 0.0, "lon": -77.04876183333333, "name": "4727910f3966a23790ffe1daab3793e1"}, {"bike_id": "4799ae13d9f11ef0fe85892e57833ec3", "type": "electric_bike", "is_disabled": 0, "lat": 38.908215, "rental_uris": {"ios": "https://dc.lft.to/lastmile_qr_scan", "android": "https://dc.lft.to/lastmile_qr_scan"}, "is_reserved": 0, "fusion_lon": 0.0, "fusion_lat": 0.0, "lon": -76.94036216666666, "name": "4799ae13d9f11ef0fe85892e57833ec3"}, {"bike_id": "c8a676dcdbd739be84496acb875e7dd4", "type": "electric_scooter", "is_disabled": 0, "lat": 38.92570416666667, "rental_uris": {"ios": "https://dc.lft.to/lastmile_qr_scan", "android": "https://dc.lft.to/lastmile_qr_scan"}, "is_reserved": 0, "fusion_lon": 0.0, "fusion_lat": 0.0, "lon": -77.037804, "name": "c8a676dcdbd739be84496acb875e7dd4"}, {"bike_id": "d53c30f7d9bca9d7012d23ceb2cc91c3", "type": "electric_scooter", "is_disabled": 0, "lat": 38.91525583333333, "rental_uris": {"ios": "https://dc.lft.to/lastmile_qr_scan", "android": "https://dc.lft.to/lastmile_qr_scan"}, "is_reserved": 0, "fusion_lon": 0.0, "fusion_lat": 0.0, "lon": -77.04851016666667, "name": "d53c30f7d9bca9d7012d23ceb2cc91c3"}, {"bike_id": "c46299263300432744e615159ebc8ded", "type": "electric_scooter", "is_disabled": 0, "lat": 38.9170095, "rental_uris": {"ios": "https://dc.lft.to/lastmile_qr_scan", "android": "https://dc.lft.to/lastmile_qr_scan"}, "is_reserved": 0, "fusion_lon": 0.0, "fusion_lat": 0.0, "lon": -77.03166283333333, "name": "c46299263300432744e615159ebc8ded"}, {"bike_id": "707d65fab96ebeeb4aff9c1b346cad1b", "type": "electric_scooter", "is_disabled": 0, "lat": 38.921256166666666, "rental_uris": {"ios": "https://dc.lft.to/lastmile_qr_scan", "android": "https://dc.lft.to/lastmile_qr_scan"}, "is_reserved": 0, "fusion_lon": 0.0, "fusion_lat": 0.0, "lon": -77.01211916666666, "name": "707d65fab96ebeeb4aff9c1b346cad1b"}, {"bike_id": "187eb49290f03e1e00a5f4ccbee3f55d", "type": "electric_scooter", "is_disabled": 0, "lat": 38.916012, "rental_uris": {"ios": "https://dc.lft.to/lastmile_qr_scan", "android": "https://dc.lft.to/lastmile_qr_scan"}, "is_reserved": 0, "fusion_lon": 0.0, "fusion_lat": 0.0, "lon": -77.023999, "name": "187eb49290f03e1e00a5f4ccbee3f55d"}, {"bike_id": "2ef3f9d2da45d3e907e767dc1bcb7bb4", "type": "electric_scooter", "is_disabled": 0, "lat": 38.89569083333333, "rental_uris": {"ios": "https://dc.lft.to/lastmile_qr_scan", "android": "https://dc.lft.to/lastmile_qr_scan"}, "is_reserved": 0, "fusion_lon": 0.0, "fusion_lat": 0.0, "lon": -76.930246, "name": "2ef3f9d2da45d3e907e767dc1bcb7bb4"}, {"bike_id": "4f16c1c243ce5889ee3359e75f75413b", "type": "electric_scooter", "is_disabled": 0, "lat": 38.904140166666664, "rental_uris": {"ios": "https://dc.lft.to/lastmile_qr_scan", "android": "https://dc.lft.to/lastmile_qr_scan"}, "is_reserved": 0, "fusion_lon": 0.0, "fusion_lat": 0.0, "lon": -76.97329083333334, "name": "4f16c1c243ce5889ee3359e75f75413b"}, {"bike_id": "dfe41ca1db9e95356c1c734b48306bce", "type": "electric_scooter", "is_disabled": 0, "lat": 38.930816666666665, "rental_uris": {"ios": "https://dc.lft.to/lastmile_qr_scan", "android": "https://dc.lft.to/lastmile_qr_scan"}, "is_reserved": 0, "fusion_lon": 0.0, "fusion_lat": 0.0, "lon": -77.03654316666666, "name": "dfe41ca1db9e95356c1c734b48306bce"}, {"bike_id": "502cd8b6893f93f50522bf00c0d6f0be", "type": "electric_scooter", "is_disabled": 0, "lat": 38.911085166666666, "rental_uris": {"ios": "https://dc.lft.to/lastmile_qr_scan", "android": "https://dc.lft.to/lastmile_qr_scan"}, "is_reserved": 0, "fusion_lon": 0.0, "fusion_lat": 0.0, "lon": -77.032509, "name": "502cd8b6893f93f50522bf00c0d6f0be"}, {"bike_id": "0dcf099fe38c2e33018506aea56a50be", "type": "electric_bike", "is_disabled": 0, "lat": 39.050571833333336, "rental_uris": {"ios": "https://dc.lft.to/lastmile_qr_scan", "android": "https://dc.lft.to/lastmile_qr_scan"}, "is_reserved": 0, "fusion_lon": 0.0, "fusion_lat": 0.0, "lon": -77.05145283333333, "name": "0dcf099fe38c2e33018506aea56a50be"}, {"bike_id": "8a0b6e9d7e3d04ca61ec76fa37bb07ed", "type": "electric_scooter", "is_disabled": 0, "lat": 38.936366166666666, "rental_uris": {"ios": "https://dc.lft.to/lastmile_qr_scan", "android": "https://dc.lft.to/lastmile_qr_scan"}, "is_reserved": 0, "fusion_lon": 0.0, "fusion_lat": 0.0, "lon": -77.03650616666667, "name": "8a0b6e9d7e3d04ca61ec76fa37bb07ed"}, {"bike_id": "e14c3e8030d83b3ed5f2e23ceb62f710", "type": "electric_scooter", "is_disabled": 0, "lat": 38.877598, "rental_uris": {"ios": "https://dc.lft.to/lastmile_qr_scan", "android": "https://dc.lft.to/lastmile_qr_scan"}, "is_reserved": 0, "fusion_lon": 0.0, "fusion_lat": 0.0, "lon": -76.98683183333333, "name": "e14c3e8030d83b3ed5f2e23ceb62f710"}, {"bike_id": "13f31d46a207affbc7edd6ae80a56653", "type": "electric_scooter", "is_disabled": 0, "lat": 38.91678566666667, "rental_uris": {"ios": "https://dc.lft.to/lastmile_qr_scan", "android": "https://dc.lft.to/lastmile_qr_scan"}, "is_reserved": 0, "fusion_lon": 0.0, "fusion_lat": 0.0, "lon": -77.036825, "name": "13f31d46a207affbc7edd6ae80a56653"}, {"bike_id": "1261c0f23fce52462bc2268c70876ae9", "type": "electric_bike", "is_disabled": 0, "lat": 38.8324505, "rental_uris": {"ios": "https://dc.lft.to/lastmile_qr_scan", "android": "https://dc.lft.to/lastmile_qr_scan"}, "is_reserved": 0, "fusion_lon": 0.0, "fusion_lat": 0.0, "lon": -76.94624983333334, "name": "1261c0f23fce52462bc2268c70876ae9"}, {"bike_id": "337e8499fe8c5a774daed4513a954245", "type": "electric_scooter", "is_disabled": 0, "lat": 38.915588166666666, "rental_uris": {"ios": "https://dc.lft.to/lastmile_qr_scan", "android": "https://dc.lft.to/lastmile_qr_scan"}, "is_reserved": 0, "fusion_lon": 0.0, "fusion_lat": 0.0, "lon": -77.009783, "name": "337e8499fe8c5a774daed4513a954245"}, {"bike_id": "4280a5b32c79c6a94c7e6899b43d6df3", "type": "electric_scooter", "is_disabled": 0, "lat": 38.90261783333333, "rental_uris": {"ios": "https://dc.lft.to/lastmile_qr_scan", "android": "https://dc.lft.to/lastmile_qr_scan"}, "is_reserved": 0, "fusion_lon": 0.0, "fusion_lat": 0.0, "lon": -77.017626, "name": "4280a5b32c79c6a94c7e6899b43d6df3"}, {"bike_id": "b16ead3c31615b47c80875e99581694c", "type": "electric_scooter", "is_disabled": 0, "lat": 38.939966166666665, "rental_uris": {"ios": "https://dc.lft.to/lastmile_qr_scan", "android": "https://dc.lft.to/lastmile_qr_scan"}, "is_reserved": 0, "fusion_lon": 0.0, "fusion_lat": 0.0, "lon": -77.0168955, "name": "b16ead3c31615b47c80875e99581694c"}, {"bike_id": "f262826b20792e8e089096506311aabe", "type": "electric_scooter", "is_disabled": 0, "lat": 38.90571333333333, "rental_uris": {"ios": "https://dc.lft.to/lastmile_qr_scan", "android": "https://dc.lft.to/lastmile_qr_scan"}, "is_reserved": 0, "fusion_lon": 0.0, "fusion_lat": 0.0, "lon": -76.97782016666666, "name": "f262826b20792e8e089096506311aabe"}, {"bike_id": "1ba518d27b27f9aaf8d6074afb5ad506", "type": "electric_scooter", "is_disabled": 0, "lat": 38.894894, "rental_uris": {"ios": "https://dc.lft.to/lastmile_qr_scan", "android": "https://dc.lft.to/lastmile_qr_scan"}, "is_reserved": 0, "fusion_lon": 0.0, "fusion_lat": 0.0, "lon": -77.01098216666666, "name": "1ba518d27b27f9aaf8d6074afb5ad506"}, {"bike_id": "3593c07b3a469f5f7aae43a953edbf78", "type": "electric_scooter", "is_disabled": 0, "lat": 38.934643333333334, "rental_uris": {"ios": "https://dc.lft.to/lastmile_qr_scan", "android": "https://dc.lft.to/lastmile_qr_scan"}, "is_reserved": 0, "fusion_lon": 0.0, "fusion_lat": 0.0, "lon": -77.07185633333333, "name": "3593c07b3a469f5f7aae43a953edbf78"}, {"bike_id": "1b26e403095a20d01c21b51f73f64272", "type": "electric_scooter", "is_disabled": 0, "lat": 38.9373835, "rental_uris": {"ios": "https://dc.lft.to/lastmile_qr_scan", "android": "https://dc.lft.to/lastmile_qr_scan"}, "is_reserved": 0, "fusion_lon": 0.0, "fusion_lat": 0.0, "lon": -77.03570233333333, "name": "1b26e403095a20d01c21b51f73f64272"}, {"bike_id": "00493ce2e2ca82621d53231a2d91d989", "type": "electric_scooter", "is_disabled": 0, "lat": 38.90568716666667, "rental_uris": {"ios": "https://dc.lft.to/lastmile_qr_scan", "android": "https://dc.lft.to/lastmile_qr_scan"}, "is_reserved": 0, "fusion_lon": 0.0, "fusion_lat": 0.0, "lon": -77.00568033333333, "name": "00493ce2e2ca82621d53231a2d91d989"}, {"bike_id": "3903c41f2719cca1d75fa9739fb9acf5", "type": "electric_scooter", "is_disabled": 0, "lat": 38.912374, "rental_uris": {"ios": "https://dc.lft.to/lastmile_qr_scan", "android": "https://dc.lft.to/lastmile_qr_scan"}, "is_reserved": 0, "fusion_lon": 0.0, "fusion_lat": 0.0, "lon": -77.0221505, "name": "3903c41f2719cca1d75fa9739fb9acf5"}, {"bike_id": "08ae9ffe64aef44e3616f3d3f12a2bb5", "type": "electric_scooter", "is_disabled": 0, "lat": 38.91382683333333, "rental_uris": {"ios": "https://dc.lft.to/lastmile_qr_scan", "android": "https://dc.lft.to/lastmile_qr_scan"}, "is_reserved": 0, "fusion_lon": 0.0, "fusion_lat": 0.0, "lon": -77.04137283333333, "name": "08ae9ffe64aef44e3616f3d3f12a2bb5"}, {"bike_id": "767007fae03493cdde6d95ec1a12f7f1", "type": "electric_scooter", "is_disabled": 0, "lat": 38.907202166666664, "rental_uris": {"ios": "https://dc.lft.to/lastmile_qr_scan", "android": "https://dc.lft.to/lastmile_qr_scan"}, "is_reserved": 0, "fusion_lon": 0.0, "fusion_lat": 0.0, "lon": -77.024219, "name": "767007fae03493cdde6d95ec1a12f7f1"}, {"bike_id": "b4a72e931e985b2280ec7f1f4a135412", "type": "electric_scooter", "is_disabled": 0, "lat": 38.93399433333333, "rental_uris": {"ios": "https://dc.lft.to/lastmile_qr_scan", "android": "https://dc.lft.to/lastmile_qr_scan"}, "is_reserved": 0, "fusion_lon": 0.0, "fusion_lat": 0.0, "lon": -77.02228883333333, "name": "b4a72e931e985b2280ec7f1f4a135412"}, {"bike_id": "17a547ce5950bc4debb7f0c47aaab0c2", "type": "electric_scooter", "is_disabled": 0, "lat": 38.94294883333333, "rental_uris": {"ios": "https://dc.lft.to/lastmile_qr_scan", "android": "https://dc.lft.to/lastmile_qr_scan"}, "is_reserved": 0, "fusion_lon": 0.0, "fusion_lat": 0.0, "lon": -77.02170983333333, "name": "17a547ce5950bc4debb7f0c47aaab0c2"}, {"bike_id": "d6c09af1f26e1e99bfa9fa792b9981ea", "type": "electric_scooter", "is_disabled": 0, "lat": 38.9233375, "rental_uris": {"ios": "https://dc.lft.to/lastmile_qr_scan", "android": "https://dc.lft.to/lastmile_qr_scan"}, "is_reserved": 0, "fusion_lon": 0.0, "fusion_lat": 0.0, "lon": -77.03604333333334, "name": "d6c09af1f26e1e99bfa9fa792b9981ea"}, {"bike_id": "47ab1a1db469406d61117a328f2fcb36", "type": "electric_scooter", "is_disabled": 0, "lat": 38.91253533333333, "rental_uris": {"ios": "https://dc.lft.to/lastmile_qr_scan", "android": "https://dc.lft.to/lastmile_qr_scan"}, "is_reserved": 0, "fusion_lon": 0.0, "fusion_lat": 0.0, "lon": -77.03266966666666, "name": "47ab1a1db469406d61117a328f2fcb36"}, {"bike_id": "e80576cd62d85217fafd00aeeec32d83", "type": "electric_bike", "is_disabled": 0, "lat": 38.948694, "rental_uris": {"ios": "https://dc.lft.to/lastmile_qr_scan", "android": "https://dc.lft.to/lastmile_qr_scan"}, "is_reserved": 0, "fusion_lon": 0.0, "fusion_lat": 0.0, "lon": -77.02199916666666, "name": "e80576cd62d85217fafd00aeeec32d83"}, {"bike_id": "632a9cee98f883e5549b5722a68d7f71", "type": "electric_scooter", "is_disabled": 0, "lat": 38.909774, "rental_uris": {"ios": "https://dc.lft.to/lastmile_qr_scan", "android": "https://dc.lft.to/lastmile_qr_scan"}, "is_reserved": 0, "fusion_lon": 0.0, "fusion_lat": 0.0, "lon": -77.03815416666667, "name": "632a9cee98f883e5549b5722a68d7f71"}, {"bike_id": "610125895ae31dcd05c22cbefccd3e00", "type": "electric_scooter", "is_disabled": 0, "lat": 38.904977833333334, "rental_uris": {"ios": "https://dc.lft.to/lastmile_qr_scan", "android": "https://dc.lft.to/lastmile_qr_scan"}, "is_reserved": 0, "fusion_lon": 0.0, "fusion_lat": 0.0, "lon": -77.02957216666667, "name": "610125895ae31dcd05c22cbefccd3e00"}, {"bike_id": "2880e639acbcd6310bbb114fa9f8aefd", "type": "electric_scooter", "is_disabled": 0, "lat": 38.9169625, "rental_uris": {"ios": "https://dc.lft.to/lastmile_qr_scan", "android": "https://dc.lft.to/lastmile_qr_scan"}, "is_reserved": 0, "fusion_lon": 0.0, "fusion_lat": 0.0, "lon": -77.028757, "name": "2880e639acbcd6310bbb114fa9f8aefd"}, {"bike_id": "3979ee28aa144d0af96075b1e30adb5f", "type": "electric_scooter", "is_disabled": 0, "lat": 38.87632, "rental_uris": {"ios": "https://dc.lft.to/lastmile_qr_scan", "android": "https://dc.lft.to/lastmile_qr_scan"}, "is_reserved": 0, "fusion_lon": 0.0, "fusion_lat": 0.0, "lon": -76.96526483333334, "name": "3979ee28aa144d0af96075b1e30adb5f"}, {"bike_id": "9d1ad5d511f4f92e7f85341d903aefe9", "type": "electric_scooter", "is_disabled": 0, "lat": 38.900657333333335, "rental_uris": {"ios": "https://dc.lft.to/lastmile_qr_scan", "android": "https://dc.lft.to/lastmile_qr_scan"}, "is_reserved": 0, "fusion_lon": 0.0, "fusion_lat": 0.0, "lon": -76.92741616666666, "name": "9d1ad5d511f4f92e7f85341d903aefe9"}, {"bike_id": "e7708962d6576bd6b463cad81d3f4d5b", "type": "electric_scooter", "is_disabled": 0, "lat": 38.9050285, "rental_uris": {"ios": "https://dc.lft.to/lastmile_qr_scan", "android": "https://dc.lft.to/lastmile_qr_scan"}, "is_reserved": 0, "fusion_lon": 0.0, "fusion_lat": 0.0, "lon": -77.06883683333334, "name": "e7708962d6576bd6b463cad81d3f4d5b"}, {"bike_id": "c9021d406183b186a28a1df3d051993c", "type": "electric_bike", "is_disabled": 0, "lat": 38.920623, "rental_uris": {"ios": "https://dc.lft.to/lastmile_qr_scan", "android": "https://dc.lft.to/lastmile_qr_scan"}, "is_reserved": 0, "fusion_lon": 0.0, "fusion_lat": 0.0, "lon": -77.04695516666666, "name": "c9021d406183b186a28a1df3d051993c"}, {"bike_id": "65e944ab0203667107b019b150bdafcd", "type": "electric_scooter", "is_disabled": 0, "lat": 38.9063915, "rental_uris": {"ios": "https://dc.lft.to/lastmile_qr_scan", "android": "https://dc.lft.to/lastmile_qr_scan"}, "is_reserved": 0, "fusion_lon": 0.0, "fusion_lat": 0.0, "lon": -77.031425, "name": "65e944ab0203667107b019b150bdafcd"}, {"bike_id": "15803d170cecf6bc0e12ac352402001a", "type": "electric_scooter", "is_disabled": 0, "lat": 38.913513, "rental_uris": {"ios": "https://dc.lft.to/lastmile_qr_scan", "android": "https://dc.lft.to/lastmile_qr_scan"}, "is_reserved": 0, "fusion_lon": 0.0, "fusion_lat": 0.0, "lon": -77.031839, "name": "15803d170cecf6bc0e12ac352402001a"}, {"bike_id": "c372a007f14e33bcba584adc163dc095", "type": "electric_scooter", "is_disabled": 0, "lat": 38.94995316666667, "rental_uris": {"ios": "https://dc.lft.to/lastmile_qr_scan", "android": "https://dc.lft.to/lastmile_qr_scan"}, "is_reserved": 0, "fusion_lon": 0.0, "fusion_lat": 0.0, "lon": -77.01832416666667, "name": "c372a007f14e33bcba584adc163dc095"}, {"bike_id": "3ec9c29675bccea7e97d92f256ad92bd", "type": "electric_scooter", "is_disabled": 0, "lat": 38.92164183333333, "rental_uris": {"ios": "https://dc.lft.to/lastmile_qr_scan", "android": "https://dc.lft.to/lastmile_qr_scan"}, "is_reserved": 0, "fusion_lon": 0.0, "fusion_lat": 0.0, "lon": -77.03841766666666, "name": "3ec9c29675bccea7e97d92f256ad92bd"}, {"bike_id": "0a61c3684b2107793376f51171ebc9be", "type": "electric_scooter", "is_disabled": 0, "lat": 38.92794516666667, "rental_uris": {"ios": "https://dc.lft.to/lastmile_qr_scan", "android": "https://dc.lft.to/lastmile_qr_scan"}, "is_reserved": 0, "fusion_lon": 0.0, "fusion_lat": 0.0, "lon": -77.02206683333333, "name": "0a61c3684b2107793376f51171ebc9be"}, {"bike_id": "d60b6fb6f5ee417d00e4b6bd59b2200c", "type": "electric_bike", "is_disabled": 0, "lat": 38.889567, "rental_uris": {"ios": "https://dc.lft.to/lastmile_qr_scan", "android": "https://dc.lft.to/lastmile_qr_scan"}, "is_reserved": 0, "fusion_lon": 0.0, "fusion_lat": 0.0, "lon": -77.091335, "name": "d60b6fb6f5ee417d00e4b6bd59b2200c"}, {"bike_id": "e6fc5bcd970391065003f0f9ee65e053", "type": "electric_scooter", "is_disabled": 0, "lat": 38.90753216666667, "rental_uris": {"ios": "https://dc.lft.to/lastmile_qr_scan", "android": "https://dc.lft.to/lastmile_qr_scan"}, "is_reserved": 0, "fusion_lon": 0.0, "fusion_lat": 0.0, "lon": -77.03601483333334, "name": "e6fc5bcd970391065003f0f9ee65e053"}, {"bike_id": "d50bbabd0504a62af8ff66195d3968e5", "type": "electric_scooter", "is_disabled": 0, "lat": 38.911777, "rental_uris": {"ios": "https://dc.lft.to/lastmile_qr_scan", "android": "https://dc.lft.to/lastmile_qr_scan"}, "is_reserved": 0, "fusion_lon": 0.0, "fusion_lat": 0.0, "lon": -77.06853183333334, "name": "d50bbabd0504a62af8ff66195d3968e5"}, {"bike_id": "3054e085ab4a0127a4f57ff338f052de", "type": "electric_scooter", "is_disabled": 0, "lat": 38.905984333333336, "rental_uris": {"ios": "https://dc.lft.to/lastmile_qr_scan", "android": "https://dc.lft.to/lastmile_qr_scan"}, "is_reserved": 0, "fusion_lon": 0.0, "fusion_lat": 0.0, "lon": -77.073084, "name": "3054e085ab4a0127a4f57ff338f052de"}, {"bike_id": "9a883cd2c631477ff7fa4a4f4a9c6515", "type": "electric_bike", "is_disabled": 0, "lat": 38.836141166666664, "rental_uris": {"ios": "https://dc.lft.to/lastmile_qr_scan", "android": "https://dc.lft.to/lastmile_qr_scan"}, "is_reserved": 0, "fusion_lon": 0.0, "fusion_lat": 0.0, "lon": -77.00378983333333, "name": "9a883cd2c631477ff7fa4a4f4a9c6515"}, {"bike_id": "18572700ef42924104be20b3d9842905", "type": "electric_scooter", "is_disabled": 0, "lat": 38.89696683333333, "rental_uris": {"ios": "https://dc.lft.to/lastmile_qr_scan", "android": "https://dc.lft.to/lastmile_qr_scan"}, "is_reserved": 0, "fusion_lon": 0.0, "fusion_lat": 0.0, "lon": -76.99961916666666, "name": "18572700ef42924104be20b3d9842905"}, {"bike_id": "4dd030c3176d1adc63e0a967d269e395", "type": "electric_scooter", "is_disabled": 0, "lat": 38.918356833333334, "rental_uris": {"ios": "https://dc.lft.to/lastmile_qr_scan", "android": "https://dc.lft.to/lastmile_qr_scan"}, "is_reserved": 0, "fusion_lon": 0.0, "fusion_lat": 0.0, "lon": -77.02453183333333, "name": "4dd030c3176d1adc63e0a967d269e395"}, {"bike_id": "6597a6a0778575b2afcd84dfa8e71aa0", "type": "electric_scooter", "is_disabled": 0, "lat": 38.9090925, "rental_uris": {"ios": "https://dc.lft.to/lastmile_qr_scan", "android": "https://dc.lft.to/lastmile_qr_scan"}, "is_reserved": 0, "fusion_lon": 0.0, "fusion_lat": 0.0, "lon": -77.01898866666667, "name": "6597a6a0778575b2afcd84dfa8e71aa0"}, {"bike_id": "c6a16db4a6a83b7af944365a1bc57a36", "type": "electric_scooter", "is_disabled": 0, "lat": 38.89994633333333, "rental_uris": {"ios": "https://dc.lft.to/lastmile_qr_scan", "android": "https://dc.lft.to/lastmile_qr_scan"}, "is_reserved": 0, "fusion_lon": 0.0, "fusion_lat": 0.0, "lon": -77.006885, "name": "c6a16db4a6a83b7af944365a1bc57a36"}, {"bike_id": "a1526408ee500d22d85ac0f2c6739fc6", "type": "electric_scooter", "is_disabled": 0, "lat": 38.90575466666667, "rental_uris": {"ios": "https://dc.lft.to/lastmile_qr_scan", "android": "https://dc.lft.to/lastmile_qr_scan"}, "is_reserved": 0, "fusion_lon": 0.0, "fusion_lat": 0.0, "lon": -77.04423266666667, "name": "a1526408ee500d22d85ac0f2c6739fc6"}, {"bike_id": "ee3ae34ff53d26f77bdc8874a8294196", "type": "electric_scooter", "is_disabled": 0, "lat": 38.866259166666666, "rental_uris": {"ios": "https://dc.lft.to/lastmile_qr_scan", "android": "https://dc.lft.to/lastmile_qr_scan"}, "is_reserved": 0, "fusion_lon": 0.0, "fusion_lat": 0.0, "lon": -76.9871055, "name": "ee3ae34ff53d26f77bdc8874a8294196"}, {"bike_id": "a2984df815399bf711bcffd6d2e60221", "type": "electric_scooter", "is_disabled": 0, "lat": 38.971911, "rental_uris": {"ios": "https://dc.lft.to/lastmile_qr_scan", "android": "https://dc.lft.to/lastmile_qr_scan"}, "is_reserved": 0, "fusion_lon": 0.0, "fusion_lat": 0.0, "lon": -77.02659683333333, "name": "a2984df815399bf711bcffd6d2e60221"}, {"bike_id": "5b99ca64ee73592f3d3e511024de4e02", "type": "electric_scooter", "is_disabled": 0, "lat": 38.90562883333333, "rental_uris": {"ios": "https://dc.lft.to/lastmile_qr_scan", "android": "https://dc.lft.to/lastmile_qr_scan"}, "is_reserved": 0, "fusion_lon": 0.0, "fusion_lat": 0.0, "lon": -77.0163415, "name": "5b99ca64ee73592f3d3e511024de4e02"}, {"bike_id": "9daaa419a822c385b9e8921cc092d5f9", "type": "electric_scooter", "is_disabled": 0, "lat": 38.886415166666666, "rental_uris": {"ios": "https://dc.lft.to/lastmile_qr_scan", "android": "https://dc.lft.to/lastmile_qr_scan"}, "is_reserved": 0, "fusion_lon": 0.0, "fusion_lat": 0.0, "lon": -77.0213165, "name": "9daaa419a822c385b9e8921cc092d5f9"}, {"bike_id": "9abc28ca0fa496e17e67d85850f2c943", "type": "electric_scooter", "is_disabled": 0, "lat": 38.93365583333333, "rental_uris": {"ios": "https://dc.lft.to/lastmile_qr_scan", "android": "https://dc.lft.to/lastmile_qr_scan"}, "is_reserved": 0, "fusion_lon": 0.0, "fusion_lat": 0.0, "lon": -77.08857333333333, "name": "9abc28ca0fa496e17e67d85850f2c943"}, {"bike_id": "6bfddda7563c07a27519fbd7e8d3bc16", "type": "electric_scooter", "is_disabled": 0, "lat": 38.88022633333333, "rental_uris": {"ios": "https://dc.lft.to/lastmile_qr_scan", "android": "https://dc.lft.to/lastmile_qr_scan"}, "is_reserved": 0, "fusion_lon": 0.0, "fusion_lat": 0.0, "lon": -77.005747, "name": "6bfddda7563c07a27519fbd7e8d3bc16"},