{"data": {"bikes": [{"fusion_lat": 0.0, "name": "a51e3370d792754236b3af0f9a052f08", "is_disabled": 0, "rental_uris": {"android": "https://dc.lft.to/lastmile_qr_scan", "ios": "https://dc.lft.to/lastmile_qr_scan"}, "fusion_lon": 0.0, "lat": 38.984715, "bike_id": "a51e3370d792754236b3af0f9a052f08", "type": "electric_scooter", "is_reserved": 0, "lon": -77.02639366666666}, {"fusion_lat": 0.0, "name": "4a8654e2a7012f69c82d1976617deb03", "is_disabled": 0, "rental_uris": {"android": "https://dc.lft.to/lastmile_qr_scan", "ios": "https://dc.lft.to/lastmile_qr_scan"}, "fusion_lon": 0.0, "lat": 38.9216135, "bike_id": "4a8654e2a7012f69c82d1976617deb03", "type": "electric_scooter", "is_reserved": 0, "lon": -77.036631}, {"fusion_lat": 0.0, "name": "290793d92ce2a936c176583f8cdfd667", "is_disabled": 0, "rental_uris": {"android": "https://dc.lft.to/lastmile_qr_scan", "ios": "https://dc.lft.to/lastmile_qr_scan"}, "fusion_lon": 0.0, "lat": 38.9530845, "bike_id": "290793d92ce2a936c176583f8cdfd667", "type": "electric_scooter", "is_reserved": 0, "lon": -76.99883916666667}, {"fusion_lat": 0.0, "name": "a2c2ff342c24e3fb2bc461b09e45114c", "is_disabled": 0, "rental_uris": {"android": "https://dc.lft.to/lastmile_qr_scan", "ios": "https://dc.lft.to/lastmile_qr_scan"}, "fusion_lon": 0.0, "lat": 38.91708066666666, "bike_id": "a2c2ff342c24e3fb2bc461b09e45114c", "type": "electric_scooter", "is_reserved": 0, "lon": -77.02736633333333}, {"fusion_lat": 0.0, "name": "ce8bb47a8b70e3c32b56ac39fd4f801a", "is_disabled": 0, "rental_uris": {"android": "https://dc.lft.to/lastmile_qr_scan", "ios": "https://dc.lft.to/lastmile_qr_scan"}, "fusion_lon": 0.0, "lat": 38.91661666666667, "bike_id": "ce8bb47a8b70e3c32b56ac39fd4f801a", "type": "electric_scooter", "is_reserved": 0, "lon": -77.0282485}, {"fusion_lat": 0.0, "name": "8c0590b7ff95bf6bd5fe1d3d981ccdda", "is_disabled": 0, "rental_uris": {"android": "https://dc.lft.to/lastmile_qr_scan", "ios": "https://dc.lft.to/lastmile_qr_scan"}, "fusion_lon": 0.0, "lat": 38.918146166666666, "bike_id": "8c0590b7ff95bf6bd5fe1d3d981ccdda", "type": "electric_scooter", "is_reserved": 0, "lon": -77.002586}, {"fusion_lat": 0.0, "name": "dde8262c167c224503974eaedc838c45", "is_disabled": 0, "rental_uris": {"android": "https://dc.lft.to/lastmile_qr_scan", "ios": "https://dc.lft.to/lastmile_qr_scan"}, "fusion_lon": 0.0, "lat": 38.88766016666667, "bike_id": "dde8262c167c224503974eaedc838c45", "type": "electric_scooter", "is_reserved": 0, "lon": -76.99464866666666}, {"fusion_lat": 0.0, "name": "28d373dcc67f3023b3ae57eadf162c64", "is_disabled": 0, "rental_uris": {"android": "https://dc.lft.to/lastmile_qr_scan", "ios": "https://dc.lft.to/lastmile_qr_scan"}, "fusion_lon": 0.0, "lat": 38.918430666666666, "bike_id": "28d373dcc67f3023b3ae57eadf162c64", "type": "electric_scooter", "is_reserved": 0, "lon": -76.96549083333333}, {"fusion_lat": 0.0, "name": "9bff8102e3be18369112551f1f2f86d8", "is_disabled": 0, "rental_uris": {"android": "https://dc.lft.to/lastmile_qr_scan", "ios": "https://dc.lft.to/lastmile_qr_scan"}, "fusion_lon": 0.0, "lat": 38.95828233333334, "bike_id": "9bff8102e3be18369112551f1f2f86d8", "type": "electric_bike", "is_reserved": 0, "lon": -77.0151475}, {"fusion_lat": 0.0, "name": "66b1658ff3adeefc02ff4b096ced692a", "is_disabled": 0, "rental_uris": {"android": "https://dc.lft.to/lastmile_qr_scan", "ios": "https://dc.lft.to/lastmile_qr_scan"}, "fusion_lon": 0.0, "lat": 38.906859, "bike_id": "66b1658ff3adeefc02ff4b096ced692a", "type": "electric_scooter", "is_reserved": 0, "lon": -77.048689}, {"fusion_lat": 0.0, "name": "7e07701ff51e3657d229e1eda5ba7fb8", "is_disabled": 0, "rental_uris": {"android": "https://dc.lft.to/lastmile_qr_scan", "ios": "https://dc.lft.to/lastmile_qr_scan"}, "fusion_lon": 0.0, "lat": 38.91323383333334, "bike_id": "7e07701ff51e3657d229e1eda5ba7fb8", "type": "electric_scooter", "is_reserved": 0, "lon": -77.03183116666666}, {"fusion_lat": 0.0, "name": "e122050cd6b135d98847c2a8faefeefe", "is_disabled": 0, "rental_uris": {"android": "https://dc.lft.to/lastmile_qr_scan", "ios": "https://dc.lft.to/lastmile_qr_scan"}, "fusion_lon": 0.0, "lat": 38.8963745, "bike_id": "e122050cd6b135d98847c2a8faefeefe", "type": "electric_scooter", "is_reserved": 0, "lon": -77.02659483333333}, {"fusion_lat": 0.0, "name": "f2800b6f89c4a1f6f38b338c32fb57e1", "is_disabled": 0, "rental_uris": {"android": "https://dc.lft.to/lastmile_qr_scan", "ios": "https://dc.lft.to/lastmile_qr_scan"}, "fusion_lon": 0.0, "lat": 38.883140166666664, "bike_id": "f2800b6f89c4a1f6f38b338c32fb57e1", "type": "electric_scooter", "is_reserved": 0, "lon": -77.01830983333333}, {"fusion_lat": 0.0, "name": "8a9870c8c5b2dda535d261b6f18a7722", "is_disabled": 0, "rental_uris": {"android": "https://dc.lft.to/lastmile_qr_scan", "ios": "https://dc.lft.to/lastmile_qr_scan"}, "fusion_lon": 0.0, "lat": 38.919093, "bike_id": "8a9870c8c5b2dda535d261b6f18a7722", "type": "electric_scooter", "is_reserved": 0, "lon": -77.02621316666666}, {"fusion_lat": 0.0, "name": "75016f91a9cd7c3f79f7264ee64cdc02", "is_disabled": 0, "rental_uris": {"android": "https://dc.lft.to/lastmile_qr_scan", "ios": "https://dc.lft.to/lastmile_qr_scan"}, "fusion_lon": 0.0, "lat": 38.967291333333336, "bike_id": "75016f91a9cd7c3f79f7264ee64cdc02", "type": "electric_scooter", "is_reserved": 0, "lon": -77.00919666666667}, {"fusion_lat": 0.0, "name": "4d729e636d5aa7c21d49e60089dfe4c0", "is_disabled": 0, "rental_uris": {"android": "https://dc.lft.to/lastmile_qr_scan", "ios": "https://dc.lft.to/lastmile_qr_scan"}, "fusion_lon": 0.0, "lat": 38.952475, "bike_id": "4d729e636d5aa7c21d49e60089dfe4c0", "type": "electric_scooter", "is_reserved": 0, "lon": -77.02377866666667}, {"fusion_lat": 0.0, "name": "af3f533f0a011858cd01b6d999bf9b81", "is_disabled": 0, "rental_uris": {"android": "https://dc.lft.to/lastmile_qr_scan", "ios": "https://dc.lft.to/lastmile_qr_scan"}, "fusion_lon": 0.0, "lat": 38.89729066666666, "bike_id": "af3f533f0a011858cd01b6d999bf9b81", "type": "electric_scooter", "is_reserved": 0, "lon": -77.04992583333333}, {"fusion_lat": 0.0, "name": "a9ba1b3e4da15eda492caa951efd9517", "is_disabled": 0, "rental_uris": {"android": "https://dc.lft.to/lastmile_qr_scan", "ios": "https://dc.lft.to/lastmile_qr_scan"}, "fusion_lon": 0.0, "lat": 38.893512, "bike_id": "a9ba1b3e4da15eda492caa951efd9517", "type": "electric_scooter", "is_reserved": 0, "lon": -77.00069383333333}, {"fusion_lat": 0.0, "name": "bbb838dc3c487b53029e62f204ae5bde", "is_disabled": 0, "rental_uris": {"android": "https://dc.lft.to/lastmile_qr_scan", "ios": "https://dc.lft.to/lastmile_qr_scan"}, "fusion_lon": 0.0, "lat": 38.911226166666665, "bike_id": "bbb838dc3c487b53029e62f204ae5bde", "type": "electric_scooter", "is_reserved": 0, "lon": -77.01997316666667}, {"fusion_lat": 0.0, "name": "2cbb6573d857f7694ff62b626d3135d0", "is_disabled": 0, "rental_uris": {"android": "https://dc.lft.to/lastmile_qr_scan", "ios": "https://dc.lft.to/lastmile_qr_scan"}, "fusion_lon": 0.0, "lat": 38.89256116666667, "bike_id": "2cbb6573d857f7694ff62b626d3135d0", "type": "electric_bike", "is_reserved": 0, "lon": -76.9512285}, {"fusion_lat": 0.0, "name": "bf74f5aa9af0b5124907c61f7c63610c", "is_disabled": 0, "rental_uris": {"android": "https://dc.lft.to/lastmile_qr_scan", "ios": "https://dc.lft.to/lastmile_qr_scan"}, "fusion_lon": 0.0, "lat": 38.898709, "bike_id": "bf74f5aa9af0b5124907c61f7c63610c", "type": "electric_scooter", "is_reserved": 0, "lon": -77.04675366666666}, {"fusion_lat": 0.0, "name": "a6cfa04bd1f47079f40161817977330f", "is_disabled": 0, "rental_uris": {"android": "https://dc.lft.to/lastmile_qr_scan", "ios": "https://dc.lft.to/lastmile_qr_scan"}, "fusion_lon": 0.0, "lat": 38.924539, "bike_id": "a6cfa04bd1f47079f40161817977330f", "type": "electric_scooter", "is_reserved": 0, "lon": -77.08025933333333}, {"fusion_lat": 0.0, "name": "053d32d839237f49a60a5330733c7182", "is_disabled": 0, "rental_uris": {"android": "https://dc.lft.to/lastmile_qr_scan", "ios": "https://dc.lft.to/lastmile_qr_scan"}, "fusion_lon": 0.0, "lat": 38.88123683333333, "bike_id": "053d32d839237f49a60a5330733c7182", "type": "electric_scooter", "is_reserved": 0, "lon": -76.99282083333334}, {"fusion_lat": 0.0, "name": "85c04c0fc6281a93d094bd2c0f75fc93", "is_disabled": 0, "rental_uris": {"android": "https://dc.lft.to/lastmile_qr_scan", "ios": "https://dc.lft.to/lastmile_qr_scan"}, "fusion_lon": 0.0, "lat": 38.891579166666666, "bike_id": "85c04c0fc6281a93d094bd2c0f75fc93", "type": "electric_bike", "is_reserved": 0, "lon": -77.00468333333333}, {"fusion_lat": 0.0, "name": "410f153b9706a148e50f48ab5e25af0a", "is_disabled": 0, "rental_uris": {"android": "https://dc.lft.to/lastmile_qr_scan", "ios": "https://dc.lft.to/lastmile_qr_scan"}, "fusion_lon": 0.0, "lat": 38.9450885, "bike_id": "410f153b9706a148e50f48ab5e25af0a", "type": "electric_bike", "is_reserved": 0, "lon": -77.00676066666666}, {"fusion_lat": 0.0, "name": "9cc31d0c40272c823a922825e5b3137a", "is_disabled": 0, "rental_uris": {"android": "https://dc.lft.to/lastmile_qr_scan", "ios": "https://dc.lft.to/lastmile_qr_scan"}, "fusion_lon": 0.0, "lat": 38.90173633333333, "bike_id": "9cc31d0c40272c823a922825e5b3137a", "type": "electric_scooter", "is_reserved": 0, "lon": -76.94147033333333}, {"fusion_lat": 0.0, "name": "1eaa3300fc04a646e439bd7bc73d58cc", "is_disabled": 0, "rental_uris": {"android": "https://dc.lft.to/lastmile_qr_scan", "ios": "https://dc.lft.to/lastmile_qr_scan"}, "fusion_lon": 0.0, "lat": 38.93518983333333, "bike_id": "1eaa3300fc04a646e439bd7bc73d58cc", "type": "electric_scooter", "is_reserved": 0, "lon": -77.08702816666667}, {"fusion_lat": 0.0, "name": "67bd1091672c07f25d971d1f6896163e", "is_disabled": 0, "rental_uris": {"android": "https://dc.lft.to/lastmile_qr_scan", "ios": "https://dc.lft.to/lastmile_qr_scan"}, "fusion_lon": 0.0, "lat": 38.95728716666667, "bike_id": "67bd1091672c07f25d971d1f6896163e", "type": "electric_scooter", "is_reserved": 0, "lon": -77.02403566666666}, {"fusion_lat": 0.0, "name": "38e711e3cb74be0e4bde07047b4782ca", "is_disabled": 0, "rental_uris": {"android": "https://dc.lft.to/lastmile_qr_scan", "ios": "https://dc.lft.to/lastmile_qr_scan"}, "fusion_lon": 0.0, "lat": 38.87653983333333, "bike_id": "38e711e3cb74be0e4bde07047b4782ca", "type": "electric_scooter", "is_reserved": 0, "lon": -77.00111666666666}, {"fusion_lat": 0.0, "name": "3d5765af58ac0e1598670ff7b7f66513", "is_disabled": 0, "rental_uris": {"android": "https://dc.lft.to/lastmile_qr_scan", "ios": "https://dc.lft.to/lastmile_qr_scan"}, "fusion_lon": 0.0, "lat": 38.91819683333333, "bike_id": "3d5765af58ac0e1598670ff7b7f66513", "type": "electric_scooter", "is_reserved": 0, "lon": -77.02408266666667}, {"fusion_lat": 0.0, "name": "f65c7a47aed361800be4e9f72eed51df", "is_disabled": 0, "rental_uris": {"android": "https://dc.lft.to/lastmile_qr_scan", "ios": "https://dc.lft.to/lastmile_qr_scan"}, "fusion_lon": 0.0, "lat": 38.8974265, "bike_id": "f65c7a47aed361800be4e9f72eed51df", "type": "electric_scooter", "is_reserved": 0, "lon": -77.000092}, {"fusion_lat": 0.0, "name": "c4cca15282a2f547dc7480413b1bc462", "is_disabled": 0, "rental_uris": {"android": "https://dc.lft.to/lastmile_qr_scan", "ios": "https://dc.lft.to/lastmile_qr_scan"}, "fusion_lon": 0.0, "lat": 38.900295166666666, "bike_id": "c4cca15282a2f547dc7480413b1bc462", "type": "electric_scooter", "is_reserved": 0, "lon": -77.01183783333333}, {"fusion_lat": 0.0, "name": "4f6427021d7367d130ceb1316de95809", "is_disabled": 0, "rental_uris": {"android": "https://dc.lft.to/lastmile_qr_scan", "ios": "https://dc.lft.to/lastmile_qr_scan"}, "fusion_lon": 0.0, "lat": 38.93058, "bike_id": "4f6427021d7367d130ceb1316de95809", "type": "electric_scooter", "is_reserved": 0, "lon": -77.039446}, {"fusion_lat": 0.0, "name": "615382aea7d2e9aebea073c8a4b5f345", "is_disabled": 0, "rental_uris": {"android": "https://dc.lft.to/lastmile_qr_scan", "ios": "https://dc.lft.to/lastmile_qr_scan"}, "fusion_lon": 0.0, "lat": 38.897260833333334, "bike_id": "615382aea7d2e9aebea073c8a4b5f345", "type": "electric_scooter", "is_reserved": 0, "lon": -77.02327466666667}, {"fusion_lat": 0.0, "name": "d357fe9607d6470167c73c09c9266f9f", "is_disabled": 0, "rental_uris": {"android": "https://dc.lft.to/lastmile_qr_scan", "ios": "https://dc.lft.to/lastmile_qr_scan"}, "fusion_lon": 0.0, "lat": 38.90513933333333, "bike_id": "d357fe9607d6470167c73c09c9266f9f", "type": "electric_scooter", "is_reserved": 0, "lon": -77.0348425}, {"fusion_lat": 0.0, "name": "ba0a9d66cf0b81afaa3ba4ca3406bd19", "is_disabled": 0, "rental_uris": {"android": "https://dc.lft.to/lastmile_qr_scan", "ios": "https://dc.lft.to/lastmile_qr_scan"}, "fusion_lon": 0.0, "lat": 38.907241666666664, "bike_id": "ba0a9d66cf0b81afaa3ba4ca3406bd19", "type": "electric_scooter", "is_reserved": 0, "lon": -77.04353083333334}, {"fusion_lat": 0.0, "name": "7456f9722ab3bdb3a9d535c828f8b066", "is_disabled": 0, "rental_uris": {"android": "https://dc.lft.to/lastmile_qr_scan", "ios": "https://dc.lft.to/lastmile_qr_scan"}, "fusion_lon": 0.0, "lat": 38.9091935, "bike_id": "7456f9722ab3bdb3a9d535c828f8b066", "type": "electric_scooter", "is_reserved": 0, "lon": -77.04577316666666}, {"fusion_lat": 0.0, "name": "941b60d49b57a45083fc3a140ba063b0", "is_disabled": 0, "rental_uris": {"android": "https://dc.lft.to/lastmile_qr_scan", "ios": "https://dc.lft.to/lastmile_qr_scan"}, "fusion_lon": 0.0, "lat": 38.904067, "bike_id": "941b60d49b57a45083fc3a140ba063b0", "type": "electric_scooter", "is_reserved": 0, "lon": -77.06770583333333}, {"fusion_lat": 0.0, "name": "5104bf9cf646328ac5dcd0abfc3b41ff", "is_disabled": 0, "rental_uris": {"android": "https://dc.lft.to/lastmile_qr_scan", "ios": "https://dc.lft.to/lastmile_qr_scan"}, "fusion_lon": 0.0, "lat": 38.90838, "bike_id": "5104bf9cf646328ac5dcd0abfc3b41ff", "type": "electric_scooter", "is_reserved": 0, "lon": -77.02699833333334}, {"fusion_lat": 0.0, "name": "027854d0e71a639439b2be56b178472a", "is_disabled": 0, "rental_uris": {"android": "https://dc.lft.to/lastmile_qr_scan", "ios": "https://dc.lft.to/lastmile_qr_scan"}, "fusion_lon": 0.0, "lat": 38.898377833333335, "bike_id": "027854d0e71a639439b2be56b178472a", "type": "electric_scooter", "is_reserved": 0, "lon": -77.02418116666666}, {"fusion_lat": 0.0, "name": "29f2def3893ae4e51c2bd98951342bd9", "is_disabled": 0, "rental_uris": {"android": "https://dc.lft.to/lastmile_qr_scan", "ios": "https://dc.lft.to/lastmile_qr_scan"}, "fusion_lon": 0.0, "lat": 38.88713583333333, "bike_id": "29f2def3893ae4e51c2bd98951342bd9", "type": "electric_scooter", "is_reserved": 0, "lon": -77.02206466666667}, {"fusion_lat": 0.0, "name": "adf4a905442b96912e5d5c2d48d8e22a", "is_disabled": 0, "rental_uris": {"android": "https://dc.lft.to/lastmile_qr_scan", "ios": "https://dc.lft.to/lastmile_qr_scan"}, "fusion_lon": 0.0, "lat": 38.89879833333333, "bike_id": "adf4a905442b96912e5d5c2d48d8e22a", "type": "electric_scooter", "is_reserved": 0, "lon": -77.021781}, {"fusion_lat": 0.0, "name": "7b48895b275009c72892693b66ef98cc", "is_disabled": 0, "rental_uris": {"android": "https://dc.lft.to/lastmile_qr_scan", "ios": "https://dc.lft.to/lastmile_qr_scan"}, "fusion_lon": 0.0, "lat": 38.91617866666667, "bike_id": "7b48895b275009c72892693b66ef98cc", "type": "electric_scooter", "is_reserved": 0, "lon": -77.01119566666667}, {"fusion_lat": 0.0, "name": "c7add3667b648534bf48dce3a31d0f39", "is_disabled": 0, "rental_uris": {"android": "https://dc.lft.to/lastmile_qr_scan", "ios": "https://dc.lft.to/lastmile_qr_scan"}, "fusion_lon": 0.0, "lat": 38.916954, "bike_id": "c7add3667b648534bf48dce3a31d0f39", "type": "electric_scooter", "is_reserved": 0, "lon": -77.04111383333333}, {"fusion_lat": 0.0, "name": "454223513d6c741f6a3a8f9d135922f2", "is_disabled": 0, "rental_uris": {"android": "https://dc.lft.to/lastmile_qr_scan", "ios": "https://dc.lft.to/lastmile_qr_scan"}, "fusion_lon": 0.0, "lat": 38.899858, "bike_id": "454223513d6c741f6a3a8f9d135922f2", "type": "electric_scooter", "is_reserved": 0, "lon": -76.9843745}, {"fusion_lat": 0.0, "name": "176d0ff6a52133f0b1e0ed84c1e1a5a4", "is_disabled": 0, "rental_uris": {"android": "https://dc.lft.to/lastmile_qr_scan", "ios": "https://dc.lft.to/lastmile_qr_scan"}, "fusion_lon": 0.0, "lat": 38.924135666666665, "bike_id": "176d0ff6a52133f0b1e0ed84c1e1a5a4", "type": "electric_scooter", "is_reserved": 0, "lon": -77.03643283333334}, {"fusion_lat": 0.0, "name": "89c7235176fecd81e4b0a812f3d4fdf0", "is_disabled": 0, "rental_uris": {"android": "https://dc.lft.to/lastmile_qr_scan", "ios": "https://dc.lft.to/lastmile_qr_scan"}, "fusion_lon": 0.0, "lat": 38.928305333333334, "bike_id": "89c7235176fecd81e4b0a812f3d4fdf0", "type": "electric_scooter", "is_reserved": 0, "lon": -77.05973133333333}, {"fusion_lat": 0.0, "name": "29fae23e106f0d590e0e366182ad9b45", "is_disabled": 0, "rental_uris": {"android": "https://dc.lft.to/lastmile_qr_scan", "ios": "https://dc.lft.to/lastmile_qr_scan"}, "fusion_lon": 0.0, "lat": 38.900379666666666, "bike_id": "29fae23e106f0d590e0e366182ad9b45", "type": "electric_scooter", "is_reserved": 0, "lon": -77.00185716666667}, {"fusion_lat": 0.0, "name": "a9f9a540e8dd31e291936fda6d1d91c9", "is_disabled": 0, "rental_uris": {"android": "https://dc.lft.to/lastmile_qr_scan", "ios": "https://dc.lft.to/lastmile_qr_scan"}, "fusion_lon": 0.0, "lat": 39.036067, "bike_id": "a9f9a540e8dd31e291936fda6d1d91c9", "type": "electric_bike", "is_reserved": 0, "lon": -77.055478}, {"fusion_lat": 0.0, "name": "e1c955b670fc500a95991bea620612ac", "is_disabled": 0, "rental_uris": {"android": "https://dc.lft.to/lastmile_qr_scan", "ios": "https://dc.lft.to/lastmile_qr_scan"}, "fusion_lon": 0.0, "lat": 38.91642816666667, "bike_id": "e1c955b670fc500a95991bea620612ac", "type": "electric_scooter", "is_reserved": 0, "lon": -77.04797633333334}, {"fusion_lat": 0.0, "name": "286ee03e43a830c441a849f20ad5fee1", "is_disabled": 0, "rental_uris": {"android": "https://dc.lft.to/lastmile_qr_scan", "ios": "https://dc.lft.to/lastmile_qr_scan"}, "fusion_lon": 0.0, "lat": 38.92177016666667, "bike_id": "286ee03e43a830c441a849f20ad5fee1", "type": "electric_scooter", "is_reserved": 0, "lon": -77.036596}, {"fusion_lat": 0.0, "name": "e952d84c1f80293740c846e7c2ce5448", "is_disabled": 0, "rental_uris": {"android": "https://dc.lft.to/lastmile_qr_scan", "ios": "https://dc.lft.to/lastmile_qr_scan"}, "fusion_lon": 0.0, "lat": 38.90852616666667, "bike_id": "e952d84c1f80293740c846e7c2ce5448", "type": "electric_scooter", "is_reserved": 0, "lon": -77.04297483333333}, {"fusion_lat": 0.0, "name": "318baebd8e029ea0180aa3fd597b47d2", "is_disabled": 0, "rental_uris": {"android": "https://dc.lft.to/lastmile_qr_scan", "ios": "https://dc.lft.to/lastmile_qr_scan"}, "fusion_lon": 0.0, "lat": 38.923573833333336, "bike_id": "318baebd8e029ea0180aa3fd597b47d2", "type": "electric_scooter", "is_reserved": 0, "lon": -77.04331016666667}, {"fusion_lat": 0.0, "name": "867fa034eb1770699da4797b35d4cfaf", "is_disabled": 0, "rental_uris": {"android": "https://dc.lft.to/lastmile_qr_scan", "ios": "https://dc.lft.to/lastmile_qr_scan"}, "fusion_lon": 0.0, "lat": 38.916825333333335, "bike_id": "867fa034eb1770699da4797b35d4cfaf", "type": "electric_scooter", "is_reserved": 0, "lon": -77.04141633333333}, {"fusion_lat": 0.0, "name": "2d5741bf944a267789952171f369f17d", "is_disabled": 0, "rental_uris": {"android": "https://dc.lft.to/lastmile_qr_scan", "ios": "https://dc.lft.to/lastmile_qr_scan"}, "fusion_lon": 0.0, "lat": 38.906116, "bike_id": "2d5741bf944a267789952171f369f17d", "type": "electric_scooter", "is_reserved": 0, "lon": -77.05898266666667}, {"fusion_lat": 0.0, "name": "a92070d6da4230fd8513a9b8d5a3fcaa", "is_disabled": 0, "rental_uris": {"android": "https://dc.lft.to/lastmile_qr_scan", "ios": "https://dc.lft.to/lastmile_qr_scan"}, "fusion_lon": 0.0, "lat": 38.90031166666667, "bike_id": "a92070d6da4230fd8513a9b8d5a3fcaa", "type": "electric_bike", "is_reserved": 0, "lon": -76.98750666666666}, {"fusion_lat": 0.0, "name": "835e8bdd6d77921c93e8ca815fa48a7d", "is_disabled": 0, "rental_uris": {"android": "https://dc.lft.to/lastmile_qr_scan", "ios": "https://dc.lft.to/lastmile_qr_scan"}, "fusion_lon": 0.0, "lat": 38.93508966666667, "bike_id": "835e8bdd6d77921c93e8ca815fa48a7d", "type": "electric_scooter", "is_reserved": 0, "lon": -77.03279983333333}, {"fusion_lat": 0.0, "name": "23884c389a9a8cbcf34b3398825ada25", "is_disabled": 0, "rental_uris": {"android": "https://dc.lft.to/lastmile_qr_scan", "ios": "https://dc.lft.to/lastmile_qr_scan"}, "fusion_lon": 0.0, "lat": 38.92244383333333, "bike_id": "23884c389a9a8cbcf34b3398825ada25", "type": "electric_scooter", "is_reserved": 0, "lon": -77.07477}, {"fusion_lat": 0.0, "name": "bea07959e01cebf2d56fe72ee812209c", "is_disabled": 0, "rental_uris": {"android": "https://dc.lft.to/lastmile_qr_scan", "ios": "https://dc.lft.to/lastmile_qr_scan"}, "fusion_lon": 0.0, "lat": 38.920620666666665, "bike_id": "bea07959e01cebf2d56fe72ee812209c", "type": "electric_scooter", "is_reserved": 0, "lon": -77.04258216666666}, {"fusion_lat": 0.0, "name": "3f3130a62465192bef0df2f2ed344a39", "is_disabled": 0, "rental_uris": {"android": "https://dc.lft.to/lastmile_qr_scan", "ios": "https://dc.lft.to/lastmile_qr_scan"}, "fusion_lon": 0.0, "lat": 38.924793333333334, "bike_id": "3f3130a62465192bef0df2f2ed344a39", "type": "electric_scooter", "is_reserved": 0, "lon": -77.02632233333334}, {"fusion_lat": 0.0, "name": "a6bc5542803a315d85e9fc7948efd479", "is_disabled": 0, "rental_uris": {"android": "https://dc.lft.to/lastmile_qr_scan", "ios": "https://dc.lft.to/lastmile_qr_scan"}, "fusion_lon": 0.0, "lat": 38.88326433333334, "bike_id": "a6bc5542803a315d85e9fc7948efd479", "type": "electric_scooter", "is_reserved": 0, "lon": -77.0177215}, {"fusion_lat": 0.0, "name": "aefbccc8210ba285f7092afcd8b95e73", "is_disabled": 0, "rental_uris": {"android": "https://dc.lft.to/lastmile_qr_scan", "ios": "https://dc.lft.to/lastmile_qr_scan"}, "fusion_lon": 0.0, "lat": 38.931938833333334, "bike_id": "aefbccc8210ba285f7092afcd8b95e73", "type": "electric_bike", "is_reserved": 0, "lon": -77.22937533333334}, {"fusion_lat": 0.0, "name": "ef5b5959b99e8ba437152422f97cde92", "is_disabled": 0, "rental_uris": {"android": "https://dc.lft.to/lastmile_qr_scan", "ios": "https://dc.lft.to/lastmile_qr_scan"}, "fusion_lon": 0.0, "lat": 38.90024833333333, "bike_id": "ef5b5959b99e8ba437152422f97cde92", "type": "electric_scooter", "is_reserved": 0, "lon": -77.00202533333334}, {"fusion_lat": 0.0, "name": "884cf75adc1e787d3ba0fd875d9cc3c3", "is_disabled": 0, "rental_uris": {"android": "https://dc.lft.to/lastmile_qr_scan", "ios": "https://dc.lft.to/lastmile_qr_scan"}, "fusion_lon": 0.0, "lat": 38.892599833333335, "bike_id": "884cf75adc1e787d3ba0fd875d9cc3c3", "type": "electric_scooter", "is_reserved": 0, "lon": -77.025939}, {"fusion_lat": 0.0, "name": "619af8dbe8fde8902d87ef1e478055fd", "is_disabled": 0, "rental_uris": {"android": "https://dc.lft.to/lastmile_qr_scan", "ios": "https://dc.lft.to/lastmile_qr_scan"}, "fusion_lon": 0.0, "lat": 38.92451333333333, "bike_id": "619af8dbe8fde8902d87ef1e478055fd", "type": "electric_scooter", "is_reserved": 0, "lon": -77.02403116666666}, {"fusion_lat": 0.0, "name": "e7a2664c3a83ae8650e0706e254f8934", "is_disabled": 0, "rental_uris": {"android": "https://dc.lft.to/lastmile_qr_scan", "ios": "https://dc.lft.to/lastmile_qr_scan"}, "fusion_lon": 0.0, "lat": 38.93483716666667, "bike_id": "e7a2664c3a83ae8650e0706e254f8934", "type": "electric_scooter", "is_reserved": 0, "lon": -77.04533066666667}, {"fusion_lat": 0.0, "name": "16116d1e3ed5d1a82ed5e2f8754f147d", "is_disabled": 0, "rental_uris": {"android": "https://dc.lft.to/lastmile_qr_scan", "ios": "https://dc.lft.to/lastmile_qr_scan"}, "fusion_lon": 0.0, "lat": 38.92132616666667, "bike_id": "16116d1e3ed5d1a82ed5e2f8754f147d", "type": "electric_scooter", "is_reserved": 0, "lon": -77.04703733333334}, {"fusion_lat": 0.0, "name": "5e7f21c7e2123bed0c68fd56b31c42b1", "is_disabled": 0, "rental_uris": {"android": "https://dc.lft.to/lastmile_qr_scan", "ios": "https://dc.lft.to/lastmile_qr_scan"}, "fusion_lon": 0.0, "lat": 38.95377666666667, "bike_id": "5e7f21c7e2123bed0c68fd56b31c42b1", "type": "electric_bike", "is_reserved": 0, "lon": -76.97959816666666}, {"fusion_lat": 0.0, "name": "39138dc13ca1ec1817c367479424db28", "is_disabled": 0, "rental_uris": {"android": "https://dc.lft.to/lastmile_qr_scan", "ios": "https://dc.lft.to/lastmile_qr_scan"}, "fusion_lon": 0.0, "lat": 38.871789, "bike_id": "39138dc13ca1ec1817c367479424db28", "type": "electric_scooter", "is_reserved": 0, "lon": -77.00615933333333}, {"fusion_lat": 0.0, "name": "442dc04d44d496e076e765ed4d8d791b", "is_disabled": 0, "rental_uris": {"android": "https://dc.lft.to/lastmile_qr_scan", "ios": "https://dc.lft.to/lastmile_qr_scan"}, "fusion_lon": 0.0, "lat": 38.90460516666667, "bike_id": "442dc04d44d496e076e765ed4d8d791b", "type": "electric_scooter", "is_reserved": 0, "lon": -77.00343333333333}, {"fusion_lat": 0.0, "name": "00e8ed0d387c81a76cf0ccf13cb1a702", "is_disabled": 0, "rental_uris": {"android": "https://dc.lft.to/lastmile_qr_scan", "ios": "https://dc.lft.to/lastmile_qr_scan"}, "fusion_lon": 0.0, "lat": 38.902716833333336, "bike_id": "00e8ed0d387c81a76cf0ccf13cb1a702", "type": "electric_scooter", "is_reserved": 0, "lon": -76.97674}, {"fusion_lat": 0.0, "name": "2bb7aa907c29f6c1712988190bed47cc", "is_disabled": 0, "rental_uris": {"android": "https://dc.lft.to/lastmile_qr_scan", "ios": "https://dc.lft.to/lastmile_qr_scan"}, "fusion_lon": 0.0, "lat": 38.927013, "bike_id": "2bb7aa907c29f6c1712988190bed47cc", "type": "electric_scooter", "is_reserved": 0, "lon": -77.02070716666667}, {"fusion_lat": 0.0, "name": "81ac12d9123cd9ccbafde1418e83d3ac", "is_disabled": 0, "rental_uris": {"android": "https://dc.lft.to/lastmile_qr_scan", "ios": "https://dc.lft.to/lastmile_qr_scan"}, "fusion_lon": 0.0, "lat": 38.923456333333334, "bike_id": "81ac12d9123cd9ccbafde1418e83d3ac", "type": "electric_scooter", "is_reserved": 0, "lon": -77.02016633333334}, {"fusion_lat": 0.0, "name": "3fd9416891f1bd4af73cf40da4fee155", "is_disabled": 0, "rental_uris": {"android": "https://dc.lft.to/lastmile_qr_scan", "ios": "https://dc.lft.to/lastmile_qr_scan"}, "fusion_lon": 0.0, "lat": 38.915238333333335, "bike_id": "3fd9416891f1bd4af73cf40da4fee155", "type": "electric_scooter", "is_reserved": 0, "lon": -77.072718}, {"fusion_lat": 0.0, "name": "07ba3f26334cdf6b7fdd8ce274d84855", "is_disabled": 0, "rental_uris": {"android": "https://dc.lft.to/lastmile_qr_scan", "ios": "https://dc.lft.to/lastmile_qr_scan"}, "fusion_lon": 0.0, "lat": 38.90024783333333, "bike_id": "07ba3f26334cdf6b7fdd8ce274d84855", "type": "electric_scooter", "is_reserved": 0, "lon": -76.99744216666667}, {"fusion_lat": 0.0, "name": "e09a3768d09c0ef2167bf27f8d664065", "is_disabled": 0, "rental_uris": {"android": "https://dc.lft.to/lastmile_qr_scan", "ios": "https://dc.lft.to/lastmile_qr_scan"}, "fusion_lon": 0.0, "lat": 38.8922385, "bike_id": "e09a3768d09c0ef2167bf27f8d664065", "type": "electric_scooter", "is_reserved": 0, "lon": -77.04402683333333}, {"fusion_lat": 0.0, "name": "8d9125355674dcaa7d338f57c1e9daa1", "is_disabled": 0, "rental_uris": {"android": "https://dc.lft.to/lastmile_qr_scan", "ios": "https://dc.lft.to/lastmile_qr_scan"}, "fusion_lon": 0.0, "lat": 38.90351733333333, "bike_id": "8d9125355674dcaa7d338f57c1e9daa1", "type": "electric_scooter", "is_reserved": 0, "lon": -76.97476816666666}, {"fusion_lat": 0.0, "name": "121184c1c6ed4a03bab58b176ca0ad29", "is_disabled": 0, "rental_uris": {"android": "https://dc.lft.to/lastmile_qr_scan", "ios": "https://dc.lft.to/lastmile_qr_scan"}, "fusion_lon": 0.0, "lat": 38.883201, "bike_id": "121184c1c6ed4a03bab58b176ca0ad29", "type": "electric_scooter", "is_reserved": 0, "lon": -77.0137385}, {"fusion_lat": 0.0, "name": "a3e6334630c6ad745c5a48c880f15824", "is_disabled": 0, "rental_uris": {"android": "https://dc.lft.to/lastmile_qr_scan", "ios": "https://dc.lft.to/lastmile_qr_scan"}, "fusion_lon": 0.0, "lat": 38.909726, "bike_id": "a3e6334630c6ad745c5a48c880f15824", "type": "electric_scooter", "is_reserved": 0, "lon": -77.048729}, {"fusion_lat": 0.0, "name": "f41a633efe1cb2002c2a4a10f27e6680", "is_disabled": 0, "rental_uris": {"android": "https://dc.lft.to/lastmile_qr_scan", "ios": "https://dc.lft.to/lastmile_qr_scan"}, "fusion_lon": 0.0, "lat": 38.90901233333334, "bike_id": "f41a633efe1cb2002c2a4a10f27e6680", "type": "electric_scooter", "is_reserved": 0, "lon": -77.002996}, {"fusion_lat": 0.0, "name": "980ab7fe0d316f2291f05171eee81e4b", "is_disabled": 0, "rental_uris": {"android": "https://dc.lft.to/lastmile_qr_scan", "ios": "https://dc.lft.to/lastmile_qr_scan"}, "fusion_lon": 0.0, "lat": 38.88734733333333, "bike_id": "980ab7fe0d316f2291f05171eee81e4b", "type": "electric_scooter", "is_reserved": 0, "lon": -77.01470533333334}, {"fusion_lat": 0.0, "name": "0671b84057f5346b81bf45bbf76234aa", "is_disabled": 0, "rental_uris": {"android": "https://dc.lft.to/lastmile_qr_scan", "ios": "https://dc.lft.to/lastmile_qr_scan"}, "fusion_lon": 0.0, "lat": 38.90291416666667, "bike_id": "0671b84057f5346b81bf45bbf76234aa", "type": "electric_scooter", "is_reserved": 0, "lon": -77.05807116666666}, {"fusion_lat": 0.0, "name": "4a35efbea8d015653bb6e1c750430007", "is_disabled": 0, "rental_uris": {"android": "https://dc.lft.to/lastmile_qr_scan", "ios": "https://dc.lft.to/lastmile_qr_scan"}, "fusion_lon": 0.0, "lat": 38.917926333333334, "bike_id": "4a35efbea8d015653bb6e1c750430007", "type": "electric_scooter", "is_reserved": 0, "lon": -77.0346355}, {"fusion_lat": 0.0, "name": "4735e6999995852b8d25a4004653c961", "is_disabled": 0, "rental_uris": {"android": "https://dc.lft.to/lastmile_qr_scan", "ios": "https://dc.lft.to/lastmile_qr_scan"}, "fusion_lon": 0.0, "lat": 38.91912633333333, "bike_id": "4735e6999995852b8d25a4004653c961", "type": "electric_scooter", "is_reserved": 0, "lon": -77.02449533333333}, {"fusion_lat": 0.0, "name": "f28f9d3c67af1c68b43332b03cfd5ca5", "is_disabled": 0, "rental_uris": {"android": "https://dc.lft.to/lastmile_qr_scan", "ios": "https://dc.lft.to/lastmile_qr_scan"}, "fusion_lon": 0.0, "lat": 38.896335, "bike_id": "f28f9d3c67af1c68b43332b03cfd5ca5", "type": "electric_scooter", "is_reserved": 0, "lon": -77.03225283333333}, {"fusion_lat": 0.0, "name": "4135633e692c0684b1a20c33d90f8fd1", "is_disabled": 0, "rental_uris": {"android": "https://dc.lft.to/lastmile_qr_scan", "ios": "https://dc.lft.to/lastmile_qr_scan"}, "fusion_lon": 0.0, "lat": 38.8960755, "bike_id": "4135633e692c0684b1a20c33d90f8fd1", "type": "electric_scooter", "is_reserved": 0, "lon": -77.00928316666666}, {"fusion_lat": 0.0, "name": "1dd3044e4fcaec67f1a1dd181d6b8fb9", "is_disabled": 0, "rental_uris": {"android": "https://dc.lft.to/lastmile_qr_scan", "ios": "https://dc.lft.to/lastmile_qr_scan"}, "fusion_lon": 0.0, "lat": 38.905719500000004, "bike_id": "1dd3044e4fcaec67f1a1dd181d6b8fb9", "type": "electric_scooter", "is_reserved": 0, "lon": -77.02202883333334}, {"fusion_lat": 0.0, "name": "4b0d3bc4c5004b8c4f3bc24677355308", "is_disabled": 0, "rental_uris": {"android": "https://dc.lft.to/lastmile_qr_scan", "ios": "https://dc.lft.to/lastmile_qr_scan"}, "fusion_lon": 0.0, "lat": 38.905847666666666, "bike_id": "4b0d3bc4c5004b8c4f3bc24677355308", "type": "electric_scooter", "is_reserved": 0, "lon": -77.046397}, {"fusion_lat": 0.0, "name": "d2a63813f6666c0cef47a3a9364ddae5", "is_disabled": 0, "rental_uris": {"android": "https://dc.lft.to/lastmile_qr_scan", "ios": "https://dc.lft.to/lastmile_qr_scan"}, "fusion_lon": 0.0, "lat": 38.92370566666666, "bike_id": "d2a63813f6666c0cef47a3a9364ddae5", "type": "electric_scooter", "is_reserved": 0, "lon": -77.021407}, {"fusion_lat": 0.0, "name": "19b57e1830f83c286cbeb957a6be32c3", "is_disabled": 0, "rental_uris": {"android": "https://dc.lft.to/lastmile_qr_scan", "ios": "https://dc.lft.to/lastmile_qr_scan"}, "fusion_lon": 0.0, "lat": 38.91328133333333, "bike_id": "19b57e1830f83c286cbeb957a6be32c3", "type": "electric_scooter", "is_reserved": 0, "lon": -77.02129233333334}, {"fusion_lat": 0.0, "name": "c985d8eb08d77cbe14dbf99bacf537c5", "is_disabled": 0, "rental_uris": {"android": "https://dc.lft.to/lastmile_qr_scan", "ios": "https://dc.lft.to/lastmile_qr_scan"}, "fusion_lon": 0.0, "lat": 38.883177333333336, "bike_id": "c985d8eb08d77cbe14dbf99bacf537c5", "type": "electric_scooter", "is_reserved": 0, "lon": -77.01675966666667}, {"fusion_lat": 0.0, "name": "87e60b61c7769cd4c024b5cc2945038c", "is_disabled": 0, "rental_uris": {"android": "https://dc.lft.to/lastmile_qr_scan", "ios": "https://dc.lft.to/lastmile_qr_scan"}, "fusion_lon": 0.0, "lat": 38.90787683333333, "bike_id": "87e60b61c7769cd4c024b5cc2945038c", "type": "electric_scooter", "is_reserved": 0, "lon": -77.034464}, {"fusion_lat": 0.0, "name": "9e9660a1a5213e4f482cb3d996e907e2", "is_disabled": 0, "rental_uris": {"android": "https://dc.lft.to/lastmile_qr_scan", "ios": "https://dc.lft.to/lastmile_qr_scan"}, "fusion_lon": 0.0, "lat": 38.929623, "bike_id": "9e9660a1a5213e4f482cb3d996e907e2", "type": "electric_scooter", "is_reserved": 0, "lon": -77.05521566666667}, {"fusion_lat": 0.0, "name": "ce34c223e3c34155b844adc740ca6813", "is_disabled": 0, "rental_uris": {"android": "https://dc.lft.to/lastmile_qr_scan", "ios": "https://dc.lft.to/lastmile_qr_scan"}, "fusion_lon": 0.0, "lat": 38.884898, "bike_id": "ce34c223e3c34155b844adc740ca6813", "type": "electric_scooter", "is_reserved": 0, "lon": -77.01083733333333}, {"fusion_lat": 0.0, "name": "9b6bd5bc8c490b9d5a1ea7e03c144270", "is_disabled": 0, "rental_uris": {"android": "https://dc.lft.to/lastmile_qr_scan", "ios": "https://dc.lft.to/lastmile_qr_scan"}, "fusion_lon": 0.0, "lat": 38.92338483333333, "bike_id": "9b6bd5bc8c490b9d5a1ea7e03c144270", "type": "electric_scooter", "is_reserved": 0, "lon": -77.03640116666666}, {"fusion_lat": 0.0, "name": "4370af7733f7db14e5bad4e6d1195f11", "is_disabled": 0, "rental_uris": {"android": "https://dc.lft.to/lastmile_qr_scan", "ios": "https://dc.lft.to/lastmile_qr_scan"}, "fusion_lon": 0.0, "lat": 38.88470816666667, "bike_id": "4370af7733f7db14e5bad4e6d1195f11", "type": "electric_scooter", "is_reserved": 0, "lon": -77.015388}, {"fusion_lat": 0.0, "name": "cb8ca0e4fbc68444d42bf604dce6725a", "is_disabled": 0, "rental_uris": {"android": "https://dc.lft.to/lastmile_qr_scan", "ios": "https://dc.lft.to/lastmile_qr_scan"}, "fusion_lon": 0.0, "lat": 38.932353666666664, "bike_id": "cb8ca0e4fbc68444d42bf604dce6725a", "type": "electric_scooter", "is_reserved": 0, "lon": -77.02834983333334}, {"fusion_lat": 0.0, "name": "94103f7f0eb085711e47f5691198ee47", "is_disabled": 0, "rental_uris": {"android": "https://dc.lft.to/lastmile_qr_scan", "ios": "https://dc.lft.to/lastmile_qr_scan"}, "fusion_lon": 0.0, "lat": 38.907608, "bike_id": "94103f7f0eb085711e47f5691198ee47", "type": "electric_scooter", "is_reserved": 0, "lon": -77.03857916666666}, {"fusion_lat": 0.0, "name": "99c8415d444ace51d7141b4ef545cf74", "is_disabled": 0, "rental_uris": {"android": "https://dc.lft.to/lastmile_qr_scan", "ios": "https://dc.lft.to/lastmile_qr_scan"}, "fusion_lon": 0.0, "lat": 38.845042, "bike_id": "99c8415d444ace51d7141b4ef545cf74", "type": "electric_bike", "is_reserved": 0, "lon": -76.993567}, {"fusion_lat": 0.0, "name": "d824416d1d70b3b9e7c71d5600780bc2", "is_disabled": 0, "rental_uris": {"android": "https://dc.lft.to/lastmile_qr_scan", "ios": "https://dc.lft.to/lastmile_qr_scan"}, "fusion_lon": 0.0, "lat": 38.923823166666665, "bike_id": "d824416d1d70b3b9e7c71d5600780bc2", "type": "electric_scooter", "is_reserved": 0, "lon": -77.07536333333333}, {"fusion_lat": 0.0, "name": "3fb7ac5a50140867b61fbe53c16d6655", "is_disabled": 0, "rental_uris": {"android": "https://dc.lft.to/lastmile_qr_scan", "ios": "https://dc.lft.to/lastmile_qr_scan"}, "fusion_lon": 0.0, "lat": 38.907267833333336, "bike_id": "3fb7ac5a50140867b61fbe53c16d6655", "type": "electric_scooter", "is_reserved": 0, "lon": -77.04348783333333}, {"fusion_lat": 0.0, "name": "fb22bd29cbbb67c099ab9cf000909ee8", "is_disabled": 0, "rental_uris": {"android": "https://dc.lft.to/lastmile_qr_scan", "ios": "https://dc.lft.to/lastmile_qr_scan"}, "fusion_lon": 0.0, "lat": 38.904124333333336, "bike_id": "fb22bd29cbbb67c099ab9cf000909ee8", "type": "electric_scooter", "is_reserved": 0, "lon": -77.02405316666666}, {"fusion_lat": 0.0, "name": "13c89b1849f8205e237a0a3ce9f3cad1", "is_disabled": 0, "rental_uris": {"android": "https://dc.lft.to/lastmile_qr_scan", "ios": "https://dc.lft.to/lastmile_qr_scan"}, "fusion_lon": 0.0, "lat": 38.90371833333333, "bike_id": "13c89b1849f8205e237a0a3ce9f3cad1", "type": "electric_scooter", "is_reserved": 0, "lon": -77.03192516666667}, {"fusion_lat": 0.0, "name": "48f444254d1010259afcf6e3653a8d23", "is_disabled": 0, "rental_uris": {"android": "https://dc.lft.to/lastmile_qr_scan", "ios": "https://dc.lft.to/lastmile_qr_scan"}, "fusion_lon": 0.0, "lat": 38.89733733333333, "bike_id": "48f444254d1010259afcf6e3653a8d23", "type": "electric_scooter", "is_reserved": 0, "lon": -77.0318635}, {"fusion_lat": 0.0, "name": "fed8785947c1b7cec645fc45d53fadc1", "is_disabled": 0, "rental_uris": {"android": "https://dc.lft.to/lastmile_qr_scan", "ios": "https://dc.lft.to/lastmile_qr_scan"}, "fusion_lon": 0.0, "lat": 38.9385875, "bike_id": "fed8785947c1b7cec645fc45d53fadc1", "type": "electric_scooter", "is_reserved": 0, "lon": -77.02327433333333}, {"fusion_lat": 0.0, "name": "cb2378fdf8860a4b3a69fcb4e0185189", "is_disabled": 0, "rental_uris": {"android": "https://dc.lft.to/lastmile_qr_scan", "ios": "https://dc.lft.to/lastmile_qr_scan"}, "fusion_lon": 0.0, "lat": 38.902892, "bike_id": "cb2378fdf8860a4b3a69fcb4e0185189", "type": "electric_scooter", "is_reserved": 0, "lon": -76.97634383333333}, {"fusion_lat": 0.0, "name": "e7cf20cb3680156bc9f14bc3b5d917f0", "is_disabled": 0, "rental_uris": {"android": "https://dc.lft.to/lastmile_qr_scan", "ios": "https://dc.lft.to/lastmile_qr_scan"}, "fusion_lon": 0.0, "lat": 38.941511, "bike_id": "e7cf20cb3680156bc9f14bc3b5d917f0", "type": "electric_scooter", "is_reserved": 0, "lon": -77.02631433333333}, {"fusion_lat": 0.0, "name": "97b5bbb36ca80dd432d51ea25ef14028", "is_disabled": 0, "rental_uris": {"android": "https://dc.lft.to/lastmile_qr_scan", "ios": "https://dc.lft.to/lastmile_qr_scan"}, "fusion_lon": 0.0, "lat": 38.91994733333333, "bike_id": "97b5bbb36ca80dd432d51ea25ef14028", "type": "electric_scooter", "is_reserved": 0, "lon": -77.02180533333333}, {"fusion_lat": 0.0, "name": "85f3ba7bcbc168c137c33310146e84e2", "is_disabled": 0, "rental_uris": {"android": "https://dc.lft.to/lastmile_qr_scan", "ios": "https://dc.lft.to/lastmile_qr_scan"}, "fusion_lon": 0.0, "lat": 38.9030275, "bike_id": "85f3ba7bcbc168c137c33310146e84e2", "type": "electric_bike", "is_reserved": 0, "lon": -76.97652283333333}, {"fusion_lat": 0.0, "name": "abbefc29477a40042983d2dea976061f", "is_disabled": 0, "rental_uris": {"android": "https://dc.lft.to/lastmile_qr_scan", "ios": "https://dc.lft.to/lastmile_qr_scan"}, "fusion_lon": 0.0, "lat": 38.917589666666665, "bike_id": "abbefc29477a40042983d2dea976061f", "type": "electric_scooter", "is_reserved": 0, "lon": -77.02406383333333}, {"fusion_lat": 0.0, "name": "9628033e3e657697214a96cddd0768ec", "is_disabled": 0, "rental_uris": {"android": "https://dc.lft.to/lastmile_qr_scan", "ios": "https://dc.lft.to/lastmile_qr_scan"}, "fusion_lon": 0.0, "lat": 38.902632833333335, "bike_id": "9628033e3e657697214a96cddd0768ec", "type": "electric_scooter", "is_reserved": 0, "lon": -77.03935916666667}, {"fusion_lat": 0.0, "name": "07ed46a943af29468cb8baba229aa647", "is_disabled": 0, "rental_uris": {"android": "https://dc.lft.to/lastmile_qr_scan", "ios": "https://dc.lft.to/lastmile_qr_scan"}, "fusion_lon": 0.0, "lat": 38.96204383333333, "bike_id": "07ed46a943af29468cb8baba229aa647", "type": "electric_scooter", "is_reserved": 0, "lon": -77.022349}, {"fusion_lat": 0.0, "name": "357c769d3453f660b751a7d6d6952ba4", "is_disabled": 0, "rental_uris": {"android": "https://dc.lft.to/lastmile_qr_scan", "ios": "https://dc.lft.to/lastmile_qr_scan"}, "fusion_lon": 0.0, "lat": 38.9209825, "bike_id": "357c769d3453f660b751a7d6d6952ba4", "type": "electric_scooter", "is_reserved": 0, "lon": -77.0222675}, {"fusion_lat": 0.0, "name": "da460abef02a3571832d6d44bc816c05", "is_disabled": 0, "rental_uris": {"android": "https://dc.lft.to/lastmile_qr_scan", "ios": "https://dc.lft.to/lastmile_qr_scan"}, "fusion_lon": 0.0, "lat": 38.8873745, "bike_id": "da460abef02a3571832d6d44bc816c05", "type": "electric_scooter", "is_reserved": 0, "lon": -77.03212}, {"fusion_lat": 0.0, "name": "7a45af64046ba0732033dbd14acaa1b0", "is_disabled": 0, "rental_uris": {"android": "https://dc.lft.to/lastmile_qr_scan", "ios": "https://dc.lft.to/lastmile_qr_scan"}, "fusion_lon": 0.0, "lat": 38.895105666666666, "bike_id": "7a45af64046ba0732033dbd14acaa1b0", "type": "electric_scooter", "is_reserved": 0, "lon": -77.02954983333333}, {"fusion_lat": 0.0, "name": "cd2b13fa8d21a3f049b4abddc180ff76", "is_disabled": 0, "rental_uris": {"android": "https://dc.lft.to/lastmile_qr_scan", "ios": "https://dc.lft.to/lastmile_qr_scan"}, "fusion_lon": 0.0, "lat": 38.99771966666667, "bike_id": "cd2b13fa8d21a3f049b4abddc180ff76", "type": "electric_bike", "is_reserved": 0, "lon": -77.0471695}, {"fusion_lat": 0.0, "name": "37baec6b8c1e1a862f6ab1fa3cf46d5b", "is_disabled": 0, "rental_uris": {"android": "https://dc.lft.to/lastmile_qr_scan", "ios": "https://dc.lft.to/lastmile_qr_scan"}, "fusion_lon": 0.0, "lat": 38.933969166666664, "bike_id": "37baec6b8c1e1a862f6ab1fa3cf46d5b", "type": "electric_scooter", "is_reserved": 0, "lon": -77.057445}, {"fusion_lat": 0.0, "name": "abad3c3e194355afbfd888d80c59486d", "is_disabled": 0, "rental_uris": {"android": "https://dc.lft.to/lastmile_qr_scan", "ios": "https://dc.lft.to/lastmile_qr_scan"}, "fusion_lon": 0.0, "lat": 38.896184833333336, "bike_id": "abad3c3e194355afbfd888d80c59486d", "type": "electric_scooter", "is_reserved": 0, "lon": -77.03163516666666}, {"fusion_lat": 0.0, "name": "5c236fe4faf94b8e8a7506fd4c438ea3", "is_disabled": 0, "rental_uris": {"android": "https://dc.lft.to/lastmile_qr_scan", "ios": "https://dc.lft.to/lastmile_qr_scan"}, "fusion_lon": 0.0, "lat": 38.90582833333333, "bike_id": "5c236fe4faf94b8e8a7506fd4c438ea3", "type": "electric_scooter", "is_reserved": 0, "lon": -77.03867916666667}, {"fusion_lat": 0.0, "name": "e6479a53f86e2a55b884e4862e01cd33", "is_disabled": 0, "rental_uris": {"android": "https://dc.lft.to/lastmile_qr_scan", "ios": "https://dc.lft.to/lastmile_qr_scan"}, "fusion_lon": 0.0, "lat": 38.897134333333334, "bike_id": "e6479a53f86e2a55b884e4862e01cd33", "type": "electric_scooter", "is_reserved": 0, "lon": -77.0072265}, {"fusion_lat": 0.0, "name": "22ea70c24abbe166a9abec47918c4703", "is_disabled": 0, "rental_uris": {"android": "https://dc.lft.to/lastmile_qr_scan", "ios": "https://dc.lft.to/lastmile_qr_scan"}, "fusion_lon": 0.0, "lat": 38.9208755, "bike_id": "22ea70c24abbe166a9abec47918c4703", "type": "electric_scooter", "is_reserved": 0, "lon": -76.99486033333334}, {"fusion_lat": 0.0, "name": "3b19afa564750db24c0fd48859e684a6", "is_disabled": 0, "rental_uris": {"android": "https://dc.lft.to/lastmile_qr_scan", "ios": "https://dc.lft.to/lastmile_qr_scan"}, "fusion_lon": 0.0, "lat": 38.89010966666667, "bike_id": "3b19afa564750db24c0fd48859e684a6", "type": "electric_scooter", "is_reserved": 0, "lon": -76.937444}, {"fusion_lat": 0.0, "name": "be25060079789c7816494b0099c6f0c8", "is_disabled": 0, "rental_uris": {"android": "https://dc.lft.to/lastmile_qr_scan", "ios": "https://dc.lft.to/lastmile_qr_scan"}, "fusion_lon": 0.0, "lat": 38.92912283333333, "bike_id": "be25060079789c7816494b0099c6f0c8", "type": "electric_scooter", "is_reserved": 0, "lon": -77.033059}, {"fusion_lat": 0.0, "name": "f86574d7769d1d084824d699feace854", "is_disabled": 0, "rental_uris": {"android": "https://dc.lft.to/lastmile_qr_scan", "ios": "https://dc.lft.to/lastmile_qr_scan"}, "fusion_lon": 0.0, "lat": 38.898964666666664, "bike_id": "f86574d7769d1d084824d699feace854", "type": "electric_bike", "is_reserved": 0, "lon": -77.096246}, {"fusion_lat": 0.0, "name": "c6fdf962c2610896497e066db3c598e6", "is_disabled": 0, "rental_uris": {"android": "https://dc.lft.to/lastmile_qr_scan", "ios": "https://dc.lft.to/lastmile_qr_scan"}, "fusion_lon": 0.0, "lat": 38.990945833333335, "bike_id": "c6fdf962c2610896497e066db3c598e6", "type": "electric_bike", "is_reserved": 0, "lon": -76.99377866666667}, {"fusion_lat": 0.0, "name": "d60caa9b947be4188aeb85aaab8224da", "is_disabled": 0, "rental_uris": {"android": "https://dc.lft.to/lastmile_qr_scan", "ios": "https://dc.lft.to/lastmile_qr_scan"}, "fusion_lon": 0.0, "lat": 38.892412, "bike_id": "d60caa9b947be4188aeb85aaab8224da", "type": "electric_scooter", "is_reserved": 0, "lon": -77.01812583333333}, {"fusion_lat": 0.0, "name": "a8018c00c715e4b88849ca3d7d3b0b7a", "is_disabled": 0, "rental_uris": {"android": "https://dc.lft.to/lastmile_qr_scan", "ios": "https://dc.lft.to/lastmile_qr_scan"}, "fusion_lon": 0.0, "lat": 38.884552666666664, "bike_id": "a8018c00c715e4b88849ca3d7d3b0b7a", "type": "electric_scooter", "is_reserved": 0, "lon": -77.0446175}, {"fusion_lat": 0.0, "name": "ceadae6f1abebf48e824857ce1507a0b", "is_disabled": 0, "rental_uris": {"android": "https://dc.lft.to/lastmile_qr_scan", "ios": "https://dc.lft.to/lastmile_qr_scan"}, "fusion_lon": 0.0, "lat": 38.92890716666667, "bike_id": "ceadae6f1abebf48e824857ce1507a0b", "type": "electric_bike", "is_reserved": 0, "lon": -77.2318005}, {"fusion_lat": 0.0, "name": "b2ed7e4270243e497a45de854725f3cf", "is_disabled": 0, "rental_uris": {"android": "https://dc.lft.to/lastmile_qr_scan", "ios": "https://dc.lft.to/lastmile_qr_scan"}, "fusion_lon": 0.0, "lat": 38.91343766666667, "bike_id": "b2ed7e4270243e497a45de854725f3cf", "type": "electric_scooter", "is_reserved": 0, "lon": -77.04268166666667}, {"fusion_lat": 0.0, "name": "69541f63aa7e1832717875cf399a5359", "is_disabled": 0, "rental_uris": {"android": "https://dc.lft.to/lastmile_qr_scan", "ios": "https://dc.lft.to/lastmile_qr_scan"}, "fusion_lon": 0.0, "lat": 38.89793133333333, "bike_id": "69541f63aa7e1832717875cf399a5359", "type": "electric_scooter", "is_reserved": 0, "lon": -77.0119435}, {"fusion_lat": 0.0, "name": "bbe9513b275ec09f576fdd26c6bf80fe", "is_disabled": 0, "rental_uris": {"android": "https://dc.lft.to/lastmile_qr_scan", "ios": "https://dc.lft.to/lastmile_qr_scan"}, "fusion_lon": 0.0, "lat": 38.908481, "bike_id": "bbe9513b275ec09f576fdd26c6bf80fe", "type": "electric_scooter", "is_reserved": 0, "lon": -77.0382985}, {"fusion_lat": 0.0, "name": "93cc206e60096eb81f9a98773c7a9841", "is_disabled": 0, "rental_uris": {"android": "https://dc.lft.to/lastmile_qr_scan", "ios": "https://dc.lft.to/lastmile_qr_scan"}, "fusion_lon": 0.0, "lat": 38.952779, "bike_id": "93cc206e60096eb81f9a98773c7a9841", "type": "electric_scooter", "is_reserved": 0, "lon": -77.06854916666667}, {"fusion_lat": 0.0, "name": "f91ac82e2c9922e2b74718f17f40af8b", "is_disabled": 0, "rental_uris": {"android": "https://dc.lft.to/lastmile_qr_scan", "ios": "https://dc.lft.to/lastmile_qr_scan"}, "fusion_lon": 0.0, "lat": 38.9141265, "bike_id": "f91ac82e2c9922e2b74718f17f40af8b", "type": "electric_scooter", "is_reserved": 0, "lon": -77.02211883333334}, {"fusion_lat": 0.0, "name": "2367973d0e03e785c4182aca59b647b4", "is_disabled": 0, "rental_uris": {"android": "https://dc.lft.to/lastmile_qr_scan", "ios": "https://dc.lft.to/lastmile_qr_scan"}, "fusion_lon": 0.0, "lat": 38.92327916666667, "bike_id": "2367973d0e03e785c4182aca59b647b4", "type": "electric_scooter", "is_reserved": 0, "lon": -77.04303933333334}, {"fusion_lat": 0.0, "name": "a2312aba55e0a8ef933d68cdcbf83e5d", "is_disabled": 0, "rental_uris": {"android": "https://dc.lft.to/lastmile_qr_scan", "ios": "https://dc.lft.to/lastmile_qr_scan"}, "fusion_lon": 0.0, "lat": 38.883224166666665, "bike_id": "a2312aba55e0a8ef933d68cdcbf83e5d", "type": "electric_scooter", "is_reserved": 0, "lon": -77.01775416666666}, {"fusion_lat": 0.0, "name": "3c3706cb91d0f6fa59655c84158f5872", "is_disabled": 0, "rental_uris": {"android": "https://dc.lft.to/lastmile_qr_scan", "ios": "https://dc.lft.to/lastmile_qr_scan"}, "fusion_lon": 0.0, "lat": 38.905768333333334, "bike_id": "3c3706cb91d0f6fa59655c84158f5872", "type": "electric_scooter", "is_reserved": 0, "lon": -77.02208266666666}, {"fusion_lat": 0.0, "name": "759c095e3dfd3b5626af18eecca223e3", "is_disabled": 0, "rental_uris": {"android": "https://dc.lft.to/lastmile_qr_scan", "ios": "https://dc.lft.to/lastmile_qr_scan"}, "fusion_lon": 0.0, "lat": 38.91566316666667, "bike_id": "759c095e3dfd3b5626af18eecca223e3", "type": "electric_scooter", "is_reserved": 0, "lon": -77.03154766666667}, {"fusion_lat": 0.0, "name": "e86095f5024bc8dc3b758c69af843040", "is_disabled": 0, "rental_uris": {"android": "https://dc.lft.to/lastmile_qr_scan", "ios": "https://dc.lft.to/lastmile_qr_scan"}, "fusion_lon": 0.0, "lat": 38.90388983333333, "bike_id": "e86095f5024bc8dc3b758c69af843040", "type": "electric_scooter", "is_reserved": 0, "lon": -76.99010833333334}, {"fusion_lat": 0.0, "name": "3911bec705332e04006f0a5c3d334ba7", "is_disabled": 0, "rental_uris": {"android": "https://dc.lft.to/lastmile_qr_scan", "ios": "https://dc.lft.to/lastmile_qr_scan"}, "fusion_lon": 0.0, "lat": 38.939414666666664, "bike_id": "3911bec705332e04006f0a5c3d334ba7", "type": "electric_scooter", "is_reserved": 0, "lon": -77.03324116666667}, {"fusion_lat": 0.0, "name": "8d98d4076763ad5320c6c26fce8a03f8", "is_disabled": 0, "rental_uris": {"android": "https://dc.lft.to/lastmile_qr_scan", "ios": "https://dc.lft.to/lastmile_qr_scan"}, "fusion_lon": 0.0, "lat": 38.921100833333334, "bike_id": "8d98d4076763ad5320c6c26fce8a03f8", "type": "electric_scooter", "is_reserved": 0, "lon": -77.01756583333334}, {"fusion_lat": 0.0, "name": "a1c418fe00c2745a446203907cd670c6", "is_disabled": 0, "rental_uris": {"android": "https://dc.lft.to/lastmile_qr_scan", "ios": "https://dc.lft.to/lastmile_qr_scan"}, "fusion_lon": 0.0, "lat": 38.875257500000004, "bike_id": "a1c418fe00c2745a446203907cd670c6", "type": "electric_scooter", "is_reserved": 0, "lon": -77.0006105}, {"fusion_lat": 0.0, "name": "213541bf3f60801efea802da31e7dccb", "is_disabled": 0, "rental_uris": {"android": "https://dc.lft.to/lastmile_qr_scan", "ios": "https://dc.lft.to/lastmile_qr_scan"}, "fusion_lon": 0.0, "lat": 38.90932133333333, "bike_id": "213541bf3f60801efea802da31e7dccb", "type": "electric_scooter", "is_reserved": 0, "lon": -77.02130283333334}, {"fusion_lat": 0.0, "name": "8af5c12ca88e3b1a4ea07768a2fad8be", "is_disabled": 0, "rental_uris": {"android": "https://dc.lft.to/lastmile_qr_scan", "ios": "https://dc.lft.to/lastmile_qr_scan"}, "fusion_lon": 0.0, "lat": 38.87621433333333, "bike_id": "8af5c12ca88e3b1a4ea07768a2fad8be", "type": "electric_scooter", "is_reserved": 0, "lon": -77.01511966666666}, {"fusion_lat": 0.0, "name": "fb8d00b3d6cedf7cc805d3ba7879bfc4", "is_disabled": 0, "rental_uris": {"android": "https://dc.lft.to/lastmile_qr_scan", "ios": "https://dc.lft.to/lastmile_qr_scan"}, "fusion_lon": 0.0, "lat": 38.88984883333333, "bike_id": "fb8d00b3d6cedf7cc805d3ba7879bfc4", "type": "electric_scooter", "is_reserved": 0, "lon": -76.98738333333333}, {"fusion_lat": 0.0, "name": "693fc6f94599791295381271a4af86aa", "is_disabled": 0, "rental_uris": {"android": "https://dc.lft.to/lastmile_qr_scan", "ios": "https://dc.lft.to/lastmile_qr_scan"}, "fusion_lon": 0.0, "lat": 38.892271, "bike_id": "693fc6f94599791295381271a4af86aa", "type": "electric_scooter", "is_reserved": 0, "lon": -77.028271}, {"fusion_lat": 0.0, "name": "349d90abab26b82cc0d0605bf081aa6f", "is_disabled": 0, "rental_uris": {"android": "https://dc.lft.to/lastmile_qr_scan", "ios": "https://dc.lft.to/lastmile_qr_scan"}, "fusion_lon": 0.0, "lat": 38.92980983333333, "bike_id": "349d90abab26b82cc0d0605bf081aa6f", "type": "electric_scooter", "is_reserved": 0, "lon": -77.01977716666667}, {"fusion_lat": 0.0, "name": "6bf8d185fbd28017805e20895a3c7fb6", "is_disabled": 0, "rental_uris": {"android": "https://dc.lft.to/lastmile_qr_scan", "ios": "https://dc.lft.to/lastmile_qr_scan"}, "fusion_lon": 0.0, "lat": 38.884103333333336, "bike_id": "6bf8d185fbd28017805e20895a3c7fb6", "type": "electric_bike", "is_reserved": 0, "lon": -76.95424333333334}, {"fusion_lat": 0.0, "name": "8d5398f3b2df53633c73db065c64c83e", "is_disabled": 0, "rental_uris": {"android": "https://dc.lft.to/lastmile_qr_scan", "ios": "https://dc.lft.to/lastmile_qr_scan"}, "fusion_lon": 0.0, "lat": 38.916093333333336, "bike_id": "8d5398f3b2df53633c73db065c64c83e", "type": "electric_scooter", "is_reserved": 0, "lon": -77.02206166666667}, {"fusion_lat": 0.0, "name": "7a6deefff0bf917c23829a68c0e4a0fa", "is_disabled": 0, "rental_uris": {"android": "https://dc.lft.to/lastmile_qr_scan", "ios": "https://dc.lft.to/lastmile_qr_scan"}, "fusion_lon": 0.0, "lat": 38.920526833333334, "bike_id": "7a6deefff0bf917c23829a68c0e4a0fa", "type": "electric_scooter", "is_reserved": 0, "lon": -77.02209116666667}, {"fusion_lat": 0.0, "name": "8227b6d8a5bdfe61f29b7b48c2a46116", "is_disabled": 0, "rental_uris": {"android": "https://dc.lft.to/lastmile_qr_scan", "ios": "https://dc.lft.to/lastmile_qr_scan"}, "fusion_lon": 0.0, "lat": 38.87944016666667, "bike_id": "8227b6d8a5bdfe61f29b7b48c2a46116", "type": "electric_scooter", "is_reserved": 0, "lon": -77.00914533333334}, {"fusion_lat": 0.0, "name": "ba574a3d63092821a38e06249189671d", "is_disabled": 0, "rental_uris": {"android": "https://dc.lft.to/lastmile_qr_scan", "ios": "https://dc.lft.to/lastmile_qr_scan"}, "fusion_lon": 0.0, "lat": 38.8779575, "bike_id": "ba574a3d63092821a38e06249189671d", "type": "electric_scooter", "is_reserved": 0, "lon": -77.00125066666666}, {"fusion_lat": 0.0, "name": "3bd6503482a4b1034d0b0011decfff2c", "is_disabled": 0, "rental_uris": {"android": "https://dc.lft.to/lastmile_qr_scan", "ios": "https://dc.lft.to/lastmile_qr_scan"}, "fusion_lon": 0.0, "lat": 38.9518255, "bike_id": "3bd6503482a4b1034d0b0011decfff2c", "type": "electric_scooter", "is_reserved": 0, "lon": -77.02726283333334}, {"fusion_lat": 0.0, "name": "e8da481003c5ba35663a1090a6f6b468", "is_disabled": 0, "rental_uris": {"android": "https://dc.lft.to/lastmile_qr_scan", "ios": "https://dc.lft.to/lastmile_qr_scan"}, "fusion_lon": 0.0, "lat": 38.93737933333333, "bike_id": "e8da481003c5ba35663a1090a6f6b468", "type": "electric_bike", "is_reserved": 0, "lon": -76.97228633333333}, {"fusion_lat": 0.0, "name": "d96bb5aa9af48544b997cc4adaaaab48", "is_disabled": 0, "rental_uris": {"android": "https://dc.lft.to/lastmile_qr_scan", "ios": "https://dc.lft.to/lastmile_qr_scan"}, "fusion_lon": 0.0, "lat": 38.901253, "bike_id": "d96bb5aa9af48544b997cc4adaaaab48", "type": "electric_scooter", "is_reserved": 0, "lon": -77.03924083333334}, {"fusion_lat": 0.0, "name": "4d60cd593acffe6cc9fd9c5bd86256d1", "is_disabled": 0, "rental_uris": {"android": "https://dc.lft.to/lastmile_qr_scan", "ios": "https://dc.lft.to/lastmile_qr_scan"}, "fusion_lon": 0.0, "lat": 38.88711883333333, "bike_id": "4d60cd593acffe6cc9fd9c5bd86256d1", "type": "electric_scooter", "is_reserved": 0, "lon": -76.996738}, {"fusion_lat": 0.0, "name": "0eb4d7dbaf0b246c2c2ef108e1b0f3d2", "is_disabled": 0, "rental_uris": {"android": "https://dc.lft.to/lastmile_qr_scan", "ios": "https://dc.lft.to/lastmile_qr_scan"}, "fusion_lon": 0.0, "lat": 38.8972845, "bike_id": "0eb4d7dbaf0b246c2c2ef108e1b0f3d2", "type": "electric_scooter", "is_reserved": 0, "lon": -77.0442995}, {"fusion_lat": 0.0, "name": "66e7ab21824efc080ebdd887bc2e1eb5", "is_disabled": 0, "rental_uris": {"android": "https://dc.lft.to/lastmile_qr_scan", "ios": "https://dc.lft.to/lastmile_qr_scan"}, "fusion_lon": 0.0, "lat": 38.924466, "bike_id": "66e7ab21824efc080ebdd887bc2e1eb5", "type": "electric_scooter", "is_reserved": 0, "lon": -77.00878233333333}, {"fusion_lat": 0.0, "name": "1a4d4dda5851808911aab0e064ed30f7", "is_disabled": 0, "rental_uris": {"android": "https://dc.lft.to/lastmile_qr_scan", "ios": "https://dc.lft.to/lastmile_qr_scan"}, "fusion_lon": 0.0, "lat": 38.92323966666667, "bike_id": "1a4d4dda5851808911aab0e064ed30f7", "type": "electric_scooter", "is_reserved": 0, "lon": -77.02964366666667}, {"fusion_lat": 0.0, "name": "f449dd81b9076a9890331a17fa440551", "is_disabled": 0, "rental_uris": {"android": "https://dc.lft.to/lastmile_qr_scan", "ios": "https://dc.lft.to/lastmile_qr_scan"}, "fusion_lon": 0.0, "lat": 38.90697383333333, "bike_id": "f449dd81b9076a9890331a17fa440551", "type": "electric_scooter", "is_reserved": 0, "lon": -77.06534433333333}, {"fusion_lat": 0.0, "name": "3c4b8deb86fb0fc0211025df58d8d95e", "is_disabled": 0, "rental_uris": {"android": "https://dc.lft.to/lastmile_qr_scan", "ios": "https://dc.lft.to/lastmile_qr_scan"}, "fusion_lon": 0.0, "lat": 38.9233645, "bike_id": "3c4b8deb86fb0fc0211025df58d8d95e", "type": "electric_scooter", "is_reserved": 0, "lon": -77.04147266666666}, {"fusion_lat": 0.0, "name": "782fe469ace1a518ef1415e936426661", "is_disabled": 0, "rental_uris": {"android": "https://dc.lft.to/lastmile_qr_scan", "ios": "https://dc.lft.to/lastmile_qr_scan"}, "fusion_lon": 0.0, "lat": 39.0390135, "bike_id": "782fe469ace1a518ef1415e936426661", "type": "electric_bike", "is_reserved": 0, "lon": -77.05031116666666}, {"fusion_lat": 0.0, "name": "f7978649658986c8d3cb8d738b809864", "is_disabled": 0, "rental_uris": {"android": "https://dc.lft.to/lastmile_qr_scan", "ios": "https://dc.lft.to/lastmile_qr_scan"}, "fusion_lon": 0.0, "lat": 38.902574666666666, "bike_id": "f7978649658986c8d3cb8d738b809864", "type": "electric_scooter", "is_reserved": 0, "lon": -77.04357883333333}, {"fusion_lat": 0.0, "name": "18d062f2c749566ef5dcc38cfaeb5621", "is_disabled": 0, "rental_uris": {"android": "https://dc.lft.to/lastmile_qr_scan", "ios": "https://dc.lft.to/lastmile_qr_scan"}, "fusion_lon": 0.0, "lat": 38.883062833333334, "bike_id": "18d062f2c749566ef5dcc38cfaeb5621", "type": "electric_scooter", "is_reserved": 0, "lon": -77.013795}, {"fusion_lat": 0.0, "name": "5cc5d23f778e63dd78c2356794670b5a", "is_disabled": 0, "rental_uris": {"android": "https://dc.lft.to/lastmile_qr_scan", "ios": "https://dc.lft.to/lastmile_qr_scan"}, "fusion_lon": 0.0, "lat": 38.97255666666667, "bike_id": "5cc5d23f778e63dd78c2356794670b5a", "type": "electric_bike", "is_reserved": 0, "lon": -76.99277083333334}, {"fusion_lat": 0.0, "name": "f9d5c2216d47be122cdfae7d235d74b1", "is_disabled": 0, "rental_uris": {"android": "https://dc.lft.to/lastmile_qr_scan", "ios": "https://dc.lft.to/lastmile_qr_scan"}, "fusion_lon": 0.0, "lat": 38.899401833333336, "bike_id": "f9d5c2216d47be122cdfae7d235d74b1", "type": "electric_scooter", "is_reserved": 0, "lon": -76.99729783333333}, {"fusion_lat": 0.0, "name": "ee96f68ead3048c264b939809828ed3a", "is_disabled": 0, "rental_uris": {"android": "https://dc.lft.to/lastmile_qr_scan", "ios": "https://dc.lft.to/lastmile_qr_scan"}, "fusion_lon": 0.0, "lat": 38.896708333333336, "bike_id": "ee96f68ead3048c264b939809828ed3a", "type": "electric_scooter", "is_reserved": 0, "lon": -77.051312}, {"fusion_lat": 0.0, "name": "cf9e4fffa129c1d67ba8292b96dc6702", "is_disabled": 0, "rental_uris": {"android": "https://dc.lft.to/lastmile_qr_scan", "ios": "https://dc.lft.to/lastmile_qr_scan"}, "fusion_lon": 0.0, "lat": 38.95631066666667, "bike_id": "cf9e4fffa129c1d67ba8292b96dc6702", "type": "electric_scooter", "is_reserved": 0, "lon": -77.02314583333333}, {"fusion_lat": 0.0, "name": "fac5213fb0c158806418610666877fa5", "is_disabled": 0, "rental_uris": {"android": "https://dc.lft.to/lastmile_qr_scan", "ios": "https://dc.lft.to/lastmile_qr_scan"}, "fusion_lon": 0.0, "lat": 38.95231966666667, "bike_id": "fac5213fb0c158806418610666877fa5", "type": "electric_scooter", "is_reserved": 0, "lon": -76.99002483333334}, {"fusion_lat": 0.0, "name": "15482685fc9acf63d5f62eaa2221bb1c", "is_disabled": 0, "rental_uris": {"android": "https://dc.lft.to/lastmile_qr_scan", "ios": "https://dc.lft.to/lastmile_qr_scan"}, "fusion_lon": 0.0, "lat": 38.90673783333333, "bike_id": "15482685fc9acf63d5f62eaa2221bb1c", "type": "electric_scooter", "is_reserved": 0, "lon": -77.0272015}, {"fusion_lat": 0.0, "name": "0f6474ff5327016ced1e311d3107ee51", "is_disabled": 0, "rental_uris": {"android": "https://dc.lft.to/lastmile_qr_scan", "ios": "https://dc.lft.to/lastmile_qr_scan"}, "fusion_lon": 0.0, "lat": 38.90975133333333, "bike_id": "0f6474ff5327016ced1e311d3107ee51", "type": "electric_scooter", "is_reserved": 0, "lon": -77.02185233333333}, {"fusion_lat": 0.0, "name": "1e5f7aec14d187c6e7d0f9c5d5d69eae", "is_disabled": 0, "rental_uris": {"android": "https://dc.lft.to/lastmile_qr_scan", "ios": "https://dc.lft.to/lastmile_qr_scan"}, "fusion_lon": 0.0, "lat": 38.86014, "bike_id": "1e5f7aec14d187c6e7d0f9c5d5d69eae", "type": "electric_bike", "is_reserved": 0, "lon": -77.128111}, {"fusion_lat": 0.0, "name": "9f54abd1b535a084c83081d01f7dfba0", "is_disabled": 0, "rental_uris": {"android": "https://dc.lft.to/lastmile_qr_scan", "ios": "https://dc.lft.to/lastmile_qr_scan"}, "fusion_lon": 0.0, "lat": 38.8806455, "bike_id": "9f54abd1b535a084c83081d01f7dfba0", "type": "electric_scooter", "is_reserved": 0, "lon": -77.02556516666667}, {"fusion_lat": 0.0, "name": "09211a80f71d4a9b7b021548d28d7e42", "is_disabled": 0, "rental_uris": {"android": "https://dc.lft.to/lastmile_qr_scan", "ios": "https://dc.lft.to/lastmile_qr_scan"}, "fusion_lon": 0.0, "lat": 38.93077433333333, "bike_id": "09211a80f71d4a9b7b021548d28d7e42", "type": "electric_scooter", "is_reserved": 0, "lon": -77.077557}, {"fusion_lat": 0.0, "name": "32b577a734698e27778a1bebe2dfbcbb", "is_disabled": 0, "rental_uris": {"android": "https://dc.lft.to/lastmile_qr_scan", "ios": "https://dc.lft.to/lastmile_qr_scan"}, "fusion_lon": 0.0, "lat": 38.8876595, "bike_id": "32b577a734698e27778a1bebe2dfbcbb", "type": "electric_scooter", "is_reserved": 0, "lon": -76.99636683333334}, {"fusion_lat": 0.0, "name": "49a4a1e75c29ad53d83c17a91315053f", "is_disabled": 0, "rental_uris": {"android": "https://dc.lft.to/lastmile_qr_scan", "ios": "https://dc.lft.to/lastmile_qr_scan"}, "fusion_lon": 0.0, "lat": 38.90408716666666, "bike_id": "49a4a1e75c29ad53d83c17a91315053f", "type": "electric_scooter", "is_reserved": 0, "lon": -76.9733125}, {"fusion_lat": 0.0, "name": "f6609e40f0d0ad27fba26c23e41fab5a", "is_disabled": 0, "rental_uris": {"android": "https://dc.lft.to/lastmile_qr_scan", "ios": "https://dc.lft.to/lastmile_qr_scan"}, "fusion_lon": 0.0, "lat": 38.90156533333333, "bike_id": "f6609e40f0d0ad27fba26c23e41fab5a", "type": "electric_scooter", "is_reserved": 0, "lon": -77.0332325}, {"fusion_lat": 0.0, "name": "8958de0b64bf6b2759fa6d9f0b9175ab", "is_disabled": 0, "rental_uris": {"android": "https://dc.lft.to/lastmile_qr_scan", "ios": "https://dc.lft.to/lastmile_qr_scan"}, "fusion_lon": 0.0, "lat": 38.9025025, "bike_id": "8958de0b64bf6b2759fa6d9f0b9175ab", "type": "electric_scooter", "is_reserved": 0, "lon": -76.97457}, {"fusion_lat": 0.0, "name": "478fc014006e4d2bb7e4f1c49a5137ab", "is_disabled": 0, "rental_uris": {"android": "https://dc.lft.to/lastmile_qr_scan", "ios": "https://dc.lft.to/lastmile_qr_scan"}, "fusion_lon": 0.0, "lat": 38.892290833333334, "bike_id": "478fc014006e4d2bb7e4f1c49a5137ab", "type": "electric_scooter", "is_reserved": 0, "lon": -77.03170383333334}, {"fusion_lat": 0.0, "name": "831e992d6d74a38e4dc1c4cb4039600e", "is_disabled": 0, "rental_uris": {"android": "https://dc.lft.to/lastmile_qr_scan", "ios": "https://dc.lft.to/lastmile_qr_scan"}, "fusion_lon": 0.0, "lat": 38.9339745, "bike_id": "831e992d6d74a38e4dc1c4cb4039600e", "type": "electric_scooter", "is_reserved": 0, "lon": -77.057416}, {"fusion_lat": 0.0, "name": "4cd972308156c70c3cf38b20cdd59a79", "is_disabled": 0, "rental_uris": {"android": "https://dc.lft.to/lastmile_qr_scan", "ios": "https://dc.lft.to/lastmile_qr_scan"}, "fusion_lon": 0.0, "lat": 38.88590966666667, "bike_id": "4cd972308156c70c3cf38b20cdd59a79", "type": "electric_scooter", "is_reserved": 0, "lon": -77.01724116666666}, {"fusion_lat": 0.0, "name": "17721fd7feb8b28d8252fe5583c6feca", "is_disabled": 0, "rental_uris": {"android": "https://dc.lft.to/lastmile_qr_scan", "ios": "https://dc.lft.to/lastmile_qr_scan"}, "fusion_lon": 0.0, "lat": 38.95056133333333, "bike_id": "17721fd7feb8b28d8252fe5583c6feca", "type": "electric_scooter", "is_reserved": 0, "lon": -77.08030866666667}, {"fusion_lat": 0.0, "name": "f95c66e3c94b3b461df0b3cafa6c9301", "is_disabled": 0, "rental_uris": {"android": "https://dc.lft.to/lastmile_qr_scan", "ios": "https://dc.lft.to/lastmile_qr_scan"}, "fusion_lon": 0.0, "lat": 38.9165705, "bike_id": "f95c66e3c94b3b461df0b3cafa6c9301", "type": "electric_scooter", "is_reserved": 0, "lon": -77.038551}, {"fusion_lat": 0.0, "name": "1fd4a1222fee0325952293a5450d8dfc", "is_disabled": 0, "rental_uris": {"android": "https://dc.lft.to/lastmile_qr_scan", "ios": "https://dc.lft.to/lastmile_qr_scan"}, "fusion_lon": 0.0, "lat": 38.910811, "bike_id": "1fd4a1222fee0325952293a5450d8dfc", "type": "electric_scooter", "is_reserved": 0, "lon": -77.04122683333334}, {"fusion_lat": 0.0, "name": "be021be8410dc7e73fbb537d51145f6b", "is_disabled": 0, "rental_uris": {"android": "https://dc.lft.to/lastmile_qr_scan", "ios": "https://dc.lft.to/lastmile_qr_scan"}, "fusion_lon": 0.0, "lat": 38.90826716666667, "bike_id": "be021be8410dc7e73fbb537d51145f6b", "type": "electric_scooter", "is_reserved": 0, "lon": -76.984232}, {"fusion_lat": 0.0, "name": "d5b2e3329583b22b999d4dbbef797738", "is_disabled": 0, "rental_uris": {"android": "https://dc.lft.to/lastmile_qr_scan", "ios": "https://dc.lft.to/lastmile_qr_scan"}, "fusion_lon": 0.0, "lat": 38.90554, "bike_id": "d5b2e3329583b22b999d4dbbef797738", "type": "electric_scooter", "is_reserved": 0, "lon": -77.04646983333333}, {"fusion_lat": 0.0, "name": "24eea8156f602e75767d8cb723f3c13a", "is_disabled": 0, "rental_uris": {"android": "https://dc.lft.to/lastmile_qr_scan", "ios": "https://dc.lft.to/lastmile_qr_scan"}, "fusion_lon": 0.0, "lat": 38.906177166666666, "bike_id": "24eea8156f602e75767d8cb723f3c13a", "type": "electric_scooter", "is_reserved": 0, "lon": -77.02404233333333}, {"fusion_lat": 0.0, "name": "054a225584aa5539347fbbd872a28ed7", "is_disabled": 0, "rental_uris": {"android": "https://dc.lft.to/lastmile_qr_scan", "ios": "https://dc.lft.to/lastmile_qr_scan"}, "fusion_lon": 0.0, "lat": 38.896712666666666, "bike_id": "054a225584aa5539347fbbd872a28ed7", "type": "electric_scooter", "is_reserved": 0, "lon": -77.005199}, {"fusion_lat": 0.0, "name": "c920e7b7d34519c0a166b05e175ac0e4", "is_disabled": 0, "rental_uris": {"android": "https://dc.lft.to/lastmile_qr_scan", "ios": "https://dc.lft.to/lastmile_qr_scan"}, "fusion_lon": 0.0, "lat": 38.90426216666667, "bike_id": "c920e7b7d34519c0a166b05e175ac0e4", "type": "electric_scooter", "is_reserved": 0, "lon": -76.981837}, {"fusion_lat": 0.0, "name": "79d9e237d3a21666651c67e21efbf6b9", "is_disabled": 0, "rental_uris": {"android": "https://dc.lft.to/lastmile_qr_scan", "ios": "https://dc.lft.to/lastmile_qr_scan"}, "fusion_lon": 0.0, "lat": 38.919855, "bike_id": "79d9e237d3a21666651c67e21efbf6b9", "type": "electric_scooter", "is_reserved": 0, "lon": -77.02374816666666}, {"fusion_lat": 0.0, "name": "68122ae1a12efce6ee7a41fa08374335", "is_disabled": 0, "rental_uris": {"android": "https://dc.lft.to/lastmile_qr_scan", "ios": "https://dc.lft.to/lastmile_qr_scan"}, "fusion_lon": 0.0, "lat": 38.897182, "bike_id": "68122ae1a12efce6ee7a41fa08374335", "type": "electric_scooter", "is_reserved": 0, "lon": -77.00802316666666}, {"fusion_lat": 0.0, "name": "9044640db2507e5ce675935e0b880fd8", "is_disabled": 0, "rental_uris": {"android": "https://dc.lft.to/lastmile_qr_scan", "ios": "https://dc.lft.to/lastmile_qr_scan"}, "fusion_lon": 0.0, "lat": 38.92192583333333, "bike_id": "9044640db2507e5ce675935e0b880fd8", "type": "electric_scooter", "is_reserved": 0, "lon": -77.05049266666667}, {"fusion_lat": 0.0, "name": "a1396685a6dcac569cd1616086513b31", "is_disabled": 0, "rental_uris": {"android": "https://dc.lft.to/lastmile_qr_scan", "ios": "https://dc.lft.to/lastmile_qr_scan"}, "fusion_lon": 0.0, "lat": 38.91265033333333, "bike_id": "a1396685a6dcac569cd1616086513b31", "type": "electric_scooter", "is_reserved": 0, "lon": -77.01224983333333}, {"fusion_lat": 0.0, "name": "0ccf24cbea9e8debf2dd29fcbc5b1a07", "is_disabled": 0, "rental_uris": {"android": "https://dc.lft.to/lastmile_qr_scan", "ios": "https://dc.lft.to/lastmile_qr_scan"}, "fusion_lon": 0.0, "lat": 38.92432816666667, "bike_id": "0ccf24cbea9e8debf2dd29fcbc5b1a07", "type": "electric_scooter", "is_reserved": 0, "lon": -77.00067666666666}, {"fusion_lat": 0.0, "name": "ce52122b94913ef83743b01069c8c6be", "is_disabled": 0, "rental_uris": {"android": "https://dc.lft.to/lastmile_qr_scan", "ios": "https://dc.lft.to/lastmile_qr_scan"}, "fusion_lon": 0.0, "lat": 38.920172666666666, "bike_id": "ce52122b94913ef83743b01069c8c6be", "type": "electric_bike", "is_reserved": 0, "lon": -77.07706983333334}, {"fusion_lat": 0.0, "name": "3c1bc4e7321951762ca53c1022f7d6f0", "is_disabled": 0, "rental_uris": {"android": "https://dc.lft.to/lastmile_qr_scan", "ios": "https://dc.lft.to/lastmile_qr_scan"}, "fusion_lon": 0.0, "lat": 38.877183, "bike_id": "3c1bc4e7321951762ca53c1022f7d6f0", "type": "electric_scooter", "is_reserved": 0, "lon": -77.01765366666666}, {"fusion_lat": 0.0, "name": "a3ba718f7b2b50de009861bb1dfebfc1", "is_disabled": 0, "rental_uris": {"android": "https://dc.lft.to/lastmile_qr_scan", "ios": "https://dc.lft.to/lastmile_qr_scan"}, "fusion_lon": 0.0, "lat": 38.885555333333336, "bike_id": "a3ba718f7b2b50de009861bb1dfebfc1", "type": "electric_scooter", "is_reserved": 0, "lon": -76.99779266666667}, {"fusion_lat": 0.0, "name": "569e552863ecb61f7e539647aa25ab8f", "is_disabled": 0, "rental_uris": {"android": "https://dc.lft.to/lastmile_qr_scan", "ios": "https://dc.lft.to/lastmile_qr_scan"}, "fusion_lon": 0.0, "lat": 38.9055185, "bike_id": "569e552863ecb61f7e539647aa25ab8f", "type": "electric_scooter", "is_reserved": 0, "lon": -77.0626055}, {"fusion_lat": 0.0, "name": "574287457cda3e4562d5268404298809", "is_disabled": 0, "rental_uris": {"android": "https://dc.lft.to/lastmile_qr_scan", "ios": "https://dc.lft.to/lastmile_qr_scan"}, "fusion_lon": 0.0, "lat": 38.918102833333336, "bike_id": "574287457cda3e4562d5268404298809", "type": "electric_scooter", "is_reserved": 0, "lon": -77.04598266666666}, {"fusion_lat": 0.0, "name": "8000dd9b2b784e751831e85a6a1cf368", "is_disabled": 0, "rental_uris": {"android": "https://dc.lft.to/lastmile_qr_scan", "ios": "https://dc.lft.to/lastmile_qr_scan"}, "fusion_lon": 0.0, "lat": 38.898427, "bike_id": "8000dd9b2b784e751831e85a6a1cf368", "type": "electric_scooter", "is_reserved": 0, "lon": -77.026468}, {"fusion_lat": 0.0, "name": "18212ff87b3e02a18d409df434096613", "is_disabled": 0, "rental_uris": {"android": "https://dc.lft.to/lastmile_qr_scan", "ios": "https://dc.lft.to/lastmile_qr_scan"}, "fusion_lon": 0.0, "lat": 38.841333666666664, "bike_id": "18212ff87b3e02a18d409df434096613", "type": "electric_bike", "is_reserved": 0, "lon": -76.947653}, {"fusion_lat": 0.0, "name": "39034e382bafd5cea630a414b58d18b8", "is_disabled": 0, "rental_uris": {"android": "https://dc.lft.to/lastmile_qr_scan", "ios": "https://dc.lft.to/lastmile_qr_scan"}, "fusion_lon": 0.0, "lat": 38.9319175, "bike_id": "39034e382bafd5cea630a414b58d18b8", "type": "electric_scooter", "is_reserved": 0, "lon": -77.0429705}, {"fusion_lat": 0.0, "name": "54d5136c61ef7f520be0eb03c3339ce9", "is_disabled": 0, "rental_uris": {"android": "https://dc.lft.to/lastmile_qr_scan", "ios": "https://dc.lft.to/lastmile_qr_scan"}, "fusion_lon": 0.0, "lat": 38.85698033333333, "bike_id": "54d5136c61ef7f520be0eb03c3339ce9", "type": "electric_scooter", "is_reserved": 0, "lon": -76.99600416666667}, {"fusion_lat": 0.0, "name": "e4f0fdca95d84262a041f4385d38f267", "is_disabled": 0, "rental_uris": {"android": "https://dc.lft.to/lastmile_qr_scan", "ios": "https://dc.lft.to/lastmile_qr_scan"}, "fusion_lon": 0.0, "lat": 38.9321475, "bike_id": "e4f0fdca95d84262a041f4385d38f267", "type": "electric_scooter", "is_reserved": 0, "lon": -77.03350816666666}, {"fusion_lat": 0.0, "name": "aa880ac0f8303bb9c314cf25c4ad26db", "is_disabled": 0, "rental_uris": {"android": "https://dc.lft.to/lastmile_qr_scan", "ios": "https://dc.lft.to/lastmile_qr_scan"}, "fusion_lon": 0.0, "lat": 38.88988416666667, "bike_id": "aa880ac0f8303bb9c314cf25c4ad26db", "type": "electric_scooter", "is_reserved": 0, "lon": -76.984153}, {"fusion_lat": 0.0, "name": "da9f92e07826b78e942c8d61d6ccc902", "is_disabled": 0, "rental_uris": {"android": "https://dc.lft.to/lastmile_qr_scan", "ios": "https://dc.lft.to/lastmile_qr_scan"}, "fusion_lon": 0.0, "lat": 38.92799383333333, "bike_id": "da9f92e07826b78e942c8d61d6ccc902", "type": "electric_scooter", "is_reserved": 0, "lon": -77.05525283333333}, {"fusion_lat": 0.0, "name": "11247dd11c942190a1fab6eea7278e7d", "is_disabled": 0, "rental_uris": {"android": "https://dc.lft.to/lastmile_qr_scan", "ios": "https://dc.lft.to/lastmile_qr_scan"}, "fusion_lon": 0.0, "lat": 38.8963955, "bike_id": "11247dd11c942190a1fab6eea7278e7d", "type": "electric_scooter", "is_reserved": 0, "lon": -77.00929883333333}, {"fusion_lat": 0.0, "name": "25e6290a200ca9f8377bdb2a3418e436", "is_disabled": 0, "rental_uris": {"android": "https://dc.lft.to/lastmile_qr_scan", "ios": "https://dc.lft.to/lastmile_qr_scan"}, "fusion_lon": 0.0, "lat": 38.90617783333333, "bike_id": "25e6290a200ca9f8377bdb2a3418e436", "type": "electric_scooter", "is_reserved": 0, "lon": -77.03965833333334}, {"fusion_lat": 0.0, "name": "b24d83f8d7cf4e2c541b77a4beb0a6dd", "is_disabled": 0, "rental_uris": {"android": "https://dc.lft.to/lastmile_qr_scan", "ios": "https://dc.lft.to/lastmile_qr_scan"}, "fusion_lon": 0.0, "lat": 38.90721083333333, "bike_id": "b24d83f8d7cf4e2c541b77a4beb0a6dd", "type": "electric_scooter", "is_reserved": 0, "lon": -77.0281955}, {"fusion_lat": 0.0, "name": "cfe958b50fb02bd8f921b5aaec839c26", "is_disabled": 0, "rental_uris": {"android": "https://dc.lft.to/lastmile_qr_scan", "ios": "https://dc.lft.to/lastmile_qr_scan"}, "fusion_lon": 0.0, "lat": 38.917624333333336, "bike_id": "cfe958b50fb02bd8f921b5aaec839c26", "type": "electric_scooter", "is_reserved": 0, "lon": -77.01512516666666}, {"fusion_lat": 0.0, "name": "df25d0f5fa5f6ef1ed85777c1eb60706", "is_disabled": 0, "rental_uris": {"android": "https://dc.lft.to/lastmile_qr_scan", "ios": "https://dc.lft.to/lastmile_qr_scan"}, "fusion_lon": 0.0, "lat": 38.958754166666665, "bike_id": "df25d0f5fa5f6ef1ed85777c1eb60706", "type": "electric_bike", "is_reserved": 0, "lon": -77.0026215}, {"fusion_lat": 0.0, "name": "5f45dd09ac457f4849609a60b019eafa", "is_disabled": 0, "rental_uris": {"android": "https://dc.lft.to/lastmile_qr_scan", "ios": "https://dc.lft.to/lastmile_qr_scan"}, "fusion_lon": 0.0, "lat": 38.90820883333333, "bike_id": "5f45dd09ac457f4849609a60b019eafa", "type": "electric_scooter", "is_reserved": 0, "lon": -77.054973}, {"fusion_lat": 0.0, "name": "3fed1053b6914e1f3ad30dbb8f4b4ae2", "is_disabled": 0, "rental_uris": {"android": "https://dc.lft.to/lastmile_qr_scan", "ios": "https://dc.lft.to/lastmile_qr_scan"}, "fusion_lon": 0.0, "lat": 38.918487166666665, "bike_id": "3fed1053b6914e1f3ad30dbb8f4b4ae2", "type": "electric_scooter", "is_reserved": 0, "lon": -77.02710966666666}, {"fusion_lat": 0.0, "name": "632fa491270f76fceac225be5a245271", "is_disabled": 0, "rental_uris": {"android": "https://dc.lft.to/lastmile_qr_scan", "ios": "https://dc.lft.to/lastmile_qr_scan"}, "fusion_lon": 0.0, "lat": 38.92217383333333, "bike_id": "632fa491270f76fceac225be5a245271", "type": "electric_scooter", "is_reserved": 0, "lon": -77.0433355}, {"fusion_lat": 0.0, "name": "a4764c37c532cd954ea4daaf92d1c87e", "is_disabled": 0, "rental_uris": {"android": "https://dc.lft.to/lastmile_qr_scan", "ios": "https://dc.lft.to/lastmile_qr_scan"}, "fusion_lon": 0.0, "lat": 38.993574333333335, "bike_id": "a4764c37c532cd954ea4daaf92d1c87e", "type": "electric_bike", "is_reserved": 0, "lon": -77.031565}, {"fusion_lat": 0.0, "name": "d64f8f4ad54c928323c034387d0d805f", "is_disabled": 0, "rental_uris": {"android": "https://dc.lft.to/lastmile_qr_scan", "ios": "https://dc.lft.to/lastmile_qr_scan"}, "fusion_lon": 0.0, "lat": 38.982779666666666, "bike_id": "d64f8f4ad54c928323c034387d0d805f", "type": "electric_scooter", "is_reserved": 0, "lon": -77.0264445}, {"fusion_lat": 0.0, "name": "019eb2c527e346a2477452242fa146b5", "is_disabled": 0, "rental_uris": {"android": "https://dc.lft.to/lastmile_qr_scan", "ios": "https://dc.lft.to/lastmile_qr_scan"}, "fusion_lon": 0.0, "lat": 38.95113083333333, "bike_id": "019eb2c527e346a2477452242fa146b5", "type": "electric_scooter", "is_reserved": 0, "lon": -77.01368033333334}, {"fusion_lat": 0.0, "name": "973245127b20dbb08155e0b0acba9293", "is_disabled": 0, "rental_uris": {"android": "https://dc.lft.to/lastmile_qr_scan", "ios": "https://dc.lft.to/lastmile_qr_scan"}, "fusion_lon": 0.0, "lat": 38.91804616666667, "bike_id": "973245127b20dbb08155e0b0acba9293", "type": "electric_scooter", "is_reserved": 0, "lon": -76.99981916666667}, {"fusion_lat": 0.0, "name": "7953cbb3f80b264850a8553a652147d1", "is_disabled": 0, "rental_uris": {"android": "https://dc.lft.to/lastmile_qr_scan", "ios": "https://dc.lft.to/lastmile_qr_scan"}, "fusion_lon": 0.0, "lat": 38.947021166666666, "bike_id": "7953cbb3f80b264850a8553a652147d1", "type": "electric_scooter", "is_reserved": 0, "lon": -77.01945633333334}, {"fusion_lat": 0.0, "name": "d47250adb0c94de633047be4f3929553", "is_disabled": 0, "rental_uris": {"android": "https://dc.lft.to/lastmile_qr_scan", "ios": "https://dc.lft.to/lastmile_qr_scan"}, "fusion_lon": 0.0, "lat": 38.93197333333333, "bike_id": "d47250adb0c94de633047be4f3929553", "type": "electric_scooter", "is_reserved": 0, "lon": -77.0429755}, {"fusion_lat": 0.0, "name": "71616473e0940c03e89154a05d446dd3", "is_disabled": 0, "rental_uris": {"android": "https://dc.lft.to/lastmile_qr_scan", "ios": "https://dc.lft.to/lastmile_qr_scan"}, "fusion_lon": 0.0, "lat": 38.96115016666667, "bike_id": "71616473e0940c03e89154a05d446dd3", "type": "electric_scooter", "is_reserved": 0, "lon": -77.028661}, {"fusion_lat": 0.0, "name": "d94b727c55d815c7a458d71a34a95742", "is_disabled": 0, "rental_uris": {"android": "https://dc.lft.to/lastmile_qr_scan", "ios": "https://dc.lft.to/lastmile_qr_scan"}, "fusion_lon": 0.0, "lat": 38.892221166666666, "bike_id": "d94b727c55d815c7a458d71a34a95742", "type": "electric_scooter", "is_reserved": 0, "lon": -77.04124883333333}, {"fusion_lat": 0.0, "name": "c00ba5838a232b289f81eda540b0f210", "is_disabled": 0, "rental_uris": {"android": "https://dc.lft.to/lastmile_qr_scan", "ios": "https://dc.lft.to/lastmile_qr_scan"}, "fusion_lon": 0.0, "lat": 38.92074933333333, "bike_id": "c00ba5838a232b289f81eda540b0f210", "type": "electric_scooter", "is_reserved": 0, "lon": -77.004581}, {"fusion_lat": 0.0, "name": "0803ecb5a8e649a9b5a99ceffa2aeac1", "is_disabled": 0, "rental_uris": {"android": "https://dc.lft.to/lastmile_qr_scan", "ios": "https://dc.lft.to/lastmile_qr_scan"}, "fusion_lon": 0.0, "lat": 38.929509333333336, "bike_id": "0803ecb5a8e649a9b5a99ceffa2aeac1", "type": "electric_scooter", "is_reserved": 0, "lon": -77.04403366666666}, {"fusion_lat": 0.0, "name": "24be8d38a2434b6b7a1f8296e4f64c32", "is_disabled": 0, "rental_uris": {"android": "https://dc.lft.to/lastmile_qr_scan", "ios": "https://dc.lft.to/lastmile_qr_scan"}, "fusion_lon": 0.0, "lat": 38.91689816666667, "bike_id": "24be8d38a2434b6b7a1f8296e4f64c32", "type": "electric_scooter", "is_reserved": 0, "lon": -77.037619}, {"fusion_lat": 0.0, "name": "718743e8bf0def251df2394025ce4c31", "is_disabled": 0, "rental_uris": {"android": "https://dc.lft.to/lastmile_qr_scan", "ios": "https://dc.lft.to/lastmile_qr_scan"}, "fusion_lon": 0.0, "lat": 38.885075, "bike_id": "718743e8bf0def251df2394025ce4c31", "type": "electric_scooter", "is_reserved": 0, "lon": -76.929525}, {"fusion_lat": 0.0, "name": "e0626da469cd7827382c164000dc001d", "is_disabled": 0, "rental_uris": {"android": "https://dc.lft.to/lastmile_qr_scan", "ios": "https://dc.lft.to/lastmile_qr_scan"}, "fusion_lon": 0.0, "lat": 38.88454433333333, "bike_id": "e0626da469cd7827382c164000dc001d", "type": "electric_scooter", "is_reserved": 0, "lon": -76.99837583333333}, {"fusion_lat": 0.0, "name": "4e632da21ab0c0d5a715ed9b5a3fae28", "is_disabled": 0, "rental_uris": {"android": "https://dc.lft.to/lastmile_qr_scan", "ios": "https://dc.lft.to/lastmile_qr_scan"}, "fusion_lon": 0.0, "lat": 38.9191335, "bike_id": "4e632da21ab0c0d5a715ed9b5a3fae28", "type": "electric_scooter", "is_reserved": 0, "lon": -77.03314233333333}, {"fusion_lat": 0.0, "name": "fa4882d804f5961db7468c5d0d46a1a2", "is_disabled": 0, "rental_uris": {"android": "https://dc.lft.to/lastmile_qr_scan", "ios": "https://dc.lft.to/lastmile_qr_scan"}, "fusion_lon": 0.0, "lat": 38.93296016666667, "bike_id": "fa4882d804f5961db7468c5d0d46a1a2", "type": "electric_scooter", "is_reserved": 0, "lon": -77.0246915}, {"fusion_lat": 0.0, "name": "c92e29923181e872e3a9ff03164c89c2", "is_disabled": 0, "rental_uris": {"android": "https://dc.lft.to/lastmile_qr_scan", "ios": "https://dc.lft.to/lastmile_qr_scan"}, "fusion_lon": 0.0, "lat": 38.93646666666667, "bike_id": "c92e29923181e872e3a9ff03164c89c2", "type": "electric_scooter", "is_reserved": 0, "lon": -77.03051183333334}, {"fusion_lat": 0.0, "name": "b2e41705303291b1442eaeb2f8b7f820", "is_disabled": 0, "rental_uris": {"android": "https://dc.lft.to/lastmile_qr_scan", "ios": "https://dc.lft.to/lastmile_qr_scan"}, "fusion_lon": 0.0, "lat": 38.92074933333333, "bike_id": "b2e41705303291b1442eaeb2f8b7f820", "type": "electric_bike", "is_reserved": 0, "lon": -76.9894275}, {"fusion_lat": 0.0, "name": "c2a72646c45afe8277d9683fad1679ba", "is_disabled": 0, "rental_uris": {"android": "https://dc.lft.to/lastmile_qr_scan", "ios": "https://dc.lft.to/lastmile_qr_scan"}, "fusion_lon": 0.0, "lat": 38.94227033333333, "bike_id": "c2a72646c45afe8277d9683fad1679ba", "type": "electric_scooter", "is_reserved": 0, "lon": -77.01384683333333}, {"fusion_lat": 0.0, "name": "b875ec93c822f42ed3e39c088df8fdd8", "is_disabled": 0, "rental_uris": {"android": "https://dc.lft.to/lastmile_qr_scan", "ios": "https://dc.lft.to/lastmile_qr_scan"}, "fusion_lon": 0.0, "lat": 38.91071516666667, "bike_id": "b875ec93c822f42ed3e39c088df8fdd8", "type": "electric_scooter", "is_reserved": 0, "lon": -77.0272295}, {"fusion_lat": 0.0, "name": "c622d9a4face2c7945ae5e4addc46bff", "is_disabled": 0, "rental_uris": {"android": "https://dc.lft.to/lastmile_qr_scan", "ios": "https://dc.lft.to/lastmile_qr_scan"}, "fusion_lon": 0.0, "lat": 38.913272666666664, "bike_id": "c622d9a4face2c7945ae5e4addc46bff", "type": "electric_scooter", "is_reserved": 0, "lon": -77.03196466666667}, {"fusion_lat": 0.0, "name": "e2c653c26fb7250242bdb2e76ab4c664", "is_disabled": 0, "rental_uris": {"android": "https://dc.lft.to/lastmile_qr_scan", "ios": "https://dc.lft.to/lastmile_qr_scan"}, "fusion_lon": 0.0, "lat": 38.9023065, "bike_id": "e2c653c26fb7250242bdb2e76ab4c664", "type": "electric_scooter", "is_reserved": 0, "lon": -77.0593995}, {"fusion_lat": 0.0, "name": "d7e4ae097d3e22ce650d1ce4f5f4489c", "is_disabled": 0, "rental_uris": {"android": "https://dc.lft.to/lastmile_qr_scan", "ios": "https://dc.lft.to/lastmile_qr_scan"}, "fusion_lon": 0.0, "lat": 38.88522, "bike_id": "d7e4ae097d3e22ce650d1ce4f5f4489c", "type": "electric_scooter", "is_reserved": 0, "lon": -77.01533833333333}, {"fusion_lat": 0.0, "name": "afa44439d71da361ce28ea452a0fc21e", "is_disabled": 0, "rental_uris": {"android": "https://dc.lft.to/lastmile_qr_scan", "ios": "https://dc.lft.to/lastmile_qr_scan"}, "fusion_lon": 0.0, "lat": 38.88735166666667, "bike_id": "afa44439d71da361ce28ea452a0fc21e", "type": "electric_scooter", "is_reserved": 0, "lon": -77.00347166666667}, {"fusion_lat": 0.0, "name": "4054ccf966826828e51598b24417d62f", "is_disabled": 0, "rental_uris": {"android": "https://dc.lft.to/lastmile_qr_scan", "ios": "https://dc.lft.to/lastmile_qr_scan"}, "fusion_lon": 0.0, "lat": 38.92396433333333, "bike_id": "4054ccf966826828e51598b24417d62f", "type": "electric_scooter", "is_reserved": 0, "lon": -77.03518933333334}, {"fusion_lat": 0.0, "name": "8bbf4ba2d7016d48e346830b9982df36", "is_disabled": 0, "rental_uris": {"android": "https://dc.lft.to/lastmile_qr_scan", "ios": "https://dc.lft.to/lastmile_qr_scan"}, "fusion_lon": 0.0, "lat": 38.90503233333333, "bike_id": "8bbf4ba2d7016d48e346830b9982df36", "type": "electric_scooter", "is_reserved": 0, "lon": -77.06023083333334}, {"fusion_lat": 0.0, "name": "9fa7a66ab2eb5ba33257fcdfabc1339b", "is_disabled": 0, "rental_uris": {"android": "https://dc.lft.to/lastmile_qr_scan", "ios": "https://dc.lft.to/lastmile_qr_scan"}, "fusion_lon": 0.0, "lat": 38.842811, "bike_id": "9fa7a66ab2eb5ba33257fcdfabc1339b", "type": "electric_bike", "is_reserved": 0, "lon": -77.0449965}, {"fusion_lat": 0.0, "name": "2081ab859c8e9bf7140432905a3d3bf7", "is_disabled": 0, "rental_uris": {"android": "https://dc.lft.to/lastmile_qr_scan", "ios": "https://dc.lft.to/lastmile_qr_scan"}, "fusion_lon": 0.0, "lat": 38.8973685, "bike_id": "2081ab859c8e9bf7140432905a3d3bf7", "type": "electric_scooter", "is_reserved": 0, "lon": -77.04358633333334}, {"fusion_lat": 0.0, "name": "7c566c4e60d10695d175abe98a2ee7b1", "is_disabled": 0, "rental_uris": {"android": "https://dc.lft.to/lastmile_qr_scan", "ios": "https://dc.lft.to/lastmile_qr_scan"}, "fusion_lon": 0.0, "lat": 38.897332, "bike_id": "7c566c4e60d10695d175abe98a2ee7b1", "type": "electric_scooter", "is_reserved": 0, "lon": -77.00976466666667}, {"fusion_lat": 0.0, "name": "d6864ee7592685e80e362ccfdcdc6bc6", "is_disabled": 0, "rental_uris": {"android": "https://dc.lft.to/lastmile_qr_scan", "ios": "https://dc.lft.to/lastmile_qr_scan"}, "fusion_lon": 0.0, "lat": 38.92834916666666, "bike_id": "d6864ee7592685e80e362ccfdcdc6bc6", "type": "electric_scooter", "is_reserved": 0, "lon": -77.03272433333333}, {"fusion_lat": 0.0, "name": "88702210bb21938d288c66e9ecdf35f5", "is_disabled": 0, "rental_uris": {"android": "https://dc.lft.to/lastmile_qr_scan", "ios": "https://dc.lft.to/lastmile_qr_scan"}, "fusion_lon": 0.0, "lat": 38.922487833333335, "bike_id": "88702210bb21938d288c66e9ecdf35f5", "type": "electric_scooter", "is_reserved": 0, "lon": -77.04212333333334}, {"fusion_lat": 0.0, "name": "b22c3f430090b393b8ba1c5053f445a8", "is_disabled": 0, "rental_uris": {"android": "https://dc.lft.to/lastmile_qr_scan", "ios": "https://dc.lft.to/lastmile_qr_scan"}, "fusion_lon": 0.0, "lat": 38.90386566666667, "bike_id": "b22c3f430090b393b8ba1c5053f445a8", "type": "electric_scooter", "is_reserved": 0, "lon": -77.03845033333333}, {"fusion_lat": 0.0, "name": "95d77f7fe0e940678c1c39bf0ecd5349", "is_disabled": 0, "rental_uris": {"android": "https://dc.lft.to/lastmile_qr_scan", "ios": "https://dc.lft.to/lastmile_qr_scan"}, "fusion_lon": 0.0, "lat": 38.9352635, "bike_id": "95d77f7fe0e940678c1c39bf0ecd5349", "type": "electric_scooter", "is_reserved": 0, "lon": -77.03654783333333}, {"fusion_lat": 0.0, "name": "cc9252876370c89afe3067aa32b0e28d", "is_disabled": 0, "rental_uris": {"android": "https://dc.lft.to/lastmile_qr_scan", "ios": "https://dc.lft.to/lastmile_qr_scan"}, "fusion_lon": 0.0, "lat": 38.924116833333336, "bike_id": "cc9252876370c89afe3067aa32b0e28d", "type": "electric_scooter", "is_reserved": 0, "lon": -77.050652}, {"fusion_lat": 0.0, "name": "6ed24b6b6b7b7df8c86c8ae1c476544d", "is_disabled": 0, "rental_uris": {"android": "https://dc.lft.to/lastmile_qr_scan", "ios": "https://dc.lft.to/lastmile_qr_scan"}, "fusion_lon": 0.0, "lat": 38.9000535, "bike_id": "6ed24b6b6b7b7df8c86c8ae1c476544d", "type": "electric_scooter", "is_reserved": 0, "lon": -76.93168916666667}, {"fusion_lat": 0.0, "name": "f4130ddb2a82867a76de253b95fe0fa9", "is_disabled": 0, "rental_uris": {"android": "https://dc.lft.to/lastmile_qr_scan", "ios": "https://dc.lft.to/lastmile_qr_scan"}, "fusion_lon": 0.0, "lat": 38.909784, "bike_id": "f4130ddb2a82867a76de253b95fe0fa9", "type": "electric_scooter", "is_reserved": 0, "lon": -77.04481116666666}, {"fusion_lat": 0.0, "name": "30fdac92887a5325d9a7c30e7059881f", "is_disabled": 0, "rental_uris": {"android": "https://dc.lft.to/lastmile_qr_scan", "ios": "https://dc.lft.to/lastmile_qr_scan"}, "fusion_lon": 0.0, "lat": 38.85307933333333, "bike_id": "30fdac92887a5325d9a7c30e7059881f", "type": "electric_bike", "is_reserved": 0, "lon": -77.04612133333333}, {"fusion_lat": 0.0, "name": "6d7a3889563b29807c0a078d2a1f0186", "is_disabled": 0, "rental_uris": {"android": "https://dc.lft.to/lastmile_qr_scan", "ios": "https://dc.lft.to/lastmile_qr_scan"}, "fusion_lon": 0.0, "lat": 38.90223016666667, "bike_id": "6d7a3889563b29807c0a078d2a1f0186", "type": "electric_scooter", "is_reserved": 0, "lon": -77.02628216666666}, {"fusion_lat": 0.0, "name": "8630bf59d3da248ad5f1ddd87fd14e1f", "is_disabled": 0, "rental_uris": {"android": "https://dc.lft.to/lastmile_qr_scan", "ios": "https://dc.lft.to/lastmile_qr_scan"}, "fusion_lon": 0.0, "lat": 38.925200333333336, "bike_id": "8630bf59d3da248ad5f1ddd87fd14e1f", "type": "electric_scooter", "is_reserved": 0, "lon": -77.03865566666667}, {"fusion_lat": 0.0, "name": "c8ff221432a8839f20175e0b1ba077f9", "is_disabled": 0, "rental_uris": {"android": "https://dc.lft.to/lastmile_qr_scan", "ios": "https://dc.lft.to/lastmile_qr_scan"}, "fusion_lon": 0.0, "lat": 38.9166125, "bike_id": "c8ff221432a8839f20175e0b1ba077f9", "type": "electric_scooter", "is_reserved": 0, "lon": -77.02815416666667}, {"fusion_lat": 0.0, "name": "6e05931fd59454bded28d4addee142d6", "is_disabled": 0, "rental_uris": {"android": "https://dc.lft.to/lastmile_qr_scan", "ios": "https://dc.lft.to/lastmile_qr_scan"}, "fusion_lon": 0.0, "lat": 38.91400566666667, "bike_id": "6e05931fd59454bded28d4addee142d6", "type": "electric_scooter", "is_reserved": 0, "lon": -77.03320983333333}, {"fusion_lat": 0.0, "name": "45c900d11e9cba5c3abe0422519fc93a", "is_disabled": 0, "rental_uris": {"android": "https://dc.lft.to/lastmile_qr_scan", "ios": "https://dc.lft.to/lastmile_qr_scan"}, "fusion_lon": 0.0, "lat": 38.857681666666664, "bike_id": "45c900d11e9cba5c3abe0422519fc93a", "type": "electric_bike", "is_reserved": 0, "lon": -76.98771683333334}, {"fusion_lat": 0.0, "name": "b402372d337789c0c8157e94ed5cb60e", "is_disabled": 0, "rental_uris": {"android": "https://dc.lft.to/lastmile_qr_scan", "ios": "https://dc.lft.to/lastmile_qr_scan"}, "fusion_lon": 0.0, "lat": 38.90983966666667, "bike_id": "b402372d337789c0c8157e94ed5cb60e", "type": "electric_bike", "is_reserved": 0, "lon": -77.008979}, {"fusion_lat": 0.0, "name": "99b475629d795a3d00400a537a81beef", "is_disabled": 0, "rental_uris": {"android": "https://dc.lft.to/lastmile_qr_scan", "ios": "https://dc.lft.to/lastmile_qr_scan"}, "fusion_lon": 0.0, "lat": 38.915530333333336, "bike_id": "99b475629d795a3d00400a537a81beef", "type": "electric_scooter", "is_reserved": 0, "lon": -77.032256}, {"fusion_lat": 0.0, "name": "dbfe542a62519ad2638717fccbf03336", "is_disabled": 0, "rental_uris": {"android": "https://dc.lft.to/lastmile_qr_scan", "ios": "https://dc.lft.to/lastmile_qr_scan"}, "fusion_lon": 0.0, "lat": 38.940862333333335, "bike_id": "dbfe542a62519ad2638717fccbf03336", "type": "electric_scooter", "is_reserved": 0, "lon": -77.06182333333334}, {"fusion_lat": 0.0, "name": "f1bc744506faa07fffa830bf12b99425", "is_disabled": 0, "rental_uris": {"android": "https://dc.lft.to/lastmile_qr_scan", "ios": "https://dc.lft.to/lastmile_qr_scan"}, "fusion_lon": 0.0, "lat": 38.883921666666666, "bike_id": "f1bc744506faa07fffa830bf12b99425", "type": "electric_scooter", "is_reserved": 0, "lon": -76.93041933333333}, {"fusion_lat": 0.0, "name": "9d2abf14e048fdadd3f564aa5c78d14a", "is_disabled": 0, "rental_uris": {"android": "https://dc.lft.to/lastmile_qr_scan", "ios": "https://dc.lft.to/lastmile_qr_scan"}, "fusion_lon": 0.0, "lat": 38.933882833333335, "bike_id": "9d2abf14e048fdadd3f564aa5c78d14a", "type": "electric_scooter", "is_reserved": 0, "lon": -77.028487}, {"fusion_lat": 0.0, "name": "78c3aea5fc72317213acb35ee8ba0ebc", "is_disabled": 0, "rental_uris": {"android": "https://dc.lft.to/lastmile_qr_scan", "ios": "https://dc.lft.to/lastmile_qr_scan"}, "fusion_lon": 0.0, "lat": 38.91091766666667, "bike_id": "78c3aea5fc72317213acb35ee8ba0ebc", "type": "electric_scooter", "is_reserved": 0, "lon": -77.03837766666666}, {"fusion_lat": 0.0, "name": "7f3374988a160498b985ba16a762bad9", "is_disabled": 0, "rental_uris": {"android": "https://dc.lft.to/lastmile_qr_scan", "ios": "https://dc.lft.to/lastmile_qr_scan"}, "fusion_lon": 0.0, "lat": 38.91979883333333, "bike_id": "7f3374988a160498b985ba16a762bad9", "type": "electric_scooter", "is_reserved": 0, "lon": -77.02384933333333}, {"fusion_lat": 0.0, "name": "e187eae20095dac911abc4e5e8ed438b", "is_disabled": 0, "rental_uris": {"android": "https://dc.lft.to/lastmile_qr_scan", "ios": "https://dc.lft.to/lastmile_qr_scan"}, "fusion_lon": 0.0, "lat": 38.91587616666666, "bike_id": "e187eae20095dac911abc4e5e8ed438b", "type": "electric_scooter", "is_reserved": 0, "lon": -77.02305066666666}, {"fusion_lat": 0.0, "name": "0d0b23121aa9032c156a522ee63b2183", "is_disabled": 0, "rental_uris": {"android": "https://dc.lft.to/lastmile_qr_scan", "ios": "https://dc.lft.to/lastmile_qr_scan"}, "fusion_lon": 0.0, "lat": 38.917534833333335, "bike_id": "0d0b23121aa9032c156a522ee63b2183", "type": "electric_scooter", "is_reserved": 0, "lon": -77.03069483333333}, {"fusion_lat": 0.0, "name": "e974c67f5edd3cf1f38be6096755a61e", "is_disabled": 0, "rental_uris": {"android": "https://dc.lft.to/lastmile_qr_scan", "ios": "https://dc.lft.to/lastmile_qr_scan"}, "fusion_lon": 0.0, "lat": 38.921364833333335, "bike_id": "e974c67f5edd3cf1f38be6096755a61e", "type": "electric_scooter", "is_reserved": 0, "lon": -77.018049}, {"fusion_lat": 0.0, "name": "cbe4638900cc4a6b6f56ef65ba1f311b", "is_disabled": 0, "rental_uris": {"android": "https://dc.lft.to/lastmile_qr_scan", "ios": "https://dc.lft.to/lastmile_qr_scan"}, "fusion_lon": 0.0, "lat": 38.902645, "bike_id": "cbe4638900cc4a6b6f56ef65ba1f311b", "type": "electric_scooter", "is_reserved": 0, "lon": -77.053144}, {"fusion_lat": 0.0, "name": "eefc654f5e55d8d6f2b7327a82eb1e57", "is_disabled": 0, "rental_uris": {"android": "https://dc.lft.to/lastmile_qr_scan", "ios": "https://dc.lft.to/lastmile_qr_scan"}, "fusion_lon": 0.0, "lat": 38.9076375, "bike_id": "eefc654f5e55d8d6f2b7327a82eb1e57", "type": "electric_scooter", "is_reserved": 0, "lon": -77.05692166666667}, {"fusion_lat": 0.0, "name": "ba1feac5cd053390655c92cec3b38aae", "is_disabled": 0, "rental_uris": {"android": "https://dc.lft.to/lastmile_qr_scan", "ios": "https://dc.lft.to/lastmile_qr_scan"}, "fusion_lon": 0.0, "lat": 38.920148, "bike_id": "ba1feac5cd053390655c92cec3b38aae", "type": "electric_scooter", "is_reserved": 0, "lon": -77.031417}, {"fusion_lat": 0.0, "name": "087cada6c3d264608136f0c4cbfc102f", "is_disabled": 0, "rental_uris": {"android": "https://dc.lft.to/lastmile_qr_scan", "ios": "https://dc.lft.to/lastmile_qr_scan"}, "fusion_lon": 0.0, "lat": 38.899661, "bike_id": "087cada6c3d264608136f0c4cbfc102f", "type": "electric_scooter", "is_reserved": 0, "lon": -77.019059}, {"fusion_lat": 0.0, "name": "6707174ef613f8d242875bdfab6f0ed9", "is_disabled": 0, "rental_uris": {"android": "https://dc.lft.to/lastmile_qr_scan", "ios": "https://dc.lft.to/lastmile_qr_scan"}, "fusion_lon": 0.0, "lat": 38.90945833333333, "bike_id": "6707174ef613f8d242875bdfab6f0ed9", "type": "electric_bike", "is_reserved": 0, "lon": -76.98451033333333}, {"fusion_lat": 0.0, "name": "3da1072720153c30891115b1f27603af", "is_disabled": 0, "rental_uris": {"android": "https://dc.lft.to/lastmile_qr_scan", "ios": "https://dc.lft.to/lastmile_qr_scan"}, "fusion_lon": 0.0, "lat": 38.8973475, "bike_id": "3da1072720153c30891115b1f27603af", "type": "electric_scooter", "is_reserved": 0, "lon": -77.02329216666666}, {"fusion_lat": 0.0, "name": "770412fb24fc932f4e9ac0d1d85a9241", "is_disabled": 0, "rental_uris": {"android": "https://dc.lft.to/lastmile_qr_scan", "ios": "https://dc.lft.to/lastmile_qr_scan"}, "fusion_lon": 0.0, "lat": 38.902839, "bike_id": "770412fb24fc932f4e9ac0d1d85a9241", "type": "electric_scooter", "is_reserved": 0, "lon": -77.02283583333333}, {"fusion_lat": 0.0, "name": "1efd24d45c8243f4bdabbc8141105dd2", "is_disabled": 0, "rental_uris": {"android": "https://dc.lft.to/lastmile_qr_scan", "ios": "https://dc.lft.to/lastmile_qr_scan"}, "fusion_lon": 0.0, "lat": 38.9258995, "bike_id": "1efd24d45c8243f4bdabbc8141105dd2", "type": "electric_scooter", "is_reserved": 0, "lon": -77.0440645}, {"fusion_lat": 0.0, "name": "36fad3bf39c58d23ff2c4347d7799374", "is_disabled": 0, "rental_uris": {"android": "https://dc.lft.to/lastmile_qr_scan", "ios": "https://dc.lft.to/lastmile_qr_scan"}, "fusion_lon": 0.0, "lat": 38.8972445, "bike_id": "36fad3bf39c58d23ff2c4347d7799374", "type": "electric_scooter", "is_reserved": 0, "lon": -77.02344866666667}, {"fusion_lat": 0.0, "name": "29ddeb50d5ff2859b7f4a9c044277e16", "is_disabled": 0, "rental_uris": {"android": "https://dc.lft.to/lastmile_qr_scan", "ios": "https://dc.lft.to/lastmile_qr_scan"}, "fusion_lon": 0.0, "lat": 38.925142666666666, "bike_id": "29ddeb50d5ff2859b7f4a9c044277e16", "type": "electric_scooter", "is_reserved": 0, "lon": -77.023607}, {"fusion_lat": 0.0, "name": "2d972f0f601a5d53d151341db717f6c9", "is_disabled": 0, "rental_uris": {"android": "https://dc.lft.to/lastmile_qr_scan", "ios": "https://dc.lft.to/lastmile_qr_scan"}, "fusion_lon": 0.0, "lat": 38.91113983333334, "bike_id": "2d972f0f601a5d53d151341db717f6c9", "type": "electric_scooter", "is_reserved": 0, "lon": -77.081343}, {"fusion_lat": 0.0, "name": "f5f05d8853e7103f90fbdf69b57f9395", "is_disabled": 0, "rental_uris": {"android": "https://dc.lft.to/lastmile_qr_scan", "ios": "https://dc.lft.to/lastmile_qr_scan"}, "fusion_lon": 0.0, "lat": 38.936972833333336, "bike_id": "f5f05d8853e7103f90fbdf69b57f9395", "type": "electric_scooter", "is_reserved": 0, "lon": -77.05597266666666}, {"fusion_lat": 0.0, "name": "88d0cc40f67becc1fc865808a2619a78", "is_disabled": 0, "rental_uris": {"android": "https://dc.lft.to/lastmile_qr_scan", "ios": "https://dc.lft.to/lastmile_qr_scan"}, "fusion_lon": 0.0, "lat": 38.90642316666667, "bike_id": "88d0cc40f67becc1fc865808a2619a78", "type": "electric_scooter", "is_reserved": 0, "lon": -77.048796}, {"fusion_lat": 0.0, "name": "9ffbf8f793bebde1c98bb247a4765a95", "is_disabled": 0, "rental_uris": {"android": "https://dc.lft.to/lastmile_qr_scan", "ios": "https://dc.lft.to/lastmile_qr_scan"}, "fusion_lon": 0.0, "lat": 38.934601, "bike_id": "9ffbf8f793bebde1c98bb247a4765a95", "type": "electric_scooter", "is_reserved": 0, "lon": -77.02783916666667}, {"fusion_lat": 0.0, "name": "b89a305e57e9b11ae4ab1a1716a72541", "is_disabled": 0, "rental_uris": {"android": "https://dc.lft.to/lastmile_qr_scan", "ios": "https://dc.lft.to/lastmile_qr_scan"}, "fusion_lon": 0.0, "lat": 38.88537483333333, "bike_id": "b89a305e57e9b11ae4ab1a1716a72541", "type": "electric_scooter", "is_reserved": 0, "lon": -77.00054416666667}, {"fusion_lat": 0.0, "name": "a555148ebe925bde024a07c3dfa3e814", "is_disabled": 0, "rental_uris": {"android": "https://dc.lft.to/lastmile_qr_scan", "ios": "https://dc.lft.to/lastmile_qr_scan"}, "fusion_lon": 0.0, "lat": 38.90788916666666, "bike_id": "a555148ebe925bde024a07c3dfa3e814", "type": "electric_scooter", "is_reserved": 0, "lon": -77.04351483333333}, {"fusion_lat": 0.0, "name": "00b33df139714d53f7186afa443ecde0", "is_disabled": 0, "rental_uris": {"android": "https://dc.lft.to/lastmile_qr_scan", "ios": "https://dc.lft.to/lastmile_qr_scan"}, "fusion_lon": 0.0, "lat": 38.88524833333334, "bike_id": "00b33df139714d53f7186afa443ecde0", "type": "electric_scooter", "is_reserved": 0, "lon": -76.92915333333333}, {"fusion_lat": 0.0, "name": "908c480a8b5c08c33b9bb7579f1708df", "is_disabled": 0, "rental_uris": {"android": "https://dc.lft.to/lastmile_qr_scan", "ios": "https://dc.lft.to/lastmile_qr_scan"}, "fusion_lon": 0.0, "lat": 38.89222866666667, "bike_id": "908c480a8b5c08c33b9bb7579f1708df", "type": "electric_scooter", "is_reserved": 0, "lon": -77.03338066666667},