{"data": {"bikes": [{"lon": -76.98227116666666, "bike_id": "2e181c1b83b93df9740a53cae331d562", "lat": 38.866532166666666, "fusion_lon": 0.0, "fusion_lat": 0.0, "type": "electric_scooter", "name": "2e181c1b83b93df9740a53cae331d562", "is_disabled": 0, "rental_uris": {"ios": "https://dc.lft.to/lastmile_qr_scan", "android": "https://dc.lft.to/lastmile_qr_scan"}, "is_reserved": 0}, {"lon": -77.04340216666667, "bike_id": "7b83a7f695658aed79c8f6ebc36c1bf4", "lat": 38.9013285, "fusion_lon": 0.0, "fusion_lat": 0.0, "type": "electric_scooter", "name": "7b83a7f695658aed79c8f6ebc36c1bf4", "is_disabled": 0, "rental_uris": {"ios": "https://dc.lft.to/lastmile_qr_scan", "android": "https://dc.lft.to/lastmile_qr_scan"}, "is_reserved": 0}, {"lon": -77.03828683333333, "bike_id": "8a90b0e028351961c1d274d7a8941690", "lat": 38.911227333333336, "fusion_lon": 0.0, "fusion_lat": 0.0, "type": "electric_scooter", "name": "8a90b0e028351961c1d274d7a8941690", "is_disabled": 0, "rental_uris": {"ios": "https://dc.lft.to/lastmile_qr_scan", "android": "https://dc.lft.to/lastmile_qr_scan"}, "is_reserved": 0}, {"lon": -77.0006125, "bike_id": "7279d0eef02387b8e225b8bbc47a0149", "lat": 38.89499333333333, "fusion_lon": 0.0, "fusion_lat": 0.0, "type": "electric_scooter", "name": "7279d0eef02387b8e225b8bbc47a0149", "is_disabled": 0, "rental_uris": {"ios": "https://dc.lft.to/lastmile_qr_scan", "android": "https://dc.lft.to/lastmile_qr_scan"}, "is_reserved": 0}, {"lon": -77.04156966666666, "bike_id": "462feb0f321179f35ad785c08623de95", "lat": 38.91421616666667, "fusion_lon": 0.0, "fusion_lat": 0.0, "type": "electric_scooter", "name": "462feb0f321179f35ad785c08623de95", "is_disabled": 0, "rental_uris": {"ios": "https://dc.lft.to/lastmile_qr_scan", "android": "https://dc.lft.to/lastmile_qr_scan"}, "is_reserved": 0}, {"lon": -77.05696983333333, "bike_id": "6f5eef722d8663cf2e44ae2df3a1ada2", "lat": 38.937202666666664, "fusion_lon": 0.0, "fusion_lat": 0.0, "type": "electric_scooter", "name": "6f5eef722d8663cf2e44ae2df3a1ada2", "is_disabled": 0, "rental_uris": {"ios": "https://dc.lft.to/lastmile_qr_scan", "android": "https://dc.lft.to/lastmile_qr_scan"}, "is_reserved": 0}, {"lon": -76.93300466666666, "bike_id": "c41557f3cff4220b981824c202da33ae", "lat": 38.89198183333333, "fusion_lon": 0.0, "fusion_lat": 0.0, "type": "electric_scooter", "name": "c41557f3cff4220b981824c202da33ae", "is_disabled": 0, "rental_uris": {"ios": "https://dc.lft.to/lastmile_qr_scan", "android": "https://dc.lft.to/lastmile_qr_scan"}, "is_reserved": 0}, {"lon": -77.03212866666667, "bike_id": "7557c8b4faf782b15d2df62ec60d164e", "lat": 38.9073175, "fusion_lon": 0.0, "fusion_lat": 0.0, "type": "electric_scooter", "name": "7557c8b4faf782b15d2df62ec60d164e", "is_disabled": 0, "rental_uris": {"ios": "https://dc.lft.to/lastmile_qr_scan", "android": "https://dc.lft.to/lastmile_qr_scan"}, "is_reserved": 0}, {"lon": -77.02781366666666, "bike_id": "23aa6d15ad9f84ee06f0a3937c8523a6", "lat": 38.892235666666664, "fusion_lon": 0.0, "fusion_lat": 0.0, "type": "electric_scooter", "name": "23aa6d15ad9f84ee06f0a3937c8523a6", "is_disabled": 0, "rental_uris": {"ios": "https://dc.lft.to/lastmile_qr_scan", "android": "https://dc.lft.to/lastmile_qr_scan"}, "is_reserved": 0}, {"lon": -77.027783, "bike_id": "90653c99e587c604eb036b8dc2239afa", "lat": 38.892221666666664, "fusion_lon": 0.0, "fusion_lat": 0.0, "type": "electric_scooter", "name": "90653c99e587c604eb036b8dc2239afa", "is_disabled": 0, "rental_uris": {"ios": "https://dc.lft.to/lastmile_qr_scan", "android": "https://dc.lft.to/lastmile_qr_scan"}, "is_reserved": 0}, {"lon": -77.05160366666667, "bike_id": "b5a2445939f0a810811a90e3a559e793", "lat": 39.043151333333334, "fusion_lon": 0.0, "fusion_lat": 0.0, "type": "electric_bike", "name": "b5a2445939f0a810811a90e3a559e793", "is_disabled": 0, "rental_uris": {"ios": "https://dc.lft.to/lastmile_qr_scan", "android": "https://dc.lft.to/lastmile_qr_scan"}, "is_reserved": 0}, {"lon": -76.98227183333333, "bike_id": "ad6ddbce58dbf4100b4b5cfef53d8fa7", "lat": 38.88645983333333, "fusion_lon": 0.0, "fusion_lat": 0.0, "type": "electric_scooter", "name": "ad6ddbce58dbf4100b4b5cfef53d8fa7", "is_disabled": 0, "rental_uris": {"ios": "https://dc.lft.to/lastmile_qr_scan", "android": "https://dc.lft.to/lastmile_qr_scan"}, "is_reserved": 0}, {"lon": -77.11143516666667, "bike_id": "5687ed5efe1c4e359f33a4c1fd85b1f1", "lat": 38.85513233333333, "fusion_lon": 0.0, "fusion_lat": 0.0, "type": "electric_bike", "name": "5687ed5efe1c4e359f33a4c1fd85b1f1", "is_disabled": 0, "rental_uris": {"ios": "https://dc.lft.to/lastmile_qr_scan", "android": "https://dc.lft.to/lastmile_qr_scan"}, "is_reserved": 0}, {"lon": -77.10492166666667, "bike_id": "45fc52266c038c08a4521cf5020607cb", "lat": 38.856125666666664, "fusion_lon": 0.0, "fusion_lat": 0.0, "type": "electric_bike", "name": "45fc52266c038c08a4521cf5020607cb", "is_disabled": 0, "rental_uris": {"ios": "https://dc.lft.to/lastmile_qr_scan", "android": "https://dc.lft.to/lastmile_qr_scan"}, "is_reserved": 0}, {"lon": -77.02174133333334, "bike_id": "34ac2e0c61b6a2a426c722f78ad3d259", "lat": 38.9038285, "fusion_lon": 0.0, "fusion_lat": 0.0, "type": "electric_scooter", "name": "34ac2e0c61b6a2a426c722f78ad3d259", "is_disabled": 0, "rental_uris": {"ios": "https://dc.lft.to/lastmile_qr_scan", "android": "https://dc.lft.to/lastmile_qr_scan"}, "is_reserved": 0}, {"lon": -77.04336433333333, "bike_id": "64392ca4f103ad7597228e791287ae62", "lat": 38.92220666666667, "fusion_lon": 0.0, "fusion_lat": 0.0, "type": "electric_scooter", "name": "64392ca4f103ad7597228e791287ae62", "is_disabled": 0, "rental_uris": {"ios": "https://dc.lft.to/lastmile_qr_scan", "android": "https://dc.lft.to/lastmile_qr_scan"}, "is_reserved": 0}, {"lon": -77.04279016666666, "bike_id": "482b4e678046c50e738d1b6d23852e5a", "lat": 38.9073495, "fusion_lon": 0.0, "fusion_lat": 0.0, "type": "electric_scooter", "name": "482b4e678046c50e738d1b6d23852e5a", "is_disabled": 0, "rental_uris": {"ios": "https://dc.lft.to/lastmile_qr_scan", "android": "https://dc.lft.to/lastmile_qr_scan"}, "is_reserved": 0}, {"lon": -77.0399845, "bike_id": "329361526754b1508cd265c579fca900", "lat": 38.91406, "fusion_lon": 0.0, "fusion_lat": 0.0, "type": "electric_scooter", "name": "329361526754b1508cd265c579fca900", "is_disabled": 0, "rental_uris": {"ios": "https://dc.lft.to/lastmile_qr_scan", "android": "https://dc.lft.to/lastmile_qr_scan"}, "is_reserved": 0}, {"lon": -77.02473066666667, "bike_id": "96613fb81fbc72678b18a071128c50c0", "lat": 38.91824033333333, "fusion_lon": 0.0, "fusion_lat": 0.0, "type": "electric_scooter", "name": "96613fb81fbc72678b18a071128c50c0", "is_disabled": 0, "rental_uris": {"ios": "https://dc.lft.to/lastmile_qr_scan", "android": "https://dc.lft.to/lastmile_qr_scan"}, "is_reserved": 0}, {"lon": -77.02403783333334, "bike_id": "c33da04bb344cf8f932ecb41e705080c", "lat": 38.891955, "fusion_lon": 0.0, "fusion_lat": 0.0, "type": "electric_scooter", "name": "c33da04bb344cf8f932ecb41e705080c", "is_disabled": 0, "rental_uris": {"ios": "https://dc.lft.to/lastmile_qr_scan", "android": "https://dc.lft.to/lastmile_qr_scan"}, "is_reserved": 0}, {"lon": -77.01212833333334, "bike_id": "28b74844d5e7204e4cf75065e6cf1005", "lat": 38.92124716666667, "fusion_lon": 0.0, "fusion_lat": 0.0, "type": "electric_scooter", "name": "28b74844d5e7204e4cf75065e6cf1005", "is_disabled": 0, "rental_uris": {"ios": "https://dc.lft.to/lastmile_qr_scan", "android": "https://dc.lft.to/lastmile_qr_scan"}, "is_reserved": 0}, {"lon": -77.022971, "bike_id": "3d04138d4fc751d88b85666e805bfaba", "lat": 38.9168435, "fusion_lon": 0.0, "fusion_lat": 0.0, "type": "electric_scooter", "name": "3d04138d4fc751d88b85666e805bfaba", "is_disabled": 0, "rental_uris": {"ios": "https://dc.lft.to/lastmile_qr_scan", "android": "https://dc.lft.to/lastmile_qr_scan"}, "is_reserved": 0}, {"lon": -77.041816, "bike_id": "d44a6a305bbfcc500522b5719f847b29", "lat": 38.89225016666666, "fusion_lon": 0.0, "fusion_lat": 0.0, "type": "electric_scooter", "name": "d44a6a305bbfcc500522b5719f847b29", "is_disabled": 0, "rental_uris": {"ios": "https://dc.lft.to/lastmile_qr_scan", "android": "https://dc.lft.to/lastmile_qr_scan"}, "is_reserved": 0}, {"lon": -77.00576533333333, "bike_id": "2facfc80f496b3395519f41cd1d88894", "lat": 38.905598, "fusion_lon": 0.0, "fusion_lat": 0.0, "type": "electric_scooter", "name": "2facfc80f496b3395519f41cd1d88894", "is_disabled": 0, "rental_uris": {"ios": "https://dc.lft.to/lastmile_qr_scan", "android": "https://dc.lft.to/lastmile_qr_scan"}, "is_reserved": 0}, {"lon": -77.03287583333334, "bike_id": "460d0a8ec41fad271066f7c5f5c39650", "lat": 38.9072485, "fusion_lon": 0.0, "fusion_lat": 0.0, "type": "electric_scooter", "name": "460d0a8ec41fad271066f7c5f5c39650", "is_disabled": 0, "rental_uris": {"ios": "https://dc.lft.to/lastmile_qr_scan", "android": "https://dc.lft.to/lastmile_qr_scan"}, "is_reserved": 0}, {"lon": -76.9839755, "bike_id": "98a8a31f11101cac60b1c10765bc5406", "lat": 38.8664125, "fusion_lon": 0.0, "fusion_lat": 0.0, "type": "electric_scooter", "name": "98a8a31f11101cac60b1c10765bc5406", "is_disabled": 0, "rental_uris": {"ios": "https://dc.lft.to/lastmile_qr_scan", "android": "https://dc.lft.to/lastmile_qr_scan"}, "is_reserved": 0}, {"lon": -77.03614133333333, "bike_id": "e23f11ad18f1df40474b71b5185a9715", "lat": 38.93476883333334, "fusion_lon": 0.0, "fusion_lat": 0.0, "type": "electric_scooter", "name": "e23f11ad18f1df40474b71b5185a9715", "is_disabled": 0, "rental_uris": {"ios": "https://dc.lft.to/lastmile_qr_scan", "android": "https://dc.lft.to/lastmile_qr_scan"}, "is_reserved": 0}, {"lon": -77.080028, "bike_id": "b5fc3762db0f46864be03c9cc501449b", "lat": 38.9648565, "fusion_lon": 0.0, "fusion_lat": 0.0, "type": "electric_scooter", "name": "b5fc3762db0f46864be03c9cc501449b", "is_disabled": 0, "rental_uris": {"ios": "https://dc.lft.to/lastmile_qr_scan", "android": "https://dc.lft.to/lastmile_qr_scan"}, "is_reserved": 0}, {"lon": -77.01499233333334, "bike_id": "f99dcc94b8fa408fa45b0c2dbb04134a", "lat": 38.91759483333333, "fusion_lon": 0.0, "fusion_lat": 0.0, "type": "electric_scooter", "name": "f99dcc94b8fa408fa45b0c2dbb04134a", "is_disabled": 0, "rental_uris": {"ios": "https://dc.lft.to/lastmile_qr_scan", "android": "https://dc.lft.to/lastmile_qr_scan"}, "is_reserved": 0}, {"lon": -76.92203533333333, "bike_id": "aab1094726c7c65fb940b2ae42815e72", "lat": 38.895027166666665, "fusion_lon": 0.0, "fusion_lat": 0.0, "type": "electric_bike", "name": "aab1094726c7c65fb940b2ae42815e72", "is_disabled": 0, "rental_uris": {"ios": "https://dc.lft.to/lastmile_qr_scan", "android": "https://dc.lft.to/lastmile_qr_scan"}, "is_reserved": 0}, {"lon": -77.07897266666667, "bike_id": "7a71deb9064b564d6f797ce69501c160", "lat": 38.83931716666667, "fusion_lon": 0.0, "fusion_lat": 0.0, "type": "electric_bike", "name": "7a71deb9064b564d6f797ce69501c160", "is_disabled": 0, "rental_uris": {"ios": "https://dc.lft.to/lastmile_qr_scan", "android": "https://dc.lft.to/lastmile_qr_scan"}, "is_reserved": 0}, {"lon": -76.93188833333333, "bike_id": "b22cbc3f932643a0921306f8312a7445", "lat": 38.89877116666667, "fusion_lon": 0.0, "fusion_lat": 0.0, "type": "electric_scooter", "name": "b22cbc3f932643a0921306f8312a7445", "is_disabled": 0, "rental_uris": {"ios": "https://dc.lft.to/lastmile_qr_scan", "android": "https://dc.lft.to/lastmile_qr_scan"}, "is_reserved": 0}, {"lon": -76.99018816666667, "bike_id": "b40af29b7ae903ff8fb9545d7b7e580d", "lat": 38.882742, "fusion_lon": 0.0, "fusion_lat": 0.0, "type": "electric_scooter", "name": "b40af29b7ae903ff8fb9545d7b7e580d", "is_disabled": 0, "rental_uris": {"ios": "https://dc.lft.to/lastmile_qr_scan", "android": "https://dc.lft.to/lastmile_qr_scan"}, "is_reserved": 0}, {"lon": -77.003739, "bike_id": "287965db17b6c5a9e206421c6350c27d", "lat": 38.89731783333333, "fusion_lon": 0.0, "fusion_lat": 0.0, "type": "electric_scooter", "name": "287965db17b6c5a9e206421c6350c27d", "is_disabled": 0, "rental_uris": {"ios": "https://dc.lft.to/lastmile_qr_scan", "android": "https://dc.lft.to/lastmile_qr_scan"}, "is_reserved": 0}, {"lon": -77.023956, "bike_id": "7ba3bdaacbc2b119d1263ae850a5e3c9", "lat": 38.91437833333333, "fusion_lon": 0.0, "fusion_lat": 0.0, "type": "electric_scooter", "name": "7ba3bdaacbc2b119d1263ae850a5e3c9", "is_disabled": 0, "rental_uris": {"ios": "https://dc.lft.to/lastmile_qr_scan", "android": "https://dc.lft.to/lastmile_qr_scan"}, "is_reserved": 0}, {"lon": -76.980404, "bike_id": "a09890cab9e385d319ef11c0fcbc037c", "lat": 38.889686, "fusion_lon": 0.0, "fusion_lat": 0.0, "type": "electric_scooter", "name": "a09890cab9e385d319ef11c0fcbc037c", "is_disabled": 0, "rental_uris": {"ios": "https://dc.lft.to/lastmile_qr_scan", "android": "https://dc.lft.to/lastmile_qr_scan"}, "is_reserved": 0}, {"lon": -77.02897083333333, "bike_id": "aae6ec0dfa18cf9d2e4f97dd9cdaeef1", "lat": 38.916886, "fusion_lon": 0.0, "fusion_lat": 0.0, "type": "electric_scooter", "name": "aae6ec0dfa18cf9d2e4f97dd9cdaeef1", "is_disabled": 0, "rental_uris": {"ios": "https://dc.lft.to/lastmile_qr_scan", "android": "https://dc.lft.to/lastmile_qr_scan"}, "is_reserved": 0}, {"lon": -77.02723266666666, "bike_id": "b7d4359808de10b1e369b282cf406ca0", "lat": 38.9066705, "fusion_lon": 0.0, "fusion_lat": 0.0, "type": "electric_scooter", "name": "b7d4359808de10b1e369b282cf406ca0", "is_disabled": 0, "rental_uris": {"ios": "https://dc.lft.to/lastmile_qr_scan", "android": "https://dc.lft.to/lastmile_qr_scan"}, "is_reserved": 0}, {"lon": -76.98867733333333, "bike_id": "6bd086ac2ab3ccfc15cb521226133a75", "lat": 38.89174516666667, "fusion_lon": 0.0, "fusion_lat": 0.0, "type": "electric_scooter", "name": "6bd086ac2ab3ccfc15cb521226133a75", "is_disabled": 0, "rental_uris": {"ios": "https://dc.lft.to/lastmile_qr_scan", "android": "https://dc.lft.to/lastmile_qr_scan"}, "is_reserved": 0}, {"lon": -77.03827216666667, "bike_id": "4d48d1a8c13e03a0f8c596ab60fee50d", "lat": 38.90683516666667, "fusion_lon": 0.0, "fusion_lat": 0.0, "type": "electric_scooter", "name": "4d48d1a8c13e03a0f8c596ab60fee50d", "is_disabled": 0, "rental_uris": {"ios": "https://dc.lft.to/lastmile_qr_scan", "android": "https://dc.lft.to/lastmile_qr_scan"}, "is_reserved": 0}, {"lon": -77.02833833333334, "bike_id": "d67d01c21ac6ed763542566c227d3abd", "lat": 38.93274566666667, "fusion_lon": 0.0, "fusion_lat": 0.0, "type": "electric_scooter", "name": "d67d01c21ac6ed763542566c227d3abd", "is_disabled": 0, "rental_uris": {"ios": "https://dc.lft.to/lastmile_qr_scan", "android": "https://dc.lft.to/lastmile_qr_scan"}, "is_reserved": 0}, {"lon": -77.07122966666667, "bike_id": "509a3cb52e384ea4917fb8732ee9d994", "lat": 38.91969316666667, "fusion_lon": 0.0, "fusion_lat": 0.0, "type": "electric_scooter", "name": "509a3cb52e384ea4917fb8732ee9d994", "is_disabled": 0, "rental_uris": {"ios": "https://dc.lft.to/lastmile_qr_scan", "android": "https://dc.lft.to/lastmile_qr_scan"}, "is_reserved": 0}, {"lon": -76.97673, "bike_id": "2ccc110bcf4a1ec26622d819cf10a800", "lat": 38.95245583333333, "fusion_lon": 0.0, "fusion_lat": 0.0, "type": "electric_bike", "name": "2ccc110bcf4a1ec26622d819cf10a800", "is_disabled": 0, "rental_uris": {"ios": "https://dc.lft.to/lastmile_qr_scan", "android": "https://dc.lft.to/lastmile_qr_scan"}, "is_reserved": 0}, {"lon": -76.99502166666667, "bike_id": "40dc8b810a9ea45aefa478a12236effe", "lat": 38.93244983333334, "fusion_lon": 0.0, "fusion_lat": 0.0, "type": "electric_scooter", "name": "40dc8b810a9ea45aefa478a12236effe", "is_disabled": 0, "rental_uris": {"ios": "https://dc.lft.to/lastmile_qr_scan", "android": "https://dc.lft.to/lastmile_qr_scan"}, "is_reserved": 0}, {"lon": -77.018092, "bike_id": "02fe6cf270502b8f499d2da70d99dbfc", "lat": 38.9212535, "fusion_lon": 0.0, "fusion_lat": 0.0, "type": "electric_scooter", "name": "02fe6cf270502b8f499d2da70d99dbfc", "is_disabled": 0, "rental_uris": {"ios": "https://dc.lft.to/lastmile_qr_scan", "android": "https://dc.lft.to/lastmile_qr_scan"}, "is_reserved": 0}, {"lon": -77.00989266666667, "bike_id": "5d5907474a3f4be034cb301eaed15427", "lat": 38.872866, "fusion_lon": 0.0, "fusion_lat": 0.0, "type": "electric_scooter", "name": "5d5907474a3f4be034cb301eaed15427", "is_disabled": 0, "rental_uris": {"ios": "https://dc.lft.to/lastmile_qr_scan", "android": "https://dc.lft.to/lastmile_qr_scan"}, "is_reserved": 0}, {"lon": -77.046385, "bike_id": "3e451abbd272472da306403a51265d71", "lat": 38.915888, "fusion_lon": 0.0, "fusion_lat": 0.0, "type": "electric_scooter", "name": "3e451abbd272472da306403a51265d71", "is_disabled": 0, "rental_uris": {"ios": "https://dc.lft.to/lastmile_qr_scan", "android": "https://dc.lft.to/lastmile_qr_scan"}, "is_reserved": 0}, {"lon": -76.987855, "bike_id": "cfcd93cd492cf112bad88af12d0324b6", "lat": 38.867267166666664, "fusion_lon": 0.0, "fusion_lat": 0.0, "type": "electric_scooter", "name": "cfcd93cd492cf112bad88af12d0324b6", "is_disabled": 0, "rental_uris": {"ios": "https://dc.lft.to/lastmile_qr_scan", "android": "https://dc.lft.to/lastmile_qr_scan"}, "is_reserved": 0}, {"lon": -77.03071233333333, "bike_id": "b892cfe98cef716ac6fbe4c5fc3c4b8f", "lat": 38.92246183333334, "fusion_lon": 0.0, "fusion_lat": 0.0, "type": "electric_scooter", "name": "b892cfe98cef716ac6fbe4c5fc3c4b8f", "is_disabled": 0, "rental_uris": {"ios": "https://dc.lft.to/lastmile_qr_scan", "android": "https://dc.lft.to/lastmile_qr_scan"}, "is_reserved": 0}, {"lon": -77.02922666666667, "bike_id": "ac05a50e69e8b86c29318185482e9378", "lat": 38.93466, "fusion_lon": 0.0, "fusion_lat": 0.0, "type": "electric_scooter", "name": "ac05a50e69e8b86c29318185482e9378", "is_disabled": 0, "rental_uris": {"ios": "https://dc.lft.to/lastmile_qr_scan", "android": "https://dc.lft.to/lastmile_qr_scan"}, "is_reserved": 0}, {"lon": -77.02960516666667, "bike_id": "b6c2e76449fc2c92da0166de28be3677", "lat": 38.91674666666667, "fusion_lon": 0.0, "fusion_lat": 0.0, "type": "electric_scooter", "name": "b6c2e76449fc2c92da0166de28be3677", "is_disabled": 0, "rental_uris": {"ios": "https://dc.lft.to/lastmile_qr_scan", "android": "https://dc.lft.to/lastmile_qr_scan"}, "is_reserved": 0}, {"lon": -77.03112916666667, "bike_id": "aea520f897e64a8440c23ff816d7eabd", "lat": 38.915664666666665, "fusion_lon": 0.0, "fusion_lat": 0.0, "type": "electric_scooter", "name": "aea520f897e64a8440c23ff816d7eabd", "is_disabled": 0, "rental_uris": {"ios": "https://dc.lft.to/lastmile_qr_scan", "android": "https://dc.lft.to/lastmile_qr_scan"}, "is_reserved": 0}, {"lon": -77.00458283333333, "bike_id": "35542710de191fd2862b568deccb70a0", "lat": 38.914388833333334, "fusion_lon": 0.0, "fusion_lat": 0.0, "type": "electric_scooter", "name": "35542710de191fd2862b568deccb70a0", "is_disabled": 0, "rental_uris": {"ios": "https://dc.lft.to/lastmile_qr_scan", "android": "https://dc.lft.to/lastmile_qr_scan"}, "is_reserved": 0}, {"lon": -76.9497205, "bike_id": "ee343b3a8dd0893b483b1b65c22ca74e", "lat": 38.893713, "fusion_lon": 0.0, "fusion_lat": 0.0, "type": "electric_scooter", "name": "ee343b3a8dd0893b483b1b65c22ca74e", "is_disabled": 0, "rental_uris": {"ios": "https://dc.lft.to/lastmile_qr_scan", "android": "https://dc.lft.to/lastmile_qr_scan"}, "is_reserved": 0}, {"lon": -77.004425, "bike_id": "020c12192653f810656229664f62881d", "lat": 38.911280166666664, "fusion_lon": 0.0, "fusion_lat": 0.0, "type": "electric_scooter", "name": "020c12192653f810656229664f62881d", "is_disabled": 0, "rental_uris": {"ios": "https://dc.lft.to/lastmile_qr_scan", "android": "https://dc.lft.to/lastmile_qr_scan"}, "is_reserved": 0}, {"lon": -77.0622935, "bike_id": "ebc16e6ec403bf80a7a184b2cb693de2", "lat": 38.863076, "fusion_lon": 0.0, "fusion_lat": 0.0, "type": "electric_bike", "name": "ebc16e6ec403bf80a7a184b2cb693de2", "is_disabled": 0, "rental_uris": {"ios": "https://dc.lft.to/lastmile_qr_scan", "android": "https://dc.lft.to/lastmile_qr_scan"}, "is_reserved": 0}, {"lon": -77.02418383333334, "bike_id": "cd944f090e2a25508ff9258001df8b5f", "lat": 38.87958016666666, "fusion_lon": 0.0, "fusion_lat": 0.0, "type": "electric_scooter", "name": "cd944f090e2a25508ff9258001df8b5f", "is_disabled": 0, "rental_uris": {"ios": "https://dc.lft.to/lastmile_qr_scan", "android": "https://dc.lft.to/lastmile_qr_scan"}, "is_reserved": 0}, {"lon": -77.02829133333333, "bike_id": "c69558fb459c175c4a386054dcaa4c06", "lat": 38.931459333333336, "fusion_lon": 0.0, "fusion_lat": 0.0, "type": "electric_scooter", "name": "c69558fb459c175c4a386054dcaa4c06", "is_disabled": 0, "rental_uris": {"ios": "https://dc.lft.to/lastmile_qr_scan", "android": "https://dc.lft.to/lastmile_qr_scan"}, "is_reserved": 0}, {"lon": -77.04189116666667, "bike_id": "0faee6d959d5e10e4e970045c33799e2", "lat": 38.9262995, "fusion_lon": 0.0, "fusion_lat": 0.0, "type": "electric_scooter", "name": "0faee6d959d5e10e4e970045c33799e2", "is_disabled": 0, "rental_uris": {"ios": "https://dc.lft.to/lastmile_qr_scan", "android": "https://dc.lft.to/lastmile_qr_scan"}, "is_reserved": 0}, {"lon": -77.01958933333333, "bike_id": "f893d56a247e5e0fe63e106024a7f99d", "lat": 38.9221335, "fusion_lon": 0.0, "fusion_lat": 0.0, "type": "electric_scooter", "name": "f893d56a247e5e0fe63e106024a7f99d", "is_disabled": 0, "rental_uris": {"ios": "https://dc.lft.to/lastmile_qr_scan", "android": "https://dc.lft.to/lastmile_qr_scan"}, "is_reserved": 0}, {"lon": -77.03266966666666, "bike_id": "958162559e2055fa97f38292738b3689", "lat": 38.92857633333333, "fusion_lon": 0.0, "fusion_lat": 0.0, "type": "electric_scooter", "name": "958162559e2055fa97f38292738b3689", "is_disabled": 0, "rental_uris": {"ios": "https://dc.lft.to/lastmile_qr_scan", "android": "https://dc.lft.to/lastmile_qr_scan"}, "is_reserved": 0}, {"lon": -77.03655216666667, "bike_id": "616912385737be81e112ecc2e7a27b29", "lat": 38.921259666666664, "fusion_lon": 0.0, "fusion_lat": 0.0, "type": "electric_scooter", "name": "616912385737be81e112ecc2e7a27b29", "is_disabled": 0, "rental_uris": {"ios": "https://dc.lft.to/lastmile_qr_scan", "android": "https://dc.lft.to/lastmile_qr_scan"}, "is_reserved": 0}, {"lon": -76.98194783333334, "bike_id": "70fdba1e9d6d832ddec0d02bc8e8a1c4", "lat": 38.89945016666667, "fusion_lon": 0.0, "fusion_lat": 0.0, "type": "electric_scooter", "name": "70fdba1e9d6d832ddec0d02bc8e8a1c4", "is_disabled": 0, "rental_uris": {"ios": "https://dc.lft.to/lastmile_qr_scan", "android": "https://dc.lft.to/lastmile_qr_scan"}, "is_reserved": 0}, {"lon": -77.0269415, "bike_id": "28501b85eb8f79a4155eb89d881dbaa2", "lat": 38.91168583333334, "fusion_lon": 0.0, "fusion_lat": 0.0, "type": "electric_scooter", "name": "28501b85eb8f79a4155eb89d881dbaa2", "is_disabled": 0, "rental_uris": {"ios": "https://dc.lft.to/lastmile_qr_scan", "android": "https://dc.lft.to/lastmile_qr_scan"}, "is_reserved": 0}, {"lon": -76.98716116666667, "bike_id": "2d84bbf5150fa0574f8ce2cf70508b49", "lat": 38.86626416666667, "fusion_lon": 0.0, "fusion_lat": 0.0, "type": "electric_scooter", "name": "2d84bbf5150fa0574f8ce2cf70508b49", "is_disabled": 0, "rental_uris": {"ios": "https://dc.lft.to/lastmile_qr_scan", "android": "https://dc.lft.to/lastmile_qr_scan"}, "is_reserved": 0}, {"lon": -77.02623916666667, "bike_id": "9a0eac0e945832df43107e5372d504d9", "lat": 38.8922345, "fusion_lon": 0.0, "fusion_lat": 0.0, "type": "electric_scooter", "name": "9a0eac0e945832df43107e5372d504d9", "is_disabled": 0, "rental_uris": {"ios": "https://dc.lft.to/lastmile_qr_scan", "android": "https://dc.lft.to/lastmile_qr_scan"}, "is_reserved": 0}, {"lon": -77.063593, "bike_id": "a1a85fb1cc29a2f074ee473168342810", "lat": 38.9440885, "fusion_lon": 0.0, "fusion_lat": 0.0, "type": "electric_bike", "name": "a1a85fb1cc29a2f074ee473168342810", "is_disabled": 0, "rental_uris": {"ios": "https://dc.lft.to/lastmile_qr_scan", "android": "https://dc.lft.to/lastmile_qr_scan"}, "is_reserved": 0}, {"lon": -77.030914, "bike_id": "0753f80451137d6c4f66aedd43bdbd93", "lat": 38.90996283333333, "fusion_lon": 0.0, "fusion_lat": 0.0, "type": "electric_scooter", "name": "0753f80451137d6c4f66aedd43bdbd93", "is_disabled": 0, "rental_uris": {"ios": "https://dc.lft.to/lastmile_qr_scan", "android": "https://dc.lft.to/lastmile_qr_scan"}, "is_reserved": 0}, {"lon": -77.02959366666667, "bike_id": "90f83044284b4d9c135ce8310ebf5b2d", "lat": 38.922898833333335, "fusion_lon": 0.0, "fusion_lat": 0.0, "type": "electric_scooter", "name": "90f83044284b4d9c135ce8310ebf5b2d", "is_disabled": 0, "rental_uris": {"ios": "https://dc.lft.to/lastmile_qr_scan", "android": "https://dc.lft.to/lastmile_qr_scan"}, "is_reserved": 0}, {"lon": -76.93547566666666, "bike_id": "5f96ba620b7eff8f995d233e44d4bba7", "lat": 38.890184, "fusion_lon": 0.0, "fusion_lat": 0.0, "type": "electric_scooter", "name": "5f96ba620b7eff8f995d233e44d4bba7", "is_disabled": 0, "rental_uris": {"ios": "https://dc.lft.to/lastmile_qr_scan", "android": "https://dc.lft.to/lastmile_qr_scan"}, "is_reserved": 0}, {"lon": -77.03659266666666, "bike_id": "0c9934697e3a36f4f212563aa934b542", "lat": 38.92286933333333, "fusion_lon": 0.0, "fusion_lat": 0.0, "type": "electric_scooter", "name": "0c9934697e3a36f4f212563aa934b542", "is_disabled": 0, "rental_uris": {"ios": "https://dc.lft.to/lastmile_qr_scan", "android": "https://dc.lft.to/lastmile_qr_scan"}, "is_reserved": 0}, {"lon": -77.0448095, "bike_id": "575f2c6bc96530d7b4af86790bde3bb8", "lat": 38.90866716666667, "fusion_lon": 0.0, "fusion_lat": 0.0, "type": "electric_scooter", "name": "575f2c6bc96530d7b4af86790bde3bb8", "is_disabled": 0, "rental_uris": {"ios": "https://dc.lft.to/lastmile_qr_scan", "android": "https://dc.lft.to/lastmile_qr_scan"}, "is_reserved": 0}, {"lon": -77.03038666666667, "bike_id": "b04f2003b0b9bde58d473296f7e376fc", "lat": 38.88438416666666, "fusion_lon": 0.0, "fusion_lat": 0.0, "type": "electric_scooter", "name": "b04f2003b0b9bde58d473296f7e376fc", "is_disabled": 0, "rental_uris": {"ios": "https://dc.lft.to/lastmile_qr_scan", "android": "https://dc.lft.to/lastmile_qr_scan"}, "is_reserved": 0}, {"lon": -76.95750933333333, "bike_id": "7ec9a3a51698e5413a5d7f0342ab7225", "lat": 38.884246, "fusion_lon": 0.0, "fusion_lat": 0.0, "type": "electric_scooter", "name": "7ec9a3a51698e5413a5d7f0342ab7225", "is_disabled": 0, "rental_uris": {"ios": "https://dc.lft.to/lastmile_qr_scan", "android": "https://dc.lft.to/lastmile_qr_scan"}, "is_reserved": 0}, {"lon": -77.06102983333334, "bike_id": "28a7c231c0598d2100e35465e93c59cd", "lat": 38.90532316666667, "fusion_lon": 0.0, "fusion_lat": 0.0, "type": "electric_scooter", "name": "28a7c231c0598d2100e35465e93c59cd", "is_disabled": 0, "rental_uris": {"ios": "https://dc.lft.to/lastmile_qr_scan", "android": "https://dc.lft.to/lastmile_qr_scan"}, "is_reserved": 0}, {"lon": -77.02375683333334, "bike_id": "b9f2fc82cced0f3507e61c953822d293", "lat": 38.9001285, "fusion_lon": 0.0, "fusion_lat": 0.0, "type": "electric_scooter", "name": "b9f2fc82cced0f3507e61c953822d293", "is_disabled": 0, "rental_uris": {"ios": "https://dc.lft.to/lastmile_qr_scan", "android": "https://dc.lft.to/lastmile_qr_scan"}, "is_reserved": 0}, {"lon": -77.0688855, "bike_id": "f64367b9a26ae0dd77f8ef1ca7b06c39", "lat": 38.90405583333333, "fusion_lon": 0.0, "fusion_lat": 0.0, "type": "electric_bike", "name": "f64367b9a26ae0dd77f8ef1ca7b06c39", "is_disabled": 0, "rental_uris": {"ios": "https://dc.lft.to/lastmile_qr_scan", "android": "https://dc.lft.to/lastmile_qr_scan"}, "is_reserved": 0}, {"lon": -77.0296955, "bike_id": "cc9e6eef0e026fd5d8f0c187dc8bac4c", "lat": 38.9124525, "fusion_lon": 0.0, "fusion_lat": 0.0, "type": "electric_scooter", "name": "cc9e6eef0e026fd5d8f0c187dc8bac4c", "is_disabled": 0, "rental_uris": {"ios": "https://dc.lft.to/lastmile_qr_scan", "android": "https://dc.lft.to/lastmile_qr_scan"}, "is_reserved": 0}, {"lon": -76.9894995, "bike_id": "4e0c0005fadeece16fd03d803b704929", "lat": 38.9019395, "fusion_lon": 0.0, "fusion_lat": 0.0, "type": "electric_scooter", "name": "4e0c0005fadeece16fd03d803b704929", "is_disabled": 0, "rental_uris": {"ios": "https://dc.lft.to/lastmile_qr_scan", "android": "https://dc.lft.to/lastmile_qr_scan"}, "is_reserved": 0}, {"lon": -77.04079133333333, "bike_id": "fc129ce338a119243697479eea0ad81f", "lat": 38.90966516666667, "fusion_lon": 0.0, "fusion_lat": 0.0, "type": "electric_scooter", "name": "fc129ce338a119243697479eea0ad81f", "is_disabled": 0, "rental_uris": {"ios": "https://dc.lft.to/lastmile_qr_scan", "android": "https://dc.lft.to/lastmile_qr_scan"}, "is_reserved": 0}, {"lon": -77.04987616666666, "bike_id": "b6b8bdd20bcfb5bc9ee629da6f51db29", "lat": 38.901581666666665, "fusion_lon": 0.0, "fusion_lat": 0.0, "type": "electric_scooter", "name": "b6b8bdd20bcfb5bc9ee629da6f51db29", "is_disabled": 0, "rental_uris": {"ios": "https://dc.lft.to/lastmile_qr_scan", "android": "https://dc.lft.to/lastmile_qr_scan"}, "is_reserved": 0}, {"lon": -76.97426683333333, "bike_id": "2c6b828138a8cf0bcf87b52f701c2de9", "lat": 38.86424, "fusion_lon": 0.0, "fusion_lat": 0.0, "type": "electric_scooter", "name": "2c6b828138a8cf0bcf87b52f701c2de9", "is_disabled": 0, "rental_uris": {"ios": "https://dc.lft.to/lastmile_qr_scan", "android": "https://dc.lft.to/lastmile_qr_scan"}, "is_reserved": 0}, {"lon": -77.04104283333334, "bike_id": "8cf9997aea0d3f2ce50dfe95d5bebc29", "lat": 38.9231365, "fusion_lon": 0.0, "fusion_lat": 0.0, "type": "electric_scooter", "name": "8cf9997aea0d3f2ce50dfe95d5bebc29", "is_disabled": 0, "rental_uris": {"ios": "https://dc.lft.to/lastmile_qr_scan", "android": "https://dc.lft.to/lastmile_qr_scan"}, "is_reserved": 0}, {"lon": -77.0319805, "bike_id": "b022cbf2fbbb9915d755df5f93be2d88", "lat": 38.91243583333333, "fusion_lon": 0.0, "fusion_lat": 0.0, "type": "electric_scooter", "name": "b022cbf2fbbb9915d755df5f93be2d88", "is_disabled": 0, "rental_uris": {"ios": "https://dc.lft.to/lastmile_qr_scan", "android": "https://dc.lft.to/lastmile_qr_scan"}, "is_reserved": 0}, {"lon": -77.04219833333333, "bike_id": "fafe8682efbf6b2bd6218b0523eeb78d", "lat": 38.923058833333336, "fusion_lon": 0.0, "fusion_lat": 0.0, "type": "electric_scooter", "name": "fafe8682efbf6b2bd6218b0523eeb78d", "is_disabled": 0, "rental_uris": {"ios": "https://dc.lft.to/lastmile_qr_scan", "android": "https://dc.lft.to/lastmile_qr_scan"}, "is_reserved": 0}, {"lon": -77.0270955, "bike_id": "21a64684144fee1a457b5545d7ebe91b", "lat": 38.906661, "fusion_lon": 0.0, "fusion_lat": 0.0, "type": "electric_scooter", "name": "21a64684144fee1a457b5545d7ebe91b", "is_disabled": 0, "rental_uris": {"ios": "https://dc.lft.to/lastmile_qr_scan", "android": "https://dc.lft.to/lastmile_qr_scan"}, "is_reserved": 0}, {"lon": -76.97799866666666, "bike_id": "f61e5612192aaf88491bdf14f1d8d66b", "lat": 38.90674966666667, "fusion_lon": 0.0, "fusion_lat": 0.0, "type": "electric_scooter", "name": "f61e5612192aaf88491bdf14f1d8d66b", "is_disabled": 0, "rental_uris": {"ios": "https://dc.lft.to/lastmile_qr_scan", "android": "https://dc.lft.to/lastmile_qr_scan"}, "is_reserved": 0}, {"lon": -77.07115783333333, "bike_id": "3d8b44c40048108ae9ec9e503ec13114", "lat": 38.91973433333333, "fusion_lon": 0.0, "fusion_lat": 0.0, "type": "electric_scooter", "name": "3d8b44c40048108ae9ec9e503ec13114", "is_disabled": 0, "rental_uris": {"ios": "https://dc.lft.to/lastmile_qr_scan", "android": "https://dc.lft.to/lastmile_qr_scan"}, "is_reserved": 0}, {"lon": -77.03187716666666, "bike_id": "260de4b8ac868800f60d078e25ad7abb", "lat": 38.917361166666666, "fusion_lon": 0.0, "fusion_lat": 0.0, "type": "electric_scooter", "name": "260de4b8ac868800f60d078e25ad7abb", "is_disabled": 0, "rental_uris": {"ios": "https://dc.lft.to/lastmile_qr_scan", "android": "https://dc.lft.to/lastmile_qr_scan"}, "is_reserved": 0}, {"lon": -77.04213016666667, "bike_id": "fa84f97b61154ffd46a5c2600c089338", "lat": 38.914181166666665, "fusion_lon": 0.0, "fusion_lat": 0.0, "type": "electric_scooter", "name": "fa84f97b61154ffd46a5c2600c089338", "is_disabled": 0, "rental_uris": {"ios": "https://dc.lft.to/lastmile_qr_scan", "android": "https://dc.lft.to/lastmile_qr_scan"}, "is_reserved": 0}, {"lon": -77.03859416666667, "bike_id": "80592c37f562256dd2955dfd48422c69", "lat": 38.910213166666665, "fusion_lon": 0.0, "fusion_lat": 0.0, "type": "electric_scooter", "name": "80592c37f562256dd2955dfd48422c69", "is_disabled": 0, "rental_uris": {"ios": "https://dc.lft.to/lastmile_qr_scan", "android": "https://dc.lft.to/lastmile_qr_scan"}, "is_reserved": 0}, {"lon": -77.046739, "bike_id": "cde26534e2e16f8bb8c9f8e8bc7a0a16", "lat": 38.8923485, "fusion_lon": 0.0, "fusion_lat": 0.0, "type": "electric_scooter", "name": "cde26534e2e16f8bb8c9f8e8bc7a0a16", "is_disabled": 0, "rental_uris": {"ios": "https://dc.lft.to/lastmile_qr_scan", "android": "https://dc.lft.to/lastmile_qr_scan"}, "is_reserved": 0}, {"lon": -77.0439035, "bike_id": "a3747e8a6af0c85fa58bae937d68ad41", "lat": 38.92114516666667, "fusion_lon": 0.0, "fusion_lat": 0.0, "type": "electric_scooter", "name": "a3747e8a6af0c85fa58bae937d68ad41", "is_disabled": 0, "rental_uris": {"ios": "https://dc.lft.to/lastmile_qr_scan", "android": "https://dc.lft.to/lastmile_qr_scan"}, "is_reserved": 0}, {"lon": -77.0315225, "bike_id": "181bfe2403affcd859b32337ca251586", "lat": 38.9180045, "fusion_lon": 0.0, "fusion_lat": 0.0, "type": "electric_scooter", "name": "181bfe2403affcd859b32337ca251586", "is_disabled": 0, "rental_uris": {"ios": "https://dc.lft.to/lastmile_qr_scan", "android": "https://dc.lft.to/lastmile_qr_scan"}, "is_reserved": 0}, {"lon": -76.99157683333334, "bike_id": "b77a4afbf8acba25b0f2422d99292be9", "lat": 38.900399, "fusion_lon": 0.0, "fusion_lat": 0.0, "type": "electric_scooter", "name": "b77a4afbf8acba25b0f2422d99292be9", "is_disabled": 0, "rental_uris": {"ios": "https://dc.lft.to/lastmile_qr_scan", "android": "https://dc.lft.to/lastmile_qr_scan"}, "is_reserved": 0}, {"lon": -77.02558766666667, "bike_id": "d9fcaef5ef8f6923cc97bbc3a5c236b5", "lat": 38.94171033333333, "fusion_lon": 0.0, "fusion_lat": 0.0, "type": "electric_scooter", "name": "d9fcaef5ef8f6923cc97bbc3a5c236b5", "is_disabled": 0, "rental_uris": {"ios": "https://dc.lft.to/lastmile_qr_scan", "android": "https://dc.lft.to/lastmile_qr_scan"}, "is_reserved": 0}, {"lon": -76.8953505, "bike_id": "ec2e2c11b8f334aff4177f0c250a02d1", "lat": 38.945515, "fusion_lon": 0.0, "fusion_lat": 0.0, "type": "electric_bike", "name": "ec2e2c11b8f334aff4177f0c250a02d1", "is_disabled": 0, "rental_uris": {"ios": "https://dc.lft.to/lastmile_qr_scan", "android": "https://dc.lft.to/lastmile_qr_scan"}, "is_reserved": 0}, {"lon": -77.02573466666666, "bike_id": "303be0e077a750390083da1f2c951472", "lat": 38.914882166666665, "fusion_lon": 0.0, "fusion_lat": 0.0, "type": "electric_scooter", "name": "303be0e077a750390083da1f2c951472", "is_disabled": 0, "rental_uris": {"ios": "https://dc.lft.to/lastmile_qr_scan", "android": "https://dc.lft.to/lastmile_qr_scan"}, "is_reserved": 0}, {"lon": -76.99892483333333, "bike_id": "59a75c6a9b70a6d2ca70e67969ea60b7", "lat": 38.907321, "fusion_lon": 0.0, "fusion_lat": 0.0, "type": "electric_scooter", "name": "59a75c6a9b70a6d2ca70e67969ea60b7", "is_disabled": 0, "rental_uris": {"ios": "https://dc.lft.to/lastmile_qr_scan", "android": "https://dc.lft.to/lastmile_qr_scan"}, "is_reserved": 0}, {"lon": -77.042739, "bike_id": "6cf5125e5eb0c2828dab2d7f449c1b36", "lat": 38.922703166666665, "fusion_lon": 0.0, "fusion_lat": 0.0, "type": "electric_scooter", "name": "6cf5125e5eb0c2828dab2d7f449c1b36", "is_disabled": 0, "rental_uris": {"ios": "https://dc.lft.to/lastmile_qr_scan", "android": "https://dc.lft.to/lastmile_qr_scan"}, "is_reserved": 0}, {"lon": -77.03797816666666, "bike_id": "1249df1088752af1afe9a8feb7cc0e3b", "lat": 38.93031416666667, "fusion_lon": 0.0, "fusion_lat": 0.0, "type": "electric_scooter", "name": "1249df1088752af1afe9a8feb7cc0e3b", "is_disabled": 0, "rental_uris": {"ios": "https://dc.lft.to/lastmile_qr_scan", "android": "https://dc.lft.to/lastmile_qr_scan"}, "is_reserved": 0}, {"lon": -77.02514933333333, "bike_id": "0e08e7ff6bcdb3ad6dcb86094ef77c34", "lat": 38.92643483333333, "fusion_lon": 0.0, "fusion_lat": 0.0, "type": "electric_scooter", "name": "0e08e7ff6bcdb3ad6dcb86094ef77c34", "is_disabled": 0, "rental_uris": {"ios": "https://dc.lft.to/lastmile_qr_scan", "android": "https://dc.lft.to/lastmile_qr_scan"}, "is_reserved": 0}, {"lon": -77.00598133333334, "bike_id": "aa21d9fee7614d5db00c16d4acbd277a", "lat": 38.871849, "fusion_lon": 0.0, "fusion_lat": 0.0, "type": "electric_scooter", "name": "aa21d9fee7614d5db00c16d4acbd277a", "is_disabled": 0, "rental_uris": {"ios": "https://dc.lft.to/lastmile_qr_scan", "android": "https://dc.lft.to/lastmile_qr_scan"}, "is_reserved": 0}, {"lon": -77.04032716666667, "bike_id": "9c2bfe27b0c4c9dd2857b637f3475f34", "lat": 38.90631283333333, "fusion_lon": 0.0, "fusion_lat": 0.0, "type": "electric_scooter", "name": "9c2bfe27b0c4c9dd2857b637f3475f34", "is_disabled": 0, "rental_uris": {"ios": "https://dc.lft.to/lastmile_qr_scan", "android": "https://dc.lft.to/lastmile_qr_scan"}, "is_reserved": 0}, {"lon": -77.00681866666666, "bike_id": "b74287ff24779ff2fc31a1aff718d8a0", "lat": 38.94496566666667, "fusion_lon": 0.0, "fusion_lat": 0.0, "type": "electric_bike", "name": "b74287ff24779ff2fc31a1aff718d8a0", "is_disabled": 0, "rental_uris": {"ios": "https://dc.lft.to/lastmile_qr_scan", "android": "https://dc.lft.to/lastmile_qr_scan"}, "is_reserved": 0}, {"lon": -77.03285916666667, "bike_id": "104078cad1ef9381c9d08f63d4dadd85", "lat": 38.90148216666667, "fusion_lon": 0.0, "fusion_lat": 0.0, "type": "electric_scooter", "name": "104078cad1ef9381c9d08f63d4dadd85", "is_disabled": 0, "rental_uris": {"ios": "https://dc.lft.to/lastmile_qr_scan", "android": "https://dc.lft.to/lastmile_qr_scan"}, "is_reserved": 0}, {"lon": -77.03130183333333, "bike_id": "4f0c59c17b3247da78f44a7d0b1b2f37", "lat": 38.92375633333333, "fusion_lon": 0.0, "fusion_lat": 0.0, "type": "electric_scooter", "name": "4f0c59c17b3247da78f44a7d0b1b2f37", "is_disabled": 0, "rental_uris": {"ios": "https://dc.lft.to/lastmile_qr_scan", "android": "https://dc.lft.to/lastmile_qr_scan"}, "is_reserved": 0}, {"lon": -77.03403033333333, "bike_id": "311cc606f2f7d15b1c526de3a0b92c17", "lat": 38.92270766666667, "fusion_lon": 0.0, "fusion_lat": 0.0, "type": "electric_scooter", "name": "311cc606f2f7d15b1c526de3a0b92c17", "is_disabled": 0, "rental_uris": {"ios": "https://dc.lft.to/lastmile_qr_scan", "android": "https://dc.lft.to/lastmile_qr_scan"}, "is_reserved": 0}, {"lon": -77.033815, "bike_id": "8b471f26ffcfa1b5eeb43ad0d715e36d", "lat": 38.902683, "fusion_lon": 0.0, "fusion_lat": 0.0, "type": "electric_scooter", "name": "8b471f26ffcfa1b5eeb43ad0d715e36d", "is_disabled": 0, "rental_uris": {"ios": "https://dc.lft.to/lastmile_qr_scan", "android": "https://dc.lft.to/lastmile_qr_scan"}, "is_reserved": 0}, {"lon": -77.02189466666667, "bike_id": "5132b81566098462ffa862ffd643fe3b", "lat": 38.91055516666667, "fusion_lon": 0.0, "fusion_lat": 0.0, "type": "electric_scooter", "name": "5132b81566098462ffa862ffd643fe3b", "is_disabled": 0, "rental_uris": {"ios": "https://dc.lft.to/lastmile_qr_scan", "android": "https://dc.lft.to/lastmile_qr_scan"}, "is_reserved": 0}, {"lon": -76.99940166666667, "bike_id": "e3e390eb0974dcb13256ee87f35e52c7", "lat": 38.91925166666667, "fusion_lon": 0.0, "fusion_lat": 0.0, "type": "electric_scooter", "name": "e3e390eb0974dcb13256ee87f35e52c7", "is_disabled": 0, "rental_uris": {"ios": "https://dc.lft.to/lastmile_qr_scan", "android": "https://dc.lft.to/lastmile_qr_scan"}, "is_reserved": 0}, {"lon": -77.032157, "bike_id": "7e21f416198c146e63547161f3ad0390", "lat": 38.907297666666665, "fusion_lon": 0.0, "fusion_lat": 0.0, "type": "electric_scooter", "name": "7e21f416198c146e63547161f3ad0390", "is_disabled": 0, "rental_uris": {"ios": "https://dc.lft.to/lastmile_qr_scan", "android": "https://dc.lft.to/lastmile_qr_scan"}, "is_reserved": 0}, {"lon": -77.02207983333334, "bike_id": "c64d3ec99b3a19bd70608a40f04e69a5", "lat": 38.87895066666667, "fusion_lon": 0.0, "fusion_lat": 0.0, "type": "electric_scooter", "name": "c64d3ec99b3a19bd70608a40f04e69a5", "is_disabled": 0, "rental_uris": {"ios": "https://dc.lft.to/lastmile_qr_scan", "android": "https://dc.lft.to/lastmile_qr_scan"}, "is_reserved": 0}, {"lon": -77.05937883333333, "bike_id": "27e492762b1410aa82c546e49395135b", "lat": 38.90534133333333, "fusion_lon": 0.0, "fusion_lat": 0.0, "type": "electric_bike", "name": "27e492762b1410aa82c546e49395135b", "is_disabled": 0, "rental_uris": {"ios": "https://dc.lft.to/lastmile_qr_scan", "android": "https://dc.lft.to/lastmile_qr_scan"}, "is_reserved": 0}, {"lon": -77.0228075, "bike_id": "5fedb03c97c60bb14b93781c52d9ced5", "lat": 38.90962416666667, "fusion_lon": 0.0, "fusion_lat": 0.0, "type": "electric_scooter", "name": "5fedb03c97c60bb14b93781c52d9ced5", "is_disabled": 0, "rental_uris": {"ios": "https://dc.lft.to/lastmile_qr_scan", "android": "https://dc.lft.to/lastmile_qr_scan"}, "is_reserved": 0}, {"lon": -77.03447716666666, "bike_id": "5aa417915f693239acdbe1b62b9e06b6", "lat": 38.91810616666667, "fusion_lon": 0.0, "fusion_lat": 0.0, "type": "electric_scooter", "name": "5aa417915f693239acdbe1b62b9e06b6", "is_disabled": 0, "rental_uris": {"ios": "https://dc.lft.to/lastmile_qr_scan", "android": "https://dc.lft.to/lastmile_qr_scan"}, "is_reserved": 0}, {"lon": -77.03333483333333, "bike_id": "d85016e5275506d79e9ee8c4d8f35f82", "lat": 38.96138883333333, "fusion_lon": 0.0, "fusion_lat": 0.0, "type": "electric_bike", "name": "d85016e5275506d79e9ee8c4d8f35f82", "is_disabled": 0, "rental_uris": {"ios": "https://dc.lft.to/lastmile_qr_scan", "android": "https://dc.lft.to/lastmile_qr_scan"}, "is_reserved": 0}, {"lon": -77.02212866666666, "bike_id": "c9d0bd936a76dc768d7eb2c98e5dadfc", "lat": 38.892942833333336, "fusion_lon": 0.0, "fusion_lat": 0.0, "type": "electric_scooter", "name": "c9d0bd936a76dc768d7eb2c98e5dadfc", "is_disabled": 0, "rental_uris": {"ios": "https://dc.lft.to/lastmile_qr_scan", "android": "https://dc.lft.to/lastmile_qr_scan"}, "is_reserved": 0}, {"lon": -77.03210033333333, "bike_id": "11a5622d01ecdcdbf00edd08dc4fae31", "lat": 38.917427, "fusion_lon": 0.0, "fusion_lat": 0.0, "type": "electric_scooter", "name": "11a5622d01ecdcdbf00edd08dc4fae31", "is_disabled": 0, "rental_uris": {"ios": "https://dc.lft.to/lastmile_qr_scan", "android": "https://dc.lft.to/lastmile_qr_scan"}, "is_reserved": 0}, {"lon": -76.98820916666666, "bike_id": "ba270e478426d9422e15f51b2604eadd", "lat": 38.900960833333336, "fusion_lon": 0.0, "fusion_lat": 0.0, "type": "electric_scooter", "name": "ba270e478426d9422e15f51b2604eadd", "is_disabled": 0, "rental_uris": {"ios": "https://dc.lft.to/lastmile_qr_scan", "android": "https://dc.lft.to/lastmile_qr_scan"}, "is_reserved": 0}, {"lon": -77.10808266666666, "bike_id": "9d0210d5f9e90e8f717870185ff45993", "lat": 38.812055, "fusion_lon": 0.0, "fusion_lat": 0.0, "type": "electric_bike", "name": "9d0210d5f9e90e8f717870185ff45993", "is_disabled": 0, "rental_uris": {"ios": "https://dc.lft.to/lastmile_qr_scan", "android": "https://dc.lft.to/lastmile_qr_scan"}, "is_reserved": 0}, {"lon": -77.01758233333334, "bike_id": "93320ea915053e29cf327d11b4764d48", "lat": 38.877218166666665, "fusion_lon": 0.0, "fusion_lat": 0.0, "type": "electric_scooter", "name": "93320ea915053e29cf327d11b4764d48", "is_disabled": 0, "rental_uris": {"ios": "https://dc.lft.to/lastmile_qr_scan", "android": "https://dc.lft.to/lastmile_qr_scan"}, "is_reserved": 0}, {"lon": -77.02589833333333, "bike_id": "f9796cb1aa9c28b925f3fa63d8f20d35", "lat": 38.94203666666667, "fusion_lon": 0.0, "fusion_lat": 0.0, "type": "electric_scooter", "name": "f9796cb1aa9c28b925f3fa63d8f20d35", "is_disabled": 0, "rental_uris": {"ios": "https://dc.lft.to/lastmile_qr_scan", "android": "https://dc.lft.to/lastmile_qr_scan"}, "is_reserved": 0}, {"lon": -77.04661683333333, "bike_id": "97f674ba0c833ca964395934cd6b0faf", "lat": 38.89782666666667, "fusion_lon": 0.0, "fusion_lat": 0.0, "type": "electric_scooter", "name": "97f674ba0c833ca964395934cd6b0faf", "is_disabled": 0, "rental_uris": {"ios": "https://dc.lft.to/lastmile_qr_scan", "android": "https://dc.lft.to/lastmile_qr_scan"}, "is_reserved": 0}, {"lon": -77.031036, "bike_id": "1ae36e19613757c7b6b23f559244b48c", "lat": 38.88765266666667, "fusion_lon": 0.0, "fusion_lat": 0.0, "type": "electric_scooter", "name": "1ae36e19613757c7b6b23f559244b48c", "is_disabled": 0, "rental_uris": {"ios": "https://dc.lft.to/lastmile_qr_scan", "android": "https://dc.lft.to/lastmile_qr_scan"}, "is_reserved": 0}, {"lon": -77.03854683333333, "bike_id": "d6e64ad1167e1dc046ccda90d02f638e", "lat": 38.917149, "fusion_lon": 0.0, "fusion_lat": 0.0, "type": "electric_scooter", "name": "d6e64ad1167e1dc046ccda90d02f638e", "is_disabled": 0, "rental_uris": {"ios": "https://dc.lft.to/lastmile_qr_scan", "android": "https://dc.lft.to/lastmile_qr_scan"}, "is_reserved": 0}, {"lon": -77.01234183333334, "bike_id": "921b3e87ab3a8477948a3545e03669d9", "lat": 38.892975166666666, "fusion_lon": 0.0, "fusion_lat": 0.0, "type": "electric_scooter", "name": "921b3e87ab3a8477948a3545e03669d9", "is_disabled": 0, "rental_uris": {"ios": "https://dc.lft.to/lastmile_qr_scan", "android": "https://dc.lft.to/lastmile_qr_scan"}, "is_reserved": 0}, {"lon": -76.94879216666666, "bike_id": "9b9ac58a76317be391b1c732295726fc", "lat": 38.89503416666667, "fusion_lon": 0.0, "fusion_lat": 0.0, "type": "electric_scooter", "name": "9b9ac58a76317be391b1c732295726fc", "is_disabled": 0, "rental_uris": {"ios": "https://dc.lft.to/lastmile_qr_scan", "android": "https://dc.lft.to/lastmile_qr_scan"}, "is_reserved": 0}, {"lon": -77.01317483333334, "bike_id": "5ccaadcdf5fae26a67999ec248ec1730", "lat": 38.9003785, "fusion_lon": 0.0, "fusion_lat": 0.0, "type": "electric_scooter", "name": "5ccaadcdf5fae26a67999ec248ec1730", "is_disabled": 0, "rental_uris": {"ios": "https://dc.lft.to/lastmile_qr_scan", "android": "https://dc.lft.to/lastmile_qr_scan"}, "is_reserved": 0}, {"lon": -77.0397065, "bike_id": "b29b9f029431b676ea5f4719e531b34a", "lat": 38.90623, "fusion_lon": 0.0, "fusion_lat": 0.0, "type": "electric_scooter", "name": "b29b9f029431b676ea5f4719e531b34a", "is_disabled": 0, "rental_uris": {"ios": "https://dc.lft.to/lastmile_qr_scan", "android": "https://dc.lft.to/lastmile_qr_scan"}, "is_reserved": 0}, {"lon": -77.04505066666667, "bike_id": "a95204295091233566913a70349b0f9f", "lat": 38.914144666666665, "fusion_lon": 0.0, "fusion_lat": 0.0, "type": "electric_bike", "name": "a95204295091233566913a70349b0f9f", "is_disabled": 0, "rental_uris": {"ios": "https://dc.lft.to/lastmile_qr_scan", "android": "https://dc.lft.to/lastmile_qr_scan"}, "is_reserved": 0}, {"lon": -77.02753166666666, "bike_id": "6a6d4fd673ee6bc8152754d345cfd64c", "lat": 38.89499516666667, "fusion_lon": 0.0, "fusion_lat": 0.0, "type": "electric_scooter", "name": "6a6d4fd673ee6bc8152754d345cfd64c", "is_disabled": 0, "rental_uris": {"ios": "https://dc.lft.to/lastmile_qr_scan", "android": "https://dc.lft.to/lastmile_qr_scan"}, "is_reserved": 0}, {"lon": -77.00454466666666, "bike_id": "e7c12244a45d723381eac2adeade0648", "lat": 38.87660783333333, "fusion_lon": 0.0, "fusion_lat": 0.0, "type": "electric_scooter", "name": "e7c12244a45d723381eac2adeade0648", "is_disabled": 0, "rental_uris": {"ios": "https://dc.lft.to/lastmile_qr_scan", "android": "https://dc.lft.to/lastmile_qr_scan"}, "is_reserved": 0}, {"lon": -76.99145883333334, "bike_id": "8b853b34b2627ee5c99e666344934723", "lat": 38.889700166666664, "fusion_lon": 0.0, "fusion_lat": 0.0, "type": "electric_scooter", "name": "8b853b34b2627ee5c99e666344934723", "is_disabled": 0, "rental_uris": {"ios": "https://dc.lft.to/lastmile_qr_scan", "android": "https://dc.lft.to/lastmile_qr_scan"}, "is_reserved": 0}, {"lon": -76.999443, "bike_id": "2f0bd34e4891cae4f87db830dbe8902e", "lat": 38.9062435, "fusion_lon": 0.0, "fusion_lat": 0.0, "type": "electric_scooter", "name": "2f0bd34e4891cae4f87db830dbe8902e", "is_disabled": 0, "rental_uris": {"ios": "https://dc.lft.to/lastmile_qr_scan", "android": "https://dc.lft.to/lastmile_qr_scan"}, "is_reserved": 0}, {"lon": -77.03433166666667, "bike_id": "33db650b19260a46627880c830edb793", "lat": 38.96537033333333, "fusion_lon": 0.0, "fusion_lat": 0.0, "type": "electric_bike", "name": "33db650b19260a46627880c830edb793", "is_disabled": 0, "rental_uris": {"ios": "https://dc.lft.to/lastmile_qr_scan", "android": "https://dc.lft.to/lastmile_qr_scan"}, "is_reserved": 0}, {"lon": -77.0298535, "bike_id": "f8fa63d0aca7b2d7c40806a2a09ef7bd", "lat": 38.93067, "fusion_lon": 0.0, "fusion_lat": 0.0, "type": "electric_scooter", "name": "f8fa63d0aca7b2d7c40806a2a09ef7bd", "is_disabled": 0, "rental_uris": {"ios": "https://dc.lft.to/lastmile_qr_scan", "android": "https://dc.lft.to/lastmile_qr_scan"}, "is_reserved": 0}, {"lon": -77.005671, "bike_id": "adde0be9ce0dc50472b5e113f90e40ed", "lat": 38.902026666666664, "fusion_lon": 0.0, "fusion_lat": 0.0, "type": "electric_scooter", "name": "adde0be9ce0dc50472b5e113f90e40ed", "is_disabled": 0, "rental_uris": {"ios": "https://dc.lft.to/lastmile_qr_scan", "android": "https://dc.lft.to/lastmile_qr_scan"}, "is_reserved": 0}, {"lon": -77.12486, "bike_id": "a2c5c87f36faebce34da8a48775e52ec", "lat": 38.82787116666667, "fusion_lon": 0.0, "fusion_lat": 0.0, "type": "electric_bike", "name": "a2c5c87f36faebce34da8a48775e52ec", "is_disabled": 0, "rental_uris": {"ios": "https://dc.lft.to/lastmile_qr_scan", "android": "https://dc.lft.to/lastmile_qr_scan"}, "is_reserved": 0}, {"lon": -77.00282166666666, "bike_id": "098b85d76281ab88ed2240733205585b", "lat": 38.95711133333333, "fusion_lon": 0.0, "fusion_lat": 0.0, "type": "electric_bike", "name": "098b85d76281ab88ed2240733205585b", "is_disabled": 0, "rental_uris": {"ios": "https://dc.lft.to/lastmile_qr_scan", "android": "https://dc.lft.to/lastmile_qr_scan"}, "is_reserved": 0}, {"lon": -77.03910533333334, "bike_id": "036b724ec0f5ee6c39b4f632a3f6f6c2", "lat": 38.914251166666666, "fusion_lon": 0.0, "fusion_lat": 0.0, "type": "electric_scooter", "name": "036b724ec0f5ee6c39b4f632a3f6f6c2", "is_disabled": 0, "rental_uris": {"ios": "https://dc.lft.to/lastmile_qr_scan", "android": "https://dc.lft.to/lastmile_qr_scan"}, "is_reserved": 0}, {"lon": -77.04358, "bike_id": "d843d3860b80a4ffaabbde9dc9a1aa98", "lat": 38.9214735, "fusion_lon": 0.0, "fusion_lat": 0.0, "type": "electric_scooter", "name": "d843d3860b80a4ffaabbde9dc9a1aa98", "is_disabled": 0, "rental_uris": {"ios": "https://dc.lft.to/lastmile_qr_scan", "android": "https://dc.lft.to/lastmile_qr_scan"}, "is_reserved": 0}, {"lon": -77.01965216666666, "bike_id": "72e92ac40581d5f866e06762fa54e3d4", "lat": 38.901229666666666, "fusion_lon": 0.0, "fusion_lat": 0.0, "type": "electric_scooter", "name": "72e92ac40581d5f866e06762fa54e3d4", "is_disabled": 0, "rental_uris": {"ios": "https://dc.lft.to/lastmile_qr_scan", "android": "https://dc.lft.to/lastmile_qr_scan"}, "is_reserved": 0}, {"lon": -76.99853483333334, "bike_id": "d429c00c985e7fd56d45642badd61e5b", "lat": 38.8416565, "fusion_lon": 0.0, "fusion_lat": 0.0, "type": "electric_scooter", "name": "d429c00c985e7fd56d45642badd61e5b", "is_disabled": 0, "rental_uris": {"ios": "https://dc.lft.to/lastmile_qr_scan", "android": "https://dc.lft.to/lastmile_qr_scan"}, "is_reserved": 0}, {"lon": -76.98563666666666, "bike_id": "4f0b08d9a7d964cec0a8805b6d96ebdb", "lat": 38.89956216666667, "fusion_lon": 0.0, "fusion_lat": 0.0, "type": "electric_scooter", "name": "4f0b08d9a7d964cec0a8805b6d96ebdb", "is_disabled": 0, "rental_uris": {"ios": "https://dc.lft.to/lastmile_qr_scan", "android": "https://dc.lft.to/lastmile_qr_scan"}, "is_reserved": 0}, {"lon": -77.02714133333333, "bike_id": "f076888cd25b0d1808aa6b1d072314c8", "lat": 38.93468, "fusion_lon": 0.0, "fusion_lat": 0.0, "type": "electric_scooter", "name": "f076888cd25b0d1808aa6b1d072314c8", "is_disabled": 0, "rental_uris": {"ios": "https://dc.lft.to/lastmile_qr_scan", "android": "https://dc.lft.to/lastmile_qr_scan"}, "is_reserved": 0}, {"lon": -77.0482695, "bike_id": "bde69b016850b03b56cb4288dff0e2f9", "lat": 38.90962016666667, "fusion_lon": 0.0, "fusion_lat": 0.0, "type": "electric_scooter", "name": "bde69b016850b03b56cb4288dff0e2f9", "is_disabled": 0, "rental_uris": {"ios": "https://dc.lft.to/lastmile_qr_scan", "android": "https://dc.lft.to/lastmile_qr_scan"}, "is_reserved": 0}, {"lon": -77.04660566666666, "bike_id": "64949b6555fce9115f69f9af0786b0c7", "lat": 38.90559433333333, "fusion_lon": 0.0, "fusion_lat": 0.0, "type": "electric_scooter", "name": "64949b6555fce9115f69f9af0786b0c7", "is_disabled": 0, "rental_uris": {"ios": "https://dc.lft.to/lastmile_qr_scan", "android": "https://dc.lft.to/lastmile_qr_scan"}, "is_reserved": 0}, {"lon": -77.08119766666667, "bike_id": "5c44d0e58995b0e856897b9eaff34207", "lat": 38.910775, "fusion_lon": 0.0, "fusion_lat": 0.0, "type": "electric_scooter", "name": "5c44d0e58995b0e856897b9eaff34207", "is_disabled": 0, "rental_uris": {"ios": "https://dc.lft.to/lastmile_qr_scan", "android": "https://dc.lft.to/lastmile_qr_scan"}, "is_reserved": 0}, {"lon": -76.93064966666667, "bike_id": "87d5ef3700b3d13f8b5f1fadbb0737f6", "lat": 38.88393716666667, "fusion_lon": 0.0, "fusion_lat": 0.0, "type": "electric_scooter", "name": "87d5ef3700b3d13f8b5f1fadbb0737f6", "is_disabled": 0, "rental_uris": {"ios": "https://dc.lft.to/lastmile_qr_scan", "android": "https://dc.lft.to/lastmile_qr_scan"}, "is_reserved": 0}, {"lon": -77.0222635, "bike_id": "382c1617b6fa838cf069485a1c1004e9", "lat": 38.912578, "fusion_lon": 0.0, "fusion_lat": 0.0, "type": "electric_scooter", "name": "382c1617b6fa838cf069485a1c1004e9", "is_disabled": 0, "rental_uris": {"ios": "https://dc.lft.to/lastmile_qr_scan", "android": "https://dc.lft.to/lastmile_qr_scan"}, "is_reserved": 0}, {"lon": -77.02049733333334, "bike_id": "aafc05a1ef409eacf822acf7a8ff1a25", "lat": 38.908669333333336, "fusion_lon": 0.0, "fusion_lat": 0.0, "type": "electric_scooter", "name": "aafc05a1ef409eacf822acf7a8ff1a25", "is_disabled": 0, "rental_uris": {"ios": "https://dc.lft.to/lastmile_qr_scan", "android": "https://dc.lft.to/lastmile_qr_scan"}, "is_reserved": 0}, {"lon": -77.02661183333333, "bike_id": "15c05251f27024d2e40e17aaf691b246", "lat": 38.91703366666667, "fusion_lon": 0.0, "fusion_lat": 0.0, "type": "electric_scooter", "name": "15c05251f27024d2e40e17aaf691b246", "is_disabled": 0, "rental_uris": {"ios": "https://dc.lft.to/lastmile_qr_scan", "android": "https://dc.lft.to/lastmile_qr_scan"}, "is_reserved": 0}, {"lon": -77.01478816666666, "bike_id": "72eef286127c7a9c7d78da41ef9f9432", "lat": 38.940676, "fusion_lon": 0.0, "fusion_lat": 0.0, "type": "electric_bike", "name": "72eef286127c7a9c7d78da41ef9f9432", "is_disabled": 0, "rental_uris": {"ios": "https://dc.lft.to/lastmile_qr_scan", "android": "https://dc.lft.to/lastmile_qr_scan"}, "is_reserved": 0}, {"lon": -77.00342166666667, "bike_id": "e0146925b81fff664269a78c7f7f2dd0", "lat": 38.8992995, "fusion_lon": 0.0, "fusion_lat": 0.0, "type": "electric_scooter", "name": "e0146925b81fff664269a78c7f7f2dd0", "is_disabled": 0, "rental_uris": {"ios": "https://dc.lft.to/lastmile_qr_scan", "android": "https://dc.lft.to/lastmile_qr_scan"}, "is_reserved": 0}, {"lon": -77.02674116666667, "bike_id": "fb3646971d1e23f53abb229ebf47e30a", "lat": 38.921860833333334, "fusion_lon": 0.0, "fusion_lat": 0.0, "type": "electric_scooter", "name": "fb3646971d1e23f53abb229ebf47e30a", "is_disabled": 0, "rental_uris": {"ios": "https://dc.lft.to/lastmile_qr_scan", "android": "https://dc.lft.to/lastmile_qr_scan"}, "is_reserved": 0}, {"lon": -77.04346616666666, "bike_id": "241e482ad5a9e41b847b7df5a935ad4b", "lat": 38.9217355, "fusion_lon": 0.0, "fusion_lat": 0.0, "type": "electric_scooter", "name": "241e482ad5a9e41b847b7df5a935ad4b", "is_disabled": 0, "rental_uris": {"ios": "https://dc.lft.to/lastmile_qr_scan", "android": "https://dc.lft.to/lastmile_qr_scan"}, "is_reserved": 0}, {"lon": -77.031807, "bike_id": "2119f9ae6e409edbdc02eaf76de1c7f2", "lat": 38.892023333333334, "fusion_lon": 0.0, "fusion_lat": 0.0, "type": "electric_scooter", "name": "2119f9ae6e409edbdc02eaf76de1c7f2", "is_disabled": 0, "rental_uris": {"ios": "https://dc.lft.to/lastmile_qr_scan", "android": "https://dc.lft.to/lastmile_qr_scan"}, "is_reserved": 0}, {"lon": -77.026868, "bike_id": "c9e86300172b5a50922314cae0f983f9", "lat": 38.926704, "fusion_lon": 0.0, "fusion_lat": 0.0, "type": "electric_scooter", "name": "c9e86300172b5a50922314cae0f983f9", "is_disabled": 0, "rental_uris": {"ios": "https://dc.lft.to/lastmile_qr_scan", "android": "https://dc.lft.to/lastmile_qr_scan"}, "is_reserved": 0}, {"lon": -77.022692, "bike_id": "b3a739d557788bb28e6b87be10d94961", "lat": 38.9376955, "fusion_lon": 0.0, "fusion_lat": 0.0, "type": "electric_scooter", "name": "b3a739d557788bb28e6b87be10d94961", "is_disabled": 0, "rental_uris": {"ios": "https://dc.lft.to/lastmile_qr_scan", "android": "https://dc.lft.to/lastmile_qr_scan"}, "is_reserved": 0}, {"lon": -77.04486366666667, "bike_id": "98489945563d6dbd5c3612a1cd83a402", "lat": 38.89240233333334, "fusion_lon": 0.0, "fusion_lat": 0.0, "type": "electric_scooter", "name": "98489945563d6dbd5c3612a1cd83a402", "is_disabled": 0, "rental_uris": {"ios": "https://dc.lft.to/lastmile_qr_scan", "android": "https://dc.lft.to/lastmile_qr_scan"}, "is_reserved": 0}, {"lon": -77.012813, "bike_id": "8a671124e36712b3fde3689184d4832e", "lat": 38.9156195, "fusion_lon": 0.0, "fusion_lat": 0.0, "type": "electric_scooter", "name": "8a671124e36712b3fde3689184d4832e", "is_disabled": 0, "rental_uris": {"ios": "https://dc.lft.to/lastmile_qr_scan", "android": "https://dc.lft.to/lastmile_qr_scan"}, "is_reserved": 0}, {"lon": -77.00527116666666, "bike_id": "7f6422e1802e0aacfadccf388d8382df", "lat": 38.92977066666667, "fusion_lon": 0.0, "fusion_lat": 0.0, "type": "electric_scooter", "name": "7f6422e1802e0aacfadccf388d8382df", "is_disabled": 0, "rental_uris": {"ios": "https://dc.lft.to/lastmile_qr_scan", "android": "https://dc.lft.to/lastmile_qr_scan"}, "is_reserved": 0}, {"lon": -77.05250516666666, "bike_id": "5a7020bca1e79c64369c850289a93a20", "lat": 38.925731166666665, "fusion_lon": 0.0, "fusion_lat": 0.0, "type": "electric_scooter", "name": "5a7020bca1e79c64369c850289a93a20", "is_disabled": 0, "rental_uris": {"ios": "https://dc.lft.to/lastmile_qr_scan", "android": "https://dc.lft.to/lastmile_qr_scan"}, "is_reserved": 0}, {"lon": -77.02080033333333, "bike_id": "17c408aacfd848a3f465b06513403578", "lat": 38.89994683333333, "fusion_lon": 0.0, "fusion_lat": 0.0, "type": "electric_scooter", "name": "17c408aacfd848a3f465b06513403578", "is_disabled": 0, "rental_uris": {"ios": "https://dc.lft.to/lastmile_qr_scan", "android": "https://dc.lft.to/lastmile_qr_scan"}, "is_reserved": 0}, {"lon": -76.98524083333334, "bike_id": "befe9e870eeb5d4729b9554fceb4a63b", "lat": 38.866852333333334, "fusion_lon": 0.0, "fusion_lat": 0.0, "type": "electric_scooter", "name": "befe9e870eeb5d4729b9554fceb4a63b", "is_disabled": 0, "rental_uris": {"ios": "https://dc.lft.to/lastmile_qr_scan", "android": "https://dc.lft.to/lastmile_qr_scan"}, "is_reserved": 0}, {"lon": -77.0145785, "bike_id": "cf69ed5ced3cee4250fb5c9eaccf4c7c", "lat": 38.9192635, "fusion_lon": 0.0, "fusion_lat": 0.0, "type": "electric_scooter", "name": "cf69ed5ced3cee4250fb5c9eaccf4c7c", "is_disabled": 0, "rental_uris": {"ios": "https://dc.lft.to/lastmile_qr_scan", "android": "https://dc.lft.to/lastmile_qr_scan"}, "is_reserved": 0}, {"lon": -77.0387, "bike_id": "69aa71b7f100b9dfbb397b262b239b7e", "lat": 38.912661, "fusion_lon": 0.0, "fusion_lat": 0.0, "type": "electric_scooter", "name": "69aa71b7f100b9dfbb397b262b239b7e", "is_disabled": 0, "rental_uris": {"ios": "https://dc.lft.to/lastmile_qr_scan", "android": "https://dc.lft.to/lastmile_qr_scan"}, "is_reserved": 0}, {"lon": -77.02802966666667, "bike_id": "4089e1caddb1792532dea46736728774", "lat": 38.91417216666667, "fusion_lon": 0.0, "fusion_lat": 0.0, "type": "electric_scooter", "name": "4089e1caddb1792532dea46736728774", "is_disabled": 0, "rental_uris": {"ios": "https://dc.lft.to/lastmile_qr_scan", "android": "https://dc.lft.to/lastmile_qr_scan"}, "is_reserved": 0}, {"lon": -77.0321965, "bike_id": "fc6bddd0c8bd22818596d444acb18bad", "lat": 38.8922565, "fusion_lon": 0.0, "fusion_lat": 0.0, "type": "electric_scooter", "name": "fc6bddd0c8bd22818596d444acb18bad", "is_disabled": 0, "rental_uris": {"ios": "https://dc.lft.to/lastmile_qr_scan", "android": "https://dc.lft.to/lastmile_qr_scan"}, "is_reserved": 0}, {"lon": -77.0546825, "bike_id": "2910d32a0ad2024cd391996d0c8e9401", "lat": 38.904325666666665, "fusion_lon": 0.0, "fusion_lat": 0.0, "type": "electric_scooter", "name": "2910d32a0ad2024cd391996d0c8e9401", "is_disabled": 0, "rental_uris": {"ios": "https://dc.lft.to/lastmile_qr_scan", "android": "https://dc.lft.to/lastmile_qr_scan"}, "is_reserved": 0}, {"lon": -77.02381633333333, "bike_id": "ff3d5dfd68ed4ce1bba637b358714686", "lat": 38.9022355, "fusion_lon": 0.0, "fusion_lat": 0.0, "type": "electric_scooter", "name": "ff3d5dfd68ed4ce1bba637b358714686", "is_disabled": 0, "rental_uris": {"ios": "https://dc.lft.to/lastmile_qr_scan", "android": "https://dc.lft.to/lastmile_qr_scan"}, "is_reserved": 0}, {"lon": -76.97237433333333, "bike_id": "bface69f769d4b913ee666afbdcdde53", "lat": 38.903425166666665, "fusion_lon": 0.0, "fusion_lat": 0.0, "type": "electric_scooter", "name": "bface69f769d4b913ee666afbdcdde53", "is_disabled": 0, "rental_uris": {"ios": "https://dc.lft.to/lastmile_qr_scan", "android": "https://dc.lft.to/lastmile_qr_scan"}, "is_reserved": 0}, {"lon": -77.07595133333334, "bike_id": "6ed0c3ba34d61b0dbedff5c40471b2da", "lat": 38.91215916666667, "fusion_lon": 0.0, "fusion_lat": 0.0, "type": "electric_scooter", "name": "6ed0c3ba34d61b0dbedff5c40471b2da", "is_disabled": 0, "rental_uris": {"ios": "https://dc.lft.to/lastmile_qr_scan", "android": "https://dc.lft.to/lastmile_qr_scan"}, "is_reserved": 0}, {"lon": -77.03283883333333, "bike_id": "21963c32a9ab2216b4732f541a48394a", "lat": 38.93761416666667, "fusion_lon": 0.0, "fusion_lat": 0.0, "type": "electric_scooter", "name": "21963c32a9ab2216b4732f541a48394a", "is_disabled": 0, "rental_uris": {"ios": "https://dc.lft.to/lastmile_qr_scan", "android": "https://dc.lft.to/lastmile_qr_scan"}, "is_reserved": 0}, {"lon": -77.02191766666667, "bike_id": "64634e61f8b98d5000cac258fab19866", "lat": 38.91484916666667, "fusion_lon": 0.0, "fusion_lat": 0.0, "type": "electric_scooter", "name": "64634e61f8b98d5000cac258fab19866", "is_disabled": 0, "rental_uris": {"ios": "https://dc.lft.to/lastmile_qr_scan", "android": "https://dc.lft.to/lastmile_qr_scan"}, "is_reserved": 0}, {"lon": -76.99458883333334, "bike_id": "f2be945115cdf9a1663cae710449d795", "lat": 38.9037115, "fusion_lon": 0.0, "fusion_lat": 0.0, "type": "electric_scooter", "name": "f2be945115cdf9a1663cae710449d795", "is_disabled": 0, "rental_uris": {"ios": "https://dc.lft.to/lastmile_qr_scan", "android": "https://dc.lft.to/lastmile_qr_scan"}, "is_reserved": 0}, {"lon": -76.98525366666667, "bike_id": "3ee2ff38e4e9a6e8fdb320975e794bd5", "lat": 38.866895, "fusion_lon": 0.0, "fusion_lat": 0.0, "type": "electric_scooter", "name": "3ee2ff38e4e9a6e8fdb320975e794bd5", "is_disabled": 0, "rental_uris": {"ios": "https://dc.lft.to/lastmile_qr_scan", "android": "https://dc.lft.to/lastmile_qr_scan"}, "is_reserved": 0}, {"lon": -76.98842133333333, "bike_id": "8ea9a815d4d55edec1602773dbb59ceb", "lat": 38.84272883333333, "fusion_lon": 0.0, "fusion_lat": 0.0, "type": "electric_bike", "name": "8ea9a815d4d55edec1602773dbb59ceb", "is_disabled": 0, "rental_uris": {"ios": "https://dc.lft.to/lastmile_qr_scan", "android": "https://dc.lft.to/lastmile_qr_scan"}, "is_reserved": 0}, {"lon": -77.07242666666667, "bike_id": "42b361b5bb3e83e4927201bc2a0eeca9", "lat": 38.8991245, "fusion_lon": 0.0, "fusion_lat": 0.0, "type": "electric_scooter", "name": "42b361b5bb3e83e4927201bc2a0eeca9", "is_disabled": 0, "rental_uris": {"ios": "https://dc.lft.to/lastmile_qr_scan", "android": "https://dc.lft.to/lastmile_qr_scan"}, "is_reserved": 0}, {"lon": -77.0204875, "bike_id": "2056134dc9549d5604472a11d647368c", "lat": 38.929174, "fusion_lon": 0.0, "fusion_lat": 0.0, "type": "electric_scooter", "name": "2056134dc9549d5604472a11d647368c", "is_disabled": 0, "rental_uris": {"ios": "https://dc.lft.to/lastmile_qr_scan", "android": "https://dc.lft.to/lastmile_qr_scan"}, "is_reserved": 0}, {"lon": -77.00066433333333, "bike_id": "a6b9215f77be888ad4e579e920fdc576", "lat": 38.900862000000004, "fusion_lon": 0.0, "fusion_lat": 0.0, "type": "electric_scooter", "name": "a6b9215f77be888ad4e579e920fdc576", "is_disabled": 0, "rental_uris": {"ios": "https://dc.lft.to/lastmile_qr_scan", "android": "https://dc.lft.to/lastmile_qr_scan"}, "is_reserved": 0}, {"lon": -77.01792066666667, "bike_id": "956a406dcf1b1a3f144d715342ed815c", "lat": 38.941173166666665, "fusion_lon": 0.0, "fusion_lat": 0.0, "type": "electric_scooter", "name": "956a406dcf1b1a3f144d715342ed815c", "is_disabled": 0, "rental_uris": {"ios": "https://dc.lft.to/lastmile_qr_scan", "android": "https://dc.lft.to/lastmile_qr_scan"}, "is_reserved": 0}, {"lon": -76.9488305, "bike_id": "8051398019401106cf174d147ff61b76", "lat": 38.894288, "fusion_lon": 0.0, "fusion_lat": 0.0, "type": "electric_scooter", "name": "8051398019401106cf174d147ff61b76", "is_disabled": 0, "rental_uris": {"ios": "https://dc.lft.to/lastmile_qr_scan", "android": "https://dc.lft.to/lastmile_qr_scan"}, "is_reserved": 0}, {"lon": -77.03217683333334, "bike_id": "6aadcd1b8fb2002a1f3303d1a83af2a1", "lat": 38.912731, "fusion_lon": 0.0, "fusion_lat": 0.0, "type": "electric_scooter", "name": "6aadcd1b8fb2002a1f3303d1a83af2a1", "is_disabled": 0, "rental_uris": {"ios": "https://dc.lft.to/lastmile_qr_scan", "android": "https://dc.lft.to/lastmile_qr_scan"}, "is_reserved": 0}, {"lon": -77.019861, "bike_id": "d50ee7fdc54e85644d60d74cdf46dcbb", "lat": 38.925528166666666, "fusion_lon": 0.0, "fusion_lat": 0.0, "type": "electric_bike", "name": "d50ee7fdc54e85644d60d74cdf46dcbb", "is_disabled": 0, "rental_uris": {"ios": "https://dc.lft.to/lastmile_qr_scan", "android": "https://dc.lft.to/lastmile_qr_scan"}, "is_reserved": 0}, {"lon": -77.03386266666666, "bike_id": "51d9b18bd0955501d4baa4dff12d2010", "lat": 38.93846533333333, "fusion_lon": 0.0, "fusion_lat": 0.0, "type": "electric_scooter", "name": "51d9b18bd0955501d4baa4dff12d2010", "is_disabled": 0, "rental_uris": {"ios": "https://dc.lft.to/lastmile_qr_scan", "android": "https://dc.lft.to/lastmile_qr_scan"}, "is_reserved": 0}, {"lon": -76.9937645, "bike_id": "b8651849b5ab3c4e5d66a7c2f340da84", "lat": 38.89377566666667, "fusion_lon": 0.0, "fusion_lat": 0.0, "type": "electric_scooter", "name": "b8651849b5ab3c4e5d66a7c2f340da84", "is_disabled": 0, "rental_uris": {"ios": "https://dc.lft.to/lastmile_qr_scan", "android": "https://dc.lft.to/lastmile_qr_scan"}, "is_reserved": 0}, {"lon": -77.006788, "bike_id": "203788cd40b9f73b7274a3845981ca71", "lat": 38.8349585, "fusion_lon": 0.0, "fusion_lat": 0.0, "type": "electric_scooter", "name": "203788cd40b9f73b7274a3845981ca71", "is_disabled": 0, "rental_uris": {"ios": "https://dc.lft.to/lastmile_qr_scan", "android": "https://dc.lft.to/lastmile_qr_scan"}, "is_reserved": 0}, {"lon": -77.0332115, "bike_id": "901b61a5c2069573b0bfa75a897a4a74", "lat": 38.921687666666664, "fusion_lon": 0.0, "fusion_lat": 0.0, "type": "electric_scooter", "name": "901b61a5c2069573b0bfa75a897a4a74", "is_disabled": 0, "rental_uris": {"ios": "https://dc.lft.to/lastmile_qr_scan", "android": "https://dc.lft.to/lastmile_qr_scan"}, "is_reserved": 0}, {"lon": -77.03066833333334, "bike_id": "643f72c4d37f32c2366bc1aa25c98861", "lat": 38.9006225, "fusion_lon": 0.0, "fusion_lat": 0.0, "type": "electric_scooter", "name": "643f72c4d37f32c2366bc1aa25c98861", "is_disabled": 0, "rental_uris": {"ios": "https://dc.lft.to/lastmile_qr_scan", "android": "https://dc.lft.to/lastmile_qr_scan"}, "is_reserved": 0}, {"lon": -77.04442783333333, "bike_id": "9bfd3c41732520e4742d35ed5549e41d", "lat": 38.918070166666666, "fusion_lon": 0.0, "fusion_lat": 0.0, "type": "electric_scooter", "name": "9bfd3c41732520e4742d35ed5549e41d", "is_disabled": 0, "rental_uris": {"ios": "https://dc.lft.to/lastmile_qr_scan", "android": "https://dc.lft.to/lastmile_qr_scan"}, "is_reserved": 0}, {"lon": -77.04537833333333, "bike_id": "6c4619171dc766cc68f79c20d1b51cc5", "lat": 38.9132205, "fusion_lon": 0.0, "fusion_lat": 0.0, "type": "electric_scooter", "name": "6c4619171dc766cc68f79c20d1b51cc5", "is_disabled": 0, "rental_uris": {"ios": "https://dc.lft.to/lastmile_qr_scan", "android": "https://dc.lft.to/lastmile_qr_scan"}, "is_reserved": 0}, {"lon": -77.02379166666667, "bike_id": "01f66581f6cd0d78873b2941c3d22f4c", "lat": 38.91993316666667, "fusion_lon": 0.0, "fusion_lat": 0.0, "type": "electric_scooter", "name": "01f66581f6cd0d78873b2941c3d22f4c", "is_disabled": 0, "rental_uris": {"ios": "https://dc.lft.to/lastmile_qr_scan", "android": "https://dc.lft.to/lastmile_qr_scan"}, "is_reserved": 0}, {"lon": -77.02692033333334, "bike_id": "59f56d966d969a4b323e62f18f5183fb", "lat": 38.9084165, "fusion_lon": 0.0, "fusion_lat": 0.0, "type": "electric_scooter", "name": "59f56d966d969a4b323e62f18f5183fb", "is_disabled": 0, "rental_uris": {"ios": "https://dc.lft.to/lastmile_qr_scan", "android": "https://dc.lft.to/lastmile_qr_scan"}, "is_reserved": 0}, {"lon": -77.02770016666666, "bike_id": "aa071401c364e9e5795b0c5ff6450357", "lat": 38.8922295, "fusion_lon": 0.0, "fusion_lat": 0.0, "type": "electric_scooter", "name": "aa071401c364e9e5795b0c5ff6450357", "is_disabled": 0, "rental_uris": {"ios": "https://dc.lft.to/lastmile_qr_scan", "android": "https://dc.lft.to/lastmile_qr_scan"}, "is_reserved": 0}, {"lon": -76.99053066666667, "bike_id": "e7621dca1dfcc8f7147c1536706f57c4", "lat": 38.8637955, "fusion_lon": 0.0, "fusion_lat": 0.0, "type": "electric_scooter", "name": "e7621dca1dfcc8f7147c1536706f57c4", "is_disabled": 0, "rental_uris": {"ios": "https://dc.lft.to/lastmile_qr_scan", "android": "https://dc.lft.to/lastmile_qr_scan"}, "is_reserved": 0}, {"lon": -76.94637366666667, "bike_id": "8a7be30ed7efd7d234dfff75afd3bfac", "lat": 38.89835516666667, "fusion_lon": 0.0, "fusion_lat": 0.0, "type": "electric_scooter", "name": "8a7be30ed7efd7d234dfff75afd3bfac", "is_disabled": 0, "rental_uris": {"ios": "https://dc.lft.to/lastmile_qr_scan", "android": "https://dc.lft.to/lastmile_qr_scan"}, "is_reserved": 0}, {"lon": -77.03091416666666, "bike_id": "c91e6ef3c5bfb414ce1b11feb984429b", "lat": 38.9099925, "fusion_lon": 0.0, "fusion_lat": 0.0, "type": "electric_scooter", "name": "c91e6ef3c5bfb414ce1b11feb984429b", "is_disabled": 0, "rental_uris": {"ios": "https://dc.lft.to/lastmile_qr_scan", "android": "https://dc.lft.to/lastmile_qr_scan"}, "is_reserved": 0}, {"lon": -77.044694, "bike_id": "76f8ba25ccdbe24841212db6923ac6b6", "lat": 38.89223166666667, "fusion_lon": 0.0, "fusion_lat": 0.0, "type": "electric_scooter", "name": "76f8ba25ccdbe24841212db6923ac6b6", "is_disabled": 0, "rental_uris": {"ios": "https://dc.lft.to/lastmile_qr_scan", "android": "https://dc.lft.to/lastmile_qr_scan"}, "is_reserved": 0}, {"lon": -77.0004325, "bike_id": "1b79762d5390b7264e9de39c85b72942", "lat": 38.9069135, "fusion_lon": 0.0, "fusion_lat": 0.0, "type": "electric_scooter", "name": "1b79762d5390b7264e9de39c85b72942", "is_disabled": 0, "rental_uris": {"ios": "https://dc.lft.to/lastmile_qr_scan", "android": "https://dc.lft.to/lastmile_qr_scan"}, "is_reserved": 0}, {"lon": -77.03641883333333, "bike_id": "38f3fae2f1e83ff300ef4a21c53e7f33", "lat": 38.91183816666667, "fusion_lon": 0.0, "fusion_lat": 0.0, "type": "electric_scooter", "name": "38f3fae2f1e83ff300ef4a21c53e7f33", "is_disabled": 0, "rental_uris": {"ios": "https://dc.lft.to/lastmile_qr_scan", "android": "https://dc.lft.to/lastmile_qr_scan"}, "is_reserved": 0}, {"lon": -77.02323116666666, "bike_id": "a3aacca0452f5285fb887fb2c6a7f67e", "lat": 38.878857333333336, "fusion_lon": 0.0, "fusion_lat": 0.0, "type": "electric_scooter", "name": "a3aacca0452f5285fb887fb2c6a7f67e", "is_disabled": 0, "rental_uris": {"ios": "https://dc.lft.to/lastmile_qr_scan", "android": "https://dc.lft.to/lastmile_qr_scan"}, "is_reserved": 0}, {"lon": -77.06895266666666, "bike_id": "1d12dd0218b9bef948e5524aa8c73957", "lat": 38.90513133333333, "fusion_lon": 0.0, "fusion_lat": 0.0, "type": "electric_scooter", "name": "1d12dd0218b9bef948e5524aa8c73957", "is_disabled": 0, "rental_uris": {"ios": "https://dc.lft.to/lastmile_qr_scan", "android": "https://dc.lft.to/lastmile_qr_scan"}, "is_reserved": 0}, {"lon": -76.98374, "bike_id": "88d148eb239d99edfbf8ecb723cb880b", "lat": 38.9065195, "fusion_lon": 0.0, "fusion_lat": 0.0, "type": "electric_scooter", "name": "88d148eb239d99edfbf8ecb723cb880b", "is_disabled": 0, "rental_uris": {"ios": "https://dc.lft.to/lastmile_qr_scan", "android": "https://dc.lft.to/lastmile_qr_scan"}, "is_reserved": 0}, {"lon": -77.03899683333333, "bike_id": "361c35fb2a1e248e75f2a9dbf87b3710", "lat": 38.922358, "fusion_lon": 0.0, "fusion_lat": 0.0, "type": "electric_scooter", "name": "361c35fb2a1e248e75f2a9dbf87b3710", "is_disabled": 0, "rental_uris": {"ios": "https://dc.lft.to/lastmile_qr_scan", "android": "https://dc.lft.to/lastmile_qr_scan"}, "is_reserved": 0}, {"lon": -77.00311666666667, "bike_id": "3f8d61a5db141022d9aaa602d5f2df46", "lat": 38.92354183333333, "fusion_lon": 0.0, "fusion_lat": 0.0, "type": "electric_scooter", "name": "3f8d61a5db141022d9aaa602d5f2df46", "is_disabled": 0, "rental_uris": {"ios": "https://dc.lft.to/lastmile_qr_scan", "android": "https://dc.lft.to/lastmile_qr_scan"}, "is_reserved": 0}, {"lon": -77.04134416666666, "bike_id": "57a9e3f037ac1d9dd4dca61f78b1fb26", "lat": 38.92370283333333, "fusion_lon": 0.0, "fusion_lat": 0.0, "type": "electric_scooter", "name": "57a9e3f037ac1d9dd4dca61f78b1fb26", "is_disabled": 0, "rental_uris": {"ios": "https://dc.lft.to/lastmile_qr_scan", "android": "https://dc.lft.to/lastmile_qr_scan"}, "is_reserved": 0}, {"lon": -77.02593716666667, "bike_id": "6704a150d29df5d5b749d2a0ccf7ac7a", "lat": 38.9419995, "fusion_lon": 0.0, "fusion_lat": 0.0, "type": "electric_scooter", "name": "6704a150d29df5d5b749d2a0ccf7ac7a", "is_disabled": 0, "rental_uris": {"ios": "https://dc.lft.to/lastmile_qr_scan", "android": "https://dc.lft.to/lastmile_qr_scan"}, "is_reserved": 0}, {"lon": -77.039429, "bike_id": "aef3cc4d73dcf501760580fd7a818211", "lat": 38.93062466666667, "fusion_lon": 0.0, "fusion_lat": 0.0, "type": "electric_scooter", "name": "aef3cc4d73dcf501760580fd7a818211", "is_disabled": 0, "rental_uris": {"ios": "https://dc.lft.to/lastmile_qr_scan", "android": "https://dc.lft.to/lastmile_qr_scan"}, "is_reserved": 0}, {"lon": -76.99781216666666, "bike_id": "43afccd755cb9b983e7d85dd09ea5e8a", "lat": 38.8442775, "fusion_lon": 0.0, "fusion_lat": 0.0, "type": "electric_scooter", "name": "43afccd755cb9b983e7d85dd09ea5e8a", "is_disabled": 0, "rental_uris": {"ios": "https://dc.lft.to/lastmile_qr_scan", "android": "https://dc.lft.to/lastmile_qr_scan"}, "is_reserved": 0}, {"lon": -76.99539733333333, "bike_id": "46b87764ed2798deef5a8d06336ad65a", "lat": 38.88375116666667, "fusion_lon": 0.0, "fusion_lat": 0.0, "type": "electric_scooter", "name": "46b87764ed2798deef5a8d06336ad65a", "is_disabled": 0, "rental_uris": {"ios": "https://dc.lft.to/lastmile_qr_scan", "android": "https://dc.lft.to/lastmile_qr_scan"}, "is_reserved": 0}, {"lon": -77.029641, "bike_id": "2d249f958a68d49f0b749270baa719f8", "lat": 38.93062283333333, "fusion_lon": 0.0, "fusion_lat": 0.0, "type": "electric_scooter", "name": "2d249f958a68d49f0b749270baa719f8", "is_disabled": 0, "rental_uris": {"ios": "https://dc.lft.to/lastmile_qr_scan", "android": "https://dc.lft.to/lastmile_qr_scan"}, "is_reserved": 0}, {"lon": -77.034483, "bike_id": "5309c0f45c81da6937b7feb1b849da40", "lat": 38.9072815, "fusion_lon": 0.0, "fusion_lat": 0.0, "type": "electric_scooter", "name": "5309c0f45c81da6937b7feb1b849da40", "is_disabled": 0, "rental_uris": {"ios": "https://dc.lft.to/lastmile_qr_scan", "android": "https://dc.lft.to/lastmile_qr_scan"}, "is_reserved": 0}, {"lon": -77.0406435, "bike_id": "5897019db6f0e98a45ac691e59ac12d3", "lat": 38.9176905, "fusion_lon": 0.0, "fusion_lat": 0.0, "type": "electric_scooter", "name": "5897019db6f0e98a45ac691e59ac12d3", "is_disabled": 0, "rental_uris": {"ios": "https://dc.lft.to/lastmile_qr_scan", "android": "https://dc.lft.to/lastmile_qr_scan"}, "is_reserved": 0}, {"lon": -77.00108616666667, "bike_id": "9f9001ccb91956ee8633dbaf78aa47cb", "lat": 38.907531, "fusion_lon": 0.0, "fusion_lat": 0.0, "type": "electric_scooter", "name": "9f9001ccb91956ee8633dbaf78aa47cb", "is_disabled": 0, "rental_uris": {"ios": "https://dc.lft.to/lastmile_qr_scan", "android": "https://dc.lft.to/lastmile_qr_scan"}, "is_reserved": 0}, {"lon": -77.036449, "bike_id": "663d122cce689fe509d9bce6a246f4ea", "lat": 38.923086833333336, "fusion_lon": 0.0, "fusion_lat": 0.0, "type": "electric_scooter", "name": "663d122cce689fe509d9bce6a246f4ea", "is_disabled": 0, "rental_uris": {"ios": "https://dc.lft.to/lastmile_qr_scan", "android": "https://dc.lft.to/lastmile_qr_scan"}, "is_reserved": 0}, {"lon": -77.02693916666666, "bike_id": "178381015ace463c8cbcfccd6b1e78bb", "lat": 38.90629583333333, "fusion_lon": 0.0, "fusion_lat": 0.0, "type": "electric_scooter", "name": "178381015ace463c8cbcfccd6b1e78bb", "is_disabled": 0, "rental_uris": {"ios": "https://dc.lft.to/lastmile_qr_scan", "android": "https://dc.lft.to/lastmile_qr_scan"}, "is_reserved": 0}, {"lon": -77.03867633333333, "bike_id": "6867c2c95972946fef21425c8d0812e4", "lat": 38.906647666666665, "fusion_lon": 0.0, "fusion_lat": 0.0, "type": "electric_scooter", "name": "6867c2c95972946fef21425c8d0812e4", "is_disabled": 0, "rental_uris": {"ios": "https://dc.lft.to/lastmile_qr_scan", "android": "https://dc.lft.to/lastmile_qr_scan"}, "is_reserved": 0}, {"lon": -77.06747816666666, "bike_id": "87e68e43305d7610bf3025e8008e479a", "lat": 38.903385, "fusion_lon": 0.0, "fusion_lat": 0.0, "type": "electric_scooter", "name": "87e68e43305d7610bf3025e8008e479a", "is_disabled": 0, "rental_uris": {"ios": "https://dc.lft.to/lastmile_qr_scan", "android": "https://dc.lft.to/lastmile_qr_scan"}, "is_reserved": 0}, {"lon": -76.9858185, "bike_id": "0aea917f818fc442b49305ec1519d96a", "lat": 38.900335166666665, "fusion_lon": 0.0, "fusion_lat": 0.0, "type": "electric_scooter", "name": "0aea917f818fc442b49305ec1519d96a", "is_disabled": 0, "rental_uris": {"ios": "https://dc.lft.to/lastmile_qr_scan", "android": "https://dc.lft.to/lastmile_qr_scan"}, "is_reserved": 0}, {"lon": -77.086014, "bike_id": "54e9ca2c0cf7615a5736dc17f73dd142", "lat": 38.9086675, "fusion_lon": 0.0, "fusion_lat": 0.0, "type": "electric_scooter", "name": "54e9ca2c0cf7615a5736dc17f73dd142", "is_disabled": 0, "rental_uris": {"ios": "https://dc.lft.to/lastmile_qr_scan", "android": "https://dc.lft.to/lastmile_qr_scan"}, "is_reserved": 0}, {"lon": -77.00585683333334, "bike_id": "e5921ebe4b6d88cafb100a7b18ed176c", "lat": 38.92627016666667, "fusion_lon": 0.0, "fusion_lat": 0.0, "type": "electric_scooter", "name": "e5921ebe4b6d88cafb100a7b18ed176c", "is_disabled": 0, "rental_uris": {"ios": "https://dc.lft.to/lastmile_qr_scan", "android": "https://dc.lft.to/lastmile_qr_scan"}, "is_reserved": 0}, {"lon": -76.99781166666666, "bike_id": "58870a67dd4a84dbe189c7eb51290ed8", "lat": 38.84430416666667, "fusion_lon": 0.0, "fusion_lat": 0.0, "type": "electric_scooter", "name": "58870a67dd4a84dbe189c7eb51290ed8", "is_disabled": 0, "rental_uris": {"ios": "https://dc.lft.to/lastmile_qr_scan", "android": "https://dc.lft.to/lastmile_qr_scan"}, "is_reserved": 0}, {"lon": -76.95456066666667, "bike_id": "a04c5d06faa485b73bf6043d57293c51", "lat": 38.889501, "fusion_lon": 0.0, "fusion_lat": 0.0, "type": "electric_scooter", "name": "a04c5d06faa485b73bf6043d57293c51", "is_disabled": 0, "rental_uris": {"ios": "https://dc.lft.to/lastmile_qr_scan", "android": "https://dc.lft.to/lastmile_qr_scan"}, "is_reserved": 0}, {"lon": -77.039245, "bike_id": "ac75eba38ba41a4541d2e392f03d1f09", "lat": 38.928010666666665, "fusion_lon": 0.0, "fusion_lat": 0.0, "type": "electric_scooter", "name": "ac75eba38ba41a4541d2e392f03d1f09", "is_disabled": 0, "rental_uris": {"ios": "https://dc.lft.to/lastmile_qr_scan", "android": "https://dc.lft.to/lastmile_qr_scan"}, "is_reserved": 0}, {"lon": -77.06060033333333, "bike_id": "18ca6699e9c4b279f3f96ceb1ec3ffe7", "lat": 38.8057425, "fusion_lon": 0.0, "fusion_lat": 0.0, "type": "electric_bike", "name": "18ca6699e9c4b279f3f96ceb1ec3ffe7", "is_disabled": 0, "rental_uris": {"ios": "https://dc.lft.to/lastmile_qr_scan", "android": "https://dc.lft.to/lastmile_qr_scan"}, "is_reserved": 0}, {"lon": -77.0486645, "bike_id": "4d11d98d2bda801a9faf95810cb397b3", "lat": 38.90717883333333, "fusion_lon": 0.0, "fusion_lat": 0.0, "type": "electric_scooter", "name": "4d11d98d2bda801a9faf95810cb397b3", "is_disabled": 0, "rental_uris": {"ios": "https://dc.lft.to/lastmile_qr_scan", "android": "https://dc.lft.to/lastmile_qr_scan"}, "is_reserved": 0}, {"lon": -77.088121, "bike_id": "c97c2f4fb9f746df90efe8ed503b7005", "lat": 38.911781833333336, "fusion_lon": 0.0, "fusion_lat": 0.0, "type": "electric_bike", "name": "c97c2f4fb9f746df90efe8ed503b7005", "is_disabled": 0, "rental_uris": {"ios": "https://dc.lft.to/lastmile_qr_scan", "android": "https://dc.lft.to/lastmile_qr_scan"}, "is_reserved": 0}, {"lon": -77.04737516666667, "bike_id": "7c9986a631bec45494e5164b42a68f19", "lat": 38.907155, "fusion_lon": 0.0, "fusion_lat": 0.0, "type": "electric_scooter", "name": "7c9986a631bec45494e5164b42a68f19", "is_disabled": 0, "rental_uris": {"ios": "https://dc.lft.to/lastmile_qr_scan", "android": "https://dc.lft.to/lastmile_qr_scan"}, "is_reserved": 0}, {"lon": -76.97619116666667, "bike_id": "396a315c9d99f1ea011f114dafefd669", "lat": 38.92654, "fusion_lon": 0.0, "fusion_lat": 0.0, "type": "electric_scooter", "name": "396a315c9d99f1ea011f114dafefd669", "is_disabled": 0, "rental_uris": {"ios": "https://dc.lft.to/lastmile_qr_scan", "android": "https://dc.lft.to/lastmile_qr_scan"}, "is_reserved": 0}, {"lon": -76.97743566666666, "bike_id": "a060bf51c2a43ef19886a007fddf70da", "lat": 38.86502866666667, "fusion_lon": 0.0, "fusion_lat": 0.0, "type": "electric_bike", "name": "a060bf51c2a43ef19886a007fddf70da", "is_disabled": 0, "rental_uris": {"ios": "https://dc.lft.to/lastmile_qr_scan", "android": "https://dc.lft.to/lastmile_qr_scan"}, "is_reserved": 0}, {"lon": -77.0129075, "bike_id": "a49cb8f7a92ba5430213f24ea39483db", "lat": 38.915495166666666, "fusion_lon": 0.0, "fusion_lat": 0.0, "type": "electric_scooter", "name": "a49cb8f7a92ba5430213f24ea39483db", "is_disabled": 0, "rental_uris": {"ios": "https://dc.lft.to/lastmile_qr_scan", "android": "https://dc.lft.to/lastmile_qr_scan"}, "is_reserved": 0}, {"lon": -76.99106016666667, "bike_id": "70523897d252737b55b687f0db5551ce", "lat": 38.9032365, "fusion_lon": 0.0, "fusion_lat": 0.0, "type": "electric_scooter", "name": "70523897d252737b55b687f0db5551ce", "is_disabled": 0, "rental_uris": {"ios": "https://dc.lft.to/lastmile_qr_scan", "android": "https://dc.lft.to/lastmile_qr_scan"}, "is_reserved": 0}, {"lon": -77.0176935, "bike_id": "97004b8ebb7868cc856914664fa424af", "lat": 38.87715033333333, "fusion_lon": 0.0, "fusion_lat": 0.0, "type": "electric_scooter", "name": "97004b8ebb7868cc856914664fa424af", "is_disabled": 0, "rental_uris": {"ios": "https://dc.lft.to/lastmile_qr_scan", "android": "https://dc.lft.to/lastmile_qr_scan"}, "is_reserved": 0}, {"lon": -77.00646733333333, "bike_id": "3f3d5588ad3d36edea03e09ceeb1c06c", "lat": 38.9262115, "fusion_lon": 0.0, "fusion_lat": 0.0, "type": "electric_scooter", "name": "3f3d5588ad3d36edea03e09ceeb1c06c", "is_disabled": 0, "rental_uris": {"ios": "https://dc.lft.to/lastmile_qr_scan", "android": "https://dc.lft.to/lastmile_qr_scan"}, "is_reserved": 0}, {"lon": -76.995361, "bike_id": "5471556d59b3d5aa18aa3bd751b7780a", "lat": 38.88373583333333, "fusion_lon": 0.0, "fusion_lat": 0.0, "type": "electric_scooter", "name": "5471556d59b3d5aa18aa3bd751b7780a", "is_disabled": 0, "rental_uris": {"ios": "https://dc.lft.to/lastmile_qr_scan", "android": "https://dc.lft.to/lastmile_qr_scan"}, "is_reserved": 0}, {"lon": -76.99084066666667, "bike_id": "d6ad0ab55bcba0c6ef2e54f2ebd716cd", "lat": 38.862362166666664, "fusion_lon": 0.0, "fusion_lat": 0.0, "type": "electric_bike", "name": "d6ad0ab55bcba0c6ef2e54f2ebd716cd", "is_disabled": 0, "rental_uris": {"ios": "https://dc.lft.to/lastmile_qr_scan", "android": "https://dc.lft.to/lastmile_qr_scan"}, "is_reserved": 0}, {"lon": -76.97356633333334, "bike_id": "dceab44ffc0f4ee5ff50f448721dd4ed", "lat": 38.87334366666666, "fusion_lon": 0.0, "fusion_lat": 0.0, "type": "electric_scooter", "name": "dceab44ffc0f4ee5ff50f448721dd4ed", "is_disabled": 0, "rental_uris": {"ios": "https://dc.lft.to/lastmile_qr_scan", "android": "https://dc.lft.to/lastmile_qr_scan"}, "is_reserved": 0}, {"lon": -77.01764316666667, "bike_id": "8e07204c82ae7045fea5b5290e0a5166", "lat": 38.88728233333333, "fusion_lon": 0.0, "fusion_lat": 0.0, "type": "electric_scooter", "name": "8e07204c82ae7045fea5b5290e0a5166", "is_disabled": 0, "rental_uris": {"ios": "https://dc.lft.to/lastmile_qr_scan", "android": "https://dc.lft.to/lastmile_qr_scan"}, "is_reserved": 0}, {"lon": -77.02807566666667, "bike_id": "bae799124afacfe7081e744b7cfd0540", "lat": 38.93055416666667, "fusion_lon": 0.0, "fusion_lat": 0.0, "type": "electric_scooter", "name": "bae799124afacfe7081e744b7cfd0540", "is_disabled": 0, "rental_uris": {"ios": "https://dc.lft.to/lastmile_qr_scan", "android": "https://dc.lft.to/lastmile_qr_scan"}, "is_reserved": 0}, {"lon": -77.022216, "bike_id": "f607181e9718a9e34fed51e7ed854653", "lat": 38.95687366666667, "fusion_lon": 0.0, "fusion_lat": 0.0, "type": "electric_bike", "name": "f607181e9718a9e34fed51e7ed854653", "is_disabled": 0, "rental_uris": {"ios": "https://dc.lft.to/lastmile_qr_scan", "android": "https://dc.lft.to/lastmile_qr_scan"}, "is_reserved": 0}, {"lon": -77.065232, "bike_id": "08a73348be039eac7e9592a3483eac83", "lat": 38.90412533333333, "fusion_lon": 0.0, "fusion_lat": 0.0, "type": "electric_scooter", "name": "08a73348be039eac7e9592a3483eac83", "is_disabled": 0, "rental_uris": {"ios": "https://dc.lft.to/lastmile_qr_scan", "android": "https://dc.lft.to/lastmile_qr_scan"}, "is_reserved": 0}, {"lon": -77.08069666666667, "bike_id": "0e5e019c0821dc7a9411930ba8897322", "lat": 39.05279216666667, "fusion_lon": 0.0, "fusion_lat": 0.0, "type": "electric_bike", "name": "0e5e019c0821dc7a9411930ba8897322", "is_disabled": 0, "rental_uris": {"ios": "https://dc.lft.to/lastmile_qr_scan", "android": "https://dc.lft.to/lastmile_qr_scan"}, "is_reserved": 0}, {"lon": -77.02094366666667, "bike_id": "b7bf856818b06715f5ed2a4b89d8a4d6", "lat": 38.927101666666665, "fusion_lon": 0.0, "fusion_lat": 0.0, "type": "electric_scooter", "name": "b7bf856818b06715f5ed2a4b89d8a4d6", "is_disabled": 0, "rental_uris": {"ios": "https://dc.lft.to/lastmile_qr_scan", "android": "https://dc.lft.to/lastmile_qr_scan"}, "is_reserved": 0}, {"lon": -77.03472933333333, "bike_id": "29d540e85fcfffc3e39d888cdc552943", "lat": 38.907212333333334, "fusion_lon": 0.0, "fusion_lat": 0.0, "type": "electric_scooter", "name": "29d540e85fcfffc3e39d888cdc552943", "is_disabled": 0, "rental_uris": {"ios": "https://dc.lft.to/lastmile_qr_scan", "android": "https://dc.lft.to/lastmile_qr_scan"}, "is_reserved": 0}, {"lon": -76.99837266666667, "bike_id": "4ca772963a9616dde42781cf1534813b", "lat": 38.90493416666666, "fusion_lon": 0.0, "fusion_lat": 0.0, "type": "electric_scooter", "name": "4ca772963a9616dde42781cf1534813b", "is_disabled": 0, "rental_uris": {"ios": "https://dc.lft.to/lastmile_qr_scan", "android": "https://dc.lft.to/lastmile_qr_scan"}, "is_reserved": 0}, {"lon": -77.04774916666666, "bike_id": "bb90547130b31871e91481143c158fdc", "lat": 38.91758, "fusion_lon": 0.0, "fusion_lat": 0.0, "type": "electric_scooter", "name": "bb90547130b31871e91481143c158fdc", "is_disabled": 0, "rental_uris": {"ios": "https://dc.lft.to/lastmile_qr_scan", "android": "https://dc.lft.to/lastmile_qr_scan"}, "is_reserved": 0}, {"lon": -77.0250625, "bike_id": "e80b95c47a686630625f10f9ffc879f3", "lat": 38.9207095, "fusion_lon": 0.0, "fusion_lat": 0.0, "type": "electric_scooter", "name": "e80b95c47a686630625f10f9ffc879f3", "is_disabled": 0, "rental_uris": {"ios": "https://dc.lft.to/lastmile_qr_scan", "android": "https://dc.lft.to/lastmile_qr_scan"}, "is_reserved": 0}, {"lon": -77.04619533333333, "bike_id": "a06991c5a67ed3874d8479f71bcc0b86", "lat": 38.92062816666667, "fusion_lon": 0.0, "fusion_lat": 0.0, "type": "electric_scooter", "name": "a06991c5a67ed3874d8479f71bcc0b86", "is_disabled": 0, "rental_uris": {"ios": "https://dc.lft.to/lastmile_qr_scan", "android": "https://dc.lft.to/lastmile_qr_scan"}, "is_reserved": 0}, {"lon": -76.97483433333333, "bike_id": "56264cc02ea2dc7473b2dfd7fb471265", "lat": 38.903560666666664, "fusion_lon": 0.0, "fusion_lat": 0.0, "type": "electric_scooter", "name": "56264cc02ea2dc7473b2dfd7fb471265", "is_disabled": 0, "rental_uris": {"ios": "https://dc.lft.to/lastmile_qr_scan", "android": "https://dc.lft.to/lastmile_qr_scan"}, "is_reserved": 0}, {"lon": -77.058578, "bike_id": "29952f3c24e11e1e33a72dea8c163d2d", "lat": 38.936063833333336, "fusion_lon": 0.0, "fusion_lat": 0.0, "type": "electric_bike", "name": "29952f3c24e11e1e33a72dea8c163d2d", "is_disabled": 0, "rental_uris": {"ios": "https://dc.lft.to/lastmile_qr_scan", "android": "https://dc.lft.to/lastmile_qr_scan"}, "is_reserved": 0}, {"lon": -77.01940683333333, "bike_id": "f20ee9f8a44cf649980bc0dcfe7a9015", "lat": 38.93525133333333, "fusion_lon": 0.0, "fusion_lat": 0.0, "type": "electric_scooter", "name": "f20ee9f8a44cf649980bc0dcfe7a9015", "is_disabled": 0, "rental_uris": {"ios": "https://dc.lft.to/lastmile_qr_scan", "android": "https://dc.lft.to/lastmile_qr_scan"}, "is_reserved": 0}, {"lon": -77.04496983333334, "bike_id": "16aa58f984cc5c229d4d5178d4ef3e1e", "lat": 38.90720316666667, "fusion_lon": 0.0, "fusion_lat": 0.0, "type": "electric_scooter", "name": "16aa58f984cc5c229d4d5178d4ef3e1e", "is_disabled": 0, "rental_uris": {"ios": "https://dc.lft.to/lastmile_qr_scan", "android": "https://dc.lft.to/lastmile_qr_scan"}, "is_reserved": 0}, {"lon": -77.10333083333333, "bike_id": "a4795026d608a3730fee55f287c5247a", "lat": 38.88558066666667, "fusion_lon": 0.0, "fusion_lat": 0.0, "type": "electric_bike", "name": "a4795026d608a3730fee55f287c5247a", "is_disabled": 0, "rental_uris": {"ios": "https://dc.lft.to/lastmile_qr_scan", "android": "https://dc.lft.to/lastmile_qr_scan"}, "is_reserved": 0}, {"lon": -77.02839583333333, "bike_id": "47c5b33d10828dcb45f2673f72d90c18", "lat": 38.929632166666664, "fusion_lon": 0.0, "fusion_lat": 0.0, "type": "electric_scooter", "name": "47c5b33d10828dcb45f2673f72d90c18", "is_disabled": 0, "rental_uris": {"ios": "https://dc.lft.to/lastmile_qr_scan", "android": "https://dc.lft.to/lastmile_qr_scan"}, "is_reserved": 0}, {"lon": -77.01659533333333, "bike_id": "64f81b698409614a0986053ea5216ae6", "lat": 38.8810305, "fusion_lon": 0.0, "fusion_lat": 0.0, "type": "electric_bike", "name": "64f81b698409614a0986053ea5216ae6", "is_disabled": 0, "rental_uris": {"ios": "https://dc.lft.to/lastmile_qr_scan", "android": "https://dc.lft.to/lastmile_qr_scan"}, "is_reserved": 0}, {"lon": -77.00389166666666, "bike_id": "4d580e0ca46820edc473a112769cc79f", "lat": 38.90605583333333, "fusion_lon": 0.0, "fusion_lat": 0.0, "type": "electric_scooter", "name": "4d580e0ca46820edc473a112769cc79f", "is_disabled": 0, "rental_uris": {"ios": "https://dc.lft.to/lastmile_qr_scan", "android": "https://dc.lft.to/lastmile_qr_scan"}, "is_reserved": 0}, {"lon": -77.00212633333334, "bike_id": "d9404c0150e05cf9935837a9be52c46a", "lat": 38.90038933333334, "fusion_lon": 0.0, "fusion_lat": 0.0, "type": "electric_scooter", "name": "d9404c0150e05cf9935837a9be52c46a", "is_disabled": 0, "rental_uris": {"ios": "https://dc.lft.to/lastmile_qr_scan", "android": "https://dc.lft.to/lastmile_qr_scan"}, "is_reserved": 0}, {"lon": -77.03991766666667, "bike_id": "9cd43f759431f1c2faafdb2c2fa0e501", "lat": 38.91642783333333, "fusion_lon": 0.0, "fusion_lat": 0.0, "type": "electric_scooter", "name": "9cd43f759431f1c2faafdb2c2fa0e501", "is_disabled": 0, "rental_uris": {"ios": "https://dc.lft.to/lastmile_qr_scan", "android": "https://dc.lft.to/lastmile_qr_scan"}, "is_reserved": 0}, {"lon": -77.009947, "bike_id": "82b45dca1441d30258d1175be0e06cb6", "lat": 38.9038965, "fusion_lon": 0.0, "fusion_lat": 0.0, "type": "electric_scooter", "name": "82b45dca1441d30258d1175be0e06cb6", "is_disabled": 0, "rental_uris": {"ios": "https://dc.lft.to/lastmile_qr_scan", "android": "https://dc.lft.to/lastmile_qr_scan"}, "is_reserved": 0}, {"lon": -77.0357565, "bike_id": "bfee549daab0e673bf112cdd068646ad", "lat": 38.9177915, "fusion_lon": 0.0, "fusion_lat": 0.0, "type": "electric_scooter", "name": "bfee549daab0e673bf112cdd068646ad", "is_disabled": 0, "rental_uris": {"ios": "https://dc.lft.to/lastmile_qr_scan", "android": "https://dc.lft.to/lastmile_qr_scan"}, "is_reserved": 0}, {"lon": -77.04856683333334, "bike_id": "61c4e6a93cab0063ba36e474253ab558", "lat": 38.90467366666667, "fusion_lon": 0.0, "fusion_lat": 0.0, "type": "electric_scooter", "name": "61c4e6a93cab0063ba36e474253ab558", "is_disabled": 0, "rental_uris": {"ios": "https://dc.lft.to/lastmile_qr_scan", "android": "https://dc.lft.to/lastmile_qr_scan"}, "is_reserved": 0}, {"lon": -77.07730966666666, "bike_id": "48bd177d27bf85807e8ce27ab3f93eef", "lat": 38.922631333333335, "fusion_lon": 0.0, "fusion_lat": 0.0, "type": "electric_bike", "name": "48bd177d27bf85807e8ce27ab3f93eef", "is_disabled": 0, "rental_uris": {"ios": "https://dc.lft.to/lastmile_qr_scan", "android": "https://dc.lft.to/lastmile_qr_scan"}, "is_reserved": 0}, {"lon": -77.01073233333334, "bike_id": "410c4fe69e44f0a91e98fe09404256ac", "lat": 38.96351533333333, "fusion_lon": 0.0, "fusion_lat": 0.0, "type": "electric_scooter", "name": "410c4fe69e44f0a91e98fe09404256ac", "is_disabled": 0, "rental_uris": {"ios": "https://dc.lft.to/lastmile_qr_scan", "android": "https://dc.lft.to/lastmile_qr_scan"}, "is_reserved": 0}, {"lon": -77.02402683333334, "bike_id": "97d068d5b3bd6904853a3ca297f9f80f", "lat": 38.89194466666667, "fusion_lon": 0.0, "fusion_lat": 0.0, "type": "electric_scooter", "name": "97d068d5b3bd6904853a3ca297f9f80f", "is_disabled": 0, "rental_uris": {"ios": "https://dc.lft.to/lastmile_qr_scan", "android": "https://dc.lft.to/lastmile_qr_scan"}, "is_reserved": 0}, {"lon": -77.03187683333333, "bike_id": "ce5ecc60cfcbf5b6f3841048e7f1e259", "lat": 38.90517, "fusion_lon": 0.0, "fusion_lat": 0.0, "type": "electric_scooter", "name": "ce5ecc60cfcbf5b6f3841048e7f1e259", "is_disabled": 0, "rental_uris": {"ios": "https://dc.lft.to/lastmile_qr_scan", "android": "https://dc.lft.to/lastmile_qr_scan"}, "is_reserved": 0}, {"lon": -77.05040366666667, "bike_id": "d386468c8272471df917bc2927ff86f6", "lat": 38.92407383333333, "fusion_lon": 0.0, "fusion_lat": 0.0, "type": "electric_bike", "name": "d386468c8272471df917bc2927ff86f6", "is_disabled": 0, "rental_uris": {"ios": "https://dc.lft.to/lastmile_qr_scan", "android": "https://dc.lft.to/lastmile_qr_scan"}, "is_reserved": 0}, {"lon": -77.023666, "bike_id": "5a317489bd629fe01ceeedbc65939ace", "lat": 38.907321, "fusion_lon": 0.0, "fusion_lat": 0.0, "type": "electric_scooter", "name": "5a317489bd629fe01ceeedbc65939ace", "is_disabled": 0, "rental_uris": {"ios": "https://dc.lft.to/lastmile_qr_scan", "android": "https://dc.lft.to/lastmile_qr_scan"}, "is_reserved": 0}, {"lon": -77.033753, "bike_id": "9d25dd8662d497a22274e8df954ded51", "lat": 38.92050866666666, "fusion_lon": 0.0, "fusion_lat": 0.0, "type": "electric_scooter", "name": "9d25dd8662d497a22274e8df954ded51", "is_disabled": 0, "rental_uris": {"ios": "https://dc.lft.to/lastmile_qr_scan", "android": "https://dc.lft.to/lastmile_qr_scan"}, "is_reserved": 0}, {"lon": -77.04869533333333, "bike_id": "49e82bd6eb54ee410baab3a407413a15", "lat": 38.9162185, "fusion_lon": 0.0, "fusion_lat": 0.0, "type": "electric_scooter", "name": "49e82bd6eb54ee410baab3a407413a15", "is_disabled": 0, "rental_uris": {"ios": "https://dc.lft.to/lastmile_qr_scan", "android": "https://dc.lft.to/lastmile_qr_scan"}, "is_reserved": 0}, {"lon": -77.0220935, "bike_id": "8a6a9243236c0980cfa4735ac5365546", "lat": 38.9126795, "fusion_lon": 0.0, "fusion_lat": 0.0, "type": "electric_scooter", "name": "8a6a9243236c0980cfa4735ac5365546", "is_disabled": 0, "rental_uris": {"ios": "https://dc.lft.to/lastmile_qr_scan", "android": "https://dc.lft.to/lastmile_qr_scan"}, "is_reserved": 0}, {"lon": -76.94973816666666, "bike_id": "7755353239757375d94ed1db9ee8bf98", "lat": 38.893755, "fusion_lon": 0.0, "fusion_lat": 0.0, "type": "electric_scooter", "name": "7755353239757375d94ed1db9ee8bf98", "is_disabled": 0, "rental_uris": {"ios": "https://dc.lft.to/lastmile_qr_scan", "android": "https://dc.lft.to/lastmile_qr_scan"}, "is_reserved": 0}, {"lon": -77.03831716666667, "bike_id": "dddb7f3dc303ef3a567d7129959dda64", "lat": 38.9105205, "fusion_lon": 0.0, "fusion_lat": 0.0, "type": "electric_scooter", "name": "dddb7f3dc303ef3a567d7129959dda64", "is_disabled": 0, "rental_uris": {"ios": "https://dc.lft.to/lastmile_qr_scan", "android": "https://dc.lft.to/lastmile_qr_scan"}, "is_reserved": 0}, {"lon": -77.00063283333333, "bike_id": "ae7dc30adc9dd97989053a60012f3840", "lat": 38.8999195, "fusion_lon": 0.0, "fusion_lat": 0.0, "type": "electric_scooter", "name": "ae7dc30adc9dd97989053a60012f3840", "is_disabled": 0, "rental_uris": {"ios": "https://dc.lft.to/lastmile_qr_scan", "android": "https://dc.lft.to/lastmile_qr_scan"}, "is_reserved": 0}, {"lon": -77.04346866666667, "bike_id": "1b528fd2dba6161eec1e491ab88e090c", "lat": 38.906949166666664, "fusion_lon": 0.0, "fusion_lat": 0.0, "type": "electric_scooter", "name": "1b528fd2dba6161eec1e491ab88e090c", "is_disabled": 0, "rental_uris": {"ios": "https://dc.lft.to/lastmile_qr_scan", "android": "https://dc.lft.to/lastmile_qr_scan"}, "is_reserved": 0}, {"lon": -76.98718166666667, "bike_id": "0f5f5fa4ea118303f2d6df7f833912e4", "lat": 38.86631916666666, "fusion_lon": 0.0, "fusion_lat": 0.0, "type": "electric_scooter", "name": "0f5f5fa4ea118303f2d6df7f833912e4", "is_disabled": 0, "rental_uris": {"ios": "https://dc.lft.to/lastmile_qr_scan", "android": "https://dc.lft.to/lastmile_qr_scan"}, "is_reserved": 0}, {"lon": -77.02436433333334, "bike_id": "bb78f86e56415cd39d77be2b2356580a", "lat": 38.920675833333334, "fusion_lon": 0.0, "fusion_lat": 0.0, "type": "electric_scooter", "name": "bb78f86e56415cd39d77be2b2356580a", "is_disabled": 0, "rental_uris": {"ios": "https://dc.lft.to/lastmile_qr_scan", "android": "https://dc.lft.to/lastmile_qr_scan"}, "is_reserved": 0}, {"lon": -77.07434216666667, "bike_id": "73a3569d79007dc015337bfdeb9083d0", "lat": 38.9995005, "fusion_lon": 0.0, "fusion_lat": 0.0, "type": "electric_bike", "name": "73a3569d79007dc015337bfdeb9083d0", "is_disabled": 0, "rental_uris": {"ios": "https://dc.lft.to/lastmile_qr_scan", "android": "https://dc.lft.to/lastmile_qr_scan"}, "is_reserved": 0}, {"lon": -77.05215533333333, "bike_id": "51feffe7632b37e937f0534a350c77df", "lat": 38.924846, "fusion_lon": 0.0, "fusion_lat": 0.0, "type": "electric_scooter", "name": "51feffe7632b37e937f0534a350c77df", "is_disabled": 0, "rental_uris": {"ios": "https://dc.lft.to/lastmile_qr_scan", "android": "https://dc.lft.to/lastmile_qr_scan"}, "is_reserved": 0}, {"lon": -77.05807166666666, "bike_id": "b93e144cfd2c225acb05c9b48e01db8b", "lat": 38.82394683333333, "fusion_lon": 0.0, "fusion_lat": 0.0, "type": "electric_bike", "name": "b93e144cfd2c225acb05c9b48e01db8b", "is_disabled": 0, "rental_uris": {"ios": "https://dc.lft.to/lastmile_qr_scan", "android": "https://dc.lft.to/lastmile_qr_scan"}, "is_reserved": 0}, {"lon": -76.9492435, "bike_id": "e0a1a0eeb2b153a39e40a20fe8ac36ef", "lat": 38.89355966666667, "fusion_lon": 0.0, "fusion_lat": 0.0, "type": "electric_scooter", "name": "e0a1a0eeb2b153a39e40a20fe8ac36ef", "is_disabled": 0, "rental_uris": {"ios": "https://dc.lft.to/lastmile_qr_scan", "android": "https://dc.lft.to/lastmile_qr_scan"}, "is_reserved": 0},