{"data": {"bikes": [{"lon": -77.02261233333333, "bike_id": "c372adef6eaef1c2de48dda7fd54ca83", "lat": 38.893801, "fusion_lon": 0.0, "fusion_lat": 0.0, "type": "electric_scooter", "name": "c372adef6eaef1c2de48dda7fd54ca83", "is_disabled": 0, "rental_uris": {"ios": "https://dc.lft.to/lastmile_qr_scan", "android": "https://dc.lft.to/lastmile_qr_scan"}, "is_reserved": 0}, {"lon": -77.0335205, "bike_id": "0aaaa6f45dfdaa739c4162dc4acfcf96", "lat": 38.90725966666667, "fusion_lon": 0.0, "fusion_lat": 0.0, "type": "electric_scooter", "name": "0aaaa6f45dfdaa739c4162dc4acfcf96", "is_disabled": 0, "rental_uris": {"ios": "https://dc.lft.to/lastmile_qr_scan", "android": "https://dc.lft.to/lastmile_qr_scan"}, "is_reserved": 0}, {"lon": -76.960612, "bike_id": "811d74e58070f006f9a9848515b61a92", "lat": 38.884032, "fusion_lon": 0.0, "fusion_lat": 0.0, "type": "electric_bike", "name": "811d74e58070f006f9a9848515b61a92", "is_disabled": 0, "rental_uris": {"ios": "https://dc.lft.to/lastmile_qr_scan", "android": "https://dc.lft.to/lastmile_qr_scan"}, "is_reserved": 0}, {"lon": -77.01211116666667, "bike_id": "22826938c8d5f628695999b303b50b56", "lat": 38.89987283333333, "fusion_lon": 0.0, "fusion_lat": 0.0, "type": "electric_scooter", "name": "22826938c8d5f628695999b303b50b56", "is_disabled": 0, "rental_uris": {"ios": "https://dc.lft.to/lastmile_qr_scan", "android": "https://dc.lft.to/lastmile_qr_scan"}, "is_reserved": 0}, {"lon": -77.01431883333333, "bike_id": "6a0c83e2f863e5171ab20e36b8808bbb", "lat": 38.877545, "fusion_lon": 0.0, "fusion_lat": 0.0, "type": "electric_scooter", "name": "6a0c83e2f863e5171ab20e36b8808bbb", "is_disabled": 0, "rental_uris": {"ios": "https://dc.lft.to/lastmile_qr_scan", "android": "https://dc.lft.to/lastmile_qr_scan"}, "is_reserved": 0}, {"lon": -77.054386, "bike_id": "70e1d250eb509020ef4c7bad90c43ecf", "lat": 38.9286155, "fusion_lon": 0.0, "fusion_lat": 0.0, "type": "electric_scooter", "name": "70e1d250eb509020ef4c7bad90c43ecf", "is_disabled": 0, "rental_uris": {"ios": "https://dc.lft.to/lastmile_qr_scan", "android": "https://dc.lft.to/lastmile_qr_scan"}, "is_reserved": 0}, {"lon": -76.954042, "bike_id": "5ec0c656e2fc8785d84d90bd255b1245", "lat": 38.88464183333333, "fusion_lon": 0.0, "fusion_lat": 0.0, "type": "electric_scooter", "name": "5ec0c656e2fc8785d84d90bd255b1245", "is_disabled": 0, "rental_uris": {"ios": "https://dc.lft.to/lastmile_qr_scan", "android": "https://dc.lft.to/lastmile_qr_scan"}, "is_reserved": 0}, {"lon": -77.02177283333333, "bike_id": "226e93d59a6714a1343f5e7d95fdcc1e", "lat": 38.914716, "fusion_lon": 0.0, "fusion_lat": 0.0, "type": "electric_scooter", "name": "226e93d59a6714a1343f5e7d95fdcc1e", "is_disabled": 0, "rental_uris": {"ios": "https://dc.lft.to/lastmile_qr_scan", "android": "https://dc.lft.to/lastmile_qr_scan"}, "is_reserved": 0}, {"lon": -76.91803383333334, "bike_id": "bbd3675722d2840f2f1c42b36e9233d2", "lat": 39.000010833333334, "fusion_lon": 0.0, "fusion_lat": 0.0, "type": "electric_bike", "name": "bbd3675722d2840f2f1c42b36e9233d2", "is_disabled": 0, "rental_uris": {"ios": "https://dc.lft.to/lastmile_qr_scan", "android": "https://dc.lft.to/lastmile_qr_scan"}, "is_reserved": 0}, {"lon": -76.98713583333333, "bike_id": "1980c1b35a2f01ea350e3e027f3b26ad", "lat": 38.8662835, "fusion_lon": 0.0, "fusion_lat": 0.0, "type": "electric_scooter", "name": "1980c1b35a2f01ea350e3e027f3b26ad", "is_disabled": 0, "rental_uris": {"ios": "https://dc.lft.to/lastmile_qr_scan", "android": "https://dc.lft.to/lastmile_qr_scan"}, "is_reserved": 0}, {"lon": -77.0295855, "bike_id": "0aedc2a3cf18498e901561394493808d", "lat": 38.92162416666667, "fusion_lon": 0.0, "fusion_lat": 0.0, "type": "electric_scooter", "name": "0aedc2a3cf18498e901561394493808d", "is_disabled": 0, "rental_uris": {"ios": "https://dc.lft.to/lastmile_qr_scan", "android": "https://dc.lft.to/lastmile_qr_scan"}, "is_reserved": 0}, {"lon": -77.032621, "bike_id": "12c948d2255a1bcc3940eef11471d26a", "lat": 38.9415585, "fusion_lon": 0.0, "fusion_lat": 0.0, "type": "electric_scooter", "name": "12c948d2255a1bcc3940eef11471d26a", "is_disabled": 0, "rental_uris": {"ios": "https://dc.lft.to/lastmile_qr_scan", "android": "https://dc.lft.to/lastmile_qr_scan"}, "is_reserved": 0}, {"lon": -77.03670183333334, "bike_id": "0519437d85e9de7d8cfe4f83d97d8913", "lat": 38.916880166666665, "fusion_lon": 0.0, "fusion_lat": 0.0, "type": "electric_scooter", "name": "0519437d85e9de7d8cfe4f83d97d8913", "is_disabled": 0, "rental_uris": {"ios": "https://dc.lft.to/lastmile_qr_scan", "android": "https://dc.lft.to/lastmile_qr_scan"}, "is_reserved": 0}, {"lon": -77.00950866666666, "bike_id": "29aa374982b58b0422d224e550e32e7d", "lat": 38.87633566666667, "fusion_lon": 0.0, "fusion_lat": 0.0, "type": "electric_scooter", "name": "29aa374982b58b0422d224e550e32e7d", "is_disabled": 0, "rental_uris": {"ios": "https://dc.lft.to/lastmile_qr_scan", "android": "https://dc.lft.to/lastmile_qr_scan"}, "is_reserved": 0}, {"lon": -77.00725683333333, "bike_id": "4b9c7ff4118fb9d22da5334cbe6318e4", "lat": 38.898774333333336, "fusion_lon": 0.0, "fusion_lat": 0.0, "type": "electric_scooter", "name": "4b9c7ff4118fb9d22da5334cbe6318e4", "is_disabled": 0, "rental_uris": {"ios": "https://dc.lft.to/lastmile_qr_scan", "android": "https://dc.lft.to/lastmile_qr_scan"}, "is_reserved": 0}, {"lon": -76.98110466666667, "bike_id": "ba70a9fe0eb0e620704d367952a0450d", "lat": 38.90415133333333, "fusion_lon": 0.0, "fusion_lat": 0.0, "type": "electric_scooter", "name": "ba70a9fe0eb0e620704d367952a0450d", "is_disabled": 0, "rental_uris": {"ios": "https://dc.lft.to/lastmile_qr_scan", "android": "https://dc.lft.to/lastmile_qr_scan"}, "is_reserved": 0}, {"lon": -77.0512955, "bike_id": "d516a91f414e68b03d147b2350d9ccba", "lat": 38.9236265, "fusion_lon": 0.0, "fusion_lat": 0.0, "type": "electric_scooter", "name": "d516a91f414e68b03d147b2350d9ccba", "is_disabled": 0, "rental_uris": {"ios": "https://dc.lft.to/lastmile_qr_scan", "android": "https://dc.lft.to/lastmile_qr_scan"}, "is_reserved": 0}, {"lon": -76.98006733333334, "bike_id": "b7303621a685d3635ad2e96581fa86a6", "lat": 38.904332, "fusion_lon": 0.0, "fusion_lat": 0.0, "type": "electric_scooter", "name": "b7303621a685d3635ad2e96581fa86a6", "is_disabled": 0, "rental_uris": {"ios": "https://dc.lft.to/lastmile_qr_scan", "android": "https://dc.lft.to/lastmile_qr_scan"}, "is_reserved": 0}, {"lon": -77.00351333333333, "bike_id": "c6f53aa5f2107676c7f0392b70be0f71", "lat": 38.899211, "fusion_lon": 0.0, "fusion_lat": 0.0, "type": "electric_scooter", "name": "c6f53aa5f2107676c7f0392b70be0f71", "is_disabled": 0, "rental_uris": {"ios": "https://dc.lft.to/lastmile_qr_scan", "android": "https://dc.lft.to/lastmile_qr_scan"}, "is_reserved": 0}, {"lon": -77.05051683333333, "bike_id": "d2224d080f56f8d2b181778c2308d1c9", "lat": 38.923705166666664, "fusion_lon": 0.0, "fusion_lat": 0.0, "type": "electric_scooter", "name": "d2224d080f56f8d2b181778c2308d1c9", "is_disabled": 0, "rental_uris": {"ios": "https://dc.lft.to/lastmile_qr_scan", "android": "https://dc.lft.to/lastmile_qr_scan"}, "is_reserved": 0}, {"lon": -77.03266066666667, "bike_id": "9b487de1e4915b3c768a406a2d2aee4d", "lat": 38.920014, "fusion_lon": 0.0, "fusion_lat": 0.0, "type": "electric_scooter", "name": "9b487de1e4915b3c768a406a2d2aee4d", "is_disabled": 0, "rental_uris": {"ios": "https://dc.lft.to/lastmile_qr_scan", "android": "https://dc.lft.to/lastmile_qr_scan"}, "is_reserved": 0}, {"lon": -77.05509883333333, "bike_id": "22135aabe6ad9fcfb058982588338670", "lat": 38.904385, "fusion_lon": 0.0, "fusion_lat": 0.0, "type": "electric_scooter", "name": "22135aabe6ad9fcfb058982588338670", "is_disabled": 0, "rental_uris": {"ios": "https://dc.lft.to/lastmile_qr_scan", "android": "https://dc.lft.to/lastmile_qr_scan"}, "is_reserved": 0}, {"lon": -76.98092683333333, "bike_id": "2ea1ddd6ab68245e30dd74442258e334", "lat": 38.90399566666667, "fusion_lon": 0.0, "fusion_lat": 0.0, "type": "electric_scooter", "name": "2ea1ddd6ab68245e30dd74442258e334", "is_disabled": 0, "rental_uris": {"ios": "https://dc.lft.to/lastmile_qr_scan", "android": "https://dc.lft.to/lastmile_qr_scan"}, "is_reserved": 0}, {"lon": -77.03651666666667, "bike_id": "56eacd34897e41e8e36b578dc753e890", "lat": 38.9283605, "fusion_lon": 0.0, "fusion_lat": 0.0, "type": "electric_scooter", "name": "56eacd34897e41e8e36b578dc753e890", "is_disabled": 0, "rental_uris": {"ios": "https://dc.lft.to/lastmile_qr_scan", "android": "https://dc.lft.to/lastmile_qr_scan"}, "is_reserved": 0}, {"lon": -77.01137016666667, "bike_id": "e4f8768a1fb79ebff2ee3ff0c96760c4", "lat": 38.9073085, "fusion_lon": 0.0, "fusion_lat": 0.0, "type": "electric_scooter", "name": "e4f8768a1fb79ebff2ee3ff0c96760c4", "is_disabled": 0, "rental_uris": {"ios": "https://dc.lft.to/lastmile_qr_scan", "android": "https://dc.lft.to/lastmile_qr_scan"}, "is_reserved": 0}, {"lon": -76.99191516666667, "bike_id": "a5d43c23c4c8edd0cc840fa1d59ac2be", "lat": 38.88269866666667, "fusion_lon": 0.0, "fusion_lat": 0.0, "type": "electric_scooter", "name": "a5d43c23c4c8edd0cc840fa1d59ac2be", "is_disabled": 0, "rental_uris": {"ios": "https://dc.lft.to/lastmile_qr_scan", "android": "https://dc.lft.to/lastmile_qr_scan"}, "is_reserved": 0}, {"lon": -77.02693516666666, "bike_id": "8c42cffd54b2e136ecd00cce8848f2b0", "lat": 38.907726333333336, "fusion_lon": 0.0, "fusion_lat": 0.0, "type": "electric_scooter", "name": "8c42cffd54b2e136ecd00cce8848f2b0", "is_disabled": 0, "rental_uris": {"ios": "https://dc.lft.to/lastmile_qr_scan", "android": "https://dc.lft.to/lastmile_qr_scan"}, "is_reserved": 0}, {"lon": -77.0279225, "bike_id": "e46b175f38095041913c6be616b825d8", "lat": 38.916621, "fusion_lon": 0.0, "fusion_lat": 0.0, "type": "electric_scooter", "name": "e46b175f38095041913c6be616b825d8", "is_disabled": 0, "rental_uris": {"ios": "https://dc.lft.to/lastmile_qr_scan", "android": "https://dc.lft.to/lastmile_qr_scan"}, "is_reserved": 0}, {"lon": -77.0474445, "bike_id": "a1bbf9af80e6a408cd64a17ad3ddb6ec", "lat": 38.92316433333333, "fusion_lon": 0.0, "fusion_lat": 0.0, "type": "electric_scooter", "name": "a1bbf9af80e6a408cd64a17ad3ddb6ec", "is_disabled": 0, "rental_uris": {"ios": "https://dc.lft.to/lastmile_qr_scan", "android": "https://dc.lft.to/lastmile_qr_scan"}, "is_reserved": 0}, {"lon": -76.98272, "bike_id": "bd89372065602b0ee15e99483f0d70b7", "lat": 38.88539466666667, "fusion_lon": 0.0, "fusion_lat": 0.0, "type": "electric_scooter", "name": "bd89372065602b0ee15e99483f0d70b7", "is_disabled": 0, "rental_uris": {"ios": "https://dc.lft.to/lastmile_qr_scan", "android": "https://dc.lft.to/lastmile_qr_scan"}, "is_reserved": 0}, {"lon": -77.0321135, "bike_id": "ce48a895bd7adc1955799d06c6819c3c", "lat": 38.90096583333333, "fusion_lon": 0.0, "fusion_lat": 0.0, "type": "electric_scooter", "name": "ce48a895bd7adc1955799d06c6819c3c", "is_disabled": 0, "rental_uris": {"ios": "https://dc.lft.to/lastmile_qr_scan", "android": "https://dc.lft.to/lastmile_qr_scan"}, "is_reserved": 0}, {"lon": -77.01498883333333, "bike_id": "ca8b309ccf4270c6cd7db146f40d37c6", "lat": 38.918591666666664, "fusion_lon": 0.0, "fusion_lat": 0.0, "type": "electric_scooter", "name": "ca8b309ccf4270c6cd7db146f40d37c6", "is_disabled": 0, "rental_uris": {"ios": "https://dc.lft.to/lastmile_qr_scan", "android": "https://dc.lft.to/lastmile_qr_scan"}, "is_reserved": 0}, {"lon": -76.98510016666667, "bike_id": "e64d59cc8d87558a288a47b4afad1bf1", "lat": 38.8795685, "fusion_lon": 0.0, "fusion_lat": 0.0, "type": "electric_bike", "name": "e64d59cc8d87558a288a47b4afad1bf1", "is_disabled": 0, "rental_uris": {"ios": "https://dc.lft.to/lastmile_qr_scan", "android": "https://dc.lft.to/lastmile_qr_scan"}, "is_reserved": 0}, {"lon": -77.02947766666666, "bike_id": "081c9555f3ebdbcced7dc218e4ac8849", "lat": 38.90716483333333, "fusion_lon": 0.0, "fusion_lat": 0.0, "type": "electric_scooter", "name": "081c9555f3ebdbcced7dc218e4ac8849", "is_disabled": 0, "rental_uris": {"ios": "https://dc.lft.to/lastmile_qr_scan", "android": "https://dc.lft.to/lastmile_qr_scan"}, "is_reserved": 0}, {"lon": -77.00215716666666, "bike_id": "24df37f373ef64c5df1d98ae655c8964", "lat": 38.90032866666667, "fusion_lon": 0.0, "fusion_lat": 0.0, "type": "electric_scooter", "name": "24df37f373ef64c5df1d98ae655c8964", "is_disabled": 0, "rental_uris": {"ios": "https://dc.lft.to/lastmile_qr_scan", "android": "https://dc.lft.to/lastmile_qr_scan"}, "is_reserved": 0}, {"lon": -77.02134066666666, "bike_id": "e881c95d46a95af33a9a04bb8251dcbb", "lat": 38.90189816666667, "fusion_lon": 0.0, "fusion_lat": 0.0, "type": "electric_scooter", "name": "e881c95d46a95af33a9a04bb8251dcbb", "is_disabled": 0, "rental_uris": {"ios": "https://dc.lft.to/lastmile_qr_scan", "android": "https://dc.lft.to/lastmile_qr_scan"}, "is_reserved": 0}, {"lon": -76.97528283333334, "bike_id": "0f91a37e809bae62b1d8cce698592063", "lat": 38.90336516666667, "fusion_lon": 0.0, "fusion_lat": 0.0, "type": "electric_bike", "name": "0f91a37e809bae62b1d8cce698592063", "is_disabled": 0, "rental_uris": {"ios": "https://dc.lft.to/lastmile_qr_scan", "android": "https://dc.lft.to/lastmile_qr_scan"}, "is_reserved": 0}, {"lon": -77.00349716666666, "bike_id": "ca18b8aac0869c98feb44803522a0fdb", "lat": 38.899213333333336, "fusion_lon": 0.0, "fusion_lat": 0.0, "type": "electric_scooter", "name": "ca18b8aac0869c98feb44803522a0fdb", "is_disabled": 0, "rental_uris": {"ios": "https://dc.lft.to/lastmile_qr_scan", "android": "https://dc.lft.to/lastmile_qr_scan"}, "is_reserved": 0}, {"lon": -77.03681266666666, "bike_id": "5820fed1216ac1dac80fd009560800ac", "lat": 38.9393105, "fusion_lon": 0.0, "fusion_lat": 0.0, "type": "electric_scooter", "name": "5820fed1216ac1dac80fd009560800ac", "is_disabled": 0, "rental_uris": {"ios": "https://dc.lft.to/lastmile_qr_scan", "android": "https://dc.lft.to/lastmile_qr_scan"}, "is_reserved": 0}, {"lon": -76.98562016666666, "bike_id": "a19f99a06950adc7ae98ae20fc44d6f8", "lat": 38.900076, "fusion_lon": 0.0, "fusion_lat": 0.0, "type": "electric_scooter", "name": "a19f99a06950adc7ae98ae20fc44d6f8", "is_disabled": 0, "rental_uris": {"ios": "https://dc.lft.to/lastmile_qr_scan", "android": "https://dc.lft.to/lastmile_qr_scan"}, "is_reserved": 0}, {"lon": -77.026516, "bike_id": "39f7a43f36f37e19c49b7fcdb17a80cc", "lat": 38.91056666666667, "fusion_lon": 0.0, "fusion_lat": 0.0, "type": "electric_scooter", "name": "39f7a43f36f37e19c49b7fcdb17a80cc", "is_disabled": 0, "rental_uris": {"ios": "https://dc.lft.to/lastmile_qr_scan", "android": "https://dc.lft.to/lastmile_qr_scan"}, "is_reserved": 0}, {"lon": -77.07290733333333, "bike_id": "68055d41edecf5cf94d716f1e4c18b9a", "lat": 38.89596016666667, "fusion_lon": 0.0, "fusion_lat": 0.0, "type": "electric_bike", "name": "68055d41edecf5cf94d716f1e4c18b9a", "is_disabled": 0, "rental_uris": {"ios": "https://dc.lft.to/lastmile_qr_scan", "android": "https://dc.lft.to/lastmile_qr_scan"}, "is_reserved": 0}, {"lon": -77.02520716666666, "bike_id": "8cab7e57f2f2652465a0d7c73325f4e1", "lat": 38.932841, "fusion_lon": 0.0, "fusion_lat": 0.0, "type": "electric_scooter", "name": "8cab7e57f2f2652465a0d7c73325f4e1", "is_disabled": 0, "rental_uris": {"ios": "https://dc.lft.to/lastmile_qr_scan", "android": "https://dc.lft.to/lastmile_qr_scan"}, "is_reserved": 0}, {"lon": -77.03827166666666, "bike_id": "e3b45a70523422aa153c79364c14f309", "lat": 38.908022833333334, "fusion_lon": 0.0, "fusion_lat": 0.0, "type": "electric_scooter", "name": "e3b45a70523422aa153c79364c14f309", "is_disabled": 0, "rental_uris": {"ios": "https://dc.lft.to/lastmile_qr_scan", "android": "https://dc.lft.to/lastmile_qr_scan"}, "is_reserved": 0}, {"lon": -77.044473, "bike_id": "be6827e93be1b10de0c320e29db24db1", "lat": 38.908298333333335, "fusion_lon": 0.0, "fusion_lat": 0.0, "type": "electric_scooter", "name": "be6827e93be1b10de0c320e29db24db1", "is_disabled": 0, "rental_uris": {"ios": "https://dc.lft.to/lastmile_qr_scan", "android": "https://dc.lft.to/lastmile_qr_scan"}, "is_reserved": 0}, {"lon": -76.997755, "bike_id": "8676eafdcbd5003ffd31393ba970aa66", "lat": 38.844299166666666, "fusion_lon": 0.0, "fusion_lat": 0.0, "type": "electric_scooter", "name": "8676eafdcbd5003ffd31393ba970aa66", "is_disabled": 0, "rental_uris": {"ios": "https://dc.lft.to/lastmile_qr_scan", "android": "https://dc.lft.to/lastmile_qr_scan"}, "is_reserved": 0}, {"lon": -77.02552316666667, "bike_id": "fb76283f9f9e2e21267072c789e0c961", "lat": 38.9141705, "fusion_lon": 0.0, "fusion_lat": 0.0, "type": "electric_scooter", "name": "fb76283f9f9e2e21267072c789e0c961", "is_disabled": 0, "rental_uris": {"ios": "https://dc.lft.to/lastmile_qr_scan", "android": "https://dc.lft.to/lastmile_qr_scan"}, "is_reserved": 0}, {"lon": -77.031815, "bike_id": "7572e950e4e4a38b611c3a2a20f95bff", "lat": 38.91506283333333, "fusion_lon": 0.0, "fusion_lat": 0.0, "type": "electric_scooter", "name": "7572e950e4e4a38b611c3a2a20f95bff", "is_disabled": 0, "rental_uris": {"ios": "https://dc.lft.to/lastmile_qr_scan", "android": "https://dc.lft.to/lastmile_qr_scan"}, "is_reserved": 0}, {"lon": -77.05414033333334, "bike_id": "a5b3e3bffff460228bf552bc817448b1", "lat": 38.901402833333336, "fusion_lon": 0.0, "fusion_lat": 0.0, "type": "electric_scooter", "name": "a5b3e3bffff460228bf552bc817448b1", "is_disabled": 0, "rental_uris": {"ios": "https://dc.lft.to/lastmile_qr_scan", "android": "https://dc.lft.to/lastmile_qr_scan"}, "is_reserved": 0}, {"lon": -77.02988066666667, "bike_id": "324402a8070fa34c50fbcb08d29283f5", "lat": 38.907246666666666, "fusion_lon": 0.0, "fusion_lat": 0.0, "type": "electric_scooter", "name": "324402a8070fa34c50fbcb08d29283f5", "is_disabled": 0, "rental_uris": {"ios": "https://dc.lft.to/lastmile_qr_scan", "android": "https://dc.lft.to/lastmile_qr_scan"}, "is_reserved": 0}, {"lon": -77.0208205, "bike_id": "93b36e55f174a7ee2d38a2f829cd490c", "lat": 38.936343666666666, "fusion_lon": 0.0, "fusion_lat": 0.0, "type": "electric_scooter", "name": "93b36e55f174a7ee2d38a2f829cd490c", "is_disabled": 0, "rental_uris": {"ios": "https://dc.lft.to/lastmile_qr_scan", "android": "https://dc.lft.to/lastmile_qr_scan"}, "is_reserved": 0}, {"lon": -76.98884666666666, "bike_id": "0b6ad1b2e38eb05e7ab5319d93ce404b", "lat": 38.866581333333336, "fusion_lon": 0.0, "fusion_lat": 0.0, "type": "electric_scooter", "name": "0b6ad1b2e38eb05e7ab5319d93ce404b", "is_disabled": 0, "rental_uris": {"ios": "https://dc.lft.to/lastmile_qr_scan", "android": "https://dc.lft.to/lastmile_qr_scan"}, "is_reserved": 0}, {"lon": -77.038265, "bike_id": "0f7484c4bcefeb9962a61ef64b28d2b5", "lat": 38.916905, "fusion_lon": 0.0, "fusion_lat": 0.0, "type": "electric_scooter", "name": "0f7484c4bcefeb9962a61ef64b28d2b5", "is_disabled": 0, "rental_uris": {"ios": "https://dc.lft.to/lastmile_qr_scan", "android": "https://dc.lft.to/lastmile_qr_scan"}, "is_reserved": 0}, {"lon": -77.0239795, "bike_id": "963b9fffbcdedf4d5ef1a57acbb2300c", "lat": 38.90955066666667, "fusion_lon": 0.0, "fusion_lat": 0.0, "type": "electric_scooter", "name": "963b9fffbcdedf4d5ef1a57acbb2300c", "is_disabled": 0, "rental_uris": {"ios": "https://dc.lft.to/lastmile_qr_scan", "android": "https://dc.lft.to/lastmile_qr_scan"}, "is_reserved": 0}, {"lon": -77.02680316666667, "bike_id": "a73213ae199cacb3041af3c442c2f952", "lat": 38.902399833333334, "fusion_lon": 0.0, "fusion_lat": 0.0, "type": "electric_scooter", "name": "a73213ae199cacb3041af3c442c2f952", "is_disabled": 0, "rental_uris": {"ios": "https://dc.lft.to/lastmile_qr_scan", "android": "https://dc.lft.to/lastmile_qr_scan"}, "is_reserved": 0}, {"lon": -77.03472216666667, "bike_id": "b8aa449e7637c180444c3ea9a31b7af9", "lat": 38.8848945, "fusion_lon": 0.0, "fusion_lat": 0.0, "type": "electric_scooter", "name": "b8aa449e7637c180444c3ea9a31b7af9", "is_disabled": 0, "rental_uris": {"ios": "https://dc.lft.to/lastmile_qr_scan", "android": "https://dc.lft.to/lastmile_qr_scan"}, "is_reserved": 0}, {"lon": -77.04162233333334, "bike_id": "17ccd086a7887a9007478223bafbee01", "lat": 38.903173833333334, "fusion_lon": 0.0, "fusion_lat": 0.0, "type": "electric_scooter", "name": "17ccd086a7887a9007478223bafbee01", "is_disabled": 0, "rental_uris": {"ios": "https://dc.lft.to/lastmile_qr_scan", "android": "https://dc.lft.to/lastmile_qr_scan"}, "is_reserved": 0}, {"lon": -76.976766, "bike_id": "603646b9bd4ccf4020484c321d0342d5", "lat": 38.8962025, "fusion_lon": 0.0, "fusion_lat": 0.0, "type": "electric_scooter", "name": "603646b9bd4ccf4020484c321d0342d5", "is_disabled": 0, "rental_uris": {"ios": "https://dc.lft.to/lastmile_qr_scan", "android": "https://dc.lft.to/lastmile_qr_scan"}, "is_reserved": 0}, {"lon": -77.03338533333333, "bike_id": "d62f0a944b653be2a80732f3cfb76ee6", "lat": 38.902750833333336, "fusion_lon": 0.0, "fusion_lat": 0.0, "type": "electric_scooter", "name": "d62f0a944b653be2a80732f3cfb76ee6", "is_disabled": 0, "rental_uris": {"ios": "https://dc.lft.to/lastmile_qr_scan", "android": "https://dc.lft.to/lastmile_qr_scan"}, "is_reserved": 0}, {"lon": -77.02974083333334, "bike_id": "2f069e725486b09b440e6bd31afa4a76", "lat": 38.93064916666667, "fusion_lon": 0.0, "fusion_lat": 0.0, "type": "electric_scooter", "name": "2f069e725486b09b440e6bd31afa4a76", "is_disabled": 0, "rental_uris": {"ios": "https://dc.lft.to/lastmile_qr_scan", "android": "https://dc.lft.to/lastmile_qr_scan"}, "is_reserved": 0}, {"lon": -77.02652783333333, "bike_id": "e5e3d8f1ad8c1ebc873fb50b5d481da6", "lat": 38.92976783333334, "fusion_lon": 0.0, "fusion_lat": 0.0, "type": "electric_scooter", "name": "e5e3d8f1ad8c1ebc873fb50b5d481da6", "is_disabled": 0, "rental_uris": {"ios": "https://dc.lft.to/lastmile_qr_scan", "android": "https://dc.lft.to/lastmile_qr_scan"}, "is_reserved": 0}, {"lon": -77.021712, "bike_id": "78a4085d221fa3fb9c43f55c0eece2a7", "lat": 38.942991166666665, "fusion_lon": 0.0, "fusion_lat": 0.0, "type": "electric_scooter", "name": "78a4085d221fa3fb9c43f55c0eece2a7", "is_disabled": 0, "rental_uris": {"ios": "https://dc.lft.to/lastmile_qr_scan", "android": "https://dc.lft.to/lastmile_qr_scan"}, "is_reserved": 0}, {"lon": -77.0344255, "bike_id": "d3237e37cfa68372bba8dcf2ac760983", "lat": 38.906796166666666, "fusion_lon": 0.0, "fusion_lat": 0.0, "type": "electric_scooter", "name": "d3237e37cfa68372bba8dcf2ac760983", "is_disabled": 0, "rental_uris": {"ios": "https://dc.lft.to/lastmile_qr_scan", "android": "https://dc.lft.to/lastmile_qr_scan"}, "is_reserved": 0}, {"lon": -77.03862183333334, "bike_id": "d97bbac4aab70d8954a71cc0875ef8c9", "lat": 38.915602, "fusion_lon": 0.0, "fusion_lat": 0.0, "type": "electric_scooter", "name": "d97bbac4aab70d8954a71cc0875ef8c9", "is_disabled": 0, "rental_uris": {"ios": "https://dc.lft.to/lastmile_qr_scan", "android": "https://dc.lft.to/lastmile_qr_scan"}, "is_reserved": 0}, {"lon": -77.04879783333334, "bike_id": "6926c9a6c85ca0fbbdfebb700e9d2a41", "lat": 38.915711, "fusion_lon": 0.0, "fusion_lat": 0.0, "type": "electric_scooter", "name": "6926c9a6c85ca0fbbdfebb700e9d2a41", "is_disabled": 0, "rental_uris": {"ios": "https://dc.lft.to/lastmile_qr_scan", "android": "https://dc.lft.to/lastmile_qr_scan"}, "is_reserved": 0}, {"lon": -77.08061366666666, "bike_id": "876825157b7c73e4c61212572a6f1cfe", "lat": 39.0528195, "fusion_lon": 0.0, "fusion_lat": 0.0, "type": "electric_bike", "name": "876825157b7c73e4c61212572a6f1cfe", "is_disabled": 0, "rental_uris": {"ios": "https://dc.lft.to/lastmile_qr_scan", "android": "https://dc.lft.to/lastmile_qr_scan"}, "is_reserved": 0}, {"lon": -77.04252483333333, "bike_id": "d88457466ec4728419b5ab7d1ae49954", "lat": 38.914866333333336, "fusion_lon": 0.0, "fusion_lat": 0.0, "type": "electric_scooter", "name": "d88457466ec4728419b5ab7d1ae49954", "is_disabled": 0, "rental_uris": {"ios": "https://dc.lft.to/lastmile_qr_scan", "android": "https://dc.lft.to/lastmile_qr_scan"}, "is_reserved": 0}, {"lon": -76.99088033333334, "bike_id": "3336f1356be72775d358d56a3edd88b8", "lat": 38.862364666666664, "fusion_lon": 0.0, "fusion_lat": 0.0, "type": "electric_bike", "name": "3336f1356be72775d358d56a3edd88b8", "is_disabled": 0, "rental_uris": {"ios": "https://dc.lft.to/lastmile_qr_scan", "android": "https://dc.lft.to/lastmile_qr_scan"}, "is_reserved": 0}, {"lon": -77.021729, "bike_id": "9ec7750745e2ca36d376aaabd50ed90d", "lat": 38.91914933333334, "fusion_lon": 0.0, "fusion_lat": 0.0, "type": "electric_scooter", "name": "9ec7750745e2ca36d376aaabd50ed90d", "is_disabled": 0, "rental_uris": {"ios": "https://dc.lft.to/lastmile_qr_scan", "android": "https://dc.lft.to/lastmile_qr_scan"}, "is_reserved": 0}, {"lon": -77.039714, "bike_id": "b4630eb097b68a0427de1190efebf129", "lat": 38.920197, "fusion_lon": 0.0, "fusion_lat": 0.0, "type": "electric_scooter", "name": "b4630eb097b68a0427de1190efebf129", "is_disabled": 0, "rental_uris": {"ios": "https://dc.lft.to/lastmile_qr_scan", "android": "https://dc.lft.to/lastmile_qr_scan"}, "is_reserved": 0}, {"lon": -77.028553, "bike_id": "f904307c0b14244f813853655240ce50", "lat": 38.956326, "fusion_lon": 0.0, "fusion_lat": 0.0, "type": "electric_scooter", "name": "f904307c0b14244f813853655240ce50", "is_disabled": 0, "rental_uris": {"ios": "https://dc.lft.to/lastmile_qr_scan", "android": "https://dc.lft.to/lastmile_qr_scan"}, "is_reserved": 0}, {"lon": -77.04388116666667, "bike_id": "466354c6a235c8b07fe89aac5b5bc836", "lat": 38.92326083333333, "fusion_lon": 0.0, "fusion_lat": 0.0, "type": "electric_scooter", "name": "466354c6a235c8b07fe89aac5b5bc836", "is_disabled": 0, "rental_uris": {"ios": "https://dc.lft.to/lastmile_qr_scan", "android": "https://dc.lft.to/lastmile_qr_scan"}, "is_reserved": 0}, {"lon": -76.99012933333333, "bike_id": "63bf9f99364ceafc890e73e2965a9177", "lat": 38.86643316666667, "fusion_lon": 0.0, "fusion_lat": 0.0, "type": "electric_scooter", "name": "63bf9f99364ceafc890e73e2965a9177", "is_disabled": 0, "rental_uris": {"ios": "https://dc.lft.to/lastmile_qr_scan", "android": "https://dc.lft.to/lastmile_qr_scan"}, "is_reserved": 0}, {"lon": -77.02800216666667, "bike_id": "56aeb2e7b5943eb8bbcb08b0dbb1765c", "lat": 38.93147366666667, "fusion_lon": 0.0, "fusion_lat": 0.0, "type": "electric_scooter", "name": "56aeb2e7b5943eb8bbcb08b0dbb1765c", "is_disabled": 0, "rental_uris": {"ios": "https://dc.lft.to/lastmile_qr_scan", "android": "https://dc.lft.to/lastmile_qr_scan"}, "is_reserved": 0}, {"lon": -77.02455483333334, "bike_id": "6f1c61afc423bd4c5bd0b5eb567713bf", "lat": 38.9387895, "fusion_lon": 0.0, "fusion_lat": 0.0, "type": "electric_scooter", "name": "6f1c61afc423bd4c5bd0b5eb567713bf", "is_disabled": 0, "rental_uris": {"ios": "https://dc.lft.to/lastmile_qr_scan", "android": "https://dc.lft.to/lastmile_qr_scan"}, "is_reserved": 0}, {"lon": -77.02072616666666, "bike_id": "466f684faf55fc4a9f0ab4be3c02a7ff", "lat": 38.89726916666667, "fusion_lon": 0.0, "fusion_lat": 0.0, "type": "electric_scooter", "name": "466f684faf55fc4a9f0ab4be3c02a7ff", "is_disabled": 0, "rental_uris": {"ios": "https://dc.lft.to/lastmile_qr_scan", "android": "https://dc.lft.to/lastmile_qr_scan"}, "is_reserved": 0}, {"lon": -77.0418195, "bike_id": "3651b69e6e9c64546ec7bf77bc4f1b31", "lat": 38.90704083333333, "fusion_lon": 0.0, "fusion_lat": 0.0, "type": "electric_scooter", "name": "3651b69e6e9c64546ec7bf77bc4f1b31", "is_disabled": 0, "rental_uris": {"ios": "https://dc.lft.to/lastmile_qr_scan", "android": "https://dc.lft.to/lastmile_qr_scan"}, "is_reserved": 0}, {"lon": -77.0067735, "bike_id": "ad645d591b8d2ccf9f13712587576bf3", "lat": 38.900226, "fusion_lon": 0.0, "fusion_lat": 0.0, "type": "electric_scooter", "name": "ad645d591b8d2ccf9f13712587576bf3", "is_disabled": 0, "rental_uris": {"ios": "https://dc.lft.to/lastmile_qr_scan", "android": "https://dc.lft.to/lastmile_qr_scan"}, "is_reserved": 0}, {"lon": -76.97476383333333, "bike_id": "6cf9021682c694bbf0f4321554361542", "lat": 38.903473, "fusion_lon": 0.0, "fusion_lat": 0.0, "type": "electric_scooter", "name": "6cf9021682c694bbf0f4321554361542", "is_disabled": 0, "rental_uris": {"ios": "https://dc.lft.to/lastmile_qr_scan", "android": "https://dc.lft.to/lastmile_qr_scan"}, "is_reserved": 0}, {"lon": -77.03334733333334, "bike_id": "47fd2c7f1d80cf63a24ba528eebada28", "lat": 38.9364145, "fusion_lon": 0.0, "fusion_lat": 0.0, "type": "electric_scooter", "name": "47fd2c7f1d80cf63a24ba528eebada28", "is_disabled": 0, "rental_uris": {"ios": "https://dc.lft.to/lastmile_qr_scan", "android": "https://dc.lft.to/lastmile_qr_scan"}, "is_reserved": 0}, {"lon": -76.9489055, "bike_id": "6a6fb537002d0f3594ba55a35ae5607a", "lat": 38.8951335, "fusion_lon": 0.0, "fusion_lat": 0.0, "type": "electric_scooter", "name": "6a6fb537002d0f3594ba55a35ae5607a", "is_disabled": 0, "rental_uris": {"ios": "https://dc.lft.to/lastmile_qr_scan", "android": "https://dc.lft.to/lastmile_qr_scan"}, "is_reserved": 0}, {"lon": -77.01643383333334, "bike_id": "05230e8a994f2bd1e30d9f7b97569570", "lat": 38.90572733333333, "fusion_lon": 0.0, "fusion_lat": 0.0, "type": "electric_scooter", "name": "05230e8a994f2bd1e30d9f7b97569570", "is_disabled": 0, "rental_uris": {"ios": "https://dc.lft.to/lastmile_qr_scan", "android": "https://dc.lft.to/lastmile_qr_scan"}, "is_reserved": 0}, {"lon": -77.02767683333333, "bike_id": "5820f0047a0fe53c656ddba259bbbf4c", "lat": 38.89712083333333, "fusion_lon": 0.0, "fusion_lat": 0.0, "type": "electric_scooter", "name": "5820f0047a0fe53c656ddba259bbbf4c", "is_disabled": 0, "rental_uris": {"ios": "https://dc.lft.to/lastmile_qr_scan", "android": "https://dc.lft.to/lastmile_qr_scan"}, "is_reserved": 0}, {"lon": -76.987125, "bike_id": "6258a284933fca701a3ad696f53647bc", "lat": 38.86539666666667, "fusion_lon": 0.0, "fusion_lat": 0.0, "type": "electric_scooter", "name": "6258a284933fca701a3ad696f53647bc", "is_disabled": 0, "rental_uris": {"ios": "https://dc.lft.to/lastmile_qr_scan", "android": "https://dc.lft.to/lastmile_qr_scan"}, "is_reserved": 0}, {"lon": -76.972814, "bike_id": "3fd9b3f200c584e96b040af078e274f5", "lat": 38.91453533333333, "fusion_lon": 0.0, "fusion_lat": 0.0, "type": "electric_bike", "name": "3fd9b3f200c584e96b040af078e274f5", "is_disabled": 0, "rental_uris": {"ios": "https://dc.lft.to/lastmile_qr_scan", "android": "https://dc.lft.to/lastmile_qr_scan"}, "is_reserved": 0}, {"lon": -77.07343983333334, "bike_id": "037eefc91486394158fe54688ef9004b", "lat": 38.930511833333334, "fusion_lon": 0.0, "fusion_lat": 0.0, "type": "electric_bike", "name": "037eefc91486394158fe54688ef9004b", "is_disabled": 0, "rental_uris": {"ios": "https://dc.lft.to/lastmile_qr_scan", "android": "https://dc.lft.to/lastmile_qr_scan"}, "is_reserved": 0}, {"lon": -76.98859333333333, "bike_id": "03c0e2bb9ca99d7c0de9546766689314", "lat": 38.954871833333335, "fusion_lon": 0.0, "fusion_lat": 0.0, "type": "electric_bike", "name": "03c0e2bb9ca99d7c0de9546766689314", "is_disabled": 0, "rental_uris": {"ios": "https://dc.lft.to/lastmile_qr_scan", "android": "https://dc.lft.to/lastmile_qr_scan"}, "is_reserved": 0}, {"lon": -77.049401, "bike_id": "28b0ef666d01a6b9a4f44deffebd8635", "lat": 38.91825683333333, "fusion_lon": 0.0, "fusion_lat": 0.0, "type": "electric_scooter", "name": "28b0ef666d01a6b9a4f44deffebd8635", "is_disabled": 0, "rental_uris": {"ios": "https://dc.lft.to/lastmile_qr_scan", "android": "https://dc.lft.to/lastmile_qr_scan"}, "is_reserved": 0}, {"lon": -77.038604, "bike_id": "e55582de693ecb37d0908ba37d337432", "lat": 38.90746516666667, "fusion_lon": 0.0, "fusion_lat": 0.0, "type": "electric_scooter", "name": "e55582de693ecb37d0908ba37d337432", "is_disabled": 0, "rental_uris": {"ios": "https://dc.lft.to/lastmile_qr_scan", "android": "https://dc.lft.to/lastmile_qr_scan"}, "is_reserved": 0}, {"lon": -76.99603633333334, "bike_id": "ab2d7677c3b8bd8071eef65d022cf2c0", "lat": 38.9096315, "fusion_lon": 0.0, "fusion_lat": 0.0, "type": "electric_scooter", "name": "ab2d7677c3b8bd8071eef65d022cf2c0", "is_disabled": 0, "rental_uris": {"ios": "https://dc.lft.to/lastmile_qr_scan", "android": "https://dc.lft.to/lastmile_qr_scan"}, "is_reserved": 0}, {"lon": -76.99333683333333, "bike_id": "2f98da2c9489b7c1c346c6f77e7c4065", "lat": 38.871444, "fusion_lon": 0.0, "fusion_lat": 0.0, "type": "electric_scooter", "name": "2f98da2c9489b7c1c346c6f77e7c4065", "is_disabled": 0, "rental_uris": {"ios": "https://dc.lft.to/lastmile_qr_scan", "android": "https://dc.lft.to/lastmile_qr_scan"}, "is_reserved": 0}, {"lon": -77.04237383333333, "bike_id": "845fd132b4e16ed6c4520d66b03e1fee", "lat": 38.910683166666665, "fusion_lon": 0.0, "fusion_lat": 0.0, "type": "electric_scooter", "name": "845fd132b4e16ed6c4520d66b03e1fee", "is_disabled": 0, "rental_uris": {"ios": "https://dc.lft.to/lastmile_qr_scan", "android": "https://dc.lft.to/lastmile_qr_scan"}, "is_reserved": 0}, {"lon": -76.96058516666666, "bike_id": "c3effac6346b130be4bb9761daffa501", "lat": 38.8840695, "fusion_lon": 0.0, "fusion_lat": 0.0, "type": "electric_bike", "name": "c3effac6346b130be4bb9761daffa501", "is_disabled": 0, "rental_uris": {"ios": "https://dc.lft.to/lastmile_qr_scan", "android": "https://dc.lft.to/lastmile_qr_scan"}, "is_reserved": 0}, {"lon": -77.0208495, "bike_id": "8d4dbd4ecb627a29beebc87a49264bf4", "lat": 38.957483, "fusion_lon": 0.0, "fusion_lat": 0.0, "type": "electric_scooter", "name": "8d4dbd4ecb627a29beebc87a49264bf4", "is_disabled": 0, "rental_uris": {"ios": "https://dc.lft.to/lastmile_qr_scan", "android": "https://dc.lft.to/lastmile_qr_scan"}, "is_reserved": 0}, {"lon": -77.02198283333334, "bike_id": "c8c517e95feddcf8cba990595494ac1c", "lat": 38.9027745, "fusion_lon": 0.0, "fusion_lat": 0.0, "type": "electric_scooter", "name": "c8c517e95feddcf8cba990595494ac1c", "is_disabled": 0, "rental_uris": {"ios": "https://dc.lft.to/lastmile_qr_scan", "android": "https://dc.lft.to/lastmile_qr_scan"}, "is_reserved": 0}, {"lon": -76.987187, "bike_id": "a9efec0028f8f572f17def283fd973e8", "lat": 38.867167333333335, "fusion_lon": 0.0, "fusion_lat": 0.0, "type": "electric_scooter", "name": "a9efec0028f8f572f17def283fd973e8", "is_disabled": 0, "rental_uris": {"ios": "https://dc.lft.to/lastmile_qr_scan", "android": "https://dc.lft.to/lastmile_qr_scan"}, "is_reserved": 0}, {"lon": -77.03986933333333, "bike_id": "1138f7a098b4c80a30b56f6e7f791534", "lat": 38.9245865, "fusion_lon": 0.0, "fusion_lat": 0.0, "type": "electric_scooter", "name": "1138f7a098b4c80a30b56f6e7f791534", "is_disabled": 0, "rental_uris": {"ios": "https://dc.lft.to/lastmile_qr_scan", "android": "https://dc.lft.to/lastmile_qr_scan"}, "is_reserved": 0}, {"lon": -77.02165983333333, "bike_id": "505e73e8fc27fdd86b50560e844bc7fc", "lat": 38.892182, "fusion_lon": 0.0, "fusion_lat": 0.0, "type": "electric_scooter", "name": "505e73e8fc27fdd86b50560e844bc7fc", "is_disabled": 0, "rental_uris": {"ios": "https://dc.lft.to/lastmile_qr_scan", "android": "https://dc.lft.to/lastmile_qr_scan"}, "is_reserved": 0}, {"lon": -77.025988, "bike_id": "c41abb21f404b26981a0ef7e3d097f3f", "lat": 38.92660433333333, "fusion_lon": 0.0, "fusion_lat": 0.0, "type": "electric_scooter", "name": "c41abb21f404b26981a0ef7e3d097f3f", "is_disabled": 0, "rental_uris": {"ios": "https://dc.lft.to/lastmile_qr_scan", "android": "https://dc.lft.to/lastmile_qr_scan"}, "is_reserved": 0}, {"lon": -77.04925816666666, "bike_id": "e337f71561f576dcf1b7eb7d05e82dff", "lat": 39.029350666666666, "fusion_lon": 0.0, "fusion_lat": 0.0, "type": "electric_bike", "name": "e337f71561f576dcf1b7eb7d05e82dff", "is_disabled": 0, "rental_uris": {"ios": "https://dc.lft.to/lastmile_qr_scan", "android": "https://dc.lft.to/lastmile_qr_scan"}, "is_reserved": 0}, {"lon": -77.04647883333334, "bike_id": "f05c1242da8edaef3bf04639222b6ac9", "lat": 38.903382, "fusion_lon": 0.0, "fusion_lat": 0.0, "type": "electric_scooter", "name": "f05c1242da8edaef3bf04639222b6ac9", "is_disabled": 0, "rental_uris": {"ios": "https://dc.lft.to/lastmile_qr_scan", "android": "https://dc.lft.to/lastmile_qr_scan"}, "is_reserved": 0}, {"lon": -77.048153, "bike_id": "46bb980c3325469a9eaf7f90529d8285", "lat": 38.91333, "fusion_lon": 0.0, "fusion_lat": 0.0, "type": "electric_scooter", "name": "46bb980c3325469a9eaf7f90529d8285", "is_disabled": 0, "rental_uris": {"ios": "https://dc.lft.to/lastmile_qr_scan", "android": "https://dc.lft.to/lastmile_qr_scan"}, "is_reserved": 0}, {"lon": -77.0242665, "bike_id": "9255b3db5f4ce0e1cfd00fea83c1d72e", "lat": 38.914066, "fusion_lon": 0.0, "fusion_lat": 0.0, "type": "electric_scooter", "name": "9255b3db5f4ce0e1cfd00fea83c1d72e", "is_disabled": 0, "rental_uris": {"ios": "https://dc.lft.to/lastmile_qr_scan", "android": "https://dc.lft.to/lastmile_qr_scan"}, "is_reserved": 0}, {"lon": -77.02400866666666, "bike_id": "a298780292bd26377b15cd45bb75bc25", "lat": 38.934785166666664, "fusion_lon": 0.0, "fusion_lat": 0.0, "type": "electric_scooter", "name": "a298780292bd26377b15cd45bb75bc25", "is_disabled": 0, "rental_uris": {"ios": "https://dc.lft.to/lastmile_qr_scan", "android": "https://dc.lft.to/lastmile_qr_scan"}, "is_reserved": 0}, {"lon": -77.03352733333334, "bike_id": "3e7a4eb577e9d6c1e1b1604f54ce6a07", "lat": 38.93845, "fusion_lon": 0.0, "fusion_lat": 0.0, "type": "electric_scooter", "name": "3e7a4eb577e9d6c1e1b1604f54ce6a07", "is_disabled": 0, "rental_uris": {"ios": "https://dc.lft.to/lastmile_qr_scan", "android": "https://dc.lft.to/lastmile_qr_scan"}, "is_reserved": 0}, {"lon": -77.021684, "bike_id": "ea3f00d53af62bc55e7907edc1e72db2", "lat": 38.88746183333333, "fusion_lon": 0.0, "fusion_lat": 0.0, "type": "electric_scooter", "name": "ea3f00d53af62bc55e7907edc1e72db2", "is_disabled": 0, "rental_uris": {"ios": "https://dc.lft.to/lastmile_qr_scan", "android": "https://dc.lft.to/lastmile_qr_scan"}, "is_reserved": 0}, {"lon": -76.98889483333333, "bike_id": "f4324cbfe86d30350105dc52f54885d9", "lat": 38.866580666666664, "fusion_lon": 0.0, "fusion_lat": 0.0, "type": "electric_scooter", "name": "f4324cbfe86d30350105dc52f54885d9", "is_disabled": 0, "rental_uris": {"ios": "https://dc.lft.to/lastmile_qr_scan", "android": "https://dc.lft.to/lastmile_qr_scan"}, "is_reserved": 0}, {"lon": -77.02307383333333, "bike_id": "fadb54888e656d9fdb82ecc196776220", "lat": 38.94096966666667, "fusion_lon": 0.0, "fusion_lat": 0.0, "type": "electric_scooter", "name": "fadb54888e656d9fdb82ecc196776220", "is_disabled": 0, "rental_uris": {"ios": "https://dc.lft.to/lastmile_qr_scan", "android": "https://dc.lft.to/lastmile_qr_scan"}, "is_reserved": 0}, {"lon": -76.9859375, "bike_id": "3a192bfb42e085d90f5591ec6ef37aab", "lat": 38.90621333333333, "fusion_lon": 0.0, "fusion_lat": 0.0, "type": "electric_bike", "name": "3a192bfb42e085d90f5591ec6ef37aab", "is_disabled": 0, "rental_uris": {"ios": "https://dc.lft.to/lastmile_qr_scan", "android": "https://dc.lft.to/lastmile_qr_scan"}, "is_reserved": 0}, {"lon": -77.0418895, "bike_id": "8d3bc0fb95f27514da7d9b9fb7d25ef4", "lat": 38.920156166666665, "fusion_lon": 0.0, "fusion_lat": 0.0, "type": "electric_scooter", "name": "8d3bc0fb95f27514da7d9b9fb7d25ef4", "is_disabled": 0, "rental_uris": {"ios": "https://dc.lft.to/lastmile_qr_scan", "android": "https://dc.lft.to/lastmile_qr_scan"}, "is_reserved": 0}, {"lon": -77.0239935, "bike_id": "0ff44065d3f1c2eec5ed9a93796aa53e", "lat": 38.91998383333333, "fusion_lon": 0.0, "fusion_lat": 0.0, "type": "electric_scooter", "name": "0ff44065d3f1c2eec5ed9a93796aa53e", "is_disabled": 0, "rental_uris": {"ios": "https://dc.lft.to/lastmile_qr_scan", "android": "https://dc.lft.to/lastmile_qr_scan"}, "is_reserved": 0}, {"lon": -77.07456833333333, "bike_id": "e534950ce9ebb334b97d2bfdb670818d", "lat": 38.9451835, "fusion_lon": 0.0, "fusion_lat": 0.0, "type": "electric_scooter", "name": "e534950ce9ebb334b97d2bfdb670818d", "is_disabled": 0, "rental_uris": {"ios": "https://dc.lft.to/lastmile_qr_scan", "android": "https://dc.lft.to/lastmile_qr_scan"}, "is_reserved": 0}, {"lon": -76.976286, "bike_id": "574677b62c685ecdc85aa9ad6cfceb7f", "lat": 38.90573783333333, "fusion_lon": 0.0, "fusion_lat": 0.0, "type": "electric_scooter", "name": "574677b62c685ecdc85aa9ad6cfceb7f", "is_disabled": 0, "rental_uris": {"ios": "https://dc.lft.to/lastmile_qr_scan", "android": "https://dc.lft.to/lastmile_qr_scan"}, "is_reserved": 0}, {"lon": -77.03835133333334, "bike_id": "0d1d974ba90ac7dadf8206a9445a92d8", "lat": 38.90116866666666, "fusion_lon": 0.0, "fusion_lat": 0.0, "type": "electric_scooter", "name": "0d1d974ba90ac7dadf8206a9445a92d8", "is_disabled": 0, "rental_uris": {"ios": "https://dc.lft.to/lastmile_qr_scan", "android": "https://dc.lft.to/lastmile_qr_scan"}, "is_reserved": 0}, {"lon": -77.12529716666667, "bike_id": "55a7e0d51c89544392ba14f7178a143c", "lat": 39.05635566666667, "fusion_lon": 0.0, "fusion_lat": 0.0, "type": "electric_bike", "name": "55a7e0d51c89544392ba14f7178a143c", "is_disabled": 0, "rental_uris": {"ios": "https://dc.lft.to/lastmile_qr_scan", "android": "https://dc.lft.to/lastmile_qr_scan"}, "is_reserved": 0}, {"lon": -77.04481583333333, "bike_id": "5749d750fc67816fb72b966ab9ba2c44", "lat": 38.892614333333334, "fusion_lon": 0.0, "fusion_lat": 0.0, "type": "electric_scooter", "name": "5749d750fc67816fb72b966ab9ba2c44", "is_disabled": 0, "rental_uris": {"ios": "https://dc.lft.to/lastmile_qr_scan", "android": "https://dc.lft.to/lastmile_qr_scan"}, "is_reserved": 0}, {"lon": -77.036318, "bike_id": "a2765f707feef6ca8fcd7436055629f0", "lat": 38.93154466666667, "fusion_lon": 0.0, "fusion_lat": 0.0, "type": "electric_scooter", "name": "a2765f707feef6ca8fcd7436055629f0", "is_disabled": 0, "rental_uris": {"ios": "https://dc.lft.to/lastmile_qr_scan", "android": "https://dc.lft.to/lastmile_qr_scan"}, "is_reserved": 0}, {"lon": -77.059078, "bike_id": "aed84c81b79b60aadec94fd15c04d015", "lat": 38.903585166666666, "fusion_lon": 0.0, "fusion_lat": 0.0, "type": "electric_scooter", "name": "aed84c81b79b60aadec94fd15c04d015", "is_disabled": 0, "rental_uris": {"ios": "https://dc.lft.to/lastmile_qr_scan", "android": "https://dc.lft.to/lastmile_qr_scan"}, "is_reserved": 0}, {"lon": -77.07571266666666, "bike_id": "e9a80b4f5ef7359c4fa119b4dd2498bd", "lat": 38.894808166666664, "fusion_lon": 0.0, "fusion_lat": 0.0, "type": "electric_scooter", "name": "e9a80b4f5ef7359c4fa119b4dd2498bd", "is_disabled": 0, "rental_uris": {"ios": "https://dc.lft.to/lastmile_qr_scan", "android": "https://dc.lft.to/lastmile_qr_scan"}, "is_reserved": 0}, {"lon": -77.02571016666667, "bike_id": "0aa2480d2c3bbcc03f3f3977cf60104a", "lat": 38.92462233333333, "fusion_lon": 0.0, "fusion_lat": 0.0, "type": "electric_scooter", "name": "0aa2480d2c3bbcc03f3f3977cf60104a", "is_disabled": 0, "rental_uris": {"ios": "https://dc.lft.to/lastmile_qr_scan", "android": "https://dc.lft.to/lastmile_qr_scan"}, "is_reserved": 0}, {"lon": -77.001544, "bike_id": "db44fc065d4e937d9f4ea57aad5cbdd1", "lat": 38.875149, "fusion_lon": 0.0, "fusion_lat": 0.0, "type": "electric_scooter", "name": "db44fc065d4e937d9f4ea57aad5cbdd1", "is_disabled": 0, "rental_uris": {"ios": "https://dc.lft.to/lastmile_qr_scan", "android": "https://dc.lft.to/lastmile_qr_scan"}, "is_reserved": 0}, {"lon": -77.024044, "bike_id": "ee99bba6cacf75619fb77467e885c0e3", "lat": 38.915241, "fusion_lon": 0.0, "fusion_lat": 0.0, "type": "electric_scooter", "name": "ee99bba6cacf75619fb77467e885c0e3", "is_disabled": 0, "rental_uris": {"ios": "https://dc.lft.to/lastmile_qr_scan", "android": "https://dc.lft.to/lastmile_qr_scan"}, "is_reserved": 0}, {"lon": -77.0336045, "bike_id": "52565c9707a3983b288b532773001313", "lat": 38.8869545, "fusion_lon": 0.0, "fusion_lat": 0.0, "type": "electric_scooter", "name": "52565c9707a3983b288b532773001313", "is_disabled": 0, "rental_uris": {"ios": "https://dc.lft.to/lastmile_qr_scan", "android": "https://dc.lft.to/lastmile_qr_scan"}, "is_reserved": 0}, {"lon": -76.983652, "bike_id": "41f2813d0c8378dd3c079ab3bd295a75", "lat": 38.908808666666665, "fusion_lon": 0.0, "fusion_lat": 0.0, "type": "electric_scooter", "name": "41f2813d0c8378dd3c079ab3bd295a75", "is_disabled": 0, "rental_uris": {"ios": "https://dc.lft.to/lastmile_qr_scan", "android": "https://dc.lft.to/lastmile_qr_scan"}, "is_reserved": 0}, {"lon": -77.02158266666666, "bike_id": "31956b1786b9d5f8cef64c2e9c3d084b", "lat": 38.8921685, "fusion_lon": 0.0, "fusion_lat": 0.0, "type": "electric_scooter", "name": "31956b1786b9d5f8cef64c2e9c3d084b", "is_disabled": 0, "rental_uris": {"ios": "https://dc.lft.to/lastmile_qr_scan", "android": "https://dc.lft.to/lastmile_qr_scan"}, "is_reserved": 0}, {"lon": -77.00932766666666, "bike_id": "a47b20c1e29c4b282f98afbd69220914", "lat": 38.8960275, "fusion_lon": 0.0, "fusion_lat": 0.0, "type": "electric_scooter", "name": "a47b20c1e29c4b282f98afbd69220914", "is_disabled": 0, "rental_uris": {"ios": "https://dc.lft.to/lastmile_qr_scan", "android": "https://dc.lft.to/lastmile_qr_scan"}, "is_reserved": 0}, {"lon": -77.01979716666666, "bike_id": "3865c94c28a365a18e19c2c538f816d0", "lat": 38.914960666666666, "fusion_lon": 0.0, "fusion_lat": 0.0, "type": "electric_scooter", "name": "3865c94c28a365a18e19c2c538f816d0", "is_disabled": 0, "rental_uris": {"ios": "https://dc.lft.to/lastmile_qr_scan", "android": "https://dc.lft.to/lastmile_qr_scan"}, "is_reserved": 0}, {"lon": -77.02458766666666, "bike_id": "f7f747125587c1d89c30192e47fa1073", "lat": 38.93101333333333, "fusion_lon": 0.0, "fusion_lat": 0.0, "type": "electric_scooter", "name": "f7f747125587c1d89c30192e47fa1073", "is_disabled": 0, "rental_uris": {"ios": "https://dc.lft.to/lastmile_qr_scan", "android": "https://dc.lft.to/lastmile_qr_scan"}, "is_reserved": 0}, {"lon": -77.03544683333334, "bike_id": "739252d957ab08921f291172507b7817", "lat": 38.91834583333333, "fusion_lon": 0.0, "fusion_lat": 0.0, "type": "electric_scooter", "name": "739252d957ab08921f291172507b7817", "is_disabled": 0, "rental_uris": {"ios": "https://dc.lft.to/lastmile_qr_scan", "android": "https://dc.lft.to/lastmile_qr_scan"}, "is_reserved": 0}, {"lon": -77.02833566666666, "bike_id": "86f92789a88f942b3ca5e0f0714bbfae", "lat": 38.887685833333336, "fusion_lon": 0.0, "fusion_lat": 0.0, "type": "electric_scooter", "name": "86f92789a88f942b3ca5e0f0714bbfae", "is_disabled": 0, "rental_uris": {"ios": "https://dc.lft.to/lastmile_qr_scan", "android": "https://dc.lft.to/lastmile_qr_scan"}, "is_reserved": 0}, {"lon": -77.03048316666667, "bike_id": "d8ca88cadaa167ec45c68e0d5d40de99", "lat": 38.884291833333336, "fusion_lon": 0.0, "fusion_lat": 0.0, "type": "electric_scooter", "name": "d8ca88cadaa167ec45c68e0d5d40de99", "is_disabled": 0, "rental_uris": {"ios": "https://dc.lft.to/lastmile_qr_scan", "android": "https://dc.lft.to/lastmile_qr_scan"}, "is_reserved": 0}, {"lon": -77.00215466666667, "bike_id": "e89f55e85bbd70cf57f051623aef246a", "lat": 38.914479166666666, "fusion_lon": 0.0, "fusion_lat": 0.0, "type": "electric_scooter", "name": "e89f55e85bbd70cf57f051623aef246a", "is_disabled": 0, "rental_uris": {"ios": "https://dc.lft.to/lastmile_qr_scan", "android": "https://dc.lft.to/lastmile_qr_scan"}, "is_reserved": 0}, {"lon": -76.97809216666667, "bike_id": "4e5b077466587b4759acf65513399d37", "lat": 38.90676933333334, "fusion_lon": 0.0, "fusion_lat": 0.0, "type": "electric_scooter", "name": "4e5b077466587b4759acf65513399d37", "is_disabled": 0, "rental_uris": {"ios": "https://dc.lft.to/lastmile_qr_scan", "android": "https://dc.lft.to/lastmile_qr_scan"}, "is_reserved": 0}, {"lon": -77.07478916666666, "bike_id": "5870dfba5e8c656d5b5a1082431b9044", "lat": 38.963148333333336, "fusion_lon": 0.0, "fusion_lat": 0.0, "type": "electric_scooter", "name": "5870dfba5e8c656d5b5a1082431b9044", "is_disabled": 0, "rental_uris": {"ios": "https://dc.lft.to/lastmile_qr_scan", "android": "https://dc.lft.to/lastmile_qr_scan"}, "is_reserved": 0}, {"lon": -77.04006583333333, "bike_id": "c00d1c8d637cafb55ad14293b937b790", "lat": 38.91011816666666, "fusion_lon": 0.0, "fusion_lat": 0.0, "type": "electric_scooter", "name": "c00d1c8d637cafb55ad14293b937b790", "is_disabled": 0, "rental_uris": {"ios": "https://dc.lft.to/lastmile_qr_scan", "android": "https://dc.lft.to/lastmile_qr_scan"}, "is_reserved": 0}, {"lon": -77.00114883333333, "bike_id": "4c7739da937bfb2933fe93c690d7670f", "lat": 38.91705966666667, "fusion_lon": 0.0, "fusion_lat": 0.0, "type": "electric_scooter", "name": "4c7739da937bfb2933fe93c690d7670f", "is_disabled": 0, "rental_uris": {"ios": "https://dc.lft.to/lastmile_qr_scan", "android": "https://dc.lft.to/lastmile_qr_scan"}, "is_reserved": 0}, {"lon": -77.05593466666667, "bike_id": "81cd21d4d50a8042fc81458c04920cb5", "lat": 38.91620066666667, "fusion_lon": 0.0, "fusion_lat": 0.0, "type": "electric_scooter", "name": "81cd21d4d50a8042fc81458c04920cb5", "is_disabled": 0, "rental_uris": {"ios": "https://dc.lft.to/lastmile_qr_scan", "android": "https://dc.lft.to/lastmile_qr_scan"}, "is_reserved": 0}, {"lon": -76.89533366666667, "bike_id": "54e0c6b72fac921037198b7b76a3553a", "lat": 38.945529, "fusion_lon": 0.0, "fusion_lat": 0.0, "type": "electric_bike", "name": "54e0c6b72fac921037198b7b76a3553a", "is_disabled": 0, "rental_uris": {"ios": "https://dc.lft.to/lastmile_qr_scan", "android": "https://dc.lft.to/lastmile_qr_scan"}, "is_reserved": 0}, {"lon": -77.05335316666667, "bike_id": "5fca56c4fbb322a2a90783300e471ead", "lat": 38.907126166666664, "fusion_lon": 0.0, "fusion_lat": 0.0, "type": "electric_scooter", "name": "5fca56c4fbb322a2a90783300e471ead", "is_disabled": 0, "rental_uris": {"ios": "https://dc.lft.to/lastmile_qr_scan", "android": "https://dc.lft.to/lastmile_qr_scan"}, "is_reserved": 0}, {"lon": -77.04406183333333, "bike_id": "9be422974485557ccf76aeacaad49f99", "lat": 38.91783233333334, "fusion_lon": 0.0, "fusion_lat": 0.0, "type": "electric_scooter", "name": "9be422974485557ccf76aeacaad49f99", "is_disabled": 0, "rental_uris": {"ios": "https://dc.lft.to/lastmile_qr_scan", "android": "https://dc.lft.to/lastmile_qr_scan"}, "is_reserved": 0}, {"lon": -77.03840016666666, "bike_id": "4b58ec0792c250b3704e7ceb40bbcef0", "lat": 38.910941333333334, "fusion_lon": 0.0, "fusion_lat": 0.0, "type": "electric_scooter", "name": "4b58ec0792c250b3704e7ceb40bbcef0", "is_disabled": 0, "rental_uris": {"ios": "https://dc.lft.to/lastmile_qr_scan", "android": "https://dc.lft.to/lastmile_qr_scan"}, "is_reserved": 0}, {"lon": -77.03813633333333, "bike_id": "71ef972108c0232e3589d3ffd82bb79e", "lat": 38.907787666666664, "fusion_lon": 0.0, "fusion_lat": 0.0, "type": "electric_scooter", "name": "71ef972108c0232e3589d3ffd82bb79e", "is_disabled": 0, "rental_uris": {"ios": "https://dc.lft.to/lastmile_qr_scan", "android": "https://dc.lft.to/lastmile_qr_scan"}, "is_reserved": 0}, {"lon": -77.02728216666667, "bike_id": "841267cfad2ff11c4052ccbe0d8b595d", "lat": 38.94083283333333, "fusion_lon": 0.0, "fusion_lat": 0.0, "type": "electric_scooter", "name": "841267cfad2ff11c4052ccbe0d8b595d", "is_disabled": 0, "rental_uris": {"ios": "https://dc.lft.to/lastmile_qr_scan", "android": "https://dc.lft.to/lastmile_qr_scan"}, "is_reserved": 0}, {"lon": -76.93173016666667, "bike_id": "28404be70b39ba5f9b52edb66ec0e0bc", "lat": 38.89884283333333, "fusion_lon": 0.0, "fusion_lat": 0.0, "type": "electric_scooter", "name": "28404be70b39ba5f9b52edb66ec0e0bc", "is_disabled": 0, "rental_uris": {"ios": "https://dc.lft.to/lastmile_qr_scan", "android": "https://dc.lft.to/lastmile_qr_scan"}, "is_reserved": 0}, {"lon": -77.01422916666667, "bike_id": "b2f20d819f3c4b24a0ce44f6211fafe2", "lat": 38.9284125, "fusion_lon": 0.0, "fusion_lat": 0.0, "type": "electric_scooter", "name": "b2f20d819f3c4b24a0ce44f6211fafe2", "is_disabled": 0, "rental_uris": {"ios": "https://dc.lft.to/lastmile_qr_scan", "android": "https://dc.lft.to/lastmile_qr_scan"}, "is_reserved": 0}, {"lon": -76.9500285, "bike_id": "9237786ab8c33159e7f80f5c60163057", "lat": 38.89412316666667, "fusion_lon": 0.0, "fusion_lat": 0.0, "type": "electric_scooter", "name": "9237786ab8c33159e7f80f5c60163057", "is_disabled": 0, "rental_uris": {"ios": "https://dc.lft.to/lastmile_qr_scan", "android": "https://dc.lft.to/lastmile_qr_scan"}, "is_reserved": 0}, {"lon": -77.03263916666667, "bike_id": "217568e68c69d7ce28e7ae3de09337f9", "lat": 38.89713066666667, "fusion_lon": 0.0, "fusion_lat": 0.0, "type": "electric_bike", "name": "217568e68c69d7ce28e7ae3de09337f9", "is_disabled": 0, "rental_uris": {"ios": "https://dc.lft.to/lastmile_qr_scan", "android": "https://dc.lft.to/lastmile_qr_scan"}, "is_reserved": 0}, {"lon": -77.04328733333334, "bike_id": "de7005dcf5d69a9aaf10fc6f87c67e4e", "lat": 38.918788666666664, "fusion_lon": 0.0, "fusion_lat": 0.0, "type": "electric_scooter", "name": "de7005dcf5d69a9aaf10fc6f87c67e4e", "is_disabled": 0, "rental_uris": {"ios": "https://dc.lft.to/lastmile_qr_scan", "android": "https://dc.lft.to/lastmile_qr_scan"}, "is_reserved": 0}, {"lon": -76.985387, "bike_id": "025bbcfdad37c433580a6b2aa26cdb79", "lat": 38.91022133333333, "fusion_lon": 0.0, "fusion_lat": 0.0, "type": "electric_scooter", "name": "025bbcfdad37c433580a6b2aa26cdb79", "is_disabled": 0, "rental_uris": {"ios": "https://dc.lft.to/lastmile_qr_scan", "android": "https://dc.lft.to/lastmile_qr_scan"}, "is_reserved": 0}, {"lon": -77.02687733333333, "bike_id": "4229f1e013f9dd03e7f518a26a06c0df", "lat": 38.94885883333333, "fusion_lon": 0.0, "fusion_lat": 0.0, "type": "electric_scooter", "name": "4229f1e013f9dd03e7f518a26a06c0df", "is_disabled": 0, "rental_uris": {"ios": "https://dc.lft.to/lastmile_qr_scan", "android": "https://dc.lft.to/lastmile_qr_scan"}, "is_reserved": 0}, {"lon": -77.03659966666666, "bike_id": "95c632029b8de4cb74b8d06a56615b79", "lat": 38.921042166666666, "fusion_lon": 0.0, "fusion_lat": 0.0, "type": "electric_scooter", "name": "95c632029b8de4cb74b8d06a56615b79", "is_disabled": 0, "rental_uris": {"ios": "https://dc.lft.to/lastmile_qr_scan", "android": "https://dc.lft.to/lastmile_qr_scan"}, "is_reserved": 0}, {"lon": -77.02684433333333, "bike_id": "c4de5a97072c1fc69c9feb51c558e4aa", "lat": 38.984892, "fusion_lon": 0.0, "fusion_lat": 0.0, "type": "electric_scooter", "name": "c4de5a97072c1fc69c9feb51c558e4aa", "is_disabled": 0, "rental_uris": {"ios": "https://dc.lft.to/lastmile_qr_scan", "android": "https://dc.lft.to/lastmile_qr_scan"}, "is_reserved": 0}, {"lon": -77.042522, "bike_id": "90e9852349d5abc2e1ea0fbfbbc6ae7f", "lat": 38.9170055, "fusion_lon": 0.0, "fusion_lat": 0.0, "type": "electric_scooter", "name": "90e9852349d5abc2e1ea0fbfbbc6ae7f", "is_disabled": 0, "rental_uris": {"ios": "https://dc.lft.to/lastmile_qr_scan", "android": "https://dc.lft.to/lastmile_qr_scan"}, "is_reserved": 0}, {"lon": -77.01544883333334, "bike_id": "80571aac33578ac501816b82edfa94d8", "lat": 38.8831995, "fusion_lon": 0.0, "fusion_lat": 0.0, "type": "electric_scooter", "name": "80571aac33578ac501816b82edfa94d8", "is_disabled": 0, "rental_uris": {"ios": "https://dc.lft.to/lastmile_qr_scan", "android": "https://dc.lft.to/lastmile_qr_scan"}, "is_reserved": 0}, {"lon": -77.00225566666667, "bike_id": "865387cad0314c28ddc6e46f7da58188", "lat": 38.892022833333336, "fusion_lon": 0.0, "fusion_lat": 0.0, "type": "electric_scooter", "name": "865387cad0314c28ddc6e46f7da58188", "is_disabled": 0, "rental_uris": {"ios": "https://dc.lft.to/lastmile_qr_scan", "android": "https://dc.lft.to/lastmile_qr_scan"}, "is_reserved": 0}, {"lon": -77.0270925, "bike_id": "8b01e9bab387752d11029e0e9c109d60", "lat": 38.906729166666665, "fusion_lon": 0.0, "fusion_lat": 0.0, "type": "electric_scooter", "name": "8b01e9bab387752d11029e0e9c109d60", "is_disabled": 0, "rental_uris": {"ios": "https://dc.lft.to/lastmile_qr_scan", "android": "https://dc.lft.to/lastmile_qr_scan"}, "is_reserved": 0}, {"lon": -77.044972, "bike_id": "ff66c26367c940b1485d478efcb2d3d3", "lat": 38.90719133333333, "fusion_lon": 0.0, "fusion_lat": 0.0, "type": "electric_scooter", "name": "ff66c26367c940b1485d478efcb2d3d3", "is_disabled": 0, "rental_uris": {"ios": "https://dc.lft.to/lastmile_qr_scan", "android": "https://dc.lft.to/lastmile_qr_scan"}, "is_reserved": 0}, {"lon": -77.015095, "bike_id": "be40076f82e634c953211efebfaf81bb", "lat": 38.9269085, "fusion_lon": 0.0, "fusion_lat": 0.0, "type": "electric_scooter", "name": "be40076f82e634c953211efebfaf81bb", "is_disabled": 0, "rental_uris": {"ios": "https://dc.lft.to/lastmile_qr_scan", "android": "https://dc.lft.to/lastmile_qr_scan"}, "is_reserved": 0}, {"lon": -77.0215685, "bike_id": "b16a021f60fb20a0ed1b3382f46c1c6e", "lat": 38.926025, "fusion_lon": 0.0, "fusion_lat": 0.0, "type": "electric_scooter", "name": "b16a021f60fb20a0ed1b3382f46c1c6e", "is_disabled": 0, "rental_uris": {"ios": "https://dc.lft.to/lastmile_qr_scan", "android": "https://dc.lft.to/lastmile_qr_scan"}, "is_reserved": 0}, {"lon": -77.06349466666667, "bike_id": "1ea5117960478be996a7af84a023a86b", "lat": 38.94445366666667, "fusion_lon": 0.0, "fusion_lat": 0.0, "type": "electric_scooter", "name": "1ea5117960478be996a7af84a023a86b", "is_disabled": 0, "rental_uris": {"ios": "https://dc.lft.to/lastmile_qr_scan", "android": "https://dc.lft.to/lastmile_qr_scan"}, "is_reserved": 0}, {"lon": -77.04480533333333, "bike_id": "75e56b58ab7f5e72344f71f26064fa07", "lat": 38.90056283333333, "fusion_lon": 0.0, "fusion_lat": 0.0, "type": "electric_scooter", "name": "75e56b58ab7f5e72344f71f26064fa07", "is_disabled": 0, "rental_uris": {"ios": "https://dc.lft.to/lastmile_qr_scan", "android": "https://dc.lft.to/lastmile_qr_scan"}, "is_reserved": 0}, {"lon": -77.03175566666667, "bike_id": "0cbbda150f721312223dc40f9955e0d3", "lat": 38.883981666666664, "fusion_lon": 0.0, "fusion_lat": 0.0, "type": "electric_scooter", "name": "0cbbda150f721312223dc40f9955e0d3", "is_disabled": 0, "rental_uris": {"ios": "https://dc.lft.to/lastmile_qr_scan", "android": "https://dc.lft.to/lastmile_qr_scan"}, "is_reserved": 0}, {"lon": -77.0013975, "bike_id": "55835e79c77b4270042561ce3434187f", "lat": 38.84284516666666, "fusion_lon": 0.0, "fusion_lat": 0.0, "type": "electric_scooter", "name": "55835e79c77b4270042561ce3434187f", "is_disabled": 0, "rental_uris": {"ios": "https://dc.lft.to/lastmile_qr_scan", "android": "https://dc.lft.to/lastmile_qr_scan"}, "is_reserved": 0}, {"lon": -77.0216755, "bike_id": "a253ef44848592d0bc1274c4f0877167", "lat": 38.94292766666667, "fusion_lon": 0.0, "fusion_lat": 0.0, "type": "electric_scooter", "name": "a253ef44848592d0bc1274c4f0877167", "is_disabled": 0, "rental_uris": {"ios": "https://dc.lft.to/lastmile_qr_scan", "android": "https://dc.lft.to/lastmile_qr_scan"}, "is_reserved": 0}, {"lon": -76.98615833333334, "bike_id": "db995f693842d5b2cb3359d3fe1d73f1", "lat": 38.90587466666667, "fusion_lon": 0.0, "fusion_lat": 0.0, "type": "electric_scooter", "name": "db995f693842d5b2cb3359d3fe1d73f1", "is_disabled": 0, "rental_uris": {"ios": "https://dc.lft.to/lastmile_qr_scan", "android": "https://dc.lft.to/lastmile_qr_scan"}, "is_reserved": 0}, {"lon": -77.01506683333334, "bike_id": "2aeaa8fa22ef86b547d77796802b19d6", "lat": 38.884981, "fusion_lon": 0.0, "fusion_lat": 0.0, "type": "electric_scooter", "name": "2aeaa8fa22ef86b547d77796802b19d6", "is_disabled": 0, "rental_uris": {"ios": "https://dc.lft.to/lastmile_qr_scan", "android": "https://dc.lft.to/lastmile_qr_scan"}, "is_reserved": 0}, {"lon": -77.03426816666666, "bike_id": "4af35ca029926c64c62598534544b320", "lat": 38.927409, "fusion_lon": 0.0, "fusion_lat": 0.0, "type": "electric_scooter", "name": "4af35ca029926c64c62598534544b320", "is_disabled": 0, "rental_uris": {"ios": "https://dc.lft.to/lastmile_qr_scan", "android": "https://dc.lft.to/lastmile_qr_scan"}, "is_reserved": 0}, {"lon": -76.988342, "bike_id": "10618a0cbc14498a5aba0c34fea54aad", "lat": 38.89669083333333, "fusion_lon": 0.0, "fusion_lat": 0.0, "type": "electric_scooter", "name": "10618a0cbc14498a5aba0c34fea54aad", "is_disabled": 0, "rental_uris": {"ios": "https://dc.lft.to/lastmile_qr_scan", "android": "https://dc.lft.to/lastmile_qr_scan"}, "is_reserved": 0}, {"lon": -77.04489516666666, "bike_id": "d44134c376331f4fe954f702c49d3943", "lat": 38.905116666666665, "fusion_lon": 0.0, "fusion_lat": 0.0, "type": "electric_scooter", "name": "d44134c376331f4fe954f702c49d3943", "is_disabled": 0, "rental_uris": {"ios": "https://dc.lft.to/lastmile_qr_scan", "android": "https://dc.lft.to/lastmile_qr_scan"}, "is_reserved": 0}, {"lon": -76.94681133333333, "bike_id": "2dc8dc749b2a777edabf8a4f4f424e49", "lat": 38.8863135, "fusion_lon": 0.0, "fusion_lat": 0.0, "type": "electric_scooter", "name": "2dc8dc749b2a777edabf8a4f4f424e49", "is_disabled": 0, "rental_uris": {"ios": "https://dc.lft.to/lastmile_qr_scan", "android": "https://dc.lft.to/lastmile_qr_scan"}, "is_reserved": 0}, {"lon": -77.02312083333334, "bike_id": "7a4492536277bce9876f4288614bfcdd", "lat": 38.92732016666667, "fusion_lon": 0.0, "fusion_lat": 0.0, "type": "electric_scooter", "name": "7a4492536277bce9876f4288614bfcdd", "is_disabled": 0, "rental_uris": {"ios": "https://dc.lft.to/lastmile_qr_scan", "android": "https://dc.lft.to/lastmile_qr_scan"}, "is_reserved": 0}, {"lon": -77.0283205, "bike_id": "416194a6f42076e8dd3f757a7abc3c90", "lat": 38.88766733333333, "fusion_lon": 0.0, "fusion_lat": 0.0, "type": "electric_scooter", "name": "416194a6f42076e8dd3f757a7abc3c90", "is_disabled": 0, "rental_uris": {"ios": "https://dc.lft.to/lastmile_qr_scan", "android": "https://dc.lft.to/lastmile_qr_scan"}, "is_reserved": 0}, {"lon": -77.04126733333334, "bike_id": "1dd06362babcdcfbbdd240454bc0215d", "lat": 38.91550866666667, "fusion_lon": 0.0, "fusion_lat": 0.0, "type": "electric_scooter", "name": "1dd06362babcdcfbbdd240454bc0215d", "is_disabled": 0, "rental_uris": {"ios": "https://dc.lft.to/lastmile_qr_scan", "android": "https://dc.lft.to/lastmile_qr_scan"}, "is_reserved": 0}, {"lon": -77.00008983333333, "bike_id": "d63b01ef36b71ffbe761e74449f4dec6", "lat": 38.897408, "fusion_lon": 0.0, "fusion_lat": 0.0, "type": "electric_scooter", "name": "d63b01ef36b71ffbe761e74449f4dec6", "is_disabled": 0, "rental_uris": {"ios": "https://dc.lft.to/lastmile_qr_scan", "android": "https://dc.lft.to/lastmile_qr_scan"}, "is_reserved": 0}, {"lon": -76.96496416666666, "bike_id": "fd7b931c7cbbffa5056d2c81a3e5bd48", "lat": 38.87648733333333, "fusion_lon": 0.0, "fusion_lat": 0.0, "type": "electric_scooter", "name": "fd7b931c7cbbffa5056d2c81a3e5bd48", "is_disabled": 0, "rental_uris": {"ios": "https://dc.lft.to/lastmile_qr_scan", "android": "https://dc.lft.to/lastmile_qr_scan"}, "is_reserved": 0}, {"lon": -77.057518, "bike_id": "0379c67299ed3ecbfe5f9b0419e8c2f8", "lat": 38.92500283333333, "fusion_lon": 0.0, "fusion_lat": 0.0, "type": "electric_bike", "name": "0379c67299ed3ecbfe5f9b0419e8c2f8", "is_disabled": 0, "rental_uris": {"ios": "https://dc.lft.to/lastmile_qr_scan", "android": "https://dc.lft.to/lastmile_qr_scan"}, "is_reserved": 0}, {"lon": -77.02808133333333, "bike_id": "a8faa726f7ad237d5c885e3d2f66e2ac", "lat": 38.907353, "fusion_lon": 0.0, "fusion_lat": 0.0, "type": "electric_scooter", "name": "a8faa726f7ad237d5c885e3d2f66e2ac", "is_disabled": 0, "rental_uris": {"ios": "https://dc.lft.to/lastmile_qr_scan", "android": "https://dc.lft.to/lastmile_qr_scan"}, "is_reserved": 0}, {"lon": -77.10838133333333, "bike_id": "d78084d2386911e9dd61b28d0d116999", "lat": 38.81202183333333, "fusion_lon": 0.0, "fusion_lat": 0.0, "type": "electric_bike", "name": "d78084d2386911e9dd61b28d0d116999", "is_disabled": 0, "rental_uris": {"ios": "https://dc.lft.to/lastmile_qr_scan", "android": "https://dc.lft.to/lastmile_qr_scan"}, "is_reserved": 0}, {"lon": -76.99756516666666, "bike_id": "6f0b2cb98c329b0ca6f633a5986b814d", "lat": 38.887685833333336, "fusion_lon": 0.0, "fusion_lat": 0.0, "type": "electric_scooter", "name": "6f0b2cb98c329b0ca6f633a5986b814d", "is_disabled": 0, "rental_uris": {"ios": "https://dc.lft.to/lastmile_qr_scan", "android": "https://dc.lft.to/lastmile_qr_scan"}, "is_reserved": 0}, {"lon": -76.94193916666667, "bike_id": "a0a231fab249843b85cbf399bc030ed0", "lat": 38.8937795, "fusion_lon": 0.0, "fusion_lat": 0.0, "type": "electric_scooter", "name": "a0a231fab249843b85cbf399bc030ed0", "is_disabled": 0, "rental_uris": {"ios": "https://dc.lft.to/lastmile_qr_scan", "android": "https://dc.lft.to/lastmile_qr_scan"}, "is_reserved": 0}, {"lon": -76.997747, "bike_id": "a775294a200ccd7097c90d7c00fe7ab7", "lat": 38.844289, "fusion_lon": 0.0, "fusion_lat": 0.0, "type": "electric_scooter", "name": "a775294a200ccd7097c90d7c00fe7ab7", "is_disabled": 0, "rental_uris": {"ios": "https://dc.lft.to/lastmile_qr_scan", "android": "https://dc.lft.to/lastmile_qr_scan"}, "is_reserved": 0}, {"lon": -77.00280316666667, "bike_id": "fca5ca594a652668624ddc4199ae9822", "lat": 38.957019833333334, "fusion_lon": 0.0, "fusion_lat": 0.0, "type": "electric_bike", "name": "fca5ca594a652668624ddc4199ae9822", "is_disabled": 0, "rental_uris": {"ios": "https://dc.lft.to/lastmile_qr_scan", "android": "https://dc.lft.to/lastmile_qr_scan"}, "is_reserved": 0}, {"lon": -77.036513, "bike_id": "24af98207b8f67b6ca4f2396cdcbe589", "lat": 38.91297433333333, "fusion_lon": 0.0, "fusion_lat": 0.0, "type": "electric_scooter", "name": "24af98207b8f67b6ca4f2396cdcbe589", "is_disabled": 0, "rental_uris": {"ios": "https://dc.lft.to/lastmile_qr_scan", "android": "https://dc.lft.to/lastmile_qr_scan"}, "is_reserved": 0}, {"lon": -77.0297145, "bike_id": "69241c7bb560e61e94bb943c89dd0d41", "lat": 38.91679233333333, "fusion_lon": 0.0, "fusion_lat": 0.0, "type": "electric_scooter", "name": "69241c7bb560e61e94bb943c89dd0d41", "is_disabled": 0, "rental_uris": {"ios": "https://dc.lft.to/lastmile_qr_scan", "android": "https://dc.lft.to/lastmile_qr_scan"}, "is_reserved": 0}, {"lon": -77.022624, "bike_id": "591d449658df65bcbaea91a3db2f1046", "lat": 38.92739816666667, "fusion_lon": 0.0, "fusion_lat": 0.0, "type": "electric_scooter", "name": "591d449658df65bcbaea91a3db2f1046", "is_disabled": 0, "rental_uris": {"ios": "https://dc.lft.to/lastmile_qr_scan", "android": "https://dc.lft.to/lastmile_qr_scan"}, "is_reserved": 0}, {"lon": -77.03199183333334, "bike_id": "025c4caf7ae11ccbe9bde747caf64392", "lat": 38.915015833333335, "fusion_lon": 0.0, "fusion_lat": 0.0, "type": "electric_scooter", "name": "025c4caf7ae11ccbe9bde747caf64392", "is_disabled": 0, "rental_uris": {"ios": "https://dc.lft.to/lastmile_qr_scan", "android": "https://dc.lft.to/lastmile_qr_scan"}, "is_reserved": 0}, {"lon": -77.04323333333333, "bike_id": "78ab31a3b74f5be9bcc1f1d942685aa9", "lat": 38.91884133333333, "fusion_lon": 0.0, "fusion_lat": 0.0, "type": "electric_scooter", "name": "78ab31a3b74f5be9bcc1f1d942685aa9", "is_disabled": 0, "rental_uris": {"ios": "https://dc.lft.to/lastmile_qr_scan", "android": "https://dc.lft.to/lastmile_qr_scan"}, "is_reserved": 0}, {"lon": -77.00096433333333, "bike_id": "3c43c8548a1fe6b85b67d0f995744759", "lat": 38.894765166666666, "fusion_lon": 0.0, "fusion_lat": 0.0, "type": "electric_scooter", "name": "3c43c8548a1fe6b85b67d0f995744759", "is_disabled": 0, "rental_uris": {"ios": "https://dc.lft.to/lastmile_qr_scan", "android": "https://dc.lft.to/lastmile_qr_scan"}, "is_reserved": 0}, {"lon": -77.06523166666666, "bike_id": "5ede03c5cc7198ba1d400e8358683286", "lat": 38.9474415, "fusion_lon": 0.0, "fusion_lat": 0.0, "type": "electric_scooter", "name": "5ede03c5cc7198ba1d400e8358683286", "is_disabled": 0, "rental_uris": {"ios": "https://dc.lft.to/lastmile_qr_scan", "android": "https://dc.lft.to/lastmile_qr_scan"}, "is_reserved": 0}, {"lon": -76.9988045, "bike_id": "09708351ab43833be86112b4393f04e6", "lat": 38.920585, "fusion_lon": 0.0, "fusion_lat": 0.0, "type": "electric_scooter", "name": "09708351ab43833be86112b4393f04e6", "is_disabled": 0, "rental_uris": {"ios": "https://dc.lft.to/lastmile_qr_scan", "android": "https://dc.lft.to/lastmile_qr_scan"}, "is_reserved": 0}, {"lon": -77.052304, "bike_id": "452e3093a4c7856bff4578e5ed598c29", "lat": 38.899958833333336, "fusion_lon": 0.0, "fusion_lat": 0.0, "type": "electric_scooter", "name": "452e3093a4c7856bff4578e5ed598c29", "is_disabled": 0, "rental_uris": {"ios": "https://dc.lft.to/lastmile_qr_scan", "android": "https://dc.lft.to/lastmile_qr_scan"}, "is_reserved": 0}, {"lon": -77.033928, "bike_id": "5f68474a5dc792d1c60acee7c598cf0a", "lat": 38.960313, "fusion_lon": 0.0, "fusion_lat": 0.0, "type": "electric_bike", "name": "5f68474a5dc792d1c60acee7c598cf0a", "is_disabled": 0, "rental_uris": {"ios": "https://dc.lft.to/lastmile_qr_scan", "android": "https://dc.lft.to/lastmile_qr_scan"}, "is_reserved": 0}, {"lon": -76.98485033333333, "bike_id": "6a085adb34f46ae1b16670f52521aa8a", "lat": 38.89895633333333, "fusion_lon": 0.0, "fusion_lat": 0.0, "type": "electric_scooter", "name": "6a085adb34f46ae1b16670f52521aa8a", "is_disabled": 0, "rental_uris": {"ios": "https://dc.lft.to/lastmile_qr_scan", "android": "https://dc.lft.to/lastmile_qr_scan"}, "is_reserved": 0}, {"lon": -77.009148, "bike_id": "2890628a6af7cfa2cc2a532eee4adb0f", "lat": 38.89549983333333, "fusion_lon": 0.0, "fusion_lat": 0.0, "type": "electric_scooter", "name": "2890628a6af7cfa2cc2a532eee4adb0f", "is_disabled": 0, "rental_uris": {"ios": "https://dc.lft.to/lastmile_qr_scan", "android": "https://dc.lft.to/lastmile_qr_scan"}, "is_reserved": 0}, {"lon": -77.003602, "bike_id": "e9342eb40e9c9a9242641fe89ac2e6cc", "lat": 38.91555, "fusion_lon": 0.0, "fusion_lat": 0.0, "type": "electric_scooter", "name": "e9342eb40e9c9a9242641fe89ac2e6cc", "is_disabled": 0, "rental_uris": {"ios": "https://dc.lft.to/lastmile_qr_scan", "android": "https://dc.lft.to/lastmile_qr_scan"}, "is_reserved": 0}, {"lon": -76.96579083333333, "bike_id": "b5ca364c0ce29e98f7023a142770b8a2", "lat": 38.871581, "fusion_lon": 0.0, "fusion_lat": 0.0, "type": "electric_scooter", "name": "b5ca364c0ce29e98f7023a142770b8a2", "is_disabled": 0, "rental_uris": {"ios": "https://dc.lft.to/lastmile_qr_scan", "android": "https://dc.lft.to/lastmile_qr_scan"}, "is_reserved": 0}, {"lon": -77.04219933333333, "bike_id": "c3e0f4525b42a31e2ddb24a935539557", "lat": 38.911200666666666, "fusion_lon": 0.0, "fusion_lat": 0.0, "type": "electric_scooter", "name": "c3e0f4525b42a31e2ddb24a935539557", "is_disabled": 0, "rental_uris": {"ios": "https://dc.lft.to/lastmile_qr_scan", "android": "https://dc.lft.to/lastmile_qr_scan"}, "is_reserved": 0}, {"lon": -76.98776183333334, "bike_id": "a78e0a0c8ee903ddc8998c460f834e3d", "lat": 38.90658, "fusion_lon": 0.0, "fusion_lat": 0.0, "type": "electric_scooter", "name": "a78e0a0c8ee903ddc8998c460f834e3d", "is_disabled": 0, "rental_uris": {"ios": "https://dc.lft.to/lastmile_qr_scan", "android": "https://dc.lft.to/lastmile_qr_scan"}, "is_reserved": 0}, {"lon": -77.02951483333334, "bike_id": "b3d7eb2115df8c83d01fc1e8263e4ccc", "lat": 38.908180333333334, "fusion_lon": 0.0, "fusion_lat": 0.0, "type": "electric_scooter", "name": "b3d7eb2115df8c83d01fc1e8263e4ccc", "is_disabled": 0, "rental_uris": {"ios": "https://dc.lft.to/lastmile_qr_scan", "android": "https://dc.lft.to/lastmile_qr_scan"}, "is_reserved": 0}, {"lon": -76.98499133333334, "bike_id": "4c45b398accbd0509370b1631444b0c7", "lat": 38.92005116666667, "fusion_lon": 0.0, "fusion_lat": 0.0, "type": "electric_scooter", "name": "4c45b398accbd0509370b1631444b0c7", "is_disabled": 0, "rental_uris": {"ios": "https://dc.lft.to/lastmile_qr_scan", "android": "https://dc.lft.to/lastmile_qr_scan"}, "is_reserved": 0}, {"lon": -76.98260266666666, "bike_id": "cd975d8b49cfdd8f2c5ed181080e10b4", "lat": 38.90856866666667, "fusion_lon": 0.0, "fusion_lat": 0.0, "type": "electric_scooter", "name": "cd975d8b49cfdd8f2c5ed181080e10b4", "is_disabled": 0, "rental_uris": {"ios": "https://dc.lft.to/lastmile_qr_scan", "android": "https://dc.lft.to/lastmile_qr_scan"}, "is_reserved": 0}, {"lon": -77.0305795, "bike_id": "2d1acfe2ab579d90968df620e52b75c4", "lat": 38.90805533333333, "fusion_lon": 0.0, "fusion_lat": 0.0, "type": "electric_scooter", "name": "2d1acfe2ab579d90968df620e52b75c4", "is_disabled": 0, "rental_uris": {"ios": "https://dc.lft.to/lastmile_qr_scan", "android": "https://dc.lft.to/lastmile_qr_scan"}, "is_reserved": 0}, {"lon": -77.01149816666667, "bike_id": "972eaef376cb9f59bd0d1d9643c56946", "lat": 38.91403916666667, "fusion_lon": 0.0, "fusion_lat": 0.0, "type": "electric_scooter", "name": "972eaef376cb9f59bd0d1d9643c56946", "is_disabled": 0, "rental_uris": {"ios": "https://dc.lft.to/lastmile_qr_scan", "android": "https://dc.lft.to/lastmile_qr_scan"}, "is_reserved": 0}, {"lon": -77.10089116666667, "bike_id": "b316b2ad450844aed2061dbdb4497a3c", "lat": 38.95958316666667, "fusion_lon": 0.0, "fusion_lat": 0.0, "type": "electric_bike", "name": "b316b2ad450844aed2061dbdb4497a3c", "is_disabled": 0, "rental_uris": {"ios": "https://dc.lft.to/lastmile_qr_scan", "android": "https://dc.lft.to/lastmile_qr_scan"}, "is_reserved": 0}, {"lon": -77.03660933333333, "bike_id": "4a33d9050209539c12431dd1cd3ace93", "lat": 38.917534333333336, "fusion_lon": 0.0, "fusion_lat": 0.0, "type": "electric_scooter", "name": "4a33d9050209539c12431dd1cd3ace93", "is_disabled": 0, "rental_uris": {"ios": "https://dc.lft.to/lastmile_qr_scan", "android": "https://dc.lft.to/lastmile_qr_scan"}, "is_reserved": 0}, {"lon": -76.96382333333334, "bike_id": "97b7aec5cebb15d76a2cc96f979672eb", "lat": 38.95168616666667, "fusion_lon": 0.0, "fusion_lat": 0.0, "type": "electric_bike", "name": "97b7aec5cebb15d76a2cc96f979672eb", "is_disabled": 0, "rental_uris": {"ios": "https://dc.lft.to/lastmile_qr_scan", "android": "https://dc.lft.to/lastmile_qr_scan"}, "is_reserved": 0}, {"lon": -77.025638, "bike_id": "9e8268d9c236fb98bb9eabaabc1a81eb", "lat": 38.89942933333333, "fusion_lon": 0.0, "fusion_lat": 0.0, "type": "electric_scooter", "name": "9e8268d9c236fb98bb9eabaabc1a81eb", "is_disabled": 0, "rental_uris": {"ios": "https://dc.lft.to/lastmile_qr_scan", "android": "https://dc.lft.to/lastmile_qr_scan"}, "is_reserved": 0}, {"lon": -77.011616, "bike_id": "57d8b33a4802b9ed42bb201530d7f6ca", "lat": 38.872282166666665, "fusion_lon": 0.0, "fusion_lat": 0.0, "type": "electric_bike", "name": "57d8b33a4802b9ed42bb201530d7f6ca", "is_disabled": 0, "rental_uris": {"ios": "https://dc.lft.to/lastmile_qr_scan", "android": "https://dc.lft.to/lastmile_qr_scan"}, "is_reserved": 0}, {"lon": -77.02535266666666, "bike_id": "10559b3e85cc8ae98f472796e42cabc8", "lat": 38.927454, "fusion_lon": 0.0, "fusion_lat": 0.0, "type": "electric_scooter", "name": "10559b3e85cc8ae98f472796e42cabc8", "is_disabled": 0, "rental_uris": {"ios": "https://dc.lft.to/lastmile_qr_scan", "android": "https://dc.lft.to/lastmile_qr_scan"}, "is_reserved": 0}, {"lon": -76.99406433333333, "bike_id": "82066c95f55614128fe17d10996887b2", "lat": 38.831379166666665, "fusion_lon": 0.0, "fusion_lat": 0.0, "type": "electric_bike", "name": "82066c95f55614128fe17d10996887b2", "is_disabled": 0, "rental_uris": {"ios": "https://dc.lft.to/lastmile_qr_scan", "android": "https://dc.lft.to/lastmile_qr_scan"}, "is_reserved": 0}, {"lon": -77.00789066666667, "bike_id": "01994f99767940cc57bb104aafc1ec5d", "lat": 38.896690666666665, "fusion_lon": 0.0, "fusion_lat": 0.0, "type": "electric_scooter", "name": "01994f99767940cc57bb104aafc1ec5d", "is_disabled": 0, "rental_uris": {"ios": "https://dc.lft.to/lastmile_qr_scan", "android": "https://dc.lft.to/lastmile_qr_scan"}, "is_reserved": 0}, {"lon": -77.0307105, "bike_id": "b758ff9629e1561c94908399727f3186", "lat": 38.918151, "fusion_lon": 0.0, "fusion_lat": 0.0, "type": "electric_scooter", "name": "b758ff9629e1561c94908399727f3186", "is_disabled": 0, "rental_uris": {"ios": "https://dc.lft.to/lastmile_qr_scan", "android": "https://dc.lft.to/lastmile_qr_scan"}, "is_reserved": 0}, {"lon": -77.03622066666667, "bike_id": "5e10b26d87c6472f61c353c9bd932c47", "lat": 38.937461166666665, "fusion_lon": 0.0, "fusion_lat": 0.0, "type": "electric_scooter", "name": "5e10b26d87c6472f61c353c9bd932c47", "is_disabled": 0, "rental_uris": {"ios": "https://dc.lft.to/lastmile_qr_scan", "android": "https://dc.lft.to/lastmile_qr_scan"}, "is_reserved": 0}, {"lon": -76.98592283333333, "bike_id": "e3c266dd264b4cd7c7c07abad94cf53c", "lat": 38.908138, "fusion_lon": 0.0, "fusion_lat": 0.0, "type": "electric_scooter", "name": "e3c266dd264b4cd7c7c07abad94cf53c", "is_disabled": 0, "rental_uris": {"ios": "https://dc.lft.to/lastmile_qr_scan", "android": "https://dc.lft.to/lastmile_qr_scan"}, "is_reserved": 0}, {"lon": -77.03279383333333, "bike_id": "fa7b0ddcc01bd326d13379745cd3bea9", "lat": 38.90469183333333, "fusion_lon": 0.0, "fusion_lat": 0.0, "type": "electric_scooter", "name": "fa7b0ddcc01bd326d13379745cd3bea9", "is_disabled": 0, "rental_uris": {"ios": "https://dc.lft.to/lastmile_qr_scan", "android": "https://dc.lft.to/lastmile_qr_scan"}, "is_reserved": 0}, {"lon": -76.9443375, "bike_id": "a566f4b9ef5014cf9071090e6c4bf4b8", "lat": 38.900440833333334, "fusion_lon": 0.0, "fusion_lat": 0.0, "type": "electric_scooter", "name": "a566f4b9ef5014cf9071090e6c4bf4b8", "is_disabled": 0, "rental_uris": {"ios": "https://dc.lft.to/lastmile_qr_scan", "android": "https://dc.lft.to/lastmile_qr_scan"}, "is_reserved": 0}, {"lon": -76.933683, "bike_id": "20daf756155c593420b1f6d07e0e6d7f", "lat": 38.899105666666664, "fusion_lon": 0.0, "fusion_lat": 0.0, "type": "electric_scooter", "name": "20daf756155c593420b1f6d07e0e6d7f", "is_disabled": 0, "rental_uris": {"ios": "https://dc.lft.to/lastmile_qr_scan", "android": "https://dc.lft.to/lastmile_qr_scan"}, "is_reserved": 0}, {"lon": -77.02716633333333, "bike_id": "87c242148c77a16004b405adbb071655", "lat": 38.90672216666667, "fusion_lon": 0.0, "fusion_lat": 0.0, "type": "electric_scooter", "name": "87c242148c77a16004b405adbb071655", "is_disabled": 0, "rental_uris": {"ios": "https://dc.lft.to/lastmile_qr_scan", "android": "https://dc.lft.to/lastmile_qr_scan"}, "is_reserved": 0}, {"lon": -77.01782383333334, "bike_id": "8340275458aac0e8f8d6b21991da5ba9", "lat": 38.920988, "fusion_lon": 0.0, "fusion_lat": 0.0, "type": "electric_scooter", "name": "8340275458aac0e8f8d6b21991da5ba9", "is_disabled": 0, "rental_uris": {"ios": "https://dc.lft.to/lastmile_qr_scan", "android": "https://dc.lft.to/lastmile_qr_scan"}, "is_reserved": 0}, {"lon": -76.9836645, "bike_id": "e5d6598b7727c4508b5bdaf01e7b724e", "lat": 38.91501783333333, "fusion_lon": 0.0, "fusion_lat": 0.0, "type": "electric_scooter", "name": "e5d6598b7727c4508b5bdaf01e7b724e", "is_disabled": 0, "rental_uris": {"ios": "https://dc.lft.to/lastmile_qr_scan", "android": "https://dc.lft.to/lastmile_qr_scan"}, "is_reserved": 0}, {"lon": -77.03031566666667, "bike_id": "e02fe6f3c3005899b04ab11209bd2939", "lat": 38.898274, "fusion_lon": 0.0, "fusion_lat": 0.0, "type": "electric_scooter", "name": "e02fe6f3c3005899b04ab11209bd2939", "is_disabled": 0, "rental_uris": {"ios": "https://dc.lft.to/lastmile_qr_scan", "android": "https://dc.lft.to/lastmile_qr_scan"}, "is_reserved": 0}, {"lon": -77.0136255, "bike_id": "5a26ef7a817b865b2e6134d524d36f85", "lat": 38.887093666666665, "fusion_lon": 0.0, "fusion_lat": 0.0, "type": "electric_scooter", "name": "5a26ef7a817b865b2e6134d524d36f85", "is_disabled": 0, "rental_uris": {"ios": "https://dc.lft.to/lastmile_qr_scan", "android": "https://dc.lft.to/lastmile_qr_scan"}, "is_reserved": 0}, {"lon": -77.025846, "bike_id": "1cbd1315012d586371ee00108f5655d0", "lat": 38.92747383333333, "fusion_lon": 0.0, "fusion_lat": 0.0, "type": "electric_scooter", "name": "1cbd1315012d586371ee00108f5655d0", "is_disabled": 0, "rental_uris": {"ios": "https://dc.lft.to/lastmile_qr_scan", "android": "https://dc.lft.to/lastmile_qr_scan"}, "is_reserved": 0}, {"lon": -77.02393366666666, "bike_id": "3f3e03330e6343cc6cd4aa26779b4ee0", "lat": 38.920094, "fusion_lon": 0.0, "fusion_lat": 0.0, "type": "electric_scooter", "name": "3f3e03330e6343cc6cd4aa26779b4ee0", "is_disabled": 0, "rental_uris": {"ios": "https://dc.lft.to/lastmile_qr_scan", "android": "https://dc.lft.to/lastmile_qr_scan"}, "is_reserved": 0}, {"lon": -77.02942716666666, "bike_id": "50429022e7b2037578404de80b57957a", "lat": 38.89821583333333, "fusion_lon": 0.0, "fusion_lat": 0.0, "type": "electric_scooter", "name": "50429022e7b2037578404de80b57957a", "is_disabled": 0, "rental_uris": {"ios": "https://dc.lft.to/lastmile_qr_scan", "android": "https://dc.lft.to/lastmile_qr_scan"}, "is_reserved": 0}, {"lon": -77.0055825, "bike_id": "84056d4ede7c23ffe538c19b4b5f8cc0", "lat": 38.8747065, "fusion_lon": 0.0, "fusion_lat": 0.0, "type": "electric_scooter", "name": "84056d4ede7c23ffe538c19b4b5f8cc0", "is_disabled": 0, "rental_uris": {"ios": "https://dc.lft.to/lastmile_qr_scan", "android": "https://dc.lft.to/lastmile_qr_scan"}, "is_reserved": 0}, {"lon": -76.98821133333334, "bike_id": "f888c2e2350460fd97b71d531803551f", "lat": 38.89076983333333, "fusion_lon": 0.0, "fusion_lat": 0.0, "type": "electric_scooter", "name": "f888c2e2350460fd97b71d531803551f", "is_disabled": 0, "rental_uris": {"ios": "https://dc.lft.to/lastmile_qr_scan", "android": "https://dc.lft.to/lastmile_qr_scan"}, "is_reserved": 0}, {"lon": -77.019616, "bike_id": "fa653bb612dee3616c22aefc7fe7bc98", "lat": 38.952361333333336, "fusion_lon": 0.0, "fusion_lat": 0.0, "type": "electric_scooter", "name": "fa653bb612dee3616c22aefc7fe7bc98", "is_disabled": 0, "rental_uris": {"ios": "https://dc.lft.to/lastmile_qr_scan", "android": "https://dc.lft.to/lastmile_qr_scan"}, "is_reserved": 0}, {"lon": -77.0073045, "bike_id": "df22ea483288a990c4ab379abfe77494", "lat": 38.876617833333334, "fusion_lon": 0.0, "fusion_lat": 0.0, "type": "electric_scooter", "name": "df22ea483288a990c4ab379abfe77494", "is_disabled": 0, "rental_uris": {"ios": "https://dc.lft.to/lastmile_qr_scan", "android": "https://dc.lft.to/lastmile_qr_scan"}, "is_reserved": 0}, {"lon": -76.995996, "bike_id": "d2bf6172c5d4bb9e6b1ff9fb10ec593b", "lat": 38.857013, "fusion_lon": 0.0, "fusion_lat": 0.0, "type": "electric_scooter", "name": "d2bf6172c5d4bb9e6b1ff9fb10ec593b", "is_disabled": 0, "rental_uris": {"ios": "https://dc.lft.to/lastmile_qr_scan", "android": "https://dc.lft.to/lastmile_qr_scan"}, "is_reserved": 0}, {"lon": -77.05367916666667, "bike_id": "738eef9824c0708d1792608a338bd48c", "lat": 38.927334333333334, "fusion_lon": 0.0, "fusion_lat": 0.0, "type": "electric_scooter", "name": "738eef9824c0708d1792608a338bd48c", "is_disabled": 0, "rental_uris": {"ios": "https://dc.lft.to/lastmile_qr_scan", "android": "https://dc.lft.to/lastmile_qr_scan"}, "is_reserved": 0}, {"lon": -77.03183833333334, "bike_id": "1855797d252dba4d9284c7ce7fa8ee70", "lat": 38.920092833333335, "fusion_lon": 0.0, "fusion_lat": 0.0, "type": "electric_bike", "name": "1855797d252dba4d9284c7ce7fa8ee70", "is_disabled": 0, "rental_uris": {"ios": "https://dc.lft.to/lastmile_qr_scan", "android": "https://dc.lft.to/lastmile_qr_scan"}, "is_reserved": 0}, {"lon": -77.04597266666667, "bike_id": "6b8edf571ae0c7276cba8744f80a3bb7", "lat": 38.916053166666664, "fusion_lon": 0.0, "fusion_lat": 0.0, "type": "electric_scooter", "name": "6b8edf571ae0c7276cba8744f80a3bb7", "is_disabled": 0, "rental_uris": {"ios": "https://dc.lft.to/lastmile_qr_scan", "android": "https://dc.lft.to/lastmile_qr_scan"}, "is_reserved": 0}, {"lon": -77.0421575, "bike_id": "d1cc3e8dd907bf55a2912b9a7813e125", "lat": 38.9112005, "fusion_lon": 0.0, "fusion_lat": 0.0, "type": "electric_scooter", "name": "d1cc3e8dd907bf55a2912b9a7813e125", "is_disabled": 0, "rental_uris": {"ios": "https://dc.lft.to/lastmile_qr_scan", "android": "https://dc.lft.to/lastmile_qr_scan"}, "is_reserved": 0}, {"lon": -77.02482966666666, "bike_id": "83b656556bd132fae19aa0d808358760", "lat": 38.90173866666667, "fusion_lon": 0.0, "fusion_lat": 0.0, "type": "electric_scooter", "name": "83b656556bd132fae19aa0d808358760", "is_disabled": 0, "rental_uris": {"ios": "https://dc.lft.to/lastmile_qr_scan", "android": "https://dc.lft.to/lastmile_qr_scan"}, "is_reserved": 0}, {"lon": -77.0228215, "bike_id": "1f595fffba5cb72de6ebba2440fb0ead", "lat": 38.916389833333334, "fusion_lon": 0.0, "fusion_lat": 0.0, "type": "electric_scooter", "name": "1f595fffba5cb72de6ebba2440fb0ead", "is_disabled": 0, "rental_uris": {"ios": "https://dc.lft.to/lastmile_qr_scan", "android": "https://dc.lft.to/lastmile_qr_scan"}, "is_reserved": 0}, {"lon": -77.02363216666667, "bike_id": "99e2ca7644e86a299a4d37b5cdbda850", "lat": 38.892183, "fusion_lon": 0.0, "fusion_lat": 0.0, "type": "electric_scooter", "name": "99e2ca7644e86a299a4d37b5cdbda850", "is_disabled": 0, "rental_uris": {"ios": "https://dc.lft.to/lastmile_qr_scan", "android": "https://dc.lft.to/lastmile_qr_scan"}, "is_reserved": 0}, {"lon": -76.98841633333333, "bike_id": "db2081325dcb08b16081ac67b25fda5a", "lat": 38.84281566666667, "fusion_lon": 0.0, "fusion_lat": 0.0, "type": "electric_bike", "name": "db2081325dcb08b16081ac67b25fda5a", "is_disabled": 0, "rental_uris": {"ios": "https://dc.lft.to/lastmile_qr_scan", "android": "https://dc.lft.to/lastmile_qr_scan"}, "is_reserved": 0}, {"lon": -77.05727183333333, "bike_id": "317bb972d5d1950a2fa313617081d6b4", "lat": 38.93365283333333, "fusion_lon": 0.0, "fusion_lat": 0.0, "type": "electric_scooter", "name": "317bb972d5d1950a2fa313617081d6b4", "is_disabled": 0, "rental_uris": {"ios": "https://dc.lft.to/lastmile_qr_scan", "android": "https://dc.lft.to/lastmile_qr_scan"}, "is_reserved": 0}, {"lon": -76.97055233333333, "bike_id": "d739ac946e2c429d26eb418fbf3f518d", "lat": 38.89775266666667, "fusion_lon": 0.0, "fusion_lat": 0.0, "type": "electric_scooter", "name": "d739ac946e2c429d26eb418fbf3f518d", "is_disabled": 0, "rental_uris": {"ios": "https://dc.lft.to/lastmile_qr_scan", "android": "https://dc.lft.to/lastmile_qr_scan"}, "is_reserved": 0}, {"lon": -77.00141933333333, "bike_id": "d03154a63ee11b451bf19b4da422c991", "lat": 38.88993633333333, "fusion_lon": 0.0, "fusion_lat": 0.0, "type": "electric_scooter", "name": "d03154a63ee11b451bf19b4da422c991", "is_disabled": 0, "rental_uris": {"ios": "https://dc.lft.to/lastmile_qr_scan", "android": "https://dc.lft.to/lastmile_qr_scan"}, "is_reserved": 0}, {"lon": -77.0004845, "bike_id": "afe6f02f68ef9d37a104b710dfc16bae", "lat": 38.92395233333333, "fusion_lon": 0.0, "fusion_lat": 0.0, "type": "electric_scooter", "name": "afe6f02f68ef9d37a104b710dfc16bae", "is_disabled": 0, "rental_uris": {"ios": "https://dc.lft.to/lastmile_qr_scan", "android": "https://dc.lft.to/lastmile_qr_scan"}, "is_reserved": 0}, {"lon": -77.04614916666667, "bike_id": "62cf258bfc8e76dc74650b1b8e1bcc87", "lat": 38.9054785, "fusion_lon": 0.0, "fusion_lat": 0.0, "type": "electric_scooter", "name": "62cf258bfc8e76dc74650b1b8e1bcc87", "is_disabled": 0, "rental_uris": {"ios": "https://dc.lft.to/lastmile_qr_scan", "android": "https://dc.lft.to/lastmile_qr_scan"}, "is_reserved": 0}, {"lon": -77.027409, "bike_id": "bd43b7ea2057e9cdcc23f79f2258758b", "lat": 38.92779616666667, "fusion_lon": 0.0, "fusion_lat": 0.0, "type": "electric_scooter", "name": "bd43b7ea2057e9cdcc23f79f2258758b", "is_disabled": 0, "rental_uris": {"ios": "https://dc.lft.to/lastmile_qr_scan", "android": "https://dc.lft.to/lastmile_qr_scan"}, "is_reserved": 0}, {"lon": -77.02403516666666, "bike_id": "edd971f7a6a83b83dec123a0854e78bc", "lat": 38.917777, "fusion_lon": 0.0, "fusion_lat": 0.0, "type": "electric_scooter", "name": "edd971f7a6a83b83dec123a0854e78bc", "is_disabled": 0, "rental_uris": {"ios": "https://dc.lft.to/lastmile_qr_scan", "android": "https://dc.lft.to/lastmile_qr_scan"}, "is_reserved": 0}, {"lon": -77.02958133333334, "bike_id": "27abc771dc24d78ee6d9180856820fe9", "lat": 38.9124955, "fusion_lon": 0.0, "fusion_lat": 0.0, "type": "electric_scooter", "name": "27abc771dc24d78ee6d9180856820fe9", "is_disabled": 0, "rental_uris": {"ios": "https://dc.lft.to/lastmile_qr_scan", "android": "https://dc.lft.to/lastmile_qr_scan"}, "is_reserved": 0}, {"lon": -77.0365505, "bike_id": "d521a85d2a1e54127ce40db23fdc2b46", "lat": 38.902779, "fusion_lon": 0.0, "fusion_lat": 0.0, "type": "electric_scooter", "name": "d521a85d2a1e54127ce40db23fdc2b46", "is_disabled": 0, "rental_uris": {"ios": "https://dc.lft.to/lastmile_qr_scan", "android": "https://dc.lft.to/lastmile_qr_scan"}, "is_reserved": 0}, {"lon": -77.028, "bike_id": "ebc71ead00124cde84742316eaf3dfd4", "lat": 38.92009916666667, "fusion_lon": 0.0, "fusion_lat": 0.0, "type": "electric_scooter", "name": "ebc71ead00124cde84742316eaf3dfd4", "is_disabled": 0, "rental_uris": {"ios": "https://dc.lft.to/lastmile_qr_scan", "android": "https://dc.lft.to/lastmile_qr_scan"}, "is_reserved": 0}, {"lon": -77.04267683333333, "bike_id": "795b7c272cf05e8d449c9e3b457d7d7d", "lat": 38.9178045, "fusion_lon": 0.0, "fusion_lat": 0.0, "type": "electric_scooter", "name": "795b7c272cf05e8d449c9e3b457d7d7d", "is_disabled": 0, "rental_uris": {"ios": "https://dc.lft.to/lastmile_qr_scan", "android": "https://dc.lft.to/lastmile_qr_scan"}, "is_reserved": 0}, {"lon": -77.000661, "bike_id": "110dbd5a0a345c70baa659f7773e69d9", "lat": 38.92439783333333, "fusion_lon": 0.0, "fusion_lat": 0.0, "type": "electric_scooter", "name": "110dbd5a0a345c70baa659f7773e69d9", "is_disabled": 0, "rental_uris": {"ios": "https://dc.lft.to/lastmile_qr_scan", "android": "https://dc.lft.to/lastmile_qr_scan"}, "is_reserved": 0}, {"lon": -77.05211783333333, "bike_id": "b5271fb597c311e83f9ec8386e23c209", "lat": 38.90011116666667, "fusion_lon": 0.0, "fusion_lat": 0.0, "type": "electric_scooter", "name": "b5271fb597c311e83f9ec8386e23c209", "is_disabled": 0, "rental_uris": {"ios": "https://dc.lft.to/lastmile_qr_scan", "android": "https://dc.lft.to/lastmile_qr_scan"}, "is_reserved": 0}, {"lon": -77.02375966666666, "bike_id": "fd82cebea398fd8f5b152ccae650a56c", "lat": 38.917807, "fusion_lon": 0.0, "fusion_lat": 0.0, "type": "electric_scooter", "name": "fd82cebea398fd8f5b152ccae650a56c", "is_disabled": 0, "rental_uris": {"ios": "https://dc.lft.to/lastmile_qr_scan", "android": "https://dc.lft.to/lastmile_qr_scan"}, "is_reserved": 0}, {"lon": -76.93605833333334, "bike_id": "637f6e9128e43fd5cd2900a9cb0c6d9e", "lat": 38.89686583333334, "fusion_lon": 0.0, "fusion_lat": 0.0, "type": "electric_scooter", "name": "637f6e9128e43fd5cd2900a9cb0c6d9e", "is_disabled": 0, "rental_uris": {"ios": "https://dc.lft.to/lastmile_qr_scan", "android": "https://dc.lft.to/lastmile_qr_scan"}, "is_reserved": 0}, {"lon": -76.97613, "bike_id": "12584f0c92974ae6b68e4693151bb51d", "lat": 38.903818333333334, "fusion_lon": 0.0, "fusion_lat": 0.0, "type": "electric_scooter", "name": "12584f0c92974ae6b68e4693151bb51d", "is_disabled": 0, "rental_uris": {"ios": "https://dc.lft.to/lastmile_qr_scan", "android": "https://dc.lft.to/lastmile_qr_scan"}, "is_reserved": 0}, {"lon": -77.02899116666667, "bike_id": "3cde30471dd57e3eb9ab83cc02a342d5", "lat": 38.903948666666665, "fusion_lon": 0.0, "fusion_lat": 0.0, "type": "electric_scooter", "name": "3cde30471dd57e3eb9ab83cc02a342d5", "is_disabled": 0, "rental_uris": {"ios": "https://dc.lft.to/lastmile_qr_scan", "android": "https://dc.lft.to/lastmile_qr_scan"}, "is_reserved": 0}, {"lon": -76.99924266666666, "bike_id": "4ca29fe86d7072ad29f3d0d07afb1674", "lat": 38.90917783333333, "fusion_lon": 0.0, "fusion_lat": 0.0, "type": "electric_scooter", "name": "4ca29fe86d7072ad29f3d0d07afb1674", "is_disabled": 0, "rental_uris": {"ios": "https://dc.lft.to/lastmile_qr_scan", "android": "https://dc.lft.to/lastmile_qr_scan"}, "is_reserved": 0}, {"lon": -77.01220816666667, "bike_id": "3e0dc05e61a515084c93b8d2cf38d6e4", "lat": 38.899972, "fusion_lon": 0.0, "fusion_lat": 0.0, "type": "electric_scooter", "name": "3e0dc05e61a515084c93b8d2cf38d6e4", "is_disabled": 0, "rental_uris": {"ios": "https://dc.lft.to/lastmile_qr_scan", "android": "https://dc.lft.to/lastmile_qr_scan"}, "is_reserved": 0}, {"lon": -76.98666983333334, "bike_id": "c37f6a3bc3f932571931effd7abb5d75", "lat": 38.9024995, "fusion_lon": 0.0, "fusion_lat": 0.0, "type": "electric_scooter", "name": "c37f6a3bc3f932571931effd7abb5d75", "is_disabled": 0, "rental_uris": {"ios": "https://dc.lft.to/lastmile_qr_scan", "android": "https://dc.lft.to/lastmile_qr_scan"}, "is_reserved": 0}, {"lon": -77.03849766666667, "bike_id": "ea27542cbf43757c9453c62ab96751ac", "lat": 38.9068375, "fusion_lon": 0.0, "fusion_lat": 0.0, "type": "electric_scooter", "name": "ea27542cbf43757c9453c62ab96751ac", "is_disabled": 0, "rental_uris": {"ios": "https://dc.lft.to/lastmile_qr_scan", "android": "https://dc.lft.to/lastmile_qr_scan"}, "is_reserved": 0}, {"lon": -77.047002, "bike_id": "83f6c009c94da2008aad3faea5a8f913", "lat": 38.922390166666666, "fusion_lon": 0.0, "fusion_lat": 0.0, "type": "electric_scooter", "name": "83f6c009c94da2008aad3faea5a8f913", "is_disabled": 0, "rental_uris": {"ios": "https://dc.lft.to/lastmile_qr_scan", "android": "https://dc.lft.to/lastmile_qr_scan"}, "is_reserved": 0}, {"lon": -76.99148633333333, "bike_id": "86c9c9d828c026a263eed4e7610d800f", "lat": 38.882010666666666, "fusion_lon": 0.0, "fusion_lat": 0.0, "type": "electric_scooter", "name": "86c9c9d828c026a263eed4e7610d800f", "is_disabled": 0, "rental_uris": {"ios": "https://dc.lft.to/lastmile_qr_scan", "android": "https://dc.lft.to/lastmile_qr_scan"}, "is_reserved": 0}, {"lon": -77.04244566666667, "bike_id": "baa0d91e1abad79a7680a533cce1c551", "lat": 38.909195, "fusion_lon": 0.0, "fusion_lat": 0.0, "type": "electric_scooter", "name": "baa0d91e1abad79a7680a533cce1c551", "is_disabled": 0, "rental_uris": {"ios": "https://dc.lft.to/lastmile_qr_scan", "android": "https://dc.lft.to/lastmile_qr_scan"}, "is_reserved": 0}, {"lon": -77.03330833333334, "bike_id": "2a534c91d4ad5a34d05b6bcb74738976", "lat": 38.91675716666666, "fusion_lon": 0.0, "fusion_lat": 0.0, "type": "electric_scooter", "name": "2a534c91d4ad5a34d05b6bcb74738976", "is_disabled": 0, "rental_uris": {"ios": "https://dc.lft.to/lastmile_qr_scan", "android": "https://dc.lft.to/lastmile_qr_scan"}, "is_reserved": 0}, {"lon": -77.00961983333333, "bike_id": "5ab7a1cba5970dcff4b58a8109b2aabc", "lat": 38.90781716666667, "fusion_lon": 0.0, "fusion_lat": 0.0, "type": "electric_scooter", "name": "5ab7a1cba5970dcff4b58a8109b2aabc", "is_disabled": 0, "rental_uris": {"ios": "https://dc.lft.to/lastmile_qr_scan", "android": "https://dc.lft.to/lastmile_qr_scan"}, "is_reserved": 0}, {"lon": -77.00936216666666, "bike_id": "db522a0e998954d483efbfb4378d718a", "lat": 38.88314416666667, "fusion_lon": 0.0, "fusion_lat": 0.0, "type": "electric_scooter", "name": "db522a0e998954d483efbfb4378d718a", "is_disabled": 0, "rental_uris": {"ios": "https://dc.lft.to/lastmile_qr_scan", "android": "https://dc.lft.to/lastmile_qr_scan"}, "is_reserved": 0}, {"lon": -77.0246705, "bike_id": "a7cb71f5ceb81e62b777ab00c8a886c2", "lat": 38.9039965, "fusion_lon": 0.0, "fusion_lat": 0.0, "type": "electric_scooter", "name": "a7cb71f5ceb81e62b777ab00c8a886c2", "is_disabled": 0, "rental_uris": {"ios": "https://dc.lft.to/lastmile_qr_scan", "android": "https://dc.lft.to/lastmile_qr_scan"}, "is_reserved": 0}, {"lon": -77.00716366666667, "bike_id": "9a9181f53fcdecd0700c3ed5481c6176", "lat": 38.833429333333335, "fusion_lon": 0.0, "fusion_lat": 0.0, "type": "electric_bike", "name": "9a9181f53fcdecd0700c3ed5481c6176", "is_disabled": 0, "rental_uris": {"ios": "https://dc.lft.to/lastmile_qr_scan", "android": "https://dc.lft.to/lastmile_qr_scan"}, "is_reserved": 0}, {"lon": -77.04107766666667, "bike_id": "21357a5044718bd7c8fc302279c9bf07", "lat": 38.92799733333333, "fusion_lon": 0.0, "fusion_lat": 0.0, "type": "electric_scooter", "name": "21357a5044718bd7c8fc302279c9bf07", "is_disabled": 0, "rental_uris": {"ios": "https://dc.lft.to/lastmile_qr_scan", "android": "https://dc.lft.to/lastmile_qr_scan"}, "is_reserved": 0}, {"lon": -76.96257066666666, "bike_id": "cb170385ed773fc34586591c7b9bdb06", "lat": 38.882433666666664, "fusion_lon": 0.0, "fusion_lat": 0.0, "type": "electric_bike", "name": "cb170385ed773fc34586591c7b9bdb06", "is_disabled": 0, "rental_uris": {"ios": "https://dc.lft.to/lastmile_qr_scan", "android": "https://dc.lft.to/lastmile_qr_scan"}, "is_reserved": 0}, {"lon": -77.0383805, "bike_id": "aca57b9079b07d0a56f784d2b835c39d", "lat": 38.9079635, "fusion_lon": 0.0, "fusion_lat": 0.0, "type": "electric_scooter", "name": "aca57b9079b07d0a56f784d2b835c39d", "is_disabled": 0, "rental_uris": {"ios": "https://dc.lft.to/lastmile_qr_scan", "android": "https://dc.lft.to/lastmile_qr_scan"}, "is_reserved": 0}, {"lon": -77.025918, "bike_id": "2d3be0ff28a61d4500c3aa9af2ebf0ed", "lat": 38.90497716666667, "fusion_lon": 0.0, "fusion_lat": 0.0, "type": "electric_scooter", "name": "2d3be0ff28a61d4500c3aa9af2ebf0ed", "is_disabled": 0, "rental_uris": {"ios": "https://dc.lft.to/lastmile_qr_scan", "android": "https://dc.lft.to/lastmile_qr_scan"}, "is_reserved": 0}, {"lon": -76.98936183333333, "bike_id": "64db5ab68b580fffc44faa6c3e86009f", "lat": 38.9183665, "fusion_lon": 0.0, "fusion_lat": 0.0, "type": "electric_scooter", "name": "64db5ab68b580fffc44faa6c3e86009f", "is_disabled": 0, "rental_uris": {"ios": "https://dc.lft.to/lastmile_qr_scan", "android": "https://dc.lft.to/lastmile_qr_scan"}, "is_reserved": 0}, {"lon": -77.04991866666667, "bike_id": "86f9f51ba638e07c02e1e118397f5315", "lat": 38.894623, "fusion_lon": 0.0, "fusion_lat": 0.0, "type": "electric_scooter", "name": "86f9f51ba638e07c02e1e118397f5315", "is_disabled": 0, "rental_uris": {"ios": "https://dc.lft.to/lastmile_qr_scan", "android": "https://dc.lft.to/lastmile_qr_scan"}, "is_reserved": 0}, {"lon": -77.0449435, "bike_id": "a11bfd1c78ba4b92eb95026724cdda83", "lat": 38.91938016666667, "fusion_lon": 0.0, "fusion_lat": 0.0, "type": "electric_scooter", "name": "a11bfd1c78ba4b92eb95026724cdda83", "is_disabled": 0, "rental_uris": {"ios": "https://dc.lft.to/lastmile_qr_scan", "android": "https://dc.lft.to/lastmile_qr_scan"}, "is_reserved": 0}, {"lon": -77.04874283333334, "bike_id": "f0513547f72bca57901cdf65a347a7c6", "lat": 38.909756, "fusion_lon": 0.0, "fusion_lat": 0.0, "type": "electric_scooter", "name": "f0513547f72bca57901cdf65a347a7c6", "is_disabled": 0, "rental_uris": {"ios": "https://dc.lft.to/lastmile_qr_scan", "android": "https://dc.lft.to/lastmile_qr_scan"}, "is_reserved": 0}, {"lon": -77.05150516666667, "bike_id": "145ef3329592db2f1a9ab4972aad91ac", "lat": 38.898679, "fusion_lon": 0.0, "fusion_lat": 0.0, "type": "electric_scooter", "name": "145ef3329592db2f1a9ab4972aad91ac", "is_disabled": 0, "rental_uris": {"ios": "https://dc.lft.to/lastmile_qr_scan", "android": "https://dc.lft.to/lastmile_qr_scan"}, "is_reserved": 0}, {"lon": -77.01282216666667, "bike_id": "77f9366b15f95e344eaa3de16030b971", "lat": 38.910325, "fusion_lon": 0.0, "fusion_lat": 0.0, "type": "electric_scooter", "name": "77f9366b15f95e344eaa3de16030b971", "is_disabled": 0, "rental_uris": {"ios": "https://dc.lft.to/lastmile_qr_scan", "android": "https://dc.lft.to/lastmile_qr_scan"}, "is_reserved": 0}, {"lon": -77.02150166666667, "bike_id": "0f0e5fb83e0141d7951eb44cade8c4de", "lat": 38.894067666666665, "fusion_lon": 0.0, "fusion_lat": 0.0, "type": "electric_scooter", "name": "0f0e5fb83e0141d7951eb44cade8c4de", "is_disabled": 0, "rental_uris": {"ios": "https://dc.lft.to/lastmile_qr_scan", "android": "https://dc.lft.to/lastmile_qr_scan"}, "is_reserved": 0}, {"lon": -77.03661433333333, "bike_id": "9295845cb8d8f6462bf2dd84f9270a8e", "lat": 38.918736833333334, "fusion_lon": 0.0, "fusion_lat": 0.0, "type": "electric_scooter", "name": "9295845cb8d8f6462bf2dd84f9270a8e", "is_disabled": 0, "rental_uris": {"ios": "https://dc.lft.to/lastmile_qr_scan", "android": "https://dc.lft.to/lastmile_qr_scan"}, "is_reserved": 0}, {"lon": -76.97414683333334, "bike_id": "314b6c97d9082db44faadbfdbed88424", "lat": 38.9323755, "fusion_lon": 0.0, "fusion_lat": 0.0, "type": "electric_bike", "name": "314b6c97d9082db44faadbfdbed88424", "is_disabled": 0, "rental_uris": {"ios": "https://dc.lft.to/lastmile_qr_scan", "android": "https://dc.lft.to/lastmile_qr_scan"}, "is_reserved": 0}, {"lon": -77.03604533333333, "bike_id": "6f28858b4bf2274331b9ad8224ac3282", "lat": 38.91738816666667, "fusion_lon": 0.0, "fusion_lat": 0.0, "type": "electric_scooter", "name": "6f28858b4bf2274331b9ad8224ac3282", "is_disabled": 0, "rental_uris": {"ios": "https://dc.lft.to/lastmile_qr_scan", "android": "https://dc.lft.to/lastmile_qr_scan"}, "is_reserved": 0}, {"lon": -77.02430983333333, "bike_id": "4a2f9ed44f9da4d608dcdf4787b458d5", "lat": 38.93599916666667, "fusion_lon": 0.0, "fusion_lat": 0.0, "type": "electric_scooter", "name": "4a2f9ed44f9da4d608dcdf4787b458d5", "is_disabled": 0, "rental_uris": {"ios": "https://dc.lft.to/lastmile_qr_scan", "android": "https://dc.lft.to/lastmile_qr_scan"}, "is_reserved": 0},