{"data": {"bikes": [{"is_reserved": 0, "rental_uris": {"ios": "https://dc.lft.to/lastmile_qr_scan", "android": "https://dc.lft.to/lastmile_qr_scan"}, "is_disabled": 0, "fusion_lon": 0.0, "lat": 38.9214705, "type": "electric_scooter", "fusion_lat": 0.0, "bike_id": "be7f52140a3509500690349fb43aecc4", "name": "be7f52140a3509500690349fb43aecc4", "lon": -77.04223383333333}, {"is_reserved": 0, "rental_uris": {"ios": "https://dc.lft.to/lastmile_qr_scan", "android": "https://dc.lft.to/lastmile_qr_scan"}, "is_disabled": 0, "fusion_lon": 0.0, "lat": 38.88648533333333, "type": "electric_bike", "fusion_lat": 0.0, "bike_id": "ca6715e7afd316944ac91ebb543b7f70", "name": "ca6715e7afd316944ac91ebb543b7f70", "lon": -77.16228316666667}, {"is_reserved": 0, "rental_uris": {"ios": "https://dc.lft.to/lastmile_qr_scan", "android": "https://dc.lft.to/lastmile_qr_scan"}, "is_disabled": 0, "fusion_lon": 0.0, "lat": 38.91895316666667, "type": "electric_scooter", "fusion_lat": 0.0, "bike_id": "642338a015f88a5635fb2817ac39b6e4", "name": "642338a015f88a5635fb2817ac39b6e4", "lon": -77.03915883333333}, {"is_reserved": 0, "rental_uris": {"ios": "https://dc.lft.to/lastmile_qr_scan", "android": "https://dc.lft.to/lastmile_qr_scan"}, "is_disabled": 0, "fusion_lon": 0.0, "lat": 38.89620333333333, "type": "electric_scooter", "fusion_lat": 0.0, "bike_id": "cd2a24f2e3bd7bda0f96abee3e3ec3d5", "name": "cd2a24f2e3bd7bda0f96abee3e3ec3d5", "lon": -76.95591066666667}, {"is_reserved": 0, "rental_uris": {"ios": "https://dc.lft.to/lastmile_qr_scan", "android": "https://dc.lft.to/lastmile_qr_scan"}, "is_disabled": 0, "fusion_lon": 0.0, "lat": 38.917187166666665, "type": "electric_scooter", "fusion_lat": 0.0, "bike_id": "8d6b4d85ab3e760af2ffe977b8211709", "name": "8d6b4d85ab3e760af2ffe977b8211709", "lon": -77.03839366666666}, {"is_reserved": 0, "rental_uris": {"ios": "https://dc.lft.to/lastmile_qr_scan", "android": "https://dc.lft.to/lastmile_qr_scan"}, "is_disabled": 0, "fusion_lon": 0.0, "lat": 38.91992966666667, "type": "electric_scooter", "fusion_lat": 0.0, "bike_id": "7dd8864aa7f67912347618119ed8efab", "name": "7dd8864aa7f67912347618119ed8efab", "lon": -77.0476625}, {"is_reserved": 0, "rental_uris": {"ios": "https://dc.lft.to/lastmile_qr_scan", "android": "https://dc.lft.to/lastmile_qr_scan"}, "is_disabled": 0, "fusion_lon": 0.0, "lat": 38.90528616666667, "type": "electric_scooter", "fusion_lat": 0.0, "bike_id": "f284b6e0f505e7a48cc1327b85db4c8d", "name": "f284b6e0f505e7a48cc1327b85db4c8d", "lon": -77.0347285}, {"is_reserved": 0, "rental_uris": {"ios": "https://dc.lft.to/lastmile_qr_scan", "android": "https://dc.lft.to/lastmile_qr_scan"}, "is_disabled": 0, "fusion_lon": 0.0, "lat": 38.887432, "type": "electric_scooter", "fusion_lat": 0.0, "bike_id": "42f998b4be88666678655c7f5302754d", "name": "42f998b4be88666678655c7f5302754d", "lon": -77.02170566666666}, {"is_reserved": 0, "rental_uris": {"ios": "https://dc.lft.to/lastmile_qr_scan", "android": "https://dc.lft.to/lastmile_qr_scan"}, "is_disabled": 0, "fusion_lon": 0.0, "lat": 38.9146435, "type": "electric_scooter", "fusion_lat": 0.0, "bike_id": "20e4b1016cb54740235378e1c16836ca", "name": "20e4b1016cb54740235378e1c16836ca", "lon": -77.031969}, {"is_reserved": 0, "rental_uris": {"ios": "https://dc.lft.to/lastmile_qr_scan", "android": "https://dc.lft.to/lastmile_qr_scan"}, "is_disabled": 0, "fusion_lon": 0.0, "lat": 38.8983445, "type": "electric_scooter", "fusion_lat": 0.0, "bike_id": "200de30141b9478ad79ce5f990f572cf", "name": "200de30141b9478ad79ce5f990f572cf", "lon": -77.01165816666666}, {"is_reserved": 0, "rental_uris": {"ios": "https://dc.lft.to/lastmile_qr_scan", "android": "https://dc.lft.to/lastmile_qr_scan"}, "is_disabled": 0, "fusion_lon": 0.0, "lat": 38.914036, "type": "electric_scooter", "fusion_lat": 0.0, "bike_id": "df3ec0077823910dc59def0c49f5a681", "name": "df3ec0077823910dc59def0c49f5a681", "lon": -77.03061116666667}, {"is_reserved": 0, "rental_uris": {"ios": "https://dc.lft.to/lastmile_qr_scan", "android": "https://dc.lft.to/lastmile_qr_scan"}, "is_disabled": 0, "fusion_lon": 0.0, "lat": 38.89608333333334, "type": "electric_scooter", "fusion_lat": 0.0, "bike_id": "8b4b70390cbaac2cff9900040fc00a5e", "name": "8b4b70390cbaac2cff9900040fc00a5e", "lon": -77.044161}, {"is_reserved": 0, "rental_uris": {"ios": "https://dc.lft.to/lastmile_qr_scan", "android": "https://dc.lft.to/lastmile_qr_scan"}, "is_disabled": 0, "fusion_lon": 0.0, "lat": 38.923172666666666, "type": "electric_scooter", "fusion_lat": 0.0, "bike_id": "77f7369d2c1a8d600ac15f14957c0307", "name": "77f7369d2c1a8d600ac15f14957c0307", "lon": -77.0395255}, {"is_reserved": 0, "rental_uris": {"ios": "https://dc.lft.to/lastmile_qr_scan", "android": "https://dc.lft.to/lastmile_qr_scan"}, "is_disabled": 0, "fusion_lon": 0.0, "lat": 38.90371616666667, "type": "electric_scooter", "fusion_lat": 0.0, "bike_id": "0244c8a1613469f569012e39fc54abf5", "name": "0244c8a1613469f569012e39fc54abf5", "lon": -77.04459683333333}, {"is_reserved": 0, "rental_uris": {"ios": "https://dc.lft.to/lastmile_qr_scan", "android": "https://dc.lft.to/lastmile_qr_scan"}, "is_disabled": 0, "fusion_lon": 0.0, "lat": 38.90157116666666, "type": "electric_scooter", "fusion_lat": 0.0, "bike_id": "f691105e0ee9ae63e05c14da1e4ce0ad", "name": "f691105e0ee9ae63e05c14da1e4ce0ad", "lon": -77.02861916666667}, {"is_reserved": 0, "rental_uris": {"ios": "https://dc.lft.to/lastmile_qr_scan", "android": "https://dc.lft.to/lastmile_qr_scan"}, "is_disabled": 0, "fusion_lon": 0.0, "lat": 38.94396783333333, "type": "electric_scooter", "fusion_lat": 0.0, "bike_id": "35865bedb4a4a8aaa66cbf5af846bc3a", "name": "35865bedb4a4a8aaa66cbf5af846bc3a", "lon": -77.05785516666667}, {"is_reserved": 0, "rental_uris": {"ios": "https://dc.lft.to/lastmile_qr_scan", "android": "https://dc.lft.to/lastmile_qr_scan"}, "is_disabled": 0, "fusion_lon": 0.0, "lat": 38.9032815, "type": "electric_scooter", "fusion_lat": 0.0, "bike_id": "390ec9569f45420bf0a9c3cccddb4960", "name": "390ec9569f45420bf0a9c3cccddb4960", "lon": -77.04348983333334}, {"is_reserved": 0, "rental_uris": {"ios": "https://dc.lft.to/lastmile_qr_scan", "android": "https://dc.lft.to/lastmile_qr_scan"}, "is_disabled": 0, "fusion_lon": 0.0, "lat": 38.92187416666667, "type": "electric_scooter", "fusion_lat": 0.0, "bike_id": "09140dede8b9d1c99f309b6d7d615407", "name": "09140dede8b9d1c99f309b6d7d615407", "lon": -77.03201433333334}, {"is_reserved": 0, "rental_uris": {"ios": "https://dc.lft.to/lastmile_qr_scan", "android": "https://dc.lft.to/lastmile_qr_scan"}, "is_disabled": 0, "fusion_lon": 0.0, "lat": 38.86910916666667, "type": "electric_scooter", "fusion_lat": 0.0, "bike_id": "a5977617af68580c167f62a071d7b98f", "name": "a5977617af68580c167f62a071d7b98f", "lon": -76.98299166666666}, {"is_reserved": 0, "rental_uris": {"ios": "https://dc.lft.to/lastmile_qr_scan", "android": "https://dc.lft.to/lastmile_qr_scan"}, "is_disabled": 0, "fusion_lon": 0.0, "lat": 38.9043945, "type": "electric_scooter", "fusion_lat": 0.0, "bike_id": "ff715e0be66e3bdae91fd1f40b869e56", "name": "ff715e0be66e3bdae91fd1f40b869e56", "lon": -77.03241083333333}, {"is_reserved": 0, "rental_uris": {"ios": "https://dc.lft.to/lastmile_qr_scan", "android": "https://dc.lft.to/lastmile_qr_scan"}, "is_disabled": 0, "fusion_lon": 0.0, "lat": 38.9865645, "type": "electric_bike", "fusion_lat": 0.0, "bike_id": "239cf37cf18ffc2ed444426a878ebdb3", "name": "239cf37cf18ffc2ed444426a878ebdb3", "lon": -77.05640716666667}, {"is_reserved": 0, "rental_uris": {"ios": "https://dc.lft.to/lastmile_qr_scan", "android": "https://dc.lft.to/lastmile_qr_scan"}, "is_disabled": 0, "fusion_lon": 0.0, "lat": 38.88503333333333, "type": "electric_scooter", "fusion_lat": 0.0, "bike_id": "755dbbab77c780d12c84905be22bd25a", "name": "755dbbab77c780d12c84905be22bd25a", "lon": -77.00570783333333}, {"is_reserved": 0, "rental_uris": {"ios": "https://dc.lft.to/lastmile_qr_scan", "android": "https://dc.lft.to/lastmile_qr_scan"}, "is_disabled": 0, "fusion_lon": 0.0, "lat": 38.87942416666667, "type": "electric_scooter", "fusion_lat": 0.0, "bike_id": "9190c9d7514b2ea4160fea550915c5fc", "name": "9190c9d7514b2ea4160fea550915c5fc", "lon": -77.00492416666667}, {"is_reserved": 0, "rental_uris": {"ios": "https://dc.lft.to/lastmile_qr_scan", "android": "https://dc.lft.to/lastmile_qr_scan"}, "is_disabled": 0, "fusion_lon": 0.0, "lat": 38.911719166666664, "type": "electric_scooter", "fusion_lat": 0.0, "bike_id": "9aea5ddad9ce1d9214b13eea7d6c1d16", "name": "9aea5ddad9ce1d9214b13eea7d6c1d16", "lon": -77.06829116666667}, {"is_reserved": 0, "rental_uris": {"ios": "https://dc.lft.to/lastmile_qr_scan", "android": "https://dc.lft.to/lastmile_qr_scan"}, "is_disabled": 0, "fusion_lon": 0.0, "lat": 38.8442425, "type": "electric_scooter", "fusion_lat": 0.0, "bike_id": "8c89875cda1e199a7103d8d8251f00d1", "name": "8c89875cda1e199a7103d8d8251f00d1", "lon": -76.99776683333333}, {"is_reserved": 0, "rental_uris": {"ios": "https://dc.lft.to/lastmile_qr_scan", "android": "https://dc.lft.to/lastmile_qr_scan"}, "is_disabled": 0, "fusion_lon": 0.0, "lat": 38.939733, "type": "electric_scooter", "fusion_lat": 0.0, "bike_id": "24222e2e4cef2d193a3ad41e69bb4430", "name": "24222e2e4cef2d193a3ad41e69bb4430", "lon": -77.0289485}, {"is_reserved": 0, "rental_uris": {"ios": "https://dc.lft.to/lastmile_qr_scan", "android": "https://dc.lft.to/lastmile_qr_scan"}, "is_disabled": 0, "fusion_lon": 0.0, "lat": 38.892206333333334, "type": "electric_scooter", "fusion_lat": 0.0, "bike_id": "0d5bc4e7c3977202292c6daded13dad6", "name": "0d5bc4e7c3977202292c6daded13dad6", "lon": -77.04653516666667}, {"is_reserved": 0, "rental_uris": {"ios": "https://dc.lft.to/lastmile_qr_scan", "android": "https://dc.lft.to/lastmile_qr_scan"}, "is_disabled": 0, "fusion_lon": 0.0, "lat": 38.913004666666666, "type": "electric_scooter", "fusion_lat": 0.0, "bike_id": "f4995472e7098c17c042f0670df4421b", "name": "f4995472e7098c17c042f0670df4421b", "lon": -77.01965333333334}, {"is_reserved": 0, "rental_uris": {"ios": "https://dc.lft.to/lastmile_qr_scan", "android": "https://dc.lft.to/lastmile_qr_scan"}, "is_disabled": 0, "fusion_lon": 0.0, "lat": 38.92475483333333, "type": "electric_scooter", "fusion_lat": 0.0, "bike_id": "938f1397d9a3c9af01e92774671a1912", "name": "938f1397d9a3c9af01e92774671a1912", "lon": -77.026282}, {"is_reserved": 0, "rental_uris": {"ios": "https://dc.lft.to/lastmile_qr_scan", "android": "https://dc.lft.to/lastmile_qr_scan"}, "is_disabled": 0, "fusion_lon": 0.0, "lat": 38.918041833333334, "type": "electric_scooter", "fusion_lat": 0.0, "bike_id": "0772436b8b248dfc02ee5297f7ac6ae2", "name": "0772436b8b248dfc02ee5297f7ac6ae2", "lon": -77.03301683333333}, {"is_reserved": 0, "rental_uris": {"ios": "https://dc.lft.to/lastmile_qr_scan", "android": "https://dc.lft.to/lastmile_qr_scan"}, "is_disabled": 0, "fusion_lon": 0.0, "lat": 38.91718916666667, "type": "electric_scooter", "fusion_lat": 0.0, "bike_id": "09077cfe4d962ce3b2da0211e77ad411", "name": "09077cfe4d962ce3b2da0211e77ad411", "lon": -77.03836533333333}, {"is_reserved": 0, "rental_uris": {"ios": "https://dc.lft.to/lastmile_qr_scan", "android": "https://dc.lft.to/lastmile_qr_scan"}, "is_disabled": 0, "fusion_lon": 0.0, "lat": 38.887433, "type": "electric_scooter", "fusion_lat": 0.0, "bike_id": "c411d125020346e182ceb1393a69b7ff", "name": "c411d125020346e182ceb1393a69b7ff", "lon": -77.02570016666667}, {"is_reserved": 0, "rental_uris": {"ios": "https://dc.lft.to/lastmile_qr_scan", "android": "https://dc.lft.to/lastmile_qr_scan"}, "is_disabled": 0, "fusion_lon": 0.0, "lat": 38.931898, "type": "electric_scooter", "fusion_lat": 0.0, "bike_id": "51a0d89f1553ebc4461b75952d637a22", "name": "51a0d89f1553ebc4461b75952d637a22", "lon": -77.03851533333334}, {"is_reserved": 0, "rental_uris": {"ios": "https://dc.lft.to/lastmile_qr_scan", "android": "https://dc.lft.to/lastmile_qr_scan"}, "is_disabled": 0, "fusion_lon": 0.0, "lat": 38.859432166666664, "type": "electric_scooter", "fusion_lat": 0.0, "bike_id": "def7970cfe487897a76ef345dc92fa74", "name": "def7970cfe487897a76ef345dc92fa74", "lon": -76.99098916666667}, {"is_reserved": 0, "rental_uris": {"ios": "https://dc.lft.to/lastmile_qr_scan", "android": "https://dc.lft.to/lastmile_qr_scan"}, "is_disabled": 0, "fusion_lon": 0.0, "lat": 38.9169955, "type": "electric_scooter", "fusion_lat": 0.0, "bike_id": "a28be525bddf658f0a8e7e3db8d43031", "name": "a28be525bddf658f0a8e7e3db8d43031", "lon": -77.04611966666667}, {"is_reserved": 0, "rental_uris": {"ios": "https://dc.lft.to/lastmile_qr_scan", "android": "https://dc.lft.to/lastmile_qr_scan"}, "is_disabled": 0, "fusion_lon": 0.0, "lat": 38.90332, "type": "electric_bike", "fusion_lat": 0.0, "bike_id": "248bcc6fb6f4eff51bba848c24dec2fb", "name": "248bcc6fb6f4eff51bba848c24dec2fb", "lon": -77.01626666666667}, {"is_reserved": 0, "rental_uris": {"ios": "https://dc.lft.to/lastmile_qr_scan", "android": "https://dc.lft.to/lastmile_qr_scan"}, "is_disabled": 0, "fusion_lon": 0.0, "lat": 38.905359, "type": "electric_scooter", "fusion_lat": 0.0, "bike_id": "5c41581ee5f8689069e87ca9b34bcdc1", "name": "5c41581ee5f8689069e87ca9b34bcdc1", "lon": -77.047507}, {"is_reserved": 0, "rental_uris": {"ios": "https://dc.lft.to/lastmile_qr_scan", "android": "https://dc.lft.to/lastmile_qr_scan"}, "is_disabled": 0, "fusion_lon": 0.0, "lat": 38.842923666666664, "type": "electric_scooter", "fusion_lat": 0.0, "bike_id": "305b8782a56ff92df65b7420d4bb9957", "name": "305b8782a56ff92df65b7420d4bb9957", "lon": -76.9994985}, {"is_reserved": 0, "rental_uris": {"ios": "https://dc.lft.to/lastmile_qr_scan", "android": "https://dc.lft.to/lastmile_qr_scan"}, "is_disabled": 0, "fusion_lon": 0.0, "lat": 38.8991455, "type": "electric_scooter", "fusion_lat": 0.0, "bike_id": "da03408191931c05c8a15516b6d3d147", "name": "da03408191931c05c8a15516b6d3d147", "lon": -76.9338045}, {"is_reserved": 0, "rental_uris": {"ios": "https://dc.lft.to/lastmile_qr_scan", "android": "https://dc.lft.to/lastmile_qr_scan"}, "is_disabled": 0, "fusion_lon": 0.0, "lat": 38.903342, "type": "electric_scooter", "fusion_lat": 0.0, "bike_id": "417fe0f66172c356207b1eef2596d03b", "name": "417fe0f66172c356207b1eef2596d03b", "lon": -77.06597116666667}, {"is_reserved": 0, "rental_uris": {"ios": "https://dc.lft.to/lastmile_qr_scan", "android": "https://dc.lft.to/lastmile_qr_scan"}, "is_disabled": 0, "fusion_lon": 0.0, "lat": 38.95548633333333, "type": "electric_bike", "fusion_lat": 0.0, "bike_id": "7f800e8ca5e4bfbc4e184f1ad16fa2e8", "name": "7f800e8ca5e4bfbc4e184f1ad16fa2e8", "lon": -76.93537816666667}, {"is_reserved": 0, "rental_uris": {"ios": "https://dc.lft.to/lastmile_qr_scan", "android": "https://dc.lft.to/lastmile_qr_scan"}, "is_disabled": 0, "fusion_lon": 0.0, "lat": 38.898243666666666, "type": "electric_scooter", "fusion_lat": 0.0, "bike_id": "dd8370d1fa3ed946d52d0e03077fecd3", "name": "dd8370d1fa3ed946d52d0e03077fecd3", "lon": -77.03297366666666}, {"is_reserved": 0, "rental_uris": {"ios": "https://dc.lft.to/lastmile_qr_scan", "android": "https://dc.lft.to/lastmile_qr_scan"}, "is_disabled": 0, "fusion_lon": 0.0, "lat": 38.92124116666667, "type": "electric_scooter", "fusion_lat": 0.0, "bike_id": "9d57a6f08400fe80a18426d031c1fa93", "name": "9d57a6f08400fe80a18426d031c1fa93", "lon": -77.044276}, {"is_reserved": 0, "rental_uris": {"ios": "https://dc.lft.to/lastmile_qr_scan", "android": "https://dc.lft.to/lastmile_qr_scan"}, "is_disabled": 0, "fusion_lon": 0.0, "lat": 38.86346533333333, "type": "electric_scooter", "fusion_lat": 0.0, "bike_id": "c6fb0e49bfb3c285cc0fcfe19da23900", "name": "c6fb0e49bfb3c285cc0fcfe19da23900", "lon": -76.99002183333333}, {"is_reserved": 0, "rental_uris": {"ios": "https://dc.lft.to/lastmile_qr_scan", "android": "https://dc.lft.to/lastmile_qr_scan"}, "is_disabled": 0, "fusion_lon": 0.0, "lat": 38.907174166666664, "type": "electric_scooter", "fusion_lat": 0.0, "bike_id": "b605a35c96b6cf5f0ff20bcb3a9fa4b2", "name": "b605a35c96b6cf5f0ff20bcb3a9fa4b2", "lon": -77.02501633333334}, {"is_reserved": 0, "rental_uris": {"ios": "https://dc.lft.to/lastmile_qr_scan", "android": "https://dc.lft.to/lastmile_qr_scan"}, "is_disabled": 0, "fusion_lon": 0.0, "lat": 38.957790333333335, "type": "electric_scooter", "fusion_lat": 0.0, "bike_id": "87aa4192072fd91a74e0ac043229eba2", "name": "87aa4192072fd91a74e0ac043229eba2", "lon": -77.02464183333333}, {"is_reserved": 0, "rental_uris": {"ios": "https://dc.lft.to/lastmile_qr_scan", "android": "https://dc.lft.to/lastmile_qr_scan"}, "is_disabled": 0, "fusion_lon": 0.0, "lat": 38.932312833333334, "type": "electric_scooter", "fusion_lat": 0.0, "bike_id": "f708f97b490a5b49a6b2df2dbb37068d", "name": "f708f97b490a5b49a6b2df2dbb37068d", "lon": -77.03266183333334}, {"is_reserved": 0, "rental_uris": {"ios": "https://dc.lft.to/lastmile_qr_scan", "android": "https://dc.lft.to/lastmile_qr_scan"}, "is_disabled": 0, "fusion_lon": 0.0, "lat": 38.902449, "type": "electric_scooter", "fusion_lat": 0.0, "bike_id": "b1e3c4f3a4b850b32b90f19976437411", "name": "b1e3c4f3a4b850b32b90f19976437411", "lon": -77.0264885}, {"is_reserved": 0, "rental_uris": {"ios": "https://dc.lft.to/lastmile_qr_scan", "android": "https://dc.lft.to/lastmile_qr_scan"}, "is_disabled": 0, "fusion_lon": 0.0, "lat": 38.87186116666667, "type": "electric_bike", "fusion_lat": 0.0, "bike_id": "9d8412acb909e1f0ba2580823863810a", "name": "9d8412acb909e1f0ba2580823863810a", "lon": -77.08403383333334}, {"is_reserved": 0, "rental_uris": {"ios": "https://dc.lft.to/lastmile_qr_scan", "android": "https://dc.lft.to/lastmile_qr_scan"}, "is_disabled": 0, "fusion_lon": 0.0, "lat": 38.86906416666667, "type": "electric_bike", "fusion_lat": 0.0, "bike_id": "91aefa56204753739d0dc970a6111f5e", "name": "91aefa56204753739d0dc970a6111f5e", "lon": -77.131784}, {"is_reserved": 0, "rental_uris": {"ios": "https://dc.lft.to/lastmile_qr_scan", "android": "https://dc.lft.to/lastmile_qr_scan"}, "is_disabled": 0, "fusion_lon": 0.0, "lat": 38.9110425, "type": "electric_scooter", "fusion_lat": 0.0, "bike_id": "bece29275bd9a3eaba3a74ee453195f7", "name": "bece29275bd9a3eaba3a74ee453195f7", "lon": -77.04839583333333}, {"is_reserved": 0, "rental_uris": {"ios": "https://dc.lft.to/lastmile_qr_scan", "android": "https://dc.lft.to/lastmile_qr_scan"}, "is_disabled": 0, "fusion_lon": 0.0, "lat": 38.92594866666666, "type": "electric_scooter", "fusion_lat": 0.0, "bike_id": "e151e5af7c448f03f0ad16684d250590", "name": "e151e5af7c448f03f0ad16684d250590", "lon": -77.0322785}, {"is_reserved": 0, "rental_uris": {"ios": "https://dc.lft.to/lastmile_qr_scan", "android": "https://dc.lft.to/lastmile_qr_scan"}, "is_disabled": 0, "fusion_lon": 0.0, "lat": 38.9250595, "type": "electric_scooter", "fusion_lat": 0.0, "bike_id": "78c7a80215ad0cd2de54b3c22276c598", "name": "78c7a80215ad0cd2de54b3c22276c598", "lon": -77.03879033333334}, {"is_reserved": 0, "rental_uris": {"ios": "https://dc.lft.to/lastmile_qr_scan", "android": "https://dc.lft.to/lastmile_qr_scan"}, "is_disabled": 0, "fusion_lon": 0.0, "lat": 38.892304333333335, "type": "electric_scooter", "fusion_lat": 0.0, "bike_id": "f6847ee08bad6963af56a9106d477cb9", "name": "f6847ee08bad6963af56a9106d477cb9", "lon": -77.04639166666666}, {"is_reserved": 0, "rental_uris": {"ios": "https://dc.lft.to/lastmile_qr_scan", "android": "https://dc.lft.to/lastmile_qr_scan"}, "is_disabled": 0, "fusion_lon": 0.0, "lat": 38.92507616666666, "type": "electric_scooter", "fusion_lat": 0.0, "bike_id": "a7d32e456efc5ef89d1841cc8ad2603d", "name": "a7d32e456efc5ef89d1841cc8ad2603d", "lon": -77.0215905}, {"is_reserved": 0, "rental_uris": {"ios": "https://dc.lft.to/lastmile_qr_scan", "android": "https://dc.lft.to/lastmile_qr_scan"}, "is_disabled": 0, "fusion_lon": 0.0, "lat": 38.89367166666667, "type": "electric_scooter", "fusion_lat": 0.0, "bike_id": "a935d84a9fdf8e67914d32d57375bf6b", "name": "a935d84a9fdf8e67914d32d57375bf6b", "lon": -76.94964783333333}, {"is_reserved": 0, "rental_uris": {"ios": "https://dc.lft.to/lastmile_qr_scan", "android": "https://dc.lft.to/lastmile_qr_scan"}, "is_disabled": 0, "fusion_lon": 0.0, "lat": 38.8981605, "type": "electric_scooter", "fusion_lat": 0.0, "bike_id": "d399421a9bad174433222c0742063a41", "name": "d399421a9bad174433222c0742063a41", "lon": -77.03325616666666}, {"is_reserved": 0, "rental_uris": {"ios": "https://dc.lft.to/lastmile_qr_scan", "android": "https://dc.lft.to/lastmile_qr_scan"}, "is_disabled": 0, "fusion_lon": 0.0, "lat": 38.89623316666667, "type": "electric_scooter", "fusion_lat": 0.0, "bike_id": "4e7b7d3becc0c21fc16360fd6f516f14", "name": "4e7b7d3becc0c21fc16360fd6f516f14", "lon": -76.99854016666667}, {"is_reserved": 0, "rental_uris": {"ios": "https://dc.lft.to/lastmile_qr_scan", "android": "https://dc.lft.to/lastmile_qr_scan"}, "is_disabled": 0, "fusion_lon": 0.0, "lat": 38.932846, "type": "electric_scooter", "fusion_lat": 0.0, "bike_id": "bfd67769cf7c998ba007e779e1152610", "name": "bfd67769cf7c998ba007e779e1152610", "lon": -77.03972883333333}, {"is_reserved": 0, "rental_uris": {"ios": "https://dc.lft.to/lastmile_qr_scan", "android": "https://dc.lft.to/lastmile_qr_scan"}, "is_disabled": 0, "fusion_lon": 0.0, "lat": 38.92040933333333, "type": "electric_scooter", "fusion_lat": 0.0, "bike_id": "0bd4cbe2cb465dee84bb6f4a8b46b59a", "name": "0bd4cbe2cb465dee84bb6f4a8b46b59a", "lon": -77.033389}, {"is_reserved": 0, "rental_uris": {"ios": "https://dc.lft.to/lastmile_qr_scan", "android": "https://dc.lft.to/lastmile_qr_scan"}, "is_disabled": 0, "fusion_lon": 0.0, "lat": 38.846574833333335, "type": "electric_bike", "fusion_lat": 0.0, "bike_id": "3c19650398f498a06162701e7f4dd3f1", "name": "3c19650398f498a06162701e7f4dd3f1", "lon": -76.97929916666666}, {"is_reserved": 0, "rental_uris": {"ios": "https://dc.lft.to/lastmile_qr_scan", "android": "https://dc.lft.to/lastmile_qr_scan"}, "is_disabled": 0, "fusion_lon": 0.0, "lat": 38.9201195, "type": "electric_scooter", "fusion_lat": 0.0, "bike_id": "c69f4274d4f8140396fd5d12422b09e9", "name": "c69f4274d4f8140396fd5d12422b09e9", "lon": -77.031295}, {"is_reserved": 0, "rental_uris": {"ios": "https://dc.lft.to/lastmile_qr_scan", "android": "https://dc.lft.to/lastmile_qr_scan"}, "is_disabled": 0, "fusion_lon": 0.0, "lat": 38.90564216666667, "type": "electric_scooter", "fusion_lat": 0.0, "bike_id": "cebd2361d9d674664ea1b80d0d7a0c5a", "name": "cebd2361d9d674664ea1b80d0d7a0c5a", "lon": -77.03082166666667}, {"is_reserved": 0, "rental_uris": {"ios": "https://dc.lft.to/lastmile_qr_scan", "android": "https://dc.lft.to/lastmile_qr_scan"}, "is_disabled": 0, "fusion_lon": 0.0, "lat": 38.928542, "type": "electric_scooter", "fusion_lat": 0.0, "bike_id": "301022a6e5e7c1b26913f5dbbd28d34f", "name": "301022a6e5e7c1b26913f5dbbd28d34f", "lon": -77.05436583333334}, {"is_reserved": 0, "rental_uris": {"ios": "https://dc.lft.to/lastmile_qr_scan", "android": "https://dc.lft.to/lastmile_qr_scan"}, "is_disabled": 0, "fusion_lon": 0.0, "lat": 38.89631583333333, "type": "electric_scooter", "fusion_lat": 0.0, "bike_id": "0d946937bba2a07d30980167eea2c2b6", "name": "0d946937bba2a07d30980167eea2c2b6", "lon": -77.026982}, {"is_reserved": 0, "rental_uris": {"ios": "https://dc.lft.to/lastmile_qr_scan", "android": "https://dc.lft.to/lastmile_qr_scan"}, "is_disabled": 0, "fusion_lon": 0.0, "lat": 38.89496483333333, "type": "electric_scooter", "fusion_lat": 0.0, "bike_id": "f5cc032f0fb7cc40451cf734256fb459", "name": "f5cc032f0fb7cc40451cf734256fb459", "lon": -77.02285816666667}, {"is_reserved": 0, "rental_uris": {"ios": "https://dc.lft.to/lastmile_qr_scan", "android": "https://dc.lft.to/lastmile_qr_scan"}, "is_disabled": 0, "fusion_lon": 0.0, "lat": 38.892234333333334, "type": "electric_scooter", "fusion_lat": 0.0, "bike_id": "f03aa96085b3555e1faa572027103612", "name": "f03aa96085b3555e1faa572027103612", "lon": -77.02844816666666}, {"is_reserved": 0, "rental_uris": {"ios": "https://dc.lft.to/lastmile_qr_scan", "android": "https://dc.lft.to/lastmile_qr_scan"}, "is_disabled": 0, "fusion_lon": 0.0, "lat": 38.90691183333333, "type": "electric_scooter", "fusion_lat": 0.0, "bike_id": "cceaca7d60d82c512235b9ffeee53799", "name": "cceaca7d60d82c512235b9ffeee53799", "lon": -77.06333083333334}, {"is_reserved": 0, "rental_uris": {"ios": "https://dc.lft.to/lastmile_qr_scan", "android": "https://dc.lft.to/lastmile_qr_scan"}, "is_disabled": 0, "fusion_lon": 0.0, "lat": 38.88987616666667, "type": "electric_scooter", "fusion_lat": 0.0, "bike_id": "c02fe80554c8b761fe30edec749b3787", "name": "c02fe80554c8b761fe30edec749b3787", "lon": -76.99513233333333}, {"is_reserved": 0, "rental_uris": {"ios": "https://dc.lft.to/lastmile_qr_scan", "android": "https://dc.lft.to/lastmile_qr_scan"}, "is_disabled": 0, "fusion_lon": 0.0, "lat": 38.9222455, "type": "electric_scooter", "fusion_lat": 0.0, "bike_id": "b3fa30796d4b9f3f45a9c055a09e6a01", "name": "b3fa30796d4b9f3f45a9c055a09e6a01", "lon": -77.03875733333334}, {"is_reserved": 0, "rental_uris": {"ios": "https://dc.lft.to/lastmile_qr_scan", "android": "https://dc.lft.to/lastmile_qr_scan"}, "is_disabled": 0, "fusion_lon": 0.0, "lat": 38.88093966666667, "type": "electric_scooter", "fusion_lat": 0.0, "bike_id": "62c0469c44306108ab09a899463df589", "name": "62c0469c44306108ab09a899463df589", "lon": -76.99254183333333}, {"is_reserved": 0, "rental_uris": {"ios": "https://dc.lft.to/lastmile_qr_scan", "android": "https://dc.lft.to/lastmile_qr_scan"}, "is_disabled": 0, "fusion_lon": 0.0, "lat": 38.907653833333335, "type": "electric_scooter", "fusion_lat": 0.0, "bike_id": "f8ce6e055f5d6f3a6cd47513492f0b19", "name": "f8ce6e055f5d6f3a6cd47513492f0b19", "lon": -77.02064933333334}, {"is_reserved": 0, "rental_uris": {"ios": "https://dc.lft.to/lastmile_qr_scan", "android": "https://dc.lft.to/lastmile_qr_scan"}, "is_disabled": 0, "fusion_lon": 0.0, "lat": 38.90773766666667, "type": "electric_bike", "fusion_lat": 0.0, "bike_id": "bdaca877b61438b04c040f81511a58d2", "name": "bdaca877b61438b04c040f81511a58d2", "lon": -76.99710816666666}, {"is_reserved": 0, "rental_uris": {"ios": "https://dc.lft.to/lastmile_qr_scan", "android": "https://dc.lft.to/lastmile_qr_scan"}, "is_disabled": 0, "fusion_lon": 0.0, "lat": 38.9020175, "type": "electric_scooter", "fusion_lat": 0.0, "bike_id": "06bb161c4d3629e8e1dba016cbb6d67c", "name": "06bb161c4d3629e8e1dba016cbb6d67c", "lon": -77.0237295}, {"is_reserved": 0, "rental_uris": {"ios": "https://dc.lft.to/lastmile_qr_scan", "android": "https://dc.lft.to/lastmile_qr_scan"}, "is_disabled": 0, "fusion_lon": 0.0, "lat": 38.86253383333333, "type": "electric_scooter", "fusion_lat": 0.0, "bike_id": "d82f166adcbbe8a477ffd10eee5233ff", "name": "d82f166adcbbe8a477ffd10eee5233ff", "lon": -76.986968}, {"is_reserved": 0, "rental_uris": {"ios": "https://dc.lft.to/lastmile_qr_scan", "android": "https://dc.lft.to/lastmile_qr_scan"}, "is_disabled": 0, "fusion_lon": 0.0, "lat": 38.86613833333333, "type": "electric_scooter", "fusion_lat": 0.0, "bike_id": "fa324928ef0b437d6001f3c9daa63be0", "name": "fa324928ef0b437d6001f3c9daa63be0", "lon": -76.986538}, {"is_reserved": 0, "rental_uris": {"ios": "https://dc.lft.to/lastmile_qr_scan", "android": "https://dc.lft.to/lastmile_qr_scan"}, "is_disabled": 0, "fusion_lon": 0.0, "lat": 38.906873166666664, "type": "electric_bike", "fusion_lat": 0.0, "bike_id": "2e21e01f247ddf858eee1b5d0d2ec7b7", "name": "2e21e01f247ddf858eee1b5d0d2ec7b7", "lon": -76.95188116666667}, {"is_reserved": 0, "rental_uris": {"ios": "https://dc.lft.to/lastmile_qr_scan", "android": "https://dc.lft.to/lastmile_qr_scan"}, "is_disabled": 0, "fusion_lon": 0.0, "lat": 38.844234166666666, "type": "electric_scooter", "fusion_lat": 0.0, "bike_id": "b6f6ca3e818d8d9d80f9ca5de8cdd13c", "name": "b6f6ca3e818d8d9d80f9ca5de8cdd13c", "lon": -76.9977965}, {"is_reserved": 0, "rental_uris": {"ios": "https://dc.lft.to/lastmile_qr_scan", "android": "https://dc.lft.to/lastmile_qr_scan"}, "is_disabled": 0, "fusion_lon": 0.0, "lat": 38.9093445, "type": "electric_scooter", "fusion_lat": 0.0, "bike_id": "6faf2124166d6fd3520435a1f2d1cdf9", "name": "6faf2124166d6fd3520435a1f2d1cdf9", "lon": -77.044898}, {"is_reserved": 0, "rental_uris": {"ios": "https://dc.lft.to/lastmile_qr_scan", "android": "https://dc.lft.to/lastmile_qr_scan"}, "is_disabled": 0, "fusion_lon": 0.0, "lat": 38.9097305, "type": "electric_scooter", "fusion_lat": 0.0, "bike_id": "2c121021ac5570d80da0e868e5a7f744", "name": "2c121021ac5570d80da0e868e5a7f744", "lon": -77.03867116666666}, {"is_reserved": 0, "rental_uris": {"ios": "https://dc.lft.to/lastmile_qr_scan", "android": "https://dc.lft.to/lastmile_qr_scan"}, "is_disabled": 0, "fusion_lon": 0.0, "lat": 38.89373283333333, "type": "electric_scooter", "fusion_lat": 0.0, "bike_id": "4bf421ecb4061c7a4ae3ad33345e5aea", "name": "4bf421ecb4061c7a4ae3ad33345e5aea", "lon": -76.95002583333333}, {"is_reserved": 0, "rental_uris": {"ios": "https://dc.lft.to/lastmile_qr_scan", "android": "https://dc.lft.to/lastmile_qr_scan"}, "is_disabled": 0, "fusion_lon": 0.0, "lat": 38.87348816666667, "type": "electric_scooter", "fusion_lat": 0.0, "bike_id": "e2c87aa486b3734f368dfaa38b1fabab", "name": "e2c87aa486b3734f368dfaa38b1fabab", "lon": -76.99161016666666}, {"is_reserved": 0, "rental_uris": {"ios": "https://dc.lft.to/lastmile_qr_scan", "android": "https://dc.lft.to/lastmile_qr_scan"}, "is_disabled": 0, "fusion_lon": 0.0, "lat": 38.9250035, "type": "electric_scooter", "fusion_lat": 0.0, "bike_id": "a5e2d335d8d681b6a110cc2a6657aa66", "name": "a5e2d335d8d681b6a110cc2a6657aa66", "lon": -77.00894416666667}, {"is_reserved": 0, "rental_uris": {"ios": "https://dc.lft.to/lastmile_qr_scan", "android": "https://dc.lft.to/lastmile_qr_scan"}, "is_disabled": 0, "fusion_lon": 0.0, "lat": 38.83938333333333, "type": "electric_bike", "fusion_lat": 0.0, "bike_id": "bdc17733104ddf5a55e6d23deb0bdca5", "name": "bdc17733104ddf5a55e6d23deb0bdca5", "lon": -77.078971}, {"is_reserved": 0, "rental_uris": {"ios": "https://dc.lft.to/lastmile_qr_scan", "android": "https://dc.lft.to/lastmile_qr_scan"}, "is_disabled": 0, "fusion_lon": 0.0, "lat": 38.920630333333335, "type": "electric_scooter", "fusion_lat": 0.0, "bike_id": "41a0655fd4124992b20eb164a7cdf30c", "name": "41a0655fd4124992b20eb164a7cdf30c", "lon": -77.02357116666667}, {"is_reserved": 0, "rental_uris": {"ios": "https://dc.lft.to/lastmile_qr_scan", "android": "https://dc.lft.to/lastmile_qr_scan"}, "is_disabled": 0, "fusion_lon": 0.0, "lat": 38.919954833333335, "type": "electric_scooter", "fusion_lat": 0.0, "bike_id": "e5fc7dca43e144d3f1b19f12a086c394", "name": "e5fc7dca43e144d3f1b19f12a086c394", "lon": -77.03219816666666}, {"is_reserved": 0, "rental_uris": {"ios": "https://dc.lft.to/lastmile_qr_scan", "android": "https://dc.lft.to/lastmile_qr_scan"}, "is_disabled": 0, "fusion_lon": 0.0, "lat": 38.882313833333335, "type": "electric_scooter", "fusion_lat": 0.0, "bike_id": "80a5c2042aa27cfaae8f9a0f0c5bfa77", "name": "80a5c2042aa27cfaae8f9a0f0c5bfa77", "lon": -76.92665083333333}, {"is_reserved": 0, "rental_uris": {"ios": "https://dc.lft.to/lastmile_qr_scan", "android": "https://dc.lft.to/lastmile_qr_scan"}, "is_disabled": 0, "fusion_lon": 0.0, "lat": 38.9382975, "type": "electric_scooter", "fusion_lat": 0.0, "bike_id": "46ad78ef73f0404f0f1bf0c54cc6e407", "name": "46ad78ef73f0404f0f1bf0c54cc6e407", "lon": -77.02442066666667}, {"is_reserved": 0, "rental_uris": {"ios": "https://dc.lft.to/lastmile_qr_scan", "android": "https://dc.lft.to/lastmile_qr_scan"}, "is_disabled": 0, "fusion_lon": 0.0, "lat": 38.893432, "type": "electric_scooter", "fusion_lat": 0.0, "bike_id": "7265e1994c7bd661b43d569af328d215", "name": "7265e1994c7bd661b43d569af328d215", "lon": -77.01201583333334}, {"is_reserved": 0, "rental_uris": {"ios": "https://dc.lft.to/lastmile_qr_scan", "android": "https://dc.lft.to/lastmile_qr_scan"}, "is_disabled": 0, "fusion_lon": 0.0, "lat": 38.9000055, "type": "electric_scooter", "fusion_lat": 0.0, "bike_id": "2b213a19797c16f9bfae406979d6a61c", "name": "2b213a19797c16f9bfae406979d6a61c", "lon": -76.99946866666667}, {"is_reserved": 0, "rental_uris": {"ios": "https://dc.lft.to/lastmile_qr_scan", "android": "https://dc.lft.to/lastmile_qr_scan"}, "is_disabled": 0, "fusion_lon": 0.0, "lat": 38.888908666666666, "type": "electric_bike", "fusion_lat": 0.0, "bike_id": "da30b6fa9b439b667c7ea739586d244b", "name": "da30b6fa9b439b667c7ea739586d244b", "lon": -77.07950866666667}, {"is_reserved": 0, "rental_uris": {"ios": "https://dc.lft.to/lastmile_qr_scan", "android": "https://dc.lft.to/lastmile_qr_scan"}, "is_disabled": 0, "fusion_lon": 0.0, "lat": 38.96172883333333, "type": "electric_bike", "fusion_lat": 0.0, "bike_id": "7613e7107e3b6c2e15b2e563581f007b", "name": "7613e7107e3b6c2e15b2e563581f007b", "lon": -76.99587283333334}, {"is_reserved": 0, "rental_uris": {"ios": "https://dc.lft.to/lastmile_qr_scan", "android": "https://dc.lft.to/lastmile_qr_scan"}, "is_disabled": 0, "fusion_lon": 0.0, "lat": 38.912320666666666, "type": "electric_scooter", "fusion_lat": 0.0, "bike_id": "632569080900206abd4c2ad7fdc99651", "name": "632569080900206abd4c2ad7fdc99651", "lon": -77.04486416666667}, {"is_reserved": 0, "rental_uris": {"ios": "https://dc.lft.to/lastmile_qr_scan", "android": "https://dc.lft.to/lastmile_qr_scan"}, "is_disabled": 0, "fusion_lon": 0.0, "lat": 38.94165916666667, "type": "electric_scooter", "fusion_lat": 0.0, "bike_id": "d935b0a72f9c7d6e9b11649350d1326b", "name": "d935b0a72f9c7d6e9b11649350d1326b", "lon": -77.04131633333333}, {"is_reserved": 0, "rental_uris": {"ios": "https://dc.lft.to/lastmile_qr_scan", "android": "https://dc.lft.to/lastmile_qr_scan"}, "is_disabled": 0, "fusion_lon": 0.0, "lat": 38.906814833333335, "type": "electric_scooter", "fusion_lat": 0.0, "bike_id": "e3f38defd34fc492e26b8dc00ff92797", "name": "e3f38defd34fc492e26b8dc00ff92797", "lon": -77.06354233333333}, {"is_reserved": 0, "rental_uris": {"ios": "https://dc.lft.to/lastmile_qr_scan", "android": "https://dc.lft.to/lastmile_qr_scan"}, "is_disabled": 0, "fusion_lon": 0.0, "lat": 38.9169785, "type": "electric_scooter", "fusion_lat": 0.0, "bike_id": "231669da399637faee0766bdbe6fe399", "name": "231669da399637faee0766bdbe6fe399", "lon": -77.0363815}, {"is_reserved": 0, "rental_uris": {"ios": "https://dc.lft.to/lastmile_qr_scan", "android": "https://dc.lft.to/lastmile_qr_scan"}, "is_disabled": 0, "fusion_lon": 0.0, "lat": 38.95193966666667, "type": "electric_bike", "fusion_lat": 0.0, "bike_id": "b613f16f0936873f34c412141fe1d7bc", "name": "b613f16f0936873f34c412141fe1d7bc", "lon": -76.967228}, {"is_reserved": 0, "rental_uris": {"ios": "https://dc.lft.to/lastmile_qr_scan", "android": "https://dc.lft.to/lastmile_qr_scan"}, "is_disabled": 0, "fusion_lon": 0.0, "lat": 38.91841083333333, "type": "electric_scooter", "fusion_lat": 0.0, "bike_id": "c57ccd97a9dabc6dae1f34247d9a9ff0", "name": "c57ccd97a9dabc6dae1f34247d9a9ff0", "lon": -77.045019}, {"is_reserved": 0, "rental_uris": {"ios": "https://dc.lft.to/lastmile_qr_scan", "android": "https://dc.lft.to/lastmile_qr_scan"}, "is_disabled": 0, "fusion_lon": 0.0, "lat": 39.0001245, "type": "electric_bike", "fusion_lat": 0.0, "bike_id": "0f29f4bab3cbe8c0f5cf31985cae383d", "name": "0f29f4bab3cbe8c0f5cf31985cae383d", "lon": -76.9107165}, {"is_reserved": 0, "rental_uris": {"ios": "https://dc.lft.to/lastmile_qr_scan", "android": "https://dc.lft.to/lastmile_qr_scan"}, "is_disabled": 0, "fusion_lon": 0.0, "lat": 38.863882, "type": "electric_bike", "fusion_lat": 0.0, "bike_id": "987f1848b7fe58468f74c7509b8bf1b8", "name": "987f1848b7fe58468f74c7509b8bf1b8", "lon": -76.98990416666666}, {"is_reserved": 0, "rental_uris": {"ios": "https://dc.lft.to/lastmile_qr_scan", "android": "https://dc.lft.to/lastmile_qr_scan"}, "is_disabled": 0, "fusion_lon": 0.0, "lat": 38.91332966666667, "type": "electric_scooter", "fusion_lat": 0.0, "bike_id": "e4241098dac7763dfb814d07ca7af85d", "name": "e4241098dac7763dfb814d07ca7af85d", "lon": -77.03010016666667}, {"is_reserved": 0, "rental_uris": {"ios": "https://dc.lft.to/lastmile_qr_scan", "android": "https://dc.lft.to/lastmile_qr_scan"}, "is_disabled": 0, "fusion_lon": 0.0, "lat": 38.903455, "type": "electric_scooter", "fusion_lat": 0.0, "bike_id": "1c1249be7c5e3152e1eb3fa4b0ef7320", "name": "1c1249be7c5e3152e1eb3fa4b0ef7320", "lon": -76.97563533333333}, {"is_reserved": 0, "rental_uris": {"ios": "https://dc.lft.to/lastmile_qr_scan", "android": "https://dc.lft.to/lastmile_qr_scan"}, "is_disabled": 0, "fusion_lon": 0.0, "lat": 38.93313633333333, "type": "electric_scooter", "fusion_lat": 0.0, "bike_id": "b83ec32d3d2d61a44f150ba4b7e11a98", "name": "b83ec32d3d2d61a44f150ba4b7e11a98", "lon": -77.032837}, {"is_reserved": 0, "rental_uris": {"ios": "https://dc.lft.to/lastmile_qr_scan", "android": "https://dc.lft.to/lastmile_qr_scan"}, "is_disabled": 0, "fusion_lon": 0.0, "lat": 38.9037995, "type": "electric_scooter", "fusion_lat": 0.0, "bike_id": "897f884007f56b641ca30a2b7b6edb8e", "name": "897f884007f56b641ca30a2b7b6edb8e", "lon": -77.01094983333333}, {"is_reserved": 0, "rental_uris": {"ios": "https://dc.lft.to/lastmile_qr_scan", "android": "https://dc.lft.to/lastmile_qr_scan"}, "is_disabled": 0, "fusion_lon": 0.0, "lat": 38.929898666666666, "type": "electric_scooter", "fusion_lat": 0.0, "bike_id": "8e56db365844547e058c80ae600cf505", "name": "8e56db365844547e058c80ae600cf505", "lon": -77.05509583333334}, {"is_reserved": 0, "rental_uris": {"ios": "https://dc.lft.to/lastmile_qr_scan", "android": "https://dc.lft.to/lastmile_qr_scan"}, "is_disabled": 0, "fusion_lon": 0.0, "lat": 38.899005333333335, "type": "electric_scooter", "fusion_lat": 0.0, "bike_id": "daa35114c423b299dc9831630ca30695", "name": "daa35114c423b299dc9831630ca30695", "lon": -77.04071566666667}, {"is_reserved": 0, "rental_uris": {"ios": "https://dc.lft.to/lastmile_qr_scan", "android": "https://dc.lft.to/lastmile_qr_scan"}, "is_disabled": 0, "fusion_lon": 0.0, "lat": 38.910158333333335, "type": "electric_scooter", "fusion_lat": 0.0, "bike_id": "bbd935eda8c445bb20313eefd522f6e8", "name": "bbd935eda8c445bb20313eefd522f6e8", "lon": -76.99393616666667}, {"is_reserved": 0, "rental_uris": {"ios": "https://dc.lft.to/lastmile_qr_scan", "android": "https://dc.lft.to/lastmile_qr_scan"}, "is_disabled": 0, "fusion_lon": 0.0, "lat": 38.861047166666665, "type": "electric_scooter", "fusion_lat": 0.0, "bike_id": "e913773e97e2902f2cbee114a5e8c8b4", "name": "e913773e97e2902f2cbee114a5e8c8b4", "lon": -76.98363483333333}, {"is_reserved": 0, "rental_uris": {"ios": "https://dc.lft.to/lastmile_qr_scan", "android": "https://dc.lft.to/lastmile_qr_scan"}, "is_disabled": 0, "fusion_lon": 0.0, "lat": 38.923432166666665, "type": "electric_scooter", "fusion_lat": 0.0, "bike_id": "6da7052dcfa642a15a21dc618d3a4a83", "name": "6da7052dcfa642a15a21dc618d3a4a83", "lon": -77.01906966666667}, {"is_reserved": 0, "rental_uris": {"ios": "https://dc.lft.to/lastmile_qr_scan", "android": "https://dc.lft.to/lastmile_qr_scan"}, "is_disabled": 0, "fusion_lon": 0.0, "lat": 38.90012216666667, "type": "electric_scooter", "fusion_lat": 0.0, "bike_id": "7f8ab2aabda7e08a3fe9b0c76b8c3053", "name": "7f8ab2aabda7e08a3fe9b0c76b8c3053", "lon": -76.9983895}, {"is_reserved": 0, "rental_uris": {"ios": "https://dc.lft.to/lastmile_qr_scan", "android": "https://dc.lft.to/lastmile_qr_scan"}, "is_disabled": 0, "fusion_lon": 0.0, "lat": 38.913396666666664, "type": "electric_scooter", "fusion_lat": 0.0, "bike_id": "39a69f1b1ffd5019a5a7dd66e5834877", "name": "39a69f1b1ffd5019a5a7dd66e5834877", "lon": -77.00222266666667}, {"is_reserved": 0, "rental_uris": {"ios": "https://dc.lft.to/lastmile_qr_scan", "android": "https://dc.lft.to/lastmile_qr_scan"}, "is_disabled": 0, "fusion_lon": 0.0, "lat": 38.91912666666666, "type": "electric_scooter", "fusion_lat": 0.0, "bike_id": "e290132e14c92fca4e1c4e9ec460cd4d", "name": "e290132e14c92fca4e1c4e9ec460cd4d", "lon": -77.02166983333333}, {"is_reserved": 0, "rental_uris": {"ios": "https://dc.lft.to/lastmile_qr_scan", "android": "https://dc.lft.to/lastmile_qr_scan"}, "is_disabled": 0, "fusion_lon": 0.0, "lat": 38.86109783333333, "type": "electric_scooter", "fusion_lat": 0.0, "bike_id": "774ec9c02e3c97aa4548070d990206ca", "name": "774ec9c02e3c97aa4548070d990206ca", "lon": -76.96769833333333}, {"is_reserved": 0, "rental_uris": {"ios": "https://dc.lft.to/lastmile_qr_scan", "android": "https://dc.lft.to/lastmile_qr_scan"}, "is_disabled": 0, "fusion_lon": 0.0, "lat": 38.90763033333333, "type": "electric_scooter", "fusion_lat": 0.0, "bike_id": "4f09fde1cd69c0a6ad2c1f5dd467a3f4", "name": "4f09fde1cd69c0a6ad2c1f5dd467a3f4", "lon": -77.04338716666666}, {"is_reserved": 0, "rental_uris": {"ios": "https://dc.lft.to/lastmile_qr_scan", "android": "https://dc.lft.to/lastmile_qr_scan"}, "is_disabled": 0, "fusion_lon": 0.0, "lat": 38.881972833333336, "type": "electric_scooter", "fusion_lat": 0.0, "bike_id": "1d2507825b30ddc924d3b40b1f14a3d2", "name": "1d2507825b30ddc924d3b40b1f14a3d2", "lon": -77.00922583333333}, {"is_reserved": 0, "rental_uris": {"ios": "https://dc.lft.to/lastmile_qr_scan", "android": "https://dc.lft.to/lastmile_qr_scan"}, "is_disabled": 0, "fusion_lon": 0.0, "lat": 38.879401, "type": "electric_scooter", "fusion_lat": 0.0, "bike_id": "6d40ab191a4869ccbb0e0b5f8fa14b66", "name": "6d40ab191a4869ccbb0e0b5f8fa14b66", "lon": -77.02383483333334}, {"is_reserved": 0, "rental_uris": {"ios": "https://dc.lft.to/lastmile_qr_scan", "android": "https://dc.lft.to/lastmile_qr_scan"}, "is_disabled": 0, "fusion_lon": 0.0, "lat": 38.8833125, "type": "electric_scooter", "fusion_lat": 0.0, "bike_id": "484ef2a24e975e89c66e2d9adf7de676", "name": "484ef2a24e975e89c66e2d9adf7de676", "lon": -77.031392}, {"is_reserved": 0, "rental_uris": {"ios": "https://dc.lft.to/lastmile_qr_scan", "android": "https://dc.lft.to/lastmile_qr_scan"}, "is_disabled": 0, "fusion_lon": 0.0, "lat": 38.9080965, "type": "electric_scooter", "fusion_lat": 0.0, "bike_id": "63ab6d080fb2d2d13d6f07fe7e99ad27", "name": "63ab6d080fb2d2d13d6f07fe7e99ad27", "lon": -77.0433505}, {"is_reserved": 0, "rental_uris": {"ios": "https://dc.lft.to/lastmile_qr_scan", "android": "https://dc.lft.to/lastmile_qr_scan"}, "is_disabled": 0, "fusion_lon": 0.0, "lat": 38.96665333333333, "type": "electric_scooter", "fusion_lat": 0.0, "bike_id": "329939198fd1d022ad2328e5f4af6db4", "name": "329939198fd1d022ad2328e5f4af6db4", "lon": -77.0240875}, {"is_reserved": 0, "rental_uris": {"ios": "https://dc.lft.to/lastmile_qr_scan", "android": "https://dc.lft.to/lastmile_qr_scan"}, "is_disabled": 0, "fusion_lon": 0.0, "lat": 38.9405125, "type": "electric_scooter", "fusion_lat": 0.0, "bike_id": "15c37c228e50f4260e3d222cd4bc2d08", "name": "15c37c228e50f4260e3d222cd4bc2d08", "lon": -77.09269466666667}, {"is_reserved": 0, "rental_uris": {"ios": "https://dc.lft.to/lastmile_qr_scan", "android": "https://dc.lft.to/lastmile_qr_scan"}, "is_disabled": 0, "fusion_lon": 0.0, "lat": 38.8922145, "type": "electric_scooter", "fusion_lat": 0.0, "bike_id": "d9bdbf94207c62683eba1c5f02c7178b", "name": "d9bdbf94207c62683eba1c5f02c7178b", "lon": -77.04197416666666}, {"is_reserved": 0, "rental_uris": {"ios": "https://dc.lft.to/lastmile_qr_scan", "android": "https://dc.lft.to/lastmile_qr_scan"}, "is_disabled": 0, "fusion_lon": 0.0, "lat": 38.8972355, "type": "electric_scooter", "fusion_lat": 0.0, "bike_id": "509c8ab9cfb97171cf4c3c0b327c4849", "name": "509c8ab9cfb97171cf4c3c0b327c4849", "lon": -77.02693183333334}, {"is_reserved": 0, "rental_uris": {"ios": "https://dc.lft.to/lastmile_qr_scan", "android": "https://dc.lft.to/lastmile_qr_scan"}, "is_disabled": 0, "fusion_lon": 0.0, "lat": 38.922597833333334, "type": "electric_scooter", "fusion_lat": 0.0, "bike_id": "8eb8f986f359c1e4119edfc41a54b3a1", "name": "8eb8f986f359c1e4119edfc41a54b3a1", "lon": -77.0352865}, {"is_reserved": 0, "rental_uris": {"ios": "https://dc.lft.to/lastmile_qr_scan", "android": "https://dc.lft.to/lastmile_qr_scan"}, "is_disabled": 0, "fusion_lon": 0.0, "lat": 38.9198525, "type": "electric_scooter", "fusion_lat": 0.0, "bike_id": "976feecadac5900a68424b35810fb107", "name": "976feecadac5900a68424b35810fb107", "lon": -77.0415565}, {"is_reserved": 0, "rental_uris": {"ios": "https://dc.lft.to/lastmile_qr_scan", "android": "https://dc.lft.to/lastmile_qr_scan"}, "is_disabled": 0, "fusion_lon": 0.0, "lat": 38.97366683333333, "type": "electric_scooter", "fusion_lat": 0.0, "bike_id": "7af704dc54ca82b0a9fdd2eb186b7c7e", "name": "7af704dc54ca82b0a9fdd2eb186b7c7e", "lon": -77.01866766666667}, {"is_reserved": 0, "rental_uris": {"ios": "https://dc.lft.to/lastmile_qr_scan", "android": "https://dc.lft.to/lastmile_qr_scan"}, "is_disabled": 0, "fusion_lon": 0.0, "lat": 38.87988983333334, "type": "electric_scooter", "fusion_lat": 0.0, "bike_id": "07337ba44fcf0c2353101c418183716f", "name": "07337ba44fcf0c2353101c418183716f", "lon": -77.02408116666666}, {"is_reserved": 0, "rental_uris": {"ios": "https://dc.lft.to/lastmile_qr_scan", "android": "https://dc.lft.to/lastmile_qr_scan"}, "is_disabled": 0, "fusion_lon": 0.0, "lat": 38.84292966666667, "type": "electric_scooter", "fusion_lat": 0.0, "bike_id": "65b6c9d0e84357d6e6a6c9a68476db51", "name": "65b6c9d0e84357d6e6a6c9a68476db51", "lon": -76.99948916666666}, {"is_reserved": 0, "rental_uris": {"ios": "https://dc.lft.to/lastmile_qr_scan", "android": "https://dc.lft.to/lastmile_qr_scan"}, "is_disabled": 0, "fusion_lon": 0.0, "lat": 38.903843333333334, "type": "electric_scooter", "fusion_lat": 0.0, "bike_id": "efe202c5b7c8084eafe9a78a954b8a79", "name": "efe202c5b7c8084eafe9a78a954b8a79", "lon": -77.03678233333333}, {"is_reserved": 0, "rental_uris": {"ios": "https://dc.lft.to/lastmile_qr_scan", "android": "https://dc.lft.to/lastmile_qr_scan"}, "is_disabled": 0, "fusion_lon": 0.0, "lat": 38.9167325, "type": "electric_scooter", "fusion_lat": 0.0, "bike_id": "8cab8be0d65a0ceef6404435a0e60929", "name": "8cab8be0d65a0ceef6404435a0e60929", "lon": -77.00658966666667}, {"is_reserved": 0, "rental_uris": {"ios": "https://dc.lft.to/lastmile_qr_scan", "android": "https://dc.lft.to/lastmile_qr_scan"}, "is_disabled": 0, "fusion_lon": 0.0, "lat": 38.867278666666664, "type": "electric_scooter", "fusion_lat": 0.0, "bike_id": "81193dd24bee78a2da8fa0885ec87740", "name": "81193dd24bee78a2da8fa0885ec87740", "lon": -76.9878635}, {"is_reserved": 0, "rental_uris": {"ios": "https://dc.lft.to/lastmile_qr_scan", "android": "https://dc.lft.to/lastmile_qr_scan"}, "is_disabled": 0, "fusion_lon": 0.0, "lat": 38.90194916666667, "type": "electric_scooter", "fusion_lat": 0.0, "bike_id": "533f7333c6b8e9c2eff0731591dedbd3", "name": "533f7333c6b8e9c2eff0731591dedbd3", "lon": -77.02145683333333}, {"is_reserved": 0, "rental_uris": {"ios": "https://dc.lft.to/lastmile_qr_scan", "android": "https://dc.lft.to/lastmile_qr_scan"}, "is_disabled": 0, "fusion_lon": 0.0, "lat": 38.91880316666666, "type": "electric_scooter", "fusion_lat": 0.0, "bike_id": "19f511792211eeed7f5ef3bce621583e", "name": "19f511792211eeed7f5ef3bce621583e", "lon": -77.0159285}, {"is_reserved": 0, "rental_uris": {"ios": "https://dc.lft.to/lastmile_qr_scan", "android": "https://dc.lft.to/lastmile_qr_scan"}, "is_disabled": 0, "fusion_lon": 0.0, "lat": 38.895535, "type": "electric_scooter", "fusion_lat": 0.0, "bike_id": "cc401e2b8b48b87bd70950ad01506541", "name": "cc401e2b8b48b87bd70950ad01506541", "lon": -76.93369466666667}, {"is_reserved": 0, "rental_uris": {"ios": "https://dc.lft.to/lastmile_qr_scan", "android": "https://dc.lft.to/lastmile_qr_scan"}, "is_disabled": 0, "fusion_lon": 0.0, "lat": 38.91698383333333, "type": "electric_scooter", "fusion_lat": 0.0, "bike_id": "3f4c88168138c363a8731b694e7423f5", "name": "3f4c88168138c363a8731b694e7423f5", "lon": -77.03506933333334}, {"is_reserved": 0, "rental_uris": {"ios": "https://dc.lft.to/lastmile_qr_scan", "android": "https://dc.lft.to/lastmile_qr_scan"}, "is_disabled": 0, "fusion_lon": 0.0, "lat": 38.8865895, "type": "electric_scooter", "fusion_lat": 0.0, "bike_id": "ed81ba541632bbee31a59a6f221bb171", "name": "ed81ba541632bbee31a59a6f221bb171", "lon": -77.03387733333334}, {"is_reserved": 0, "rental_uris": {"ios": "https://dc.lft.to/lastmile_qr_scan", "android": "https://dc.lft.to/lastmile_qr_scan"}, "is_disabled": 0, "fusion_lon": 0.0, "lat": 38.92228383333333, "type": "electric_scooter", "fusion_lat": 0.0, "bike_id": "1d0db9cb439a8b4719890c690fad633a", "name": "1d0db9cb439a8b4719890c690fad633a", "lon": -77.04380516666667}, {"is_reserved": 0, "rental_uris": {"ios": "https://dc.lft.to/lastmile_qr_scan", "android": "https://dc.lft.to/lastmile_qr_scan"}, "is_disabled": 0, "fusion_lon": 0.0, "lat": 38.93617866666666, "type": "electric_scooter", "fusion_lat": 0.0, "bike_id": "e67b7447647c1ef802b7d833ff8019a8", "name": "e67b7447647c1ef802b7d833ff8019a8", "lon": -77.03802383333333}, {"is_reserved": 0, "rental_uris": {"ios": "https://dc.lft.to/lastmile_qr_scan", "android": "https://dc.lft.to/lastmile_qr_scan"}, "is_disabled": 0, "fusion_lon": 0.0, "lat": 38.9035485, "type": "electric_scooter", "fusion_lat": 0.0, "bike_id": "8f42d367502b831c087b05ece90e4d8e", "name": "8f42d367502b831c087b05ece90e4d8e", "lon": -77.02190833333333}, {"is_reserved": 0, "rental_uris": {"ios": "https://dc.lft.to/lastmile_qr_scan", "android": "https://dc.lft.to/lastmile_qr_scan"}, "is_disabled": 0, "fusion_lon": 0.0, "lat": 38.8983775, "type": "electric_scooter", "fusion_lat": 0.0, "bike_id": "87df37bf43d8a763f1a43c7b016e0a34", "name": "87df37bf43d8a763f1a43c7b016e0a34", "lon": -77.04270583333333}, {"is_reserved": 0, "rental_uris": {"ios": "https://dc.lft.to/lastmile_qr_scan", "android": "https://dc.lft.to/lastmile_qr_scan"}, "is_disabled": 0, "fusion_lon": 0.0, "lat": 38.8970605, "type": "electric_scooter", "fusion_lat": 0.0, "bike_id": "d725f200acc0cfcc733c667cc2ec7cea", "name": "d725f200acc0cfcc733c667cc2ec7cea", "lon": -76.91765716666667}, {"is_reserved": 0, "rental_uris": {"ios": "https://dc.lft.to/lastmile_qr_scan", "android": "https://dc.lft.to/lastmile_qr_scan"}, "is_disabled": 0, "fusion_lon": 0.0, "lat": 38.91372466666667, "type": "electric_scooter", "fusion_lat": 0.0, "bike_id": "73e0e6c2a51e8c7485fad62a0fb0029a", "name": "73e0e6c2a51e8c7485fad62a0fb0029a", "lon": -77.01996066666666}, {"is_reserved": 0, "rental_uris": {"ios": "https://dc.lft.to/lastmile_qr_scan", "android": "https://dc.lft.to/lastmile_qr_scan"}, "is_disabled": 0, "fusion_lon": 0.0, "lat": 38.8801515, "type": "electric_scooter", "fusion_lat": 0.0, "bike_id": "a4e0faf70dd58ccf6560a2683d6ffb5c", "name": "a4e0faf70dd58ccf6560a2683d6ffb5c", "lon": -76.93126433333333}, {"is_reserved": 0, "rental_uris": {"ios": "https://dc.lft.to/lastmile_qr_scan", "android": "https://dc.lft.to/lastmile_qr_scan"}, "is_disabled": 0, "fusion_lon": 0.0, "lat": 38.90036283333333, "type": "electric_scooter", "fusion_lat": 0.0, "bike_id": "1d38de7d403c331e463ac811db1c4257", "name": "1d38de7d403c331e463ac811db1c4257", "lon": -76.98832033333333}, {"is_reserved": 0, "rental_uris": {"ios": "https://dc.lft.to/lastmile_qr_scan", "android": "https://dc.lft.to/lastmile_qr_scan"}, "is_disabled": 0, "fusion_lon": 0.0, "lat": 38.90445666666667, "type": "electric_scooter", "fusion_lat": 0.0, "bike_id": "792fbdec58c81dc3eb767f0210f45532", "name": "792fbdec58c81dc3eb767f0210f45532", "lon": -77.04339583333334}, {"is_reserved": 0, "rental_uris": {"ios": "https://dc.lft.to/lastmile_qr_scan", "android": "https://dc.lft.to/lastmile_qr_scan"}, "is_disabled": 0, "fusion_lon": 0.0, "lat": 38.90038466666667, "type": "electric_scooter", "fusion_lat": 0.0, "bike_id": "84f0bf542b59cf32eb48a85bc2922348", "name": "84f0bf542b59cf32eb48a85bc2922348", "lon": -77.00536483333333}, {"is_reserved": 0, "rental_uris": {"ios": "https://dc.lft.to/lastmile_qr_scan", "android": "https://dc.lft.to/lastmile_qr_scan"}, "is_disabled": 0, "fusion_lon": 0.0, "lat": 38.8922025, "type": "electric_scooter", "fusion_lat": 0.0, "bike_id": "912f568b6c9573df176cbddadd3ca304", "name": "912f568b6c9573df176cbddadd3ca304", "lon": -77.02138483333333}, {"is_reserved": 0, "rental_uris": {"ios": "https://dc.lft.to/lastmile_qr_scan", "android": "https://dc.lft.to/lastmile_qr_scan"}, "is_disabled": 0, "fusion_lon": 0.0, "lat": 38.88479066666667, "type": "electric_scooter", "fusion_lat": 0.0, "bike_id": "f4c9fe79fb204be422c3171837266eab", "name": "f4c9fe79fb204be422c3171837266eab", "lon": -77.03352833333334}, {"is_reserved": 0, "rental_uris": {"ios": "https://dc.lft.to/lastmile_qr_scan", "android": "https://dc.lft.to/lastmile_qr_scan"}, "is_disabled": 0, "fusion_lon": 0.0, "lat": 38.92470933333333, "type": "electric_scooter", "fusion_lat": 0.0, "bike_id": "44d804ea78f43fdb50bd1e3073de4a18", "name": "44d804ea78f43fdb50bd1e3073de4a18", "lon": -77.05260966666667}, {"is_reserved": 0, "rental_uris": {"ios": "https://dc.lft.to/lastmile_qr_scan", "android": "https://dc.lft.to/lastmile_qr_scan"}, "is_disabled": 0, "fusion_lon": 0.0, "lat": 38.920779, "type": "electric_scooter", "fusion_lat": 0.0, "bike_id": "c05ee14ac4fc611e945c0cd84d8a60d7", "name": "c05ee14ac4fc611e945c0cd84d8a60d7", "lon": -77.0468305}, {"is_reserved": 0, "rental_uris": {"ios": "https://dc.lft.to/lastmile_qr_scan", "android": "https://dc.lft.to/lastmile_qr_scan"}, "is_disabled": 0, "fusion_lon": 0.0, "lat": 38.874066666666664, "type": "electric_scooter", "fusion_lat": 0.0, "bike_id": "a50d98ceee6ab55597a48bd5ee50c729", "name": "a50d98ceee6ab55597a48bd5ee50c729", "lon": -77.00041766666666}, {"is_reserved": 0, "rental_uris": {"ios": "https://dc.lft.to/lastmile_qr_scan", "android": "https://dc.lft.to/lastmile_qr_scan"}, "is_disabled": 0, "fusion_lon": 0.0, "lat": 38.92660933333333, "type": "electric_scooter", "fusion_lat": 0.0, "bike_id": "4280a721225c8ce5a64bb3e23aa440c9", "name": "4280a721225c8ce5a64bb3e23aa440c9", "lon": -77.05595883333334}, {"is_reserved": 0, "rental_uris": {"ios": "https://dc.lft.to/lastmile_qr_scan", "android": "https://dc.lft.to/lastmile_qr_scan"}, "is_disabled": 0, "fusion_lon": 0.0, "lat": 38.880728166666664, "type": "electric_bike", "fusion_lat": 0.0, "bike_id": "a83db4105e0dfc1c0b4ad0f5f7e76edb", "name": "a83db4105e0dfc1c0b4ad0f5f7e76edb", "lon": -77.08638533333334}, {"is_reserved": 0, "rental_uris": {"ios": "https://dc.lft.to/lastmile_qr_scan", "android": "https://dc.lft.to/lastmile_qr_scan"}, "is_disabled": 0, "fusion_lon": 0.0, "lat": 38.90129666666667, "type": "electric_scooter", "fusion_lat": 0.0, "bike_id": "d87914bb0e2da3f6cfde7e084137f86a", "name": "d87914bb0e2da3f6cfde7e084137f86a", "lon": -77.04492783333333}, {"is_reserved": 0, "rental_uris": {"ios": "https://dc.lft.to/lastmile_qr_scan", "android": "https://dc.lft.to/lastmile_qr_scan"}, "is_disabled": 0, "fusion_lon": 0.0, "lat": 38.874954, "type": "electric_scooter", "fusion_lat": 0.0, "bike_id": "95c05615a2993192bf8c059b86bf1004", "name": "95c05615a2993192bf8c059b86bf1004", "lon": -76.99800616666667}, {"is_reserved": 0, "rental_uris": {"ios": "https://dc.lft.to/lastmile_qr_scan", "android": "https://dc.lft.to/lastmile_qr_scan"}, "is_disabled": 0, "fusion_lon": 0.0, "lat": 38.885243833333334, "type": "electric_scooter", "fusion_lat": 0.0, "bike_id": "7d6cb54b52773a55054c0c32e20edfa1", "name": "7d6cb54b52773a55054c0c32e20edfa1", "lon": -77.0334075}, {"is_reserved": 0, "rental_uris": {"ios": "https://dc.lft.to/lastmile_qr_scan", "android": "https://dc.lft.to/lastmile_qr_scan"}, "is_disabled": 0, "fusion_lon": 0.0, "lat": 38.8985775, "type": "electric_scooter", "fusion_lat": 0.0, "bike_id": "a8feb27861f8d7e3c8f42842152c9a73", "name": "a8feb27861f8d7e3c8f42842152c9a73", "lon": -77.0436815}, {"is_reserved": 0, "rental_uris": {"ios": "https://dc.lft.to/lastmile_qr_scan", "android": "https://dc.lft.to/lastmile_qr_scan"}, "is_disabled": 0, "fusion_lon": 0.0, "lat": 38.89735816666666, "type": "electric_scooter", "fusion_lat": 0.0, "bike_id": "767e496feefc37851504fb53b6b562e0", "name": "767e496feefc37851504fb53b6b562e0", "lon": -77.021727}, {"is_reserved": 0, "rental_uris": {"ios": "https://dc.lft.to/lastmile_qr_scan", "android": "https://dc.lft.to/lastmile_qr_scan"}, "is_disabled": 0, "fusion_lon": 0.0, "lat": 38.924143, "type": "electric_scooter", "fusion_lat": 0.0, "bike_id": "faa69ec496bcfa5652c2f39a3088903e", "name": "faa69ec496bcfa5652c2f39a3088903e", "lon": -77.02238316666667}, {"is_reserved": 0, "rental_uris": {"ios": "https://dc.lft.to/lastmile_qr_scan", "android": "https://dc.lft.to/lastmile_qr_scan"}, "is_disabled": 0, "fusion_lon": 0.0, "lat": 38.8919815, "type": "electric_scooter", "fusion_lat": 0.0, "bike_id": "21335780f19712acfa357c8154a4386e", "name": "21335780f19712acfa357c8154a4386e", "lon": -77.02378816666666}, {"is_reserved": 0, "rental_uris": {"ios": "https://dc.lft.to/lastmile_qr_scan", "android": "https://dc.lft.to/lastmile_qr_scan"}, "is_disabled": 0, "fusion_lon": 0.0, "lat": 38.903954166666665, "type": "electric_scooter", "fusion_lat": 0.0, "bike_id": "620e38878bea6c175c142165d6eed401", "name": "620e38878bea6c175c142165d6eed401", "lon": -77.02083166666667}, {"is_reserved": 0, "rental_uris": {"ios": "https://dc.lft.to/lastmile_qr_scan", "android": "https://dc.lft.to/lastmile_qr_scan"}, "is_disabled": 0, "fusion_lon": 0.0, "lat": 38.899023666666665, "type": "electric_scooter", "fusion_lat": 0.0, "bike_id": "66b29066f20342aae5b2af08aaf9bef2", "name": "66b29066f20342aae5b2af08aaf9bef2", "lon": -76.93347816666666}, {"is_reserved": 0, "rental_uris": {"ios": "https://dc.lft.to/lastmile_qr_scan", "android": "https://dc.lft.to/lastmile_qr_scan"}, "is_disabled": 0, "fusion_lon": 0.0, "lat": 38.9401145, "type": "electric_scooter", "fusion_lat": 0.0, "bike_id": "0000d3448915e1036922d224fdaa9027", "name": "0000d3448915e1036922d224fdaa9027", "lon": -77.071753}, {"is_reserved": 0, "rental_uris": {"ios": "https://dc.lft.to/lastmile_qr_scan", "android": "https://dc.lft.to/lastmile_qr_scan"}, "is_disabled": 0, "fusion_lon": 0.0, "lat": 38.85812383333333, "type": "electric_scooter", "fusion_lat": 0.0, "bike_id": "87458e2dd8e47eab86677fbb5e25c5c1", "name": "87458e2dd8e47eab86677fbb5e25c5c1", "lon": -76.98992883333334}, {"is_reserved": 0, "rental_uris": {"ios": "https://dc.lft.to/lastmile_qr_scan", "android": "https://dc.lft.to/lastmile_qr_scan"}, "is_disabled": 0, "fusion_lon": 0.0, "lat": 38.90488116666667, "type": "electric_scooter", "fusion_lat": 0.0, "bike_id": "d4a5da881cd8cd12a4b98e13d7d07a40", "name": "d4a5da881cd8cd12a4b98e13d7d07a40", "lon": -77.0601515}, {"is_reserved": 0, "rental_uris": {"ios": "https://dc.lft.to/lastmile_qr_scan", "android": "https://dc.lft.to/lastmile_qr_scan"}, "is_disabled": 0, "fusion_lon": 0.0, "lat": 38.8832965, "type": "electric_scooter", "fusion_lat": 0.0, "bike_id": "11f667ca927482995aea016a17f94c0a", "name": "11f667ca927482995aea016a17f94c0a", "lon": -76.9344785}, {"is_reserved": 0, "rental_uris": {"ios": "https://dc.lft.to/lastmile_qr_scan", "android": "https://dc.lft.to/lastmile_qr_scan"}, "is_disabled": 0, "fusion_lon": 0.0, "lat": 38.927162333333335, "type": "electric_scooter", "fusion_lat": 0.0, "bike_id": "c0a37ce1569ba8e10788cc31407aea0a", "name": "c0a37ce1569ba8e10788cc31407aea0a", "lon": -77.04199733333333}, {"is_reserved": 0, "rental_uris": {"ios": "https://dc.lft.to/lastmile_qr_scan", "android": "https://dc.lft.to/lastmile_qr_scan"}, "is_disabled": 0, "fusion_lon": 0.0, "lat": 38.900229833333334, "type": "electric_scooter", "fusion_lat": 0.0, "bike_id": "9670896a7d363f70e79acc4d05c6d162", "name": "9670896a7d363f70e79acc4d05c6d162", "lon": -77.02889683333333}, {"is_reserved": 0, "rental_uris": {"ios": "https://dc.lft.to/lastmile_qr_scan", "android": "https://dc.lft.to/lastmile_qr_scan"}, "is_disabled": 0, "fusion_lon": 0.0, "lat": 38.872355, "type": "electric_scooter", "fusion_lat": 0.0, "bike_id": "0a0fb7539631f8ebf18c7490b98186be", "name": "0a0fb7539631f8ebf18c7490b98186be", "lon": -77.01629233333334}, {"is_reserved": 0, "rental_uris": {"ios": "https://dc.lft.to/lastmile_qr_scan", "android": "https://dc.lft.to/lastmile_qr_scan"}, "is_disabled": 0, "fusion_lon": 0.0, "lat": 38.90729616666667, "type": "electric_scooter", "fusion_lat": 0.0, "bike_id": "06df002e20ef423eb1385345e7ec2594", "name": "06df002e20ef423eb1385345e7ec2594", "lon": -77.03214166666666}, {"is_reserved": 0, "rental_uris": {"ios": "https://dc.lft.to/lastmile_qr_scan", "android": "https://dc.lft.to/lastmile_qr_scan"}, "is_disabled": 0, "fusion_lon": 0.0, "lat": 38.954895, "type": "electric_scooter", "fusion_lat": 0.0, "bike_id": "eb36ebad9e3797623866348eb9908e7f", "name": "eb36ebad9e3797623866348eb9908e7f", "lon": -77.06564}, {"is_reserved": 0, "rental_uris": {"ios": "https://dc.lft.to/lastmile_qr_scan", "android": "https://dc.lft.to/lastmile_qr_scan"}, "is_disabled": 0, "fusion_lon": 0.0, "lat": 38.922289, "type": "electric_scooter", "fusion_lat": 0.0, "bike_id": "a0b9bccedff3bfe5e5e501d5a11e85f4", "name": "a0b9bccedff3bfe5e5e501d5a11e85f4", "lon": -77.043948}, {"is_reserved": 0, "rental_uris": {"ios": "https://dc.lft.to/lastmile_qr_scan", "android": "https://dc.lft.to/lastmile_qr_scan"}, "is_disabled": 0, "fusion_lon": 0.0, "lat": 38.866568666666666, "type": "electric_scooter", "fusion_lat": 0.0, "bike_id": "77540f31760c9436c0877c0faf97c67b", "name": "77540f31760c9436c0877c0faf97c67b", "lon": -76.98883616666667}, {"is_reserved": 0, "rental_uris": {"ios": "https://dc.lft.to/lastmile_qr_scan", "android": "https://dc.lft.to/lastmile_qr_scan"}, "is_disabled": 0, "fusion_lon": 0.0, "lat": 38.93395433333333, "type": "electric_scooter", "fusion_lat": 0.0, "bike_id": "c8b0404382fa075f713d48eb55054c1c", "name": "c8b0404382fa075f713d48eb55054c1c", "lon": -77.0412835}, {"is_reserved": 0, "rental_uris": {"ios": "https://dc.lft.to/lastmile_qr_scan", "android": "https://dc.lft.to/lastmile_qr_scan"}, "is_disabled": 0, "fusion_lon": 0.0, "lat": 38.923256, "type": "electric_scooter", "fusion_lat": 0.0, "bike_id": "c73e36ab3347cf1e9bd6ace6b7704fdd", "name": "c73e36ab3347cf1e9bd6ace6b7704fdd", "lon": -77.03890766666666}, {"is_reserved": 0, "rental_uris": {"ios": "https://dc.lft.to/lastmile_qr_scan", "android": "https://dc.lft.to/lastmile_qr_scan"}, "is_disabled": 0, "fusion_lon": 0.0, "lat": 38.933573333333335, "type": "electric_scooter", "fusion_lat": 0.0, "bike_id": "f81cf503d60bd5c3eb141dd2abfbe712", "name": "f81cf503d60bd5c3eb141dd2abfbe712", "lon": -77.0344755}, {"is_reserved": 0, "rental_uris": {"ios": "https://dc.lft.to/lastmile_qr_scan", "android": "https://dc.lft.to/lastmile_qr_scan"}, "is_disabled": 0, "fusion_lon": 0.0, "lat": 38.924144, "type": "electric_scooter", "fusion_lat": 0.0, "bike_id": "8ddbf21b5a1dea157c3a25300e2dffd6", "name": "8ddbf21b5a1dea157c3a25300e2dffd6", "lon": -77.01941733333334}, {"is_reserved": 0, "rental_uris": {"ios": "https://dc.lft.to/lastmile_qr_scan", "android": "https://dc.lft.to/lastmile_qr_scan"}, "is_disabled": 0, "fusion_lon": 0.0, "lat": 38.92637216666667, "type": "electric_scooter", "fusion_lat": 0.0, "bike_id": "5ceff76e54ddca8906fc9ff764b48185", "name": "5ceff76e54ddca8906fc9ff764b48185", "lon": -77.0134075}, {"is_reserved": 0, "rental_uris": {"ios": "https://dc.lft.to/lastmile_qr_scan", "android": "https://dc.lft.to/lastmile_qr_scan"}, "is_disabled": 0, "fusion_lon": 0.0, "lat": 38.90806083333333, "type": "electric_scooter", "fusion_lat": 0.0, "bike_id": "819b8ae7b84011ebdf966873eb72f919", "name": "819b8ae7b84011ebdf966873eb72f919", "lon": -77.0339975}, {"is_reserved": 0, "rental_uris": {"ios": "https://dc.lft.to/lastmile_qr_scan", "android": "https://dc.lft.to/lastmile_qr_scan"}, "is_disabled": 0, "fusion_lon": 0.0, "lat": 38.90787616666667, "type": "electric_scooter", "fusion_lat": 0.0, "bike_id": "9af3005d431071b64a44d5826cf638a3", "name": "9af3005d431071b64a44d5826cf638a3", "lon": -77.0447205}, {"is_reserved": 0, "rental_uris": {"ios": "https://dc.lft.to/lastmile_qr_scan", "android": "https://dc.lft.to/lastmile_qr_scan"}, "is_disabled": 0, "fusion_lon": 0.0, "lat": 38.89906516666667, "type": "electric_scooter", "fusion_lat": 0.0, "bike_id": "5f44626d7360f374eba9867c1813301e", "name": "5f44626d7360f374eba9867c1813301e", "lon": -77.00726366666666}, {"is_reserved": 0, "rental_uris": {"ios": "https://dc.lft.to/lastmile_qr_scan", "android": "https://dc.lft.to/lastmile_qr_scan"}, "is_disabled": 0, "fusion_lon": 0.0, "lat": 38.902786, "type": "electric_scooter", "fusion_lat": 0.0, "bike_id": "ab3b8702bb8749fad392c1dd70f0be63", "name": "ab3b8702bb8749fad392c1dd70f0be63", "lon": -77.03861883333333}, {"is_reserved": 0, "rental_uris": {"ios": "https://dc.lft.to/lastmile_qr_scan", "android": "https://dc.lft.to/lastmile_qr_scan"}, "is_disabled": 0, "fusion_lon": 0.0, "lat": 38.92590283333333, "type": "electric_scooter", "fusion_lat": 0.0, "bike_id": "26830118bda74098b289ed86a2ea6fbd", "name": "26830118bda74098b289ed86a2ea6fbd", "lon": -77.0322375}, {"is_reserved": 0, "rental_uris": {"ios": "https://dc.lft.to/lastmile_qr_scan", "android": "https://dc.lft.to/lastmile_qr_scan"}, "is_disabled": 0, "fusion_lon": 0.0, "lat": 38.93064016666667, "type": "electric_scooter", "fusion_lat": 0.0, "bike_id": "5115f6a6780d82c95a6a81f2c15f1b3e", "name": "5115f6a6780d82c95a6a81f2c15f1b3e", "lon": -77.02262866666666}, {"is_reserved": 0, "rental_uris": {"ios": "https://dc.lft.to/lastmile_qr_scan", "android": "https://dc.lft.to/lastmile_qr_scan"}, "is_disabled": 0, "fusion_lon": 0.0, "lat": 38.91950583333333, "type": "electric_scooter", "fusion_lat": 0.0, "bike_id": "dd1fa9d77ef2d68b738c19e65b4e69eb", "name": "dd1fa9d77ef2d68b738c19e65b4e69eb", "lon": -77.03202933333333}, {"is_reserved": 0, "rental_uris": {"ios": "https://dc.lft.to/lastmile_qr_scan", "android": "https://dc.lft.to/lastmile_qr_scan"}, "is_disabled": 0, "fusion_lon": 0.0, "lat": 38.926000333333334, "type": "electric_scooter", "fusion_lat": 0.0, "bike_id": "82513ad8a9d4444fd94f81e194d2739c", "name": "82513ad8a9d4444fd94f81e194d2739c", "lon": -77.05691716666666}, {"is_reserved": 0, "rental_uris": {"ios": "https://dc.lft.to/lastmile_qr_scan", "android": "https://dc.lft.to/lastmile_qr_scan"}, "is_disabled": 0, "fusion_lon": 0.0, "lat": 38.9196075, "type": "electric_scooter", "fusion_lat": 0.0, "bike_id": "4d090243b241e92b882067166dddcedb", "name": "4d090243b241e92b882067166dddcedb", "lon": -77.0320925}, {"is_reserved": 0, "rental_uris": {"ios": "https://dc.lft.to/lastmile_qr_scan", "android": "https://dc.lft.to/lastmile_qr_scan"}, "is_disabled": 0, "fusion_lon": 0.0, "lat": 38.92707583333333, "type": "electric_scooter", "fusion_lat": 0.0, "bike_id": "c1efdfec262f63e0add651221119da0c", "name": "c1efdfec262f63e0add651221119da0c", "lon": -77.04038116666666}, {"is_reserved": 0, "rental_uris": {"ios": "https://dc.lft.to/lastmile_qr_scan", "android": "https://dc.lft.to/lastmile_qr_scan"}, "is_disabled": 0, "fusion_lon": 0.0, "lat": 38.874945333333336, "type": "electric_scooter", "fusion_lat": 0.0, "bike_id": "296b406c94bf07714f946b89d054c618", "name": "296b406c94bf07714f946b89d054c618", "lon": -77.00332666666667}, {"is_reserved": 0, "rental_uris": {"ios": "https://dc.lft.to/lastmile_qr_scan", "android": "https://dc.lft.to/lastmile_qr_scan"}, "is_disabled": 0, "fusion_lon": 0.0, "lat": 38.9028005, "type": "electric_scooter", "fusion_lat": 0.0, "bike_id": "dda04de159314a659c2604428f555efb", "name": "dda04de159314a659c2604428f555efb", "lon": -77.0602335}, {"is_reserved": 0, "rental_uris": {"ios": "https://dc.lft.to/lastmile_qr_scan", "android": "https://dc.lft.to/lastmile_qr_scan"}, "is_disabled": 0, "fusion_lon": 0.0, "lat": 38.8462835, "type": "electric_bike", "fusion_lat": 0.0, "bike_id": "ea190247bf5fe1681dfa8661977809fa", "name": "ea190247bf5fe1681dfa8661977809fa", "lon": -77.0694255}, {"is_reserved": 0, "rental_uris": {"ios": "https://dc.lft.to/lastmile_qr_scan", "android": "https://dc.lft.to/lastmile_qr_scan"}, "is_disabled": 0, "fusion_lon": 0.0, "lat": 38.9430015, "type": "electric_scooter", "fusion_lat": 0.0, "bike_id": "8c5b4c061037b99d554371f85461c79c", "name": "8c5b4c061037b99d554371f85461c79c", "lon": -77.03263683333333}, {"is_reserved": 0, "rental_uris": {"ios": "https://dc.lft.to/lastmile_qr_scan", "android": "https://dc.lft.to/lastmile_qr_scan"}, "is_disabled": 0, "fusion_lon": 0.0, "lat": 38.892759, "type": "electric_scooter", "fusion_lat": 0.0, "bike_id": "66d71f01ddf369fb8c5a492ab62dc0ac", "name": "66d71f01ddf369fb8c5a492ab62dc0ac", "lon": -77.05031466666667}, {"is_reserved": 0, "rental_uris": {"ios": "https://dc.lft.to/lastmile_qr_scan", "android": "https://dc.lft.to/lastmile_qr_scan"}, "is_disabled": 0, "fusion_lon": 0.0, "lat": 38.921751, "type": "electric_scooter", "fusion_lat": 0.0, "bike_id": "aa66cc3300023a27a9b16d0e592655f0", "name": "aa66cc3300023a27a9b16d0e592655f0", "lon": -77.040169}, {"is_reserved": 0, "rental_uris": {"ios": "https://dc.lft.to/lastmile_qr_scan", "android": "https://dc.lft.to/lastmile_qr_scan"}, "is_disabled": 0, "fusion_lon": 0.0, "lat": 38.91485633333333, "type": "electric_scooter", "fusion_lat": 0.0, "bike_id": "dea32861cd20c857b72c4437e16d9309", "name": "dea32861cd20c857b72c4437e16d9309", "lon": -77.03235466666666}, {"is_reserved": 0, "rental_uris": {"ios": "https://dc.lft.to/lastmile_qr_scan", "android": "https://dc.lft.to/lastmile_qr_scan"}, "is_disabled": 0, "fusion_lon": 0.0, "lat": 38.89196316666666, "type": "electric_scooter", "fusion_lat": 0.0, "bike_id": "238fdb87589b3f00c7f5cfa14d39d8c1", "name": "238fdb87589b3f00c7f5cfa14d39d8c1", "lon": -77.03108683333333}, {"is_reserved": 0, "rental_uris": {"ios": "https://dc.lft.to/lastmile_qr_scan", "android": "https://dc.lft.to/lastmile_qr_scan"}, "is_disabled": 0, "fusion_lon": 0.0, "lat": 38.93826516666667, "type": "electric_scooter", "fusion_lat": 0.0, "bike_id": "57e390e6394930a1e08c5e1f4b36a9be", "name": "57e390e6394930a1e08c5e1f4b36a9be", "lon": -77.0617575}, {"is_reserved": 0, "rental_uris": {"ios": "https://dc.lft.to/lastmile_qr_scan", "android": "https://dc.lft.to/lastmile_qr_scan"}, "is_disabled": 0, "fusion_lon": 0.0, "lat": 38.900625166666664, "type": "electric_scooter", "fusion_lat": 0.0, "bike_id": "1ca0d308999fae97ccfbd5fa11f1d738", "name": "1ca0d308999fae97ccfbd5fa11f1d738", "lon": -77.0458925}, {"is_reserved": 0, "rental_uris": {"ios": "https://dc.lft.to/lastmile_qr_scan", "android": "https://dc.lft.to/lastmile_qr_scan"}, "is_disabled": 0, "fusion_lon": 0.0, "lat": 38.89836533333333, "type": "electric_scooter", "fusion_lat": 0.0, "bike_id": "df68fba188aaf043968a88c6d97a2f7d", "name": "df68fba188aaf043968a88c6d97a2f7d", "lon": -76.93103233333333}, {"is_reserved": 0, "rental_uris": {"ios": "https://dc.lft.to/lastmile_qr_scan", "android": "https://dc.lft.to/lastmile_qr_scan"}, "is_disabled": 0, "fusion_lon": 0.0, "lat": 38.927056, "type": "electric_scooter", "fusion_lat": 0.0, "bike_id": "08c71b4a1d0c265a6c64aa5ebd3fab4f", "name": "08c71b4a1d0c265a6c64aa5ebd3fab4f", "lon": -77.0232585}, {"is_reserved": 0, "rental_uris": {"ios": "https://dc.lft.to/lastmile_qr_scan", "android": "https://dc.lft.to/lastmile_qr_scan"}, "is_disabled": 0, "fusion_lon": 0.0, "lat": 38.914797666666665, "type": "electric_scooter", "fusion_lat": 0.0, "bike_id": "178a650e2ae610758dec6ba1878948a7", "name": "178a650e2ae610758dec6ba1878948a7", "lon": -77.03219866666667}, {"is_reserved": 0, "rental_uris": {"ios": "https://dc.lft.to/lastmile_qr_scan", "android": "https://dc.lft.to/lastmile_qr_scan"}, "is_disabled": 0, "fusion_lon": 0.0, "lat": 38.92527916666667, "type": "electric_scooter", "fusion_lat": 0.0, "bike_id": "0eb853207137ee9ae803b413a859b6f6", "name": "0eb853207137ee9ae803b413a859b6f6", "lon": -77.04119083333333}, {"is_reserved": 0, "rental_uris": {"ios": "https://dc.lft.to/lastmile_qr_scan", "android": "https://dc.lft.to/lastmile_qr_scan"}, "is_disabled": 0, "fusion_lon": 0.0, "lat": 38.966044333333336, "type": "electric_bike", "fusion_lat": 0.0, "bike_id": "45504c53636b007b9f192a22f5fab710", "name": "45504c53636b007b9f192a22f5fab710", "lon": -76.98329166666667}, {"is_reserved": 0, "rental_uris": {"ios": "https://dc.lft.to/lastmile_qr_scan", "android": "https://dc.lft.to/lastmile_qr_scan"}, "is_disabled": 0, "fusion_lon": 0.0, "lat": 38.903745666666666, "type": "electric_scooter", "fusion_lat": 0.0, "bike_id": "d6066947d4ac589cae4dc3ad69433420", "name": "d6066947d4ac589cae4dc3ad69433420", "lon": -77.04169483333334}, {"is_reserved": 0, "rental_uris": {"ios": "https://dc.lft.to/lastmile_qr_scan", "android": "https://dc.lft.to/lastmile_qr_scan"}, "is_disabled": 0, "fusion_lon": 0.0, "lat": 38.9324995, "type": "electric_scooter", "fusion_lat": 0.0, "bike_id": "b75b45a30d38c2088a6c9554fc3edf0b", "name": "b75b45a30d38c2088a6c9554fc3edf0b", "lon": -77.02971666666667}, {"is_reserved": 0, "rental_uris": {"ios": "https://dc.lft.to/lastmile_qr_scan", "android": "https://dc.lft.to/lastmile_qr_scan"}, "is_disabled": 0, "fusion_lon": 0.0, "lat": 38.907120166666665, "type": "electric_scooter", "fusion_lat": 0.0, "bike_id": "0d160739f2af67035109b3004f9cec48", "name": "0d160739f2af67035109b3004f9cec48", "lon": -76.9979775}, {"is_reserved": 0, "rental_uris": {"ios": "https://dc.lft.to/lastmile_qr_scan", "android": "https://dc.lft.to/lastmile_qr_scan"}, "is_disabled": 0, "fusion_lon": 0.0, "lat": 38.936004833333335, "type": "electric_scooter", "fusion_lat": 0.0, "bike_id": "a19f308d2f82936d7dd359d014925040", "name": "a19f308d2f82936d7dd359d014925040", "lon": -77.02330466666666}, {"is_reserved": 0, "rental_uris": {"ios": "https://dc.lft.to/lastmile_qr_scan", "android": "https://dc.lft.to/lastmile_qr_scan"}, "is_disabled": 0, "fusion_lon": 0.0, "lat": 38.941674666666664, "type": "electric_scooter", "fusion_lat": 0.0, "bike_id": "0a8b7f0835505c44019b37926c91f27d", "name": "0a8b7f0835505c44019b37926c91f27d", "lon": -77.02533166666667}, {"is_reserved": 0, "rental_uris": {"ios": "https://dc.lft.to/lastmile_qr_scan", "android": "https://dc.lft.to/lastmile_qr_scan"}, "is_disabled": 0, "fusion_lon": 0.0, "lat": 38.89190933333333, "type": "electric_bike", "fusion_lat": 0.0, "bike_id": "89ec8a0dc177b4a78b462fdebad66362", "name": "89ec8a0dc177b4a78b462fdebad66362", "lon": -77.12263566666667}, {"is_reserved": 0, "rental_uris": {"ios": "https://dc.lft.to/lastmile_qr_scan", "android": "https://dc.lft.to/lastmile_qr_scan"}, "is_disabled": 0, "fusion_lon": 0.0, "lat": 38.928451833333334, "type": "electric_scooter", "fusion_lat": 0.0, "bike_id": "ef25920c11f65e870439a71eb7bf2898", "name": "ef25920c11f65e870439a71eb7bf2898", "lon": -77.03425766666666}, {"is_reserved": 0, "rental_uris": {"ios": "https://dc.lft.to/lastmile_qr_scan", "android": "https://dc.lft.to/lastmile_qr_scan"}, "is_disabled": 0, "fusion_lon": 0.0, "lat": 38.88545666666667, "type": "electric_scooter", "fusion_lat": 0.0, "bike_id": "533b16b9eca3784808359f9f93b5d5de", "name": "533b16b9eca3784808359f9f93b5d5de", "lon": -76.9976615}, {"is_reserved": 0, "rental_uris": {"ios": "https://dc.lft.to/lastmile_qr_scan", "android": "https://dc.lft.to/lastmile_qr_scan"}, "is_disabled": 0, "fusion_lon": 0.0, "lat": 38.86616816666667, "type": "electric_bike", "fusion_lat": 0.0, "bike_id": "7b040d562a56cfdea92347737bbc7940", "name": "7b040d562a56cfdea92347737bbc7940", "lon": -76.94569366666667}, {"is_reserved": 0, "rental_uris": {"ios": "https://dc.lft.to/lastmile_qr_scan", "android": "https://dc.lft.to/lastmile_qr_scan"}, "is_disabled": 0, "fusion_lon": 0.0, "lat": 38.92422633333334, "type": "electric_scooter", "fusion_lat": 0.0, "bike_id": "8b17a804004b906179287b1be1890e36", "name": "8b17a804004b906179287b1be1890e36", "lon": -77.04239716666666}, {"is_reserved": 0, "rental_uris": {"ios": "https://dc.lft.to/lastmile_qr_scan", "android": "https://dc.lft.to/lastmile_qr_scan"}, "is_disabled": 0, "fusion_lon": 0.0, "lat": 38.893724166666665, "type": "electric_scooter", "fusion_lat": 0.0, "bike_id": "e9e2af1ab0abf2f1b44ee2086aabec05", "name": "e9e2af1ab0abf2f1b44ee2086aabec05", "lon": -77.04803466666667}, {"is_reserved": 0, "rental_uris": {"ios": "https://dc.lft.to/lastmile_qr_scan", "android": "https://dc.lft.to/lastmile_qr_scan"}, "is_disabled": 0, "fusion_lon": 0.0, "lat": 38.910180833333335, "type": "electric_scooter", "fusion_lat": 0.0, "bike_id": "c0501ce039f75cf52ea2d00531de2049", "name": "c0501ce039f75cf52ea2d00531de2049", "lon": -77.054661}, {"is_reserved": 0, "rental_uris": {"ios": "https://dc.lft.to/lastmile_qr_scan", "android": "https://dc.lft.to/lastmile_qr_scan"}, "is_disabled": 0, "fusion_lon": 0.0, "lat": 38.890558, "type": "electric_scooter", "fusion_lat": 0.0, "bike_id": "086fd63b66b6221212ddf3c234449aaa", "name": "086fd63b66b6221212ddf3c234449aaa", "lon": -76.94328266666666}, {"is_reserved": 0, "rental_uris": {"ios": "https://dc.lft.to/lastmile_qr_scan", "android": "https://dc.lft.to/lastmile_qr_scan"}, "is_disabled": 0, "fusion_lon": 0.0, "lat": 38.9078305, "type": "electric_scooter", "fusion_lat": 0.0, "bike_id": "199a894da77cb062c5366942ede4c2b9", "name": "199a894da77cb062c5366942ede4c2b9", "lon": -77.0383105}, {"is_reserved": 0, "rental_uris": {"ios": "https://dc.lft.to/lastmile_qr_scan", "android": "https://dc.lft.to/lastmile_qr_scan"}, "is_disabled": 0, "fusion_lon": 0.0, "lat": 38.85804016666667, "type": "electric_scooter", "fusion_lat": 0.0, "bike_id": "77866bfd0c2fe0d376c08c49cba539e6", "name": "77866bfd0c2fe0d376c08c49cba539e6", "lon": -76.9865175}, {"is_reserved": 0, "rental_uris": {"ios": "https://dc.lft.to/lastmile_qr_scan", "android": "https://dc.lft.to/lastmile_qr_scan"}, "is_disabled": 0, "fusion_lon": 0.0, "lat": 38.92450566666667, "type": "electric_scooter", "fusion_lat": 0.0, "bike_id": "17e0b824612f165b3515f2b038230b7f", "name": "17e0b824612f165b3515f2b038230b7f", "lon": -77.02163033333333}, {"is_reserved": 0, "rental_uris": {"ios": "https://dc.lft.to/lastmile_qr_scan", "android": "https://dc.lft.to/lastmile_qr_scan"}, "is_disabled": 0, "fusion_lon": 0.0, "lat": 38.92461733333333, "type": "electric_bike", "fusion_lat": 0.0, "bike_id": "5f84b0179d8df837e1dec3749f626b48", "name": "5f84b0179d8df837e1dec3749f626b48", "lon": -77.20838433333333}, {"is_reserved": 0, "rental_uris": {"ios": "https://dc.lft.to/lastmile_qr_scan", "android": "https://dc.lft.to/lastmile_qr_scan"}, "is_disabled": 0, "fusion_lon": 0.0, "lat": 38.9186065, "type": "electric_scooter", "fusion_lat": 0.0, "bike_id": "6ba60c9a2c804446973b2843ff800e93", "name": "6ba60c9a2c804446973b2843ff800e93", "lon": -77.03205033333333}, {"is_reserved": 0, "rental_uris": {"ios": "https://dc.lft.to/lastmile_qr_scan", "android": "https://dc.lft.to/lastmile_qr_scan"}, "is_disabled": 0, "fusion_lon": 0.0, "lat": 38.9110215, "type": "electric_scooter", "fusion_lat": 0.0, "bike_id": "b4a06e4889a8d6a493ceea1ff119b41a", "name": "b4a06e4889a8d6a493ceea1ff119b41a", "lon": -77.0319325}, {"is_reserved": 0, "rental_uris": {"ios": "https://dc.lft.to/lastmile_qr_scan", "android": "https://dc.lft.to/lastmile_qr_scan"}, "is_disabled": 0, "fusion_lon": 0.0, "lat": 38.932462, "type": "electric_scooter", "fusion_lat": 0.0, "bike_id": "afb1cff57f0399351f66947b7d81f204", "name": "afb1cff57f0399351f66947b7d81f204", "lon": -77.03866533333333}, {"is_reserved": 0, "rental_uris": {"ios": "https://dc.lft.to/lastmile_qr_scan", "android": "https://dc.lft.to/lastmile_qr_scan"}, "is_disabled": 0, "fusion_lon": 0.0, "lat": 38.93874483333333, "type": "electric_scooter", "fusion_lat": 0.0, "bike_id": "7e2ef3ee539599bdd52cb1e84806041a", "name": "7e2ef3ee539599bdd52cb1e84806041a", "lon": -77.02483166666667}, {"is_reserved": 0, "rental_uris": {"ios": "https://dc.lft.to/lastmile_qr_scan", "android": "https://dc.lft.to/lastmile_qr_scan"}, "is_disabled": 0, "fusion_lon": 0.0, "lat": 38.91611483333333, "type": "electric_scooter", "fusion_lat": 0.0, "bike_id": "c338075a9b92a42f3c8a8dac4b1a5bfb", "name": "c338075a9b92a42f3c8a8dac4b1a5bfb", "lon": -77.04875083333333}, {"is_reserved": 0, "rental_uris": {"ios": "https://dc.lft.to/lastmile_qr_scan", "android": "https://dc.lft.to/lastmile_qr_scan"}, "is_disabled": 0, "fusion_lon": 0.0, "lat": 38.855110833333335, "type": "electric_bike", "fusion_lat": 0.0, "bike_id": "e0778f3785d03db0956195ac210960e0", "name": "e0778f3785d03db0956195ac210960e0", "lon": -77.12015583333333}, {"is_reserved": 0, "rental_uris": {"ios": "https://dc.lft.to/lastmile_qr_scan", "android": "https://dc.lft.to/lastmile_qr_scan"}, "is_disabled": 0, "fusion_lon": 0.0, "lat": 38.896082666666665, "type": "electric_scooter", "fusion_lat": 0.0, "bike_id": "6ce2053a0f5ee0794dcd0028d6e98e7a", "name": "6ce2053a0f5ee0794dcd0028d6e98e7a", "lon": -77.04557916666667}, {"is_reserved": 0, "rental_uris": {"ios": "https://dc.lft.to/lastmile_qr_scan", "android": "https://dc.lft.to/lastmile_qr_scan"}, "is_disabled": 0, "fusion_lon": 0.0, "lat": 38.911857, "type": "electric_scooter", "fusion_lat": 0.0, "bike_id": "c26a007ee4c37e333d40482c6e4adaad", "name": "c26a007ee4c37e333d40482c6e4adaad", "lon": -77.03448683333333}, {"is_reserved": 0, "rental_uris": {"ios": "https://dc.lft.to/lastmile_qr_scan", "android": "https://dc.lft.to/lastmile_qr_scan"}, "is_disabled": 0, "fusion_lon": 0.0, "lat": 38.919253, "type": "electric_bike", "fusion_lat": 0.0, "bike_id": "c90dd6ddab69fdcc9965510c627d190b", "name": "c90dd6ddab69fdcc9965510c627d190b", "lon": -76.95728466666667}, {"is_reserved": 0, "rental_uris": {"ios": "https://dc.lft.to/lastmile_qr_scan", "android": "https://dc.lft.to/lastmile_qr_scan"}, "is_disabled": 0, "fusion_lon": 0.0, "lat": 38.99938816666667, "type": "electric_bike", "fusion_lat": 0.0, "bike_id": "958dfc1a00961b3635c96198458a95c8", "name": "958dfc1a00961b3635c96198458a95c8", "lon": -77.01767066666666}, {"is_reserved": 0, "rental_uris": {"ios": "https://dc.lft.to/lastmile_qr_scan", "android": "https://dc.lft.to/lastmile_qr_scan"}, "is_disabled": 0, "fusion_lon": 0.0, "lat": 38.97322166666667, "type": "electric_bike", "fusion_lat": 0.0, "bike_id": "4d09bb1927a7abf94f7e9444ed6ea171", "name": "4d09bb1927a7abf94f7e9444ed6ea171", "lon": -77.02149233333333}, {"is_reserved": 0, "rental_uris": {"ios": "https://dc.lft.to/lastmile_qr_scan", "android": "https://dc.lft.to/lastmile_qr_scan"}, "is_disabled": 0, "fusion_lon": 0.0, "lat": 38.9573815, "type": "electric_scooter", "fusion_lat": 0.0, "bike_id": "d22b76eb1d837ffeffc5744fd8a74c08", "name": "d22b76eb1d837ffeffc5744fd8a74c08", "lon": -77.02060966666667}, {"is_reserved": 0, "rental_uris": {"ios": "https://dc.lft.to/lastmile_qr_scan", "android": "https://dc.lft.to/lastmile_qr_scan"}, "is_disabled": 0, "fusion_lon": 0.0, "lat": 38.893762, "type": "electric_scooter", "fusion_lat": 0.0, "bike_id": "605a6d219bb6affaa8a5d5d22b69523f", "name": "605a6d219bb6affaa8a5d5d22b69523f", "lon": -76.95001716666667}, {"is_reserved": 0, "rental_uris": {"ios": "https://dc.lft.to/lastmile_qr_scan", "android": "https://dc.lft.to/lastmile_qr_scan"}, "is_disabled": 0, "fusion_lon": 0.0, "lat": 38.95903783333333, "type": "electric_bike", "fusion_lat": 0.0, "bike_id": "7562ef668e1ec47b0fa41c0f018f35a5", "name": "7562ef668e1ec47b0fa41c0f018f35a5", "lon": -76.92489616666667}, {"is_reserved": 0, "rental_uris": {"ios": "https://dc.lft.to/lastmile_qr_scan", "android": "https://dc.lft.to/lastmile_qr_scan"}, "is_disabled": 0, "fusion_lon": 0.0, "lat": 38.900708333333334, "type": "electric_scooter", "fusion_lat": 0.0, "bike_id": "0dd6d4984b555e513a8f4b63390015a5", "name": "0dd6d4984b555e513a8f4b63390015a5", "lon": -76.99837533333333}, {"is_reserved": 0, "rental_uris": {"ios": "https://dc.lft.to/lastmile_qr_scan", "android": "https://dc.lft.to/lastmile_qr_scan"}, "is_disabled": 0, "fusion_lon": 0.0, "lat": 38.88178666666667, "type": "electric_scooter", "fusion_lat": 0.0, "bike_id": "bc4c6de7013a83c60f0b50ebb797c413", "name": "bc4c6de7013a83c60f0b50ebb797c413", "lon": -77.02813033333334}, {"is_reserved": 0, "rental_uris": {"ios": "https://dc.lft.to/lastmile_qr_scan", "android": "https://dc.lft.to/lastmile_qr_scan"}, "is_disabled": 0, "fusion_lon": 0.0, "lat": 38.925439, "type": "electric_scooter", "fusion_lat": 0.0, "bike_id": "b77042dad55fba0c1e7098c1c306097b", "name": "b77042dad55fba0c1e7098c1c306097b", "lon": -76.98128666666666}, {"is_reserved": 0, "rental_uris": {"ios": "https://dc.lft.to/lastmile_qr_scan", "android": "https://dc.lft.to/lastmile_qr_scan"}, "is_disabled": 0, "fusion_lon": 0.0, "lat": 38.90326233333333, "type": "electric_scooter", "fusion_lat": 0.0, "bike_id": "60518b2cd12cb324f7340f45d2350f90", "name": "60518b2cd12cb324f7340f45d2350f90", "lon": -77.0385665}, {"is_reserved": 0, "rental_uris": {"ios": "https://dc.lft.to/lastmile_qr_scan", "android": "https://dc.lft.to/lastmile_qr_scan"}, "is_disabled": 0, "fusion_lon": 0.0, "lat": 38.90468516666667, "type": "electric_scooter", "fusion_lat": 0.0, "bike_id": "969555372844fd6d10d3ef8da40b2b06", "name": "969555372844fd6d10d3ef8da40b2b06", "lon": -77.04867483333334}, {"is_reserved": 0, "rental_uris": {"ios": "https://dc.lft.to/lastmile_qr_scan", "android": "https://dc.lft.to/lastmile_qr_scan"}, "is_disabled": 0, "fusion_lon": 0.0, "lat": 38.89472833333333, "type": "electric_scooter", "fusion_lat": 0.0, "bike_id": "4c97f8a4b0a04dd8f5c5284bde80cf85", "name": "4c97f8a4b0a04dd8f5c5284bde80cf85", "lon": -77.0499515}, {"is_reserved": 0, "rental_uris": {"ios": "https://dc.lft.to/lastmile_qr_scan", "android": "https://dc.lft.to/lastmile_qr_scan"}, "is_disabled": 0, "fusion_lon": 0.0, "lat": 38.994023, "type": "electric_bike", "fusion_lat": 0.0, "bike_id": "95a6339eee29847a421152432caa37df", "name": "95a6339eee29847a421152432caa37df", "lon": -77.032213}, {"is_reserved": 0, "rental_uris": {"ios": "https://dc.lft.to/lastmile_qr_scan", "android": "https://dc.lft.to/lastmile_qr_scan"}, "is_disabled": 0, "fusion_lon": 0.0, "lat": 38.859347166666666, "type": "electric_scooter", "fusion_lat": 0.0, "bike_id": "6942e6baf014a3b36d8c1d60e6c0d7fd", "name": "6942e6baf014a3b36d8c1d60e6c0d7fd", "lon": -76.98968633333334}, {"is_reserved": 0, "rental_uris": {"ios": "https://dc.lft.to/lastmile_qr_scan", "android": "https://dc.lft.to/lastmile_qr_scan"}, "is_disabled": 0, "fusion_lon": 0.0, "lat": 38.92839566666667, "type": "electric_scooter", "fusion_lat": 0.0, "bike_id": "6c993f4854d2fc0180877c6a4cb970d4", "name": "6c993f4854d2fc0180877c6a4cb970d4", "lon": -77.01412566666667}, {"is_reserved": 0, "rental_uris": {"ios": "https://dc.lft.to/lastmile_qr_scan", "android": "https://dc.lft.to/lastmile_qr_scan"}, "is_disabled": 0, "fusion_lon": 0.0, "lat": 38.909842833333336, "type": "electric_scooter", "fusion_lat": 0.0, "bike_id": "fd1efaa03b9cadae7d259e584797d80a", "name": "fd1efaa03b9cadae7d259e584797d80a", "lon": -77.0385125}, {"is_reserved": 0, "rental_uris": {"ios": "https://dc.lft.to/lastmile_qr_scan", "android": "https://dc.lft.to/lastmile_qr_scan"}, "is_disabled": 0, "fusion_lon": 0.0, "lat": 38.939722833333335, "type": "electric_scooter", "fusion_lat": 0.0, "bike_id": "33e66c00dcf55614ce6f87738ba84215", "name": "33e66c00dcf55614ce6f87738ba84215", "lon": -77.03585583333333}, {"is_reserved": 0, "rental_uris": {"ios": "https://dc.lft.to/lastmile_qr_scan", "android": "https://dc.lft.to/lastmile_qr_scan"}, "is_disabled": 0, "fusion_lon": 0.0, "lat": 38.942030833333334, "type": "electric_bike", "fusion_lat": 0.0, "bike_id": "f5270097d176dfe6d75d16c286c1eedf", "name": "f5270097d176dfe6d75d16c286c1eedf", "lon": -77.01825333333333}, {"is_reserved": 0, "rental_uris": {"ios": "https://dc.lft.to/lastmile_qr_scan", "android": "https://dc.lft.to/lastmile_qr_scan"}, "is_disabled": 0, "fusion_lon": 0.0, "lat": 38.934579, "type": "electric_scooter", "fusion_lat": 0.0, "bike_id": "95bc8468690ca32cc0ba61db3187ad63", "name": "95bc8468690ca32cc0ba61db3187ad63", "lon": -77.030521}, {"is_reserved": 0, "rental_uris": {"ios": "https://dc.lft.to/lastmile_qr_scan", "android": "https://dc.lft.to/lastmile_qr_scan"}, "is_disabled": 0, "fusion_lon": 0.0, "lat": 38.9042105, "type": "electric_scooter", "fusion_lat": 0.0, "bike_id": "51008fd3a2a3342879992fe0f7e66b2d", "name": "51008fd3a2a3342879992fe0f7e66b2d", "lon": -77.02453533333333}, {"is_reserved": 0, "rental_uris": {"ios": "https://dc.lft.to/lastmile_qr_scan", "android": "https://dc.lft.to/lastmile_qr_scan"}, "is_disabled": 0, "fusion_lon": 0.0, "lat": 38.900357666666665, "type": "electric_scooter", "fusion_lat": 0.0, "bike_id": "0165730d3b87c25f10c40f1074a7e797", "name": "0165730d3b87c25f10c40f1074a7e797", "lon": -77.00537416666667}, {"is_reserved": 0, "rental_uris": {"ios": "https://dc.lft.to/lastmile_qr_scan", "android": "https://dc.lft.to/lastmile_qr_scan"}, "is_disabled": 0, "fusion_lon": 0.0, "lat": 38.892194, "type": "electric_bike", "fusion_lat": 0.0, "bike_id": "c19b91185992bb6e630ba68a87b60fbd", "name": "c19b91185992bb6e630ba68a87b60fbd", "lon": -77.10782666666667}, {"is_reserved": 0, "rental_uris": {"ios": "https://dc.lft.to/lastmile_qr_scan", "android": "https://dc.lft.to/lastmile_qr_scan"}, "is_disabled": 0, "fusion_lon": 0.0, "lat": 38.908637166666665, "type": "electric_scooter", "fusion_lat": 0.0, "bike_id": "fd488610ea7c8486433759a00ac9ab08", "name": "fd488610ea7c8486433759a00ac9ab08", "lon": -77.02854783333333}, {"is_reserved": 0, "rental_uris": {"ios": "https://dc.lft.to/lastmile_qr_scan", "android": "https://dc.lft.to/lastmile_qr_scan"}, "is_disabled": 0, "fusion_lon": 0.0, "lat": 38.92022983333333, "type": "electric_scooter", "fusion_lat": 0.0, "bike_id": "92c995712a66014076eaf55e67cd620d", "name": "92c995712a66014076eaf55e67cd620d", "lon": -77.028012}, {"is_reserved": 0, "rental_uris": {"ios": "https://dc.lft.to/lastmile_qr_scan", "android": "https://dc.lft.to/lastmile_qr_scan"}, "is_disabled": 0, "fusion_lon": 0.0, "lat": 38.941846, "type": "electric_scooter", "fusion_lat": 0.0, "bike_id": "9fa0c258910c09ba462b0836493d3231", "name": "9fa0c258910c09ba462b0836493d3231", "lon": -77.02486016666667}, {"is_reserved": 0, "rental_uris": {"ios": "https://dc.lft.to/lastmile_qr_scan", "android": "https://dc.lft.to/lastmile_qr_scan"}, "is_disabled": 0, "fusion_lon": 0.0, "lat": 38.892221, "type": "electric_scooter", "fusion_lat": 0.0, "bike_id": "d8133149b42abccbae74dbb730a60509", "name": "d8133149b42abccbae74dbb730a60509", "lon": -77.021394}, {"is_reserved": 0, "rental_uris": {"ios": "https://dc.lft.to/lastmile_qr_scan", "android": "https://dc.lft.to/lastmile_qr_scan"}, "is_disabled": 0, "fusion_lon": 0.0, "lat": 38.8846825, "type": "electric_scooter", "fusion_lat": 0.0, "bike_id": "17be180878d6421f4b6ea2deb038caae", "name": "17be180878d6421f4b6ea2deb038caae", "lon": -77.01536083333333}, {"is_reserved": 0, "rental_uris": {"ios": "https://dc.lft.to/lastmile_qr_scan", "android": "https://dc.lft.to/lastmile_qr_scan"}, "is_disabled": 0, "fusion_lon": 0.0, "lat": 38.91804916666667, "type": "electric_scooter", "fusion_lat": 0.0, "bike_id": "4cddc7839966049df80bcaba87c6191a", "name": "4cddc7839966049df80bcaba87c6191a", "lon": -77.03334566666666}, {"is_reserved": 0, "rental_uris": {"ios": "https://dc.lft.to/lastmile_qr_scan", "android": "https://dc.lft.to/lastmile_qr_scan"}, "is_disabled": 0, "fusion_lon": 0.0, "lat": 38.887386, "type": "electric_scooter", "fusion_lat": 0.0, "bike_id": "6fa3f811cd350aa58d81c2979a26c122", "name": "6fa3f811cd350aa58d81c2979a26c122", "lon": -77.01535716666666}, {"is_reserved": 0, "rental_uris": {"ios": "https://dc.lft.to/lastmile_qr_scan", "android": "https://dc.lft.to/lastmile_qr_scan"}, "is_disabled": 0, "fusion_lon": 0.0, "lat": 38.9156405, "type": "electric_scooter", "fusion_lat": 0.0, "bike_id": "824e684e8d8ccf4a7fd7ed6e688fb430", "name": "824e684e8d8ccf4a7fd7ed6e688fb430", "lon": -77.03156316666667}, {"is_reserved": 0, "rental_uris": {"ios": "https://dc.lft.to/lastmile_qr_scan", "android": "https://dc.lft.to/lastmile_qr_scan"}, "is_disabled": 0, "fusion_lon": 0.0, "lat": 38.8972805, "type": "electric_scooter", "fusion_lat": 0.0, "bike_id": "739d3c9c387a0c3cc7047cbba8aca750", "name": "739d3c9c387a0c3cc7047cbba8aca750", "lon": -77.0489045}, {"is_reserved": 0, "rental_uris": {"ios": "https://dc.lft.to/lastmile_qr_scan", "android": "https://dc.lft.to/lastmile_qr_scan"}, "is_disabled": 0, "fusion_lon": 0.0, "lat": 38.909175, "type": "electric_scooter", "fusion_lat": 0.0, "bike_id": "7cb1712134bab38d38dca3ebb2c6d3c0", "name": "7cb1712134bab38d38dca3ebb2c6d3c0", "lon": -77.080025}, {"is_reserved": 0, "rental_uris": {"ios": "https://dc.lft.to/lastmile_qr_scan", "android": "https://dc.lft.to/lastmile_qr_scan"}, "is_disabled": 0, "fusion_lon": 0.0, "lat": 38.91108916666666, "type": "electric_scooter", "fusion_lat": 0.0, "bike_id": "4e3d7d118772f9e3661de213a30df8f5", "name": "4e3d7d118772f9e3661de213a30df8f5", "lon": -77.0449625}, {"is_reserved": 0, "rental_uris": {"ios": "https://dc.lft.to/lastmile_qr_scan", "android": "https://dc.lft.to/lastmile_qr_scan"}, "is_disabled": 0, "fusion_lon": 0.0, "lat": 38.9139665, "type": "electric_scooter", "fusion_lat": 0.0, "bike_id": "c85d246c8dc10cc151708ce44b71a2cf", "name": "c85d246c8dc10cc151708ce44b71a2cf", "lon": -77.03929883333333}, {"is_reserved": 0, "rental_uris": {"ios": "https://dc.lft.to/lastmile_qr_scan", "android": "https://dc.lft.to/lastmile_qr_scan"}, "is_disabled": 0, "fusion_lon": 0.0, "lat": 38.907734833333336, "type": "electric_scooter", "fusion_lat": 0.0, "bike_id": "a03b9ea7b168178ea56a3cd9e61b217a", "name": "a03b9ea7b168178ea56a3cd9e61b217a", "lon": -77.07158866666667}, {"is_reserved": 0, "rental_uris": {"ios": "https://dc.lft.to/lastmile_qr_scan", "android": "https://dc.lft.to/lastmile_qr_scan"}, "is_disabled": 0, "fusion_lon": 0.0, "lat": 38.898181666666666, "type": "electric_scooter", "fusion_lat": 0.0, "bike_id": "76a037b4caf0c3c8170b1d8678666717", "name": "76a037b4caf0c3c8170b1d8678666717", "lon": -76.99694883333333}, {"is_reserved": 0, "rental_uris": {"ios": "https://dc.lft.to/lastmile_qr_scan", "android": "https://dc.lft.to/lastmile_qr_scan"}, "is_disabled": 0, "fusion_lon": 0.0, "lat": 39.05634533333333, "type": "electric_bike", "fusion_lat": 0.0, "bike_id": "c868da33e60772fc299f5cb3f32a65db", "name": "c868da33e60772fc299f5cb3f32a65db", "lon": -77.12526416666667}, {"is_reserved": 0, "rental_uris": {"ios": "https://dc.lft.to/lastmile_qr_scan", "android": "https://dc.lft.to/lastmile_qr_scan"}, "is_disabled": 0, "fusion_lon": 0.0, "lat": 38.91629916666667, "type": "electric_scooter", "fusion_lat": 0.0, "bike_id": "b79ce89c772e31c486ea67395c433bb1", "name": "b79ce89c772e31c486ea67395c433bb1", "lon": -77.032731}, {"is_reserved": 0, "rental_uris": {"ios": "https://dc.lft.to/lastmile_qr_scan", "android": "https://dc.lft.to/lastmile_qr_scan"}, "is_disabled": 0, "fusion_lon": 0.0, "lat": 38.92358466666667, "type": "electric_scooter", "fusion_lat": 0.0, "bike_id": "08fd2e7e6ce7fa3509a5839cb14758d5", "name": "08fd2e7e6ce7fa3509a5839cb14758d5", "lon": -77.04124966666667}, {"is_reserved": 0, "rental_uris": {"ios": "https://dc.lft.to/lastmile_qr_scan", "android": "https://dc.lft.to/lastmile_qr_scan"}, "is_disabled": 0, "fusion_lon": 0.0, "lat": 38.885145666666666, "type": "electric_scooter", "fusion_lat": 0.0, "bike_id": "64fd09b3afc1c75a71bd777454ebf8ed", "name": "64fd09b3afc1c75a71bd777454ebf8ed", "lon": -77.00574033333334}, {"is_reserved": 0, "rental_uris": {"ios": "https://dc.lft.to/lastmile_qr_scan", "android": "https://dc.lft.to/lastmile_qr_scan"}, "is_disabled": 0, "fusion_lon": 0.0, "lat": 38.90984733333333, "type": "electric_scooter", "fusion_lat": 0.0, "bike_id": "3f6890470797ecf1c8b18b6e9aa5844d", "name": "3f6890470797ecf1c8b18b6e9aa5844d", "lon": -77.0218465}, {"is_reserved": 0, "rental_uris": {"ios": "https://dc.lft.to/lastmile_qr_scan", "android": "https://dc.lft.to/lastmile_qr_scan"}, "is_disabled": 0, "fusion_lon": 0.0, "lat": 38.9077925, "type": "electric_scooter", "fusion_lat": 0.0, "bike_id": "70c604d314d1b040cd1d76cb851ee9ef", "name": "70c604d314d1b040cd1d76cb851ee9ef", "lon": -77.03831666666666}, {"is_reserved": 0, "rental_uris": {"ios": "https://dc.lft.to/lastmile_qr_scan", "android": "https://dc.lft.to/lastmile_qr_scan"}, "is_disabled": 0, "fusion_lon": 0.0, "lat": 38.8863705, "type": "electric_bike", "fusion_lat": 0.0, "bike_id": "6a29321f266dc56e7cd4fd9f36ab6520", "name": "6a29321f266dc56e7cd4fd9f36ab6520", "lon": -76.95469883333334}, {"is_reserved": 0, "rental_uris": {"ios": "https://dc.lft.to/lastmile_qr_scan", "android": "https://dc.lft.to/lastmile_qr_scan"}, "is_disabled": 0, "fusion_lon": 0.0, "lat": 38.96145633333333, "type": "electric_scooter", "fusion_lat": 0.0, "bike_id": "927da5b14d2c576fcb3ea590a5e55472", "name": "927da5b14d2c576fcb3ea590a5e55472", "lon": -77.02788583333333}, {"is_reserved": 0, "rental_uris": {"ios": "https://dc.lft.to/lastmile_qr_scan", "android": "https://dc.lft.to/lastmile_qr_scan"}, "is_disabled": 0, "fusion_lon": 0.0, "lat": 38.90157333333333, "type": "electric_scooter", "fusion_lat": 0.0, "bike_id": "38775e6af1c30b52087c472495d6ffe3", "name": "38775e6af1c30b52087c472495d6ffe3", "lon": -77.02924183333333}, {"is_reserved": 0, "rental_uris": {"ios": "https://dc.lft.to/lastmile_qr_scan", "android": "https://dc.lft.to/lastmile_qr_scan"}, "is_disabled": 0, "fusion_lon": 0.0, "lat": 38.925284, "type": "electric_scooter", "fusion_lat": 0.0, "bike_id": "5946d60ca1a6fc39239834b43178895f", "name": "5946d60ca1a6fc39239834b43178895f", "lon": -77.03857516666666}, {"is_reserved": 0, "rental_uris": {"ios": "https://dc.lft.to/lastmile_qr_scan", "android": "https://dc.lft.to/lastmile_qr_scan"}, "is_disabled": 0, "fusion_lon": 0.0, "lat": 38.9359345, "type": "electric_scooter", "fusion_lat": 0.0, "bike_id": "bf7560b339cb3266314243dfad4cf71e", "name": "bf7560b339cb3266314243dfad4cf71e", "lon": -77.03746183333334}, {"is_reserved": 0, "rental_uris": {"ios": "https://dc.lft.to/lastmile_qr_scan", "android": "https://dc.lft.to/lastmile_qr_scan"}, "is_disabled": 0, "fusion_lon": 0.0, "lat": 38.879754, "type": "electric_scooter", "fusion_lat": 0.0, "bike_id": "77f2a74dc017ddd2b1b9090f6cfe5d8b", "name": "77f2a74dc017ddd2b1b9090f6cfe5d8b", "lon": -76.98531133333333}, {"is_reserved": 0, "rental_uris": {"ios": "https://dc.lft.to/lastmile_qr_scan", "android": "https://dc.lft.to/lastmile_qr_scan"}, "is_disabled": 0, "fusion_lon": 0.0, "lat": 38.91563583333333, "type": "electric_scooter", "fusion_lat": 0.0, "bike_id": "f9614c490b5bcf62413ec8a6790d1f99", "name": "f9614c490b5bcf62413ec8a6790d1f99", "lon": -77.01963366666666}, {"is_reserved": 0, "rental_uris": {"ios": "https://dc.lft.to/lastmile_qr_scan", "android": "https://dc.lft.to/lastmile_qr_scan"}, "is_disabled": 0, "fusion_lon": 0.0, "lat": 38.9571045, "type": "electric_scooter", "fusion_lat": 0.0, "bike_id": "98627574eaa40039e6574efbdb5785b0", "name": "98627574eaa40039e6574efbdb5785b0", "lon": -77.0028105}, {"is_reserved": 0, "rental_uris": {"ios": "https://dc.lft.to/lastmile_qr_scan", "android": "https://dc.lft.to/lastmile_qr_scan"}, "is_disabled": 0, "fusion_lon": 0.0, "lat": 38.91896783333333, "type": "electric_scooter", "fusion_lat": 0.0, "bike_id": "3d1e042d1f2115795f07a775523860ba", "name": "3d1e042d1f2115795f07a775523860ba", "lon": -77.0415435}, {"is_reserved": 0, "rental_uris": {"ios": "https://dc.lft.to/lastmile_qr_scan", "android": "https://dc.lft.to/lastmile_qr_scan"}, "is_disabled": 0, "fusion_lon": 0.0, "lat": 38.911049, "type": "electric_scooter", "fusion_lat": 0.0, "bike_id": "8e5527eb30fcc1903888ad69296bbf10", "name": "8e5527eb30fcc1903888ad69296bbf10", "lon": -77.04200266666666}, {"is_reserved": 0, "rental_uris": {"ios": "https://dc.lft.to/lastmile_qr_scan", "android": "https://dc.lft.to/lastmile_qr_scan"}, "is_disabled": 0, "fusion_lon": 0.0, "lat": 38.9352265, "type": "electric_scooter", "fusion_lat": 0.0, "bike_id": "0a0502819e8f389785a029c2bd6dd8fe", "name": "0a0502819e8f389785a029c2bd6dd8fe", "lon": -77.02370366666666}, {"is_reserved": 0, "rental_uris": {"ios": "https://dc.lft.to/lastmile_qr_scan", "android": "https://dc.lft.to/lastmile_qr_scan"}, "is_disabled": 0, "fusion_lon": 0.0, "lat": 38.91709516666667, "type": "electric_bike", "fusion_lat": 0.0, "bike_id": "e706c3e13f8d1f231d0a91a3ba0625a6", "name": "e706c3e13f8d1f231d0a91a3ba0625a6", "lon": -77.04148116666667}, {"is_reserved": 0, "rental_uris": {"ios": "https://dc.lft.to/lastmile_qr_scan", "android": "https://dc.lft.to/lastmile_qr_scan"}, "is_disabled": 0, "fusion_lon": 0.0, "lat": 38.882762666666665, "type": "electric_scooter", "fusion_lat": 0.0, "bike_id": "01d4bade58aeb5f7a9e11a774c4dc530", "name": "01d4bade58aeb5f7a9e11a774c4dc530", "lon": -76.993661},