{"data": {"bikes": [{"lon": -77.01610066666667, "fusion_lon": 0.0, "bike_id": "fc3688329d8578edd88b3ac14b7f262a", "type": "electric_scooter", "name": "fc3688329d8578edd88b3ac14b7f262a", "rental_uris": {"android": "https://dc.lft.to/lastmile_qr_scan", "ios": "https://dc.lft.to/lastmile_qr_scan"}, "is_disabled": 0, "fusion_lat": 0.0, "lat": 38.8991915, "is_reserved": 0}, {"lon": -77.0008415, "fusion_lon": 0.0, "bike_id": "83d0b7cd82ba6f25616d230bf162793c", "type": "electric_scooter", "name": "83d0b7cd82ba6f25616d230bf162793c", "rental_uris": {"android": "https://dc.lft.to/lastmile_qr_scan", "ios": "https://dc.lft.to/lastmile_qr_scan"}, "is_disabled": 0, "fusion_lat": 0.0, "lat": 38.87376166666667, "is_reserved": 0}, {"lon": -77.02387716666667, "fusion_lon": 0.0, "bike_id": "8d0bef8bb19167e2fb3296945fbdda3d", "type": "electric_scooter", "name": "8d0bef8bb19167e2fb3296945fbdda3d", "rental_uris": {"android": "https://dc.lft.to/lastmile_qr_scan", "ios": "https://dc.lft.to/lastmile_qr_scan"}, "is_disabled": 0, "fusion_lat": 0.0, "lat": 38.912723666666665, "is_reserved": 0}, {"lon": -77.02482916666666, "fusion_lon": 0.0, "bike_id": "cf4ec713ad23395525139ecf1d2fdab2", "type": "electric_scooter", "name": "cf4ec713ad23395525139ecf1d2fdab2", "rental_uris": {"android": "https://dc.lft.to/lastmile_qr_scan", "ios": "https://dc.lft.to/lastmile_qr_scan"}, "is_disabled": 0, "fusion_lat": 0.0, "lat": 38.88442633333333, "is_reserved": 0}, {"lon": -77.01713683333334, "fusion_lon": 0.0, "bike_id": "633c3d3e94b122720ab065b97d187ffe", "type": "electric_scooter", "name": "633c3d3e94b122720ab065b97d187ffe", "rental_uris": {"android": "https://dc.lft.to/lastmile_qr_scan", "ios": "https://dc.lft.to/lastmile_qr_scan"}, "is_disabled": 0, "fusion_lat": 0.0, "lat": 38.917477, "is_reserved": 0}, {"lon": -76.987129, "fusion_lon": 0.0, "bike_id": "9574f84200722af30cb27c75f0cba436", "type": "electric_scooter", "name": "9574f84200722af30cb27c75f0cba436", "rental_uris": {"android": "https://dc.lft.to/lastmile_qr_scan", "ios": "https://dc.lft.to/lastmile_qr_scan"}, "is_disabled": 0, "fusion_lat": 0.0, "lat": 38.863366166666665, "is_reserved": 0}, {"lon": -77.02719233333333, "fusion_lon": 0.0, "bike_id": "31bc6789402aed59501977070c75d68d", "type": "electric_scooter", "name": "31bc6789402aed59501977070c75d68d", "rental_uris": {"android": "https://dc.lft.to/lastmile_qr_scan", "ios": "https://dc.lft.to/lastmile_qr_scan"}, "is_disabled": 0, "fusion_lat": 0.0, "lat": 38.9245875, "is_reserved": 0}, {"lon": -77.06467533333333, "fusion_lon": 0.0, "bike_id": "fe2ae02873b9c879c67a91249e91aef2", "type": "electric_bike", "name": "fe2ae02873b9c879c67a91249e91aef2", "rental_uris": {"android": "https://dc.lft.to/lastmile_qr_scan", "ios": "https://dc.lft.to/lastmile_qr_scan"}, "is_disabled": 0, "fusion_lat": 0.0, "lat": 38.9738005, "is_reserved": 0}, {"lon": -77.0550645, "fusion_lon": 0.0, "bike_id": "e09c9e701fd7238623c7a5c7b00b83f0", "type": "electric_scooter", "name": "e09c9e701fd7238623c7a5c7b00b83f0", "rental_uris": {"android": "https://dc.lft.to/lastmile_qr_scan", "ios": "https://dc.lft.to/lastmile_qr_scan"}, "is_disabled": 0, "fusion_lat": 0.0, "lat": 38.92831866666667, "is_reserved": 0}, {"lon": -77.03854933333334, "fusion_lon": 0.0, "bike_id": "ffbaf3c280d794bcba5e09e67e2145cc", "type": "electric_scooter", "name": "ffbaf3c280d794bcba5e09e67e2145cc", "rental_uris": {"android": "https://dc.lft.to/lastmile_qr_scan", "ios": "https://dc.lft.to/lastmile_qr_scan"}, "is_disabled": 0, "fusion_lat": 0.0, "lat": 38.91553866666667, "is_reserved": 0}, {"lon": -76.94632066666667, "fusion_lon": 0.0, "bike_id": "6bec7645076ce5fa308981ae9247aac6", "type": "electric_scooter", "name": "6bec7645076ce5fa308981ae9247aac6", "rental_uris": {"android": "https://dc.lft.to/lastmile_qr_scan", "ios": "https://dc.lft.to/lastmile_qr_scan"}, "is_disabled": 0, "fusion_lat": 0.0, "lat": 38.89865183333333, "is_reserved": 0}, {"lon": -77.0455095, "fusion_lon": 0.0, "bike_id": "d7a796440a888280dc6d40ca20e92907", "type": "electric_scooter", "name": "d7a796440a888280dc6d40ca20e92907", "rental_uris": {"android": "https://dc.lft.to/lastmile_qr_scan", "ios": "https://dc.lft.to/lastmile_qr_scan"}, "is_disabled": 0, "fusion_lat": 0.0, "lat": 38.9194525, "is_reserved": 0}, {"lon": -76.98561066666667, "fusion_lon": 0.0, "bike_id": "9e1dbf4c4c11566e97ddb4e09e0391a2", "type": "electric_scooter", "name": "9e1dbf4c4c11566e97ddb4e09e0391a2", "rental_uris": {"android": "https://dc.lft.to/lastmile_qr_scan", "ios": "https://dc.lft.to/lastmile_qr_scan"}, "is_disabled": 0, "fusion_lat": 0.0, "lat": 38.883783, "is_reserved": 0}, {"lon": -77.028851, "fusion_lon": 0.0, "bike_id": "a27313e41a271a5ea8dd18b3bf4a27f5", "type": "electric_scooter", "name": "a27313e41a271a5ea8dd18b3bf4a27f5", "rental_uris": {"android": "https://dc.lft.to/lastmile_qr_scan", "ios": "https://dc.lft.to/lastmile_qr_scan"}, "is_disabled": 0, "fusion_lat": 0.0, "lat": 38.91722466666667, "is_reserved": 0}, {"lon": -77.02819966666667, "fusion_lon": 0.0, "bike_id": "5db17d5553231ec4ddd986765948c740", "type": "electric_scooter", "name": "5db17d5553231ec4ddd986765948c740", "rental_uris": {"android": "https://dc.lft.to/lastmile_qr_scan", "ios": "https://dc.lft.to/lastmile_qr_scan"}, "is_disabled": 0, "fusion_lat": 0.0, "lat": 38.90112716666667, "is_reserved": 0}, {"lon": -77.02241016666666, "fusion_lon": 0.0, "bike_id": "0661dfd2c459e7a49d424b3f71e32e36", "type": "electric_scooter", "name": "0661dfd2c459e7a49d424b3f71e32e36", "rental_uris": {"android": "https://dc.lft.to/lastmile_qr_scan", "ios": "https://dc.lft.to/lastmile_qr_scan"}, "is_disabled": 0, "fusion_lat": 0.0, "lat": 38.891949, "is_reserved": 0}, {"lon": -77.01227916666667, "fusion_lon": 0.0, "bike_id": "6301bd51b74fd8914e230207a197bff9", "type": "electric_scooter", "name": "6301bd51b74fd8914e230207a197bff9", "rental_uris": {"android": "https://dc.lft.to/lastmile_qr_scan", "ios": "https://dc.lft.to/lastmile_qr_scan"}, "is_disabled": 0, "fusion_lat": 0.0, "lat": 38.9140575, "is_reserved": 0}, {"lon": -76.985016, "fusion_lon": 0.0, "bike_id": "1977ba6f6deab365c8d5d35be2b9f76b", "type": "electric_scooter", "name": "1977ba6f6deab365c8d5d35be2b9f76b", "rental_uris": {"android": "https://dc.lft.to/lastmile_qr_scan", "ios": "https://dc.lft.to/lastmile_qr_scan"}, "is_disabled": 0, "fusion_lat": 0.0, "lat": 38.91329233333333, "is_reserved": 0}, {"lon": -77.02656416666666, "fusion_lon": 0.0, "bike_id": "9e2fdefec79bac08331c90083cfb3abe", "type": "electric_scooter", "name": "9e2fdefec79bac08331c90083cfb3abe", "rental_uris": {"android": "https://dc.lft.to/lastmile_qr_scan", "ios": "https://dc.lft.to/lastmile_qr_scan"}, "is_disabled": 0, "fusion_lat": 0.0, "lat": 38.881083, "is_reserved": 0}, {"lon": -77.02480733333333, "fusion_lon": 0.0, "bike_id": "bffa7aeafe762f60ff123439fb7d8afd", "type": "electric_scooter", "name": "bffa7aeafe762f60ff123439fb7d8afd", "rental_uris": {"android": "https://dc.lft.to/lastmile_qr_scan", "ios": "https://dc.lft.to/lastmile_qr_scan"}, "is_disabled": 0, "fusion_lat": 0.0, "lat": 38.938858833333335, "is_reserved": 0}, {"lon": -77.007949, "fusion_lon": 0.0, "bike_id": "948bd3c8e10728fd27b836939c0f902a", "type": "electric_scooter", "name": "948bd3c8e10728fd27b836939c0f902a", "rental_uris": {"android": "https://dc.lft.to/lastmile_qr_scan", "ios": "https://dc.lft.to/lastmile_qr_scan"}, "is_disabled": 0, "fusion_lat": 0.0, "lat": 38.91565683333334, "is_reserved": 0}, {"lon": -76.99555116666667, "fusion_lon": 0.0, "bike_id": "9a0eab0bdb76891900bd7989e3a4cbad", "type": "electric_scooter", "name": "9a0eab0bdb76891900bd7989e3a4cbad", "rental_uris": {"android": "https://dc.lft.to/lastmile_qr_scan", "ios": "https://dc.lft.to/lastmile_qr_scan"}, "is_disabled": 0, "fusion_lat": 0.0, "lat": 38.884193, "is_reserved": 0}, {"lon": -77.03498066666667, "fusion_lon": 0.0, "bike_id": "658746d3b22b6204952c2be450092952", "type": "electric_scooter", "name": "658746d3b22b6204952c2be450092952", "rental_uris": {"android": "https://dc.lft.to/lastmile_qr_scan", "ios": "https://dc.lft.to/lastmile_qr_scan"}, "is_disabled": 0, "fusion_lat": 0.0, "lat": 38.9317185, "is_reserved": 0}, {"lon": -77.0249065, "fusion_lon": 0.0, "bike_id": "004dd18470b358242b78f2d9a1b4a211", "type": "electric_scooter", "name": "004dd18470b358242b78f2d9a1b4a211", "rental_uris": {"android": "https://dc.lft.to/lastmile_qr_scan", "ios": "https://dc.lft.to/lastmile_qr_scan"}, "is_disabled": 0, "fusion_lat": 0.0, "lat": 38.91923333333333, "is_reserved": 0}, {"lon": -77.04468816666666, "fusion_lon": 0.0, "bike_id": "7df854441440369a9ce27b47e1281f3c", "type": "electric_scooter", "name": "7df854441440369a9ce27b47e1281f3c", "rental_uris": {"android": "https://dc.lft.to/lastmile_qr_scan", "ios": "https://dc.lft.to/lastmile_qr_scan"}, "is_disabled": 0, "fusion_lat": 0.0, "lat": 38.909080333333335, "is_reserved": 0}, {"lon": -77.00141833333333, "fusion_lon": 0.0, "bike_id": "1da3715abb89ca0141f5129f4c3c0c54", "type": "electric_scooter", "name": "1da3715abb89ca0141f5129f4c3c0c54", "rental_uris": {"android": "https://dc.lft.to/lastmile_qr_scan", "ios": "https://dc.lft.to/lastmile_qr_scan"}, "is_disabled": 0, "fusion_lat": 0.0, "lat": 38.9087615, "is_reserved": 0}, {"lon": -77.0260685, "fusion_lon": 0.0, "bike_id": "db45aa43446c853fd8b221d93c7f1ab2", "type": "electric_scooter", "name": "db45aa43446c853fd8b221d93c7f1ab2", "rental_uris": {"android": "https://dc.lft.to/lastmile_qr_scan", "ios": "https://dc.lft.to/lastmile_qr_scan"}, "is_disabled": 0, "fusion_lat": 0.0, "lat": 38.917191, "is_reserved": 0}, {"lon": -77.01342916666667, "fusion_lon": 0.0, "bike_id": "d94206a8313fd324a2f7cc5007764b6d", "type": "electric_scooter", "name": "d94206a8313fd324a2f7cc5007764b6d", "rental_uris": {"android": "https://dc.lft.to/lastmile_qr_scan", "ios": "https://dc.lft.to/lastmile_qr_scan"}, "is_disabled": 0, "fusion_lat": 0.0, "lat": 38.919120166666666, "is_reserved": 0}, {"lon": -77.04673833333334, "fusion_lon": 0.0, "bike_id": "99db9334f8b401bc90142e22dd562d40", "type": "electric_scooter", "name": "99db9334f8b401bc90142e22dd562d40", "rental_uris": {"android": "https://dc.lft.to/lastmile_qr_scan", "ios": "https://dc.lft.to/lastmile_qr_scan"}, "is_disabled": 0, "fusion_lat": 0.0, "lat": 38.9141615, "is_reserved": 0}, {"lon": -77.024354, "fusion_lon": 0.0, "bike_id": "dd5a158325f10def3ea05e581b7dc469", "type": "electric_scooter", "name": "dd5a158325f10def3ea05e581b7dc469", "rental_uris": {"android": "https://dc.lft.to/lastmile_qr_scan", "ios": "https://dc.lft.to/lastmile_qr_scan"}, "is_disabled": 0, "fusion_lat": 0.0, "lat": 38.9181905, "is_reserved": 0}, {"lon": -77.02170583333333, "fusion_lon": 0.0, "bike_id": "a551782e142cf75e45591f291bae78a2", "type": "electric_scooter", "name": "a551782e142cf75e45591f291bae78a2", "rental_uris": {"android": "https://dc.lft.to/lastmile_qr_scan", "ios": "https://dc.lft.to/lastmile_qr_scan"}, "is_disabled": 0, "fusion_lat": 0.0, "lat": 38.94292433333333, "is_reserved": 0}, {"lon": -77.0412255, "fusion_lon": 0.0, "bike_id": "d1b87aa15bd957b202b65e2fff71e837", "type": "electric_scooter", "name": "d1b87aa15bd957b202b65e2fff71e837", "rental_uris": {"android": "https://dc.lft.to/lastmile_qr_scan", "ios": "https://dc.lft.to/lastmile_qr_scan"}, "is_disabled": 0, "fusion_lat": 0.0, "lat": 38.93357816666666, "is_reserved": 0}, {"lon": -77.01995416666666, "fusion_lon": 0.0, "bike_id": "ee29ed9c7decbbbec2237146445617a5", "type": "electric_scooter", "name": "ee29ed9c7decbbbec2237146445617a5", "rental_uris": {"android": "https://dc.lft.to/lastmile_qr_scan", "ios": "https://dc.lft.to/lastmile_qr_scan"}, "is_disabled": 0, "fusion_lat": 0.0, "lat": 38.93082533333333, "is_reserved": 0}, {"lon": -77.06349266666666, "fusion_lon": 0.0, "bike_id": "34feb8adb1d2e021762c5e2254bc9b73", "type": "electric_scooter", "name": "34feb8adb1d2e021762c5e2254bc9b73", "rental_uris": {"android": "https://dc.lft.to/lastmile_qr_scan", "ios": "https://dc.lft.to/lastmile_qr_scan"}, "is_disabled": 0, "fusion_lat": 0.0, "lat": 38.94437816666667, "is_reserved": 0}, {"lon": -77.02657533333333, "fusion_lon": 0.0, "bike_id": "37c6e22365847ab2a09df8178c2017c9", "type": "electric_scooter", "name": "37c6e22365847ab2a09df8178c2017c9", "rental_uris": {"android": "https://dc.lft.to/lastmile_qr_scan", "ios": "https://dc.lft.to/lastmile_qr_scan"}, "is_disabled": 0, "fusion_lat": 0.0, "lat": 38.91709433333333, "is_reserved": 0}, {"lon": -77.04548616666666, "fusion_lon": 0.0, "bike_id": "ee02480c25d87c2c5a0d7d7e5190c0b0", "type": "electric_scooter", "name": "ee02480c25d87c2c5a0d7d7e5190c0b0", "rental_uris": {"android": "https://dc.lft.to/lastmile_qr_scan", "ios": "https://dc.lft.to/lastmile_qr_scan"}, "is_disabled": 0, "fusion_lat": 0.0, "lat": 38.917648166666666, "is_reserved": 0}, {"lon": -77.12972183333333, "fusion_lon": 0.0, "bike_id": "09af81134a14e1c16947407fadf0bf90", "type": "electric_bike", "name": "09af81134a14e1c16947407fadf0bf90", "rental_uris": {"android": "https://dc.lft.to/lastmile_qr_scan", "ios": "https://dc.lft.to/lastmile_qr_scan"}, "is_disabled": 0, "fusion_lat": 0.0, "lat": 38.79985533333333, "is_reserved": 0}, {"lon": -77.02581283333333, "fusion_lon": 0.0, "bike_id": "fce0fc0478806ff1f952789476372152", "type": "electric_scooter", "name": "fce0fc0478806ff1f952789476372152", "rental_uris": {"android": "https://dc.lft.to/lastmile_qr_scan", "ios": "https://dc.lft.to/lastmile_qr_scan"}, "is_disabled": 0, "fusion_lat": 0.0, "lat": 38.92521, "is_reserved": 0}, {"lon": -77.0078155, "fusion_lon": 0.0, "bike_id": "a9745eab04c36594a7a6c2e7e4e0e1d9", "type": "electric_scooter", "name": "a9745eab04c36594a7a6c2e7e4e0e1d9", "rental_uris": {"android": "https://dc.lft.to/lastmile_qr_scan", "ios": "https://dc.lft.to/lastmile_qr_scan"}, "is_disabled": 0, "fusion_lat": 0.0, "lat": 38.91743066666667, "is_reserved": 0}, {"lon": -77.02954466666667, "fusion_lon": 0.0, "bike_id": "05d772e3d6282c4d66cec6bcaf1d4b0f", "type": "electric_scooter", "name": "05d772e3d6282c4d66cec6bcaf1d4b0f", "rental_uris": {"android": "https://dc.lft.to/lastmile_qr_scan", "ios": "https://dc.lft.to/lastmile_qr_scan"}, "is_disabled": 0, "fusion_lat": 0.0, "lat": 38.91715883333333, "is_reserved": 0}, {"lon": -77.0346675, "fusion_lon": 0.0, "bike_id": "3e85219c99982aacca11d3bc377e53c0", "type": "electric_scooter", "name": "3e85219c99982aacca11d3bc377e53c0", "rental_uris": {"android": "https://dc.lft.to/lastmile_qr_scan", "ios": "https://dc.lft.to/lastmile_qr_scan"}, "is_disabled": 0, "fusion_lat": 0.0, "lat": 38.908302666666664, "is_reserved": 0}, {"lon": -76.983404, "fusion_lon": 0.0, "bike_id": "1f73b4e9f811e15fcf16acb309147f0e", "type": "electric_scooter", "name": "1f73b4e9f811e15fcf16acb309147f0e", "rental_uris": {"android": "https://dc.lft.to/lastmile_qr_scan", "ios": "https://dc.lft.to/lastmile_qr_scan"}, "is_disabled": 0, "fusion_lat": 0.0, "lat": 38.865614666666666, "is_reserved": 0}, {"lon": -77.0268355, "fusion_lon": 0.0, "bike_id": "9833828b477c05a7431528c0f6a7d715", "type": "electric_scooter", "name": "9833828b477c05a7431528c0f6a7d715", "rental_uris": {"android": "https://dc.lft.to/lastmile_qr_scan", "ios": "https://dc.lft.to/lastmile_qr_scan"}, "is_disabled": 0, "fusion_lat": 0.0, "lat": 38.95503016666667, "is_reserved": 0}, {"lon": -77.04352866666666, "fusion_lon": 0.0, "bike_id": "8a53d08484957eef0e03805f27253bff", "type": "electric_scooter", "name": "8a53d08484957eef0e03805f27253bff", "rental_uris": {"android": "https://dc.lft.to/lastmile_qr_scan", "ios": "https://dc.lft.to/lastmile_qr_scan"}, "is_disabled": 0, "fusion_lat": 0.0, "lat": 38.9084885, "is_reserved": 0}, {"lon": -77.01115516666667, "fusion_lon": 0.0, "bike_id": "5c9e5745ed2ae2a1fcc5968daf2e90f6", "type": "electric_scooter", "name": "5c9e5745ed2ae2a1fcc5968daf2e90f6", "rental_uris": {"android": "https://dc.lft.to/lastmile_qr_scan", "ios": "https://dc.lft.to/lastmile_qr_scan"}, "is_disabled": 0, "fusion_lat": 0.0, "lat": 38.9000335, "is_reserved": 0}, {"lon": -77.01213933333334, "fusion_lon": 0.0, "bike_id": "1e729ac1f1e9f1681ab9c00803a86575", "type": "electric_scooter", "name": "1e729ac1f1e9f1681ab9c00803a86575", "rental_uris": {"android": "https://dc.lft.to/lastmile_qr_scan", "ios": "https://dc.lft.to/lastmile_qr_scan"}, "is_disabled": 0, "fusion_lat": 0.0, "lat": 38.921417, "is_reserved": 0}, {"lon": -77.01768333333334, "fusion_lon": 0.0, "bike_id": "9726e87eb88afa1ea71aeef92bae5beb", "type": "electric_scooter", "name": "9726e87eb88afa1ea71aeef92bae5beb", "rental_uris": {"android": "https://dc.lft.to/lastmile_qr_scan", "ios": "https://dc.lft.to/lastmile_qr_scan"}, "is_disabled": 0, "fusion_lat": 0.0, "lat": 38.8770145, "is_reserved": 0}, {"lon": -77.0295895, "fusion_lon": 0.0, "bike_id": "280d5e0accbbe2c68d212a6906281250", "type": "electric_scooter", "name": "280d5e0accbbe2c68d212a6906281250", "rental_uris": {"android": "https://dc.lft.to/lastmile_qr_scan", "ios": "https://dc.lft.to/lastmile_qr_scan"}, "is_disabled": 0, "fusion_lat": 0.0, "lat": 38.91668516666667, "is_reserved": 0}, {"lon": -77.0261275, "fusion_lon": 0.0, "bike_id": "1e37823e684528e87366c951510ffaac", "type": "electric_scooter", "name": "1e37823e684528e87366c951510ffaac", "rental_uris": {"android": "https://dc.lft.to/lastmile_qr_scan", "ios": "https://dc.lft.to/lastmile_qr_scan"}, "is_disabled": 0, "fusion_lat": 0.0, "lat": 38.9141295, "is_reserved": 0}, {"lon": -77.229355, "fusion_lon": 0.0, "bike_id": "807e27d9f2a1df36bc4744db9ff96470", "type": "electric_bike", "name": "807e27d9f2a1df36bc4744db9ff96470", "rental_uris": {"android": "https://dc.lft.to/lastmile_qr_scan", "ios": "https://dc.lft.to/lastmile_qr_scan"}, "is_disabled": 0, "fusion_lat": 0.0, "lat": 38.931925166666666, "is_reserved": 0}, {"lon": -76.9900635, "fusion_lon": 0.0, "bike_id": "d9a442b190a693398774e2aee7ab3865", "type": "electric_scooter", "name": "d9a442b190a693398774e2aee7ab3865", "rental_uris": {"android": "https://dc.lft.to/lastmile_qr_scan", "ios": "https://dc.lft.to/lastmile_qr_scan"}, "is_disabled": 0, "fusion_lat": 0.0, "lat": 38.86507666666667, "is_reserved": 0}, {"lon": -77.01816133333334, "fusion_lon": 0.0, "bike_id": "83bf28abe5e1182fbfc7a4300736dd6c", "type": "electric_scooter", "name": "83bf28abe5e1182fbfc7a4300736dd6c", "rental_uris": {"android": "https://dc.lft.to/lastmile_qr_scan", "ios": "https://dc.lft.to/lastmile_qr_scan"}, "is_disabled": 0, "fusion_lat": 0.0, "lat": 38.902786, "is_reserved": 0}, {"lon": -77.03503833333333, "fusion_lon": 0.0, "bike_id": "b2b2a06604bb5fd827d33c6ae1a3eb7c", "type": "electric_scooter", "name": "b2b2a06604bb5fd827d33c6ae1a3eb7c", "rental_uris": {"android": "https://dc.lft.to/lastmile_qr_scan", "ios": "https://dc.lft.to/lastmile_qr_scan"}, "is_disabled": 0, "fusion_lat": 0.0, "lat": 38.918787333333334, "is_reserved": 0}, {"lon": -77.03588083333334, "fusion_lon": 0.0, "bike_id": "3e55ee85e5398bd55eeeecbb9941a6e8", "type": "electric_scooter", "name": "3e55ee85e5398bd55eeeecbb9941a6e8", "rental_uris": {"android": "https://dc.lft.to/lastmile_qr_scan", "ios": "https://dc.lft.to/lastmile_qr_scan"}, "is_disabled": 0, "fusion_lat": 0.0, "lat": 38.93677066666667, "is_reserved": 0}, {"lon": -76.99498816666667, "fusion_lon": 0.0, "bike_id": "e166245c9e571871a6d036e0459cdf4b", "type": "electric_scooter", "name": "e166245c9e571871a6d036e0459cdf4b", "rental_uris": {"android": "https://dc.lft.to/lastmile_qr_scan", "ios": "https://dc.lft.to/lastmile_qr_scan"}, "is_disabled": 0, "fusion_lat": 0.0, "lat": 38.9098155, "is_reserved": 0}, {"lon": -77.03639666666666, "fusion_lon": 0.0, "bike_id": "630a80132d6c19832b81ae57847cb1ad", "type": "electric_scooter", "name": "630a80132d6c19832b81ae57847cb1ad", "rental_uris": {"android": "https://dc.lft.to/lastmile_qr_scan", "ios": "https://dc.lft.to/lastmile_qr_scan"}, "is_disabled": 0, "fusion_lat": 0.0, "lat": 38.9241485, "is_reserved": 0}, {"lon": -77.031639, "fusion_lon": 0.0, "bike_id": "578e11ea9c1c6d85f58ca1e64132c41f", "type": "electric_scooter", "name": "578e11ea9c1c6d85f58ca1e64132c41f", "rental_uris": {"android": "https://dc.lft.to/lastmile_qr_scan", "ios": "https://dc.lft.to/lastmile_qr_scan"}, "is_disabled": 0, "fusion_lat": 0.0, "lat": 38.9127545, "is_reserved": 0}, {"lon": -77.033822, "fusion_lon": 0.0, "bike_id": "55f978978bb0bdefca99ce67caf640cc", "type": "electric_scooter", "name": "55f978978bb0bdefca99ce67caf640cc", "rental_uris": {"android": "https://dc.lft.to/lastmile_qr_scan", "ios": "https://dc.lft.to/lastmile_qr_scan"}, "is_disabled": 0, "fusion_lat": 0.0, "lat": 38.9216165, "is_reserved": 0}, {"lon": -77.00781583333334, "fusion_lon": 0.0, "bike_id": "2ac4fcd1b3eed005ba908868bf03ae02", "type": "electric_scooter", "name": "2ac4fcd1b3eed005ba908868bf03ae02", "rental_uris": {"android": "https://dc.lft.to/lastmile_qr_scan", "ios": "https://dc.lft.to/lastmile_qr_scan"}, "is_disabled": 0, "fusion_lat": 0.0, "lat": 38.90727016666666, "is_reserved": 0}, {"lon": -77.02185516666667, "fusion_lon": 0.0, "bike_id": "a709a93970c34409bb6b5742b1bdaf5f", "type": "electric_scooter", "name": "a709a93970c34409bb6b5742b1bdaf5f", "rental_uris": {"android": "https://dc.lft.to/lastmile_qr_scan", "ios": "https://dc.lft.to/lastmile_qr_scan"}, "is_disabled": 0, "fusion_lat": 0.0, "lat": 38.914859666666665, "is_reserved": 0}, {"lon": -77.00467833333333, "fusion_lon": 0.0, "bike_id": "3f9fdccc856b4d18bbde6d7f774b8c76", "type": "electric_bike", "name": "3f9fdccc856b4d18bbde6d7f774b8c76", "rental_uris": {"android": "https://dc.lft.to/lastmile_qr_scan", "ios": "https://dc.lft.to/lastmile_qr_scan"}, "is_disabled": 0, "fusion_lat": 0.0, "lat": 38.911910666666664, "is_reserved": 0}, {"lon": -77.032596, "fusion_lon": 0.0, "bike_id": "70195034aa4cbe0471546af3ed0623ea", "type": "electric_scooter", "name": "70195034aa4cbe0471546af3ed0623ea", "rental_uris": {"android": "https://dc.lft.to/lastmile_qr_scan", "ios": "https://dc.lft.to/lastmile_qr_scan"}, "is_disabled": 0, "fusion_lat": 0.0, "lat": 38.90129116666667, "is_reserved": 0}, {"lon": -77.03182133333334, "fusion_lon": 0.0, "bike_id": "50165a0c2bc8f2e257ada92621a8da93", "type": "electric_scooter", "name": "50165a0c2bc8f2e257ada92621a8da93", "rental_uris": {"android": "https://dc.lft.to/lastmile_qr_scan", "ios": "https://dc.lft.to/lastmile_qr_scan"}, "is_disabled": 0, "fusion_lat": 0.0, "lat": 38.909990666666666, "is_reserved": 0}, {"lon": -76.99604083333334, "fusion_lon": 0.0, "bike_id": "185bbcc5a2ef13cf7d255cfb31b9d6c6", "type": "electric_scooter", "name": "185bbcc5a2ef13cf7d255cfb31b9d6c6", "rental_uris": {"android": "https://dc.lft.to/lastmile_qr_scan", "ios": "https://dc.lft.to/lastmile_qr_scan"}, "is_disabled": 0, "fusion_lat": 0.0, "lat": 38.856936166666664, "is_reserved": 0}, {"lon": -77.02348583333334, "fusion_lon": 0.0, "bike_id": "b0e8f496e48c6ab5f550780757e06048", "type": "electric_scooter", "name": "b0e8f496e48c6ab5f550780757e06048", "rental_uris": {"android": "https://dc.lft.to/lastmile_qr_scan", "ios": "https://dc.lft.to/lastmile_qr_scan"}, "is_disabled": 0, "fusion_lat": 0.0, "lat": 38.89393533333333, "is_reserved": 0}, {"lon": -76.9338065, "fusion_lon": 0.0, "bike_id": "af15397839ee9359ab87f909402b8486", "type": "electric_scooter", "name": "af15397839ee9359ab87f909402b8486", "rental_uris": {"android": "https://dc.lft.to/lastmile_qr_scan", "ios": "https://dc.lft.to/lastmile_qr_scan"}, "is_disabled": 0, "fusion_lat": 0.0, "lat": 38.89888333333333, "is_reserved": 0}, {"lon": -77.0336625, "fusion_lon": 0.0, "bike_id": "13d29b2cb378a12fe2b3cbf2032ad10c", "type": "electric_scooter", "name": "13d29b2cb378a12fe2b3cbf2032ad10c", "rental_uris": {"android": "https://dc.lft.to/lastmile_qr_scan", "ios": "https://dc.lft.to/lastmile_qr_scan"}, "is_disabled": 0, "fusion_lat": 0.0, "lat": 38.9191835, "is_reserved": 0}, {"lon": -76.98083983333333, "fusion_lon": 0.0, "bike_id": "9fd80134953f8f0ec36245c06ddfd515", "type": "electric_scooter", "name": "9fd80134953f8f0ec36245c06ddfd515", "rental_uris": {"android": "https://dc.lft.to/lastmile_qr_scan", "ios": "https://dc.lft.to/lastmile_qr_scan"}, "is_disabled": 0, "fusion_lat": 0.0, "lat": 38.92246566666667, "is_reserved": 0}, {"lon": -77.02973533333333, "fusion_lon": 0.0, "bike_id": "284923e1015723b6383ee3414df86a90", "type": "electric_scooter", "name": "284923e1015723b6383ee3414df86a90", "rental_uris": {"android": "https://dc.lft.to/lastmile_qr_scan", "ios": "https://dc.lft.to/lastmile_qr_scan"}, "is_disabled": 0, "fusion_lat": 0.0, "lat": 38.91781816666666, "is_reserved": 0}, {"lon": -76.933995, "fusion_lon": 0.0, "bike_id": "300ca69db9442b217c4ae63cf7df2893", "type": "electric_scooter", "name": "300ca69db9442b217c4ae63cf7df2893", "rental_uris": {"android": "https://dc.lft.to/lastmile_qr_scan", "ios": "https://dc.lft.to/lastmile_qr_scan"}, "is_disabled": 0, "fusion_lat": 0.0, "lat": 38.89897466666667, "is_reserved": 0}, {"lon": -77.023908, "fusion_lon": 0.0, "bike_id": "275e4d0a985d9e3732d138fd48f02968", "type": "electric_scooter", "name": "275e4d0a985d9e3732d138fd48f02968", "rental_uris": {"android": "https://dc.lft.to/lastmile_qr_scan", "ios": "https://dc.lft.to/lastmile_qr_scan"}, "is_disabled": 0, "fusion_lat": 0.0, "lat": 38.916504, "is_reserved": 0}, {"lon": -76.98774, "fusion_lon": 0.0, "bike_id": "11b8adeb3fef6dba01a501eb397fac0a", "type": "electric_scooter", "name": "11b8adeb3fef6dba01a501eb397fac0a", "rental_uris": {"android": "https://dc.lft.to/lastmile_qr_scan", "ios": "https://dc.lft.to/lastmile_qr_scan"}, "is_disabled": 0, "fusion_lat": 0.0, "lat": 38.900151, "is_reserved": 0}, {"lon": -77.03411216666667, "fusion_lon": 0.0, "bike_id": "358cf703056ec5edaee9b50d8feaece6", "type": "electric_scooter", "name": "358cf703056ec5edaee9b50d8feaece6", "rental_uris": {"android": "https://dc.lft.to/lastmile_qr_scan", "ios": "https://dc.lft.to/lastmile_qr_scan"}, "is_disabled": 0, "fusion_lat": 0.0, "lat": 38.903727833333335, "is_reserved": 0}, {"lon": -77.01857766666667, "fusion_lon": 0.0, "bike_id": "63e9519a9bdb255fd1a103f2c75e3940", "type": "electric_scooter", "name": "63e9519a9bdb255fd1a103f2c75e3940", "rental_uris": {"android": "https://dc.lft.to/lastmile_qr_scan", "ios": "https://dc.lft.to/lastmile_qr_scan"}, "is_disabled": 0, "fusion_lat": 0.0, "lat": 38.8996295, "is_reserved": 0}, {"lon": -76.99779283333334, "fusion_lon": 0.0, "bike_id": "a3c265f5d6d92bf0ed3ceebe1beb5f02", "type": "electric_scooter", "name": "a3c265f5d6d92bf0ed3ceebe1beb5f02", "rental_uris": {"android": "https://dc.lft.to/lastmile_qr_scan", "ios": "https://dc.lft.to/lastmile_qr_scan"}, "is_disabled": 0, "fusion_lat": 0.0, "lat": 38.84438333333333, "is_reserved": 0}, {"lon": -77.04657366666666, "fusion_lon": 0.0, "bike_id": "91002c62bf646250293a209afaa6e503", "type": "electric_scooter", "name": "91002c62bf646250293a209afaa6e503", "rental_uris": {"android": "https://dc.lft.to/lastmile_qr_scan", "ios": "https://dc.lft.to/lastmile_qr_scan"}, "is_disabled": 0, "fusion_lat": 0.0, "lat": 38.89879716666667, "is_reserved": 0}, {"lon": -77.02465466666666, "fusion_lon": 0.0, "bike_id": "a2423978f655f3aade31620564ddc533", "type": "electric_scooter", "name": "a2423978f655f3aade31620564ddc533", "rental_uris": {"android": "https://dc.lft.to/lastmile_qr_scan", "ios": "https://dc.lft.to/lastmile_qr_scan"}, "is_disabled": 0, "fusion_lat": 0.0, "lat": 38.9310085, "is_reserved": 0}, {"lon": -77.06947916666667, "fusion_lon": 0.0, "bike_id": "2cf17eda1fcc3240b0a50f89dac97589", "type": "electric_bike", "name": "2cf17eda1fcc3240b0a50f89dac97589", "rental_uris": {"android": "https://dc.lft.to/lastmile_qr_scan", "ios": "https://dc.lft.to/lastmile_qr_scan"}, "is_disabled": 0, "fusion_lat": 0.0, "lat": 38.99535733333333, "is_reserved": 0}, {"lon": -77.02074133333333, "fusion_lon": 0.0, "bike_id": "03fe289a531d83b0374969f3bdc03bbd", "type": "electric_scooter", "name": "03fe289a531d83b0374969f3bdc03bbd", "rental_uris": {"android": "https://dc.lft.to/lastmile_qr_scan", "ios": "https://dc.lft.to/lastmile_qr_scan"}, "is_disabled": 0, "fusion_lat": 0.0, "lat": 38.936449, "is_reserved": 0}, {"lon": -77.02712083333333, "fusion_lon": 0.0, "bike_id": "69882b090c32e5a55f92f9b5aafc56be", "type": "electric_scooter", "name": "69882b090c32e5a55f92f9b5aafc56be", "rental_uris": {"android": "https://dc.lft.to/lastmile_qr_scan", "ios": "https://dc.lft.to/lastmile_qr_scan"}, "is_disabled": 0, "fusion_lat": 0.0, "lat": 38.91716916666667, "is_reserved": 0}, {"lon": -77.04177883333334, "fusion_lon": 0.0, "bike_id": "6f97e58f66901a014827a3a32a0b0515", "type": "electric_scooter", "name": "6f97e58f66901a014827a3a32a0b0515", "rental_uris": {"android": "https://dc.lft.to/lastmile_qr_scan", "ios": "https://dc.lft.to/lastmile_qr_scan"}, "is_disabled": 0, "fusion_lat": 0.0, "lat": 38.919008833333336, "is_reserved": 0}, {"lon": -77.00065766666667, "fusion_lon": 0.0, "bike_id": "3d41d05cd7a054f8db919425c3456108", "type": "electric_scooter", "name": "3d41d05cd7a054f8db919425c3456108", "rental_uris": {"android": "https://dc.lft.to/lastmile_qr_scan", "ios": "https://dc.lft.to/lastmile_qr_scan"}, "is_disabled": 0, "fusion_lat": 0.0, "lat": 38.83888016666667, "is_reserved": 0}, {"lon": -77.01781216666667, "fusion_lon": 0.0, "bike_id": "961be6866f315df2176901141d1fa879", "type": "electric_scooter", "name": "961be6866f315df2176901141d1fa879", "rental_uris": {"android": "https://dc.lft.to/lastmile_qr_scan", "ios": "https://dc.lft.to/lastmile_qr_scan"}, "is_disabled": 0, "fusion_lat": 0.0, "lat": 38.877112, "is_reserved": 0}, {"lon": -77.04872016666667, "fusion_lon": 0.0, "bike_id": "9f05fc610ae42468806da60cc3e932a4", "type": "electric_scooter", "name": "9f05fc610ae42468806da60cc3e932a4", "rental_uris": {"android": "https://dc.lft.to/lastmile_qr_scan", "ios": "https://dc.lft.to/lastmile_qr_scan"}, "is_disabled": 0, "fusion_lat": 0.0, "lat": 38.9097405, "is_reserved": 0}, {"lon": -77.03591883333333, "fusion_lon": 0.0, "bike_id": "b5e6018826e84ce478b2c3d2466d392e", "type": "electric_scooter", "name": "b5e6018826e84ce478b2c3d2466d392e", "rental_uris": {"android": "https://dc.lft.to/lastmile_qr_scan", "ios": "https://dc.lft.to/lastmile_qr_scan"}, "is_disabled": 0, "fusion_lat": 0.0, "lat": 38.93148333333333, "is_reserved": 0}, {"lon": -77.0228955, "fusion_lon": 0.0, "bike_id": "b8447da4515e4390f7e8be19016b1206", "type": "electric_scooter", "name": "b8447da4515e4390f7e8be19016b1206", "rental_uris": {"android": "https://dc.lft.to/lastmile_qr_scan", "ios": "https://dc.lft.to/lastmile_qr_scan"}, "is_disabled": 0, "fusion_lat": 0.0, "lat": 38.9179125, "is_reserved": 0}, {"lon": -77.0971205, "fusion_lon": 0.0, "bike_id": "95e48b9e465741a779e32c246b8c05dd", "type": "electric_scooter", "name": "95e48b9e465741a779e32c246b8c05dd", "rental_uris": {"android": "https://dc.lft.to/lastmile_qr_scan", "ios": "https://dc.lft.to/lastmile_qr_scan"}, "is_disabled": 0, "fusion_lat": 0.0, "lat": 38.95103816666666, "is_reserved": 0}, {"lon": -77.03640383333334, "fusion_lon": 0.0, "bike_id": "1cfb4cf40b38dcca5d5a4b8abc9b575b", "type": "electric_scooter", "name": "1cfb4cf40b38dcca5d5a4b8abc9b575b", "rental_uris": {"android": "https://dc.lft.to/lastmile_qr_scan", "ios": "https://dc.lft.to/lastmile_qr_scan"}, "is_disabled": 0, "fusion_lat": 0.0, "lat": 38.918222, "is_reserved": 0}, {"lon": -76.9820665, "fusion_lon": 0.0, "bike_id": "55f95da4c85d879efcf5a9f28c27c5a1", "type": "electric_bike", "name": "55f95da4c85d879efcf5a9f28c27c5a1", "rental_uris": {"android": "https://dc.lft.to/lastmile_qr_scan", "ios": "https://dc.lft.to/lastmile_qr_scan"}, "is_disabled": 0, "fusion_lat": 0.0, "lat": 38.98509983333334, "is_reserved": 0}, {"lon": -77.01229866666667, "fusion_lon": 0.0, "bike_id": "79384237f964b08988d1423424c2fee6", "type": "electric_scooter", "name": "79384237f964b08988d1423424c2fee6", "rental_uris": {"android": "https://dc.lft.to/lastmile_qr_scan", "ios": "https://dc.lft.to/lastmile_qr_scan"}, "is_disabled": 0, "fusion_lat": 0.0, "lat": 38.900296166666664, "is_reserved": 0}, {"lon": -77.05041883333334, "fusion_lon": 0.0, "bike_id": "68520c06ddb2a04fe9a352430f394b1b", "type": "electric_scooter", "name": "68520c06ddb2a04fe9a352430f394b1b", "rental_uris": {"android": "https://dc.lft.to/lastmile_qr_scan", "ios": "https://dc.lft.to/lastmile_qr_scan"}, "is_disabled": 0, "fusion_lat": 0.0, "lat": 38.923594666666666, "is_reserved": 0}, {"lon": -77.02490616666667, "fusion_lon": 0.0, "bike_id": "32d02e48ccf034c79ecac34c822c895c", "type": "electric_scooter", "name": "32d02e48ccf034c79ecac34c822c895c", "rental_uris": {"android": "https://dc.lft.to/lastmile_qr_scan", "ios": "https://dc.lft.to/lastmile_qr_scan"}, "is_disabled": 0, "fusion_lat": 0.0, "lat": 38.94187083333333, "is_reserved": 0}, {"lon": -77.024648, "fusion_lon": 0.0, "bike_id": "2d9269c11992d20d833105a4b09e9f7e", "type": "electric_scooter", "name": "2d9269c11992d20d833105a4b09e9f7e", "rental_uris": {"android": "https://dc.lft.to/lastmile_qr_scan", "ios": "https://dc.lft.to/lastmile_qr_scan"}, "is_disabled": 0, "fusion_lat": 0.0, "lat": 38.903148333333334, "is_reserved": 0}, {"lon": -77.02531233333333, "fusion_lon": 0.0, "bike_id": "0da1dae498d83c714cfc56943bc844d1", "type": "electric_scooter", "name": "0da1dae498d83c714cfc56943bc844d1", "rental_uris": {"android": "https://dc.lft.to/lastmile_qr_scan", "ios": "https://dc.lft.to/lastmile_qr_scan"}, "is_disabled": 0, "fusion_lat": 0.0, "lat": 38.946241, "is_reserved": 0}, {"lon": -77.02695416666667, "fusion_lon": 0.0, "bike_id": "3f983a79327a6fd2e723625008e52f24", "type": "electric_scooter", "name": "3f983a79327a6fd2e723625008e52f24", "rental_uris": {"android": "https://dc.lft.to/lastmile_qr_scan", "ios": "https://dc.lft.to/lastmile_qr_scan"}, "is_disabled": 0, "fusion_lat": 0.0, "lat": 38.90850183333333, "is_reserved": 0}, {"lon": -77.01964933333333, "fusion_lon": 0.0, "bike_id": "34c998b73433153a048749c60635da4f", "type": "electric_scooter", "name": "34c998b73433153a048749c60635da4f", "rental_uris": {"android": "https://dc.lft.to/lastmile_qr_scan", "ios": "https://dc.lft.to/lastmile_qr_scan"}, "is_disabled": 0, "fusion_lat": 0.0, "lat": 38.95649816666667, "is_reserved": 0}, {"lon": -77.02408216666667, "fusion_lon": 0.0, "bike_id": "25ed0d66c4f523fa8e96b3bd3513d522", "type": "electric_scooter", "name": "25ed0d66c4f523fa8e96b3bd3513d522", "rental_uris": {"android": "https://dc.lft.to/lastmile_qr_scan", "ios": "https://dc.lft.to/lastmile_qr_scan"}, "is_disabled": 0, "fusion_lat": 0.0, "lat": 38.91900866666667, "is_reserved": 0}, {"lon": -77.02372733333333, "fusion_lon": 0.0, "bike_id": "394ee3e6a9bb5be02d62c6b9af2f8914", "type": "electric_scooter", "name": "394ee3e6a9bb5be02d62c6b9af2f8914", "rental_uris": {"android": "https://dc.lft.to/lastmile_qr_scan", "ios": "https://dc.lft.to/lastmile_qr_scan"}, "is_disabled": 0, "fusion_lat": 0.0, "lat": 38.906917166666666, "is_reserved": 0}, {"lon": -77.00755033333333, "fusion_lon": 0.0, "bike_id": "bcc6856f088f08ed87e8889cb39d7007", "type": "electric_scooter", "name": "bcc6856f088f08ed87e8889cb39d7007", "rental_uris": {"android": "https://dc.lft.to/lastmile_qr_scan", "ios": "https://dc.lft.to/lastmile_qr_scan"}, "is_disabled": 0, "fusion_lat": 0.0, "lat": 38.87110216666667, "is_reserved": 0}, {"lon": -77.0359075, "fusion_lon": 0.0, "bike_id": "21bdbaad995fbd7162cbcf80b72d40ca", "type": "electric_scooter", "name": "21bdbaad995fbd7162cbcf80b72d40ca", "rental_uris": {"android": "https://dc.lft.to/lastmile_qr_scan", "ios": "https://dc.lft.to/lastmile_qr_scan"}, "is_disabled": 0, "fusion_lat": 0.0, "lat": 38.931454333333335, "is_reserved": 0}, {"lon": -76.96706016666667, "fusion_lon": 0.0, "bike_id": "306dda089ba8f52a5ca9086846104e11", "type": "electric_scooter", "name": "306dda089ba8f52a5ca9086846104e11", "rental_uris": {"android": "https://dc.lft.to/lastmile_qr_scan", "ios": "https://dc.lft.to/lastmile_qr_scan"}, "is_disabled": 0, "fusion_lat": 0.0, "lat": 38.860379, "is_reserved": 0}, {"lon": -77.0250645, "fusion_lon": 0.0, "bike_id": "54a706c5101891c406e318606b4d13dd", "type": "electric_scooter", "name": "54a706c5101891c406e318606b4d13dd", "rental_uris": {"android": "https://dc.lft.to/lastmile_qr_scan", "ios": "https://dc.lft.to/lastmile_qr_scan"}, "is_disabled": 0, "fusion_lat": 0.0, "lat": 38.920137833333335, "is_reserved": 0}, {"lon": -77.0425295, "fusion_lon": 0.0, "bike_id": "ac9ea906da99e20858b1fd06a1f050f4", "type": "electric_scooter", "name": "ac9ea906da99e20858b1fd06a1f050f4", "rental_uris": {"android": "https://dc.lft.to/lastmile_qr_scan", "ios": "https://dc.lft.to/lastmile_qr_scan"}, "is_disabled": 0, "fusion_lat": 0.0, "lat": 38.906390333333334, "is_reserved": 0}, {"lon": -77.04995983333333, "fusion_lon": 0.0, "bike_id": "d87b67d22705df5b6490ddf021bd37db", "type": "electric_scooter", "name": "d87b67d22705df5b6490ddf021bd37db", "rental_uris": {"android": "https://dc.lft.to/lastmile_qr_scan", "ios": "https://dc.lft.to/lastmile_qr_scan"}, "is_disabled": 0, "fusion_lat": 0.0, "lat": 38.900811166666664, "is_reserved": 0}, {"lon": -76.9896125, "fusion_lon": 0.0, "bike_id": "de2ed244854eb9d3e4e621079fdd5ae8", "type": "electric_scooter", "name": "de2ed244854eb9d3e4e621079fdd5ae8", "rental_uris": {"android": "https://dc.lft.to/lastmile_qr_scan", "ios": "https://dc.lft.to/lastmile_qr_scan"}, "is_disabled": 0, "fusion_lat": 0.0, "lat": 38.858738333333335, "is_reserved": 0}, {"lon": -77.035244, "fusion_lon": 0.0, "bike_id": "c9500b7495902feaec1941c4b43c2d0a", "type": "electric_scooter", "name": "c9500b7495902feaec1941c4b43c2d0a", "rental_uris": {"android": "https://dc.lft.to/lastmile_qr_scan", "ios": "https://dc.lft.to/lastmile_qr_scan"}, "is_disabled": 0, "fusion_lat": 0.0, "lat": 38.92530083333333, "is_reserved": 0}, {"lon": -77.0417895, "fusion_lon": 0.0, "bike_id": "45a5a0823dc9e8dd0d405c2fcd084b12", "type": "electric_scooter", "name": "45a5a0823dc9e8dd0d405c2fcd084b12", "rental_uris": {"android": "https://dc.lft.to/lastmile_qr_scan", "ios": "https://dc.lft.to/lastmile_qr_scan"}, "is_disabled": 0, "fusion_lat": 0.0, "lat": 38.91519566666667, "is_reserved": 0}, {"lon": -77.04712983333333, "fusion_lon": 0.0, "bike_id": "fd40869a6c656cdb63dc814be419d2f6", "type": "electric_scooter", "name": "fd40869a6c656cdb63dc814be419d2f6", "rental_uris": {"android": "https://dc.lft.to/lastmile_qr_scan", "ios": "https://dc.lft.to/lastmile_qr_scan"}, "is_disabled": 0, "fusion_lat": 0.0, "lat": 38.900658, "is_reserved": 0}, {"lon": -77.02910166666666, "fusion_lon": 0.0, "bike_id": "21270dca0bfb32f47f7a02cd2b20a436", "type": "electric_scooter", "name": "21270dca0bfb32f47f7a02cd2b20a436", "rental_uris": {"android": "https://dc.lft.to/lastmile_qr_scan", "ios": "https://dc.lft.to/lastmile_qr_scan"}, "is_disabled": 0, "fusion_lat": 0.0, "lat": 38.91702, "is_reserved": 0}, {"lon": -77.0217745, "fusion_lon": 0.0, "bike_id": "8c8118b98864e20a57ef88cfce3d8e24", "type": "electric_scooter", "name": "8c8118b98864e20a57ef88cfce3d8e24", "rental_uris": {"android": "https://dc.lft.to/lastmile_qr_scan", "ios": "https://dc.lft.to/lastmile_qr_scan"}, "is_disabled": 0, "fusion_lat": 0.0, "lat": 38.90200733333333, "is_reserved": 0}, {"lon": -77.03195966666667, "fusion_lon": 0.0, "bike_id": "82a77820c312a910e815ce2a1a04ac84", "type": "electric_scooter", "name": "82a77820c312a910e815ce2a1a04ac84", "rental_uris": {"android": "https://dc.lft.to/lastmile_qr_scan", "ios": "https://dc.lft.to/lastmile_qr_scan"}, "is_disabled": 0, "fusion_lat": 0.0, "lat": 38.9014025, "is_reserved": 0}, {"lon": -76.92905083333333, "fusion_lon": 0.0, "bike_id": "644adac74a91d169d523e8196d75bbb9", "type": "electric_scooter", "name": "644adac74a91d169d523e8196d75bbb9", "rental_uris": {"android": "https://dc.lft.to/lastmile_qr_scan", "ios": "https://dc.lft.to/lastmile_qr_scan"}, "is_disabled": 0, "fusion_lat": 0.0, "lat": 38.898503166666664, "is_reserved": 0}, {"lon": -77.0269595, "fusion_lon": 0.0, "bike_id": "f110145b57499c0d42a457333e2b6613", "type": "electric_scooter", "name": "f110145b57499c0d42a457333e2b6613", "rental_uris": {"android": "https://dc.lft.to/lastmile_qr_scan", "ios": "https://dc.lft.to/lastmile_qr_scan"}, "is_disabled": 0, "fusion_lat": 0.0, "lat": 38.949787, "is_reserved": 0}, {"lon": -77.0282805, "fusion_lon": 0.0, "bike_id": "462cce47cf272daef7fa8da8e2532575", "type": "electric_scooter", "name": "462cce47cf272daef7fa8da8e2532575", "rental_uris": {"android": "https://dc.lft.to/lastmile_qr_scan", "ios": "https://dc.lft.to/lastmile_qr_scan"}, "is_disabled": 0, "fusion_lat": 0.0, "lat": 38.902457166666665, "is_reserved": 0}, {"lon": -77.03097933333333, "fusion_lon": 0.0, "bike_id": "1a3512a20e23354fef50fe8d1d06598a", "type": "electric_scooter", "name": "1a3512a20e23354fef50fe8d1d06598a", "rental_uris": {"android": "https://dc.lft.to/lastmile_qr_scan", "ios": "https://dc.lft.to/lastmile_qr_scan"}, "is_disabled": 0, "fusion_lat": 0.0, "lat": 38.88325283333333, "is_reserved": 0}, {"lon": -77.0451445, "fusion_lon": 0.0, "bike_id": "7fa42e5f21fd8d4c90b3fd0b2d131b97", "type": "electric_scooter", "name": "7fa42e5f21fd8d4c90b3fd0b2d131b97", "rental_uris": {"android": "https://dc.lft.to/lastmile_qr_scan", "ios": "https://dc.lft.to/lastmile_qr_scan"}, "is_disabled": 0, "fusion_lat": 0.0, "lat": 38.8995125, "is_reserved": 0}, {"lon": -77.01222366666667, "fusion_lon": 0.0, "bike_id": "5b5080472b71251c8ddba6ce8d238b23", "type": "electric_scooter", "name": "5b5080472b71251c8ddba6ce8d238b23", "rental_uris": {"android": "https://dc.lft.to/lastmile_qr_scan", "ios": "https://dc.lft.to/lastmile_qr_scan"}, "is_disabled": 0, "fusion_lat": 0.0, "lat": 38.913476333333335, "is_reserved": 0}, {"lon": -77.050415, "fusion_lon": 0.0, "bike_id": "7e9138c681549d0c9535719f7df5eda5", "type": "electric_scooter", "name": "7e9138c681549d0c9535719f7df5eda5", "rental_uris": {"android": "https://dc.lft.to/lastmile_qr_scan", "ios": "https://dc.lft.to/lastmile_qr_scan"}, "is_disabled": 0, "fusion_lat": 0.0, "lat": 38.92359183333333, "is_reserved": 0}, {"lon": -77.05128216666667, "fusion_lon": 0.0, "bike_id": "0103c89467f315e8364a7ed3efb3e4ac", "type": "electric_scooter", "name": "0103c89467f315e8364a7ed3efb3e4ac", "rental_uris": {"android": "https://dc.lft.to/lastmile_qr_scan", "ios": "https://dc.lft.to/lastmile_qr_scan"}, "is_disabled": 0, "fusion_lat": 0.0, "lat": 38.92521216666667, "is_reserved": 0}, {"lon": -77.05349216666667, "fusion_lon": 0.0, "bike_id": "70a5c72f14089e1092530b70cb992c67", "type": "electric_scooter", "name": "70a5c72f14089e1092530b70cb992c67", "rental_uris": {"android": "https://dc.lft.to/lastmile_qr_scan", "ios": "https://dc.lft.to/lastmile_qr_scan"}, "is_disabled": 0, "fusion_lat": 0.0, "lat": 38.92729033333333, "is_reserved": 0}, {"lon": -77.0672515, "fusion_lon": 0.0, "bike_id": "024467fad91361d6368b0957a08f2cd5", "type": "electric_scooter", "name": "024467fad91361d6368b0957a08f2cd5", "rental_uris": {"android": "https://dc.lft.to/lastmile_qr_scan", "ios": "https://dc.lft.to/lastmile_qr_scan"}, "is_disabled": 0, "fusion_lat": 0.0, "lat": 38.95017216666667, "is_reserved": 0}, {"lon": -77.04812716666666, "fusion_lon": 0.0, "bike_id": "f0d78e4c1a0bf8a28ce4596111419129", "type": "electric_scooter", "name": "f0d78e4c1a0bf8a28ce4596111419129", "rental_uris": {"android": "https://dc.lft.to/lastmile_qr_scan", "ios": "https://dc.lft.to/lastmile_qr_scan"}, "is_disabled": 0, "fusion_lat": 0.0, "lat": 38.92033816666667, "is_reserved": 0}, {"lon": -77.0262555, "fusion_lon": 0.0, "bike_id": "6d93d5e15fafb4c268dbc45eeef53f72", "type": "electric_scooter", "name": "6d93d5e15fafb4c268dbc45eeef53f72", "rental_uris": {"android": "https://dc.lft.to/lastmile_qr_scan", "ios": "https://dc.lft.to/lastmile_qr_scan"}, "is_disabled": 0, "fusion_lat": 0.0, "lat": 38.887692, "is_reserved": 0}, {"lon": -77.03450283333333, "fusion_lon": 0.0, "bike_id": "f6f82f1b6be954c59df654ab32685e1a", "type": "electric_scooter", "name": "f6f82f1b6be954c59df654ab32685e1a", "rental_uris": {"android": "https://dc.lft.to/lastmile_qr_scan", "ios": "https://dc.lft.to/lastmile_qr_scan"}, "is_disabled": 0, "fusion_lat": 0.0, "lat": 38.90574016666667, "is_reserved": 0}, {"lon": -77.05456883333333, "fusion_lon": 0.0, "bike_id": "97f2568bcfdd39629744b495e9e56575", "type": "electric_scooter", "name": "97f2568bcfdd39629744b495e9e56575", "rental_uris": {"android": "https://dc.lft.to/lastmile_qr_scan", "ios": "https://dc.lft.to/lastmile_qr_scan"}, "is_disabled": 0, "fusion_lat": 0.0, "lat": 38.9024805, "is_reserved": 0}, {"lon": -77.073101, "fusion_lon": 0.0, "bike_id": "1de105207048b86f3419062ed272fe23", "type": "electric_scooter", "name": "1de105207048b86f3419062ed272fe23", "rental_uris": {"android": "https://dc.lft.to/lastmile_qr_scan", "ios": "https://dc.lft.to/lastmile_qr_scan"}, "is_disabled": 0, "fusion_lat": 0.0, "lat": 38.92670316666667, "is_reserved": 0}, {"lon": -77.022824, "fusion_lon": 0.0, "bike_id": "0cbe2157e3f4c84f8f5bf0067a705013", "type": "electric_scooter", "name": "0cbe2157e3f4c84f8f5bf0067a705013", "rental_uris": {"android": "https://dc.lft.to/lastmile_qr_scan", "ios": "https://dc.lft.to/lastmile_qr_scan"}, "is_disabled": 0, "fusion_lat": 0.0, "lat": 38.9140995, "is_reserved": 0}, {"lon": -77.0059085, "fusion_lon": 0.0, "bike_id": "ce1eb6ab99c1411deeba7572c6214e82", "type": "electric_scooter", "name": "ce1eb6ab99c1411deeba7572c6214e82", "rental_uris": {"android": "https://dc.lft.to/lastmile_qr_scan", "ios": "https://dc.lft.to/lastmile_qr_scan"}, "is_disabled": 0, "fusion_lat": 0.0, "lat": 38.87914816666667, "is_reserved": 0}, {"lon": -77.015079, "fusion_lon": 0.0, "bike_id": "091506a2181de88e15236d0dc6e9ff1d", "type": "electric_scooter", "name": "091506a2181de88e15236d0dc6e9ff1d", "rental_uris": {"android": "https://dc.lft.to/lastmile_qr_scan", "ios": "https://dc.lft.to/lastmile_qr_scan"}, "is_disabled": 0, "fusion_lat": 0.0, "lat": 38.90241616666667, "is_reserved": 0}, {"lon": -76.98318733333333, "fusion_lon": 0.0, "bike_id": "3311e5ada629c435b879a9073cf7b7f3", "type": "electric_scooter", "name": "3311e5ada629c435b879a9073cf7b7f3", "rental_uris": {"android": "https://dc.lft.to/lastmile_qr_scan", "ios": "https://dc.lft.to/lastmile_qr_scan"}, "is_disabled": 0, "fusion_lat": 0.0, "lat": 38.90440016666667, "is_reserved": 0}, {"lon": -77.00346916666666, "fusion_lon": 0.0, "bike_id": "7a05404654f92554c61c59c785fa96ec", "type": "electric_scooter", "name": "7a05404654f92554c61c59c785fa96ec", "rental_uris": {"android": "https://dc.lft.to/lastmile_qr_scan", "ios": "https://dc.lft.to/lastmile_qr_scan"}, "is_disabled": 0, "fusion_lat": 0.0, "lat": 38.894649333333334, "is_reserved": 0}, {"lon": -77.005903, "fusion_lon": 0.0, "bike_id": "7a2a1ff9ea1d0c9e8525f873a28a2583", "type": "electric_scooter", "name": "7a2a1ff9ea1d0c9e8525f873a28a2583", "rental_uris": {"android": "https://dc.lft.to/lastmile_qr_scan", "ios": "https://dc.lft.to/lastmile_qr_scan"}, "is_disabled": 0, "fusion_lat": 0.0, "lat": 38.905556, "is_reserved": 0}, {"lon": -76.999793, "fusion_lon": 0.0, "bike_id": "8067769349890d4231c1a9abc8c1c986", "type": "electric_scooter", "name": "8067769349890d4231c1a9abc8c1c986", "rental_uris": {"android": "https://dc.lft.to/lastmile_qr_scan", "ios": "https://dc.lft.to/lastmile_qr_scan"}, "is_disabled": 0, "fusion_lat": 0.0, "lat": 38.87930333333333, "is_reserved": 0}, {"lon": -76.9986835, "fusion_lon": 0.0, "bike_id": "94814ba8c3824db8ee391d4ad4583028", "type": "electric_scooter", "name": "94814ba8c3824db8ee391d4ad4583028", "rental_uris": {"android": "https://dc.lft.to/lastmile_qr_scan", "ios": "https://dc.lft.to/lastmile_qr_scan"}, "is_disabled": 0, "fusion_lat": 0.0, "lat": 38.9088355, "is_reserved": 0}, {"lon": -77.04230233333334, "fusion_lon": 0.0, "bike_id": "42412b5c87291cd1f655fa9dba94f654", "type": "electric_scooter", "name": "42412b5c87291cd1f655fa9dba94f654", "rental_uris": {"android": "https://dc.lft.to/lastmile_qr_scan", "ios": "https://dc.lft.to/lastmile_qr_scan"}, "is_disabled": 0, "fusion_lat": 0.0, "lat": 38.92055233333333, "is_reserved": 0}, {"lon": -77.03151916666667, "fusion_lon": 0.0, "bike_id": "df89dba7123732dd5122b21dc8c22535", "type": "electric_scooter", "name": "df89dba7123732dd5122b21dc8c22535", "rental_uris": {"android": "https://dc.lft.to/lastmile_qr_scan", "ios": "https://dc.lft.to/lastmile_qr_scan"}, "is_disabled": 0, "fusion_lat": 0.0, "lat": 38.911143333333335, "is_reserved": 0}, {"lon": -77.0067585, "fusion_lon": 0.0, "bike_id": "7182858c04ab268d88bd4a89565ba876", "type": "electric_bike", "name": "7182858c04ab268d88bd4a89565ba876", "rental_uris": {"android": "https://dc.lft.to/lastmile_qr_scan", "ios": "https://dc.lft.to/lastmile_qr_scan"}, "is_disabled": 0, "fusion_lat": 0.0, "lat": 38.945173833333335, "is_reserved": 0}, {"lon": -77.02872016666667, "fusion_lon": 0.0, "bike_id": "9c4331aaf04a5bba21df804edab2b3f7", "type": "electric_scooter", "name": "9c4331aaf04a5bba21df804edab2b3f7", "rental_uris": {"android": "https://dc.lft.to/lastmile_qr_scan", "ios": "https://dc.lft.to/lastmile_qr_scan"}, "is_disabled": 0, "fusion_lat": 0.0, "lat": 38.91549766666667, "is_reserved": 0}, {"lon": -77.0141785, "fusion_lon": 0.0, "bike_id": "acdc48dc1f015aaee0255a0177f9c1da", "type": "electric_scooter", "name": "acdc48dc1f015aaee0255a0177f9c1da", "rental_uris": {"android": "https://dc.lft.to/lastmile_qr_scan", "ios": "https://dc.lft.to/lastmile_qr_scan"}, "is_disabled": 0, "fusion_lat": 0.0, "lat": 38.8922425, "is_reserved": 0}, {"lon": -77.06404983333333, "fusion_lon": 0.0, "bike_id": "cf2f5c72a51ffb92b57f48f1a7dd6d2b", "type": "electric_scooter", "name": "cf2f5c72a51ffb92b57f48f1a7dd6d2b", "rental_uris": {"android": "https://dc.lft.to/lastmile_qr_scan", "ios": "https://dc.lft.to/lastmile_qr_scan"}, "is_disabled": 0, "fusion_lat": 0.0, "lat": 38.944169, "is_reserved": 0}, {"lon": -77.02802166666666, "fusion_lon": 0.0, "bike_id": "f81ecd31262fd942ca6052b81d19cc3e", "type": "electric_scooter", "name": "f81ecd31262fd942ca6052b81d19cc3e", "rental_uris": {"android": "https://dc.lft.to/lastmile_qr_scan", "ios": "https://dc.lft.to/lastmile_qr_scan"}, "is_disabled": 0, "fusion_lat": 0.0, "lat": 38.90890666666667, "is_reserved": 0}, {"lon": -77.07234966666667, "fusion_lon": 0.0, "bike_id": "6d828cdad31110a8c3b6070131d6ee53", "type": "electric_scooter", "name": "6d828cdad31110a8c3b6070131d6ee53", "rental_uris": {"android": "https://dc.lft.to/lastmile_qr_scan", "ios": "https://dc.lft.to/lastmile_qr_scan"}, "is_disabled": 0, "fusion_lat": 0.0, "lat": 38.93187283333334, "is_reserved": 0}, {"lon": -77.061304, "fusion_lon": 0.0, "bike_id": "a4cc613543c10414e10238e54ce1d307", "type": "electric_scooter", "name": "a4cc613543c10414e10238e54ce1d307", "rental_uris": {"android": "https://dc.lft.to/lastmile_qr_scan", "ios": "https://dc.lft.to/lastmile_qr_scan"}, "is_disabled": 0, "fusion_lat": 0.0, "lat": 38.943564, "is_reserved": 0}, {"lon": -77.026943, "fusion_lon": 0.0, "bike_id": "db2c7f17750df52c5a6efc94230383da", "type": "electric_scooter", "name": "db2c7f17750df52c5a6efc94230383da", "rental_uris": {"android": "https://dc.lft.to/lastmile_qr_scan", "ios": "https://dc.lft.to/lastmile_qr_scan"}, "is_disabled": 0, "fusion_lat": 0.0, "lat": 38.908476666666665, "is_reserved": 0}, {"lon": -77.02236616666667, "fusion_lon": 0.0, "bike_id": "301a54ad3b04bacdbf1b3c88dbbe12bf", "type": "electric_scooter", "name": "301a54ad3b04bacdbf1b3c88dbbe12bf", "rental_uris": {"android": "https://dc.lft.to/lastmile_qr_scan", "ios": "https://dc.lft.to/lastmile_qr_scan"}, "is_disabled": 0, "fusion_lat": 0.0, "lat": 38.922188166666665, "is_reserved": 0}, {"lon": -76.98764633333333, "fusion_lon": 0.0, "bike_id": "eb0bb0703f321a0055531d3963380b9b", "type": "electric_scooter", "name": "eb0bb0703f321a0055531d3963380b9b", "rental_uris": {"android": "https://dc.lft.to/lastmile_qr_scan", "ios": "https://dc.lft.to/lastmile_qr_scan"}, "is_disabled": 0, "fusion_lat": 0.0, "lat": 38.90027333333333, "is_reserved": 0}, {"lon": -77.031262, "fusion_lon": 0.0, "bike_id": "a3aa6de0c77e3008db1be927d3293bcd", "type": "electric_scooter", "name": "a3aa6de0c77e3008db1be927d3293bcd", "rental_uris": {"android": "https://dc.lft.to/lastmile_qr_scan", "ios": "https://dc.lft.to/lastmile_qr_scan"}, "is_disabled": 0, "fusion_lat": 0.0, "lat": 38.91697883333333, "is_reserved": 0}, {"lon": -77.006084, "fusion_lon": 0.0, "bike_id": "71eb42314d97a2bde57b4a798c1dda72", "type": "electric_scooter", "name": "71eb42314d97a2bde57b4a798c1dda72", "rental_uris": {"android": "https://dc.lft.to/lastmile_qr_scan", "ios": "https://dc.lft.to/lastmile_qr_scan"}, "is_disabled": 0, "fusion_lat": 0.0, "lat": 38.87180766666667, "is_reserved": 0}, {"lon": -77.045345, "fusion_lon": 0.0, "bike_id": "4475917ae3fe9ef27f6415d2cb249d5c", "type": "electric_bike", "name": "4475917ae3fe9ef27f6415d2cb249d5c", "rental_uris": {"android": "https://dc.lft.to/lastmile_qr_scan", "ios": "https://dc.lft.to/lastmile_qr_scan"}, "is_disabled": 0, "fusion_lat": 0.0, "lat": 39.03309483333334, "is_reserved": 0}, {"lon": -77.02092833333333, "fusion_lon": 0.0, "bike_id": "bf926cc058ccacd77015a7576ce4fcf3", "type": "electric_scooter", "name": "bf926cc058ccacd77015a7576ce4fcf3", "rental_uris": {"android": "https://dc.lft.to/lastmile_qr_scan", "ios": "https://dc.lft.to/lastmile_qr_scan"}, "is_disabled": 0, "fusion_lat": 0.0, "lat": 38.96643616666667, "is_reserved": 0}, {"lon": -76.9583935, "fusion_lon": 0.0, "bike_id": "2de4a3c3b51397d22cebd2cc17a81c76", "type": "electric_bike", "name": "2de4a3c3b51397d22cebd2cc17a81c76", "rental_uris": {"android": "https://dc.lft.to/lastmile_qr_scan", "ios": "https://dc.lft.to/lastmile_qr_scan"}, "is_disabled": 0, "fusion_lat": 0.0, "lat": 38.93045583333333, "is_reserved": 0}, {"lon": -77.05150366666666, "fusion_lon": 0.0, "bike_id": "3a18929f147ac3f8fdabfba53c0d9022", "type": "electric_scooter", "name": "3a18929f147ac3f8fdabfba53c0d9022", "rental_uris": {"android": "https://dc.lft.to/lastmile_qr_scan", "ios": "https://dc.lft.to/lastmile_qr_scan"}, "is_disabled": 0, "fusion_lat": 0.0, "lat": 38.92374433333333, "is_reserved": 0}, {"lon": -77.02948116666667, "fusion_lon": 0.0, "bike_id": "39462a16a4c1d6e1be4de4ecf7550bfc", "type": "electric_scooter", "name": "39462a16a4c1d6e1be4de4ecf7550bfc", "rental_uris": {"android": "https://dc.lft.to/lastmile_qr_scan", "ios": "https://dc.lft.to/lastmile_qr_scan"}, "is_disabled": 0, "fusion_lat": 0.0, "lat": 38.907397333333336, "is_reserved": 0}, {"lon": -77.042291, "fusion_lon": 0.0, "bike_id": "515858f8b676e7838c6029ece6e1d4c5", "type": "electric_scooter", "name": "515858f8b676e7838c6029ece6e1d4c5", "rental_uris": {"android": "https://dc.lft.to/lastmile_qr_scan", "ios": "https://dc.lft.to/lastmile_qr_scan"}, "is_disabled": 0, "fusion_lat": 0.0, "lat": 38.9141695, "is_reserved": 0}, {"lon": -76.9723585, "fusion_lon": 0.0, "bike_id": "84ec3a1784330065659eee58c003d5a6", "type": "electric_bike", "name": "84ec3a1784330065659eee58c003d5a6", "rental_uris": {"android": "https://dc.lft.to/lastmile_qr_scan", "ios": "https://dc.lft.to/lastmile_qr_scan"}, "is_disabled": 0, "fusion_lat": 0.0, "lat": 38.90427866666667, "is_reserved": 0}, {"lon": -77.09961066666666, "fusion_lon": 0.0, "bike_id": "c39ab3ce4b5d55fc664f743a2a21f67a", "type": "electric_bike", "name": "c39ab3ce4b5d55fc664f743a2a21f67a", "rental_uris": {"android": "https://dc.lft.to/lastmile_qr_scan", "ios": "https://dc.lft.to/lastmile_qr_scan"}, "is_disabled": 0, "fusion_lat": 0.0, "lat": 38.857843333333335, "is_reserved": 0}, {"lon": -77.0283505, "fusion_lon": 0.0, "bike_id": "8642b3f03cc1bc35286a510baf640f4e", "type": "electric_scooter", "name": "8642b3f03cc1bc35286a510baf640f4e", "rental_uris": {"android": "https://dc.lft.to/lastmile_qr_scan", "ios": "https://dc.lft.to/lastmile_qr_scan"}, "is_disabled": 0, "fusion_lat": 0.0, "lat": 38.8936345, "is_reserved": 0}, {"lon": -76.92655983333333, "fusion_lon": 0.0, "bike_id": "ea85790a398df89f9718e1ee1e53ac39", "type": "electric_scooter", "name": "ea85790a398df89f9718e1ee1e53ac39", "rental_uris": {"android": "https://dc.lft.to/lastmile_qr_scan", "ios": "https://dc.lft.to/lastmile_qr_scan"}, "is_disabled": 0, "fusion_lat": 0.0, "lat": 38.9017215, "is_reserved": 0}, {"lon": -77.01226133333333, "fusion_lon": 0.0, "bike_id": "ed167eb2fe7788ae4a735594443895b3", "type": "electric_scooter", "name": "ed167eb2fe7788ae4a735594443895b3", "rental_uris": {"android": "https://dc.lft.to/lastmile_qr_scan", "ios": "https://dc.lft.to/lastmile_qr_scan"}, "is_disabled": 0, "fusion_lat": 0.0, "lat": 38.916815, "is_reserved": 0}, {"lon": -77.01025633333333, "fusion_lon": 0.0, "bike_id": "0514686f3cb4ef70d14cf79808315bc6", "type": "electric_scooter", "name": "0514686f3cb4ef70d14cf79808315bc6", "rental_uris": {"android": "https://dc.lft.to/lastmile_qr_scan", "ios": "https://dc.lft.to/lastmile_qr_scan"}, "is_disabled": 0, "fusion_lat": 0.0, "lat": 38.920314166666664, "is_reserved": 0}, {"lon": -77.02936766666667, "fusion_lon": 0.0, "bike_id": "266fb7751254a1e67e1f78e74614dfaa", "type": "electric_scooter", "name": "266fb7751254a1e67e1f78e74614dfaa", "rental_uris": {"android": "https://dc.lft.to/lastmile_qr_scan", "ios": "https://dc.lft.to/lastmile_qr_scan"}, "is_disabled": 0, "fusion_lat": 0.0, "lat": 38.898400333333335, "is_reserved": 0}, {"lon": -76.9888945, "fusion_lon": 0.0, "bike_id": "f7eee9330f754a5dd5b8bba959cd0d45", "type": "electric_scooter", "name": "f7eee9330f754a5dd5b8bba959cd0d45", "rental_uris": {"android": "https://dc.lft.to/lastmile_qr_scan", "ios": "https://dc.lft.to/lastmile_qr_scan"}, "is_disabled": 0, "fusion_lat": 0.0, "lat": 38.86663516666667, "is_reserved": 0}, {"lon": -77.02808233333333, "fusion_lon": 0.0, "bike_id": "27a6e244d1609918be0ae4a792ecd218", "type": "electric_scooter", "name": "27a6e244d1609918be0ae4a792ecd218", "rental_uris": {"android": "https://dc.lft.to/lastmile_qr_scan", "ios": "https://dc.lft.to/lastmile_qr_scan"}, "is_disabled": 0, "fusion_lat": 0.0, "lat": 38.899178666666664, "is_reserved": 0}, {"lon": -77.01775616666667, "fusion_lon": 0.0, "bike_id": "fa4ff84af642867f8206cbcf1d5ba829", "type": "electric_scooter", "name": "fa4ff84af642867f8206cbcf1d5ba829", "rental_uris": {"android": "https://dc.lft.to/lastmile_qr_scan", "ios": "https://dc.lft.to/lastmile_qr_scan"}, "is_disabled": 0, "fusion_lat": 0.0, "lat": 38.88317333333333, "is_reserved": 0}, {"lon": -77.033586, "fusion_lon": 0.0, "bike_id": "a66de639ccb753cfc4a5ba998b3a10e1", "type": "electric_scooter", "name": "a66de639ccb753cfc4a5ba998b3a10e1", "rental_uris": {"android": "https://dc.lft.to/lastmile_qr_scan", "ios": "https://dc.lft.to/lastmile_qr_scan"}, "is_disabled": 0, "fusion_lat": 0.0, "lat": 38.92062633333333, "is_reserved": 0}, {"lon": -77.024572, "fusion_lon": 0.0, "bike_id": "b3627be18e767a552506d7dbb76eb3a0", "type": "electric_scooter", "name": "b3627be18e767a552506d7dbb76eb3a0", "rental_uris": {"android": "https://dc.lft.to/lastmile_qr_scan", "ios": "https://dc.lft.to/lastmile_qr_scan"}, "is_disabled": 0, "fusion_lat": 0.0, "lat": 38.91711033333333, "is_reserved": 0}, {"lon": -76.98249216666666, "fusion_lon": 0.0, "bike_id": "93496ad248bda12ed74ae268ed876f4d", "type": "electric_scooter", "name": "93496ad248bda12ed74ae268ed876f4d", "rental_uris": {"android": "https://dc.lft.to/lastmile_qr_scan", "ios": "https://dc.lft.to/lastmile_qr_scan"}, "is_disabled": 0, "fusion_lat": 0.0, "lat": 38.895438, "is_reserved": 0}, {"lon": -77.00213683333334, "fusion_lon": 0.0, "bike_id": "e080a8e955ab14375172b9836e997b26", "type": "electric_scooter", "name": "e080a8e955ab14375172b9836e997b26", "rental_uris": {"android": "https://dc.lft.to/lastmile_qr_scan", "ios": "https://dc.lft.to/lastmile_qr_scan"}, "is_disabled": 0, "fusion_lat": 0.0, "lat": 38.900201833333334, "is_reserved": 0}, {"lon": -77.0190455, "fusion_lon": 0.0, "bike_id": "b3ee135da9f323363e4d5cfb583fa618", "type": "electric_scooter", "name": "b3ee135da9f323363e4d5cfb583fa618", "rental_uris": {"android": "https://dc.lft.to/lastmile_qr_scan", "ios": "https://dc.lft.to/lastmile_qr_scan"}, "is_disabled": 0, "fusion_lat": 0.0, "lat": 38.92363733333333, "is_reserved": 0}, {"lon": -77.02151683333334, "fusion_lon": 0.0, "bike_id": "e121ed84bef3075c294b86e9777d5d1c", "type": "electric_scooter", "name": "e121ed84bef3075c294b86e9777d5d1c", "rental_uris": {"android": "https://dc.lft.to/lastmile_qr_scan", "ios": "https://dc.lft.to/lastmile_qr_scan"}, "is_disabled": 0, "fusion_lat": 0.0, "lat": 38.95802183333333, "is_reserved": 0}, {"lon": -77.02695833333334, "fusion_lon": 0.0, "bike_id": "99a78cc0050a546a6907e6b73609f980", "type": "electric_scooter", "name": "99a78cc0050a546a6907e6b73609f980", "rental_uris": {"android": "https://dc.lft.to/lastmile_qr_scan", "ios": "https://dc.lft.to/lastmile_qr_scan"}, "is_disabled": 0, "fusion_lat": 0.0, "lat": 38.90846883333333, "is_reserved": 0}, {"lon": -77.0185355, "fusion_lon": 0.0, "bike_id": "6200315430d14f51006975bea06a86a0", "type": "electric_scooter", "name": "6200315430d14f51006975bea06a86a0", "rental_uris": {"android": "https://dc.lft.to/lastmile_qr_scan", "ios": "https://dc.lft.to/lastmile_qr_scan"}, "is_disabled": 0, "fusion_lat": 0.0, "lat": 38.97368316666667, "is_reserved": 0}, {"lon": -77.03829383333333, "fusion_lon": 0.0, "bike_id": "3e0442ac54c4c763f5a93edd815ed765", "type": "electric_scooter", "name": "3e0442ac54c4c763f5a93edd815ed765", "rental_uris": {"android": "https://dc.lft.to/lastmile_qr_scan", "ios": "https://dc.lft.to/lastmile_qr_scan"}, "is_disabled": 0, "fusion_lat": 0.0, "lat": 38.91268016666667, "is_reserved": 0}, {"lon": -76.99848283333333, "fusion_lon": 0.0, "bike_id": "8d4d72b9dff99e219d774684f04f8914", "type": "electric_scooter", "name": "8d4d72b9dff99e219d774684f04f8914", "rental_uris": {"android": "https://dc.lft.to/lastmile_qr_scan", "ios": "https://dc.lft.to/lastmile_qr_scan"}, "is_disabled": 0, "fusion_lat": 0.0, "lat": 38.900393, "is_reserved": 0}, {"lon": -76.950935, "fusion_lon": 0.0, "bike_id": "34620ee8858015ed7f49f9beb1e6943d", "type": "electric_scooter", "name": "34620ee8858015ed7f49f9beb1e6943d", "rental_uris": {"android": "https://dc.lft.to/lastmile_qr_scan", "ios": "https://dc.lft.to/lastmile_qr_scan"}, "is_disabled": 0, "fusion_lat": 0.0, "lat": 38.884508333333336, "is_reserved": 0}, {"lon": -77.05259233333334, "fusion_lon": 0.0, "bike_id": "401ee6de04aa14f3ca128779e85a9d76", "type": "electric_scooter", "name": "401ee6de04aa14f3ca128779e85a9d76", "rental_uris": {"android": "https://dc.lft.to/lastmile_qr_scan", "ios": "https://dc.lft.to/lastmile_qr_scan"}, "is_disabled": 0, "fusion_lat": 0.0, "lat": 38.9256535, "is_reserved": 0}, {"lon": -77.033549, "fusion_lon": 0.0, "bike_id": "442dbd2662a967a6338ca732dc9827e5", "type": "electric_scooter", "name": "442dbd2662a967a6338ca732dc9827e5", "rental_uris": {"android": "https://dc.lft.to/lastmile_qr_scan", "ios": "https://dc.lft.to/lastmile_qr_scan"}, "is_disabled": 0, "fusion_lat": 0.0, "lat": 38.935768, "is_reserved": 0}, {"lon": -77.01149016666666, "fusion_lon": 0.0, "bike_id": "149c8d2946cb6993969a325aeb6d7d29", "type": "electric_scooter", "name": "149c8d2946cb6993969a325aeb6d7d29", "rental_uris": {"android": "https://dc.lft.to/lastmile_qr_scan", "ios": "https://dc.lft.to/lastmile_qr_scan"}, "is_disabled": 0, "fusion_lat": 0.0, "lat": 38.91113, "is_reserved": 0}, {"lon": -76.99029116666667, "fusion_lon": 0.0, "bike_id": "904865e208caee25e4cabe14d264d098", "type": "electric_scooter", "name": "904865e208caee25e4cabe14d264d098", "rental_uris": {"android": "https://dc.lft.to/lastmile_qr_scan", "ios": "https://dc.lft.to/lastmile_qr_scan"}, "is_disabled": 0, "fusion_lat": 0.0, "lat": 38.89855766666667, "is_reserved": 0}, {"lon": -77.024009, "fusion_lon": 0.0, "bike_id": "96ddc4aa2b9c0e4459f2df9a82ed6291", "type": "electric_scooter", "name": "96ddc4aa2b9c0e4459f2df9a82ed6291", "rental_uris": {"android": "https://dc.lft.to/lastmile_qr_scan", "ios": "https://dc.lft.to/lastmile_qr_scan"}, "is_disabled": 0, "fusion_lat": 0.0, "lat": 38.9176205, "is_reserved": 0}, {"lon": -77.02667233333334, "fusion_lon": 0.0, "bike_id": "925d5ac272877ca12bd84474f52e6677", "type": "electric_scooter", "name": "925d5ac272877ca12bd84474f52e6677", "rental_uris": {"android": "https://dc.lft.to/lastmile_qr_scan", "ios": "https://dc.lft.to/lastmile_qr_scan"}, "is_disabled": 0, "fusion_lat": 0.0, "lat": 38.9310235, "is_reserved": 0}, {"lon": -77.0251635, "fusion_lon": 0.0, "bike_id": "a5e3e8ef5d5ae3225cf602b404f50b4e", "type": "electric_scooter", "name": "a5e3e8ef5d5ae3225cf602b404f50b4e", "rental_uris": {"android": "https://dc.lft.to/lastmile_qr_scan", "ios": "https://dc.lft.to/lastmile_qr_scan"}, "is_disabled": 0, "fusion_lat": 0.0, "lat": 38.93946583333334, "is_reserved": 0}, {"lon": -76.9981405, "fusion_lon": 0.0, "bike_id": "75cba18676421a3fe4908a2425d3eac6", "type": "electric_bike", "name": "75cba18676421a3fe4908a2425d3eac6", "rental_uris": {"android": "https://dc.lft.to/lastmile_qr_scan", "ios": "https://dc.lft.to/lastmile_qr_scan"}, "is_disabled": 0, "fusion_lat": 0.0, "lat": 38.9349315, "is_reserved": 0}, {"lon": -77.03176283333333, "fusion_lon": 0.0, "bike_id": "764e6d07b9b3b6591eea18eb6f348398", "type": "electric_scooter", "name": "764e6d07b9b3b6591eea18eb6f348398", "rental_uris": {"android": "https://dc.lft.to/lastmile_qr_scan", "ios": "https://dc.lft.to/lastmile_qr_scan"}, "is_disabled": 0, "fusion_lat": 0.0, "lat": 38.915477, "is_reserved": 0}, {"lon": -77.04224066666667, "fusion_lon": 0.0, "bike_id": "7e9010f2606dc9004cc16bc07a16d355", "type": "electric_scooter", "name": "7e9010f2606dc9004cc16bc07a16d355", "rental_uris": {"android": "https://dc.lft.to/lastmile_qr_scan", "ios": "https://dc.lft.to/lastmile_qr_scan"}, "is_disabled": 0, "fusion_lat": 0.0, "lat": 38.911087333333334, "is_reserved": 0}, {"lon": -76.999129, "fusion_lon": 0.0, "bike_id": "7d9378ea23c4918548181ddf54682966", "type": "electric_scooter", "name": "7d9378ea23c4918548181ddf54682966", "rental_uris": {"android": "https://dc.lft.to/lastmile_qr_scan", "ios": "https://dc.lft.to/lastmile_qr_scan"}, "is_disabled": 0, "fusion_lat": 0.0, "lat": 38.932072166666664, "is_reserved": 0}, {"lon": -77.01119766666666, "fusion_lon": 0.0, "bike_id": "df6584e17178a2d969b3730f7089b644", "type": "electric_scooter", "name": "df6584e17178a2d969b3730f7089b644", "rental_uris": {"android": "https://dc.lft.to/lastmile_qr_scan", "ios": "https://dc.lft.to/lastmile_qr_scan"}, "is_disabled": 0, "fusion_lat": 0.0, "lat": 38.89537416666667, "is_reserved": 0}, {"lon": -77.05333583333334, "fusion_lon": 0.0, "bike_id": "f80509d9eaca4405a42c200d70d223a5", "type": "electric_bike", "name": "f80509d9eaca4405a42c200d70d223a5", "rental_uris": {"android": "https://dc.lft.to/lastmile_qr_scan", "ios": "https://dc.lft.to/lastmile_qr_scan"}, "is_disabled": 0, "fusion_lat": 0.0, "lat": 39.04082183333333, "is_reserved": 0}, {"lon": -77.03865716666667, "fusion_lon": 0.0, "bike_id": "d1ceace88a0a6f4557c030767dfa9997", "type": "electric_scooter", "name": "d1ceace88a0a6f4557c030767dfa9997", "rental_uris": {"android": "https://dc.lft.to/lastmile_qr_scan", "ios": "https://dc.lft.to/lastmile_qr_scan"}, "is_disabled": 0, "fusion_lat": 0.0, "lat": 38.91687733333333, "is_reserved": 0}, {"lon": -77.04673583333333, "fusion_lon": 0.0, "bike_id": "ab0f4d48bd1bb83ba927aafdc474423a", "type": "electric_scooter", "name": "ab0f4d48bd1bb83ba927aafdc474423a", "rental_uris": {"android": "https://dc.lft.to/lastmile_qr_scan", "ios": "https://dc.lft.to/lastmile_qr_scan"}, "is_disabled": 0, "fusion_lat": 0.0, "lat": 38.89555816666667, "is_reserved": 0}, {"lon": -77.02496216666667, "fusion_lon": 0.0, "bike_id": "df0b0c1d2f3b908f3069c7334c3eb2de", "type": "electric_scooter", "name": "df0b0c1d2f3b908f3069c7334c3eb2de", "rental_uris": {"android": "https://dc.lft.to/lastmile_qr_scan", "ios": "https://dc.lft.to/lastmile_qr_scan"}, "is_disabled": 0, "fusion_lat": 0.0, "lat": 38.9409045, "is_reserved": 0}, {"lon": -77.03905033333334, "fusion_lon": 0.0, "bike_id": "848956ed7eff102adcaf447679f9da06", "type": "electric_scooter", "name": "848956ed7eff102adcaf447679f9da06", "rental_uris": {"android": "https://dc.lft.to/lastmile_qr_scan", "ios": "https://dc.lft.to/lastmile_qr_scan"}, "is_disabled": 0, "fusion_lat": 0.0, "lat": 38.90469783333333, "is_reserved": 0}, {"lon": -77.0401115, "fusion_lon": 0.0, "bike_id": "ae3f893c019a4959feace7c3ec3007cf", "type": "electric_scooter", "name": "ae3f893c019a4959feace7c3ec3007cf", "rental_uris": {"android": "https://dc.lft.to/lastmile_qr_scan", "ios": "https://dc.lft.to/lastmile_qr_scan"}, "is_disabled": 0, "fusion_lat": 0.0, "lat": 38.896657166666664, "is_reserved": 0}, {"lon": -77.02485316666667, "fusion_lon": 0.0, "bike_id": "7716d79a09e3541a858ed8bcf3040e03", "type": "electric_scooter", "name": "7716d79a09e3541a858ed8bcf3040e03", "rental_uris": {"android": "https://dc.lft.to/lastmile_qr_scan", "ios": "https://dc.lft.to/lastmile_qr_scan"}, "is_disabled": 0, "fusion_lat": 0.0, "lat": 38.91702933333333, "is_reserved": 0}, {"lon": -77.04577733333333, "fusion_lon": 0.0, "bike_id": "eab1e163b3de928c415226e1bb138722", "type": "electric_scooter", "name": "eab1e163b3de928c415226e1bb138722", "rental_uris": {"android": "https://dc.lft.to/lastmile_qr_scan", "ios": "https://dc.lft.to/lastmile_qr_scan"}, "is_disabled": 0, "fusion_lat": 0.0, "lat": 38.92127933333333, "is_reserved": 0}, {"lon": -77.02360683333333, "fusion_lon": 0.0, "bike_id": "051ec3bb0db67910eccb3f374812a83f", "type": "electric_scooter", "name": "051ec3bb0db67910eccb3f374812a83f", "rental_uris": {"android": "https://dc.lft.to/lastmile_qr_scan", "ios": "https://dc.lft.to/lastmile_qr_scan"}, "is_disabled": 0, "fusion_lat": 0.0, "lat": 38.937409333333335, "is_reserved": 0}, {"lon": -77.03818583333333, "fusion_lon": 0.0, "bike_id": "2b23862c88b7b7d5fe0a9908a6bcfbe4", "type": "electric_scooter", "name": "2b23862c88b7b7d5fe0a9908a6bcfbe4", "rental_uris": {"android": "https://dc.lft.to/lastmile_qr_scan", "ios": "https://dc.lft.to/lastmile_qr_scan"}, "is_disabled": 0, "fusion_lat": 0.0, "lat": 38.91500716666667, "is_reserved": 0}, {"lon": -77.04946033333333, "fusion_lon": 0.0, "bike_id": "1964220d98cc70d7554ab6d212b02440", "type": "electric_bike", "name": "1964220d98cc70d7554ab6d212b02440", "rental_uris": {"android": "https://dc.lft.to/lastmile_qr_scan", "ios": "https://dc.lft.to/lastmile_qr_scan"}, "is_disabled": 0, "fusion_lat": 0.0, "lat": 38.85477816666667, "is_reserved": 0}, {"lon": -77.032027, "fusion_lon": 0.0, "bike_id": "6d4d79bde317cd60d92649a8b4d4da7c", "type": "electric_scooter", "name": "6d4d79bde317cd60d92649a8b4d4da7c", "rental_uris": {"android": "https://dc.lft.to/lastmile_qr_scan", "ios": "https://dc.lft.to/lastmile_qr_scan"}, "is_disabled": 0, "fusion_lat": 0.0, "lat": 38.92783033333333, "is_reserved": 0}, {"lon": -77.03443566666667, "fusion_lon": 0.0, "bike_id": "306548ec06ea1a0be7217750a5a76f67", "type": "electric_scooter", "name": "306548ec06ea1a0be7217750a5a76f67", "rental_uris": {"android": "https://dc.lft.to/lastmile_qr_scan", "ios": "https://dc.lft.to/lastmile_qr_scan"}, "is_disabled": 0, "fusion_lat": 0.0, "lat": 38.9097505, "is_reserved": 0}, {"lon": -77.02816833333333, "fusion_lon": 0.0, "bike_id": "b8ea4a1aa668d4ce3dc33d16786bc107", "type": "electric_scooter", "name": "b8ea4a1aa668d4ce3dc33d16786bc107", "rental_uris": {"android": "https://dc.lft.to/lastmile_qr_scan", "ios": "https://dc.lft.to/lastmile_qr_scan"}, "is_disabled": 0, "fusion_lat": 0.0, "lat": 38.914159, "is_reserved": 0}, {"lon": -77.0318785, "fusion_lon": 0.0, "bike_id": "7a79d677f4cf72ddcb8752d65ac61609", "type": "electric_scooter", "name": "7a79d677f4cf72ddcb8752d65ac61609", "rental_uris": {"android": "https://dc.lft.to/lastmile_qr_scan", "ios": "https://dc.lft.to/lastmile_qr_scan"}, "is_disabled": 0, "fusion_lat": 0.0, "lat": 38.91623716666667, "is_reserved": 0}, {"lon": -77.038261, "fusion_lon": 0.0, "bike_id": "50a804e6711fd21189473d73eb87d889", "type": "electric_scooter", "name": "50a804e6711fd21189473d73eb87d889", "rental_uris": {"android": "https://dc.lft.to/lastmile_qr_scan", "ios": "https://dc.lft.to/lastmile_qr_scan"}, "is_disabled": 0, "fusion_lat": 0.0, "lat": 38.90790966666667, "is_reserved": 0}, {"lon": -77.04461733333333, "fusion_lon": 0.0, "bike_id": "c014f466e13de379191494ef648510d0", "type": "electric_scooter", "name": "c014f466e13de379191494ef648510d0", "rental_uris": {"android": "https://dc.lft.to/lastmile_qr_scan", "ios": "https://dc.lft.to/lastmile_qr_scan"}, "is_disabled": 0, "fusion_lat": 0.0, "lat": 38.8959, "is_reserved": 0}, {"lon": -77.04180316666667, "fusion_lon": 0.0, "bike_id": "a6b3a3339836345e7fbcf91e52b6440e", "type": "electric_scooter", "name": "a6b3a3339836345e7fbcf91e52b6440e", "rental_uris": {"android": "https://dc.lft.to/lastmile_qr_scan", "ios": "https://dc.lft.to/lastmile_qr_scan"}, "is_disabled": 0, "fusion_lat": 0.0, "lat": 38.91623, "is_reserved": 0}, {"lon": -76.9994365, "fusion_lon": 0.0, "bike_id": "6324574a8c4b691749cbb82ebd00cad5", "type": "electric_scooter", "name": "6324574a8c4b691749cbb82ebd00cad5", "rental_uris": {"android": "https://dc.lft.to/lastmile_qr_scan", "ios": "https://dc.lft.to/lastmile_qr_scan"}, "is_disabled": 0, "fusion_lat": 0.0, "lat": 38.8429635, "is_reserved": 0}, {"lon": -77.04659516666666, "fusion_lon": 0.0, "bike_id": "a700fb70f7346a48d420b8c901c050fc", "type": "electric_scooter", "name": "a700fb70f7346a48d420b8c901c050fc", "rental_uris": {"android": "https://dc.lft.to/lastmile_qr_scan", "ios": "https://dc.lft.to/lastmile_qr_scan"}, "is_disabled": 0, "fusion_lat": 0.0, "lat": 38.89715116666667, "is_reserved": 0}, {"lon": -77.03832716666666, "fusion_lon": 0.0, "bike_id": "b3b7328fc4f6a753a4b8ad3bd8c75466", "type": "electric_scooter", "name": "b3b7328fc4f6a753a4b8ad3bd8c75466", "rental_uris": {"android": "https://dc.lft.to/lastmile_qr_scan", "ios": "https://dc.lft.to/lastmile_qr_scan"}, "is_disabled": 0, "fusion_lat": 0.0, "lat": 38.931475666666664, "is_reserved": 0}, {"lon": -77.0385485, "fusion_lon": 0.0, "bike_id": "3db7e0d83c24f69a79d048a4127dd453", "type": "electric_scooter", "name": "3db7e0d83c24f69a79d048a4127dd453", "rental_uris": {"android": "https://dc.lft.to/lastmile_qr_scan", "ios": "https://dc.lft.to/lastmile_qr_scan"}, "is_disabled": 0, "fusion_lat": 0.0, "lat": 38.9155275, "is_reserved": 0}, {"lon": -77.03798516666667, "fusion_lon": 0.0, "bike_id": "1feb1531f0b75993bca4ee958558ea50", "type": "electric_scooter", "name": "1feb1531f0b75993bca4ee958558ea50", "rental_uris": {"android": "https://dc.lft.to/lastmile_qr_scan", "ios": "https://dc.lft.to/lastmile_qr_scan"}, "is_disabled": 0, "fusion_lat": 0.0, "lat": 38.919911666666664, "is_reserved": 0}, {"lon": -77.03269166666666, "fusion_lon": 0.0, "bike_id": "6e5f59574cce70c6e4dc9b76783e3e4a", "type": "electric_scooter", "name": "6e5f59574cce70c6e4dc9b76783e3e4a", "rental_uris": {"android": "https://dc.lft.to/lastmile_qr_scan", "ios": "https://dc.lft.to/lastmile_qr_scan"}, "is_disabled": 0, "fusion_lat": 0.0, "lat": 38.9198215, "is_reserved": 0}, {"lon": -77.02383683333333, "fusion_lon": 0.0, "bike_id": "f56b59071edf32cfc871fceccae5264f", "type": "electric_scooter", "name": "f56b59071edf32cfc871fceccae5264f", "rental_uris": {"android": "https://dc.lft.to/lastmile_qr_scan", "ios": "https://dc.lft.to/lastmile_qr_scan"}, "is_disabled": 0, "fusion_lat": 0.0, "lat": 38.912900666666665, "is_reserved": 0}, {"lon": -77.08966166666667, "fusion_lon": 0.0, "bike_id": "80a9b47f2cf91000f5f5800fb80d98ca", "type": "electric_scooter", "name": "80a9b47f2cf91000f5f5800fb80d98ca", "rental_uris": {"android": "https://dc.lft.to/lastmile_qr_scan", "ios": "https://dc.lft.to/lastmile_qr_scan"}, "is_disabled": 0, "fusion_lat": 0.0, "lat": 38.9342935, "is_reserved": 0}, {"lon": -77.05277416666667, "fusion_lon": 0.0, "bike_id": "437103d837984aeaae179908790a17f1", "type": "electric_scooter", "name": "437103d837984aeaae179908790a17f1", "rental_uris": {"android": "https://dc.lft.to/lastmile_qr_scan", "ios": "https://dc.lft.to/lastmile_qr_scan"}, "is_disabled": 0, "fusion_lat": 0.0, "lat": 38.905143333333335, "is_reserved": 0}, {"lon": -76.97398183333334, "fusion_lon": 0.0, "bike_id": "6340f0e7d3fa01782f8a19dbb5ddcd58", "type": "electric_bike", "name": "6340f0e7d3fa01782f8a19dbb5ddcd58", "rental_uris": {"android": "https://dc.lft.to/lastmile_qr_scan", "ios": "https://dc.lft.to/lastmile_qr_scan"}, "is_disabled": 0, "fusion_lat": 0.0, "lat": 38.8452995, "is_reserved": 0}, {"lon": -77.00108333333333, "fusion_lon": 0.0, "bike_id": "1b25ba1657e2d52044d2ad13dfda07d8", "type": "electric_scooter", "name": "1b25ba1657e2d52044d2ad13dfda07d8", "rental_uris": {"android": "https://dc.lft.to/lastmile_qr_scan", "ios": "https://dc.lft.to/lastmile_qr_scan"}, "is_disabled": 0, "fusion_lat": 0.0, "lat": 38.916330333333335, "is_reserved": 0}, {"lon": -77.01092333333334, "fusion_lon": 0.0, "bike_id": "0ee92230794ea40598aa05156c06f9b5", "type": "electric_scooter", "name": "0ee92230794ea40598aa05156c06f9b5", "rental_uris": {"android": "https://dc.lft.to/lastmile_qr_scan", "ios": "https://dc.lft.to/lastmile_qr_scan"}, "is_disabled": 0, "fusion_lat": 0.0, "lat": 38.917402333333335, "is_reserved": 0}, {"lon": -77.041626, "fusion_lon": 0.0, "bike_id": "60159799b608e0bed2e0fe2a4c2658c6", "type": "electric_scooter", "name": "60159799b608e0bed2e0fe2a4c2658c6", "rental_uris": {"android": "https://dc.lft.to/lastmile_qr_scan", "ios": "https://dc.lft.to/lastmile_qr_scan"}, "is_disabled": 0, "fusion_lat": 0.0, "lat": 38.91439333333334, "is_reserved": 0}, {"lon": -77.00408866666666, "fusion_lon": 0.0, "bike_id": "72afcb99cc510d6d8a02297bb702ce9e", "type": "electric_scooter", "name": "72afcb99cc510d6d8a02297bb702ce9e", "rental_uris": {"android": "https://dc.lft.to/lastmile_qr_scan", "ios": "https://dc.lft.to/lastmile_qr_scan"}, "is_disabled": 0, "fusion_lat": 0.0, "lat": 38.876521333333336, "is_reserved": 0}, {"lon": -77.048003, "fusion_lon": 0.0, "bike_id": "0ffbd511d88c6c78d5c911cdf585c8dd", "type": "electric_scooter", "name": "0ffbd511d88c6c78d5c911cdf585c8dd", "rental_uris": {"android": "https://dc.lft.to/lastmile_qr_scan", "ios": "https://dc.lft.to/lastmile_qr_scan"}, "is_disabled": 0, "fusion_lat": 0.0, "lat": 38.91942916666667, "is_reserved": 0}, {"lon": -77.00473366666667, "fusion_lon": 0.0, "bike_id": "86833f5ec27c9d5e65983ba12f9fe8d1", "type": "electric_scooter", "name": "86833f5ec27c9d5e65983ba12f9fe8d1", "rental_uris": {"android": "https://dc.lft.to/lastmile_qr_scan", "ios": "https://dc.lft.to/lastmile_qr_scan"}, "is_disabled": 0, "fusion_lat": 0.0, "lat": 38.910663666666665, "is_reserved": 0}, {"lon": -77.04677366666667, "fusion_lon": 0.0, "bike_id": "5cd42f9692f9e33eeaa9a1b065d9b4ff", "type": "electric_scooter", "name": "5cd42f9692f9e33eeaa9a1b065d9b4ff", "rental_uris": {"android": "https://dc.lft.to/lastmile_qr_scan", "ios": "https://dc.lft.to/lastmile_qr_scan"}, "is_disabled": 0, "fusion_lat": 0.0, "lat": 38.89460033333334, "is_reserved": 0}, {"lon": -77.04783183333333, "fusion_lon": 0.0, "bike_id": "be4b4388915c43beecaa96bf61f099f4", "type": "electric_scooter", "name": "be4b4388915c43beecaa96bf61f099f4", "rental_uris": {"android": "https://dc.lft.to/lastmile_qr_scan", "ios": "https://dc.lft.to/lastmile_qr_scan"}, "is_disabled": 0, "fusion_lat": 0.0, "lat": 38.9024085, "is_reserved": 0}, {"lon": -77.033282, "fusion_lon": 0.0, "bike_id": "9154a557256f8b30ce93bd0a52c11373", "type": "electric_bike", "name": "9154a557256f8b30ce93bd0a52c11373", "rental_uris": {"android": "https://dc.lft.to/lastmile_qr_scan", "ios": "https://dc.lft.to/lastmile_qr_scan"}, "is_disabled": 0, "fusion_lat": 0.0, "lat": 38.92059583333333, "is_reserved": 0}, {"lon": -76.9465285, "fusion_lon": 0.0, "bike_id": "074ea66c2c83d8ee17aad52579f6ceeb", "type": "electric_scooter", "name": "074ea66c2c83d8ee17aad52579f6ceeb", "rental_uris": {"android": "https://dc.lft.to/lastmile_qr_scan", "ios": "https://dc.lft.to/lastmile_qr_scan"}, "is_disabled": 0, "fusion_lat": 0.0, "lat": 38.89829316666667, "is_reserved": 0}, {"lon": -77.03661933333333, "fusion_lon": 0.0, "bike_id": "b7a2686645a5126a4fb73d5e877a4b78", "type": "electric_scooter", "name": "b7a2686645a5126a4fb73d5e877a4b78", "rental_uris": {"android": "https://dc.lft.to/lastmile_qr_scan", "ios": "https://dc.lft.to/lastmile_qr_scan"}, "is_disabled": 0, "fusion_lat": 0.0, "lat": 38.9267855, "is_reserved": 0}, {"lon": -77.01578666666667, "fusion_lon": 0.0, "bike_id": "51482179036bdc2eb7f4e6d25343656c", "type": "electric_scooter", "name": "51482179036bdc2eb7f4e6d25343656c", "rental_uris": {"android": "https://dc.lft.to/lastmile_qr_scan", "ios": "https://dc.lft.to/lastmile_qr_scan"}, "is_disabled": 0, "fusion_lat": 0.0, "lat": 38.915771666666664, "is_reserved": 0}, {"lon": -77.01226183333333, "fusion_lon": 0.0, "bike_id": "e559e1d1398a28b35a075beb09b97b25", "type": "electric_scooter", "name": "e559e1d1398a28b35a075beb09b97b25", "rental_uris": {"android": "https://dc.lft.to/lastmile_qr_scan", "ios": "https://dc.lft.to/lastmile_qr_scan"}, "is_disabled": 0, "fusion_lat": 0.0, "lat": 38.911050833333334, "is_reserved": 0}, {"lon": -77.03149916666666, "fusion_lon": 0.0, "bike_id": "f3868b6a194f2380798876067c39640c", "type": "electric_scooter", "name": "f3868b6a194f2380798876067c39640c", "rental_uris": {"android": "https://dc.lft.to/lastmile_qr_scan", "ios": "https://dc.lft.to/lastmile_qr_scan"}, "is_disabled": 0, "fusion_lat": 0.0, "lat": 38.915678166666666, "is_reserved": 0}, {"lon": -77.03832116666666, "fusion_lon": 0.0, "bike_id": "818c66a24cf582ad99f394d2af2c6307", "type": "electric_scooter", "name": "818c66a24cf582ad99f394d2af2c6307", "rental_uris": {"android": "https://dc.lft.to/lastmile_qr_scan", "ios": "https://dc.lft.to/lastmile_qr_scan"}, "is_disabled": 0, "fusion_lat": 0.0, "lat": 38.92174983333334, "is_reserved": 0}, {"lon": -76.94633866666666, "fusion_lon": 0.0, "bike_id": "83f97cc9ffc13e29d06a3e29d2ad55b8", "type": "electric_scooter", "name": "83f97cc9ffc13e29d06a3e29d2ad55b8", "rental_uris": {"android": "https://dc.lft.to/lastmile_qr_scan", "ios": "https://dc.lft.to/lastmile_qr_scan"}, "is_disabled": 0, "fusion_lat": 0.0, "lat": 38.89865066666667, "is_reserved": 0}, {"lon": -77.04090566666666, "fusion_lon": 0.0, "bike_id": "4b294dfb881d94499fbec4d2e9c12040", "type": "electric_scooter", "name": "4b294dfb881d94499fbec4d2e9c12040", "rental_uris": {"android": "https://dc.lft.to/lastmile_qr_scan", "ios": "https://dc.lft.to/lastmile_qr_scan"}, "is_disabled": 0, "fusion_lat": 0.0, "lat": 38.90383933333333, "is_reserved": 0}, {"lon": -77.0329385, "fusion_lon": 0.0, "bike_id": "24f78f6471d76fe6c99e06c43f79d55d", "type": "electric_scooter", "name": "24f78f6471d76fe6c99e06c43f79d55d", "rental_uris": {"android": "https://dc.lft.to/lastmile_qr_scan", "ios": "https://dc.lft.to/lastmile_qr_scan"}, "is_disabled": 0, "fusion_lat": 0.0, "lat": 38.92284983333333, "is_reserved": 0}, {"lon": -76.95254166666666, "fusion_lon": 0.0, "bike_id": "63c3de8ac5b89e9fa12974345bd4b0a0", "type": "electric_bike", "name": "63c3de8ac5b89e9fa12974345bd4b0a0", "rental_uris": {"android": "https://dc.lft.to/lastmile_qr_scan", "ios": "https://dc.lft.to/lastmile_qr_scan"}, "is_disabled": 0, "fusion_lat": 0.0, "lat": 38.90694933333333, "is_reserved": 0}, {"lon": -77.046715, "fusion_lon": 0.0, "bike_id": "49f793e52af1dd7dbd55f3ae7c5e2f97", "type": "electric_scooter", "name": "49f793e52af1dd7dbd55f3ae7c5e2f97", "rental_uris": {"android": "https://dc.lft.to/lastmile_qr_scan", "ios": "https://dc.lft.to/lastmile_qr_scan"}, "is_disabled": 0, "fusion_lat": 0.0, "lat": 38.8932695, "is_reserved": 0}, {"lon": -77.07701933333334, "fusion_lon": 0.0, "bike_id": "4e8cdc83e34f1b8ce742a046b880d0d5", "type": "electric_scooter", "name": "4e8cdc83e34f1b8ce742a046b880d0d5", "rental_uris": {"android": "https://dc.lft.to/lastmile_qr_scan", "ios": "https://dc.lft.to/lastmile_qr_scan"}, "is_disabled": 0, "fusion_lat": 0.0, "lat": 38.94384316666667, "is_reserved": 0}, {"lon": -77.0020945, "fusion_lon": 0.0, "bike_id": "be96092c6e670f0688399dc3cefba0a8", "type": "electric_scooter", "name": "be96092c6e670f0688399dc3cefba0a8", "rental_uris": {"android": "https://dc.lft.to/lastmile_qr_scan", "ios": "https://dc.lft.to/lastmile_qr_scan"}, "is_disabled": 0, "fusion_lat": 0.0, "lat": 38.90026666666667, "is_reserved": 0}, {"lon": -76.9709665, "fusion_lon": 0.0, "bike_id": "bf3b055286f74f065bcf38568dfeaf77", "type": "electric_scooter", "name": "bf3b055286f74f065bcf38568dfeaf77", "rental_uris": {"android": "https://dc.lft.to/lastmile_qr_scan", "ios": "https://dc.lft.to/lastmile_qr_scan"}, "is_disabled": 0, "fusion_lat": 0.0, "lat": 38.87063533333333, "is_reserved": 0}, {"lon": -77.02230066666667, "fusion_lon": 0.0, "bike_id": "858c1f5e24c7c2af50e93ada2bdc273d", "type": "electric_scooter", "name": "858c1f5e24c7c2af50e93ada2bdc273d", "rental_uris": {"android": "https://dc.lft.to/lastmile_qr_scan", "ios": "https://dc.lft.to/lastmile_qr_scan"}, "is_disabled": 0, "fusion_lat": 0.0, "lat": 38.93467183333333, "is_reserved": 0}, {"lon": -77.2013825, "fusion_lon": 0.0, "bike_id": "c8f8e40cf6b854aa9f02d0b272d09138", "type": "electric_bike", "name": "c8f8e40cf6b854aa9f02d0b272d09138", "rental_uris": {"android": "https://dc.lft.to/lastmile_qr_scan", "ios": "https://dc.lft.to/lastmile_qr_scan"}, "is_disabled": 0, "fusion_lat": 0.0, "lat": 38.922186833333335, "is_reserved": 0}, {"lon": -76.93189933333333, "fusion_lon": 0.0, "bike_id": "3b9886e53b70944347c60043f3968710", "type": "electric_scooter", "name": "3b9886e53b70944347c60043f3968710", "rental_uris": {"android": "https://dc.lft.to/lastmile_qr_scan", "ios": "https://dc.lft.to/lastmile_qr_scan"}, "is_disabled": 0, "fusion_lat": 0.0, "lat": 38.898789666666666, "is_reserved": 0}, {"lon": -77.04690933333333, "fusion_lon": 0.0, "bike_id": "44b760ef74b196dc852e423b0f5df299", "type": "electric_scooter", "name": "44b760ef74b196dc852e423b0f5df299", "rental_uris": {"android": "https://dc.lft.to/lastmile_qr_scan", "ios": "https://dc.lft.to/lastmile_qr_scan"}, "is_disabled": 0, "fusion_lat": 0.0, "lat": 38.92175983333333, "is_reserved": 0}, {"lon": -77.03298233333334, "fusion_lon": 0.0, "bike_id": "affab7ab385b9b09a4bbac5907edfe0f", "type": "electric_scooter", "name": "affab7ab385b9b09a4bbac5907edfe0f", "rental_uris": {"android": "https://dc.lft.to/lastmile_qr_scan", "ios": "https://dc.lft.to/lastmile_qr_scan"}, "is_disabled": 0, "fusion_lat": 0.0, "lat": 38.907169, "is_reserved": 0}, {"lon": -77.04494116666666, "fusion_lon": 0.0, "bike_id": "65cc3e44c3806624a606e45109378a78", "type": "electric_scooter", "name": "65cc3e44c3806624a606e45109378a78", "rental_uris": {"android": "https://dc.lft.to/lastmile_qr_scan", "ios": "https://dc.lft.to/lastmile_qr_scan"}, "is_disabled": 0, "fusion_lat": 0.0, "lat": 38.90948316666667, "is_reserved": 0}, {"lon": -77.03838966666666, "fusion_lon": 0.0, "bike_id": "652b219b8eda3596af2ce8ab8707340e", "type": "electric_scooter", "name": "652b219b8eda3596af2ce8ab8707340e", "rental_uris": {"android": "https://dc.lft.to/lastmile_qr_scan", "ios": "https://dc.lft.to/lastmile_qr_scan"}, "is_disabled": 0, "fusion_lat": 0.0, "lat": 38.91145683333333, "is_reserved": 0}, {"lon": -77.02093366666666, "fusion_lon": 0.0, "bike_id": "57c0266bdb610c071a5afb6435557597", "type": "electric_scooter", "name": "57c0266bdb610c071a5afb6435557597", "rental_uris": {"android": "https://dc.lft.to/lastmile_qr_scan", "ios": "https://dc.lft.to/lastmile_qr_scan"}, "is_disabled": 0, "fusion_lat": 0.0, "lat": 38.927140333333334, "is_reserved": 0}, {"lon": -77.04104183333334, "fusion_lon": 0.0, "bike_id": "b50ccd8088676cad8f343393c061ec5f", "type": "electric_scooter", "name": "b50ccd8088676cad8f343393c061ec5f", "rental_uris": {"android": "https://dc.lft.to/lastmile_qr_scan", "ios": "https://dc.lft.to/lastmile_qr_scan"}, "is_disabled": 0, "fusion_lat": 0.0, "lat": 38.903952, "is_reserved": 0}, {"lon": -77.00642966666666, "fusion_lon": 0.0, "bike_id": "5fbe4484263500b3de7357469ba347e8", "type": "electric_scooter", "name": "5fbe4484263500b3de7357469ba347e8", "rental_uris": {"android": "https://dc.lft.to/lastmile_qr_scan", "ios": "https://dc.lft.to/lastmile_qr_scan"}, "is_disabled": 0, "fusion_lat": 0.0, "lat": 38.911913166666665, "is_reserved": 0}, {"lon": -77.03973316666666, "fusion_lon": 0.0, "bike_id": "da567124d935890aa715077e1b83658c", "type": "electric_scooter", "name": "da567124d935890aa715077e1b83658c", "rental_uris": {"android": "https://dc.lft.to/lastmile_qr_scan", "ios": "https://dc.lft.to/lastmile_qr_scan"}, "is_disabled": 0, "fusion_lat": 0.0, "lat": 38.92316783333333, "is_reserved": 0}, {"lon": -77.04689816666667, "fusion_lon": 0.0, "bike_id": "c80e65eaa029c1fcbfb8993914e684eb", "type": "electric_scooter", "name": "c80e65eaa029c1fcbfb8993914e684eb", "rental_uris": {"android": "https://dc.lft.to/lastmile_qr_scan", "ios": "https://dc.lft.to/lastmile_qr_scan"}, "is_disabled": 0, "fusion_lat": 0.0, "lat": 38.895541333333334, "is_reserved": 0}, {"lon": -76.96901433333333, "fusion_lon": 0.0, "bike_id": "6e31674032af6a7b39c52bc0f3ecf27a", "type": "electric_bike", "name": "6e31674032af6a7b39c52bc0f3ecf27a", "rental_uris": {"android": "https://dc.lft.to/lastmile_qr_scan", "ios": "https://dc.lft.to/lastmile_qr_scan"}, "is_disabled": 0, "fusion_lat": 0.0, "lat": 38.95997633333333, "is_reserved": 0}, {"lon": -76.99995583333333, "fusion_lon": 0.0, "bike_id": "2b667ff306036515a06966d737598e6d", "type": "electric_bike", "name": "2b667ff306036515a06966d737598e6d", "rental_uris": {"android": "https://dc.lft.to/lastmile_qr_scan", "ios": "https://dc.lft.to/lastmile_qr_scan"}, "is_disabled": 0, "fusion_lat": 0.0, "lat": 38.96407933333333, "is_reserved": 0}, {"lon": -77.038247, "fusion_lon": 0.0, "bike_id": "d5acee3d14037c119e54d656ff37b5a6", "type": "electric_scooter", "name": "d5acee3d14037c119e54d656ff37b5a6", "rental_uris": {"android": "https://dc.lft.to/lastmile_qr_scan", "ios": "https://dc.lft.to/lastmile_qr_scan"}, "is_disabled": 0, "fusion_lat": 0.0, "lat": 38.911238833333336, "is_reserved": 0}, {"lon": -77.02204633333334, "fusion_lon": 0.0, "bike_id": "6bef2ba7b0a179ae922970e230080965", "type": "electric_scooter", "name": "6bef2ba7b0a179ae922970e230080965", "rental_uris": {"android": "https://dc.lft.to/lastmile_qr_scan", "ios": "https://dc.lft.to/lastmile_qr_scan"}, "is_disabled": 0, "fusion_lat": 0.0, "lat": 38.915494833333334, "is_reserved": 0}, {"lon": -77.0173715, "fusion_lon": 0.0, "bike_id": "9811c3ae453c4155ac99ee340277134e", "type": "electric_scooter", "name": "9811c3ae453c4155ac99ee340277134e", "rental_uris": {"android": "https://dc.lft.to/lastmile_qr_scan", "ios": "https://dc.lft.to/lastmile_qr_scan"}, "is_disabled": 0, "fusion_lat": 0.0, "lat": 38.902594, "is_reserved": 0}, {"lon": -77.07433283333333, "fusion_lon": 0.0, "bike_id": "5da5b88f468cb65e162ad6930e57223a", "type": "electric_scooter", "name": "5da5b88f468cb65e162ad6930e57223a", "rental_uris": {"android": "https://dc.lft.to/lastmile_qr_scan", "ios": "https://dc.lft.to/lastmile_qr_scan"}, "is_disabled": 0, "fusion_lat": 0.0, "lat": 38.93109616666667, "is_reserved": 0}, {"lon": -77.0401975, "fusion_lon": 0.0, "bike_id": "0b21758ff7db365da95d8a75ecfa9420", "type": "electric_scooter", "name": "0b21758ff7db365da95d8a75ecfa9420", "rental_uris": {"android": "https://dc.lft.to/lastmile_qr_scan", "ios": "https://dc.lft.to/lastmile_qr_scan"}, "is_disabled": 0, "fusion_lat": 0.0, "lat": 38.90315566666666, "is_reserved": 0}, {"lon": -77.03851766666666, "fusion_lon": 0.0, "bike_id": "1760c9aaeb0c2599ecf5e958147110bc", "type": "electric_scooter", "name": "1760c9aaeb0c2599ecf5e958147110bc", "rental_uris": {"android": "https://dc.lft.to/lastmile_qr_scan", "ios": "https://dc.lft.to/lastmile_qr_scan"}, "is_disabled": 0, "fusion_lat": 0.0, "lat": 38.91550066666667, "is_reserved": 0}, {"lon": -77.00592016666667, "fusion_lon": 0.0, "bike_id": "ebaf70f541f2e942062679c1bfab9731", "type": "electric_scooter", "name": "ebaf70f541f2e942062679c1bfab9731", "rental_uris": {"android": "https://dc.lft.to/lastmile_qr_scan", "ios": "https://dc.lft.to/lastmile_qr_scan"}, "is_disabled": 0, "fusion_lat": 0.0, "lat": 38.90245733333333, "is_reserved": 0}, {"lon": -77.02410783333333, "fusion_lon": 0.0, "bike_id": "b2a78640567e2ffcc7f164a98d9e1bc4", "type": "electric_scooter", "name": "b2a78640567e2ffcc7f164a98d9e1bc4", "rental_uris": {"android": "https://dc.lft.to/lastmile_qr_scan", "ios": "https://dc.lft.to/lastmile_qr_scan"}, "is_disabled": 0, "fusion_lat": 0.0, "lat": 38.924978, "is_reserved": 0}, {"lon": -77.0262685, "fusion_lon": 0.0, "bike_id": "66a375e84978fc66e9583ef9e56f021a", "type": "electric_scooter", "name": "66a375e84978fc66e9583ef9e56f021a", "rental_uris": {"android": "https://dc.lft.to/lastmile_qr_scan", "ios": "https://dc.lft.to/lastmile_qr_scan"}, "is_disabled": 0, "fusion_lat": 0.0, "lat": 38.887684, "is_reserved": 0}, {"lon": -77.04183716666667, "fusion_lon": 0.0, "bike_id": "5df1dca3ed4c50533c44aec6ff0ac57e", "type": "electric_scooter", "name": "5df1dca3ed4c50533c44aec6ff0ac57e", "rental_uris": {"android": "https://dc.lft.to/lastmile_qr_scan", "ios": "https://dc.lft.to/lastmile_qr_scan"}, "is_disabled": 0, "fusion_lat": 0.0, "lat": 38.92045933333333, "is_reserved": 0}, {"lon": -76.981414, "fusion_lon": 0.0, "bike_id": "e2a825c86331c38d897865b22be14565", "type": "electric_scooter", "name": "e2a825c86331c38d897865b22be14565", "rental_uris": {"android": "https://dc.lft.to/lastmile_qr_scan", "ios": "https://dc.lft.to/lastmile_qr_scan"}, "is_disabled": 0, "fusion_lat": 0.0, "lat": 38.89745533333333, "is_reserved": 0}, {"lon": -77.0071625, "fusion_lon": 0.0, "bike_id": "dd00d65f9050fe26535ba687cc83dc50", "type": "electric_scooter", "name": "dd00d65f9050fe26535ba687cc83dc50", "rental_uris": {"android": "https://dc.lft.to/lastmile_qr_scan", "ios": "https://dc.lft.to/lastmile_qr_scan"}, "is_disabled": 0, "fusion_lat": 0.0, "lat": 38.92541216666667, "is_reserved": 0}, {"lon": -77.0269215, "fusion_lon": 0.0, "bike_id": "8a3fed68ef3f2f527b46ccb291ad4e05", "type": "electric_scooter", "name": "8a3fed68ef3f2f527b46ccb291ad4e05", "rental_uris": {"android": "https://dc.lft.to/lastmile_qr_scan", "ios": "https://dc.lft.to/lastmile_qr_scan"}, "is_disabled": 0, "fusion_lat": 0.0, "lat": 38.9068615, "is_reserved": 0}, {"lon": -77.0194165, "fusion_lon": 0.0, "bike_id": "ab7efea9a9c909cf38b756e7ff8f4747", "type": "electric_scooter", "name": "ab7efea9a9c909cf38b756e7ff8f4747", "rental_uris": {"android": "https://dc.lft.to/lastmile_qr_scan", "ios": "https://dc.lft.to/lastmile_qr_scan"}, "is_disabled": 0, "fusion_lat": 0.0, "lat": 38.92410683333333, "is_reserved": 0}, {"lon": -76.96831933333333, "fusion_lon": 0.0, "bike_id": "223b6dd08dfde60f3501047fdca23b13", "type": "electric_scooter", "name": "223b6dd08dfde60f3501047fdca23b13", "rental_uris": {"android": "https://dc.lft.to/lastmile_qr_scan", "ios": "https://dc.lft.to/lastmile_qr_scan"}, "is_disabled": 0, "fusion_lat": 0.0, "lat": 38.87338183333333, "is_reserved": 0}, {"lon": -77.00928716666667, "fusion_lon": 0.0, "bike_id": "4173b3ea59810c44c2b86dc01b2df265", "type": "electric_scooter", "name": "4173b3ea59810c44c2b86dc01b2df265", "rental_uris": {"android": "https://dc.lft.to/lastmile_qr_scan", "ios": "https://dc.lft.to/lastmile_qr_scan"}, "is_disabled": 0, "fusion_lat": 0.0, "lat": 38.912672666666666, "is_reserved": 0}, {"lon": -77.032393, "fusion_lon": 0.0, "bike_id": "54cd90afc3fcf3eb355b9a27a8f579c3", "type": "electric_scooter", "name": "54cd90afc3fcf3eb355b9a27a8f579c3", "rental_uris": {"android": "https://dc.lft.to/lastmile_qr_scan", "ios": "https://dc.lft.to/lastmile_qr_scan"}, "is_disabled": 0, "fusion_lat": 0.0, "lat": 38.92877716666667, "is_reserved": 0}, {"lon": -76.97606566666667, "fusion_lon": 0.0, "bike_id": "1c64a2e7294059a3a24a21b31e7a7259", "type": "electric_scooter", "name": "1c64a2e7294059a3a24a21b31e7a7259", "rental_uris": {"android": "https://dc.lft.to/lastmile_qr_scan", "ios": "https://dc.lft.to/lastmile_qr_scan"}, "is_disabled": 0, "fusion_lat": 0.0, "lat": 38.940253166666665, "is_reserved": 0}, {"lon": -77.0308955, "fusion_lon": 0.0, "bike_id": "470bf6c3fb5542d7ddbd3050cd1ffe95", "type": "electric_scooter", "name": "470bf6c3fb5542d7ddbd3050cd1ffe95", "rental_uris": {"android": "https://dc.lft.to/lastmile_qr_scan", "ios": "https://dc.lft.to/lastmile_qr_scan"}, "is_disabled": 0, "fusion_lat": 0.0, "lat": 38.91059383333333, "is_reserved": 0}, {"lon": -77.07754866666667, "fusion_lon": 0.0, "bike_id": "85a3bd3c7004b7096062e765e2c270d7", "type": "electric_scooter", "name": "85a3bd3c7004b7096062e765e2c270d7", "rental_uris": {"android": "https://dc.lft.to/lastmile_qr_scan", "ios": "https://dc.lft.to/lastmile_qr_scan"}, "is_disabled": 0, "fusion_lat": 0.0, "lat": 38.911665666666664, "is_reserved": 0}, {"lon": -77.00531516666666, "fusion_lon": 0.0, "bike_id": "e6d3cda840d634b272be83a6476ea8bb", "type": "electric_scooter", "name": "e6d3cda840d634b272be83a6476ea8bb", "rental_uris": {"android": "https://dc.lft.to/lastmile_qr_scan", "ios": "https://dc.lft.to/lastmile_qr_scan"}, "is_disabled": 0, "fusion_lat": 0.0, "lat": 38.87723366666667, "is_reserved": 0}, {"lon": -77.04146916666667, "fusion_lon": 0.0, "bike_id": "079d9e03c9007d91952cc26fa12a204e", "type": "electric_bike", "name": "079d9e03c9007d91952cc26fa12a204e", "rental_uris": {"android": "https://dc.lft.to/lastmile_qr_scan", "ios": "https://dc.lft.to/lastmile_qr_scan"}, "is_disabled": 0, "fusion_lat": 0.0, "lat": 38.916410666666664, "is_reserved": 0}, {"lon": -77.02185416666667, "fusion_lon": 0.0, "bike_id": "e092dda5bbce60751bd24156e08838ba", "type": "electric_scooter", "name": "e092dda5bbce60751bd24156e08838ba", "rental_uris": {"android": "https://dc.lft.to/lastmile_qr_scan", "ios": "https://dc.lft.to/lastmile_qr_scan"}, "is_disabled": 0, "fusion_lat": 0.0, "lat": 38.90980283333333, "is_reserved": 0}, {"lon": -76.94861083333333, "fusion_lon": 0.0, "bike_id": "51befe5d2aceebdfd10636ab17e65008", "type": "electric_scooter", "name": "51befe5d2aceebdfd10636ab17e65008", "rental_uris": {"android": "https://dc.lft.to/lastmile_qr_scan", "ios": "https://dc.lft.to/lastmile_qr_scan"}, "is_disabled": 0, "fusion_lat": 0.0, "lat": 38.894797833333335, "is_reserved": 0}, {"lon": -77.01996066666666, "fusion_lon": 0.0, "bike_id": "3a04cc430af119c555f0a675dc5954b1", "type": "electric_scooter", "name": "3a04cc430af119c555f0a675dc5954b1", "rental_uris": {"android": "https://dc.lft.to/lastmile_qr_scan", "ios": "https://dc.lft.to/lastmile_qr_scan"}, "is_disabled": 0, "fusion_lat": 0.0, "lat": 38.915372166666664, "is_reserved": 0}, {"lon": -77.036215, "fusion_lon": 0.0, "bike_id": "076757efbcb481436c0fbb96137812a0", "type": "electric_scooter", "name": "076757efbcb481436c0fbb96137812a0", "rental_uris": {"android": "https://dc.lft.to/lastmile_qr_scan", "ios": "https://dc.lft.to/lastmile_qr_scan"}, "is_disabled": 0, "fusion_lat": 0.0, "lat": 38.937437333333335, "is_reserved": 0}, {"lon": -77.03402533333333, "fusion_lon": 0.0, "bike_id": "095d54cee25d3f9d21619912f4821493", "type": "electric_scooter", "name": "095d54cee25d3f9d21619912f4821493", "rental_uris": {"android": "https://dc.lft.to/lastmile_qr_scan", "ios": "https://dc.lft.to/lastmile_qr_scan"}, "is_disabled": 0, "fusion_lat": 0.0, "lat": 38.92438966666667, "is_reserved": 0}, {"lon": -76.974377, "fusion_lon": 0.0, "bike_id": "82b64c275298e77d302f0b584be1ae85", "type": "electric_scooter", "name": "82b64c275298e77d302f0b584be1ae85", "rental_uris": {"android": "https://dc.lft.to/lastmile_qr_scan", "ios": "https://dc.lft.to/lastmile_qr_scan"}, "is_disabled": 0, "fusion_lat": 0.0, "lat": 38.90243983333333, "is_reserved": 0}, {"lon": -77.04326383333333, "fusion_lon": 0.0, "bike_id": "025bf206f12b89e871cb7890c82b7fb1", "type": "electric_scooter", "name": "025bf206f12b89e871cb7890c82b7fb1", "rental_uris": {"android": "https://dc.lft.to/lastmile_qr_scan", "ios": "https://dc.lft.to/lastmile_qr_scan"}, "is_disabled": 0, "fusion_lat": 0.0, "lat": 38.896804333333336, "is_reserved": 0}, {"lon": -76.9856545, "fusion_lon": 0.0, "bike_id": "77275fb56cb3853d3502fb3a89dc1c2d", "type": "electric_scooter", "name": "77275fb56cb3853d3502fb3a89dc1c2d", "rental_uris": {"android": "https://dc.lft.to/lastmile_qr_scan", "ios": "https://dc.lft.to/lastmile_qr_scan"}, "is_disabled": 0, "fusion_lat": 0.0, "lat": 38.866819166666666, "is_reserved": 0},