{"data": {"bikes": [{"bike_id": "963b01d201dfffeb5dca43335b4cb2fc", "is_reserved": 0, "fusion_lon": 0.0, "lat": 38.922296833333334, "is_disabled": 0, "name": "963b01d201dfffeb5dca43335b4cb2fc", "fusion_lat": 0.0, "rental_uris": {"ios": "https://dc.lft.to/lastmile_qr_scan", "android": "https://dc.lft.to/lastmile_qr_scan"}, "lon": -77.043043, "type": "electric_bike"}, {"bike_id": "39bbc0c8d3f4683508e5dfd41086a648", "is_reserved": 0, "fusion_lon": 0.0, "lat": 38.92160333333333, "is_disabled": 0, "name": "39bbc0c8d3f4683508e5dfd41086a648", "fusion_lat": 0.0, "rental_uris": {"ios": "https://dc.lft.to/lastmile_qr_scan", "android": "https://dc.lft.to/lastmile_qr_scan"}, "lon": -77.03381916666666, "type": "electric_scooter"}, {"bike_id": "32d1b79515445b1409febe61de265807", "is_reserved": 0, "fusion_lon": 0.0, "lat": 38.95552433333334, "is_disabled": 0, "name": "32d1b79515445b1409febe61de265807", "fusion_lat": 0.0, "rental_uris": {"ios": "https://dc.lft.to/lastmile_qr_scan", "android": "https://dc.lft.to/lastmile_qr_scan"}, "lon": -76.93539966666667, "type": "electric_bike"}, {"bike_id": "48c646e12238dc00d34bd914e44c2c3b", "is_reserved": 0, "fusion_lon": 0.0, "lat": 38.93723633333333, "is_disabled": 0, "name": "48c646e12238dc00d34bd914e44c2c3b", "fusion_lat": 0.0, "rental_uris": {"ios": "https://dc.lft.to/lastmile_qr_scan", "android": "https://dc.lft.to/lastmile_qr_scan"}, "lon": -77.03262083333334, "type": "electric_scooter"}, {"bike_id": "c547be0bc4b03184c0f13c35ffd812c4", "is_reserved": 0, "fusion_lon": 0.0, "lat": 38.863567, "is_disabled": 0, "name": "c547be0bc4b03184c0f13c35ffd812c4", "fusion_lat": 0.0, "rental_uris": {"ios": "https://dc.lft.to/lastmile_qr_scan", "android": "https://dc.lft.to/lastmile_qr_scan"}, "lon": -76.9900675, "type": "electric_scooter"}, {"bike_id": "1612a568a0b0c0f625fa5f076e39dea0", "is_reserved": 0, "fusion_lon": 0.0, "lat": 38.903273666666664, "is_disabled": 0, "name": "1612a568a0b0c0f625fa5f076e39dea0", "fusion_lat": 0.0, "rental_uris": {"ios": "https://dc.lft.to/lastmile_qr_scan", "android": "https://dc.lft.to/lastmile_qr_scan"}, "lon": -77.065959, "type": "electric_scooter"}, {"bike_id": "3651db59f40f1186d0346606b93b28cc", "is_reserved": 0, "fusion_lon": 0.0, "lat": 38.899849, "is_disabled": 0, "name": "3651db59f40f1186d0346606b93b28cc", "fusion_lat": 0.0, "rental_uris": {"ios": "https://dc.lft.to/lastmile_qr_scan", "android": "https://dc.lft.to/lastmile_qr_scan"}, "lon": -77.04665366666667, "type": "electric_bike"}, {"bike_id": "87f11c38294d1f85ce1b938fe6711637", "is_reserved": 0, "fusion_lon": 0.0, "lat": 38.89819333333333, "is_disabled": 0, "name": "87f11c38294d1f85ce1b938fe6711637", "fusion_lat": 0.0, "rental_uris": {"ios": "https://dc.lft.to/lastmile_qr_scan", "android": "https://dc.lft.to/lastmile_qr_scan"}, "lon": -77.03288416666666, "type": "electric_scooter"}, {"bike_id": "ac6b3c3a655e5d3d100129006b250d41", "is_reserved": 0, "fusion_lon": 0.0, "lat": 38.920201166666665, "is_disabled": 0, "name": "ac6b3c3a655e5d3d100129006b250d41", "fusion_lat": 0.0, "rental_uris": {"ios": "https://dc.lft.to/lastmile_qr_scan", "android": "https://dc.lft.to/lastmile_qr_scan"}, "lon": -77.03975183333333, "type": "electric_scooter"}, {"bike_id": "a0d78c65495822a4aa662197dd91353d", "is_reserved": 0, "fusion_lon": 0.0, "lat": 38.842946833333336, "is_disabled": 0, "name": "a0d78c65495822a4aa662197dd91353d", "fusion_lat": 0.0, "rental_uris": {"ios": "https://dc.lft.to/lastmile_qr_scan", "android": "https://dc.lft.to/lastmile_qr_scan"}, "lon": -76.9995055, "type": "electric_scooter"}, {"bike_id": "8590a26ab408b8de08938001b31e7e40", "is_reserved": 0, "fusion_lon": 0.0, "lat": 38.919366, "is_disabled": 0, "name": "8590a26ab408b8de08938001b31e7e40", "fusion_lat": 0.0, "rental_uris": {"ios": "https://dc.lft.to/lastmile_qr_scan", "android": "https://dc.lft.to/lastmile_qr_scan"}, "lon": -77.03185116666667, "type": "electric_scooter"}, {"bike_id": "6a3413a64e17a28c56b2fbe7f3963e02", "is_reserved": 0, "fusion_lon": 0.0, "lat": 38.90731533333334, "is_disabled": 0, "name": "6a3413a64e17a28c56b2fbe7f3963e02", "fusion_lat": 0.0, "rental_uris": {"ios": "https://dc.lft.to/lastmile_qr_scan", "android": "https://dc.lft.to/lastmile_qr_scan"}, "lon": -77.02413383333334, "type": "electric_scooter"}, {"bike_id": "f0785676995bfe0c14149dbbe93b8372", "is_reserved": 0, "fusion_lon": 0.0, "lat": 38.91722983333333, "is_disabled": 0, "name": "f0785676995bfe0c14149dbbe93b8372", "fusion_lat": 0.0, "rental_uris": {"ios": "https://dc.lft.to/lastmile_qr_scan", "android": "https://dc.lft.to/lastmile_qr_scan"}, "lon": -77.0310145, "type": "electric_scooter"}, {"bike_id": "28d309bdb1916875a86cc7f398764aa6", "is_reserved": 0, "fusion_lon": 0.0, "lat": 38.89843833333333, "is_disabled": 0, "name": "28d309bdb1916875a86cc7f398764aa6", "fusion_lat": 0.0, "rental_uris": {"ios": "https://dc.lft.to/lastmile_qr_scan", "android": "https://dc.lft.to/lastmile_qr_scan"}, "lon": -77.03253083333334, "type": "electric_scooter"}, {"bike_id": "d4bd92d3f25160f07c0338e1de1e1957", "is_reserved": 0, "fusion_lon": 0.0, "lat": 38.8832495, "is_disabled": 0, "name": "d4bd92d3f25160f07c0338e1de1e1957", "fusion_lat": 0.0, "rental_uris": {"ios": "https://dc.lft.to/lastmile_qr_scan", "android": "https://dc.lft.to/lastmile_qr_scan"}, "lon": -77.017586, "type": "electric_scooter"}, {"bike_id": "4c1ef7e6f8a8393a6a2dfaaa17b83a71", "is_reserved": 0, "fusion_lon": 0.0, "lat": 38.8979505, "is_disabled": 0, "name": "4c1ef7e6f8a8393a6a2dfaaa17b83a71", "fusion_lat": 0.0, "rental_uris": {"ios": "https://dc.lft.to/lastmile_qr_scan", "android": "https://dc.lft.to/lastmile_qr_scan"}, "lon": -77.03168883333333, "type": "electric_scooter"}, {"bike_id": "523c5ba7559ab2e168aad5443646053f", "is_reserved": 0, "fusion_lon": 0.0, "lat": 38.886051333333334, "is_disabled": 0, "name": "523c5ba7559ab2e168aad5443646053f", "fusion_lat": 0.0, "rental_uris": {"ios": "https://dc.lft.to/lastmile_qr_scan", "android": "https://dc.lft.to/lastmile_qr_scan"}, "lon": -77.01537566666667, "type": "electric_scooter"}, {"bike_id": "08c1f1b8fcd9ebb8921ad8469d44d8bc", "is_reserved": 0, "fusion_lon": 0.0, "lat": 38.900221, "is_disabled": 0, "name": "08c1f1b8fcd9ebb8921ad8469d44d8bc", "fusion_lat": 0.0, "rental_uris": {"ios": "https://dc.lft.to/lastmile_qr_scan", "android": "https://dc.lft.to/lastmile_qr_scan"}, "lon": -77.033198, "type": "electric_scooter"}, {"bike_id": "aed68599b4ef68b6d6c3fff67dbff742", "is_reserved": 0, "fusion_lon": 0.0, "lat": 38.928077333333334, "is_disabled": 0, "name": "aed68599b4ef68b6d6c3fff67dbff742", "fusion_lat": 0.0, "rental_uris": {"ios": "https://dc.lft.to/lastmile_qr_scan", "android": "https://dc.lft.to/lastmile_qr_scan"}, "lon": -77.05529983333334, "type": "electric_scooter"}, {"bike_id": "8a636356cb66cdb5ba9f42179780837e", "is_reserved": 0, "fusion_lon": 0.0, "lat": 38.92582083333333, "is_disabled": 0, "name": "8a636356cb66cdb5ba9f42179780837e", "fusion_lat": 0.0, "rental_uris": {"ios": "https://dc.lft.to/lastmile_qr_scan", "android": "https://dc.lft.to/lastmile_qr_scan"}, "lon": -77.039366, "type": "electric_scooter"}, {"bike_id": "d1f2913f49aacc1ba62a9b2f4a95e085", "is_reserved": 0, "fusion_lon": 0.0, "lat": 38.8980735, "is_disabled": 0, "name": "d1f2913f49aacc1ba62a9b2f4a95e085", "fusion_lat": 0.0, "rental_uris": {"ios": "https://dc.lft.to/lastmile_qr_scan", "android": "https://dc.lft.to/lastmile_qr_scan"}, "lon": -77.0294795, "type": "electric_scooter"}, {"bike_id": "7be842b029b32d5e01661f9ce5687ac5", "is_reserved": 0, "fusion_lon": 0.0, "lat": 38.9156695, "is_disabled": 0, "name": "7be842b029b32d5e01661f9ce5687ac5", "fusion_lat": 0.0, "rental_uris": {"ios": "https://dc.lft.to/lastmile_qr_scan", "android": "https://dc.lft.to/lastmile_qr_scan"}, "lon": -77.03154333333333, "type": "electric_scooter"}, {"bike_id": "6ef4287c47e8a8040de63ae2f98b1d8c", "is_reserved": 0, "fusion_lon": 0.0, "lat": 38.897465333333336, "is_disabled": 0, "name": "6ef4287c47e8a8040de63ae2f98b1d8c", "fusion_lat": 0.0, "rental_uris": {"ios": "https://dc.lft.to/lastmile_qr_scan", "android": "https://dc.lft.to/lastmile_qr_scan"}, "lon": -77.03014433333334, "type": "electric_scooter"}, {"bike_id": "bb671d96719265a1a9a587aa717f8f3a", "is_reserved": 0, "fusion_lon": 0.0, "lat": 38.89019183333333, "is_disabled": 0, "name": "bb671d96719265a1a9a587aa717f8f3a", "fusion_lat": 0.0, "rental_uris": {"ios": "https://dc.lft.to/lastmile_qr_scan", "android": "https://dc.lft.to/lastmile_qr_scan"}, "lon": -76.93739633333334, "type": "electric_scooter"}, {"bike_id": "922b22ab4aec73a7e4c3a67f7a180329", "is_reserved": 0, "fusion_lon": 0.0, "lat": 38.884352166666666, "is_disabled": 0, "name": "922b22ab4aec73a7e4c3a67f7a180329", "fusion_lat": 0.0, "rental_uris": {"ios": "https://dc.lft.to/lastmile_qr_scan", "android": "https://dc.lft.to/lastmile_qr_scan"}, "lon": -76.95759933333333, "type": "electric_scooter"}, {"bike_id": "eda0f67c4ef7f0f4e34c392582ad867c", "is_reserved": 0, "fusion_lon": 0.0, "lat": 38.90976416666667, "is_disabled": 0, "name": "eda0f67c4ef7f0f4e34c392582ad867c", "fusion_lat": 0.0, "rental_uris": {"ios": "https://dc.lft.to/lastmile_qr_scan", "android": "https://dc.lft.to/lastmile_qr_scan"}, "lon": -77.0487615, "type": "electric_scooter"}, {"bike_id": "2dc8b97be1a8224c6bfa28a838f19ec7", "is_reserved": 0, "fusion_lon": 0.0, "lat": 38.90961, "is_disabled": 0, "name": "2dc8b97be1a8224c6bfa28a838f19ec7", "fusion_lat": 0.0, "rental_uris": {"ios": "https://dc.lft.to/lastmile_qr_scan", "android": "https://dc.lft.to/lastmile_qr_scan"}, "lon": -77.0337085, "type": "electric_scooter"}, {"bike_id": "3c3b075305da797672b66a58808820d0", "is_reserved": 0, "fusion_lon": 0.0, "lat": 38.912496166666664, "is_disabled": 0, "name": "3c3b075305da797672b66a58808820d0", "fusion_lat": 0.0, "rental_uris": {"ios": "https://dc.lft.to/lastmile_qr_scan", "android": "https://dc.lft.to/lastmile_qr_scan"}, "lon": -77.044852, "type": "electric_scooter"}, {"bike_id": "1c6326c8a638d23674f6fccc7ae416ef", "is_reserved": 0, "fusion_lon": 0.0, "lat": 38.93694333333333, "is_disabled": 0, "name": "1c6326c8a638d23674f6fccc7ae416ef", "fusion_lat": 0.0, "rental_uris": {"ios": "https://dc.lft.to/lastmile_qr_scan", "android": "https://dc.lft.to/lastmile_qr_scan"}, "lon": -77.02711683333334, "type": "electric_scooter"}, {"bike_id": "8f31f27204168e2c21bbc5adc234fdb4", "is_reserved": 0, "fusion_lon": 0.0, "lat": 38.912572833333336, "is_disabled": 0, "name": "8f31f27204168e2c21bbc5adc234fdb4", "fusion_lat": 0.0, "rental_uris": {"ios": "https://dc.lft.to/lastmile_qr_scan", "android": "https://dc.lft.to/lastmile_qr_scan"}, "lon": -77.0093295, "type": "electric_scooter"}, {"bike_id": "7b0a99185d6baab770555641491fe1d7", "is_reserved": 0, "fusion_lon": 0.0, "lat": 38.907246, "is_disabled": 0, "name": "7b0a99185d6baab770555641491fe1d7", "fusion_lat": 0.0, "rental_uris": {"ios": "https://dc.lft.to/lastmile_qr_scan", "android": "https://dc.lft.to/lastmile_qr_scan"}, "lon": -77.000638, "type": "electric_scooter"}, {"bike_id": "dd7c1b891524967b833431c7e773fbd1", "is_reserved": 0, "fusion_lon": 0.0, "lat": 38.931174, "is_disabled": 0, "name": "dd7c1b891524967b833431c7e773fbd1", "fusion_lat": 0.0, "rental_uris": {"ios": "https://dc.lft.to/lastmile_qr_scan", "android": "https://dc.lft.to/lastmile_qr_scan"}, "lon": -77.02140733333333, "type": "electric_scooter"}, {"bike_id": "0344f22e59dced32ad0ad49236c9e1b9", "is_reserved": 0, "fusion_lon": 0.0, "lat": 38.89835266666667, "is_disabled": 0, "name": "0344f22e59dced32ad0ad49236c9e1b9", "fusion_lat": 0.0, "rental_uris": {"ios": "https://dc.lft.to/lastmile_qr_scan", "android": "https://dc.lft.to/lastmile_qr_scan"}, "lon": -76.94636783333333, "type": "electric_scooter"}, {"bike_id": "41c1012f47047d4c6e455d2d99b73be3", "is_reserved": 0, "fusion_lon": 0.0, "lat": 38.88936483333333, "is_disabled": 0, "name": "41c1012f47047d4c6e455d2d99b73be3", "fusion_lat": 0.0, "rental_uris": {"ios": "https://dc.lft.to/lastmile_qr_scan", "android": "https://dc.lft.to/lastmile_qr_scan"}, "lon": -77.0150525, "type": "electric_scooter"}, {"bike_id": "c765ce5d7e85a19e3f4364d3db3f58d0", "is_reserved": 0, "fusion_lon": 0.0, "lat": 38.866646833333334, "is_disabled": 0, "name": "c765ce5d7e85a19e3f4364d3db3f58d0", "fusion_lat": 0.0, "rental_uris": {"ios": "https://dc.lft.to/lastmile_qr_scan", "android": "https://dc.lft.to/lastmile_qr_scan"}, "lon": -76.98914966666666, "type": "electric_scooter"}, {"bike_id": "add86f3f09d27b20e1c1b56ac0e6fe80", "is_reserved": 0, "fusion_lon": 0.0, "lat": 38.964957, "is_disabled": 0, "name": "add86f3f09d27b20e1c1b56ac0e6fe80", "fusion_lat": 0.0, "rental_uris": {"ios": "https://dc.lft.to/lastmile_qr_scan", "android": "https://dc.lft.to/lastmile_qr_scan"}, "lon": -77.06483216666666, "type": "electric_bike"}, {"bike_id": "ecb9f2f8c36fec8adab7b774f23a96a9", "is_reserved": 0, "fusion_lon": 0.0, "lat": 38.91035183333334, "is_disabled": 0, "name": "ecb9f2f8c36fec8adab7b774f23a96a9", "fusion_lat": 0.0, "rental_uris": {"ios": "https://dc.lft.to/lastmile_qr_scan", "android": "https://dc.lft.to/lastmile_qr_scan"}, "lon": -77.04396533333333, "type": "electric_scooter"}, {"bike_id": "c5029c7835c2d06b929d89aa5c890d4b", "is_reserved": 0, "fusion_lon": 0.0, "lat": 38.92485533333333, "is_disabled": 0, "name": "c5029c7835c2d06b929d89aa5c890d4b", "fusion_lat": 0.0, "rental_uris": {"ios": "https://dc.lft.to/lastmile_qr_scan", "android": "https://dc.lft.to/lastmile_qr_scan"}, "lon": -77.02143083333333, "type": "electric_scooter"}, {"bike_id": "87341f51363c166f0df7bcaccd417057", "is_reserved": 0, "fusion_lon": 0.0, "lat": 38.92333266666667, "is_disabled": 0, "name": "87341f51363c166f0df7bcaccd417057", "fusion_lat": 0.0, "rental_uris": {"ios": "https://dc.lft.to/lastmile_qr_scan", "android": "https://dc.lft.to/lastmile_qr_scan"}, "lon": -77.03618933333334, "type": "electric_scooter"}, {"bike_id": "b5830009669d7afbb433fd59c0fd8504", "is_reserved": 0, "fusion_lon": 0.0, "lat": 38.90240083333333, "is_disabled": 0, "name": "b5830009669d7afbb433fd59c0fd8504", "fusion_lat": 0.0, "rental_uris": {"ios": "https://dc.lft.to/lastmile_qr_scan", "android": "https://dc.lft.to/lastmile_qr_scan"}, "lon": -77.02690633333333, "type": "electric_scooter"}, {"bike_id": "425f67b9d4f6d59087cce861953eb026", "is_reserved": 0, "fusion_lon": 0.0, "lat": 38.91933133333333, "is_disabled": 0, "name": "425f67b9d4f6d59087cce861953eb026", "fusion_lat": 0.0, "rental_uris": {"ios": "https://dc.lft.to/lastmile_qr_scan", "android": "https://dc.lft.to/lastmile_qr_scan"}, "lon": -77.0450285, "type": "electric_scooter"}, {"bike_id": "bacf6303f87fd0ffe71d824856804742", "is_reserved": 0, "fusion_lon": 0.0, "lat": 38.91833616666667, "is_disabled": 0, "name": "bacf6303f87fd0ffe71d824856804742", "fusion_lat": 0.0, "rental_uris": {"ios": "https://dc.lft.to/lastmile_qr_scan", "android": "https://dc.lft.to/lastmile_qr_scan"}, "lon": -77.04154866666667, "type": "electric_scooter"}, {"bike_id": "f74ad854be65ba94ba3c70179335adde", "is_reserved": 0, "fusion_lon": 0.0, "lat": 38.9000825, "is_disabled": 0, "name": "f74ad854be65ba94ba3c70179335adde", "fusion_lat": 0.0, "rental_uris": {"ios": "https://dc.lft.to/lastmile_qr_scan", "android": "https://dc.lft.to/lastmile_qr_scan"}, "lon": -77.04040016666667, "type": "electric_scooter"}, {"bike_id": "4baca190830b12569ad6a40c90c9a797", "is_reserved": 0, "fusion_lon": 0.0, "lat": 38.8442795, "is_disabled": 0, "name": "4baca190830b12569ad6a40c90c9a797", "fusion_lat": 0.0, "rental_uris": {"ios": "https://dc.lft.to/lastmile_qr_scan", "android": "https://dc.lft.to/lastmile_qr_scan"}, "lon": -76.99779166666667, "type": "electric_scooter"}, {"bike_id": "ed2d7138704984dba5f3bb12a3a0567f", "is_reserved": 0, "fusion_lon": 0.0, "lat": 38.902837166666664, "is_disabled": 0, "name": "ed2d7138704984dba5f3bb12a3a0567f", "fusion_lat": 0.0, "rental_uris": {"ios": "https://dc.lft.to/lastmile_qr_scan", "android": "https://dc.lft.to/lastmile_qr_scan"}, "lon": -77.04020483333333, "type": "electric_scooter"}, {"bike_id": "8418ebe3888574e655585fb90cc53dd5", "is_reserved": 0, "fusion_lon": 0.0, "lat": 38.90545766666666, "is_disabled": 0, "name": "8418ebe3888574e655585fb90cc53dd5", "fusion_lat": 0.0, "rental_uris": {"ios": "https://dc.lft.to/lastmile_qr_scan", "android": "https://dc.lft.to/lastmile_qr_scan"}, "lon": -77.05721216666667, "type": "electric_bike"}, {"bike_id": "afe1e5f2098f512bf0f3cab92161c71c", "is_reserved": 0, "fusion_lon": 0.0, "lat": 38.910326166666664, "is_disabled": 0, "name": "afe1e5f2098f512bf0f3cab92161c71c", "fusion_lat": 0.0, "rental_uris": {"ios": "https://dc.lft.to/lastmile_qr_scan", "android": "https://dc.lft.to/lastmile_qr_scan"}, "lon": -77.04844933333334, "type": "electric_scooter"}, {"bike_id": "3c02449c23a83c09f01ffbbee9226ee0", "is_reserved": 0, "fusion_lon": 0.0, "lat": 38.903678666666664, "is_disabled": 0, "name": "3c02449c23a83c09f01ffbbee9226ee0", "fusion_lat": 0.0, "rental_uris": {"ios": "https://dc.lft.to/lastmile_qr_scan", "android": "https://dc.lft.to/lastmile_qr_scan"}, "lon": -77.04523933333333, "type": "electric_scooter"}, {"bike_id": "9590fc44e40c390ecf136276d5d0915f", "is_reserved": 0, "fusion_lon": 0.0, "lat": 38.92180466666667, "is_disabled": 0, "name": "9590fc44e40c390ecf136276d5d0915f", "fusion_lat": 0.0, "rental_uris": {"ios": "https://dc.lft.to/lastmile_qr_scan", "android": "https://dc.lft.to/lastmile_qr_scan"}, "lon": -77.02540866666666, "type": "electric_scooter"}, {"bike_id": "1c9aed3afc2a6b7ed0096e1436b45ca7", "is_reserved": 0, "fusion_lon": 0.0, "lat": 38.916822, "is_disabled": 0, "name": "1c9aed3afc2a6b7ed0096e1436b45ca7", "fusion_lat": 0.0, "rental_uris": {"ios": "https://dc.lft.to/lastmile_qr_scan", "android": "https://dc.lft.to/lastmile_qr_scan"}, "lon": -77.03686366666666, "type": "electric_scooter"}, {"bike_id": "793762679b3bdb8cce5507511e20a132", "is_reserved": 0, "fusion_lon": 0.0, "lat": 38.90786666666666, "is_disabled": 0, "name": "793762679b3bdb8cce5507511e20a132", "fusion_lat": 0.0, "rental_uris": {"ios": "https://dc.lft.to/lastmile_qr_scan", "android": "https://dc.lft.to/lastmile_qr_scan"}, "lon": -77.042614, "type": "electric_scooter"}, {"bike_id": "8fa91c9c9b5b196ac5ce1dac2ad0c878", "is_reserved": 0, "fusion_lon": 0.0, "lat": 38.87855833333333, "is_disabled": 0, "name": "8fa91c9c9b5b196ac5ce1dac2ad0c878", "fusion_lat": 0.0, "rental_uris": {"ios": "https://dc.lft.to/lastmile_qr_scan", "android": "https://dc.lft.to/lastmile_qr_scan"}, "lon": -77.0176585, "type": "electric_scooter"}, {"bike_id": "363fbe54da485f9427d13dadde3414de", "is_reserved": 0, "fusion_lon": 0.0, "lat": 38.93702483333333, "is_disabled": 0, "name": "363fbe54da485f9427d13dadde3414de", "fusion_lat": 0.0, "rental_uris": {"ios": "https://dc.lft.to/lastmile_qr_scan", "android": "https://dc.lft.to/lastmile_qr_scan"}, "lon": -77.05951716666667, "type": "electric_scooter"}, {"bike_id": "6036bed7c42a096b0e85def2b1c5771a", "is_reserved": 0, "fusion_lon": 0.0, "lat": 38.93989216666667, "is_disabled": 0, "name": "6036bed7c42a096b0e85def2b1c5771a", "fusion_lat": 0.0, "rental_uris": {"ios": "https://dc.lft.to/lastmile_qr_scan", "android": "https://dc.lft.to/lastmile_qr_scan"}, "lon": -77.02893966666667, "type": "electric_scooter"}, {"bike_id": "14a7a4ad2a0b415141de7322fa541cf6", "is_reserved": 0, "fusion_lon": 0.0, "lat": 38.914948833333334, "is_disabled": 0, "name": "14a7a4ad2a0b415141de7322fa541cf6", "fusion_lat": 0.0, "rental_uris": {"ios": "https://dc.lft.to/lastmile_qr_scan", "android": "https://dc.lft.to/lastmile_qr_scan"}, "lon": -77.01725966666666, "type": "electric_scooter"}, {"bike_id": "040ade29b9a926d14311ab95aaaa2177", "is_reserved": 0, "fusion_lon": 0.0, "lat": 38.85970533333333, "is_disabled": 0, "name": "040ade29b9a926d14311ab95aaaa2177", "fusion_lat": 0.0, "rental_uris": {"ios": "https://dc.lft.to/lastmile_qr_scan", "android": "https://dc.lft.to/lastmile_qr_scan"}, "lon": -76.99107116666667, "type": "electric_scooter"}, {"bike_id": "bfdbcf90880c1a73d47c260a54a883a5", "is_reserved": 0, "fusion_lon": 0.0, "lat": 38.892219, "is_disabled": 0, "name": "bfdbcf90880c1a73d47c260a54a883a5", "fusion_lat": 0.0, "rental_uris": {"ios": "https://dc.lft.to/lastmile_qr_scan", "android": "https://dc.lft.to/lastmile_qr_scan"}, "lon": -77.02586983333333, "type": "electric_scooter"}, {"bike_id": "328b3c027128af8a1c674bd5d22cff2e", "is_reserved": 0, "fusion_lon": 0.0, "lat": 38.900143, "is_disabled": 0, "name": "328b3c027128af8a1c674bd5d22cff2e", "fusion_lat": 0.0, "rental_uris": {"ios": "https://dc.lft.to/lastmile_qr_scan", "android": "https://dc.lft.to/lastmile_qr_scan"}, "lon": -77.01637066666666, "type": "electric_scooter"}, {"bike_id": "e8a625248752d8ff8a9923fbe3493744", "is_reserved": 0, "fusion_lon": 0.0, "lat": 38.9120225, "is_disabled": 0, "name": "e8a625248752d8ff8a9923fbe3493744", "fusion_lat": 0.0, "rental_uris": {"ios": "https://dc.lft.to/lastmile_qr_scan", "android": "https://dc.lft.to/lastmile_qr_scan"}, "lon": -77.01617033333333, "type": "electric_scooter"}, {"bike_id": "b61d94700dfd1170e02e80e9ef357115", "is_reserved": 0, "fusion_lon": 0.0, "lat": 38.92123383333333, "is_disabled": 0, "name": "b61d94700dfd1170e02e80e9ef357115", "fusion_lat": 0.0, "rental_uris": {"ios": "https://dc.lft.to/lastmile_qr_scan", "android": "https://dc.lft.to/lastmile_qr_scan"}, "lon": -77.01209, "type": "electric_scooter"}, {"bike_id": "7dd7a23838efe22fc4df0dda9e6dc292", "is_reserved": 0, "fusion_lon": 0.0, "lat": 38.88074483333333, "is_disabled": 0, "name": "7dd7a23838efe22fc4df0dda9e6dc292", "fusion_lat": 0.0, "rental_uris": {"ios": "https://dc.lft.to/lastmile_qr_scan", "android": "https://dc.lft.to/lastmile_qr_scan"}, "lon": -76.985307, "type": "electric_scooter"}, {"bike_id": "c09451b9fbef410fb194d6c1749c821d", "is_reserved": 0, "fusion_lon": 0.0, "lat": 38.918527833333336, "is_disabled": 0, "name": "c09451b9fbef410fb194d6c1749c821d", "fusion_lat": 0.0, "rental_uris": {"ios": "https://dc.lft.to/lastmile_qr_scan", "android": "https://dc.lft.to/lastmile_qr_scan"}, "lon": -77.04515466666666, "type": "electric_scooter"}, {"bike_id": "e715c4617e9ac3940d46243d974f4e67", "is_reserved": 0, "fusion_lon": 0.0, "lat": 38.94175166666667, "is_disabled": 0, "name": "e715c4617e9ac3940d46243d974f4e67", "fusion_lat": 0.0, "rental_uris": {"ios": "https://dc.lft.to/lastmile_qr_scan", "android": "https://dc.lft.to/lastmile_qr_scan"}, "lon": -77.025007, "type": "electric_scooter"}, {"bike_id": "bbcdece5a01a5ee9d530a4d4b24eec92", "is_reserved": 0, "fusion_lon": 0.0, "lat": 38.903012, "is_disabled": 0, "name": "bbcdece5a01a5ee9d530a4d4b24eec92", "fusion_lat": 0.0, "rental_uris": {"ios": "https://dc.lft.to/lastmile_qr_scan", "android": "https://dc.lft.to/lastmile_qr_scan"}, "lon": -76.99858866666666, "type": "electric_scooter"}, {"bike_id": "7ee9472471583a8215fd38e8f9144b10", "is_reserved": 0, "fusion_lon": 0.0, "lat": 38.893699833333336, "is_disabled": 0, "name": "7ee9472471583a8215fd38e8f9144b10", "fusion_lat": 0.0, "rental_uris": {"ios": "https://dc.lft.to/lastmile_qr_scan", "android": "https://dc.lft.to/lastmile_qr_scan"}, "lon": -76.9496075, "type": "electric_scooter"}, {"bike_id": "0b33ee52b1a3a46307be2ea339f4e4c7", "is_reserved": 0, "fusion_lon": 0.0, "lat": 38.9045195, "is_disabled": 0, "name": "0b33ee52b1a3a46307be2ea339f4e4c7", "fusion_lat": 0.0, "rental_uris": {"ios": "https://dc.lft.to/lastmile_qr_scan", "android": "https://dc.lft.to/lastmile_qr_scan"}, "lon": -76.99624733333333, "type": "electric_scooter"}, {"bike_id": "f0f42e71bc2c3486b9713dd19bb9a893", "is_reserved": 0, "fusion_lon": 0.0, "lat": 38.90272266666667, "is_disabled": 0, "name": "f0f42e71bc2c3486b9713dd19bb9a893", "fusion_lat": 0.0, "rental_uris": {"ios": "https://dc.lft.to/lastmile_qr_scan", "android": "https://dc.lft.to/lastmile_qr_scan"}, "lon": -77.0335535, "type": "electric_scooter"}, {"bike_id": "e43e9f15a5498fbaf1a09f96f2f269e7", "is_reserved": 0, "fusion_lon": 0.0, "lat": 38.9226555, "is_disabled": 0, "name": "e43e9f15a5498fbaf1a09f96f2f269e7", "fusion_lat": 0.0, "rental_uris": {"ios": "https://dc.lft.to/lastmile_qr_scan", "android": "https://dc.lft.to/lastmile_qr_scan"}, "lon": -77.0182985, "type": "electric_scooter"}, {"bike_id": "28df054722be5016b25e1d27c9189e24", "is_reserved": 0, "fusion_lon": 0.0, "lat": 38.87631016666667, "is_disabled": 0, "name": "28df054722be5016b25e1d27c9189e24", "fusion_lat": 0.0, "rental_uris": {"ios": "https://dc.lft.to/lastmile_qr_scan", "android": "https://dc.lft.to/lastmile_qr_scan"}, "lon": -76.96526516666667, "type": "electric_scooter"}, {"bike_id": "e3b9cc4d52517e60678cffe309f5aff3", "is_reserved": 0, "fusion_lon": 0.0, "lat": 38.842939666666666, "is_disabled": 0, "name": "e3b9cc4d52517e60678cffe309f5aff3", "fusion_lat": 0.0, "rental_uris": {"ios": "https://dc.lft.to/lastmile_qr_scan", "android": "https://dc.lft.to/lastmile_qr_scan"}, "lon": -76.99951266666666, "type": "electric_scooter"}, {"bike_id": "c4dcdbd03a9446388fed7740e081d1a1", "is_reserved": 0, "fusion_lon": 0.0, "lat": 38.898185833333336, "is_disabled": 0, "name": "c4dcdbd03a9446388fed7740e081d1a1", "fusion_lat": 0.0, "rental_uris": {"ios": "https://dc.lft.to/lastmile_qr_scan", "android": "https://dc.lft.to/lastmile_qr_scan"}, "lon": -77.00913533333333, "type": "electric_scooter"}, {"bike_id": "2348d2b323095f19af3bfc157a01a267", "is_reserved": 0, "fusion_lon": 0.0, "lat": 38.9180985, "is_disabled": 0, "name": "2348d2b323095f19af3bfc157a01a267", "fusion_lat": 0.0, "rental_uris": {"ios": "https://dc.lft.to/lastmile_qr_scan", "android": "https://dc.lft.to/lastmile_qr_scan"}, "lon": -77.03437816666667, "type": "electric_scooter"}, {"bike_id": "a2f7d2bdb01704028dd2c0ab03731f37", "is_reserved": 0, "fusion_lon": 0.0, "lat": 38.884935, "is_disabled": 0, "name": "a2f7d2bdb01704028dd2c0ab03731f37", "fusion_lat": 0.0, "rental_uris": {"ios": "https://dc.lft.to/lastmile_qr_scan", "android": "https://dc.lft.to/lastmile_qr_scan"}, "lon": -77.00732733333334, "type": "electric_scooter"}, {"bike_id": "786276b1ec12932f53f08b903c4d1e93", "is_reserved": 0, "fusion_lon": 0.0, "lat": 38.93399866666667, "is_disabled": 0, "name": "786276b1ec12932f53f08b903c4d1e93", "fusion_lat": 0.0, "rental_uris": {"ios": "https://dc.lft.to/lastmile_qr_scan", "android": "https://dc.lft.to/lastmile_qr_scan"}, "lon": -77.03884683333334, "type": "electric_scooter"}, {"bike_id": "c47bc8248df372dbf933be825e999ebe", "is_reserved": 0, "fusion_lon": 0.0, "lat": 38.920662166666666, "is_disabled": 0, "name": "c47bc8248df372dbf933be825e999ebe", "fusion_lat": 0.0, "rental_uris": {"ios": "https://dc.lft.to/lastmile_qr_scan", "android": "https://dc.lft.to/lastmile_qr_scan"}, "lon": -77.0419055, "type": "electric_scooter"}, {"bike_id": "a5ff292ef2f3fa17c9865333fe974f32", "is_reserved": 0, "fusion_lon": 0.0, "lat": 38.909781833333334, "is_disabled": 0, "name": "a5ff292ef2f3fa17c9865333fe974f32", "fusion_lat": 0.0, "rental_uris": {"ios": "https://dc.lft.to/lastmile_qr_scan", "android": "https://dc.lft.to/lastmile_qr_scan"}, "lon": -77.04793166666667, "type": "electric_scooter"}, {"bike_id": "a747dd4edb0363fdb821aece3f96b251", "is_reserved": 0, "fusion_lon": 0.0, "lat": 38.86193333333333, "is_disabled": 0, "name": "a747dd4edb0363fdb821aece3f96b251", "fusion_lat": 0.0, "rental_uris": {"ios": "https://dc.lft.to/lastmile_qr_scan", "android": "https://dc.lft.to/lastmile_qr_scan"}, "lon": -76.99449816666667, "type": "electric_scooter"}, {"bike_id": "af090ef559f8e8995c8490a9b98d4af2", "is_reserved": 0, "fusion_lon": 0.0, "lat": 38.92412233333334, "is_disabled": 0, "name": "af090ef559f8e8995c8490a9b98d4af2", "fusion_lat": 0.0, "rental_uris": {"ios": "https://dc.lft.to/lastmile_qr_scan", "android": "https://dc.lft.to/lastmile_qr_scan"}, "lon": -77.0226575, "type": "electric_scooter"}, {"bike_id": "adbdb90bc3ddd35fbb8e895f4e9f9dad", "is_reserved": 0, "fusion_lon": 0.0, "lat": 38.90695633333333, "is_disabled": 0, "name": "adbdb90bc3ddd35fbb8e895f4e9f9dad", "fusion_lat": 0.0, "rental_uris": {"ios": "https://dc.lft.to/lastmile_qr_scan", "android": "https://dc.lft.to/lastmile_qr_scan"}, "lon": -76.95186166666667, "type": "electric_bike"}, {"bike_id": "28c2f0cf3ddd7cf67c4784b410fb6e24", "is_reserved": 0, "fusion_lon": 0.0, "lat": 38.844296, "is_disabled": 0, "name": "28c2f0cf3ddd7cf67c4784b410fb6e24", "fusion_lat": 0.0, "rental_uris": {"ios": "https://dc.lft.to/lastmile_qr_scan", "android": "https://dc.lft.to/lastmile_qr_scan"}, "lon": -76.99780916666667, "type": "electric_scooter"}, {"bike_id": "ddcde14397ada44dedde20b0536f87b8", "is_reserved": 0, "fusion_lon": 0.0, "lat": 38.866194166666666, "is_disabled": 0, "name": "ddcde14397ada44dedde20b0536f87b8", "fusion_lat": 0.0, "rental_uris": {"ios": "https://dc.lft.to/lastmile_qr_scan", "android": "https://dc.lft.to/lastmile_qr_scan"}, "lon": -76.98652916666667, "type": "electric_scooter"}, {"bike_id": "ea5f66cd0a1155151c78463e6c830b74", "is_reserved": 0, "fusion_lon": 0.0, "lat": 38.90532233333333, "is_disabled": 0, "name": "ea5f66cd0a1155151c78463e6c830b74", "fusion_lat": 0.0, "rental_uris": {"ios": "https://dc.lft.to/lastmile_qr_scan", "android": "https://dc.lft.to/lastmile_qr_scan"}, "lon": -77.056417, "type": "electric_scooter"}, {"bike_id": "9fe9ee26652a6e99277cf8fe69393bec", "is_reserved": 0, "fusion_lon": 0.0, "lat": 38.958837833333334, "is_disabled": 0, "name": "9fe9ee26652a6e99277cf8fe69393bec", "fusion_lat": 0.0, "rental_uris": {"ios": "https://dc.lft.to/lastmile_qr_scan", "android": "https://dc.lft.to/lastmile_qr_scan"}, "lon": -77.0103225, "type": "electric_bike"}, {"bike_id": "f9240b56c43ef00d4ffee07caabd2e03", "is_reserved": 0, "fusion_lon": 0.0, "lat": 38.89479383333333, "is_disabled": 0, "name": "f9240b56c43ef00d4ffee07caabd2e03", "fusion_lat": 0.0, "rental_uris": {"ios": "https://dc.lft.to/lastmile_qr_scan", "android": "https://dc.lft.to/lastmile_qr_scan"}, "lon": -77.02293366666666, "type": "electric_scooter"}, {"bike_id": "2dec5c5264bd95b3619e3d9641b8b511", "is_reserved": 0, "fusion_lon": 0.0, "lat": 38.802271833333336, "is_disabled": 0, "name": "2dec5c5264bd95b3619e3d9641b8b511", "fusion_lat": 0.0, "rental_uris": {"ios": "https://dc.lft.to/lastmile_qr_scan", "android": "https://dc.lft.to/lastmile_qr_scan"}, "lon": -77.079181, "type": "electric_bike"}, {"bike_id": "314f575d3d71fe9273e4732b5567d90b", "is_reserved": 0, "fusion_lon": 0.0, "lat": 38.88374533333333, "is_disabled": 0, "name": "314f575d3d71fe9273e4732b5567d90b", "fusion_lat": 0.0, "rental_uris": {"ios": "https://dc.lft.to/lastmile_qr_scan", "android": "https://dc.lft.to/lastmile_qr_scan"}, "lon": -76.99528266666667, "type": "electric_scooter"}, {"bike_id": "4c5df9f40443ea261a42de218c2166a5", "is_reserved": 0, "fusion_lon": 0.0, "lat": 38.90767116666667, "is_disabled": 0, "name": "4c5df9f40443ea261a42de218c2166a5", "fusion_lat": 0.0, "rental_uris": {"ios": "https://dc.lft.to/lastmile_qr_scan", "android": "https://dc.lft.to/lastmile_qr_scan"}, "lon": -77.020623, "type": "electric_scooter"}, {"bike_id": "ca58dfdfe54d5fe0686b5a94b08f427f", "is_reserved": 0, "fusion_lon": 0.0, "lat": 38.86508366666666, "is_disabled": 0, "name": "ca58dfdfe54d5fe0686b5a94b08f427f", "fusion_lat": 0.0, "rental_uris": {"ios": "https://dc.lft.to/lastmile_qr_scan", "android": "https://dc.lft.to/lastmile_qr_scan"}, "lon": -76.98980383333334, "type": "electric_scooter"}, {"bike_id": "53fb51921ed47e5f2f6f67b1b92ab224", "is_reserved": 0, "fusion_lon": 0.0, "lat": 38.8785515, "is_disabled": 0, "name": "53fb51921ed47e5f2f6f67b1b92ab224", "fusion_lat": 0.0, "rental_uris": {"ios": "https://dc.lft.to/lastmile_qr_scan", "android": "https://dc.lft.to/lastmile_qr_scan"}, "lon": -77.0048735, "type": "electric_scooter"}, {"bike_id": "80c03371e947e6bef6cef90fc3d67446", "is_reserved": 0, "fusion_lon": 0.0, "lat": 38.93573633333333, "is_disabled": 0, "name": "80c03371e947e6bef6cef90fc3d67446", "fusion_lat": 0.0, "rental_uris": {"ios": "https://dc.lft.to/lastmile_qr_scan", "android": "https://dc.lft.to/lastmile_qr_scan"}, "lon": -77.03692683333334, "type": "electric_bike"}, {"bike_id": "6b9d4128051c2e8cb54eeaedd6e1f5d1", "is_reserved": 0, "fusion_lon": 0.0, "lat": 38.916852, "is_disabled": 0, "name": "6b9d4128051c2e8cb54eeaedd6e1f5d1", "fusion_lat": 0.0, "rental_uris": {"ios": "https://dc.lft.to/lastmile_qr_scan", "android": "https://dc.lft.to/lastmile_qr_scan"}, "lon": -77.03832166666666, "type": "electric_scooter"}, {"bike_id": "aca4f5094f81c5716af078608385cee1", "is_reserved": 0, "fusion_lon": 0.0, "lat": 38.88408366666667, "is_disabled": 0, "name": "aca4f5094f81c5716af078608385cee1", "fusion_lat": 0.0, "rental_uris": {"ios": "https://dc.lft.to/lastmile_qr_scan", "android": "https://dc.lft.to/lastmile_qr_scan"}, "lon": -77.01748883333333, "type": "electric_scooter"}, {"bike_id": "dc6ef05214957df3506717cb165cd1e4", "is_reserved": 0, "fusion_lon": 0.0, "lat": 38.90009116666667, "is_disabled": 0, "name": "dc6ef05214957df3506717cb165cd1e4", "fusion_lat": 0.0, "rental_uris": {"ios": "https://dc.lft.to/lastmile_qr_scan", "android": "https://dc.lft.to/lastmile_qr_scan"}, "lon": -77.0301215, "type": "electric_scooter"}, {"bike_id": "84a72dbc613bafbf782a434db35ecb35", "is_reserved": 0, "fusion_lon": 0.0, "lat": 38.905204166666664, "is_disabled": 0, "name": "84a72dbc613bafbf782a434db35ecb35", "fusion_lat": 0.0, "rental_uris": {"ios": "https://dc.lft.to/lastmile_qr_scan", "android": "https://dc.lft.to/lastmile_qr_scan"}, "lon": -77.06533633333333, "type": "electric_scooter"}, {"bike_id": "052be6a17ef5527c65c321b5c94bd27d", "is_reserved": 0, "fusion_lon": 0.0, "lat": 38.924213, "is_disabled": 0, "name": "052be6a17ef5527c65c321b5c94bd27d", "fusion_lat": 0.0, "rental_uris": {"ios": "https://dc.lft.to/lastmile_qr_scan", "android": "https://dc.lft.to/lastmile_qr_scan"}, "lon": -77.01946983333333, "type": "electric_scooter"}, {"bike_id": "a24952ee1c22d693a915e8556d6eb4d8", "is_reserved": 0, "fusion_lon": 0.0, "lat": 38.94184466666667, "is_disabled": 0, "name": "a24952ee1c22d693a915e8556d6eb4d8", "fusion_lat": 0.0, "rental_uris": {"ios": "https://dc.lft.to/lastmile_qr_scan", "android": "https://dc.lft.to/lastmile_qr_scan"}, "lon": -77.02533016666666, "type": "electric_scooter"}, {"bike_id": "de42fa9a9b7915fe1dd4b1a0da142f2f", "is_reserved": 0, "fusion_lon": 0.0, "lat": 38.902362833333335, "is_disabled": 0, "name": "de42fa9a9b7915fe1dd4b1a0da142f2f", "fusion_lat": 0.0, "rental_uris": {"ios": "https://dc.lft.to/lastmile_qr_scan", "android": "https://dc.lft.to/lastmile_qr_scan"}, "lon": -77.01638433333333, "type": "electric_scooter"}, {"bike_id": "7cd5bcf09470d54b84a49b6f90a7cf83", "is_reserved": 0, "fusion_lon": 0.0, "lat": 38.92360516666667, "is_disabled": 0, "name": "7cd5bcf09470d54b84a49b6f90a7cf83", "fusion_lat": 0.0, "rental_uris": {"ios": "https://dc.lft.to/lastmile_qr_scan", "android": "https://dc.lft.to/lastmile_qr_scan"}, "lon": -77.0524465, "type": "electric_scooter"}, {"bike_id": "6d8dbe529a99330b481ebcb69ad20697", "is_reserved": 0, "fusion_lon": 0.0, "lat": 38.901749333333335, "is_disabled": 0, "name": "6d8dbe529a99330b481ebcb69ad20697", "fusion_lat": 0.0, "rental_uris": {"ios": "https://dc.lft.to/lastmile_qr_scan", "android": "https://dc.lft.to/lastmile_qr_scan"}, "lon": -77.04179316666666, "type": "electric_scooter"}, {"bike_id": "fea7bf4560458d9609e77d4d6218be59", "is_reserved": 0, "fusion_lon": 0.0, "lat": 38.934651, "is_disabled": 0, "name": "fea7bf4560458d9609e77d4d6218be59", "fusion_lat": 0.0, "rental_uris": {"ios": "https://dc.lft.to/lastmile_qr_scan", "android": "https://dc.lft.to/lastmile_qr_scan"}, "lon": -77.03539466666666, "type": "electric_scooter"}, {"bike_id": "741d7eaa05ed79d8a41b49836279b7d3", "is_reserved": 0, "fusion_lon": 0.0, "lat": 38.89549933333333, "is_disabled": 0, "name": "741d7eaa05ed79d8a41b49836279b7d3", "fusion_lat": 0.0, "rental_uris": {"ios": "https://dc.lft.to/lastmile_qr_scan", "android": "https://dc.lft.to/lastmile_qr_scan"}, "lon": -76.983368, "type": "electric_scooter"}, {"bike_id": "be685b07918ad2b2a6ec09019d34b4f9", "is_reserved": 0, "fusion_lon": 0.0, "lat": 38.89899233333333, "is_disabled": 0, "name": "be685b07918ad2b2a6ec09019d34b4f9", "fusion_lat": 0.0, "rental_uris": {"ios": "https://dc.lft.to/lastmile_qr_scan", "android": "https://dc.lft.to/lastmile_qr_scan"}, "lon": -77.00738583333333, "type": "electric_scooter"}, {"bike_id": "e2ea9f41a66336e5fb2856e103944aa6", "is_reserved": 0, "fusion_lon": 0.0, "lat": 38.90384566666667, "is_disabled": 0, "name": "e2ea9f41a66336e5fb2856e103944aa6", "fusion_lat": 0.0, "rental_uris": {"ios": "https://dc.lft.to/lastmile_qr_scan", "android": "https://dc.lft.to/lastmile_qr_scan"}, "lon": -77.0202045, "type": "electric_scooter"}, {"bike_id": "1a4ff086e0d25ac3333dbf1abab08b4a", "is_reserved": 0, "fusion_lon": 0.0, "lat": 38.9194205, "is_disabled": 0, "name": "1a4ff086e0d25ac3333dbf1abab08b4a", "fusion_lat": 0.0, "rental_uris": {"ios": "https://dc.lft.to/lastmile_qr_scan", "android": "https://dc.lft.to/lastmile_qr_scan"}, "lon": -77.0318235, "type": "electric_scooter"}, {"bike_id": "f4e707b1ed2f3bbc716de974d285701d", "is_reserved": 0, "fusion_lon": 0.0, "lat": 38.950853, "is_disabled": 0, "name": "f4e707b1ed2f3bbc716de974d285701d", "fusion_lat": 0.0, "rental_uris": {"ios": "https://dc.lft.to/lastmile_qr_scan", "android": "https://dc.lft.to/lastmile_qr_scan"}, "lon": -77.0283125, "type": "electric_scooter"}, {"bike_id": "1515fa69f67c101ed035b82e95482c82", "is_reserved": 0, "fusion_lon": 0.0, "lat": 38.898352333333335, "is_disabled": 0, "name": "1515fa69f67c101ed035b82e95482c82", "fusion_lat": 0.0, "rental_uris": {"ios": "https://dc.lft.to/lastmile_qr_scan", "android": "https://dc.lft.to/lastmile_qr_scan"}, "lon": -77.04358883333333, "type": "electric_scooter"}, {"bike_id": "1072ab5b62f9f26ce17ac4c0dd81c0a1", "is_reserved": 0, "fusion_lon": 0.0, "lat": 38.91828, "is_disabled": 0, "name": "1072ab5b62f9f26ce17ac4c0dd81c0a1", "fusion_lat": 0.0, "rental_uris": {"ios": "https://dc.lft.to/lastmile_qr_scan", "android": "https://dc.lft.to/lastmile_qr_scan"}, "lon": -77.03527666666666, "type": "electric_scooter"}, {"bike_id": "00d48b8a5ec43580ccdc2749d5f7ef3d", "is_reserved": 0, "fusion_lon": 0.0, "lat": 38.89825066666667, "is_disabled": 0, "name": "00d48b8a5ec43580ccdc2749d5f7ef3d", "fusion_lat": 0.0, "rental_uris": {"ios": "https://dc.lft.to/lastmile_qr_scan", "android": "https://dc.lft.to/lastmile_qr_scan"}, "lon": -77.03330066666666, "type": "electric_scooter"}, {"bike_id": "51653d83c3ec511ee795e06a70c6248d", "is_reserved": 0, "fusion_lon": 0.0, "lat": 38.921892, "is_disabled": 0, "name": "51653d83c3ec511ee795e06a70c6248d", "fusion_lat": 0.0, "rental_uris": {"ios": "https://dc.lft.to/lastmile_qr_scan", "android": "https://dc.lft.to/lastmile_qr_scan"}, "lon": -77.04250866666666, "type": "electric_scooter"}, {"bike_id": "f0da21b4de0d855c0814a5fdcd5ff2eb", "is_reserved": 0, "fusion_lon": 0.0, "lat": 38.935439333333335, "is_disabled": 0, "name": "f0da21b4de0d855c0814a5fdcd5ff2eb", "fusion_lat": 0.0, "rental_uris": {"ios": "https://dc.lft.to/lastmile_qr_scan", "android": "https://dc.lft.to/lastmile_qr_scan"}, "lon": -77.02350716666666, "type": "electric_scooter"}, {"bike_id": "eb825b49d8c996a72c13cdfba9d75b9b", "is_reserved": 0, "fusion_lon": 0.0, "lat": 38.91956416666667, "is_disabled": 0, "name": "eb825b49d8c996a72c13cdfba9d75b9b", "fusion_lat": 0.0, "rental_uris": {"ios": "https://dc.lft.to/lastmile_qr_scan", "android": "https://dc.lft.to/lastmile_qr_scan"}, "lon": -77.031994, "type": "electric_scooter"}, {"bike_id": "612858da975548750aed1c1c746ecf70", "is_reserved": 0, "fusion_lon": 0.0, "lat": 38.91969516666666, "is_disabled": 0, "name": "612858da975548750aed1c1c746ecf70", "fusion_lat": 0.0, "rental_uris": {"ios": "https://dc.lft.to/lastmile_qr_scan", "android": "https://dc.lft.to/lastmile_qr_scan"}, "lon": -77.03210516666667, "type": "electric_scooter"}, {"bike_id": "08dfe71b1a016fd270349f733678ac37", "is_reserved": 0, "fusion_lon": 0.0, "lat": 38.820936333333336, "is_disabled": 0, "name": "08dfe71b1a016fd270349f733678ac37", "fusion_lat": 0.0, "rental_uris": {"ios": "https://dc.lft.to/lastmile_qr_scan", "android": "https://dc.lft.to/lastmile_qr_scan"}, "lon": -77.05361366666666, "type": "electric_bike"}, {"bike_id": "0674afba7d4fc13dfde879f1c1ee80db", "is_reserved": 0, "fusion_lon": 0.0, "lat": 38.9198575, "is_disabled": 0, "name": "0674afba7d4fc13dfde879f1c1ee80db", "fusion_lat": 0.0, "rental_uris": {"ios": "https://dc.lft.to/lastmile_qr_scan", "android": "https://dc.lft.to/lastmile_qr_scan"}, "lon": -77.02167866666667, "type": "electric_scooter"}, {"bike_id": "6a14d1cf1c52af475d9167f55caa88d3", "is_reserved": 0, "fusion_lon": 0.0, "lat": 38.940927, "is_disabled": 0, "name": "6a14d1cf1c52af475d9167f55caa88d3", "fusion_lat": 0.0, "rental_uris": {"ios": "https://dc.lft.to/lastmile_qr_scan", "android": "https://dc.lft.to/lastmile_qr_scan"}, "lon": -77.02719533333334, "type": "electric_scooter"}, {"bike_id": "3687cf655114724b88d58188c93f7a36", "is_reserved": 0, "fusion_lon": 0.0, "lat": 38.9375435, "is_disabled": 0, "name": "3687cf655114724b88d58188c93f7a36", "fusion_lat": 0.0, "rental_uris": {"ios": "https://dc.lft.to/lastmile_qr_scan", "android": "https://dc.lft.to/lastmile_qr_scan"}, "lon": -77.02486816666666, "type": "electric_scooter"}, {"bike_id": "771bc129f96157e0088dc66662ccbeab", "is_reserved": 0, "fusion_lon": 0.0, "lat": 38.900468000000004, "is_disabled": 0, "name": "771bc129f96157e0088dc66662ccbeab", "fusion_lat": 0.0, "rental_uris": {"ios": "https://dc.lft.to/lastmile_qr_scan", "android": "https://dc.lft.to/lastmile_qr_scan"}, "lon": -77.050657, "type": "electric_scooter"}, {"bike_id": "121a16951e3b3c39bb59be34f3dc4255", "is_reserved": 0, "fusion_lon": 0.0, "lat": 38.83981583333333, "is_disabled": 0, "name": "121a16951e3b3c39bb59be34f3dc4255", "fusion_lat": 0.0, "rental_uris": {"ios": "https://dc.lft.to/lastmile_qr_scan", "android": "https://dc.lft.to/lastmile_qr_scan"}, "lon": -77.00566183333333, "type": "electric_bike"}, {"bike_id": "9052d87f830c414323d36ac735c37aaf", "is_reserved": 0, "fusion_lon": 0.0, "lat": 38.9161885, "is_disabled": 0, "name": "9052d87f830c414323d36ac735c37aaf", "fusion_lat": 0.0, "rental_uris": {"ios": "https://dc.lft.to/lastmile_qr_scan", "android": "https://dc.lft.to/lastmile_qr_scan"}, "lon": -77.03189716666667, "type": "electric_scooter"}, {"bike_id": "316e1d0ed2256ca973b36909aaa8654a", "is_reserved": 0, "fusion_lon": 0.0, "lat": 38.86660216666667, "is_disabled": 0, "name": "316e1d0ed2256ca973b36909aaa8654a", "fusion_lat": 0.0, "rental_uris": {"ios": "https://dc.lft.to/lastmile_qr_scan", "android": "https://dc.lft.to/lastmile_qr_scan"}, "lon": -76.99021283333333, "type": "electric_scooter"}, {"bike_id": "c129e287773e4f12396ca61ff3d711fe", "is_reserved": 0, "fusion_lon": 0.0, "lat": 38.8997155, "is_disabled": 0, "name": "c129e287773e4f12396ca61ff3d711fe", "fusion_lat": 0.0, "rental_uris": {"ios": "https://dc.lft.to/lastmile_qr_scan", "android": "https://dc.lft.to/lastmile_qr_scan"}, "lon": -77.0520725, "type": "electric_scooter"}, {"bike_id": "23f802e419d1e0baf2554abc636fb3b3", "is_reserved": 0, "fusion_lon": 0.0, "lat": 38.91724966666666, "is_disabled": 0, "name": "23f802e419d1e0baf2554abc636fb3b3", "fusion_lat": 0.0, "rental_uris": {"ios": "https://dc.lft.to/lastmile_qr_scan", "android": "https://dc.lft.to/lastmile_qr_scan"}, "lon": -77.03443716666666, "type": "electric_scooter"}, {"bike_id": "8a589aa25d77bd1e4af8e3e938855523", "is_reserved": 0, "fusion_lon": 0.0, "lat": 38.88135533333333, "is_disabled": 0, "name": "8a589aa25d77bd1e4af8e3e938855523", "fusion_lat": 0.0, "rental_uris": {"ios": "https://dc.lft.to/lastmile_qr_scan", "android": "https://dc.lft.to/lastmile_qr_scan"}, "lon": -76.98091016666666, "type": "electric_bike"}, {"bike_id": "5ca8d5dcfe02a9d3d669d9e6983d36e5", "is_reserved": 0, "fusion_lon": 0.0, "lat": 38.90347533333333, "is_disabled": 0, "name": "5ca8d5dcfe02a9d3d669d9e6983d36e5", "fusion_lat": 0.0, "rental_uris": {"ios": "https://dc.lft.to/lastmile_qr_scan", "android": "https://dc.lft.to/lastmile_qr_scan"}, "lon": -77.0298135, "type": "electric_scooter"}, {"bike_id": "28aa2970cab12e8a133c001428f4bc0f", "is_reserved": 0, "fusion_lon": 0.0, "lat": 38.8982785, "is_disabled": 0, "name": "28aa2970cab12e8a133c001428f4bc0f", "fusion_lat": 0.0, "rental_uris": {"ios": "https://dc.lft.to/lastmile_qr_scan", "android": "https://dc.lft.to/lastmile_qr_scan"}, "lon": -76.94653166666667, "type": "electric_scooter"}, {"bike_id": "ec6ce7c89c0d745e4f1241deabe0ab92", "is_reserved": 0, "fusion_lon": 0.0, "lat": 38.91962, "is_disabled": 0, "name": "ec6ce7c89c0d745e4f1241deabe0ab92", "fusion_lat": 0.0, "rental_uris": {"ios": "https://dc.lft.to/lastmile_qr_scan", "android": "https://dc.lft.to/lastmile_qr_scan"}, "lon": -76.97273716666666, "type": "electric_bike"}, {"bike_id": "aa5b675f2dd05f2b3dd19ce4c5386bf9", "is_reserved": 0, "fusion_lon": 0.0, "lat": 38.961759, "is_disabled": 0, "name": "aa5b675f2dd05f2b3dd19ce4c5386bf9", "fusion_lat": 0.0, "rental_uris": {"ios": "https://dc.lft.to/lastmile_qr_scan", "android": "https://dc.lft.to/lastmile_qr_scan"}, "lon": -76.9959395, "type": "electric_bike"}, {"bike_id": "f11c8e8fbaf3f98cb4b8267961112d0e", "is_reserved": 0, "fusion_lon": 0.0, "lat": 38.915631166666664, "is_disabled": 0, "name": "f11c8e8fbaf3f98cb4b8267961112d0e", "fusion_lat": 0.0, "rental_uris": {"ios": "https://dc.lft.to/lastmile_qr_scan", "android": "https://dc.lft.to/lastmile_qr_scan"}, "lon": -77.04672316666667, "type": "electric_scooter"}, {"bike_id": "2908995fff27fe6f7f04d560dee9a313", "is_reserved": 0, "fusion_lon": 0.0, "lat": 38.901023, "is_disabled": 0, "name": "2908995fff27fe6f7f04d560dee9a313", "fusion_lat": 0.0, "rental_uris": {"ios": "https://dc.lft.to/lastmile_qr_scan", "android": "https://dc.lft.to/lastmile_qr_scan"}, "lon": -77.02220883333334, "type": "electric_scooter"}, {"bike_id": "f4e6e70da03fb3673ca1b30209207c85", "is_reserved": 0, "fusion_lon": 0.0, "lat": 38.91927666666667, "is_disabled": 0, "name": "f4e6e70da03fb3673ca1b30209207c85", "fusion_lat": 0.0, "rental_uris": {"ios": "https://dc.lft.to/lastmile_qr_scan", "android": "https://dc.lft.to/lastmile_qr_scan"}, "lon": -77.0342675, "type": "electric_scooter"}, {"bike_id": "cbf8733d84174361b44444d6836f6164", "is_reserved": 0, "fusion_lon": 0.0, "lat": 38.9495085, "is_disabled": 0, "name": "cbf8733d84174361b44444d6836f6164", "fusion_lat": 0.0, "rental_uris": {"ios": "https://dc.lft.to/lastmile_qr_scan", "android": "https://dc.lft.to/lastmile_qr_scan"}, "lon": -77.01626683333333, "type": "electric_scooter"}, {"bike_id": "b2e294bb196a5b40123332517e117715", "is_reserved": 0, "fusion_lon": 0.0, "lat": 38.90221283333333, "is_disabled": 0, "name": "b2e294bb196a5b40123332517e117715", "fusion_lat": 0.0, "rental_uris": {"ios": "https://dc.lft.to/lastmile_qr_scan", "android": "https://dc.lft.to/lastmile_qr_scan"}, "lon": -76.9459305, "type": "electric_scooter"}, {"bike_id": "6d9acb1ebe5ee6331aeef87bb90cf7c8", "is_reserved": 0, "fusion_lon": 0.0, "lat": 38.924254, "is_disabled": 0, "name": "6d9acb1ebe5ee6331aeef87bb90cf7c8", "fusion_lat": 0.0, "rental_uris": {"ios": "https://dc.lft.to/lastmile_qr_scan", "android": "https://dc.lft.to/lastmile_qr_scan"}, "lon": -77.04003916666667, "type": "electric_scooter"}, {"bike_id": "b6baa88f9b470c93530b7b3c54924057", "is_reserved": 0, "fusion_lon": 0.0, "lat": 38.896272833333335, "is_disabled": 0, "name": "b6baa88f9b470c93530b7b3c54924057", "fusion_lat": 0.0, "rental_uris": {"ios": "https://dc.lft.to/lastmile_qr_scan", "android": "https://dc.lft.to/lastmile_qr_scan"}, "lon": -77.009224, "type": "electric_scooter"}, {"bike_id": "e19a759a0014785dd54fa4de6a009072", "is_reserved": 0, "fusion_lon": 0.0, "lat": 38.917041833333336, "is_disabled": 0, "name": "e19a759a0014785dd54fa4de6a009072", "fusion_lat": 0.0, "rental_uris": {"ios": "https://dc.lft.to/lastmile_qr_scan", "android": "https://dc.lft.to/lastmile_qr_scan"}, "lon": -77.02385516666666, "type": "electric_scooter"}, {"bike_id": "e22e654c041d0238f9f524bd5b1f3d02", "is_reserved": 0, "fusion_lon": 0.0, "lat": 38.861974833333335, "is_disabled": 0, "name": "e22e654c041d0238f9f524bd5b1f3d02", "fusion_lat": 0.0, "rental_uris": {"ios": "https://dc.lft.to/lastmile_qr_scan", "android": "https://dc.lft.to/lastmile_qr_scan"}, "lon": -76.994601, "type": "electric_scooter"}, {"bike_id": "cef76774f1296477cfa390ea1d366697", "is_reserved": 0, "fusion_lon": 0.0, "lat": 38.905949, "is_disabled": 0, "name": "cef76774f1296477cfa390ea1d366697", "fusion_lat": 0.0, "rental_uris": {"ios": "https://dc.lft.to/lastmile_qr_scan", "android": "https://dc.lft.to/lastmile_qr_scan"}, "lon": -77.06799316666667, "type": "electric_scooter"}, {"bike_id": "b4b9889b3ac145ef99115ec4a5584c79", "is_reserved": 0, "fusion_lon": 0.0, "lat": 38.899209666666664, "is_disabled": 0, "name": "b4b9889b3ac145ef99115ec4a5584c79", "fusion_lat": 0.0, "rental_uris": {"ios": "https://dc.lft.to/lastmile_qr_scan", "android": "https://dc.lft.to/lastmile_qr_scan"}, "lon": -77.00379066666666, "type": "electric_scooter"}, {"bike_id": "9a3acef13cb264120eceb263e8c1b33c", "is_reserved": 0, "fusion_lon": 0.0, "lat": 38.842928, "is_disabled": 0, "name": "9a3acef13cb264120eceb263e8c1b33c", "fusion_lat": 0.0, "rental_uris": {"ios": "https://dc.lft.to/lastmile_qr_scan", "android": "https://dc.lft.to/lastmile_qr_scan"}, "lon": -76.99948983333333, "type": "electric_scooter"}, {"bike_id": "670635a2041fc5fc556b3a866ee6a852", "is_reserved": 0, "fusion_lon": 0.0, "lat": 38.94053866666667, "is_disabled": 0, "name": "670635a2041fc5fc556b3a866ee6a852", "fusion_lat": 0.0, "rental_uris": {"ios": "https://dc.lft.to/lastmile_qr_scan", "android": "https://dc.lft.to/lastmile_qr_scan"}, "lon": -77.0927085, "type": "electric_scooter"}, {"bike_id": "25d7946b240a46e6ceaa043af664615f", "is_reserved": 0, "fusion_lon": 0.0, "lat": 38.903130833333336, "is_disabled": 0, "name": "25d7946b240a46e6ceaa043af664615f", "fusion_lat": 0.0, "rental_uris": {"ios": "https://dc.lft.to/lastmile_qr_scan", "android": "https://dc.lft.to/lastmile_qr_scan"}, "lon": -77.03843316666666, "type": "electric_scooter"}, {"bike_id": "5ea76abc0d5475436a9a839ecd3884e5", "is_reserved": 0, "fusion_lon": 0.0, "lat": 38.86711316666667, "is_disabled": 0, "name": "5ea76abc0d5475436a9a839ecd3884e5", "fusion_lat": 0.0, "rental_uris": {"ios": "https://dc.lft.to/lastmile_qr_scan", "android": "https://dc.lft.to/lastmile_qr_scan"}, "lon": -76.98721566666667, "type": "electric_scooter"}, {"bike_id": "ce866c057e864831dec58eafe883b963", "is_reserved": 0, "fusion_lon": 0.0, "lat": 38.974356666666665, "is_disabled": 0, "name": "ce866c057e864831dec58eafe883b963", "fusion_lat": 0.0, "rental_uris": {"ios": "https://dc.lft.to/lastmile_qr_scan", "android": "https://dc.lft.to/lastmile_qr_scan"}, "lon": -77.01529333333333, "type": "electric_scooter"}, {"bike_id": "1b810a15cf1fd0302524512185509098", "is_reserved": 0, "fusion_lon": 0.0, "lat": 38.908692333333335, "is_disabled": 0, "name": "1b810a15cf1fd0302524512185509098", "fusion_lat": 0.0, "rental_uris": {"ios": "https://dc.lft.to/lastmile_qr_scan", "android": "https://dc.lft.to/lastmile_qr_scan"}, "lon": -76.9917095, "type": "electric_scooter"}, {"bike_id": "a6cd95d2abe15da91a352f38fb8d03ab", "is_reserved": 0, "fusion_lon": 0.0, "lat": 38.91743916666667, "is_disabled": 0, "name": "a6cd95d2abe15da91a352f38fb8d03ab", "fusion_lat": 0.0, "rental_uris": {"ios": "https://dc.lft.to/lastmile_qr_scan", "android": "https://dc.lft.to/lastmile_qr_scan"}, "lon": -77.00751383333333, "type": "electric_scooter"}, {"bike_id": "d85dab3b18fe835f7c9a6362fc093d00", "is_reserved": 0, "fusion_lon": 0.0, "lat": 38.8962125, "is_disabled": 0, "name": "d85dab3b18fe835f7c9a6362fc093d00", "fusion_lat": 0.0, "rental_uris": {"ios": "https://dc.lft.to/lastmile_qr_scan", "android": "https://dc.lft.to/lastmile_qr_scan"}, "lon": -77.040467, "type": "electric_scooter"}, {"bike_id": "bca0c9786bd55db32fc46b57158eda4f", "is_reserved": 0, "fusion_lon": 0.0, "lat": 38.896780666666665, "is_disabled": 0, "name": "bca0c9786bd55db32fc46b57158eda4f", "fusion_lat": 0.0, "rental_uris": {"ios": "https://dc.lft.to/lastmile_qr_scan", "android": "https://dc.lft.to/lastmile_qr_scan"}, "lon": -76.99622683333334, "type": "electric_scooter"}, {"bike_id": "b59f4b3e5a42f7c7934be32664a076c4", "is_reserved": 0, "fusion_lon": 0.0, "lat": 38.914821, "is_disabled": 0, "name": "b59f4b3e5a42f7c7934be32664a076c4", "fusion_lat": 0.0, "rental_uris": {"ios": "https://dc.lft.to/lastmile_qr_scan", "android": "https://dc.lft.to/lastmile_qr_scan"}, "lon": -77.0219385, "type": "electric_scooter"}, {"bike_id": "34a46e3436270c01d61dffdae3a011ba", "is_reserved": 0, "fusion_lon": 0.0, "lat": 38.90789983333333, "is_disabled": 0, "name": "34a46e3436270c01d61dffdae3a011ba", "fusion_lat": 0.0, "rental_uris": {"ios": "https://dc.lft.to/lastmile_qr_scan", "android": "https://dc.lft.to/lastmile_qr_scan"}, "lon": -77.03654383333334, "type": "electric_scooter"}, {"bike_id": "26c9a1adf4f90fe2370168e7bf6edf6b", "is_reserved": 0, "fusion_lon": 0.0, "lat": 38.985055833333334, "is_disabled": 0, "name": "26c9a1adf4f90fe2370168e7bf6edf6b", "fusion_lat": 0.0, "rental_uris": {"ios": "https://dc.lft.to/lastmile_qr_scan", "android": "https://dc.lft.to/lastmile_qr_scan"}, "lon": -76.982099, "type": "electric_bike"}, {"bike_id": "c64009d2051e11020ccca0d360dbea49", "is_reserved": 0, "fusion_lon": 0.0, "lat": 38.87691216666666, "is_disabled": 0, "name": "c64009d2051e11020ccca0d360dbea49", "fusion_lat": 0.0, "rental_uris": {"ios": "https://dc.lft.to/lastmile_qr_scan", "android": "https://dc.lft.to/lastmile_qr_scan"}, "lon": -77.0047345, "type": "electric_scooter"}, {"bike_id": "25234f39e6d4a9b5d4903d5b09d556d2", "is_reserved": 0, "fusion_lon": 0.0, "lat": 38.862508, "is_disabled": 0, "name": "25234f39e6d4a9b5d4903d5b09d556d2", "fusion_lat": 0.0, "rental_uris": {"ios": "https://dc.lft.to/lastmile_qr_scan", "android": "https://dc.lft.to/lastmile_qr_scan"}, "lon": -76.9947815, "type": "electric_scooter"}, {"bike_id": "1bd95739d1a436ddda00db38a7d905b0", "is_reserved": 0, "fusion_lon": 0.0, "lat": 38.924717, "is_disabled": 0, "name": "1bd95739d1a436ddda00db38a7d905b0", "fusion_lat": 0.0, "rental_uris": {"ios": "https://dc.lft.to/lastmile_qr_scan", "android": "https://dc.lft.to/lastmile_qr_scan"}, "lon": -77.03918, "type": "electric_bike"}, {"bike_id": "0e9feb4dc056c35b6acc8f2f5ee5f898", "is_reserved": 0, "fusion_lon": 0.0, "lat": 38.923394333333334, "is_disabled": 0, "name": "0e9feb4dc056c35b6acc8f2f5ee5f898", "fusion_lat": 0.0, "rental_uris": {"ios": "https://dc.lft.to/lastmile_qr_scan", "android": "https://dc.lft.to/lastmile_qr_scan"}, "lon": -77.04196416666667, "type": "electric_scooter"}, {"bike_id": "1bbd7d121cb1bac413fd70e4f8078690", "is_reserved": 0, "fusion_lon": 0.0, "lat": 38.82267433333333, "is_disabled": 0, "name": "1bbd7d121cb1bac413fd70e4f8078690", "fusion_lat": 0.0, "rental_uris": {"ios": "https://dc.lft.to/lastmile_qr_scan", "android": "https://dc.lft.to/lastmile_qr_scan"}, "lon": -77.05817166666667, "type": "electric_bike"}, {"bike_id": "8420e0006076ef73b17e57139ca02e09", "is_reserved": 0, "fusion_lon": 0.0, "lat": 38.904653333333336, "is_disabled": 0, "name": "8420e0006076ef73b17e57139ca02e09", "fusion_lat": 0.0, "rental_uris": {"ios": "https://dc.lft.to/lastmile_qr_scan", "android": "https://dc.lft.to/lastmile_qr_scan"}, "lon": -77.04354966666666, "type": "electric_scooter"}, {"bike_id": "5c2de7d776aef2f4cea539fa3b519988", "is_reserved": 0, "fusion_lon": 0.0, "lat": 38.897429333333335, "is_disabled": 0, "name": "5c2de7d776aef2f4cea539fa3b519988", "fusion_lat": 0.0, "rental_uris": {"ios": "https://dc.lft.to/lastmile_qr_scan", "android": "https://dc.lft.to/lastmile_qr_scan"}, "lon": -77.0175135, "type": "electric_scooter"}, {"bike_id": "0a4ebf141140ff816e24b2d636a881d9", "is_reserved": 0, "fusion_lon": 0.0, "lat": 38.86999766666667, "is_disabled": 0, "name": "0a4ebf141140ff816e24b2d636a881d9", "fusion_lat": 0.0, "rental_uris": {"ios": "https://dc.lft.to/lastmile_qr_scan", "android": "https://dc.lft.to/lastmile_qr_scan"}, "lon": -76.95985433333334, "type": "electric_bike"}, {"bike_id": "4b5c281fc149e2684a5df13a097489d7", "is_reserved": 0, "fusion_lon": 0.0, "lat": 38.806212333333335, "is_disabled": 0, "name": "4b5c281fc149e2684a5df13a097489d7", "fusion_lat": 0.0, "rental_uris": {"ios": "https://dc.lft.to/lastmile_qr_scan", "android": "https://dc.lft.to/lastmile_qr_scan"}, "lon": -77.06346166666667, "type": "electric_bike"}, {"bike_id": "2d205e520a95ec8df64602736fd5a5ed", "is_reserved": 0, "fusion_lon": 0.0, "lat": 38.89223966666667, "is_disabled": 0, "name": "2d205e520a95ec8df64602736fd5a5ed", "fusion_lat": 0.0, "rental_uris": {"ios": "https://dc.lft.to/lastmile_qr_scan", "android": "https://dc.lft.to/lastmile_qr_scan"}, "lon": -77.04875683333333, "type": "electric_scooter"}, {"bike_id": "d2988b864821ca879cc8aaa41974b5e7", "is_reserved": 0, "fusion_lon": 0.0, "lat": 38.893873166666665, "is_disabled": 0, "name": "d2988b864821ca879cc8aaa41974b5e7", "fusion_lat": 0.0, "rental_uris": {"ios": "https://dc.lft.to/lastmile_qr_scan", "android": "https://dc.lft.to/lastmile_qr_scan"}, "lon": -77.00599733333334, "type": "electric_scooter"}, {"bike_id": "f999916ee4f49e9da2777e1dd35160b8", "is_reserved": 0, "fusion_lon": 0.0, "lat": 38.90798616666667, "is_disabled": 0, "name": "f999916ee4f49e9da2777e1dd35160b8", "fusion_lat": 0.0, "rental_uris": {"ios": "https://dc.lft.to/lastmile_qr_scan", "android": "https://dc.lft.to/lastmile_qr_scan"}, "lon": -77.03631933333334, "type": "electric_scooter"}, {"bike_id": "e8457cc46f511683807e6bb7731c85e8", "is_reserved": 0, "fusion_lon": 0.0, "lat": 38.9158205, "is_disabled": 0, "name": "e8457cc46f511683807e6bb7731c85e8", "fusion_lat": 0.0, "rental_uris": {"ios": "https://dc.lft.to/lastmile_qr_scan", "android": "https://dc.lft.to/lastmile_qr_scan"}, "lon": -77.012308, "type": "electric_scooter"}, {"bike_id": "2242fe45ccf0a7c156f41aad6b18b4a3", "is_reserved": 0, "fusion_lon": 0.0, "lat": 38.897164833333335, "is_disabled": 0, "name": "2242fe45ccf0a7c156f41aad6b18b4a3", "fusion_lat": 0.0, "rental_uris": {"ios": "https://dc.lft.to/lastmile_qr_scan", "android": "https://dc.lft.to/lastmile_qr_scan"}, "lon": -77.02406883333333, "type": "electric_scooter"}, {"bike_id": "ef09b98aeef1777044c53d7818f98408", "is_reserved": 0, "fusion_lon": 0.0, "lat": 38.91642816666667, "is_disabled": 0, "name": "ef09b98aeef1777044c53d7818f98408", "fusion_lat": 0.0, "rental_uris": {"ios": "https://dc.lft.to/lastmile_qr_scan", "android": "https://dc.lft.to/lastmile_qr_scan"}, "lon": -77.04778333333333, "type": "electric_scooter"}, {"bike_id": "16c637ff7e4587dd55b82c056d5eac6d", "is_reserved": 0, "fusion_lon": 0.0, "lat": 38.894554166666666, "is_disabled": 0, "name": "16c637ff7e4587dd55b82c056d5eac6d", "fusion_lat": 0.0, "rental_uris": {"ios": "https://dc.lft.to/lastmile_qr_scan", "android": "https://dc.lft.to/lastmile_qr_scan"}, "lon": -76.970384, "type": "electric_bike"}, {"bike_id": "498148dc8aa53099a07f92a98be67c11", "is_reserved": 0, "fusion_lon": 0.0, "lat": 38.87713733333333, "is_disabled": 0, "name": "498148dc8aa53099a07f92a98be67c11", "fusion_lat": 0.0, "rental_uris": {"ios": "https://dc.lft.to/lastmile_qr_scan", "android": "https://dc.lft.to/lastmile_qr_scan"}, "lon": -77.017602, "type": "electric_scooter"}, {"bike_id": "f6704f3231e6a5332b36ec251e0c8b83", "is_reserved": 0, "fusion_lon": 0.0, "lat": 38.90755933333333, "is_disabled": 0, "name": "f6704f3231e6a5332b36ec251e0c8b83", "fusion_lat": 0.0, "rental_uris": {"ios": "https://dc.lft.to/lastmile_qr_scan", "android": "https://dc.lft.to/lastmile_qr_scan"}, "lon": -76.986423, "type": "electric_scooter"}, {"bike_id": "68baa06f02dc01fce7f7be9870619810", "is_reserved": 0, "fusion_lon": 0.0, "lat": 38.930801, "is_disabled": 0, "name": "68baa06f02dc01fce7f7be9870619810", "fusion_lat": 0.0, "rental_uris": {"ios": "https://dc.lft.to/lastmile_qr_scan", "android": "https://dc.lft.to/lastmile_qr_scan"}, "lon": -77.03420166666666, "type": "electric_scooter"}, {"bike_id": "f2826dffa0020defdc74a1082c78166b", "is_reserved": 0, "fusion_lon": 0.0, "lat": 38.864404666666665, "is_disabled": 0, "name": "f2826dffa0020defdc74a1082c78166b", "fusion_lat": 0.0, "rental_uris": {"ios": "https://dc.lft.to/lastmile_qr_scan", "android": "https://dc.lft.to/lastmile_qr_scan"}, "lon": -76.97363483333334, "type": "electric_scooter"}, {"bike_id": "00b27e730edc99f43b94b6c006e0accb", "is_reserved": 0, "fusion_lon": 0.0, "lat": 38.933701, "is_disabled": 0, "name": "00b27e730edc99f43b94b6c006e0accb", "fusion_lat": 0.0, "rental_uris": {"ios": "https://dc.lft.to/lastmile_qr_scan", "android": "https://dc.lft.to/lastmile_qr_scan"}, "lon": -77.0572305, "type": "electric_scooter"}, {"bike_id": "3220b52c4806b2c836e3bfefcd61d1ac", "is_reserved": 0, "fusion_lon": 0.0, "lat": 38.89261716666667, "is_disabled": 0, "name": "3220b52c4806b2c836e3bfefcd61d1ac", "fusion_lat": 0.0, "rental_uris": {"ios": "https://dc.lft.to/lastmile_qr_scan", "android": "https://dc.lft.to/lastmile_qr_scan"}, "lon": -76.94160466666666, "type": "electric_scooter"}, {"bike_id": "966adc3678920576060561e25ca6a8b5", "is_reserved": 0, "fusion_lon": 0.0, "lat": 38.89218566666667, "is_disabled": 0, "name": "966adc3678920576060561e25ca6a8b5", "fusion_lat": 0.0, "rental_uris": {"ios": "https://dc.lft.to/lastmile_qr_scan", "android": "https://dc.lft.to/lastmile_qr_scan"}, "lon": -77.02653083333334, "type": "electric_scooter"}, {"bike_id": "28b55255f653aa0bfd87a36a49f2da30", "is_reserved": 0, "fusion_lon": 0.0, "lat": 38.926335, "is_disabled": 0, "name": "28b55255f653aa0bfd87a36a49f2da30", "fusion_lat": 0.0, "rental_uris": {"ios": "https://dc.lft.to/lastmile_qr_scan", "android": "https://dc.lft.to/lastmile_qr_scan"}, "lon": -77.03787116666666, "type": "electric_scooter"}, {"bike_id": "81c25ccb86b79df771d92042e472387e", "is_reserved": 0, "fusion_lon": 0.0, "lat": 38.89780916666667, "is_disabled": 0, "name": "81c25ccb86b79df771d92042e472387e", "fusion_lat": 0.0, "rental_uris": {"ios": "https://dc.lft.to/lastmile_qr_scan", "android": "https://dc.lft.to/lastmile_qr_scan"}, "lon": -77.03169066666666, "type": "electric_scooter"}, {"bike_id": "0924a849193869572157db068a5f8f21", "is_reserved": 0, "fusion_lon": 0.0, "lat": 38.91565533333333, "is_disabled": 0, "name": "0924a849193869572157db068a5f8f21", "fusion_lat": 0.0, "rental_uris": {"ios": "https://dc.lft.to/lastmile_qr_scan", "android": "https://dc.lft.to/lastmile_qr_scan"}, "lon": -77.0315615, "type": "electric_scooter"}, {"bike_id": "6910ad7e2576f0412673b89c8e9b8826", "is_reserved": 0, "fusion_lon": 0.0, "lat": 38.91669983333333, "is_disabled": 0, "name": "6910ad7e2576f0412673b89c8e9b8826", "fusion_lat": 0.0, "rental_uris": {"ios": "https://dc.lft.to/lastmile_qr_scan", "android": "https://dc.lft.to/lastmile_qr_scan"}, "lon": -77.0296755, "type": "electric_scooter"}, {"bike_id": "6426f713d98002be7b40d834f49e160b", "is_reserved": 0, "fusion_lon": 0.0, "lat": 38.9217895, "is_disabled": 0, "name": "6426f713d98002be7b40d834f49e160b", "fusion_lat": 0.0, "rental_uris": {"ios": "https://dc.lft.to/lastmile_qr_scan", "android": "https://dc.lft.to/lastmile_qr_scan"}, "lon": -76.99791766666667, "type": "electric_scooter"}, {"bike_id": "0e1125840a8a76dec34a43d4d9221bce", "is_reserved": 0, "fusion_lon": 0.0, "lat": 38.8226125, "is_disabled": 0, "name": "0e1125840a8a76dec34a43d4d9221bce", "fusion_lat": 0.0, "rental_uris": {"ios": "https://dc.lft.to/lastmile_qr_scan", "android": "https://dc.lft.to/lastmile_qr_scan"}, "lon": -77.00562916666667, "type": "electric_bike"}, {"bike_id": "428a53a43216735daaf9f8e142f346e0", "is_reserved": 0, "fusion_lon": 0.0, "lat": 38.90609333333333, "is_disabled": 0, "name": "428a53a43216735daaf9f8e142f346e0", "fusion_lat": 0.0, "rental_uris": {"ios": "https://dc.lft.to/lastmile_qr_scan", "android": "https://dc.lft.to/lastmile_qr_scan"}, "lon": -77.0404375, "type": "electric_scooter"}, {"bike_id": "5fe543b8864cc6eb36ba9382033cc99e", "is_reserved": 0, "fusion_lon": 0.0, "lat": 38.884334, "is_disabled": 0, "name": "5fe543b8864cc6eb36ba9382033cc99e", "fusion_lat": 0.0, "rental_uris": {"ios": "https://dc.lft.to/lastmile_qr_scan", "android": "https://dc.lft.to/lastmile_qr_scan"}, "lon": -76.957503, "type": "electric_scooter"}, {"bike_id": "40dc6b4c4e802113954c702587a884c0", "is_reserved": 0, "fusion_lon": 0.0, "lat": 38.900438, "is_disabled": 0, "name": "40dc6b4c4e802113954c702587a884c0", "fusion_lat": 0.0, "rental_uris": {"ios": "https://dc.lft.to/lastmile_qr_scan", "android": "https://dc.lft.to/lastmile_qr_scan"}, "lon": -76.92475133333333, "type": "electric_scooter"}, {"bike_id": "59684aa3cec5b33e192608ddf860c204", "is_reserved": 0, "fusion_lon": 0.0, "lat": 38.9001605, "is_disabled": 0, "name": "59684aa3cec5b33e192608ddf860c204", "fusion_lat": 0.0, "rental_uris": {"ios": "https://dc.lft.to/lastmile_qr_scan", "android": "https://dc.lft.to/lastmile_qr_scan"}, "lon": -77.04029766666666, "type": "electric_scooter"}, {"bike_id": "90e76e9b706fc839da303d3d31a29774", "is_reserved": 0, "fusion_lon": 0.0, "lat": 38.916839, "is_disabled": 0, "name": "90e76e9b706fc839da303d3d31a29774", "fusion_lat": 0.0, "rental_uris": {"ios": "https://dc.lft.to/lastmile_qr_scan", "android": "https://dc.lft.to/lastmile_qr_scan"}, "lon": -77.03172083333334, "type": "electric_scooter"}, {"bike_id": "797edaa4e010fc47fbb1d78829ea7b57", "is_reserved": 0, "fusion_lon": 0.0, "lat": 38.91664216666667, "is_disabled": 0, "name": "797edaa4e010fc47fbb1d78829ea7b57", "fusion_lat": 0.0, "rental_uris": {"ios": "https://dc.lft.to/lastmile_qr_scan", "android": "https://dc.lft.to/lastmile_qr_scan"}, "lon": -77.02712483333333, "type": "electric_scooter"}, {"bike_id": "07382a134d696e1748e5250ca35acab4", "is_reserved": 0, "fusion_lon": 0.0, "lat": 38.90383583333333, "is_disabled": 0, "name": "07382a134d696e1748e5250ca35acab4", "fusion_lat": 0.0, "rental_uris": {"ios": "https://dc.lft.to/lastmile_qr_scan", "android": "https://dc.lft.to/lastmile_qr_scan"}, "lon": -77.04005066666667, "type": "electric_scooter"}, {"bike_id": "a57956c48e448c8468acc25de81aa868", "is_reserved": 0, "fusion_lon": 0.0, "lat": 38.8873555, "is_disabled": 0, "name": "a57956c48e448c8468acc25de81aa868", "fusion_lat": 0.0, "rental_uris": {"ios": "https://dc.lft.to/lastmile_qr_scan", "android": "https://dc.lft.to/lastmile_qr_scan"}, "lon": -77.0258485, "type": "electric_scooter"}, {"bike_id": "db68406ec88aaa15b79b79855fc80d4a", "is_reserved": 0, "fusion_lon": 0.0, "lat": 38.9258575, "is_disabled": 0, "name": "db68406ec88aaa15b79b79855fc80d4a", "fusion_lat": 0.0, "rental_uris": {"ios": "https://dc.lft.to/lastmile_qr_scan", "android": "https://dc.lft.to/lastmile_qr_scan"}, "lon": -77.05058183333334, "type": "electric_scooter"}, {"bike_id": "35290e62976f67a24f37b2ce9a77bf09", "is_reserved": 0, "fusion_lon": 0.0, "lat": 38.89759383333333, "is_disabled": 0, "name": "35290e62976f67a24f37b2ce9a77bf09", "fusion_lat": 0.0, "rental_uris": {"ios": "https://dc.lft.to/lastmile_qr_scan", "android": "https://dc.lft.to/lastmile_qr_scan"}, "lon": -76.9418785, "type": "electric_scooter"}, {"bike_id": "c2c8d5317a3e8b6df334bfcc463050e6", "is_reserved": 0, "fusion_lon": 0.0, "lat": 38.93123033333333, "is_disabled": 0, "name": "c2c8d5317a3e8b6df334bfcc463050e6", "fusion_lat": 0.0, "rental_uris": {"ios": "https://dc.lft.to/lastmile_qr_scan", "android": "https://dc.lft.to/lastmile_qr_scan"}, "lon": -77.020872, "type": "electric_scooter"}, {"bike_id": "41008481190bc4cbba8d5ed75d4e6d6a", "is_reserved": 0, "fusion_lon": 0.0, "lat": 38.924643833333334, "is_disabled": 0, "name": "41008481190bc4cbba8d5ed75d4e6d6a", "fusion_lat": 0.0, "rental_uris": {"ios": "https://dc.lft.to/lastmile_qr_scan", "android": "https://dc.lft.to/lastmile_qr_scan"}, "lon": -77.02154, "type": "electric_scooter"}, {"bike_id": "d1717d5d171bba9d66fd8e78d3d1a208", "is_reserved": 0, "fusion_lon": 0.0, "lat": 38.9676275, "is_disabled": 0, "name": "d1717d5d171bba9d66fd8e78d3d1a208", "fusion_lat": 0.0, "rental_uris": {"ios": "https://dc.lft.to/lastmile_qr_scan", "android": "https://dc.lft.to/lastmile_qr_scan"}, "lon": -77.09163433333333, "type": "electric_bike"}, {"bike_id": "917e0fcc729268470ddf34ef69de83a0", "is_reserved": 0, "fusion_lon": 0.0, "lat": 38.91564, "is_disabled": 0, "name": "917e0fcc729268470ddf34ef69de83a0", "fusion_lat": 0.0, "rental_uris": {"ios": "https://dc.lft.to/lastmile_qr_scan", "android": "https://dc.lft.to/lastmile_qr_scan"}, "lon": -77.03238866666666, "type": "electric_scooter"}, {"bike_id": "bfcdfce29126efbdb4de05c3f87af06d", "is_reserved": 0, "fusion_lon": 0.0, "lat": 38.913355833333334, "is_disabled": 0, "name": "bfcdfce29126efbdb4de05c3f87af06d", "fusion_lat": 0.0, "rental_uris": {"ios": "https://dc.lft.to/lastmile_qr_scan", "android": "https://dc.lft.to/lastmile_qr_scan"}, "lon": -77.03447233333333, "type": "electric_scooter"}, {"bike_id": "0cd7534fc1732dde248e558d99120f1c", "is_reserved": 0, "fusion_lon": 0.0, "lat": 38.89534416666667, "is_disabled": 0, "name": "0cd7534fc1732dde248e558d99120f1c", "fusion_lat": 0.0, "rental_uris": {"ios": "https://dc.lft.to/lastmile_qr_scan", "android": "https://dc.lft.to/lastmile_qr_scan"}, "lon": -76.980733, "type": "electric_scooter"}, {"bike_id": "dc6f9f54d965946c5628c4c87196be26", "is_reserved": 0, "fusion_lon": 0.0, "lat": 38.896231, "is_disabled": 0, "name": "dc6f9f54d965946c5628c4c87196be26", "fusion_lat": 0.0, "rental_uris": {"ios": "https://dc.lft.to/lastmile_qr_scan", "android": "https://dc.lft.to/lastmile_qr_scan"}, "lon": -76.9957685, "type": "electric_scooter"}, {"bike_id": "d56fd11fc729f6c10fba8f0c97090570", "is_reserved": 0, "fusion_lon": 0.0, "lat": 38.9014385, "is_disabled": 0, "name": "d56fd11fc729f6c10fba8f0c97090570", "fusion_lat": 0.0, "rental_uris": {"ios": "https://dc.lft.to/lastmile_qr_scan", "android": "https://dc.lft.to/lastmile_qr_scan"}, "lon": -77.043621, "type": "electric_scooter"}, {"bike_id": "d12f90d5487caf1002a7408e049b9b59", "is_reserved": 0, "fusion_lon": 0.0, "lat": 38.861617333333335, "is_disabled": 0, "name": "d12f90d5487caf1002a7408e049b9b59", "fusion_lat": 0.0, "rental_uris": {"ios": "https://dc.lft.to/lastmile_qr_scan", "android": "https://dc.lft.to/lastmile_qr_scan"}, "lon": -77.13097366666666, "type": "electric_bike"}, {"bike_id": "d8b7925f3c536e315631393b8f52d723", "is_reserved": 0, "fusion_lon": 0.0, "lat": 38.90365716666667, "is_disabled": 0, "name": "d8b7925f3c536e315631393b8f52d723", "fusion_lat": 0.0, "rental_uris": {"ios": "https://dc.lft.to/lastmile_qr_scan", "android": "https://dc.lft.to/lastmile_qr_scan"}, "lon": -77.04186716666666, "type": "electric_scooter"}, {"bike_id": "2a80e96b5030a89965b2a4997dd74d3c", "is_reserved": 0, "fusion_lon": 0.0, "lat": 38.91977166666667, "is_disabled": 0, "name": "2a80e96b5030a89965b2a4997dd74d3c", "fusion_lat": 0.0, "rental_uris": {"ios": "https://dc.lft.to/lastmile_qr_scan", "android": "https://dc.lft.to/lastmile_qr_scan"}, "lon": -77.02507216666666, "type": "electric_scooter"}, {"bike_id": "e0d40a75e82c66e3a8096c2184cbda86", "is_reserved": 0, "fusion_lon": 0.0, "lat": 38.89221216666667, "is_disabled": 0, "name": "e0d40a75e82c66e3a8096c2184cbda86", "fusion_lat": 0.0, "rental_uris": {"ios": "https://dc.lft.to/lastmile_qr_scan", "android": "https://dc.lft.to/lastmile_qr_scan"}, "lon": -77.03341316666666, "type": "electric_scooter"}, {"bike_id": "33347d4310fb6bae04d90a9adbc5ab0c", "is_reserved": 0, "fusion_lon": 0.0, "lat": 38.94962533333333, "is_disabled": 0, "name": "33347d4310fb6bae04d90a9adbc5ab0c", "fusion_lat": 0.0, "rental_uris": {"ios": "https://dc.lft.to/lastmile_qr_scan", "android": "https://dc.lft.to/lastmile_qr_scan"}, "lon": -77.01530566666666, "type": "electric_bike"}, {"bike_id": "4e1d5de499574e33aa4d88ea3afa4630", "is_reserved": 0, "fusion_lon": 0.0, "lat": 38.9030445, "is_disabled": 0, "name": "4e1d5de499574e33aa4d88ea3afa4630", "fusion_lat": 0.0, "rental_uris": {"ios": "https://dc.lft.to/lastmile_qr_scan", "android": "https://dc.lft.to/lastmile_qr_scan"}, "lon": -77.02593666666667, "type": "electric_scooter"}, {"bike_id": "0b4c79cf2f16c85c9588cb6496f34ddd", "is_reserved": 0, "fusion_lon": 0.0, "lat": 38.902766166666666, "is_disabled": 0, "name": "0b4c79cf2f16c85c9588cb6496f34ddd", "fusion_lat": 0.0, "rental_uris": {"ios": "https://dc.lft.to/lastmile_qr_scan", "android": "https://dc.lft.to/lastmile_qr_scan"}, "lon": -77.06022316666666, "type": "electric_scooter"}, {"bike_id": "1ae391745943d652e0213102e8f764a4", "is_reserved": 0, "fusion_lon": 0.0, "lat": 38.90535666666667, "is_disabled": 0, "name": "1ae391745943d652e0213102e8f764a4", "fusion_lat": 0.0, "rental_uris": {"ios": "https://dc.lft.to/lastmile_qr_scan", "android": "https://dc.lft.to/lastmile_qr_scan"}, "lon": -77.050167, "type": "electric_scooter"}, {"bike_id": "e38ab7e5b98f211e835ec36cbf8412f5", "is_reserved": 0, "fusion_lon": 0.0, "lat": 38.923589666666665, "is_disabled": 0, "name": "e38ab7e5b98f211e835ec36cbf8412f5", "fusion_lat": 0.0, "rental_uris": {"ios": "https://dc.lft.to/lastmile_qr_scan", "android": "https://dc.lft.to/lastmile_qr_scan"}, "lon": -77.02055283333333, "type": "electric_scooter"}, {"bike_id": "ffeadad2841353d0a77fc73bf9ebc6b9", "is_reserved": 0, "fusion_lon": 0.0, "lat": 38.916439, "is_disabled": 0, "name": "ffeadad2841353d0a77fc73bf9ebc6b9", "fusion_lat": 0.0, "rental_uris": {"ios": "https://dc.lft.to/lastmile_qr_scan", "android": "https://dc.lft.to/lastmile_qr_scan"}, "lon": -77.0320875, "type": "electric_scooter"}, {"bike_id": "41da1d26acdf21dfb8d25ee2924429d2", "is_reserved": 0, "fusion_lon": 0.0, "lat": 38.93500383333333, "is_disabled": 0, "name": "41da1d26acdf21dfb8d25ee2924429d2", "fusion_lat": 0.0, "rental_uris": {"ios": "https://dc.lft.to/lastmile_qr_scan", "android": "https://dc.lft.to/lastmile_qr_scan"}, "lon": -77.02728316666666, "type": "electric_scooter"}, {"bike_id": "b6de38d8d635963a5a52386f7a4b5ca1", "is_reserved": 0, "fusion_lon": 0.0, "lat": 38.90956833333333, "is_disabled": 0, "name": "b6de38d8d635963a5a52386f7a4b5ca1", "fusion_lat": 0.0, "rental_uris": {"ios": "https://dc.lft.to/lastmile_qr_scan", "android": "https://dc.lft.to/lastmile_qr_scan"}, "lon": -77.024976, "type": "electric_scooter"}, {"bike_id": "1561c3df4886a28bdeb1d885141e1f49", "is_reserved": 0, "fusion_lon": 0.0, "lat": 38.8665425, "is_disabled": 0, "name": "1561c3df4886a28bdeb1d885141e1f49", "fusion_lat": 0.0, "rental_uris": {"ios": "https://dc.lft.to/lastmile_qr_scan", "android": "https://dc.lft.to/lastmile_qr_scan"}, "lon": -76.988859, "type": "electric_scooter"}, {"bike_id": "4e8376bb4c1ccec861f1ab31e5007d60", "is_reserved": 0, "fusion_lon": 0.0, "lat": 38.86208883333333, "is_disabled": 0, "name": "4e8376bb4c1ccec861f1ab31e5007d60", "fusion_lat": 0.0, "rental_uris": {"ios": "https://dc.lft.to/lastmile_qr_scan", "android": "https://dc.lft.to/lastmile_qr_scan"}, "lon": -76.9946995, "type": "electric_scooter"}, {"bike_id": "3b4a88f2c01e01c59eae4af0de404f7a", "is_reserved": 0, "fusion_lon": 0.0, "lat": 38.87848866666667, "is_disabled": 0, "name": "3b4a88f2c01e01c59eae4af0de404f7a", "fusion_lat": 0.0, "rental_uris": {"ios": "https://dc.lft.to/lastmile_qr_scan", "android": "https://dc.lft.to/lastmile_qr_scan"}, "lon": -77.01966516666667, "type": "electric_bike"}, {"bike_id": "49ed940d4949f5c2410d8f95dc02bf09", "is_reserved": 0, "fusion_lon": 0.0, "lat": 38.9397525, "is_disabled": 0, "name": "49ed940d4949f5c2410d8f95dc02bf09", "fusion_lat": 0.0, "rental_uris": {"ios": "https://dc.lft.to/lastmile_qr_scan", "android": "https://dc.lft.to/lastmile_qr_scan"}, "lon": -77.03594566666666, "type": "electric_scooter"}, {"bike_id": "4d7ea716d13bd3222c6e749036f48c63", "is_reserved": 0, "fusion_lon": 0.0, "lat": 38.942079166666666, "is_disabled": 0, "name": "4d7ea716d13bd3222c6e749036f48c63", "fusion_lat": 0.0, "rental_uris": {"ios": "https://dc.lft.to/lastmile_qr_scan", "android": "https://dc.lft.to/lastmile_qr_scan"}, "lon": -77.01827283333333, "type": "electric_bike"}, {"bike_id": "ebe8681d4311e9f79597d07304b44074", "is_reserved": 0, "fusion_lon": 0.0, "lat": 38.903597166666664, "is_disabled": 0, "name": "ebe8681d4311e9f79597d07304b44074", "fusion_lat": 0.0, "rental_uris": {"ios": "https://dc.lft.to/lastmile_qr_scan", "android": "https://dc.lft.to/lastmile_qr_scan"}, "lon": -77.042546, "type": "electric_scooter"}, {"bike_id": "671d39ece5f5eeec7ba166f989917217", "is_reserved": 0, "fusion_lon": 0.0, "lat": 38.894778, "is_disabled": 0, "name": "671d39ece5f5eeec7ba166f989917217", "fusion_lat": 0.0, "rental_uris": {"ios": "https://dc.lft.to/lastmile_qr_scan", "android": "https://dc.lft.to/lastmile_qr_scan"}, "lon": -77.050039, "type": "electric_scooter"}, {"bike_id": "0209522ca8eb0210e09a4d46adcc814f", "is_reserved": 0, "fusion_lon": 0.0, "lat": 38.90347966666667, "is_disabled": 0, "name": "0209522ca8eb0210e09a4d46adcc814f", "fusion_lat": 0.0, "rental_uris": {"ios": "https://dc.lft.to/lastmile_qr_scan", "android": "https://dc.lft.to/lastmile_qr_scan"}, "lon": -77.0389975, "type": "electric_scooter"}, {"bike_id": "990078af625d9266ca8d2373a3df69b0", "is_reserved": 0, "fusion_lon": 0.0, "lat": 38.90086383333333, "is_disabled": 0, "name": "990078af625d9266ca8d2373a3df69b0", "fusion_lat": 0.0, "rental_uris": {"ios": "https://dc.lft.to/lastmile_qr_scan", "android": "https://dc.lft.to/lastmile_qr_scan"}, "lon": -77.050543, "type": "electric_scooter"}, {"bike_id": "6042f95998a267d15fafa7ba15d17c9f", "is_reserved": 0, "fusion_lon": 0.0, "lat": 38.886426, "is_disabled": 0, "name": "6042f95998a267d15fafa7ba15d17c9f", "fusion_lat": 0.0, "rental_uris": {"ios": "https://dc.lft.to/lastmile_qr_scan", "android": "https://dc.lft.to/lastmile_qr_scan"}, "lon": -77.02135483333333, "type": "electric_scooter"}, {"bike_id": "a73272d08e0bc854148c5e8503c15a08", "is_reserved": 0, "fusion_lon": 0.0, "lat": 38.9199905, "is_disabled": 0, "name": "a73272d08e0bc854148c5e8503c15a08", "fusion_lat": 0.0, "rental_uris": {"ios": "https://dc.lft.to/lastmile_qr_scan", "android": "https://dc.lft.to/lastmile_qr_scan"}, "lon": -76.97305783333333, "type": "electric_scooter"}, {"bike_id": "eaffbb64c652cb476421beca79f64b05", "is_reserved": 0, "fusion_lon": 0.0, "lat": 38.91099633333333, "is_disabled": 0, "name": "eaffbb64c652cb476421beca79f64b05", "fusion_lat": 0.0, "rental_uris": {"ios": "https://dc.lft.to/lastmile_qr_scan", "android": "https://dc.lft.to/lastmile_qr_scan"}, "lon": -76.99711733333334, "type": "electric_scooter"}, {"bike_id": "6a38d4cd2650106a6e4e4fecb6a0fdb7", "is_reserved": 0, "fusion_lon": 0.0, "lat": 38.919830166666664, "is_disabled": 0, "name": "6a38d4cd2650106a6e4e4fecb6a0fdb7", "fusion_lat": 0.0, "rental_uris": {"ios": "https://dc.lft.to/lastmile_qr_scan", "android": "https://dc.lft.to/lastmile_qr_scan"}, "lon": -77.04180816666667, "type": "electric_scooter"}, {"bike_id": "2656053bb3e207944ef091f9b71a18c0", "is_reserved": 0, "fusion_lon": 0.0, "lat": 38.9103195, "is_disabled": 0, "name": "2656053bb3e207944ef091f9b71a18c0", "fusion_lat": 0.0, "rental_uris": {"ios": "https://dc.lft.to/lastmile_qr_scan", "android": "https://dc.lft.to/lastmile_qr_scan"}, "lon": -77.02202733333333, "type": "electric_scooter"}, {"bike_id": "2830ad28765a96588013fe035120aa69", "is_reserved": 0, "fusion_lon": 0.0, "lat": 38.82053166666667, "is_disabled": 0, "name": "2830ad28765a96588013fe035120aa69", "fusion_lat": 0.0, "rental_uris": {"ios": "https://dc.lft.to/lastmile_qr_scan", "android": "https://dc.lft.to/lastmile_qr_scan"}, "lon": -77.05309233333334, "type": "electric_bike"}, {"bike_id": "b62c261b2d43d9e22c9adf338d6de50e", "is_reserved": 0, "fusion_lon": 0.0, "lat": 38.9507215, "is_disabled": 0, "name": "b62c261b2d43d9e22c9adf338d6de50e", "fusion_lat": 0.0, "rental_uris": {"ios": "https://dc.lft.to/lastmile_qr_scan", "android": "https://dc.lft.to/lastmile_qr_scan"}, "lon": -77.0120015, "type": "electric_bike"}, {"bike_id": "1385a1a23ec648980ae6745f96291881", "is_reserved": 0, "fusion_lon": 0.0, "lat": 38.917184, "is_disabled": 0, "name": "1385a1a23ec648980ae6745f96291881", "fusion_lat": 0.0, "rental_uris": {"ios": "https://dc.lft.to/lastmile_qr_scan", "android": "https://dc.lft.to/lastmile_qr_scan"}, "lon": -77.023958, "type": "electric_scooter"}, {"bike_id": "e65d6f4bde2fd62ffaeff85fda270c36", "is_reserved": 0, "fusion_lon": 0.0, "lat": 38.917620166666666, "is_disabled": 0, "name": "e65d6f4bde2fd62ffaeff85fda270c36", "fusion_lat": 0.0, "rental_uris": {"ios": "https://dc.lft.to/lastmile_qr_scan", "android": "https://dc.lft.to/lastmile_qr_scan"}, "lon": -77.02202533333333, "type": "electric_scooter"}, {"bike_id": "d595f0e618364606423f926cfedacf5d", "is_reserved": 0, "fusion_lon": 0.0, "lat": 38.82876983333333, "is_disabled": 0, "name": "d595f0e618364606423f926cfedacf5d", "fusion_lat": 0.0, "rental_uris": {"ios": "https://dc.lft.to/lastmile_qr_scan", "android": "https://dc.lft.to/lastmile_qr_scan"}, "lon": -77.1122215, "type": "electric_bike"}, {"bike_id": "847eb46ec28cd6959665d654e040269b", "is_reserved": 0, "fusion_lon": 0.0, "lat": 38.9078765, "is_disabled": 0, "name": "847eb46ec28cd6959665d654e040269b", "fusion_lat": 0.0, "rental_uris": {"ios": "https://dc.lft.to/lastmile_qr_scan", "android": "https://dc.lft.to/lastmile_qr_scan"}, "lon": -77.031995, "type": "electric_scooter"}, {"bike_id": "0bd15d801696dfc016cfa01cebe6d460", "is_reserved": 0, "fusion_lon": 0.0, "lat": 38.903174166666666, "is_disabled": 0, "name": "0bd15d801696dfc016cfa01cebe6d460", "fusion_lat": 0.0, "rental_uris": {"ios": "https://dc.lft.to/lastmile_qr_scan", "android": "https://dc.lft.to/lastmile_qr_scan"}, "lon": -77.04344816666666, "type": "electric_scooter"}, {"bike_id": "015c52d003deac8b155a8171002f40f1", "is_reserved": 0, "fusion_lon": 0.0, "lat": 38.90025416666667, "is_disabled": 0, "name": "015c52d003deac8b155a8171002f40f1", "fusion_lat": 0.0, "rental_uris": {"ios": "https://dc.lft.to/lastmile_qr_scan", "android": "https://dc.lft.to/lastmile_qr_scan"}, "lon": -77.01197483333333, "type": "electric_scooter"}, {"bike_id": "78b374e363f932b0842d251c0204e824", "is_reserved": 0, "fusion_lon": 0.0, "lat": 38.90548166666667, "is_disabled": 0, "name": "78b374e363f932b0842d251c0204e824", "fusion_lat": 0.0, "rental_uris": {"ios": "https://dc.lft.to/lastmile_qr_scan", "android": "https://dc.lft.to/lastmile_qr_scan"}, "lon": -77.039811, "type": "electric_scooter"}, {"bike_id": "8b1d6fd6d2f41d263b4035653f28abbd", "is_reserved": 0, "fusion_lon": 0.0, "lat": 38.91268316666667, "is_disabled": 0, "name": "8b1d6fd6d2f41d263b4035653f28abbd", "fusion_lat": 0.0, "rental_uris": {"ios": "https://dc.lft.to/lastmile_qr_scan", "android": "https://dc.lft.to/lastmile_qr_scan"}, "lon": -77.00278666666667, "type": "electric_scooter"}, {"bike_id": "013288ba2fade5de06a4010c8ac0b1bb", "is_reserved": 0, "fusion_lon": 0.0, "lat": 38.8840215, "is_disabled": 0, "name": "013288ba2fade5de06a4010c8ac0b1bb", "fusion_lat": 0.0, "rental_uris": {"ios": "https://dc.lft.to/lastmile_qr_scan", "android": "https://dc.lft.to/lastmile_qr_scan"}, "lon": -77.01536566666667, "type": "electric_scooter"}, {"bike_id": "84b9c062f7d576bc8c2cc1609b2b1105", "is_reserved": 0, "fusion_lon": 0.0, "lat": 38.92238716666667, "is_disabled": 0, "name": "84b9c062f7d576bc8c2cc1609b2b1105", "fusion_lat": 0.0, "rental_uris": {"ios": "https://dc.lft.to/lastmile_qr_scan", "android": "https://dc.lft.to/lastmile_qr_scan"}, "lon": -77.02717133333333, "type": "electric_scooter"}, {"bike_id": "c60650ad2fcebf852c5c9e06aaf079e8", "is_reserved": 0, "fusion_lon": 0.0, "lat": 38.8921675, "is_disabled": 0, "name": "c60650ad2fcebf852c5c9e06aaf079e8", "fusion_lat": 0.0, "rental_uris": {"ios": "https://dc.lft.to/lastmile_qr_scan", "android": "https://dc.lft.to/lastmile_qr_scan"}, "lon": -77.026295, "type": "electric_scooter"}, {"bike_id": "7f553e6dd626df97b2c632af894bbba1", "is_reserved": 0, "fusion_lon": 0.0, "lat": 38.93614683333333, "is_disabled": 0, "name": "7f553e6dd626df97b2c632af894bbba1", "fusion_lat": 0.0, "rental_uris": {"ios": "https://dc.lft.to/lastmile_qr_scan", "android": "https://dc.lft.to/lastmile_qr_scan"}, "lon": -77.058628, "type": "electric_scooter"}, {"bike_id": "7e1ec954ef8c3356a6b72e375a3505ea", "is_reserved": 0, "fusion_lon": 0.0, "lat": 38.99078516666667, "is_disabled": 0, "name": "7e1ec954ef8c3356a6b72e375a3505ea", "fusion_lat": 0.0, "rental_uris": {"ios": "https://dc.lft.to/lastmile_qr_scan", "android": "https://dc.lft.to/lastmile_qr_scan"}, "lon": -76.8746995, "type": "electric_bike"}, {"bike_id": "e40e7be4e96f72638f621c47e1198281", "is_reserved": 0, "fusion_lon": 0.0, "lat": 38.902524166666666, "is_disabled": 0, "name": "e40e7be4e96f72638f621c47e1198281", "fusion_lat": 0.0, "rental_uris": {"ios": "https://dc.lft.to/lastmile_qr_scan", "android": "https://dc.lft.to/lastmile_qr_scan"}, "lon": -77.02657183333334, "type": "electric_scooter"}, {"bike_id": "003a6830d6dfd626b3d11787a576cfc6", "is_reserved": 0, "fusion_lon": 0.0, "lat": 38.8922535, "is_disabled": 0, "name": "003a6830d6dfd626b3d11787a576cfc6", "fusion_lat": 0.0, "rental_uris": {"ios": "https://dc.lft.to/lastmile_qr_scan", "android": "https://dc.lft.to/lastmile_qr_scan"}, "lon": -77.024457, "type": "electric_scooter"}, {"bike_id": "f1cd380103f364aab98ae4ec57401175", "is_reserved": 0, "fusion_lon": 0.0, "lat": 38.90484333333333, "is_disabled": 0, "name": "f1cd380103f364aab98ae4ec57401175", "fusion_lat": 0.0, "rental_uris": {"ios": "https://dc.lft.to/lastmile_qr_scan", "android": "https://dc.lft.to/lastmile_qr_scan"}, "lon": -77.06019033333334, "type": "electric_scooter"}, {"bike_id": "6326f4c82be9afcfb37b7c9da7b44e9e", "is_reserved": 0, "fusion_lon": 0.0, "lat": 38.9060565, "is_disabled": 0, "name": "6326f4c82be9afcfb37b7c9da7b44e9e", "fusion_lat": 0.0, "rental_uris": {"ios": "https://dc.lft.to/lastmile_qr_scan", "android": "https://dc.lft.to/lastmile_qr_scan"}, "lon": -77.06296866666666, "type": "electric_scooter"}, {"bike_id": "bb9ea06bb957a6c49de1912cd14f53d6", "is_reserved": 0, "fusion_lon": 0.0, "lat": 38.89767033333333, "is_disabled": 0, "name": "bb9ea06bb957a6c49de1912cd14f53d6", "fusion_lat": 0.0, "rental_uris": {"ios": "https://dc.lft.to/lastmile_qr_scan", "android": "https://dc.lft.to/lastmile_qr_scan"}, "lon": -76.9856185, "type": "electric_scooter"}, {"bike_id": "f1013b95dd6efd81432cdf98ea01475f", "is_reserved": 0, "fusion_lon": 0.0, "lat": 38.887714833333334, "is_disabled": 0, "name": "f1013b95dd6efd81432cdf98ea01475f", "fusion_lat": 0.0, "rental_uris": {"ios": "https://dc.lft.to/lastmile_qr_scan", "android": "https://dc.lft.to/lastmile_qr_scan"}, "lon": -77.03010666666667, "type": "electric_scooter"}, {"bike_id": "ea0012e37f9972a86c1cc6917a0ebcfb", "is_reserved": 0, "fusion_lon": 0.0, "lat": 38.9096135, "is_disabled": 0, "name": "ea0012e37f9972a86c1cc6917a0ebcfb", "fusion_lat": 0.0, "rental_uris": {"ios": "https://dc.lft.to/lastmile_qr_scan", "android": "https://dc.lft.to/lastmile_qr_scan"}, "lon": -77.04861166666667, "type": "electric_scooter"}, {"bike_id": "b6c0d292b19c5aa17687967050b0f51d", "is_reserved": 0, "fusion_lon": 0.0, "lat": 38.85807783333333, "is_disabled": 0, "name": "b6c0d292b19c5aa17687967050b0f51d", "fusion_lat": 0.0, "rental_uris": {"ios": "https://dc.lft.to/lastmile_qr_scan", "android": "https://dc.lft.to/lastmile_qr_scan"}, "lon": -76.98655616666667, "type": "electric_scooter"}, {"bike_id": "b249681e9614dae1043eda4b14d639a1", "is_reserved": 0, "fusion_lon": 0.0, "lat": 38.8922655, "is_disabled": 0, "name": "b249681e9614dae1043eda4b14d639a1", "fusion_lat": 0.0, "rental_uris": {"ios": "https://dc.lft.to/lastmile_qr_scan", "android": "https://dc.lft.to/lastmile_qr_scan"}, "lon": -77.04649216666667, "type": "electric_scooter"}, {"bike_id": "875831d73276f424d002bc76c332da17", "is_reserved": 0, "fusion_lon": 0.0, "lat": 38.917111166666665, "is_disabled": 0, "name": "875831d73276f424d002bc76c332da17", "fusion_lat": 0.0, "rental_uris": {"ios": "https://dc.lft.to/lastmile_qr_scan", "android": "https://dc.lft.to/lastmile_qr_scan"}, "lon": -77.03498116666667, "type": "electric_scooter"}, {"bike_id": "35ef1e0579e8d6a63da775ed748eb0d5", "is_reserved": 0, "fusion_lon": 0.0, "lat": 38.89469716666667, "is_disabled": 0, "name": "35ef1e0579e8d6a63da775ed748eb0d5", "fusion_lat": 0.0, "rental_uris": {"ios": "https://dc.lft.to/lastmile_qr_scan", "android": "https://dc.lft.to/lastmile_qr_scan"}, "lon": -77.00068666666667, "type": "electric_scooter"}, {"bike_id": "5599b39fadbef8055f2dfbdb3aed1275", "is_reserved": 0, "fusion_lon": 0.0, "lat": 38.90242083333333, "is_disabled": 0, "name": "5599b39fadbef8055f2dfbdb3aed1275", "fusion_lat": 0.0, "rental_uris": {"ios": "https://dc.lft.to/lastmile_qr_scan", "android": "https://dc.lft.to/lastmile_qr_scan"}, "lon": -77.00203466666666, "type": "electric_scooter"}, {"bike_id": "6e142cefc041780dcc58675022c926ab", "is_reserved": 0, "fusion_lon": 0.0, "lat": 38.904246, "is_disabled": 0, "name": "6e142cefc041780dcc58675022c926ab", "fusion_lat": 0.0, "rental_uris": {"ios": "https://dc.lft.to/lastmile_qr_scan", "android": "https://dc.lft.to/lastmile_qr_scan"}, "lon": -77.04373066666666, "type": "electric_scooter"}, {"bike_id": "2d77011c0f6a13b00647cc30b9295fea", "is_reserved": 0, "fusion_lon": 0.0, "lat": 38.92579033333333, "is_disabled": 0, "name": "2d77011c0f6a13b00647cc30b9295fea", "fusion_lat": 0.0, "rental_uris": {"ios": "https://dc.lft.to/lastmile_qr_scan", "android": "https://dc.lft.to/lastmile_qr_scan"}, "lon": -77.05765166666667, "type": "electric_scooter"}, {"bike_id": "ff370720795b2a5cb6fa098df8a5c1f2", "is_reserved": 0, "fusion_lon": 0.0, "lat": 38.884350166666664, "is_disabled": 0, "name": "ff370720795b2a5cb6fa098df8a5c1f2", "fusion_lat": 0.0, "rental_uris": {"ios": "https://dc.lft.to/lastmile_qr_scan", "android": "https://dc.lft.to/lastmile_qr_scan"}, "lon": -77.03041466666667, "type": "electric_scooter"}, {"bike_id": "5a20f328baf38526f81606fb570aefc6", "is_reserved": 0, "fusion_lon": 0.0, "lat": 38.919268, "is_disabled": 0, "name": "5a20f328baf38526f81606fb570aefc6", "fusion_lat": 0.0, "rental_uris": {"ios": "https://dc.lft.to/lastmile_qr_scan", "android": "https://dc.lft.to/lastmile_qr_scan"}, "lon": -77.03392033333333, "type": "electric_scooter"}, {"bike_id": "cffc3a82b13d0ee6e88a5471a50def75", "is_reserved": 0, "fusion_lon": 0.0, "lat": 38.90175, "is_disabled": 0, "name": "cffc3a82b13d0ee6e88a5471a50def75", "fusion_lat": 0.0, "rental_uris": {"ios": "https://dc.lft.to/lastmile_qr_scan", "android": "https://dc.lft.to/lastmile_qr_scan"}, "lon": -77.0000835, "type": "electric_scooter"}, {"bike_id": "6f37ea614752d01aa4e2777c29dffefb", "is_reserved": 0, "fusion_lon": 0.0, "lat": 38.864202, "is_disabled": 0, "name": "6f37ea614752d01aa4e2777c29dffefb", "fusion_lat": 0.0, "rental_uris": {"ios": "https://dc.lft.to/lastmile_qr_scan", "android": "https://dc.lft.to/lastmile_qr_scan"}, "lon": -77.01351366666667, "type": "electric_scooter"}, {"bike_id": "3002e02111d0ac2f72cde6424cde58ac", "is_reserved": 0, "fusion_lon": 0.0, "lat": 38.84427216666667, "is_disabled": 0, "name": "3002e02111d0ac2f72cde6424cde58ac", "fusion_lat": 0.0, "rental_uris": {"ios": "https://dc.lft.to/lastmile_qr_scan", "android": "https://dc.lft.to/lastmile_qr_scan"}, "lon": -76.9978095, "type": "electric_scooter"}, {"bike_id": "9bb348c32d93ebe07e9eba70b8b29a92", "is_reserved": 0, "fusion_lon": 0.0, "lat": 38.869239666666665, "is_disabled": 0, "name": "9bb348c32d93ebe07e9eba70b8b29a92", "fusion_lat": 0.0, "rental_uris": {"ios": "https://dc.lft.to/lastmile_qr_scan", "android": "https://dc.lft.to/lastmile_qr_scan"}, "lon": -76.983029, "type": "electric_scooter"}, {"bike_id": "64db92c158ccf9a65d8eb31367166a19", "is_reserved": 0, "fusion_lon": 0.0, "lat": 38.885057, "is_disabled": 0, "name": "64db92c158ccf9a65d8eb31367166a19", "fusion_lat": 0.0, "rental_uris": {"ios": "https://dc.lft.to/lastmile_qr_scan", "android": "https://dc.lft.to/lastmile_qr_scan"}, "lon": -77.0056625, "type": "electric_scooter"}, {"bike_id": "b3cec932013936b6eea057c182e05572", "is_reserved": 0, "fusion_lon": 0.0, "lat": 38.9037635, "is_disabled": 0, "name": "b3cec932013936b6eea057c182e05572", "fusion_lat": 0.0, "rental_uris": {"ios": "https://dc.lft.to/lastmile_qr_scan", "android": "https://dc.lft.to/lastmile_qr_scan"}, "lon": -77.02999033333333, "type": "electric_scooter"}, {"bike_id": "79566a10476e9adc74a6617381c869c7", "is_reserved": 0, "fusion_lon": 0.0, "lat": 38.872156333333336, "is_disabled": 0, "name": "79566a10476e9adc74a6617381c869c7", "fusion_lat": 0.0, "rental_uris": {"ios": "https://dc.lft.to/lastmile_qr_scan", "android": "https://dc.lft.to/lastmile_qr_scan"}, "lon": -77.00571566666666, "type": "electric_scooter"}, {"bike_id": "9cd1aca6785a8bfc7f104f96742f4c18", "is_reserved": 0, "fusion_lon": 0.0, "lat": 38.93982783333333, "is_disabled": 0, "name": "9cd1aca6785a8bfc7f104f96742f4c18", "fusion_lat": 0.0, "rental_uris": {"ios": "https://dc.lft.to/lastmile_qr_scan", "android": "https://dc.lft.to/lastmile_qr_scan"}, "lon": -77.03693466666667, "type": "electric_scooter"}, {"bike_id": "f9978f63fed44c1d49ee6fba0feba59c", "is_reserved": 0, "fusion_lon": 0.0, "lat": 38.91150016666667, "is_disabled": 0, "name": "f9978f63fed44c1d49ee6fba0feba59c", "fusion_lat": 0.0, "rental_uris": {"ios": "https://dc.lft.to/lastmile_qr_scan", "android": "https://dc.lft.to/lastmile_qr_scan"}, "lon": -77.01971733333333, "type": "electric_scooter"}, {"bike_id": "38834b2c97cca1912705bd058f428810", "is_reserved": 0, "fusion_lon": 0.0, "lat": 38.885346, "is_disabled": 0, "name": "38834b2c97cca1912705bd058f428810", "fusion_lat": 0.0, "rental_uris": {"ios": "https://dc.lft.to/lastmile_qr_scan", "android": "https://dc.lft.to/lastmile_qr_scan"}, "lon": -76.99830483333334, "type": "electric_scooter"}, {"bike_id": "e3a6fc0dea803d7d6f54b9bcd920cce1", "is_reserved": 0, "fusion_lon": 0.0, "lat": 38.86657666666667, "is_disabled": 0, "name": "e3a6fc0dea803d7d6f54b9bcd920cce1", "fusion_lat": 0.0, "rental_uris": {"ios": "https://dc.lft.to/lastmile_qr_scan", "android": "https://dc.lft.to/lastmile_qr_scan"}, "lon": -76.98882133333333, "type": "electric_scooter"}, {"bike_id": "7f73c3de8f4c7f8445f441236eb0b87d", "is_reserved": 0, "fusion_lon": 0.0, "lat": 38.90335016666667, "is_disabled": 0, "name": "7f73c3de8f4c7f8445f441236eb0b87d", "fusion_lat": 0.0, "rental_uris": {"ios": "https://dc.lft.to/lastmile_qr_scan", "android": "https://dc.lft.to/lastmile_qr_scan"}, "lon": -77.04332016666666, "type": "electric_scooter"}, {"bike_id": "8520b2405a30c78322bbfc9f819c5727", "is_reserved": 0, "fusion_lon": 0.0, "lat": 38.911817, "is_disabled": 0, "name": "8520b2405a30c78322bbfc9f819c5727", "fusion_lat": 0.0, "rental_uris": {"ios": "https://dc.lft.to/lastmile_qr_scan", "android": "https://dc.lft.to/lastmile_qr_scan"}, "lon": -77.06830683333334, "type": "electric_scooter"}, {"bike_id": "8cd421649806baf4a9742b71579734a1", "is_reserved": 0, "fusion_lon": 0.0, "lat": 38.921155166666665, "is_disabled": 0, "name": "8cd421649806baf4a9742b71579734a1", "fusion_lat": 0.0, "rental_uris": {"ios": "https://dc.lft.to/lastmile_qr_scan", "android": "https://dc.lft.to/lastmile_qr_scan"}, "lon": -77.04586066666667, "type": "electric_scooter"}, {"bike_id": "46b9faf38b7f05e164427bcc6be5d388", "is_reserved": 0, "fusion_lon": 0.0, "lat": 38.92231483333333, "is_disabled": 0, "name": "46b9faf38b7f05e164427bcc6be5d388", "fusion_lat": 0.0, "rental_uris": {"ios": "https://dc.lft.to/lastmile_qr_scan", "android": "https://dc.lft.to/lastmile_qr_scan"}, "lon": -77.043412, "type": "electric_bike"}, {"bike_id": "ae66ed4817876cd20a10dc3a1e395ac5", "is_reserved": 0, "fusion_lon": 0.0, "lat": 38.921280833333334, "is_disabled": 0, "name": "ae66ed4817876cd20a10dc3a1e395ac5", "fusion_lat": 0.0, "rental_uris": {"ios": "https://dc.lft.to/lastmile_qr_scan", "android": "https://dc.lft.to/lastmile_qr_scan"}, "lon": -77.04589666666666, "type": "electric_scooter"}, {"bike_id": "8d42fb878fb7b230704d78c1f56791e8", "is_reserved": 0, "fusion_lon": 0.0, "lat": 38.94832066666667, "is_disabled": 0, "name": "8d42fb878fb7b230704d78c1f56791e8", "fusion_lat": 0.0, "rental_uris": {"ios": "https://dc.lft.to/lastmile_qr_scan", "android": "https://dc.lft.to/lastmile_qr_scan"}, "lon": -77.02436383333334, "type": "electric_scooter"}, {"bike_id": "63622efec2eda6ca56304ee8b59b9754", "is_reserved": 0, "fusion_lon": 0.0, "lat": 38.924091833333335, "is_disabled": 0, "name": "63622efec2eda6ca56304ee8b59b9754", "fusion_lat": 0.0, "rental_uris": {"ios": "https://dc.lft.to/lastmile_qr_scan", "android": "https://dc.lft.to/lastmile_qr_scan"}, "lon": -77.05253883333333, "type": "electric_scooter"}, {"bike_id": "ebccaae0e09146e6c15df5b7c1af619b", "is_reserved": 0, "fusion_lon": 0.0, "lat": 38.92985616666667, "is_disabled": 0, "name": "ebccaae0e09146e6c15df5b7c1af619b", "fusion_lat": 0.0, "rental_uris": {"ios": "https://dc.lft.to/lastmile_qr_scan", "android": "https://dc.lft.to/lastmile_qr_scan"}, "lon": -77.0325975, "type": "electric_scooter"}, {"bike_id": "367d78073a5039e562e51b621a0273cb", "is_reserved": 0, "fusion_lon": 0.0, "lat": 38.88434066666667, "is_disabled": 0, "name": "367d78073a5039e562e51b621a0273cb", "fusion_lat": 0.0, "rental_uris": {"ios": "https://dc.lft.to/lastmile_qr_scan", "android": "https://dc.lft.to/lastmile_qr_scan"}, "lon": -77.02390583333333, "type": "electric_scooter"}, {"bike_id": "5f00a32ed6d918ba6449a0237571af92", "is_reserved": 0, "fusion_lon": 0.0, "lat": 38.92317966666667, "is_disabled": 0, "name": "5f00a32ed6d918ba6449a0237571af92", "fusion_lat": 0.0, "rental_uris": {"ios": "https://dc.lft.to/lastmile_qr_scan", "android": "https://dc.lft.to/lastmile_qr_scan"}, "lon": -77.04008233333333, "type": "electric_scooter"}, {"bike_id": "f53d882ff185718d23808c1935bfcc67", "is_reserved": 0, "fusion_lon": 0.0, "lat": 38.923604, "is_disabled": 0, "name": "f53d882ff185718d23808c1935bfcc67", "fusion_lat": 0.0, "rental_uris": {"ios": "https://dc.lft.to/lastmile_qr_scan", "android": "https://dc.lft.to/lastmile_qr_scan"}, "lon": -77.05228466666667, "type": "electric_scooter"}, {"bike_id": "33863019bed16cdbaaa9969a392c7279", "is_reserved": 0, "fusion_lon": 0.0, "lat": 38.919318, "is_disabled": 0, "name": "33863019bed16cdbaaa9969a392c7279", "fusion_lat": 0.0, "rental_uris": {"ios": "https://dc.lft.to/lastmile_qr_scan", "android": "https://dc.lft.to/lastmile_qr_scan"}, "lon": -77.03427133333334, "type": "electric_scooter"}, {"bike_id": "29ddfed50fb6af525c169e6a8282a561", "is_reserved": 0, "fusion_lon": 0.0, "lat": 38.92854333333333, "is_disabled": 0, "name": "29ddfed50fb6af525c169e6a8282a561", "fusion_lat": 0.0, "rental_uris": {"ios": "https://dc.lft.to/lastmile_qr_scan", "android": "https://dc.lft.to/lastmile_qr_scan"}, "lon": -77.10676716666667, "type": "electric_bike"}, {"bike_id": "a37990c4c74f2d0247a6341fa5a8615a", "is_reserved": 0, "fusion_lon": 0.0, "lat": 38.906135, "is_disabled": 0, "name": "a37990c4c74f2d0247a6341fa5a8615a", "fusion_lat": 0.0, "rental_uris": {"ios": "https://dc.lft.to/lastmile_qr_scan", "android": "https://dc.lft.to/lastmile_qr_scan"}, "lon": -77.06519616666667, "type": "electric_scooter"}, {"bike_id": "f68c0fd2861242ab47d82bac1b2f76f1", "is_reserved": 0, "fusion_lon": 0.0, "lat": 38.907256333333336, "is_disabled": 0, "name": "f68c0fd2861242ab47d82bac1b2f76f1", "fusion_lat": 0.0, "rental_uris": {"ios": "https://dc.lft.to/lastmile_qr_scan", "android": "https://dc.lft.to/lastmile_qr_scan"}, "lon": -77.0391855, "type": "electric_scooter"}, {"bike_id": "7707b39c339178560e2787049b7edfe0", "is_reserved": 0, "fusion_lon": 0.0, "lat": 38.905440666666664, "is_disabled": 0, "name": "7707b39c339178560e2787049b7edfe0", "fusion_lat": 0.0, "rental_uris": {"ios": "https://dc.lft.to/lastmile_qr_scan", "android": "https://dc.lft.to/lastmile_qr_scan"}, "lon": -77.02212883333333, "type": "electric_scooter"}, {"bike_id": "dc971117f2e1bfd7af4bf165e6a5e8ba", "is_reserved": 0, "fusion_lon": 0.0, "lat": 38.92563666666667, "is_disabled": 0, "name": "dc971117f2e1bfd7af4bf165e6a5e8ba", "fusion_lat": 0.0, "rental_uris": {"ios": "https://dc.lft.to/lastmile_qr_scan", "android": "https://dc.lft.to/lastmile_qr_scan"}, "lon": -77.040563, "type": "electric_scooter"},