{"data": {"bikes": [{"fusion_lon": 0.0, "bike_id": "92cd156815d16efb3bfd3298f9686f2b", "name": "92cd156815d16efb3bfd3298f9686f2b", "type": "electric_scooter", "lon": -77.02403033333333, "rental_uris": {"android": "https://dc.lft.to/lastmile_qr_scan", "ios": "https://dc.lft.to/lastmile_qr_scan"}, "lat": 38.9310765, "is_reserved": 0, "is_disabled": 0, "fusion_lat": 0.0}, {"fusion_lon": 0.0, "bike_id": "03b873609b9e2a8b613c2e5c18b41c03", "name": "03b873609b9e2a8b613c2e5c18b41c03", "type": "electric_bike", "lon": -77.03988966666667, "rental_uris": {"android": "https://dc.lft.to/lastmile_qr_scan", "ios": "https://dc.lft.to/lastmile_qr_scan"}, "lat": 38.80297916666667, "is_reserved": 0, "is_disabled": 0, "fusion_lat": 0.0}, {"fusion_lon": 0.0, "bike_id": "ba8bbfac0a9c2b80ea0244a0f91485c5", "name": "ba8bbfac0a9c2b80ea0244a0f91485c5", "type": "electric_scooter", "lon": -77.04168733333333, "rental_uris": {"android": "https://dc.lft.to/lastmile_qr_scan", "ios": "https://dc.lft.to/lastmile_qr_scan"}, "lat": 38.90718783333333, "is_reserved": 0, "is_disabled": 0, "fusion_lat": 0.0}, {"fusion_lon": 0.0, "bike_id": "f16c3c25d6ddaf642d208b6eee19f6ce", "name": "f16c3c25d6ddaf642d208b6eee19f6ce", "type": "electric_scooter", "lon": -77.00160116666666, "rental_uris": {"android": "https://dc.lft.to/lastmile_qr_scan", "ios": "https://dc.lft.to/lastmile_qr_scan"}, "lat": 38.90729066666667, "is_reserved": 0, "is_disabled": 0, "fusion_lat": 0.0}, {"fusion_lon": 0.0, "bike_id": "4b72e7570a16778e4f460b8d86bf30d5", "name": "4b72e7570a16778e4f460b8d86bf30d5", "type": "electric_scooter", "lon": -76.98614216666667, "rental_uris": {"android": "https://dc.lft.to/lastmile_qr_scan", "ios": "https://dc.lft.to/lastmile_qr_scan"}, "lat": 38.8545985, "is_reserved": 0, "is_disabled": 0, "fusion_lat": 0.0}, {"fusion_lon": 0.0, "bike_id": "298549d30175de964b0ef207c8c982ce", "name": "298549d30175de964b0ef207c8c982ce", "type": "electric_scooter", "lon": -77.04562966666667, "rental_uris": {"android": "https://dc.lft.to/lastmile_qr_scan", "ios": "https://dc.lft.to/lastmile_qr_scan"}, "lat": 38.92070533333333, "is_reserved": 0, "is_disabled": 0, "fusion_lat": 0.0}, {"fusion_lon": 0.0, "bike_id": "0e042e702ab7f5a7550ae585f6d0199c", "name": "0e042e702ab7f5a7550ae585f6d0199c", "type": "electric_scooter", "lon": -77.00710616666667, "rental_uris": {"android": "https://dc.lft.to/lastmile_qr_scan", "ios": "https://dc.lft.to/lastmile_qr_scan"}, "lat": 38.88487533333333, "is_reserved": 0, "is_disabled": 0, "fusion_lat": 0.0}, {"fusion_lon": 0.0, "bike_id": "c4c3b90cd066eee834559fabe336fb68", "name": "c4c3b90cd066eee834559fabe336fb68", "type": "electric_scooter", "lon": -77.04892366666667, "rental_uris": {"android": "https://dc.lft.to/lastmile_qr_scan", "ios": "https://dc.lft.to/lastmile_qr_scan"}, "lat": 38.90362616666667, "is_reserved": 0, "is_disabled": 0, "fusion_lat": 0.0}, {"fusion_lon": 0.0, "bike_id": "f8d2387fdab4fce08da595dde3f90669", "name": "f8d2387fdab4fce08da595dde3f90669", "type": "electric_scooter", "lon": -76.97549633333334, "rental_uris": {"android": "https://dc.lft.to/lastmile_qr_scan", "ios": "https://dc.lft.to/lastmile_qr_scan"}, "lat": 38.902557333333334, "is_reserved": 0, "is_disabled": 0, "fusion_lat": 0.0}, {"fusion_lon": 0.0, "bike_id": "26eb6df8862ffe2c929ba564d1722811", "name": "26eb6df8862ffe2c929ba564d1722811", "type": "electric_scooter", "lon": -77.0157045, "rental_uris": {"android": "https://dc.lft.to/lastmile_qr_scan", "ios": "https://dc.lft.to/lastmile_qr_scan"}, "lat": 38.87250516666667, "is_reserved": 0, "is_disabled": 0, "fusion_lat": 0.0}, {"fusion_lon": 0.0, "bike_id": "76243c5a6b8f546cdf42ed877c8dd8ee", "name": "76243c5a6b8f546cdf42ed877c8dd8ee", "type": "electric_scooter", "lon": -77.03857633333334, "rental_uris": {"android": "https://dc.lft.to/lastmile_qr_scan", "ios": "https://dc.lft.to/lastmile_qr_scan"}, "lat": 38.911975, "is_reserved": 0, "is_disabled": 0, "fusion_lat": 0.0}, {"fusion_lon": 0.0, "bike_id": "4bd09ae378c4c2b82b9fa338edfb4fd2", "name": "4bd09ae378c4c2b82b9fa338edfb4fd2", "type": "electric_bike", "lon": -77.0269295, "rental_uris": {"android": "https://dc.lft.to/lastmile_qr_scan", "ios": "https://dc.lft.to/lastmile_qr_scan"}, "lat": 38.93726683333333, "is_reserved": 0, "is_disabled": 0, "fusion_lat": 0.0}, {"fusion_lon": 0.0, "bike_id": "51234cd51ba72b9c7ba023ed2f73b786", "name": "51234cd51ba72b9c7ba023ed2f73b786", "type": "electric_scooter", "lon": -77.052741, "rental_uris": {"android": "https://dc.lft.to/lastmile_qr_scan", "ios": "https://dc.lft.to/lastmile_qr_scan"}, "lat": 38.92552966666667, "is_reserved": 0, "is_disabled": 0, "fusion_lat": 0.0}, {"fusion_lon": 0.0, "bike_id": "e55f84a5ca20960a7f8007e1b2334952", "name": "e55f84a5ca20960a7f8007e1b2334952", "type": "electric_scooter", "lon": -77.02399166666666, "rental_uris": {"android": "https://dc.lft.to/lastmile_qr_scan", "ios": "https://dc.lft.to/lastmile_qr_scan"}, "lat": 38.907375, "is_reserved": 0, "is_disabled": 0, "fusion_lat": 0.0}, {"fusion_lon": 0.0, "bike_id": "389909c8666ddeaa871a38257a821c51", "name": "389909c8666ddeaa871a38257a821c51", "type": "electric_scooter", "lon": -77.0247805, "rental_uris": {"android": "https://dc.lft.to/lastmile_qr_scan", "ios": "https://dc.lft.to/lastmile_qr_scan"}, "lat": 38.916032, "is_reserved": 0, "is_disabled": 0, "fusion_lat": 0.0}, {"fusion_lon": 0.0, "bike_id": "7d1738d173743c4c6ab54aa900cedb22", "name": "7d1738d173743c4c6ab54aa900cedb22", "type": "electric_scooter", "lon": -77.080002, "rental_uris": {"android": "https://dc.lft.to/lastmile_qr_scan", "ios": "https://dc.lft.to/lastmile_qr_scan"}, "lat": 38.923656666666666, "is_reserved": 0, "is_disabled": 0, "fusion_lat": 0.0}, {"fusion_lon": 0.0, "bike_id": "e2299a91358b078511d7a6b39e988ea1", "name": "e2299a91358b078511d7a6b39e988ea1", "type": "electric_scooter", "lon": -77.05096466666667, "rental_uris": {"android": "https://dc.lft.to/lastmile_qr_scan", "ios": "https://dc.lft.to/lastmile_qr_scan"}, "lat": 38.92340683333333, "is_reserved": 0, "is_disabled": 0, "fusion_lat": 0.0}, {"fusion_lon": 0.0, "bike_id": "dea65d140ac033f4ce83bdef00441900", "name": "dea65d140ac033f4ce83bdef00441900", "type": "electric_bike", "lon": -77.01301166666667, "rental_uris": {"android": "https://dc.lft.to/lastmile_qr_scan", "ios": "https://dc.lft.to/lastmile_qr_scan"}, "lat": 38.881367166666664, "is_reserved": 0, "is_disabled": 0, "fusion_lat": 0.0}, {"fusion_lon": 0.0, "bike_id": "936d169b5fb495df3ae9851d3868795e", "name": "936d169b5fb495df3ae9851d3868795e", "type": "electric_scooter", "lon": -77.03847483333334, "rental_uris": {"android": "https://dc.lft.to/lastmile_qr_scan", "ios": "https://dc.lft.to/lastmile_qr_scan"}, "lat": 38.91005783333333, "is_reserved": 0, "is_disabled": 0, "fusion_lat": 0.0}, {"fusion_lon": 0.0, "bike_id": "0d1a13e7df237f92ba3bf97d796f425f", "name": "0d1a13e7df237f92ba3bf97d796f425f", "type": "electric_scooter", "lon": -77.040139, "rental_uris": {"android": "https://dc.lft.to/lastmile_qr_scan", "ios": "https://dc.lft.to/lastmile_qr_scan"}, "lat": 38.92198883333333, "is_reserved": 0, "is_disabled": 0, "fusion_lat": 0.0}, {"fusion_lon": 0.0, "bike_id": "c9f7fb4988f334d5a8209d2d7f9cc5e5", "name": "c9f7fb4988f334d5a8209d2d7f9cc5e5", "type": "electric_scooter", "lon": -77.04663033333334, "rental_uris": {"android": "https://dc.lft.to/lastmile_qr_scan", "ios": "https://dc.lft.to/lastmile_qr_scan"}, "lat": 38.9035715, "is_reserved": 0, "is_disabled": 0, "fusion_lat": 0.0}, {"fusion_lon": 0.0, "bike_id": "c0b0e2af25f07a58969cc93a2beb710b", "name": "c0b0e2af25f07a58969cc93a2beb710b", "type": "electric_scooter", "lon": -77.00861633333334, "rental_uris": {"android": "https://dc.lft.to/lastmile_qr_scan", "ios": "https://dc.lft.to/lastmile_qr_scan"}, "lat": 38.90653183333333, "is_reserved": 0, "is_disabled": 0, "fusion_lat": 0.0}, {"fusion_lon": 0.0, "bike_id": "699cf88fd6f8d24adacbb1a77eef2ad9", "name": "699cf88fd6f8d24adacbb1a77eef2ad9", "type": "electric_scooter", "lon": -77.0262745, "rental_uris": {"android": "https://dc.lft.to/lastmile_qr_scan", "ios": "https://dc.lft.to/lastmile_qr_scan"}, "lat": 38.932712333333335, "is_reserved": 0, "is_disabled": 0, "fusion_lat": 0.0}, {"fusion_lon": 0.0, "bike_id": "3c4142b67374c066fd777092c95b28de", "name": "3c4142b67374c066fd777092c95b28de", "type": "electric_scooter", "lon": -76.99480416666667, "rental_uris": {"android": "https://dc.lft.to/lastmile_qr_scan", "ios": "https://dc.lft.to/lastmile_qr_scan"}, "lat": 38.8621515, "is_reserved": 0, "is_disabled": 0, "fusion_lat": 0.0}, {"fusion_lon": 0.0, "bike_id": "5a0df2614e7647ce6cbbf166ff92e753", "name": "5a0df2614e7647ce6cbbf166ff92e753", "type": "electric_scooter", "lon": -77.02438083333334, "rental_uris": {"android": "https://dc.lft.to/lastmile_qr_scan", "ios": "https://dc.lft.to/lastmile_qr_scan"}, "lat": 38.92373683333334, "is_reserved": 0, "is_disabled": 0, "fusion_lat": 0.0}, {"fusion_lon": 0.0, "bike_id": "54673b3ea2f34701a91532c7c301cc85", "name": "54673b3ea2f34701a91532c7c301cc85", "type": "electric_bike", "lon": -76.973291, "rental_uris": {"android": "https://dc.lft.to/lastmile_qr_scan", "ios": "https://dc.lft.to/lastmile_qr_scan"}, "lat": 38.850645666666665, "is_reserved": 0, "is_disabled": 0, "fusion_lat": 0.0}, {"fusion_lon": 0.0, "bike_id": "b423f8f02cd7e1d3d4e3daa3fe835e6e", "name": "b423f8f02cd7e1d3d4e3daa3fe835e6e", "type": "electric_scooter", "lon": -77.0351965, "rental_uris": {"android": "https://dc.lft.to/lastmile_qr_scan", "ios": "https://dc.lft.to/lastmile_qr_scan"}, "lat": 38.92337166666667, "is_reserved": 0, "is_disabled": 0, "fusion_lat": 0.0}, {"fusion_lon": 0.0, "bike_id": "e5dd478c08d715dcc56f9a19d2a8633f", "name": "e5dd478c08d715dcc56f9a19d2a8633f", "type": "electric_bike", "lon": -77.11438966666667, "rental_uris": {"android": "https://dc.lft.to/lastmile_qr_scan", "ios": "https://dc.lft.to/lastmile_qr_scan"}, "lat": 38.842955, "is_reserved": 0, "is_disabled": 0, "fusion_lat": 0.0}, {"fusion_lon": 0.0, "bike_id": "ae07f2d1f2ef2e0e6c541e106162009b", "name": "ae07f2d1f2ef2e0e6c541e106162009b", "type": "electric_scooter", "lon": -77.03294116666666, "rental_uris": {"android": "https://dc.lft.to/lastmile_qr_scan", "ios": "https://dc.lft.to/lastmile_qr_scan"}, "lat": 38.9225115, "is_reserved": 0, "is_disabled": 0, "fusion_lat": 0.0}, {"fusion_lon": 0.0, "bike_id": "8e2db6e92e1daa6684b5a68a983b358c", "name": "8e2db6e92e1daa6684b5a68a983b358c", "type": "electric_bike", "lon": -77.0616935, "rental_uris": {"android": "https://dc.lft.to/lastmile_qr_scan", "ios": "https://dc.lft.to/lastmile_qr_scan"}, "lat": 38.81269666666667, "is_reserved": 0, "is_disabled": 0, "fusion_lat": 0.0}, {"fusion_lon": 0.0, "bike_id": "28d24eea716fbbce296dadc4b10312df", "name": "28d24eea716fbbce296dadc4b10312df", "type": "electric_bike", "lon": -76.94472983333333, "rental_uris": {"android": "https://dc.lft.to/lastmile_qr_scan", "ios": "https://dc.lft.to/lastmile_qr_scan"}, "lat": 38.9456155, "is_reserved": 0, "is_disabled": 0, "fusion_lat": 0.0}, {"fusion_lon": 0.0, "bike_id": "9d367a61cdadf34d9acdc296b1f03a1a", "name": "9d367a61cdadf34d9acdc296b1f03a1a", "type": "electric_scooter", "lon": -77.01012183333333, "rental_uris": {"android": "https://dc.lft.to/lastmile_qr_scan", "ios": "https://dc.lft.to/lastmile_qr_scan"}, "lat": 38.87964633333333, "is_reserved": 0, "is_disabled": 0, "fusion_lat": 0.0}, {"fusion_lon": 0.0, "bike_id": "04962175e4bd7f279ad13af06a307c39", "name": "04962175e4bd7f279ad13af06a307c39", "type": "electric_scooter", "lon": -77.041996, "rental_uris": {"android": "https://dc.lft.to/lastmile_qr_scan", "ios": "https://dc.lft.to/lastmile_qr_scan"}, "lat": 38.91872633333333, "is_reserved": 0, "is_disabled": 0, "fusion_lat": 0.0}, {"fusion_lon": 0.0, "bike_id": "f0f8914fba90f7abd28bb289a0ef6ce2", "name": "f0f8914fba90f7abd28bb289a0ef6ce2", "type": "electric_bike", "lon": -77.079004, "rental_uris": {"android": "https://dc.lft.to/lastmile_qr_scan", "ios": "https://dc.lft.to/lastmile_qr_scan"}, "lat": 38.839354666666665, "is_reserved": 0, "is_disabled": 0, "fusion_lat": 0.0}, {"fusion_lon": 0.0, "bike_id": "d6146ebe88d063ae90933f0c866b28f4", "name": "d6146ebe88d063ae90933f0c866b28f4", "type": "electric_scooter", "lon": -77.03397666666666, "rental_uris": {"android": "https://dc.lft.to/lastmile_qr_scan", "ios": "https://dc.lft.to/lastmile_qr_scan"}, "lat": 38.919671, "is_reserved": 0, "is_disabled": 0, "fusion_lat": 0.0}, {"fusion_lon": 0.0, "bike_id": "2d3eba8658df0bb72c232fa6cb11c41d", "name": "2d3eba8658df0bb72c232fa6cb11c41d", "type": "electric_scooter", "lon": -77.02278783333334, "rental_uris": {"android": "https://dc.lft.to/lastmile_qr_scan", "ios": "https://dc.lft.to/lastmile_qr_scan"}, "lat": 38.917427333333336, "is_reserved": 0, "is_disabled": 0, "fusion_lat": 0.0}, {"fusion_lon": 0.0, "bike_id": "edff9e5b9e3ea0176d5b07541074b444", "name": "edff9e5b9e3ea0176d5b07541074b444", "type": "electric_scooter", "lon": -77.00874416666667, "rental_uris": {"android": "https://dc.lft.to/lastmile_qr_scan", "ios": "https://dc.lft.to/lastmile_qr_scan"}, "lat": 38.9057015, "is_reserved": 0, "is_disabled": 0, "fusion_lat": 0.0}, {"fusion_lon": 0.0, "bike_id": "2fcf67b1ae1ff4aa1bb5e74379da3287", "name": "2fcf67b1ae1ff4aa1bb5e74379da3287", "type": "electric_scooter", "lon": -77.0255035, "rental_uris": {"android": "https://dc.lft.to/lastmile_qr_scan", "ios": "https://dc.lft.to/lastmile_qr_scan"}, "lat": 38.907236166666664, "is_reserved": 0, "is_disabled": 0, "fusion_lat": 0.0}, {"fusion_lon": 0.0, "bike_id": "e0e643e1aa513626a1e557318a597795", "name": "e0e643e1aa513626a1e557318a597795", "type": "electric_scooter", "lon": -76.98331916666666, "rental_uris": {"android": "https://dc.lft.to/lastmile_qr_scan", "ios": "https://dc.lft.to/lastmile_qr_scan"}, "lat": 38.88983366666667, "is_reserved": 0, "is_disabled": 0, "fusion_lat": 0.0}, {"fusion_lon": 0.0, "bike_id": "78a93a813583e6f5efad845873e70664", "name": "78a93a813583e6f5efad845873e70664", "type": "electric_scooter", "lon": -77.02761383333333, "rental_uris": {"android": "https://dc.lft.to/lastmile_qr_scan", "ios": "https://dc.lft.to/lastmile_qr_scan"}, "lat": 38.92577466666667, "is_reserved": 0, "is_disabled": 0, "fusion_lat": 0.0}, {"fusion_lon": 0.0, "bike_id": "bcfe15f3e52a681df46e5daa05302040", "name": "bcfe15f3e52a681df46e5daa05302040", "type": "electric_bike", "lon": -77.00672133333333, "rental_uris": {"android": "https://dc.lft.to/lastmile_qr_scan", "ios": "https://dc.lft.to/lastmile_qr_scan"}, "lat": 38.945103, "is_reserved": 0, "is_disabled": 0, "fusion_lat": 0.0}, {"fusion_lon": 0.0, "bike_id": "6f2ab3444dd0427115960418a8a99a7f", "name": "6f2ab3444dd0427115960418a8a99a7f", "type": "electric_scooter", "lon": -77.07244683333333, "rental_uris": {"android": "https://dc.lft.to/lastmile_qr_scan", "ios": "https://dc.lft.to/lastmile_qr_scan"}, "lat": 38.907786333333334, "is_reserved": 0, "is_disabled": 0, "fusion_lat": 0.0}, {"fusion_lon": 0.0, "bike_id": "32753d2399c317ef9e1910049f15995e", "name": "32753d2399c317ef9e1910049f15995e", "type": "electric_scooter", "lon": -77.0176265, "rental_uris": {"android": "https://dc.lft.to/lastmile_qr_scan", "ios": "https://dc.lft.to/lastmile_qr_scan"}, "lat": 38.9025995, "is_reserved": 0, "is_disabled": 0, "fusion_lat": 0.0}, {"fusion_lon": 0.0, "bike_id": "e83e419cd2e6fd39660430f881ee9d23", "name": "e83e419cd2e6fd39660430f881ee9d23", "type": "electric_scooter", "lon": -77.02219616666666, "rental_uris": {"android": "https://dc.lft.to/lastmile_qr_scan", "ios": "https://dc.lft.to/lastmile_qr_scan"}, "lat": 38.91267, "is_reserved": 0, "is_disabled": 0, "fusion_lat": 0.0}, {"fusion_lon": 0.0, "bike_id": "c87de4ec0da1abc3cbc2e840b2caa0b8", "name": "c87de4ec0da1abc3cbc2e840b2caa0b8", "type": "electric_scooter", "lon": -77.03839883333333, "rental_uris": {"android": "https://dc.lft.to/lastmile_qr_scan", "ios": "https://dc.lft.to/lastmile_qr_scan"}, "lat": 38.915552166666664, "is_reserved": 0, "is_disabled": 0, "fusion_lat": 0.0}, {"fusion_lon": 0.0, "bike_id": "4468ef2f4a304b22250c4de3a046b35a", "name": "4468ef2f4a304b22250c4de3a046b35a", "type": "electric_scooter", "lon": -77.04833133333334, "rental_uris": {"android": "https://dc.lft.to/lastmile_qr_scan", "ios": "https://dc.lft.to/lastmile_qr_scan"}, "lat": 38.91044, "is_reserved": 0, "is_disabled": 0, "fusion_lat": 0.0}, {"fusion_lon": 0.0, "bike_id": "1d2edbe406c28041b277a3e211833788", "name": "1d2edbe406c28041b277a3e211833788", "type": "electric_scooter", "lon": -77.0258215, "rental_uris": {"android": "https://dc.lft.to/lastmile_qr_scan", "ios": "https://dc.lft.to/lastmile_qr_scan"}, "lat": 38.9202965, "is_reserved": 0, "is_disabled": 0, "fusion_lat": 0.0}, {"fusion_lon": 0.0, "bike_id": "2edb181e973e1e1abc7e24902ab87958", "name": "2edb181e973e1e1abc7e24902ab87958", "type": "electric_scooter", "lon": -77.00307233333334, "rental_uris": {"android": "https://dc.lft.to/lastmile_qr_scan", "ios": "https://dc.lft.to/lastmile_qr_scan"}, "lat": 38.901521833333334, "is_reserved": 0, "is_disabled": 0, "fusion_lat": 0.0}, {"fusion_lon": 0.0, "bike_id": "882f5e863d3796912e84049d5b226c28", "name": "882f5e863d3796912e84049d5b226c28", "type": "electric_scooter", "lon": -77.00771516666667, "rental_uris": {"android": "https://dc.lft.to/lastmile_qr_scan", "ios": "https://dc.lft.to/lastmile_qr_scan"}, "lat": 38.9075015, "is_reserved": 0, "is_disabled": 0, "fusion_lat": 0.0}, {"fusion_lon": 0.0, "bike_id": "b04780dca4440c03a62f209d45802fd9", "name": "b04780dca4440c03a62f209d45802fd9", "type": "electric_scooter", "lon": -77.027137, "rental_uris": {"android": "https://dc.lft.to/lastmile_qr_scan", "ios": "https://dc.lft.to/lastmile_qr_scan"}, "lat": 38.909804333333334, "is_reserved": 0, "is_disabled": 0, "fusion_lat": 0.0}, {"fusion_lon": 0.0, "bike_id": "aca59d30e8441e2ad57c10ccaa4c4691", "name": "aca59d30e8441e2ad57c10ccaa4c4691", "type": "electric_scooter", "lon": -76.97548233333333, "rental_uris": {"android": "https://dc.lft.to/lastmile_qr_scan", "ios": "https://dc.lft.to/lastmile_qr_scan"}, "lat": 38.902564, "is_reserved": 0, "is_disabled": 0, "fusion_lat": 0.0}, {"fusion_lon": 0.0, "bike_id": "36054989aec10bac79f01a84a95586d3", "name": "36054989aec10bac79f01a84a95586d3", "type": "electric_scooter", "lon": -77.00726566666667, "rental_uris": {"android": "https://dc.lft.to/lastmile_qr_scan", "ios": "https://dc.lft.to/lastmile_qr_scan"}, "lat": 38.87686433333333, "is_reserved": 0, "is_disabled": 0, "fusion_lat": 0.0}, {"fusion_lon": 0.0, "bike_id": "292adc696b89e6fd472bad8fcd32b14f", "name": "292adc696b89e6fd472bad8fcd32b14f", "type": "electric_scooter", "lon": -76.95207716666667, "rental_uris": {"android": "https://dc.lft.to/lastmile_qr_scan", "ios": "https://dc.lft.to/lastmile_qr_scan"}, "lat": 38.8924595, "is_reserved": 0, "is_disabled": 0, "fusion_lat": 0.0}, {"fusion_lon": 0.0, "bike_id": "95d9215bb2a56d4b466817c235bc62b6", "name": "95d9215bb2a56d4b466817c235bc62b6", "type": "electric_scooter", "lon": -77.03177266666667, "rental_uris": {"android": "https://dc.lft.to/lastmile_qr_scan", "ios": "https://dc.lft.to/lastmile_qr_scan"}, "lat": 38.91599633333333, "is_reserved": 0, "is_disabled": 0, "fusion_lat": 0.0}, {"fusion_lon": 0.0, "bike_id": "614e975401b9c8c9324c98b2c04e0e89", "name": "614e975401b9c8c9324c98b2c04e0e89", "type": "electric_scooter", "lon": -77.0249645, "rental_uris": {"android": "https://dc.lft.to/lastmile_qr_scan", "ios": "https://dc.lft.to/lastmile_qr_scan"}, "lat": 38.91910216666667, "is_reserved": 0, "is_disabled": 0, "fusion_lat": 0.0}, {"fusion_lon": 0.0, "bike_id": "7ebc932d8f31e5bb9429eebd236cdf12", "name": "7ebc932d8f31e5bb9429eebd236cdf12", "type": "electric_bike", "lon": -77.09572616666667, "rental_uris": {"android": "https://dc.lft.to/lastmile_qr_scan", "ios": "https://dc.lft.to/lastmile_qr_scan"}, "lat": 38.8378335, "is_reserved": 0, "is_disabled": 0, "fusion_lat": 0.0}, {"fusion_lon": 0.0, "bike_id": "83661a3f94b434ddf51559859f754efe", "name": "83661a3f94b434ddf51559859f754efe", "type": "electric_scooter", "lon": -77.01595383333333, "rental_uris": {"android": "https://dc.lft.to/lastmile_qr_scan", "ios": "https://dc.lft.to/lastmile_qr_scan"}, "lat": 38.876944333333334, "is_reserved": 0, "is_disabled": 0, "fusion_lat": 0.0}, {"fusion_lon": 0.0, "bike_id": "5f014065d8e3376d709297b9d0e07c3c", "name": "5f014065d8e3376d709297b9d0e07c3c", "type": "electric_scooter", "lon": -77.02597866666666, "rental_uris": {"android": "https://dc.lft.to/lastmile_qr_scan", "ios": "https://dc.lft.to/lastmile_qr_scan"}, "lat": 38.92791066666667, "is_reserved": 0, "is_disabled": 0, "fusion_lat": 0.0}, {"fusion_lon": 0.0, "bike_id": "6b88ab6ee40b46f69ef67821257a83fd", "name": "6b88ab6ee40b46f69ef67821257a83fd", "type": "electric_scooter", "lon": -77.04323233333334, "rental_uris": {"android": "https://dc.lft.to/lastmile_qr_scan", "ios": "https://dc.lft.to/lastmile_qr_scan"}, "lat": 38.8981525, "is_reserved": 0, "is_disabled": 0, "fusion_lat": 0.0}, {"fusion_lon": 0.0, "bike_id": "8a7d775c426665f7322a95285d86b4f1", "name": "8a7d775c426665f7322a95285d86b4f1", "type": "electric_scooter", "lon": -77.029758, "rental_uris": {"android": "https://dc.lft.to/lastmile_qr_scan", "ios": "https://dc.lft.to/lastmile_qr_scan"}, "lat": 38.916245333333336, "is_reserved": 0, "is_disabled": 0, "fusion_lat": 0.0}, {"fusion_lon": 0.0, "bike_id": "a5e7a64f95394324a8fc4d7e8e1f1bb7", "name": "a5e7a64f95394324a8fc4d7e8e1f1bb7", "type": "electric_scooter", "lon": -77.042426, "rental_uris": {"android": "https://dc.lft.to/lastmile_qr_scan", "ios": "https://dc.lft.to/lastmile_qr_scan"}, "lat": 38.917851166666665, "is_reserved": 0, "is_disabled": 0, "fusion_lat": 0.0}, {"fusion_lon": 0.0, "bike_id": "413532fbfc574d01872bc5490df29138", "name": "413532fbfc574d01872bc5490df29138", "type": "electric_scooter", "lon": -77.028534, "rental_uris": {"android": "https://dc.lft.to/lastmile_qr_scan", "ios": "https://dc.lft.to/lastmile_qr_scan"}, "lat": 38.9327555, "is_reserved": 0, "is_disabled": 0, "fusion_lat": 0.0}, {"fusion_lon": 0.0, "bike_id": "8d9dc75d51ba855a95a4f8a8557dbe75", "name": "8d9dc75d51ba855a95a4f8a8557dbe75", "type": "electric_scooter", "lon": -77.06588233333333, "rental_uris": {"android": "https://dc.lft.to/lastmile_qr_scan", "ios": "https://dc.lft.to/lastmile_qr_scan"}, "lat": 38.9033445, "is_reserved": 0, "is_disabled": 0, "fusion_lat": 0.0}, {"fusion_lon": 0.0, "bike_id": "1406ed7c08902ef05c93bce5b85864cb", "name": "1406ed7c08902ef05c93bce5b85864cb", "type": "electric_scooter", "lon": -77.0294355, "rental_uris": {"android": "https://dc.lft.to/lastmile_qr_scan", "ios": "https://dc.lft.to/lastmile_qr_scan"}, "lat": 38.90711566666667, "is_reserved": 0, "is_disabled": 0, "fusion_lat": 0.0}, {"fusion_lon": 0.0, "bike_id": "97db7f4f27e43a754c84127ab130c2f6", "name": "97db7f4f27e43a754c84127ab130c2f6", "type": "electric_bike", "lon": -77.10501583333334, "rental_uris": {"android": "https://dc.lft.to/lastmile_qr_scan", "ios": "https://dc.lft.to/lastmile_qr_scan"}, "lat": 38.928459, "is_reserved": 0, "is_disabled": 0, "fusion_lat": 0.0}, {"fusion_lon": 0.0, "bike_id": "393b2ecb5d7dd1f9bef1cbb1f741c037", "name": "393b2ecb5d7dd1f9bef1cbb1f741c037", "type": "electric_scooter", "lon": -77.0232945, "rental_uris": {"android": "https://dc.lft.to/lastmile_qr_scan", "ios": "https://dc.lft.to/lastmile_qr_scan"}, "lat": 38.91817433333333, "is_reserved": 0, "is_disabled": 0, "fusion_lat": 0.0}, {"fusion_lon": 0.0, "bike_id": "447e3046bd47791e7826d6c57582cc09", "name": "447e3046bd47791e7826d6c57582cc09", "type": "electric_scooter", "lon": -76.9900965, "rental_uris": {"android": "https://dc.lft.to/lastmile_qr_scan", "ios": "https://dc.lft.to/lastmile_qr_scan"}, "lat": 38.861049666666666, "is_reserved": 0, "is_disabled": 0, "fusion_lat": 0.0}, {"fusion_lon": 0.0, "bike_id": "e1adda16ee80d62ced1b76052c711607", "name": "e1adda16ee80d62ced1b76052c711607", "type": "electric_scooter", "lon": -76.99388833333333, "rental_uris": {"android": "https://dc.lft.to/lastmile_qr_scan", "ios": "https://dc.lft.to/lastmile_qr_scan"}, "lat": 38.88452516666667, "is_reserved": 0, "is_disabled": 0, "fusion_lat": 0.0}, {"fusion_lon": 0.0, "bike_id": "e78b4b046cdd0ca6bfa4c586cad24489", "name": "e78b4b046cdd0ca6bfa4c586cad24489", "type": "electric_scooter", "lon": -77.0185905, "rental_uris": {"android": "https://dc.lft.to/lastmile_qr_scan", "ios": "https://dc.lft.to/lastmile_qr_scan"}, "lat": 38.94912433333333, "is_reserved": 0, "is_disabled": 0, "fusion_lat": 0.0}, {"fusion_lon": 0.0, "bike_id": "1275921a621731ed2859bb81f6ac3c33", "name": "1275921a621731ed2859bb81f6ac3c33", "type": "electric_scooter", "lon": -76.96717183333334, "rental_uris": {"android": "https://dc.lft.to/lastmile_qr_scan", "ios": "https://dc.lft.to/lastmile_qr_scan"}, "lat": 38.86953466666667, "is_reserved": 0, "is_disabled": 0, "fusion_lat": 0.0}, {"fusion_lon": 0.0, "bike_id": "c724f84c09f30a01afdf0ae52db17acd", "name": "c724f84c09f30a01afdf0ae52db17acd", "type": "electric_scooter", "lon": -77.07105683333333, "rental_uris": {"android": "https://dc.lft.to/lastmile_qr_scan", "ios": "https://dc.lft.to/lastmile_qr_scan"}, "lat": 38.919838166666665, "is_reserved": 0, "is_disabled": 0, "fusion_lat": 0.0}, {"fusion_lon": 0.0, "bike_id": "d16f5aa7a15f31cdcfd2fc0b635b0e3b", "name": "d16f5aa7a15f31cdcfd2fc0b635b0e3b", "type": "electric_scooter", "lon": -77.0112285, "rental_uris": {"android": "https://dc.lft.to/lastmile_qr_scan", "ios": "https://dc.lft.to/lastmile_qr_scan"}, "lat": 38.8960225, "is_reserved": 0, "is_disabled": 0, "fusion_lat": 0.0}, {"fusion_lon": 0.0, "bike_id": "4f2e95db72cacac8d3e3c3bfd4bd8c06", "name": "4f2e95db72cacac8d3e3c3bfd4bd8c06", "type": "electric_scooter", "lon": -76.957582, "rental_uris": {"android": "https://dc.lft.to/lastmile_qr_scan", "ios": "https://dc.lft.to/lastmile_qr_scan"}, "lat": 38.88437233333333, "is_reserved": 0, "is_disabled": 0, "fusion_lat": 0.0}, {"fusion_lon": 0.0, "bike_id": "e223f955cb5b7dcbacd05be30c0170a6", "name": "e223f955cb5b7dcbacd05be30c0170a6", "type": "electric_scooter", "lon": -76.9963315, "rental_uris": {"android": "https://dc.lft.to/lastmile_qr_scan", "ios": "https://dc.lft.to/lastmile_qr_scan"}, "lat": 38.84619433333334, "is_reserved": 0, "is_disabled": 0, "fusion_lat": 0.0}, {"fusion_lon": 0.0, "bike_id": "e2f9f85027d581ec1078be594609cd6e", "name": "e2f9f85027d581ec1078be594609cd6e", "type": "electric_scooter", "lon": -77.0239, "rental_uris": {"android": "https://dc.lft.to/lastmile_qr_scan", "ios": "https://dc.lft.to/lastmile_qr_scan"}, "lat": 38.91956233333333, "is_reserved": 0, "is_disabled": 0, "fusion_lat": 0.0}, {"fusion_lon": 0.0, "bike_id": "a67a08b623eed87fc97ff64f92719798", "name": "a67a08b623eed87fc97ff64f92719798", "type": "electric_scooter", "lon": -77.04226016666667, "rental_uris": {"android": "https://dc.lft.to/lastmile_qr_scan", "ios": "https://dc.lft.to/lastmile_qr_scan"}, "lat": 38.920630833333334, "is_reserved": 0, "is_disabled": 0, "fusion_lat": 0.0}, {"fusion_lon": 0.0, "bike_id": "a4caf91048f35d7ed452669a7b7547ee", "name": "a4caf91048f35d7ed452669a7b7547ee", "type": "electric_scooter", "lon": -77.02491866666666, "rental_uris": {"android": "https://dc.lft.to/lastmile_qr_scan", "ios": "https://dc.lft.to/lastmile_qr_scan"}, "lat": 38.941843666666664, "is_reserved": 0, "is_disabled": 0, "fusion_lat": 0.0}, {"fusion_lon": 0.0, "bike_id": "156913c27650f84e0846404846a512c8", "name": "156913c27650f84e0846404846a512c8", "type": "electric_bike", "lon": -77.02494516666667, "rental_uris": {"android": "https://dc.lft.to/lastmile_qr_scan", "ios": "https://dc.lft.to/lastmile_qr_scan"}, "lat": 38.973656, "is_reserved": 0, "is_disabled": 0, "fusion_lat": 0.0}, {"fusion_lon": 0.0, "bike_id": "c323e167a1fd98f902f785690b7fd78d", "name": "c323e167a1fd98f902f785690b7fd78d", "type": "electric_scooter", "lon": -77.03930933333334, "rental_uris": {"android": "https://dc.lft.to/lastmile_qr_scan", "ios": "https://dc.lft.to/lastmile_qr_scan"}, "lat": 38.92490816666667, "is_reserved": 0, "is_disabled": 0, "fusion_lat": 0.0}, {"fusion_lon": 0.0, "bike_id": "246b35054f501c6c10a4f21f376a4d96", "name": "246b35054f501c6c10a4f21f376a4d96", "type": "electric_scooter", "lon": -77.06362566666667, "rental_uris": {"android": "https://dc.lft.to/lastmile_qr_scan", "ios": "https://dc.lft.to/lastmile_qr_scan"}, "lat": 38.94412483333333, "is_reserved": 0, "is_disabled": 0, "fusion_lat": 0.0}, {"fusion_lon": 0.0, "bike_id": "35547cec910fd6c274251d082567e092", "name": "35547cec910fd6c274251d082567e092", "type": "electric_scooter", "lon": -77.04451016666667, "rental_uris": {"android": "https://dc.lft.to/lastmile_qr_scan", "ios": "https://dc.lft.to/lastmile_qr_scan"}, "lat": 38.909909, "is_reserved": 0, "is_disabled": 0, "fusion_lat": 0.0}, {"fusion_lon": 0.0, "bike_id": "d2418d79fc8fa937aa8bfee40164dfb3", "name": "d2418d79fc8fa937aa8bfee40164dfb3", "type": "electric_bike", "lon": -77.05414183333333, "rental_uris": {"android": "https://dc.lft.to/lastmile_qr_scan", "ios": "https://dc.lft.to/lastmile_qr_scan"}, "lat": 38.8488665, "is_reserved": 0, "is_disabled": 0, "fusion_lat": 0.0}, {"fusion_lon": 0.0, "bike_id": "4d1e717dd4948d016873bbe6c47742c3", "name": "4d1e717dd4948d016873bbe6c47742c3", "type": "electric_bike", "lon": -77.107118, "rental_uris": {"android": "https://dc.lft.to/lastmile_qr_scan", "ios": "https://dc.lft.to/lastmile_qr_scan"}, "lat": 38.855568, "is_reserved": 0, "is_disabled": 0, "fusion_lat": 0.0}, {"fusion_lon": 0.0, "bike_id": "bbabb70ac890895ad468be57afdadbb9", "name": "bbabb70ac890895ad468be57afdadbb9", "type": "electric_scooter", "lon": -77.02780516666667, "rental_uris": {"android": "https://dc.lft.to/lastmile_qr_scan", "ios": "https://dc.lft.to/lastmile_qr_scan"}, "lat": 38.89219516666667, "is_reserved": 0, "is_disabled": 0, "fusion_lat": 0.0}, {"fusion_lon": 0.0, "bike_id": "0d9eb058e4aa127ed756e363624ddb6e", "name": "0d9eb058e4aa127ed756e363624ddb6e", "type": "electric_scooter", "lon": -76.96434366666666, "rental_uris": {"android": "https://dc.lft.to/lastmile_qr_scan", "ios": "https://dc.lft.to/lastmile_qr_scan"}, "lat": 38.93462816666667, "is_reserved": 0, "is_disabled": 0, "fusion_lat": 0.0}, {"fusion_lon": 0.0, "bike_id": "2047b1ac5b21f90f32e01a7f52a63bc7", "name": "2047b1ac5b21f90f32e01a7f52a63bc7", "type": "electric_scooter", "lon": -77.03876783333334, "rental_uris": {"android": "https://dc.lft.to/lastmile_qr_scan", "ios": "https://dc.lft.to/lastmile_qr_scan"}, "lat": 38.934308, "is_reserved": 0, "is_disabled": 0, "fusion_lat": 0.0}, {"fusion_lon": 0.0, "bike_id": "137d44b8eb2f49129cf780cb0bb605fd", "name": "137d44b8eb2f49129cf780cb0bb605fd", "type": "electric_bike", "lon": -77.00002616666667, "rental_uris": {"android": "https://dc.lft.to/lastmile_qr_scan", "ios": "https://dc.lft.to/lastmile_qr_scan"}, "lat": 38.92389, "is_reserved": 0, "is_disabled": 0, "fusion_lat": 0.0}, {"fusion_lon": 0.0, "bike_id": "c753d15d22d9d1ab7a17735a23ecf0ab", "name": "c753d15d22d9d1ab7a17735a23ecf0ab", "type": "electric_bike", "lon": -77.05109833333333, "rental_uris": {"android": "https://dc.lft.to/lastmile_qr_scan", "ios": "https://dc.lft.to/lastmile_qr_scan"}, "lat": 38.9455415, "is_reserved": 0, "is_disabled": 0, "fusion_lat": 0.0}, {"fusion_lon": 0.0, "bike_id": "9bbefecf6d5210d14ac4a41bcefc2010", "name": "9bbefecf6d5210d14ac4a41bcefc2010", "type": "electric_scooter", "lon": -77.03445916666666, "rental_uris": {"android": "https://dc.lft.to/lastmile_qr_scan", "ios": "https://dc.lft.to/lastmile_qr_scan"}, "lat": 38.907298833333336, "is_reserved": 0, "is_disabled": 0, "fusion_lat": 0.0}, {"fusion_lon": 0.0, "bike_id": "6926363db9090c3f4ba6edb3bd57834a", "name": "6926363db9090c3f4ba6edb3bd57834a", "type": "electric_scooter", "lon": -77.0140475, "rental_uris": {"android": "https://dc.lft.to/lastmile_qr_scan", "ios": "https://dc.lft.to/lastmile_qr_scan"}, "lat": 38.8790405, "is_reserved": 0, "is_disabled": 0, "fusion_lat": 0.0}, {"fusion_lon": 0.0, "bike_id": "ed5638fee55ab058934949cc947afa61", "name": "ed5638fee55ab058934949cc947afa61", "type": "electric_scooter", "lon": -77.02272983333333, "rental_uris": {"android": "https://dc.lft.to/lastmile_qr_scan", "ios": "https://dc.lft.to/lastmile_qr_scan"}, "lat": 38.91652766666667, "is_reserved": 0, "is_disabled": 0, "fusion_lat": 0.0}, {"fusion_lon": 0.0, "bike_id": "48fb781aeeb6eff267bf2d36164ee2ce", "name": "48fb781aeeb6eff267bf2d36164ee2ce", "type": "electric_scooter", "lon": -77.02113683333333, "rental_uris": {"android": "https://dc.lft.to/lastmile_qr_scan", "ios": "https://dc.lft.to/lastmile_qr_scan"}, "lat": 38.91738433333333, "is_reserved": 0, "is_disabled": 0, "fusion_lat": 0.0}, {"fusion_lon": 0.0, "bike_id": "1da93f94843b7473d87a3e5e4489e100", "name": "1da93f94843b7473d87a3e5e4489e100", "type": "electric_scooter", "lon": -77.0316945, "rental_uris": {"android": "https://dc.lft.to/lastmile_qr_scan", "ios": "https://dc.lft.to/lastmile_qr_scan"}, "lat": 38.927183166666666, "is_reserved": 0, "is_disabled": 0, "fusion_lat": 0.0}, {"fusion_lon": 0.0, "bike_id": "6467a4fa7432131a972d4f3fb9022cbb", "name": "6467a4fa7432131a972d4f3fb9022cbb", "type": "electric_scooter", "lon": -77.0362075, "rental_uris": {"android": "https://dc.lft.to/lastmile_qr_scan", "ios": "https://dc.lft.to/lastmile_qr_scan"}, "lat": 38.928501833333335, "is_reserved": 0, "is_disabled": 0, "fusion_lat": 0.0}, {"fusion_lon": 0.0, "bike_id": "d2075af5ee83ab6a447459b7364cbd4f", "name": "d2075af5ee83ab6a447459b7364cbd4f", "type": "electric_bike", "lon": -77.36081916666667, "rental_uris": {"android": "https://dc.lft.to/lastmile_qr_scan", "ios": "https://dc.lft.to/lastmile_qr_scan"}, "lat": 38.93962833333333, "is_reserved": 0, "is_disabled": 0, "fusion_lat": 0.0}, {"fusion_lon": 0.0, "bike_id": "9352d4d8cf90b3a5be2037efbe85312d", "name": "9352d4d8cf90b3a5be2037efbe85312d", "type": "electric_scooter", "lon": -77.04205433333334, "rental_uris": {"android": "https://dc.lft.to/lastmile_qr_scan", "ios": "https://dc.lft.to/lastmile_qr_scan"}, "lat": 38.923111666666664, "is_reserved": 0, "is_disabled": 0, "fusion_lat": 0.0}, {"fusion_lon": 0.0, "bike_id": "3d6928dca437f771872758bf84debc52", "name": "3d6928dca437f771872758bf84debc52", "type": "electric_scooter", "lon": -76.999601, "rental_uris": {"android": "https://dc.lft.to/lastmile_qr_scan", "ios": "https://dc.lft.to/lastmile_qr_scan"}, "lat": 38.893180666666666, "is_reserved": 0, "is_disabled": 0, "fusion_lat": 0.0}, {"fusion_lon": 0.0, "bike_id": "b11c023c78d3366810919b67db73db3c", "name": "b11c023c78d3366810919b67db73db3c", "type": "electric_bike", "lon": -76.979943, "rental_uris": {"android": "https://dc.lft.to/lastmile_qr_scan", "ios": "https://dc.lft.to/lastmile_qr_scan"}, "lat": 38.877543333333335, "is_reserved": 0, "is_disabled": 0, "fusion_lat": 0.0}, {"fusion_lon": 0.0, "bike_id": "187dfb7c70a9a580788b41bf4447b57b", "name": "187dfb7c70a9a580788b41bf4447b57b", "type": "electric_scooter", "lon": -76.98587483333333, "rental_uris": {"android": "https://dc.lft.to/lastmile_qr_scan", "ios": "https://dc.lft.to/lastmile_qr_scan"}, "lat": 38.884048666666665, "is_reserved": 0, "is_disabled": 0, "fusion_lat": 0.0}, {"fusion_lon": 0.0, "bike_id": "bc3d69b3facd01bf4e1aef113a091b11", "name": "bc3d69b3facd01bf4e1aef113a091b11", "type": "electric_scooter", "lon": -77.01693816666666, "rental_uris": {"android": "https://dc.lft.to/lastmile_qr_scan", "ios": "https://dc.lft.to/lastmile_qr_scan"}, "lat": 38.974988, "is_reserved": 0, "is_disabled": 0, "fusion_lat": 0.0}, {"fusion_lon": 0.0, "bike_id": "6f03c1aea9121d147d5a9c5e4890902e", "name": "6f03c1aea9121d147d5a9c5e4890902e", "type": "electric_scooter", "lon": -77.04171433333333, "rental_uris": {"android": "https://dc.lft.to/lastmile_qr_scan", "ios": "https://dc.lft.to/lastmile_qr_scan"}, "lat": 38.915464166666666, "is_reserved": 0, "is_disabled": 0, "fusion_lat": 0.0}, {"fusion_lon": 0.0, "bike_id": "5ef1f448c21e5f830c94fa9d03555c9e", "name": "5ef1f448c21e5f830c94fa9d03555c9e", "type": "electric_scooter", "lon": -77.03319033333334, "rental_uris": {"android": "https://dc.lft.to/lastmile_qr_scan", "ios": "https://dc.lft.to/lastmile_qr_scan"}, "lat": 38.900081, "is_reserved": 0, "is_disabled": 0, "fusion_lat": 0.0}, {"fusion_lon": 0.0, "bike_id": "4498c63ad21fe01c4d3961899e72a63c", "name": "4498c63ad21fe01c4d3961899e72a63c", "type": "electric_scooter", "lon": -77.03182316666667, "rental_uris": {"android": "https://dc.lft.to/lastmile_qr_scan", "ios": "https://dc.lft.to/lastmile_qr_scan"}, "lat": 38.91352066666666, "is_reserved": 0, "is_disabled": 0, "fusion_lat": 0.0}, {"fusion_lon": 0.0, "bike_id": "46f72dab6c9c03dbc8dd9c1a9a38dcab", "name": "46f72dab6c9c03dbc8dd9c1a9a38dcab", "type": "electric_scooter", "lon": -77.02223633333334, "rental_uris": {"android": "https://dc.lft.to/lastmile_qr_scan", "ios": "https://dc.lft.to/lastmile_qr_scan"}, "lat": 38.892221166666666, "is_reserved": 0, "is_disabled": 0, "fusion_lat": 0.0}, {"fusion_lon": 0.0, "bike_id": "317a7fb60859a3fc92821b456bf5ea85", "name": "317a7fb60859a3fc92821b456bf5ea85", "type": "electric_scooter", "lon": -77.0216975, "rental_uris": {"android": "https://dc.lft.to/lastmile_qr_scan", "ios": "https://dc.lft.to/lastmile_qr_scan"}, "lat": 38.942873, "is_reserved": 0, "is_disabled": 0, "fusion_lat": 0.0}, {"fusion_lon": 0.0, "bike_id": "7c63197b2386088843ca4042c4b41a26", "name": "7c63197b2386088843ca4042c4b41a26", "type": "electric_scooter", "lon": -77.03046816666667, "rental_uris": {"android": "https://dc.lft.to/lastmile_qr_scan", "ios": "https://dc.lft.to/lastmile_qr_scan"}, "lat": 38.93974733333334, "is_reserved": 0, "is_disabled": 0, "fusion_lat": 0.0}, {"fusion_lon": 0.0, "bike_id": "e10de941b792ab516ac14d96b4a4bb4f", "name": "e10de941b792ab516ac14d96b4a4bb4f", "type": "electric_scooter", "lon": -77.037892, "rental_uris": {"android": "https://dc.lft.to/lastmile_qr_scan", "ios": "https://dc.lft.to/lastmile_qr_scan"}, "lat": 38.92624816666667, "is_reserved": 0, "is_disabled": 0, "fusion_lat": 0.0}, {"fusion_lon": 0.0, "bike_id": "0febc25198ccf328b10be9507e14c31a", "name": "0febc25198ccf328b10be9507e14c31a", "type": "electric_scooter", "lon": -76.99147733333334, "rental_uris": {"android": "https://dc.lft.to/lastmile_qr_scan", "ios": "https://dc.lft.to/lastmile_qr_scan"}, "lat": 38.87914033333333, "is_reserved": 0, "is_disabled": 0, "fusion_lat": 0.0}, {"fusion_lon": 0.0, "bike_id": "d7992231419e91eb30d8455931629051", "name": "d7992231419e91eb30d8455931629051", "type": "electric_scooter", "lon": -77.03416433333334, "rental_uris": {"android": "https://dc.lft.to/lastmile_qr_scan", "ios": "https://dc.lft.to/lastmile_qr_scan"}, "lat": 38.9294355, "is_reserved": 0, "is_disabled": 0, "fusion_lat": 0.0}, {"fusion_lon": 0.0, "bike_id": "808fb7031e0b1529db2a251d70d64bd3", "name": "808fb7031e0b1529db2a251d70d64bd3", "type": "electric_bike", "lon": -77.0057925, "rental_uris": {"android": "https://dc.lft.to/lastmile_qr_scan", "ios": "https://dc.lft.to/lastmile_qr_scan"}, "lat": 38.88608283333333, "is_reserved": 0, "is_disabled": 0, "fusion_lat": 0.0}, {"fusion_lon": 0.0, "bike_id": "fba55c43234059cf3c9a9016ef16177d", "name": "fba55c43234059cf3c9a9016ef16177d", "type": "electric_scooter", "lon": -77.0277865, "rental_uris": {"android": "https://dc.lft.to/lastmile_qr_scan", "ios": "https://dc.lft.to/lastmile_qr_scan"}, "lat": 38.881564833333336, "is_reserved": 0, "is_disabled": 0, "fusion_lat": 0.0}, {"fusion_lon": 0.0, "bike_id": "39d2527a0d543a8864f4c8dfd7a5cedc", "name": "39d2527a0d543a8864f4c8dfd7a5cedc", "type": "electric_bike", "lon": -76.99758183333333, "rental_uris": {"android": "https://dc.lft.to/lastmile_qr_scan", "ios": "https://dc.lft.to/lastmile_qr_scan"}, "lat": 39.00591816666667, "is_reserved": 0, "is_disabled": 0, "fusion_lat": 0.0}, {"fusion_lon": 0.0, "bike_id": "69f4eae215c027c10a5dad05cb48e30e", "name": "69f4eae215c027c10a5dad05cb48e30e", "type": "electric_bike", "lon": -77.02652383333333, "rental_uris": {"android": "https://dc.lft.to/lastmile_qr_scan", "ios": "https://dc.lft.to/lastmile_qr_scan"}, "lat": 38.98816216666667, "is_reserved": 0, "is_disabled": 0, "fusion_lat": 0.0}, {"fusion_lon": 0.0, "bike_id": "db0dbab00a9f8ec02d700c3b3fa74d57", "name": "db0dbab00a9f8ec02d700c3b3fa74d57", "type": "electric_scooter", "lon": -77.02806533333333, "rental_uris": {"android": "https://dc.lft.to/lastmile_qr_scan", "ios": "https://dc.lft.to/lastmile_qr_scan"}, "lat": 38.90619216666666, "is_reserved": 0, "is_disabled": 0, "fusion_lat": 0.0}, {"fusion_lon": 0.0, "bike_id": "cbd6abefde5b0e0806b231b9a22c83b4", "name": "cbd6abefde5b0e0806b231b9a22c83b4", "type": "electric_scooter", "lon": -77.01597383333333, "rental_uris": {"android": "https://dc.lft.to/lastmile_qr_scan", "ios": "https://dc.lft.to/lastmile_qr_scan"}, "lat": 38.9010155, "is_reserved": 0, "is_disabled": 0, "fusion_lat": 0.0}, {"fusion_lon": 0.0, "bike_id": "b198cdfb5710a90da63e4c46608ddd22", "name": "b198cdfb5710a90da63e4c46608ddd22", "type": "electric_bike", "lon": -77.13180233333334, "rental_uris": {"android": "https://dc.lft.to/lastmile_qr_scan", "ios": "https://dc.lft.to/lastmile_qr_scan"}, "lat": 38.869091, "is_reserved": 0, "is_disabled": 0, "fusion_lat": 0.0}, {"fusion_lon": 0.0, "bike_id": "6a41b2df622349dcdf54a5d73ed7a208", "name": "6a41b2df622349dcdf54a5d73ed7a208", "type": "electric_scooter", "lon": -77.03936366666667, "rental_uris": {"android": "https://dc.lft.to/lastmile_qr_scan", "ios": "https://dc.lft.to/lastmile_qr_scan"}, "lat": 38.9249265, "is_reserved": 0, "is_disabled": 0, "fusion_lat": 0.0}, {"fusion_lon": 0.0, "bike_id": "50f1bd4f01b927c230e7ad61523c0b5b", "name": "50f1bd4f01b927c230e7ad61523c0b5b", "type": "electric_scooter", "lon": -77.03767366666666, "rental_uris": {"android": "https://dc.lft.to/lastmile_qr_scan", "ios": "https://dc.lft.to/lastmile_qr_scan"}, "lat": 38.92471466666667, "is_reserved": 0, "is_disabled": 0, "fusion_lat": 0.0}, {"fusion_lon": 0.0, "bike_id": "adc0829f4b291d3dc92ede9103dfb683", "name": "adc0829f4b291d3dc92ede9103dfb683", "type": "electric_scooter", "lon": -77.01759516666667, "rental_uris": {"android": "https://dc.lft.to/lastmile_qr_scan", "ios": "https://dc.lft.to/lastmile_qr_scan"}, "lat": 38.902569166666666, "is_reserved": 0, "is_disabled": 0, "fusion_lat": 0.0}, {"fusion_lon": 0.0, "bike_id": "3f7514559f117652052b4bbe8107b57d", "name": "3f7514559f117652052b4bbe8107b57d", "type": "electric_scooter", "lon": -77.03068633333334, "rental_uris": {"android": "https://dc.lft.to/lastmile_qr_scan", "ios": "https://dc.lft.to/lastmile_qr_scan"}, "lat": 38.88041583333333, "is_reserved": 0, "is_disabled": 0, "fusion_lat": 0.0}, {"fusion_lon": 0.0, "bike_id": "d5585dbf2dca0ebae71391f1d6d8d585", "name": "d5585dbf2dca0ebae71391f1d6d8d585", "type": "electric_scooter", "lon": -77.03282983333334, "rental_uris": {"android": "https://dc.lft.to/lastmile_qr_scan", "ios": "https://dc.lft.to/lastmile_qr_scan"}, "lat": 38.938769666666666, "is_reserved": 0, "is_disabled": 0, "fusion_lat": 0.0}, {"fusion_lon": 0.0, "bike_id": "e5c619e180a521cdf763a13b650258fa", "name": "e5c619e180a521cdf763a13b650258fa", "type": "electric_scooter", "lon": -77.03382683333334, "rental_uris": {"android": "https://dc.lft.to/lastmile_qr_scan", "ios": "https://dc.lft.to/lastmile_qr_scan"}, "lat": 38.92539083333333, "is_reserved": 0, "is_disabled": 0, "fusion_lat": 0.0}, {"fusion_lon": 0.0, "bike_id": "62cd81af0204142628b8d7ec6b3f98c2", "name": "62cd81af0204142628b8d7ec6b3f98c2", "type": "electric_bike", "lon": -77.01938633333333, "rental_uris": {"android": "https://dc.lft.to/lastmile_qr_scan", "ios": "https://dc.lft.to/lastmile_qr_scan"}, "lat": 38.88320816666667, "is_reserved": 0, "is_disabled": 0, "fusion_lat": 0.0}, {"fusion_lon": 0.0, "bike_id": "36855562b64315f2b405efd1cccd26b6", "name": "36855562b64315f2b405efd1cccd26b6", "type": "electric_scooter", "lon": -76.98476066666667, "rental_uris": {"android": "https://dc.lft.to/lastmile_qr_scan", "ios": "https://dc.lft.to/lastmile_qr_scan"}, "lat": 38.92894916666667, "is_reserved": 0, "is_disabled": 0, "fusion_lat": 0.0}, {"fusion_lon": 0.0, "bike_id": "9600d3bd3d66c5c13f7a02a590d78b6f", "name": "9600d3bd3d66c5c13f7a02a590d78b6f", "type": "electric_scooter", "lon": -77.01191716666666, "rental_uris": {"android": "https://dc.lft.to/lastmile_qr_scan", "ios": "https://dc.lft.to/lastmile_qr_scan"}, "lat": 38.871586666666666, "is_reserved": 0, "is_disabled": 0, "fusion_lat": 0.0}, {"fusion_lon": 0.0, "bike_id": "4557eb094b4a7932c4465113d45ceaad", "name": "4557eb094b4a7932c4465113d45ceaad", "type": "electric_scooter", "lon": -77.02475533333333, "rental_uris": {"android": "https://dc.lft.to/lastmile_qr_scan", "ios": "https://dc.lft.to/lastmile_qr_scan"}, "lat": 38.90407366666667, "is_reserved": 0, "is_disabled": 0, "fusion_lat": 0.0}, {"fusion_lon": 0.0, "bike_id": "f55ee9eb4f23f67c0d9e176371203777", "name": "f55ee9eb4f23f67c0d9e176371203777", "type": "electric_scooter", "lon": -77.02953366666667, "rental_uris": {"android": "https://dc.lft.to/lastmile_qr_scan", "ios": "https://dc.lft.to/lastmile_qr_scan"}, "lat": 38.922757833333335, "is_reserved": 0, "is_disabled": 0, "fusion_lat": 0.0}, {"fusion_lon": 0.0, "bike_id": "73a3badac4047cbd5fa2ca83aec69200", "name": "73a3badac4047cbd5fa2ca83aec69200", "type": "electric_scooter", "lon": -76.92957033333333, "rental_uris": {"android": "https://dc.lft.to/lastmile_qr_scan", "ios": "https://dc.lft.to/lastmile_qr_scan"}, "lat": 38.8987555, "is_reserved": 0, "is_disabled": 0, "fusion_lat": 0.0}, {"fusion_lon": 0.0, "bike_id": "329b4fb2e0e1a9a232f202ca45bda2b0", "name": "329b4fb2e0e1a9a232f202ca45bda2b0", "type": "electric_scooter", "lon": -77.03878316666666, "rental_uris": {"android": "https://dc.lft.to/lastmile_qr_scan", "ios": "https://dc.lft.to/lastmile_qr_scan"}, "lat": 38.919774833333335, "is_reserved": 0, "is_disabled": 0, "fusion_lat": 0.0}, {"fusion_lon": 0.0, "bike_id": "91e0e19f995f6c085d73fe793ac4083a", "name": "91e0e19f995f6c085d73fe793ac4083a", "type": "electric_scooter", "lon": -77.0467795, "rental_uris": {"android": "https://dc.lft.to/lastmile_qr_scan", "ios": "https://dc.lft.to/lastmile_qr_scan"}, "lat": 38.90328183333333, "is_reserved": 0, "is_disabled": 0, "fusion_lat": 0.0}, {"fusion_lon": 0.0, "bike_id": "a3f0998a135bd8a909f0d3cc6cf7ad09", "name": "a3f0998a135bd8a909f0d3cc6cf7ad09", "type": "electric_scooter", "lon": -77.02373333333334, "rental_uris": {"android": "https://dc.lft.to/lastmile_qr_scan", "ios": "https://dc.lft.to/lastmile_qr_scan"}, "lat": 38.907237, "is_reserved": 0, "is_disabled": 0, "fusion_lat": 0.0}, {"fusion_lon": 0.0, "bike_id": "c1888aa84832047529a2f6e168de313a", "name": "c1888aa84832047529a2f6e168de313a", "type": "electric_scooter", "lon": -77.04175133333334, "rental_uris": {"android": "https://dc.lft.to/lastmile_qr_scan", "ios": "https://dc.lft.to/lastmile_qr_scan"}, "lat": 38.915743, "is_reserved": 0, "is_disabled": 0, "fusion_lat": 0.0}, {"fusion_lon": 0.0, "bike_id": "39f03f09237481b1837ccc17ef048058", "name": "39f03f09237481b1837ccc17ef048058", "type": "electric_scooter", "lon": -77.02958916666667, "rental_uris": {"android": "https://dc.lft.to/lastmile_qr_scan", "ios": "https://dc.lft.to/lastmile_qr_scan"}, "lat": 38.92145466666667, "is_reserved": 0, "is_disabled": 0, "fusion_lat": 0.0}, {"fusion_lon": 0.0, "bike_id": "fba7f5691bd96b8f17eb29f12d60225c", "name": "fba7f5691bd96b8f17eb29f12d60225c", "type": "electric_scooter", "lon": -77.04160366666666, "rental_uris": {"android": "https://dc.lft.to/lastmile_qr_scan", "ios": "https://dc.lft.to/lastmile_qr_scan"}, "lat": 38.91973633333333, "is_reserved": 0, "is_disabled": 0, "fusion_lat": 0.0}, {"fusion_lon": 0.0, "bike_id": "fb5069621c325179ef67e83d7d6072b3", "name": "fb5069621c325179ef67e83d7d6072b3", "type": "electric_scooter", "lon": -76.98567616666666, "rental_uris": {"android": "https://dc.lft.to/lastmile_qr_scan", "ios": "https://dc.lft.to/lastmile_qr_scan"}, "lat": 38.860619166666666, "is_reserved": 0, "is_disabled": 0, "fusion_lat": 0.0}, {"fusion_lon": 0.0, "bike_id": "70abc048c84c0be48b24fd5322e9e2ec", "name": "70abc048c84c0be48b24fd5322e9e2ec", "type": "electric_scooter", "lon": -77.034834, "rental_uris": {"android": "https://dc.lft.to/lastmile_qr_scan", "ios": "https://dc.lft.to/lastmile_qr_scan"}, "lat": 38.9111765, "is_reserved": 0, "is_disabled": 0, "fusion_lat": 0.0}, {"fusion_lon": 0.0, "bike_id": "1a5bd3d5d589ecdf01351b0c85e5b8bd", "name": "1a5bd3d5d589ecdf01351b0c85e5b8bd", "type": "electric_scooter", "lon": -77.04330783333333, "rental_uris": {"android": "https://dc.lft.to/lastmile_qr_scan", "ios": "https://dc.lft.to/lastmile_qr_scan"}, "lat": 38.9145025, "is_reserved": 0, "is_disabled": 0, "fusion_lat": 0.0}, {"fusion_lon": 0.0, "bike_id": "e627e467730e3bccf84e6ff9694b3e80", "name": "e627e467730e3bccf84e6ff9694b3e80", "type": "electric_scooter", "lon": -77.04819983333333, "rental_uris": {"android": "https://dc.lft.to/lastmile_qr_scan", "ios": "https://dc.lft.to/lastmile_qr_scan"}, "lat": 38.91488416666667, "is_reserved": 0, "is_disabled": 0, "fusion_lat": 0.0}, {"fusion_lon": 0.0, "bike_id": "e93e966a9f558e5824f748cbf1cc2ac4", "name": "e93e966a9f558e5824f748cbf1cc2ac4", "type": "electric_bike", "lon": -76.9906315, "rental_uris": {"android": "https://dc.lft.to/lastmile_qr_scan", "ios": "https://dc.lft.to/lastmile_qr_scan"}, "lat": 38.89805633333334, "is_reserved": 0, "is_disabled": 0, "fusion_lat": 0.0}, {"fusion_lon": 0.0, "bike_id": "e82721707aa2c8409a37db708e495f7c", "name": "e82721707aa2c8409a37db708e495f7c", "type": "electric_scooter", "lon": -77.02656416666666, "rental_uris": {"android": "https://dc.lft.to/lastmile_qr_scan", "ios": "https://dc.lft.to/lastmile_qr_scan"}, "lat": 38.902487666666666, "is_reserved": 0, "is_disabled": 0, "fusion_lat": 0.0}, {"fusion_lon": 0.0, "bike_id": "506eb1cc1ae34abe97888c958b95548a", "name": "506eb1cc1ae34abe97888c958b95548a", "type": "electric_scooter", "lon": -77.02611316666666, "rental_uris": {"android": "https://dc.lft.to/lastmile_qr_scan", "ios": "https://dc.lft.to/lastmile_qr_scan"}, "lat": 38.9001125, "is_reserved": 0, "is_disabled": 0, "fusion_lat": 0.0}, {"fusion_lon": 0.0, "bike_id": "d597dac141e33451c83d5f3c77e588dd", "name": "d597dac141e33451c83d5f3c77e588dd", "type": "electric_scooter", "lon": -77.0309035, "rental_uris": {"android": "https://dc.lft.to/lastmile_qr_scan", "ios": "https://dc.lft.to/lastmile_qr_scan"}, "lat": 38.946787, "is_reserved": 0, "is_disabled": 0, "fusion_lat": 0.0}, {"fusion_lon": 0.0, "bike_id": "5d36a523e9270ab46952c226e14c4f5d", "name": "5d36a523e9270ab46952c226e14c4f5d", "type": "electric_scooter", "lon": -77.00426166666666, "rental_uris": {"android": "https://dc.lft.to/lastmile_qr_scan", "ios": "https://dc.lft.to/lastmile_qr_scan"}, "lat": 38.9111115, "is_reserved": 0, "is_disabled": 0, "fusion_lat": 0.0}, {"fusion_lon": 0.0, "bike_id": "98df08b44e8e846a7092accadf26cfc2", "name": "98df08b44e8e846a7092accadf26cfc2", "type": "electric_scooter", "lon": -76.99848233333333, "rental_uris": {"android": "https://dc.lft.to/lastmile_qr_scan", "ios": "https://dc.lft.to/lastmile_qr_scan"}, "lat": 38.9003365, "is_reserved": 0, "is_disabled": 0, "fusion_lat": 0.0}, {"fusion_lon": 0.0, "bike_id": "de7324a45ef79f1d520a20a306979ecb", "name": "de7324a45ef79f1d520a20a306979ecb", "type": "electric_scooter", "lon": -76.99621366666666, "rental_uris": {"android": "https://dc.lft.to/lastmile_qr_scan", "ios": "https://dc.lft.to/lastmile_qr_scan"}, "lat": 38.885014166666664, "is_reserved": 0, "is_disabled": 0, "fusion_lat": 0.0}, {"fusion_lon": 0.0, "bike_id": "284d5a65aaab38b73ae90579074f8eb6", "name": "284d5a65aaab38b73ae90579074f8eb6", "type": "electric_scooter", "lon": -77.07231916666667, "rental_uris": {"android": "https://dc.lft.to/lastmile_qr_scan", "ios": "https://dc.lft.to/lastmile_qr_scan"}, "lat": 38.9345895, "is_reserved": 0, "is_disabled": 0, "fusion_lat": 0.0}, {"fusion_lon": 0.0, "bike_id": "a8f92ae3a01a0a2c52ab33016d37ee99", "name": "a8f92ae3a01a0a2c52ab33016d37ee99", "type": "electric_scooter", "lon": -77.03205716666666, "rental_uris": {"android": "https://dc.lft.to/lastmile_qr_scan", "ios": "https://dc.lft.to/lastmile_qr_scan"}, "lat": 38.91920433333333, "is_reserved": 0, "is_disabled": 0, "fusion_lat": 0.0}, {"fusion_lon": 0.0, "bike_id": "138a40628f632dcc94d3303c8ff685f0", "name": "138a40628f632dcc94d3303c8ff685f0", "type": "electric_scooter", "lon": -77.07915083333333, "rental_uris": {"android": "https://dc.lft.to/lastmile_qr_scan", "ios": "https://dc.lft.to/lastmile_qr_scan"}, "lat": 38.94793816666667, "is_reserved": 0, "is_disabled": 0, "fusion_lat": 0.0}, {"fusion_lon": 0.0, "bike_id": "078811af1a34aaa3a329b166d9681d21", "name": "078811af1a34aaa3a329b166d9681d21", "type": "electric_scooter", "lon": -76.98219516666667, "rental_uris": {"android": "https://dc.lft.to/lastmile_qr_scan", "ios": "https://dc.lft.to/lastmile_qr_scan"}, "lat": 38.90196233333333, "is_reserved": 0, "is_disabled": 0, "fusion_lat": 0.0}, {"fusion_lon": 0.0, "bike_id": "31c1d28a1f71a61f90c75d933bb19cde", "name": "31c1d28a1f71a61f90c75d933bb19cde", "type": "electric_scooter", "lon": -77.0228495, "rental_uris": {"android": "https://dc.lft.to/lastmile_qr_scan", "ios": "https://dc.lft.to/lastmile_qr_scan"}, "lat": 38.909607333333334, "is_reserved": 0, "is_disabled": 0, "fusion_lat": 0.0}, {"fusion_lon": 0.0, "bike_id": "e1f9f35ece262298bf4a7b5651e2f7c6", "name": "e1f9f35ece262298bf4a7b5651e2f7c6", "type": "electric_scooter", "lon": -77.04888666666666, "rental_uris": {"android": "https://dc.lft.to/lastmile_qr_scan", "ios": "https://dc.lft.to/lastmile_qr_scan"}, "lat": 38.898106, "is_reserved": 0, "is_disabled": 0, "fusion_lat": 0.0}, {"fusion_lon": 0.0, "bike_id": "38a1d7e345d8cf1d42511e3888b04591", "name": "38a1d7e345d8cf1d42511e3888b04591", "type": "electric_scooter", "lon": -77.04169233333333, "rental_uris": {"android": "https://dc.lft.to/lastmile_qr_scan", "ios": "https://dc.lft.to/lastmile_qr_scan"}, "lat": 38.91647283333333, "is_reserved": 0, "is_disabled": 0, "fusion_lat": 0.0}, {"fusion_lon": 0.0, "bike_id": "44ef10c0d13e60cc46cebf03d2f65d76", "name": "44ef10c0d13e60cc46cebf03d2f65d76", "type": "electric_scooter", "lon": -76.9187765, "rental_uris": {"android": "https://dc.lft.to/lastmile_qr_scan", "ios": "https://dc.lft.to/lastmile_qr_scan"}, "lat": 38.89077833333333, "is_reserved": 0, "is_disabled": 0, "fusion_lat": 0.0}, {"fusion_lon": 0.0, "bike_id": "037b9880b48aa6b276752e1b7d868cdd", "name": "037b9880b48aa6b276752e1b7d868cdd", "type": "electric_scooter", "lon": -77.00464033333333, "rental_uris": {"android": "https://dc.lft.to/lastmile_qr_scan", "ios": "https://dc.lft.to/lastmile_qr_scan"}, "lat": 38.911849833333335, "is_reserved": 0, "is_disabled": 0, "fusion_lat": 0.0}, {"fusion_lon": 0.0, "bike_id": "cf4e8e8403fa18a8946857eb55486f49", "name": "cf4e8e8403fa18a8946857eb55486f49", "type": "electric_scooter", "lon": -77.03854333333334, "rental_uris": {"android": "https://dc.lft.to/lastmile_qr_scan", "ios": "https://dc.lft.to/lastmile_qr_scan"}, "lat": 38.9079075, "is_reserved": 0, "is_disabled": 0, "fusion_lat": 0.0}, {"fusion_lon": 0.0, "bike_id": "d2d6a5f2d60e68615912d6eb57db3ec7", "name": "d2d6a5f2d60e68615912d6eb57db3ec7", "type": "electric_bike", "lon": -77.0179795, "rental_uris": {"android": "https://dc.lft.to/lastmile_qr_scan", "ios": "https://dc.lft.to/lastmile_qr_scan"}, "lat": 38.989877, "is_reserved": 0, "is_disabled": 0, "fusion_lat": 0.0}, {"fusion_lon": 0.0, "bike_id": "fa173831f6ac794b2bcee3a33db77f67", "name": "fa173831f6ac794b2bcee3a33db77f67", "type": "electric_scooter", "lon": -77.04079566666667, "rental_uris": {"android": "https://dc.lft.to/lastmile_qr_scan", "ios": "https://dc.lft.to/lastmile_qr_scan"}, "lat": 38.90136483333333, "is_reserved": 0, "is_disabled": 0, "fusion_lat": 0.0}, {"fusion_lon": 0.0, "bike_id": "f5f7dd0d7ee0c5a246103cabd32b90fd", "name": "f5f7dd0d7ee0c5a246103cabd32b90fd", "type": "electric_bike", "lon": -76.93026233333333, "rental_uris": {"android": "https://dc.lft.to/lastmile_qr_scan", "ios": "https://dc.lft.to/lastmile_qr_scan"}, "lat": 38.966494, "is_reserved": 0, "is_disabled": 0, "fusion_lat": 0.0}, {"fusion_lon": 0.0, "bike_id": "81d412bd7299cea2545b3e2f521482b7", "name": "81d412bd7299cea2545b3e2f521482b7", "type": "electric_scooter", "lon": -77.04159333333334, "rental_uris": {"android": "https://dc.lft.to/lastmile_qr_scan", "ios": "https://dc.lft.to/lastmile_qr_scan"}, "lat": 38.91600016666666, "is_reserved": 0, "is_disabled": 0, "fusion_lat": 0.0}, {"fusion_lon": 0.0, "bike_id": "c22c50775d2c641e73e7b60358656e0e", "name": "c22c50775d2c641e73e7b60358656e0e", "type": "electric_scooter", "lon": -77.013047, "rental_uris": {"android": "https://dc.lft.to/lastmile_qr_scan", "ios": "https://dc.lft.to/lastmile_qr_scan"}, "lat": 38.90068016666667, "is_reserved": 0, "is_disabled": 0, "fusion_lat": 0.0}, {"fusion_lon": 0.0, "bike_id": "e72ad7109e2c28851b43d529148b6060", "name": "e72ad7109e2c28851b43d529148b6060", "type": "electric_scooter", "lon": -77.02319233333333, "rental_uris": {"android": "https://dc.lft.to/lastmile_qr_scan", "ios": "https://dc.lft.to/lastmile_qr_scan"}, "lat": 38.907255166666666, "is_reserved": 0, "is_disabled": 0, "fusion_lat": 0.0}, {"fusion_lon": 0.0, "bike_id": "46847f550c0edca892d949b237354f11", "name": "46847f550c0edca892d949b237354f11", "type": "electric_scooter", "lon": -77.05990866666667, "rental_uris": {"android": "https://dc.lft.to/lastmile_qr_scan", "ios": "https://dc.lft.to/lastmile_qr_scan"}, "lat": 38.91193533333333, "is_reserved": 0, "is_disabled": 0, "fusion_lat": 0.0}, {"fusion_lon": 0.0, "bike_id": "3bcf58c9bed87d64d3158cdd883f0965", "name": "3bcf58c9bed87d64d3158cdd883f0965", "type": "electric_scooter", "lon": -77.03405933333333, "rental_uris": {"android": "https://dc.lft.to/lastmile_qr_scan", "ios": "https://dc.lft.to/lastmile_qr_scan"}, "lat": 38.921514, "is_reserved": 0, "is_disabled": 0, "fusion_lat": 0.0}, {"fusion_lon": 0.0, "bike_id": "149853948b3b99d28cb82fb294b157af", "name": "149853948b3b99d28cb82fb294b157af", "type": "electric_scooter", "lon": -77.03941416666666, "rental_uris": {"android": "https://dc.lft.to/lastmile_qr_scan", "ios": "https://dc.lft.to/lastmile_qr_scan"}, "lat": 38.918128, "is_reserved": 0, "is_disabled": 0, "fusion_lat": 0.0}, {"fusion_lon": 0.0, "bike_id": "3ce269c8d4e4128f005e268cae056408", "name": "3ce269c8d4e4128f005e268cae056408", "type": "electric_scooter", "lon": -77.02005533333333, "rental_uris": {"android": "https://dc.lft.to/lastmile_qr_scan", "ios": "https://dc.lft.to/lastmile_qr_scan"}, "lat": 38.8789135, "is_reserved": 0, "is_disabled": 0, "fusion_lat": 0.0}, {"fusion_lon": 0.0, "bike_id": "940ce389ec9d06d7ee62c6b8a91c60df", "name": "940ce389ec9d06d7ee62c6b8a91c60df", "type": "electric_scooter", "lon": -76.99829166666666, "rental_uris": {"android": "https://dc.lft.to/lastmile_qr_scan", "ios": "https://dc.lft.to/lastmile_qr_scan"}, "lat": 38.908812833333336, "is_reserved": 0, "is_disabled": 0, "fusion_lat": 0.0}, {"fusion_lon": 0.0, "bike_id": "2a9308a46fbbac764e147fe0399a081f", "name": "2a9308a46fbbac764e147fe0399a081f", "type": "electric_scooter", "lon": -76.984613, "rental_uris": {"android": "https://dc.lft.to/lastmile_qr_scan", "ios": "https://dc.lft.to/lastmile_qr_scan"}, "lat": 38.893682166666665, "is_reserved": 0, "is_disabled": 0, "fusion_lat": 0.0}, {"fusion_lon": 0.0, "bike_id": "18ca632439938096acacadf319eefd13", "name": "18ca632439938096acacadf319eefd13", "type": "electric_scooter", "lon": -77.011325, "rental_uris": {"android": "https://dc.lft.to/lastmile_qr_scan", "ios": "https://dc.lft.to/lastmile_qr_scan"}, "lat": 38.870743, "is_reserved": 0, "is_disabled": 0, "fusion_lat": 0.0}, {"fusion_lon": 0.0, "bike_id": "7e2340f41fa14ec20c68533022c57a72", "name": "7e2340f41fa14ec20c68533022c57a72", "type": "electric_scooter", "lon": -77.03258716666667, "rental_uris": {"android": "https://dc.lft.to/lastmile_qr_scan", "ios": "https://dc.lft.to/lastmile_qr_scan"}, "lat": 38.9193015, "is_reserved": 0, "is_disabled": 0, "fusion_lat": 0.0}, {"fusion_lon": 0.0, "bike_id": "bafd796e01c7ba1c132c4efec6503963", "name": "bafd796e01c7ba1c132c4efec6503963", "type": "electric_scooter", "lon": -77.00105683333334, "rental_uris": {"android": "https://dc.lft.to/lastmile_qr_scan", "ios": "https://dc.lft.to/lastmile_qr_scan"}, "lat": 38.9162975, "is_reserved": 0, "is_disabled": 0, "fusion_lat": 0.0}, {"fusion_lon": 0.0, "bike_id": "7b3aaf809b2bf74896aabf824e0b8c69", "name": "7b3aaf809b2bf74896aabf824e0b8c69", "type": "electric_scooter", "lon": -77.02404183333333, "rental_uris": {"android": "https://dc.lft.to/lastmile_qr_scan", "ios": "https://dc.lft.to/lastmile_qr_scan"}, "lat": 38.90736666666667, "is_reserved": 0, "is_disabled": 0, "fusion_lat": 0.0}, {"fusion_lon": 0.0, "bike_id": "baf9b9475f8882d5d7bcef3249d7e8e8", "name": "baf9b9475f8882d5d7bcef3249d7e8e8", "type": "electric_scooter", "lon": -77.00203366666666, "rental_uris": {"android": "https://dc.lft.to/lastmile_qr_scan", "ios": "https://dc.lft.to/lastmile_qr_scan"}, "lat": 38.902821, "is_reserved": 0, "is_disabled": 0, "fusion_lat": 0.0}, {"fusion_lon": 0.0, "bike_id": "200e515490747e2d75f00848ac07d5bd", "name": "200e515490747e2d75f00848ac07d5bd", "type": "electric_scooter", "lon": -77.05330583333334, "rental_uris": {"android": "https://dc.lft.to/lastmile_qr_scan", "ios": "https://dc.lft.to/lastmile_qr_scan"}, "lat": 38.9022995, "is_reserved": 0, "is_disabled": 0, "fusion_lat": 0.0}, {"fusion_lon": 0.0, "bike_id": "94d1c84e5e3dd1911ed5c1ddd1790356", "name": "94d1c84e5e3dd1911ed5c1ddd1790356", "type": "electric_scooter", "lon": -76.98549016666666, "rental_uris": {"android": "https://dc.lft.to/lastmile_qr_scan", "ios": "https://dc.lft.to/lastmile_qr_scan"}, "lat": 38.90418, "is_reserved": 0, "is_disabled": 0, "fusion_lat": 0.0}, {"fusion_lon": 0.0, "bike_id": "0d9a0d46fe89ad386f3a9f0e14d28471", "name": "0d9a0d46fe89ad386f3a9f0e14d28471", "type": "electric_scooter", "lon": -77.0176675, "rental_uris": {"android": "https://dc.lft.to/lastmile_qr_scan", "ios": "https://dc.lft.to/lastmile_qr_scan"}, "lat": 38.90446983333333, "is_reserved": 0, "is_disabled": 0, "fusion_lat": 0.0}, {"fusion_lon": 0.0, "bike_id": "363f8fa011aceb5bc8a5a097af737e5a", "name": "363f8fa011aceb5bc8a5a097af737e5a", "type": "electric_scooter", "lon": -77.01898583333333, "rental_uris": {"android": "https://dc.lft.to/lastmile_qr_scan", "ios": "https://dc.lft.to/lastmile_qr_scan"}, "lat": 38.9391675, "is_reserved": 0, "is_disabled": 0, "fusion_lat": 0.0}, {"fusion_lon": 0.0, "bike_id": "b619c09ce466144ae6837538716833e9", "name": "b619c09ce466144ae6837538716833e9", "type": "electric_scooter", "lon": -77.0293225, "rental_uris": {"android": "https://dc.lft.to/lastmile_qr_scan", "ios": "https://dc.lft.to/lastmile_qr_scan"}, "lat": 38.89789066666667, "is_reserved": 0, "is_disabled": 0, "fusion_lat": 0.0}, {"fusion_lon": 0.0, "bike_id": "dfb4128cc75de2923668e73fd306c5aa", "name": "dfb4128cc75de2923668e73fd306c5aa", "type": "electric_scooter", "lon": -77.029781, "rental_uris": {"android": "https://dc.lft.to/lastmile_qr_scan", "ios": "https://dc.lft.to/lastmile_qr_scan"}, "lat": 38.92456516666667, "is_reserved": 0, "is_disabled": 0, "fusion_lat": 0.0}, {"fusion_lon": 0.0, "bike_id": "c041db72624a011c71a5059a261667e9", "name": "c041db72624a011c71a5059a261667e9", "type": "electric_scooter", "lon": -77.02743083333333, "rental_uris": {"android": "https://dc.lft.to/lastmile_qr_scan", "ios": "https://dc.lft.to/lastmile_qr_scan"}, "lat": 38.92406583333333, "is_reserved": 0, "is_disabled": 0, "fusion_lat": 0.0}, {"fusion_lon": 0.0, "bike_id": "6ba3c6a5f2372f0047c04e9d244c3884", "name": "6ba3c6a5f2372f0047c04e9d244c3884", "type": "electric_bike", "lon": -76.9478175, "rental_uris": {"android": "https://dc.lft.to/lastmile_qr_scan", "ios": "https://dc.lft.to/lastmile_qr_scan"}, "lat": 38.8964815, "is_reserved": 0, "is_disabled": 0, "fusion_lat": 0.0}, {"fusion_lon": 0.0, "bike_id": "b0345005e3eb138144060452775dc3b1", "name": "b0345005e3eb138144060452775dc3b1", "type": "electric_scooter", "lon": -76.99332916666667, "rental_uris": {"android": "https://dc.lft.to/lastmile_qr_scan", "ios": "https://dc.lft.to/lastmile_qr_scan"}, "lat": 38.838711333333336, "is_reserved": 0, "is_disabled": 0, "fusion_lat": 0.0}, {"fusion_lon": 0.0, "bike_id": "a91272084a43d0a76fcfc7de2ebc3af8", "name": "a91272084a43d0a76fcfc7de2ebc3af8", "type": "electric_scooter", "lon": -77.03747383333334, "rental_uris": {"android": "https://dc.lft.to/lastmile_qr_scan", "ios": "https://dc.lft.to/lastmile_qr_scan"}, "lat": 38.9025505, "is_reserved": 0, "is_disabled": 0, "fusion_lat": 0.0}, {"fusion_lon": 0.0, "bike_id": "0270d7b5ebfdabf1d59622cd010b1cc5", "name": "0270d7b5ebfdabf1d59622cd010b1cc5", "type": "electric_scooter", "lon": -77.03972, "rental_uris": {"android": "https://dc.lft.to/lastmile_qr_scan", "ios": "https://dc.lft.to/lastmile_qr_scan"}, "lat": 38.911964, "is_reserved": 0, "is_disabled": 0, "fusion_lat": 0.0}, {"fusion_lon": 0.0, "bike_id": "ec33cbef7a2e7687c1c9f8bb4454310e", "name": "ec33cbef7a2e7687c1c9f8bb4454310e", "type": "electric_scooter", "lon": -77.04395066666666, "rental_uris": {"android": "https://dc.lft.to/lastmile_qr_scan", "ios": "https://dc.lft.to/lastmile_qr_scan"}, "lat": 38.92276283333333, "is_reserved": 0, "is_disabled": 0, "fusion_lat": 0.0}, {"fusion_lon": 0.0, "bike_id": "bdb6f6784a2e39857a2b00c7850bc6fd", "name": "bdb6f6784a2e39857a2b00c7850bc6fd", "type": "electric_scooter", "lon": -76.973022, "rental_uris": {"android": "https://dc.lft.to/lastmile_qr_scan", "ios": "https://dc.lft.to/lastmile_qr_scan"}, "lat": 38.91985316666667, "is_reserved": 0, "is_disabled": 0, "fusion_lat": 0.0}, {"fusion_lon": 0.0, "bike_id": "751d03c0daca36b3992778892a979df2", "name": "751d03c0daca36b3992778892a979df2", "type": "electric_scooter", "lon": -77.04896783333334, "rental_uris": {"android": "https://dc.lft.to/lastmile_qr_scan", "ios": "https://dc.lft.to/lastmile_qr_scan"}, "lat": 38.892495833333335, "is_reserved": 0, "is_disabled": 0, "fusion_lat": 0.0}, {"fusion_lon": 0.0, "bike_id": "2bfb1baf7aa8253b5e7f97c53ecc28dd", "name": "2bfb1baf7aa8253b5e7f97c53ecc28dd", "type": "electric_scooter", "lon": -76.98708333333333, "rental_uris": {"android": "https://dc.lft.to/lastmile_qr_scan", "ios": "https://dc.lft.to/lastmile_qr_scan"}, "lat": 38.866957666666664, "is_reserved": 0, "is_disabled": 0, "fusion_lat": 0.0}, {"fusion_lon": 0.0, "bike_id": "6405d1d19cfa3279f30bcb0fbe020443", "name": "6405d1d19cfa3279f30bcb0fbe020443", "type": "electric_scooter", "lon": -76.9499725, "rental_uris": {"android": "https://dc.lft.to/lastmile_qr_scan", "ios": "https://dc.lft.to/lastmile_qr_scan"}, "lat": 38.89390066666667, "is_reserved": 0, "is_disabled": 0, "fusion_lat": 0.0}, {"fusion_lon": 0.0, "bike_id": "d7aca838f1bf9fb60340dfd03842fe69", "name": "d7aca838f1bf9fb60340dfd03842fe69", "type": "electric_scooter", "lon": -76.96507433333333, "rental_uris": {"android": "https://dc.lft.to/lastmile_qr_scan", "ios": "https://dc.lft.to/lastmile_qr_scan"}, "lat": 38.876475666666664, "is_reserved": 0, "is_disabled": 0, "fusion_lat": 0.0}, {"fusion_lon": 0.0, "bike_id": "399c2068efe6ddc8cb283ca5e5603591", "name": "399c2068efe6ddc8cb283ca5e5603591", "type": "electric_scooter", "lon": -76.985917, "rental_uris": {"android": "https://dc.lft.to/lastmile_qr_scan", "ios": "https://dc.lft.to/lastmile_qr_scan"}, "lat": 38.906484166666665, "is_reserved": 0, "is_disabled": 0, "fusion_lat": 0.0}, {"fusion_lon": 0.0, "bike_id": "c42d76b176f28529008f3f27dea44c1a", "name": "c42d76b176f28529008f3f27dea44c1a", "type": "electric_bike", "lon": -76.97569166666666, "rental_uris": {"android": "https://dc.lft.to/lastmile_qr_scan", "ios": "https://dc.lft.to/lastmile_qr_scan"}, "lat": 38.92454733333334, "is_reserved": 0, "is_disabled": 0, "fusion_lat": 0.0}, {"fusion_lon": 0.0, "bike_id": "eb814a42e6ccd7b83b9d9f4b2a54c6c5", "name": "eb814a42e6ccd7b83b9d9f4b2a54c6c5", "type": "electric_scooter", "lon": -77.038594, "rental_uris": {"android": "https://dc.lft.to/lastmile_qr_scan", "ios": "https://dc.lft.to/lastmile_qr_scan"}, "lat": 38.907800333333334, "is_reserved": 0, "is_disabled": 0, "fusion_lat": 0.0}, {"fusion_lon": 0.0, "bike_id": "b0060bd6e64365b38aebba607bcd067d", "name": "b0060bd6e64365b38aebba607bcd067d", "type": "electric_scooter", "lon": -77.04634783333333, "rental_uris": {"android": "https://dc.lft.to/lastmile_qr_scan", "ios": "https://dc.lft.to/lastmile_qr_scan"}, "lat": 38.904203, "is_reserved": 0, "is_disabled": 0, "fusion_lat": 0.0}, {"fusion_lon": 0.0, "bike_id": "08f5d4d6ee13cae26d50d06e68da303e", "name": "08f5d4d6ee13cae26d50d06e68da303e", "type": "electric_scooter", "lon": -77.05107, "rental_uris": {"android": "https://dc.lft.to/lastmile_qr_scan", "ios": "https://dc.lft.to/lastmile_qr_scan"}, "lat": 38.905436333333334, "is_reserved": 0, "is_disabled": 0, "fusion_lat": 0.0}, {"fusion_lon": 0.0, "bike_id": "512e1d1da32a070cc7b5dca22907a4a6", "name": "512e1d1da32a070cc7b5dca22907a4a6", "type": "electric_scooter", "lon": -77.03214433333333, "rental_uris": {"android": "https://dc.lft.to/lastmile_qr_scan", "ios": "https://dc.lft.to/lastmile_qr_scan"}, "lat": 38.8922145, "is_reserved": 0, "is_disabled": 0, "fusion_lat": 0.0}, {"fusion_lon": 0.0, "bike_id": "c5cbf5c60c6a51ae654a4da3ba88206f", "name": "c5cbf5c60c6a51ae654a4da3ba88206f", "type": "electric_scooter", "lon": -77.00815016666667, "rental_uris": {"android": "https://dc.lft.to/lastmile_qr_scan", "ios": "https://dc.lft.to/lastmile_qr_scan"}, "lat": 38.876348666666665, "is_reserved": 0, "is_disabled": 0, "fusion_lat": 0.0}, {"fusion_lon": 0.0, "bike_id": "b5b90f7e1a347a4d3e25e58e36916f21", "name": "b5b90f7e1a347a4d3e25e58e36916f21", "type": "electric_scooter", "lon": -77.04301833333334, "rental_uris": {"android": "https://dc.lft.to/lastmile_qr_scan", "ios": "https://dc.lft.to/lastmile_qr_scan"}, "lat": 38.908707666666665, "is_reserved": 0, "is_disabled": 0, "fusion_lat": 0.0}, {"fusion_lon": 0.0, "bike_id": "adcd64cc3da4da2f911a4058b4ba3b85", "name": "adcd64cc3da4da2f911a4058b4ba3b85", "type": "electric_scooter", "lon": -76.99822433333334, "rental_uris": {"android": "https://dc.lft.to/lastmile_qr_scan", "ios": "https://dc.lft.to/lastmile_qr_scan"}, "lat": 38.900253, "is_reserved": 0, "is_disabled": 0, "fusion_lat": 0.0}, {"fusion_lon": 0.0, "bike_id": "62250e6496087adcfd1678c613e3627f", "name": "62250e6496087adcfd1678c613e3627f", "type": "electric_scooter", "lon": -77.02527733333334, "rental_uris": {"android": "https://dc.lft.to/lastmile_qr_scan", "ios": "https://dc.lft.to/lastmile_qr_scan"}, "lat": 38.900900666666665, "is_reserved": 0, "is_disabled": 0, "fusion_lat": 0.0}, {"fusion_lon": 0.0, "bike_id": "206f8f0abb022e8a2c7e4628674751a4", "name": "206f8f0abb022e8a2c7e4628674751a4", "type": "electric_scooter", "lon": -77.04642616666666, "rental_uris": {"android": "https://dc.lft.to/lastmile_qr_scan", "ios": "https://dc.lft.to/lastmile_qr_scan"}, "lat": 38.90413616666667, "is_reserved": 0, "is_disabled": 0, "fusion_lat": 0.0}, {"fusion_lon": 0.0, "bike_id": "d38315cc2593060c0ba2ed61e3d68817", "name": "d38315cc2593060c0ba2ed61e3d68817", "type": "electric_scooter", "lon": -77.02164583333334, "rental_uris": {"android": "https://dc.lft.to/lastmile_qr_scan", "ios": "https://dc.lft.to/lastmile_qr_scan"}, "lat": 38.94289883333333, "is_reserved": 0, "is_disabled": 0, "fusion_lat": 0.0}, {"fusion_lon": 0.0, "bike_id": "4337b393ada2c14dcf32858272d30607", "name": "4337b393ada2c14dcf32858272d30607", "type": "electric_bike", "lon": -77.13230933333334, "rental_uris": {"android": "https://dc.lft.to/lastmile_qr_scan", "ios": "https://dc.lft.to/lastmile_qr_scan"}, "lat": 38.86973016666666, "is_reserved": 0, "is_disabled": 0, "fusion_lat": 0.0}, {"fusion_lon": 0.0, "bike_id": "afc6d0172ca764d1d3e0582010d5645d", "name": "afc6d0172ca764d1d3e0582010d5645d", "type": "electric_scooter", "lon": -77.0461675, "rental_uris": {"android": "https://dc.lft.to/lastmile_qr_scan", "ios": "https://dc.lft.to/lastmile_qr_scan"}, "lat": 38.9057495, "is_reserved": 0, "is_disabled": 0, "fusion_lat": 0.0}, {"fusion_lon": 0.0, "bike_id": "c4a7b370800cae5c06b00cc555b8fdbc", "name": "c4a7b370800cae5c06b00cc555b8fdbc", "type": "electric_scooter", "lon": -77.03208433333333, "rental_uris": {"android": "https://dc.lft.to/lastmile_qr_scan", "ios": "https://dc.lft.to/lastmile_qr_scan"}, "lat": 38.91924316666667, "is_reserved": 0, "is_disabled": 0, "fusion_lat": 0.0}, {"fusion_lon": 0.0, "bike_id": "dcd2eaf969ccab1d2e52282653c45ad5", "name": "dcd2eaf969ccab1d2e52282653c45ad5", "type": "electric_scooter", "lon": -77.00094766666666, "rental_uris": {"android": "https://dc.lft.to/lastmile_qr_scan", "ios": "https://dc.lft.to/lastmile_qr_scan"}, "lat": 38.89743466666667, "is_reserved": 0, "is_disabled": 0, "fusion_lat": 0.0}, {"fusion_lon": 0.0, "bike_id": "0be603503347775a391de0bc685b83b7", "name": "0be603503347775a391de0bc685b83b7", "type": "electric_scooter", "lon": -77.007348, "rental_uris": {"android": "https://dc.lft.to/lastmile_qr_scan", "ios": "https://dc.lft.to/lastmile_qr_scan"}, "lat": 38.8764755, "is_reserved": 0, "is_disabled": 0, "fusion_lat": 0.0}, {"fusion_lon": 0.0, "bike_id": "9181105d3650fa01d878fdf0e77a3080", "name": "9181105d3650fa01d878fdf0e77a3080", "type": "electric_scooter", "lon": -77.02661516666667, "rental_uris": {"android": "https://dc.lft.to/lastmile_qr_scan", "ios": "https://dc.lft.to/lastmile_qr_scan"}, "lat": 38.930964333333336, "is_reserved": 0, "is_disabled": 0, "fusion_lat": 0.0}, {"fusion_lon": 0.0, "bike_id": "504a3282c09537bdfd0d5aae45d0e0fb", "name": "504a3282c09537bdfd0d5aae45d0e0fb", "type": "electric_scooter", "lon": -77.00578166666666, "rental_uris": {"android": "https://dc.lft.to/lastmile_qr_scan", "ios": "https://dc.lft.to/lastmile_qr_scan"}, "lat": 38.87521983333333, "is_reserved": 0, "is_disabled": 0, "fusion_lat": 0.0}, {"fusion_lon": 0.0, "bike_id": "04084526150e3defceb70aef088597af", "name": "04084526150e3defceb70aef088597af", "type": "electric_scooter", "lon": -77.00369516666666, "rental_uris": {"android": "https://dc.lft.to/lastmile_qr_scan", "ios": "https://dc.lft.to/lastmile_qr_scan"}, "lat": 38.87759766666667, "is_reserved": 0, "is_disabled": 0, "fusion_lat": 0.0}, {"fusion_lon": 0.0, "bike_id": "0dda68c9b0ee240a6c19d2f0abee1e33", "name": "0dda68c9b0ee240a6c19d2f0abee1e33", "type": "electric_scooter", "lon": -77.02715166666667, "rental_uris": {"android": "https://dc.lft.to/lastmile_qr_scan", "ios": "https://dc.lft.to/lastmile_qr_scan"}, "lat": 38.907466666666664, "is_reserved": 0, "is_disabled": 0, "fusion_lat": 0.0}, {"fusion_lon": 0.0, "bike_id": "5504389d6988fd60146cf9124df129d8", "name": "5504389d6988fd60146cf9124df129d8", "type": "electric_scooter", "lon": -77.07166133333334, "rental_uris": {"android": "https://dc.lft.to/lastmile_qr_scan", "ios": "https://dc.lft.to/lastmile_qr_scan"}, "lat": 38.9076085, "is_reserved": 0, "is_disabled": 0, "fusion_lat": 0.0}, {"fusion_lon": 0.0, "bike_id": "3e56fded4f374a8a6fa5034749989109", "name": "3e56fded4f374a8a6fa5034749989109", "type": "electric_scooter", "lon": -77.01108866666667, "rental_uris": {"android": "https://dc.lft.to/lastmile_qr_scan", "ios": "https://dc.lft.to/lastmile_qr_scan"}, "lat": 38.894868, "is_reserved": 0, "is_disabled": 0, "fusion_lat": 0.0}, {"fusion_lon": 0.0, "bike_id": "a421f9ef98648cd16cc189d07ee7f4a0", "name": "a421f9ef98648cd16cc189d07ee7f4a0", "type": "electric_bike", "lon": -76.93413816666667, "rental_uris": {"android": "https://dc.lft.to/lastmile_qr_scan", "ios": "https://dc.lft.to/lastmile_qr_scan"}, "lat": 38.94624183333333, "is_reserved": 0, "is_disabled": 0, "fusion_lat": 0.0}, {"fusion_lon": 0.0, "bike_id": "90517f5c3913ce1459529844edcaa1b6", "name": "90517f5c3913ce1459529844edcaa1b6", "type": "electric_scooter", "lon": -77.01223533333334, "rental_uris": {"android": "https://dc.lft.to/lastmile_qr_scan", "ios": "https://dc.lft.to/lastmile_qr_scan"}, "lat": 38.867208166666664, "is_reserved": 0, "is_disabled": 0, "fusion_lat": 0.0}, {"fusion_lon": 0.0, "bike_id": "f95a65e5b46b4d42af3afceceb874f76", "name": "f95a65e5b46b4d42af3afceceb874f76", "type": "electric_scooter", "lon": -76.9654735, "rental_uris": {"android": "https://dc.lft.to/lastmile_qr_scan", "ios": "https://dc.lft.to/lastmile_qr_scan"}, "lat": 38.918767, "is_reserved": 0, "is_disabled": 0, "fusion_lat": 0.0}, {"fusion_lon": 0.0, "bike_id": "31de3eac0b8f2e08e4ccac9cdd38c269", "name": "31de3eac0b8f2e08e4ccac9cdd38c269", "type": "electric_scooter", "lon": -76.93748716666667, "rental_uris": {"android": "https://dc.lft.to/lastmile_qr_scan", "ios": "https://dc.lft.to/lastmile_qr_scan"}, "lat": 38.8900595, "is_reserved": 0, "is_disabled": 0, "fusion_lat": 0.0}, {"fusion_lon": 0.0, "bike_id": "6225eb40f80deeb3e33a4c2ff8ab88c2", "name": "6225eb40f80deeb3e33a4c2ff8ab88c2", "type": "electric_scooter", "lon": -77.04005383333333, "rental_uris": {"android": "https://dc.lft.to/lastmile_qr_scan", "ios": "https://dc.lft.to/lastmile_qr_scan"}, "lat": 38.91325533333333, "is_reserved": 0, "is_disabled": 0, "fusion_lat": 0.0}, {"fusion_lon": 0.0, "bike_id": "3300357fa3d8fd2e71646895740a3715", "name": "3300357fa3d8fd2e71646895740a3715", "type": "electric_scooter", "lon": -77.027578, "rental_uris": {"android": "https://dc.lft.to/lastmile_qr_scan", "ios": "https://dc.lft.to/lastmile_qr_scan"}, "lat": 38.954139, "is_reserved": 0, "is_disabled": 0, "fusion_lat": 0.0}, {"fusion_lon": 0.0, "bike_id": "15881b265ac401b411f9a6212aa6edd9", "name": "15881b265ac401b411f9a6212aa6edd9", "type": "electric_scooter", "lon": -77.01255466666667, "rental_uris": {"android": "https://dc.lft.to/lastmile_qr_scan", "ios": "https://dc.lft.to/lastmile_qr_scan"}, "lat": 38.876329, "is_reserved": 0, "is_disabled": 0, "fusion_lat": 0.0}, {"fusion_lon": 0.0, "bike_id": "9e7bfb9cca1fc421721295190b895433", "name": "9e7bfb9cca1fc421721295190b895433", "type": "electric_scooter", "lon": -77.02965716666667, "rental_uris": {"android": "https://dc.lft.to/lastmile_qr_scan", "ios": "https://dc.lft.to/lastmile_qr_scan"}, "lat": 38.90483366666667, "is_reserved": 0, "is_disabled": 0, "fusion_lat": 0.0}, {"fusion_lon": 0.0, "bike_id": "022a417b1f42f11d78726b3e48594ea3", "name": "022a417b1f42f11d78726b3e48594ea3", "type": "electric_scooter", "lon": -77.02220166666666, "rental_uris": {"android": "https://dc.lft.to/lastmile_qr_scan", "ios": "https://dc.lft.to/lastmile_qr_scan"}, "lat": 38.9354885, "is_reserved": 0, "is_disabled": 0, "fusion_lat": 0.0}, {"fusion_lon": 0.0, "bike_id": "163b5907ee85b27705fb50d63d4f7818", "name": "163b5907ee85b27705fb50d63d4f7818", "type": "electric_scooter", "lon": -77.0342205, "rental_uris": {"android": "https://dc.lft.to/lastmile_qr_scan", "ios": "https://dc.lft.to/lastmile_qr_scan"}, "lat": 38.904245333333336, "is_reserved": 0, "is_disabled": 0, "fusion_lat": 0.0}, {"fusion_lon": 0.0, "bike_id": "26017ffad514d3ad07c12cdb765123c9", "name": "26017ffad514d3ad07c12cdb765123c9", "type": "electric_scooter", "lon": -76.99416783333334, "rental_uris": {"android": "https://dc.lft.to/lastmile_qr_scan", "ios": "https://dc.lft.to/lastmile_qr_scan"}, "lat": 38.93305933333333, "is_reserved": 0, "is_disabled": 0, "fusion_lat": 0.0}, {"fusion_lon": 0.0, "bike_id": "5146ee25600d15b1e05d4dfad91d019f", "name": "5146ee25600d15b1e05d4dfad91d019f", "type": "electric_scooter", "lon": -76.99804933333333, "rental_uris": {"android": "https://dc.lft.to/lastmile_qr_scan", "ios": "https://dc.lft.to/lastmile_qr_scan"}, "lat": 38.8766725, "is_reserved": 0, "is_disabled": 0, "fusion_lat": 0.0}, {"fusion_lon": 0.0, "bike_id": "d3b8fbce4bce5dceaa25e3cd0f24f53d", "name": "d3b8fbce4bce5dceaa25e3cd0f24f53d", "type": "electric_scooter", "lon": -77.00276216666667, "rental_uris": {"android": "https://dc.lft.to/lastmile_qr_scan", "ios": "https://dc.lft.to/lastmile_qr_scan"}, "lat": 38.90869816666667, "is_reserved": 0, "is_disabled": 0, "fusion_lat": 0.0}, {"fusion_lon": 0.0, "bike_id": "8aa20b0167fb06a213f32069fb047f2b", "name": "8aa20b0167fb06a213f32069fb047f2b", "type": "electric_scooter", "lon": -77.05787933333333, "rental_uris": {"android": "https://dc.lft.to/lastmile_qr_scan", "ios": "https://dc.lft.to/lastmile_qr_scan"}, "lat": 38.934745, "is_reserved": 0, "is_disabled": 0, "fusion_lat": 0.0}, {"fusion_lon": 0.0, "bike_id": "26c17e8ec78f096ef197dd7b381b4af6", "name": "26c17e8ec78f096ef197dd7b381b4af6", "type": "electric_bike", "lon": -76.92916133333334, "rental_uris": {"android": "https://dc.lft.to/lastmile_qr_scan", "ios": "https://dc.lft.to/lastmile_qr_scan"}, "lat": 38.980281166666664, "is_reserved": 0, "is_disabled": 0, "fusion_lat": 0.0}, {"fusion_lon": 0.0, "bike_id": "b3119834a81b0647530575221c2cded7", "name": "b3119834a81b0647530575221c2cded7", "type": "electric_scooter", "lon": -76.99446466666667, "rental_uris": {"android": "https://dc.lft.to/lastmile_qr_scan", "ios": "https://dc.lft.to/lastmile_qr_scan"}, "lat": 38.905061, "is_reserved": 0, "is_disabled": 0, "fusion_lat": 0.0}, {"fusion_lon": 0.0, "bike_id": "9f9f0d8afae323397f75d0dbaf54bfc5", "name": "9f9f0d8afae323397f75d0dbaf54bfc5", "type": "electric_scooter", "lon": -77.0448825, "rental_uris": {"android": "https://dc.lft.to/lastmile_qr_scan", "ios": "https://dc.lft.to/lastmile_qr_scan"}, "lat": 38.90666683333333, "is_reserved": 0, "is_disabled": 0, "fusion_lat": 0.0}, {"fusion_lon": 0.0, "bike_id": "db39eaffeed5fd78c270afcc965e8bb6", "name": "db39eaffeed5fd78c270afcc965e8bb6", "type": "electric_scooter", "lon": -77.041682, "rental_uris": {"android": "https://dc.lft.to/lastmile_qr_scan", "ios": "https://dc.lft.to/lastmile_qr_scan"}, "lat": 38.91339883333333, "is_reserved": 0, "is_disabled": 0, "fusion_lat": 0.0}, {"fusion_lon": 0.0, "bike_id": "88c0f71de8bfb66fe3eed8f8e4b02060", "name": "88c0f71de8bfb66fe3eed8f8e4b02060", "type": "electric_scooter", "lon": -76.95510916666667, "rental_uris": {"android": "https://dc.lft.to/lastmile_qr_scan", "ios": "https://dc.lft.to/lastmile_qr_scan"}, "lat": 38.89050983333333, "is_reserved": 0, "is_disabled": 0, "fusion_lat": 0.0}, {"fusion_lon": 0.0, "bike_id": "5144641cc763c3beba046f21e270f03e", "name": "5144641cc763c3beba046f21e270f03e", "type": "electric_scooter", "lon": -76.94471566666667, "rental_uris": {"android": "https://dc.lft.to/lastmile_qr_scan", "ios": "https://dc.lft.to/lastmile_qr_scan"}, "lat": 38.902817166666665, "is_reserved": 0, "is_disabled": 0, "fusion_lat": 0.0}, {"fusion_lon": 0.0, "bike_id": "439d6831730bb079308abb1b42914125", "name": "439d6831730bb079308abb1b42914125", "type": "electric_scooter", "lon": -77.026052, "rental_uris": {"android": "https://dc.lft.to/lastmile_qr_scan", "ios": "https://dc.lft.to/lastmile_qr_scan"}, "lat": 38.91424083333333, "is_reserved": 0, "is_disabled": 0, "fusion_lat": 0.0}, {"fusion_lon": 0.0, "bike_id": "1afaec76f64581e41fc558c758237ca7", "name": "1afaec76f64581e41fc558c758237ca7", "type": "electric_scooter", "lon": -76.946407, "rental_uris": {"android": "https://dc.lft.to/lastmile_qr_scan", "ios": "https://dc.lft.to/lastmile_qr_scan"}, "lat": 38.8984765, "is_reserved": 0, "is_disabled": 0, "fusion_lat": 0.0}, {"fusion_lon": 0.0, "bike_id": "76f1892d09f56cd07b9b96771523a37c", "name": "76f1892d09f56cd07b9b96771523a37c", "type": "electric_scooter", "lon": -77.04141033333333, "rental_uris": {"android": "https://dc.lft.to/lastmile_qr_scan", "ios": "https://dc.lft.to/lastmile_qr_scan"}, "lat": 38.916908666666664, "is_reserved": 0, "is_disabled": 0, "fusion_lat": 0.0}, {"fusion_lon": 0.0, "bike_id": "c1e8b2785a3905a2d43fcdf878bbb7f2", "name": "c1e8b2785a3905a2d43fcdf878bbb7f2", "type": "electric_scooter", "lon": -77.02491416666666, "rental_uris": {"android": "https://dc.lft.to/lastmile_qr_scan", "ios": "https://dc.lft.to/lastmile_qr_scan"}, "lat": 38.9174645, "is_reserved": 0, "is_disabled": 0, "fusion_lat": 0.0}, {"fusion_lon": 0.0, "bike_id": "77bdde44de17247dfe6f63ad891af2cf", "name": "77bdde44de17247dfe6f63ad891af2cf", "type": "electric_scooter", "lon": -77.03168283333333, "rental_uris": {"android": "https://dc.lft.to/lastmile_qr_scan", "ios": "https://dc.lft.to/lastmile_qr_scan"}, "lat": 38.9209865, "is_reserved": 0, "is_disabled": 0, "fusion_lat": 0.0}, {"fusion_lon": 0.0, "bike_id": "2d7ac87464ffef7c4c9962816382e254", "name": "2d7ac87464ffef7c4c9962816382e254", "type": "electric_scooter", "lon": -77.04316883333334, "rental_uris": {"android": "https://dc.lft.to/lastmile_qr_scan", "ios": "https://dc.lft.to/lastmile_qr_scan"}, "lat": 38.91875016666667, "is_reserved": 0, "is_disabled": 0, "fusion_lat": 0.0}, {"fusion_lon": 0.0, "bike_id": "5538c885e98e0d5fc6015f6f86594ba9", "name": "5538c885e98e0d5fc6015f6f86594ba9", "type": "electric_scooter", "lon": -77.024872, "rental_uris": {"android": "https://dc.lft.to/lastmile_qr_scan", "ios": "https://dc.lft.to/lastmile_qr_scan"}, "lat": 38.94184416666667, "is_reserved": 0, "is_disabled": 0, "fusion_lat": 0.0}, {"fusion_lon": 0.0, "bike_id": "1fbf494c0bc07166316cf505a0ec9af4", "name": "1fbf494c0bc07166316cf505a0ec9af4", "type": "electric_scooter", "lon": -77.05049516666666, "rental_uris": {"android": "https://dc.lft.to/lastmile_qr_scan", "ios": "https://dc.lft.to/lastmile_qr_scan"}, "lat": 38.90055733333333, "is_reserved": 0, "is_disabled": 0, "fusion_lat": 0.0}, {"fusion_lon": 0.0, "bike_id": "714a79f1febeb51d71a81c9d01b1646c", "name": "714a79f1febeb51d71a81c9d01b1646c", "type": "electric_scooter", "lon": -77.07262466666667, "rental_uris": {"android": "https://dc.lft.to/lastmile_qr_scan", "ios": "https://dc.lft.to/lastmile_qr_scan"}, "lat": 38.91296366666667, "is_reserved": 0, "is_disabled": 0, "fusion_lat": 0.0}, {"fusion_lon": 0.0, "bike_id": "922e21eacdc38cacc1e608068fec5d84", "name": "922e21eacdc38cacc1e608068fec5d84", "type": "electric_bike", "lon": -76.94612733333334, "rental_uris": {"android": "https://dc.lft.to/lastmile_qr_scan", "ios": "https://dc.lft.to/lastmile_qr_scan"}, "lat": 38.8323375, "is_reserved": 0, "is_disabled": 0, "fusion_lat": 0.0}, {"fusion_lon": 0.0, "bike_id": "6d1010cb95a39f33fa5e04b276d0b6a5", "name": "6d1010cb95a39f33fa5e04b276d0b6a5", "type": "electric_scooter", "lon": -77.04104483333333, "rental_uris": {"android": "https://dc.lft.to/lastmile_qr_scan", "ios": "https://dc.lft.to/lastmile_qr_scan"}, "lat": 38.917845, "is_reserved": 0, "is_disabled": 0, "fusion_lat": 0.0}, {"fusion_lon": 0.0, "bike_id": "cd8acf088471137c43c6cba9e0b0ee12", "name": "cd8acf088471137c43c6cba9e0b0ee12", "type": "electric_scooter", "lon": -76.9946035, "rental_uris": {"android": "https://dc.lft.to/lastmile_qr_scan", "ios": "https://dc.lft.to/lastmile_qr_scan"}, "lat": 38.922783833333334, "is_reserved": 0, "is_disabled": 0, "fusion_lat": 0.0}, {"fusion_lon": 0.0, "bike_id": "866f62971a5ff3f78545c1162a5deea0", "name": "866f62971a5ff3f78545c1162a5deea0", "type": "electric_scooter", "lon": -77.046713, "rental_uris": {"android": "https://dc.lft.to/lastmile_qr_scan", "ios": "https://dc.lft.to/lastmile_qr_scan"}, "lat": 38.90717816666667, "is_reserved": 0, "is_disabled": 0, "fusion_lat": 0.0}, {"fusion_lon": 0.0, "bike_id": "06ebd0d026625bcf4cc500b9588b8493", "name": "06ebd0d026625bcf4cc500b9588b8493", "type": "electric_scooter", "lon": -76.991552, "rental_uris": {"android": "https://dc.lft.to/lastmile_qr_scan", "ios": "https://dc.lft.to/lastmile_qr_scan"}, "lat": 38.89772, "is_reserved": 0, "is_disabled": 0, "fusion_lat": 0.0}, {"fusion_lon": 0.0, "bike_id": "a1895d5cc5aae3b353523eb0164d31f6", "name": "a1895d5cc5aae3b353523eb0164d31f6", "type": "electric_scooter", "lon": -77.03795316666667, "rental_uris": {"android": "https://dc.lft.to/lastmile_qr_scan", "ios": "https://dc.lft.to/lastmile_qr_scan"}, "lat": 38.933164833333336, "is_reserved": 0, "is_disabled": 0, "fusion_lat": 0.0}, {"fusion_lon": 0.0, "bike_id": "264ccfbafabdff2f9a5517605aa29fb6", "name": "264ccfbafabdff2f9a5517605aa29fb6", "type": "electric_scooter", "lon": -76.9876425, "rental_uris": {"android": "https://dc.lft.to/lastmile_qr_scan", "ios": "https://dc.lft.to/lastmile_qr_scan"}, "lat": 38.883136666666665, "is_reserved": 0, "is_disabled": 0, "fusion_lat": 0.0}, {"fusion_lon": 0.0, "bike_id": "439c95f1ec93c8d05ab8446897d632fe", "name": "439c95f1ec93c8d05ab8446897d632fe", "type": "electric_scooter", "lon": -77.05032866666667, "rental_uris": {"android": "https://dc.lft.to/lastmile_qr_scan", "ios": "https://dc.lft.to/lastmile_qr_scan"}, "lat": 38.898354833333336, "is_reserved": 0, "is_disabled": 0, "fusion_lat": 0.0}, {"fusion_lon": 0.0, "bike_id": "b3c39f3c7ee012c6b0a602873e73fcef", "name": "b3c39f3c7ee012c6b0a602873e73fcef", "type": "electric_scooter", "lon": -77.02399833333334, "rental_uris": {"android": "https://dc.lft.to/lastmile_qr_scan", "ios": "https://dc.lft.to/lastmile_qr_scan"}, "lat": 38.905749166666666, "is_reserved": 0, "is_disabled": 0, "fusion_lat": 0.0}, {"fusion_lon": 0.0, "bike_id": "49014fd46eb5e8d30a48f6576eb95284", "name": "49014fd46eb5e8d30a48f6576eb95284", "type": "electric_scooter", "lon": -76.99614166666667, "rental_uris": {"android": "https://dc.lft.to/lastmile_qr_scan", "ios": "https://dc.lft.to/lastmile_qr_scan"}, "lat": 38.86464133333333, "is_reserved": 0, "is_disabled": 0, "fusion_lat": 0.0}, {"fusion_lon": 0.0, "bike_id": "0f4df6fbe272ed385ed726dd1486aed2", "name": "0f4df6fbe272ed385ed726dd1486aed2", "type": "electric_scooter", "lon": -77.02408416666667, "rental_uris": {"android": "https://dc.lft.to/lastmile_qr_scan", "ios": "https://dc.lft.to/lastmile_qr_scan"}, "lat": 38.90978783333333, "is_reserved": 0, "is_disabled": 0, "fusion_lat": 0.0}, {"fusion_lon": 0.0, "bike_id": "4b21a82c8c43ff66c662f47ce3736ce3", "name": "4b21a82c8c43ff66c662f47ce3736ce3", "type": "electric_scooter", "lon": -76.9949965, "rental_uris": {"android": "https://dc.lft.to/lastmile_qr_scan", "ios": "https://dc.lft.to/lastmile_qr_scan"}, "lat": 38.88580733333333, "is_reserved": 0, "is_disabled": 0, "fusion_lat": 0.0}, {"fusion_lon": 0.0, "bike_id": "83d77077b3d1df118881356658103c7a", "name": "83d77077b3d1df118881356658103c7a", "type": "electric_scooter", "lon": -77.0708005, "rental_uris": {"android": "https://dc.lft.to/lastmile_qr_scan", "ios": "https://dc.lft.to/lastmile_qr_scan"}, "lat": 38.93902, "is_reserved": 0, "is_disabled": 0, "fusion_lat": 0.0}, {"fusion_lon": 0.0, "bike_id": "ae42a5a53447708cde98411a173c0d1b", "name": "ae42a5a53447708cde98411a173c0d1b", "type": "electric_scooter", "lon": -77.008154, "rental_uris": {"android": "https://dc.lft.to/lastmile_qr_scan", "ios": "https://dc.lft.to/lastmile_qr_scan"}, "lat": 38.876388, "is_reserved": 0, "is_disabled": 0, "fusion_lat": 0.0}, {"fusion_lon": 0.0, "bike_id": "6898dfafc682d0ba992178108dbab1fd", "name": "6898dfafc682d0ba992178108dbab1fd", "type": "electric_scooter", "lon": -77.01619033333333, "rental_uris": {"android": "https://dc.lft.to/lastmile_qr_scan", "ios": "https://dc.lft.to/lastmile_qr_scan"}, "lat": 38.9059945, "is_reserved": 0, "is_disabled": 0, "fusion_lat": 0.0}, {"fusion_lon": 0.0, "bike_id": "947f200341ad4658d5f0e92dec390c06", "name": "947f200341ad4658d5f0e92dec390c06", "type": "electric_scooter", "lon": -77.01393116666667, "rental_uris": {"android": "https://dc.lft.to/lastmile_qr_scan", "ios": "https://dc.lft.to/lastmile_qr_scan"}, "lat": 38.88022183333333, "is_reserved": 0, "is_disabled": 0, "fusion_lat": 0.0}, {"fusion_lon": 0.0, "bike_id": "6ffb07b43a8185196de99fc44afdcd93", "name": "6ffb07b43a8185196de99fc44afdcd93", "type": "electric_scooter", "lon": -77.0176275, "rental_uris": {"android": "https://dc.lft.to/lastmile_qr_scan", "ios": "https://dc.lft.to/lastmile_qr_scan"}, "lat": 38.883723333333336, "is_reserved": 0, "is_disabled": 0, "fusion_lat": 0.0}, {"fusion_lon": 0.0, "bike_id": "5a64b9760ccf21c03d6225036cb1c7bc", "name": "5a64b9760ccf21c03d6225036cb1c7bc", "type": "electric_scooter", "lon": -77.051541, "rental_uris": {"android": "https://dc.lft.to/lastmile_qr_scan", "ios": "https://dc.lft.to/lastmile_qr_scan"}, "lat": 38.90425716666667, "is_reserved": 0, "is_disabled": 0, "fusion_lat": 0.0}, {"fusion_lon": 0.0, "bike_id": "430135bc9c6ae0781abec3422f22af2f", "name": "430135bc9c6ae0781abec3422f22af2f", "type": "electric_scooter", "lon": -77.01683233333333, "rental_uris": {"android": "https://dc.lft.to/lastmile_qr_scan", "ios": "https://dc.lft.to/lastmile_qr_scan"}, "lat": 38.883246, "is_reserved": 0, "is_disabled": 0, "fusion_lat": 0.0}, {"fusion_lon": 0.0, "bike_id": "c06d24b69aa8783eba1ea2b800334715", "name": "c06d24b69aa8783eba1ea2b800334715", "type": "electric_bike", "lon": -77.06944616666667, "rental_uris": {"android": "https://dc.lft.to/lastmile_qr_scan", "ios": "https://dc.lft.to/lastmile_qr_scan"}, "lat": 38.990412, "is_reserved": 0, "is_disabled": 0, "fusion_lat": 0.0}, {"fusion_lon": 0.0, "bike_id": "3c05f36781c516739dd03716a5b1c196", "name": "3c05f36781c516739dd03716a5b1c196", "type": "electric_scooter", "lon": -77.00580716666667, "rental_uris": {"android": "https://dc.lft.to/lastmile_qr_scan", "ios": "https://dc.lft.to/lastmile_qr_scan"}, "lat": 38.90555116666667, "is_reserved": 0, "is_disabled": 0, "fusion_lat": 0.0}, {"fusion_lon": 0.0, "bike_id": "3e91d86f2499b39af0daf95c62ae1ee3", "name": "3e91d86f2499b39af0daf95c62ae1ee3", "type": "electric_scooter", "lon": -77.02695566666667, "rental_uris": {"android": "https://dc.lft.to/lastmile_qr_scan", "ios": "https://dc.lft.to/lastmile_qr_scan"}, "lat": 38.908383666666666, "is_reserved": 0, "is_disabled": 0, "fusion_lat": 0.0}, {"fusion_lon": 0.0, "bike_id": "bddccbf76ebdb36ca31dcb6d312698b3", "name": "bddccbf76ebdb36ca31dcb6d312698b3", "type": "electric_bike", "lon": -77.08435866666666, "rental_uris": {"android": "https://dc.lft.to/lastmile_qr_scan", "ios": "https://dc.lft.to/lastmile_qr_scan"}, "lat": 38.81026466666667, "is_reserved": 0, "is_disabled": 0, "fusion_lat": 0.0}, {"fusion_lon": 0.0, "bike_id": "61d03578bf782888c657ea9f400a585b", "name": "61d03578bf782888c657ea9f400a585b", "type": "electric_scooter", "lon": -76.99144616666666, "rental_uris": {"android": "https://dc.lft.to/lastmile_qr_scan", "ios": "https://dc.lft.to/lastmile_qr_scan"}, "lat": 38.886839, "is_reserved": 0, "is_disabled": 0, "fusion_lat": 0.0}, {"fusion_lon": 0.0, "bike_id": "c963c8aedd9d60e133282a933355984f", "name": "c963c8aedd9d60e133282a933355984f", "type": "electric_scooter", "lon": -77.03211483333334, "rental_uris": {"android": "https://dc.lft.to/lastmile_qr_scan", "ios": "https://dc.lft.to/lastmile_qr_scan"}, "lat": 38.892184, "is_reserved": 0, "is_disabled": 0, "fusion_lat": 0.0}, {"fusion_lon": 0.0, "bike_id": "d51ef0f80f0896c9fc3aaad517bb442c", "name": "d51ef0f80f0896c9fc3aaad517bb442c", "type": "electric_scooter", "lon": -76.97930516666666, "rental_uris": {"android": "https://dc.lft.to/lastmile_qr_scan", "ios": "https://dc.lft.to/lastmile_qr_scan"}, "lat": 38.90238683333333, "is_reserved": 0, "is_disabled": 0, "fusion_lat": 0.0}, {"fusion_lon": 0.0, "bike_id": "df2a2827ff192e10a128c4f1fd9a2371", "name": "df2a2827ff192e10a128c4f1fd9a2371", "type": "electric_scooter", "lon": -76.947096, "rental_uris": {"android": "https://dc.lft.to/lastmile_qr_scan", "ios": "https://dc.lft.to/lastmile_qr_scan"}, "lat": 38.8972595, "is_reserved": 0, "is_disabled": 0, "fusion_lat": 0.0}, {"fusion_lon": 0.0, "bike_id": "f2d59f52b0d3fac7db80d08e83ba292d", "name": "f2d59f52b0d3fac7db80d08e83ba292d", "type": "electric_scooter", "lon": -77.02601983333334, "rental_uris": {"android": "https://dc.lft.to/lastmile_qr_scan", "ios": "https://dc.lft.to/lastmile_qr_scan"}, "lat": 38.918528, "is_reserved": 0, "is_disabled": 0, "fusion_lat": 0.0}, {"fusion_lon": 0.0, "bike_id": "2070b2149c2c6bea644103e22fa341d4", "name": "2070b2149c2c6bea644103e22fa341d4", "type": "electric_scooter", "lon": -76.98454716666667, "rental_uris": {"android": "https://dc.lft.to/lastmile_qr_scan", "ios": "https://dc.lft.to/lastmile_qr_scan"}, "lat": 38.880133666666666, "is_reserved": 0, "is_disabled": 0, "fusion_lat": 0.0}, {"fusion_lon": 0.0, "bike_id": "adfab7d582f72afb1421a05f88e9428a", "name": "adfab7d582f72afb1421a05f88e9428a", "type": "electric_scooter", "lon": -77.04309366666666, "rental_uris": {"android": "https://dc.lft.to/lastmile_qr_scan", "ios": "https://dc.lft.to/lastmile_qr_scan"}, "lat": 38.91963716666667, "is_reserved": 0, "is_disabled": 0, "fusion_lat": 0.0}, {"fusion_lon": 0.0, "bike_id": "615923f933ecdaab76e844e02afc9f44", "name": "615923f933ecdaab76e844e02afc9f44", "type": "electric_scooter", "lon": -77.02414166666667, "rental_uris": {"android": "https://dc.lft.to/lastmile_qr_scan", "ios": "https://dc.lft.to/lastmile_qr_scan"}, "lat": 38.957284333333334, "is_reserved": 0, "is_disabled": 0, "fusion_lat": 0.0}, {"fusion_lon": 0.0, "bike_id": "960cd6ef9328f5b907646d39e7783c40", "name": "960cd6ef9328f5b907646d39e7783c40", "type": "electric_scooter", "lon": -77.0447935, "rental_uris": {"android": "https://dc.lft.to/lastmile_qr_scan", "ios": "https://dc.lft.to/lastmile_qr_scan"}, "lat": 38.9108195, "is_reserved": 0, "is_disabled": 0, "fusion_lat": 0.0}, {"fusion_lon": 0.0, "bike_id": "e03a68e798f9642102ca579e5100b2e7", "name": "e03a68e798f9642102ca579e5100b2e7", "type": "electric_scooter", "lon": -77.00472066666667, "rental_uris": {"android": "https://dc.lft.to/lastmile_qr_scan", "ios": "https://dc.lft.to/lastmile_qr_scan"}, "lat": 38.9259025, "is_reserved": 0, "is_disabled": 0, "fusion_lat": 0.0}, {"fusion_lon": 0.0, "bike_id": "2a9a12a67e8f70619e042fa9465314e5", "name": "2a9a12a67e8f70619e042fa9465314e5", "type": "electric_scooter", "lon": -76.941183, "rental_uris": {"android": "https://dc.lft.to/lastmile_qr_scan", "ios": "https://dc.lft.to/lastmile_qr_scan"}, "lat": 38.907909333333336, "is_reserved": 0, "is_disabled": 0, "fusion_lat": 0.0}, {"fusion_lon": 0.0, "bike_id": "40cfc8cda5196dd4ff1c3f7cd477bf1c", "name": "40cfc8cda5196dd4ff1c3f7cd477bf1c", "type": "electric_bike", "lon": -77.1274635, "rental_uris": {"android": "https://dc.lft.to/lastmile_qr_scan", "ios": "https://dc.lft.to/lastmile_qr_scan"}, "lat": 38.888181, "is_reserved": 0, "is_disabled": 0, "fusion_lat": 0.0}, {"fusion_lon": 0.0, "bike_id": "7593cb4da56d839024a2d3fdb19f0d1d", "name": "7593cb4da56d839024a2d3fdb19f0d1d", "type": "electric_scooter", "lon": -77.0386575, "rental_uris": {"android": "https://dc.lft.to/lastmile_qr_scan", "ios": "https://dc.lft.to/lastmile_qr_scan"}, "lat": 38.915620833333335, "is_reserved": 0, "is_disabled": 0, "fusion_lat": 0.0}, {"fusion_lon": 0.0, "bike_id": "478044c0aa823fe6a69d5506d3da6807", "name": "478044c0aa823fe6a69d5506d3da6807", "type": "electric_scooter", "lon": -77.0229675, "rental_uris": {"android": "https://dc.lft.to/lastmile_qr_scan", "ios": "https://dc.lft.to/lastmile_qr_scan"}, "lat": 38.9080615, "is_reserved": 0, "is_disabled": 0, "fusion_lat": 0.0}, {"fusion_lon": 0.0, "bike_id": "0f3107351c4e65c6be654d578f4a922e", "name": "0f3107351c4e65c6be654d578f4a922e", "type": "electric_scooter", "lon": -76.9866705, "rental_uris": {"android": "https://dc.lft.to/lastmile_qr_scan", "ios": "https://dc.lft.to/lastmile_qr_scan"}, "lat": 38.855619, "is_reserved": 0, "is_disabled": 0, "fusion_lat": 0.0}, {"fusion_lon": 0.0, "bike_id": "18dc771e2efe0279d743988a104dc8e9", "name": "18dc771e2efe0279d743988a104dc8e9", "type": "electric_scooter", "lon": -77.0246565, "rental_uris": {"android": "https://dc.lft.to/lastmile_qr_scan", "ios": "https://dc.lft.to/lastmile_qr_scan"}, "lat": 38.937688, "is_reserved": 0, "is_disabled": 0, "fusion_lat": 0.0}, {"fusion_lon": 0.0, "bike_id": "06c910750cfab98dd9e96ae57d9438da", "name": "06c910750cfab98dd9e96ae57d9438da", "type": "electric_scooter", "lon": -77.02114416666667, "rental_uris": {"android": "https://dc.lft.to/lastmile_qr_scan", "ios": "https://dc.lft.to/lastmile_qr_scan"}, "lat": 38.89749466666667, "is_reserved": 0, "is_disabled": 0, "fusion_lat": 0.0}, {"fusion_lon": 0.0, "bike_id": "2d8c7cabb489c7bd9bf9035e3db07ee5", "name": "2d8c7cabb489c7bd9bf9035e3db07ee5", "type": "electric_scooter", "lon": -77.01256483333333, "rental_uris": {"android": "https://dc.lft.to/lastmile_qr_scan", "ios": "https://dc.lft.to/lastmile_qr_scan"}, "lat": 38.87488316666666, "is_reserved": 0, "is_disabled": 0, "fusion_lat": 0.0},