{"data": {"bikes": [{"lon": -77.04175983333333, "lat": 38.9190275, "name": "0a51d4488df996ffbab51902b2c92d6e", "fusion_lat": 0.0, "fusion_lon": 0.0, "rental_uris": {"android": "https://dc.lft.to/lastmile_qr_scan", "ios": "https://dc.lft.to/lastmile_qr_scan"}, "is_reserved": 0, "is_disabled": 0, "type": "electric_scooter", "bike_id": "0a51d4488df996ffbab51902b2c92d6e"}, {"lon": -77.03363766666666, "lat": 38.899849333333336, "name": "7ef287bb9ab33fa7aa28c868f24ae717", "fusion_lat": 0.0, "fusion_lon": 0.0, "rental_uris": {"android": "https://dc.lft.to/lastmile_qr_scan", "ios": "https://dc.lft.to/lastmile_qr_scan"}, "is_reserved": 0, "is_disabled": 0, "type": "electric_scooter", "bike_id": "7ef287bb9ab33fa7aa28c868f24ae717"}, {"lon": -77.02795233333333, "lat": 38.93076833333333, "name": "9010f3d8f86bd2003a422b35770569fd", "fusion_lat": 0.0, "fusion_lon": 0.0, "rental_uris": {"android": "https://dc.lft.to/lastmile_qr_scan", "ios": "https://dc.lft.to/lastmile_qr_scan"}, "is_reserved": 0, "is_disabled": 0, "type": "electric_scooter", "bike_id": "9010f3d8f86bd2003a422b35770569fd"}, {"lon": -77.04719783333333, "lat": 38.9187655, "name": "741280a1fec0af45abed2c808791774a", "fusion_lat": 0.0, "fusion_lon": 0.0, "rental_uris": {"android": "https://dc.lft.to/lastmile_qr_scan", "ios": "https://dc.lft.to/lastmile_qr_scan"}, "is_reserved": 0, "is_disabled": 0, "type": "electric_scooter", "bike_id": "741280a1fec0af45abed2c808791774a"}, {"lon": -77.01024266666667, "lat": 38.918088, "name": "5fba40256fd2b7c6bbd783a9311471bb", "fusion_lat": 0.0, "fusion_lon": 0.0, "rental_uris": {"android": "https://dc.lft.to/lastmile_qr_scan", "ios": "https://dc.lft.to/lastmile_qr_scan"}, "is_reserved": 0, "is_disabled": 0, "type": "electric_scooter", "bike_id": "5fba40256fd2b7c6bbd783a9311471bb"}, {"lon": -76.9899985, "lat": 38.90390216666667, "name": "915b6753c80dac8b3edc788303e4dcfb", "fusion_lat": 0.0, "fusion_lon": 0.0, "rental_uris": {"android": "https://dc.lft.to/lastmile_qr_scan", "ios": "https://dc.lft.to/lastmile_qr_scan"}, "is_reserved": 0, "is_disabled": 0, "type": "electric_scooter", "bike_id": "915b6753c80dac8b3edc788303e4dcfb"}, {"lon": -77.028896, "lat": 38.90032766666667, "name": "0021d0902fe7cac57d0c219d15ca9f37", "fusion_lat": 0.0, "fusion_lon": 0.0, "rental_uris": {"android": "https://dc.lft.to/lastmile_qr_scan", "ios": "https://dc.lft.to/lastmile_qr_scan"}, "is_reserved": 0, "is_disabled": 0, "type": "electric_scooter", "bike_id": "0021d0902fe7cac57d0c219d15ca9f37"}, {"lon": -76.984444, "lat": 38.8996405, "name": "d2c2c92370a5dd858b7de5d32accaa6e", "fusion_lat": 0.0, "fusion_lon": 0.0, "rental_uris": {"android": "https://dc.lft.to/lastmile_qr_scan", "ios": "https://dc.lft.to/lastmile_qr_scan"}, "is_reserved": 0, "is_disabled": 0, "type": "electric_scooter", "bike_id": "d2c2c92370a5dd858b7de5d32accaa6e"}, {"lon": -76.91921266666667, "lat": 38.89077133333333, "name": "a430fbbb5f379e08a0791f2a9207e6b2", "fusion_lat": 0.0, "fusion_lon": 0.0, "rental_uris": {"android": "https://dc.lft.to/lastmile_qr_scan", "ios": "https://dc.lft.to/lastmile_qr_scan"}, "is_reserved": 0, "is_disabled": 0, "type": "electric_scooter", "bike_id": "a430fbbb5f379e08a0791f2a9207e6b2"}, {"lon": -77.00596883333333, "lat": 38.8980565, "name": "e0669468c156ec39398aebdd8868487b", "fusion_lat": 0.0, "fusion_lon": 0.0, "rental_uris": {"android": "https://dc.lft.to/lastmile_qr_scan", "ios": "https://dc.lft.to/lastmile_qr_scan"}, "is_reserved": 0, "is_disabled": 0, "type": "electric_bike", "bike_id": "e0669468c156ec39398aebdd8868487b"}, {"lon": -77.0469195, "lat": 38.92091583333333, "name": "b724e327c85d2d5320b110fcd86cb6d5", "fusion_lat": 0.0, "fusion_lon": 0.0, "rental_uris": {"android": "https://dc.lft.to/lastmile_qr_scan", "ios": "https://dc.lft.to/lastmile_qr_scan"}, "is_reserved": 0, "is_disabled": 0, "type": "electric_scooter", "bike_id": "b724e327c85d2d5320b110fcd86cb6d5"}, {"lon": -77.04479216666667, "lat": 38.91082083333333, "name": "64994e90f6882fca49ec88ede7b94240", "fusion_lat": 0.0, "fusion_lon": 0.0, "rental_uris": {"android": "https://dc.lft.to/lastmile_qr_scan", "ios": "https://dc.lft.to/lastmile_qr_scan"}, "is_reserved": 0, "is_disabled": 0, "type": "electric_scooter", "bike_id": "64994e90f6882fca49ec88ede7b94240"}, {"lon": -76.98472033333333, "lat": 38.928964, "name": "eb6cfff438db26c05ddd0e9b8648b456", "fusion_lat": 0.0, "fusion_lon": 0.0, "rental_uris": {"android": "https://dc.lft.to/lastmile_qr_scan", "ios": "https://dc.lft.to/lastmile_qr_scan"}, "is_reserved": 0, "is_disabled": 0, "type": "electric_scooter", "bike_id": "eb6cfff438db26c05ddd0e9b8648b456"}, {"lon": -77.0345875, "lat": 38.90449733333333, "name": "62cd9cd7bf958d8694d336e4f33a0ca1", "fusion_lat": 0.0, "fusion_lon": 0.0, "rental_uris": {"android": "https://dc.lft.to/lastmile_qr_scan", "ios": "https://dc.lft.to/lastmile_qr_scan"}, "is_reserved": 0, "is_disabled": 0, "type": "electric_scooter", "bike_id": "62cd9cd7bf958d8694d336e4f33a0ca1"}, {"lon": -77.03820733333333, "lat": 38.92066116666667, "name": "7e4baeec207c2b5d4e9bc3aa57c14b7f", "fusion_lat": 0.0, "fusion_lon": 0.0, "rental_uris": {"android": "https://dc.lft.to/lastmile_qr_scan", "ios": "https://dc.lft.to/lastmile_qr_scan"}, "is_reserved": 0, "is_disabled": 0, "type": "electric_scooter", "bike_id": "7e4baeec207c2b5d4e9bc3aa57c14b7f"}, {"lon": -77.047829, "lat": 38.893728333333335, "name": "0ae5d22c7615179acdfc06f1a7c718fa", "fusion_lat": 0.0, "fusion_lon": 0.0, "rental_uris": {"android": "https://dc.lft.to/lastmile_qr_scan", "ios": "https://dc.lft.to/lastmile_qr_scan"}, "is_reserved": 0, "is_disabled": 0, "type": "electric_scooter", "bike_id": "0ae5d22c7615179acdfc06f1a7c718fa"}, {"lon": -77.00180833333333, "lat": 38.952641666666665, "name": "c2f7db4d188097ee91c7b8063023fe70", "fusion_lat": 0.0, "fusion_lon": 0.0, "rental_uris": {"android": "https://dc.lft.to/lastmile_qr_scan", "ios": "https://dc.lft.to/lastmile_qr_scan"}, "is_reserved": 0, "is_disabled": 0, "type": "electric_scooter", "bike_id": "c2f7db4d188097ee91c7b8063023fe70"}, {"lon": -77.031655, "lat": 38.89413283333333, "name": "6f7652a69bce75bd90b1ccbf440fbb16", "fusion_lat": 0.0, "fusion_lon": 0.0, "rental_uris": {"android": "https://dc.lft.to/lastmile_qr_scan", "ios": "https://dc.lft.to/lastmile_qr_scan"}, "is_reserved": 0, "is_disabled": 0, "type": "electric_scooter", "bike_id": "6f7652a69bce75bd90b1ccbf440fbb16"}, {"lon": -77.0370145, "lat": 38.926399833333335, "name": "bee83f6167dde36d0350aa6cdbe8b783", "fusion_lat": 0.0, "fusion_lon": 0.0, "rental_uris": {"android": "https://dc.lft.to/lastmile_qr_scan", "ios": "https://dc.lft.to/lastmile_qr_scan"}, "is_reserved": 0, "is_disabled": 0, "type": "electric_scooter", "bike_id": "bee83f6167dde36d0350aa6cdbe8b783"}, {"lon": -77.02402983333333, "lat": 38.91977166666667, "name": "47be831af42c993b047b188281230955", "fusion_lat": 0.0, "fusion_lon": 0.0, "rental_uris": {"android": "https://dc.lft.to/lastmile_qr_scan", "ios": "https://dc.lft.to/lastmile_qr_scan"}, "is_reserved": 0, "is_disabled": 0, "type": "electric_scooter", "bike_id": "47be831af42c993b047b188281230955"}, {"lon": -77.04120166666667, "lat": 38.918896, "name": "f9ac211fbecb0ed9e1362f993bfbb8e2", "fusion_lat": 0.0, "fusion_lon": 0.0, "rental_uris": {"android": "https://dc.lft.to/lastmile_qr_scan", "ios": "https://dc.lft.to/lastmile_qr_scan"}, "is_reserved": 0, "is_disabled": 0, "type": "electric_scooter", "bike_id": "f9ac211fbecb0ed9e1362f993bfbb8e2"}, {"lon": -77.04836766666666, "lat": 38.900759, "name": "5232de10dd834dcc249e2c7df15a2eb0", "fusion_lat": 0.0, "fusion_lon": 0.0, "rental_uris": {"android": "https://dc.lft.to/lastmile_qr_scan", "ios": "https://dc.lft.to/lastmile_qr_scan"}, "is_reserved": 0, "is_disabled": 0, "type": "electric_scooter", "bike_id": "5232de10dd834dcc249e2c7df15a2eb0"}, {"lon": -77.03372033333333, "lat": 38.90385783333333, "name": "db84064110acd95bf457cf33559eb480", "fusion_lat": 0.0, "fusion_lon": 0.0, "rental_uris": {"android": "https://dc.lft.to/lastmile_qr_scan", "ios": "https://dc.lft.to/lastmile_qr_scan"}, "is_reserved": 0, "is_disabled": 0, "type": "electric_scooter", "bike_id": "db84064110acd95bf457cf33559eb480"}, {"lon": -77.03162816666666, "lat": 38.90966866666667, "name": "cf31300dd6f8a23b5eb8dbd0bc0dc9c5", "fusion_lat": 0.0, "fusion_lon": 0.0, "rental_uris": {"android": "https://dc.lft.to/lastmile_qr_scan", "ios": "https://dc.lft.to/lastmile_qr_scan"}, "is_reserved": 0, "is_disabled": 0, "type": "electric_scooter", "bike_id": "cf31300dd6f8a23b5eb8dbd0bc0dc9c5"}, {"lon": -77.03192616666666, "lat": 38.900012833333335, "name": "b73b2222fa35910deba345689667f009", "fusion_lat": 0.0, "fusion_lon": 0.0, "rental_uris": {"android": "https://dc.lft.to/lastmile_qr_scan", "ios": "https://dc.lft.to/lastmile_qr_scan"}, "is_reserved": 0, "is_disabled": 0, "type": "electric_scooter", "bike_id": "b73b2222fa35910deba345689667f009"}, {"lon": -77.0347105, "lat": 38.917058833333336, "name": "492316e901fca73b153d2f78a4703ad3", "fusion_lat": 0.0, "fusion_lon": 0.0, "rental_uris": {"android": "https://dc.lft.to/lastmile_qr_scan", "ios": "https://dc.lft.to/lastmile_qr_scan"}, "is_reserved": 0, "is_disabled": 0, "type": "electric_scooter", "bike_id": "492316e901fca73b153d2f78a4703ad3"}, {"lon": -77.063424, "lat": 38.906789333333336, "name": "a8c417454e781ff2727cc3bdbcc6bee4", "fusion_lat": 0.0, "fusion_lon": 0.0, "rental_uris": {"android": "https://dc.lft.to/lastmile_qr_scan", "ios": "https://dc.lft.to/lastmile_qr_scan"}, "is_reserved": 0, "is_disabled": 0, "type": "electric_scooter", "bike_id": "a8c417454e781ff2727cc3bdbcc6bee4"}, {"lon": -77.036388, "lat": 38.91268016666667, "name": "cd410646896f467a1c6ad01dc404731d", "fusion_lat": 0.0, "fusion_lon": 0.0, "rental_uris": {"android": "https://dc.lft.to/lastmile_qr_scan", "ios": "https://dc.lft.to/lastmile_qr_scan"}, "is_reserved": 0, "is_disabled": 0, "type": "electric_scooter", "bike_id": "cd410646896f467a1c6ad01dc404731d"}, {"lon": -76.98408866666666, "lat": 38.899958, "name": "bc135a959266817fc12183c3080502e7", "fusion_lat": 0.0, "fusion_lon": 0.0, "rental_uris": {"android": "https://dc.lft.to/lastmile_qr_scan", "ios": "https://dc.lft.to/lastmile_qr_scan"}, "is_reserved": 0, "is_disabled": 0, "type": "electric_scooter", "bike_id": "bc135a959266817fc12183c3080502e7"}, {"lon": -77.0470005, "lat": 38.92152266666667, "name": "51e793a8542b4eeb37d6b5904c27c368", "fusion_lat": 0.0, "fusion_lon": 0.0, "rental_uris": {"android": "https://dc.lft.to/lastmile_qr_scan", "ios": "https://dc.lft.to/lastmile_qr_scan"}, "is_reserved": 0, "is_disabled": 0, "type": "electric_scooter", "bike_id": "51e793a8542b4eeb37d6b5904c27c368"}, {"lon": -77.03127116666667, "lat": 38.919057333333335, "name": "45c2e31b311b45c386b216c7df7be32e", "fusion_lat": 0.0, "fusion_lon": 0.0, "rental_uris": {"android": "https://dc.lft.to/lastmile_qr_scan", "ios": "https://dc.lft.to/lastmile_qr_scan"}, "is_reserved": 0, "is_disabled": 0, "type": "electric_scooter", "bike_id": "45c2e31b311b45c386b216c7df7be32e"}, {"lon": -77.023974, "lat": 38.908468666666664, "name": "eb8a1d44c1da4c0e7d0ec44787bc94f8", "fusion_lat": 0.0, "fusion_lon": 0.0, "rental_uris": {"android": "https://dc.lft.to/lastmile_qr_scan", "ios": "https://dc.lft.to/lastmile_qr_scan"}, "is_reserved": 0, "is_disabled": 0, "type": "electric_scooter", "bike_id": "eb8a1d44c1da4c0e7d0ec44787bc94f8"}, {"lon": -77.02816183333333, "lat": 38.90933316666667, "name": "95bd08abfccfe090e25ec5232564506f", "fusion_lat": 0.0, "fusion_lon": 0.0, "rental_uris": {"android": "https://dc.lft.to/lastmile_qr_scan", "ios": "https://dc.lft.to/lastmile_qr_scan"}, "is_reserved": 0, "is_disabled": 0, "type": "electric_scooter", "bike_id": "95bd08abfccfe090e25ec5232564506f"}, {"lon": -77.02748983333333, "lat": 38.96625516666667, "name": "351783f0984734e3d8ef01dc140fc165", "fusion_lat": 0.0, "fusion_lon": 0.0, "rental_uris": {"android": "https://dc.lft.to/lastmile_qr_scan", "ios": "https://dc.lft.to/lastmile_qr_scan"}, "is_reserved": 0, "is_disabled": 0, "type": "electric_scooter", "bike_id": "351783f0984734e3d8ef01dc140fc165"}, {"lon": -77.039874, "lat": 38.8029265, "name": "9ad3966383174b86503fe4b3c68ceaca", "fusion_lat": 0.0, "fusion_lon": 0.0, "rental_uris": {"android": "https://dc.lft.to/lastmile_qr_scan", "ios": "https://dc.lft.to/lastmile_qr_scan"}, "is_reserved": 0, "is_disabled": 0, "type": "electric_bike", "bike_id": "9ad3966383174b86503fe4b3c68ceaca"}, {"lon": -77.03193583333334, "lat": 38.89347016666667, "name": "16f7a63cc106430fbbe5c1f904b64f0b", "fusion_lat": 0.0, "fusion_lon": 0.0, "rental_uris": {"android": "https://dc.lft.to/lastmile_qr_scan", "ios": "https://dc.lft.to/lastmile_qr_scan"}, "is_reserved": 0, "is_disabled": 0, "type": "electric_scooter", "bike_id": "16f7a63cc106430fbbe5c1f904b64f0b"}, {"lon": -76.970301, "lat": 38.9031095, "name": "1179657309523d184dfb39684346cc61", "fusion_lat": 0.0, "fusion_lon": 0.0, "rental_uris": {"android": "https://dc.lft.to/lastmile_qr_scan", "ios": "https://dc.lft.to/lastmile_qr_scan"}, "is_reserved": 0, "is_disabled": 0, "type": "electric_scooter", "bike_id": "1179657309523d184dfb39684346cc61"}, {"lon": -77.0269885, "lat": 38.9067665, "name": "10ed52fdd30c4901628a5cfa33989e57", "fusion_lat": 0.0, "fusion_lon": 0.0, "rental_uris": {"android": "https://dc.lft.to/lastmile_qr_scan", "ios": "https://dc.lft.to/lastmile_qr_scan"}, "is_reserved": 0, "is_disabled": 0, "type": "electric_scooter", "bike_id": "10ed52fdd30c4901628a5cfa33989e57"}, {"lon": -77.02713166666666, "lat": 38.90081216666667, "name": "fcd8eea89b9eb9eb714caaf5ba95ee2c", "fusion_lat": 0.0, "fusion_lon": 0.0, "rental_uris": {"android": "https://dc.lft.to/lastmile_qr_scan", "ios": "https://dc.lft.to/lastmile_qr_scan"}, "is_reserved": 0, "is_disabled": 0, "type": "electric_scooter", "bike_id": "fcd8eea89b9eb9eb714caaf5ba95ee2c"}, {"lon": -77.02158233333333, "lat": 38.9283285, "name": "e52a7a5b0830580218c224b3a7bc328f", "fusion_lat": 0.0, "fusion_lon": 0.0, "rental_uris": {"android": "https://dc.lft.to/lastmile_qr_scan", "ios": "https://dc.lft.to/lastmile_qr_scan"}, "is_reserved": 0, "is_disabled": 0, "type": "electric_scooter", "bike_id": "e52a7a5b0830580218c224b3a7bc328f"}, {"lon": -77.0257335, "lat": 38.887434666666664, "name": "fa8df5be4a0439de9d81803703b7710d", "fusion_lat": 0.0, "fusion_lon": 0.0, "rental_uris": {"android": "https://dc.lft.to/lastmile_qr_scan", "ios": "https://dc.lft.to/lastmile_qr_scan"}, "is_reserved": 0, "is_disabled": 0, "type": "electric_scooter", "bike_id": "fa8df5be4a0439de9d81803703b7710d"}, {"lon": -77.03284933333333, "lat": 38.929190166666665, "name": "0048ee50ab13642fa315a7b85e51e77a", "fusion_lat": 0.0, "fusion_lon": 0.0, "rental_uris": {"android": "https://dc.lft.to/lastmile_qr_scan", "ios": "https://dc.lft.to/lastmile_qr_scan"}, "is_reserved": 0, "is_disabled": 0, "type": "electric_scooter", "bike_id": "0048ee50ab13642fa315a7b85e51e77a"}, {"lon": -76.98227583333333, "lat": 38.8668395, "name": "b561f8c1fa3c1db7d8aa1ff7498aa34c", "fusion_lat": 0.0, "fusion_lon": 0.0, "rental_uris": {"android": "https://dc.lft.to/lastmile_qr_scan", "ios": "https://dc.lft.to/lastmile_qr_scan"}, "is_reserved": 0, "is_disabled": 0, "type": "electric_bike", "bike_id": "b561f8c1fa3c1db7d8aa1ff7498aa34c"}, {"lon": -77.011846, "lat": 38.90042, "name": "7804018e19f3a7e1136711f33fca1b72", "fusion_lat": 0.0, "fusion_lon": 0.0, "rental_uris": {"android": "https://dc.lft.to/lastmile_qr_scan", "ios": "https://dc.lft.to/lastmile_qr_scan"}, "is_reserved": 0, "is_disabled": 0, "type": "electric_scooter", "bike_id": "7804018e19f3a7e1136711f33fca1b72"}, {"lon": -76.9951515, "lat": 38.84470916666667, "name": "87929fc5bc852c8e5558c5d1dedbabed", "fusion_lat": 0.0, "fusion_lon": 0.0, "rental_uris": {"android": "https://dc.lft.to/lastmile_qr_scan", "ios": "https://dc.lft.to/lastmile_qr_scan"}, "is_reserved": 0, "is_disabled": 0, "type": "electric_scooter", "bike_id": "87929fc5bc852c8e5558c5d1dedbabed"}, {"lon": -76.99910666666666, "lat": 38.9093365, "name": "b3cd61e9f38471d5bef403ede5e9f805", "fusion_lat": 0.0, "fusion_lon": 0.0, "rental_uris": {"android": "https://dc.lft.to/lastmile_qr_scan", "ios": "https://dc.lft.to/lastmile_qr_scan"}, "is_reserved": 0, "is_disabled": 0, "type": "electric_scooter", "bike_id": "b3cd61e9f38471d5bef403ede5e9f805"}, {"lon": -76.99781866666666, "lat": 38.84426966666667, "name": "90e350c95cab8f1dc99efb3d7a0eadf1", "fusion_lat": 0.0, "fusion_lon": 0.0, "rental_uris": {"android": "https://dc.lft.to/lastmile_qr_scan", "ios": "https://dc.lft.to/lastmile_qr_scan"}, "is_reserved": 0, "is_disabled": 0, "type": "electric_scooter", "bike_id": "90e350c95cab8f1dc99efb3d7a0eadf1"}, {"lon": -77.00371883333334, "lat": 38.836058666666666, "name": "c24f5da368a4cba96cf4e53d8d9df2fc", "fusion_lat": 0.0, "fusion_lon": 0.0, "rental_uris": {"android": "https://dc.lft.to/lastmile_qr_scan", "ios": "https://dc.lft.to/lastmile_qr_scan"}, "is_reserved": 0, "is_disabled": 0, "type": "electric_bike", "bike_id": "c24f5da368a4cba96cf4e53d8d9df2fc"}, {"lon": -77.03513283333334, "lat": 38.975876, "name": "02644df2bc416c4b1a7efb836e0d3f7d", "fusion_lat": 0.0, "fusion_lon": 0.0, "rental_uris": {"android": "https://dc.lft.to/lastmile_qr_scan", "ios": "https://dc.lft.to/lastmile_qr_scan"}, "is_reserved": 0, "is_disabled": 0, "type": "electric_bike", "bike_id": "02644df2bc416c4b1a7efb836e0d3f7d"}, {"lon": -77.02937366666667, "lat": 38.94285383333333, "name": "94ff016001128a9213ec3731b20b42b5", "fusion_lat": 0.0, "fusion_lon": 0.0, "rental_uris": {"android": "https://dc.lft.to/lastmile_qr_scan", "ios": "https://dc.lft.to/lastmile_qr_scan"}, "is_reserved": 0, "is_disabled": 0, "type": "electric_bike", "bike_id": "94ff016001128a9213ec3731b20b42b5"}, {"lon": -77.04273566666667, "lat": 38.907069666666665, "name": "46815aa4408f60903bb5cdb4c51e85b8", "fusion_lat": 0.0, "fusion_lon": 0.0, "rental_uris": {"android": "https://dc.lft.to/lastmile_qr_scan", "ios": "https://dc.lft.to/lastmile_qr_scan"}, "is_reserved": 0, "is_disabled": 0, "type": "electric_scooter", "bike_id": "46815aa4408f60903bb5cdb4c51e85b8"}, {"lon": -77.03643483333333, "lat": 38.91259633333333, "name": "6c9ad205e88352020caf15d0629ef0ed", "fusion_lat": 0.0, "fusion_lon": 0.0, "rental_uris": {"android": "https://dc.lft.to/lastmile_qr_scan", "ios": "https://dc.lft.to/lastmile_qr_scan"}, "is_reserved": 0, "is_disabled": 0, "type": "electric_scooter", "bike_id": "6c9ad205e88352020caf15d0629ef0ed"}, {"lon": -77.03292633333334, "lat": 38.956524333333334, "name": "ae831d7b1a5155e4819f0f59a6912599", "fusion_lat": 0.0, "fusion_lon": 0.0, "rental_uris": {"android": "https://dc.lft.to/lastmile_qr_scan", "ios": "https://dc.lft.to/lastmile_qr_scan"}, "is_reserved": 0, "is_disabled": 0, "type": "electric_scooter", "bike_id": "ae831d7b1a5155e4819f0f59a6912599"}, {"lon": -77.09549, "lat": 38.83728466666667, "name": "958b8263b2701f55544a33adacb5bc02", "fusion_lat": 0.0, "fusion_lon": 0.0, "rental_uris": {"android": "https://dc.lft.to/lastmile_qr_scan", "ios": "https://dc.lft.to/lastmile_qr_scan"}, "is_reserved": 0, "is_disabled": 0, "type": "electric_bike", "bike_id": "958b8263b2701f55544a33adacb5bc02"}, {"lon": -77.0116075, "lat": 38.893412166666664, "name": "51dd35550ba3230ddbc51c6d1fc5911d", "fusion_lat": 0.0, "fusion_lon": 0.0, "rental_uris": {"android": "https://dc.lft.to/lastmile_qr_scan", "ios": "https://dc.lft.to/lastmile_qr_scan"}, "is_reserved": 0, "is_disabled": 0, "type": "electric_scooter", "bike_id": "51dd35550ba3230ddbc51c6d1fc5911d"}, {"lon": -76.94943833333333, "lat": 38.88316833333333, "name": "a7bfe0ccc9a83d7106e1c71c96b58047", "fusion_lat": 0.0, "fusion_lon": 0.0, "rental_uris": {"android": "https://dc.lft.to/lastmile_qr_scan", "ios": "https://dc.lft.to/lastmile_qr_scan"}, "is_reserved": 0, "is_disabled": 0, "type": "electric_scooter", "bike_id": "a7bfe0ccc9a83d7106e1c71c96b58047"}, {"lon": -77.02910983333334, "lat": 38.90040316666666, "name": "f1437c5d1e64699fea1ecab0ced270d7", "fusion_lat": 0.0, "fusion_lon": 0.0, "rental_uris": {"android": "https://dc.lft.to/lastmile_qr_scan", "ios": "https://dc.lft.to/lastmile_qr_scan"}, "is_reserved": 0, "is_disabled": 0, "type": "electric_scooter", "bike_id": "f1437c5d1e64699fea1ecab0ced270d7"}, {"lon": -77.021728, "lat": 38.9056455, "name": "1b8ba1c0edfbbbc9e752c7fe209c9af1", "fusion_lat": 0.0, "fusion_lon": 0.0, "rental_uris": {"android": "https://dc.lft.to/lastmile_qr_scan", "ios": "https://dc.lft.to/lastmile_qr_scan"}, "is_reserved": 0, "is_disabled": 0, "type": "electric_scooter", "bike_id": "1b8ba1c0edfbbbc9e752c7fe209c9af1"}, {"lon": -77.0414675, "lat": 38.892221, "name": "417c237afb625316d8221422f84a2855", "fusion_lat": 0.0, "fusion_lon": 0.0, "rental_uris": {"android": "https://dc.lft.to/lastmile_qr_scan", "ios": "https://dc.lft.to/lastmile_qr_scan"}, "is_reserved": 0, "is_disabled": 0, "type": "electric_scooter", "bike_id": "417c237afb625316d8221422f84a2855"}, {"lon": -77.02908083333334, "lat": 38.958421666666666, "name": "b71a1a327ee0f488b0311d20cc457b32", "fusion_lat": 0.0, "fusion_lon": 0.0, "rental_uris": {"android": "https://dc.lft.to/lastmile_qr_scan", "ios": "https://dc.lft.to/lastmile_qr_scan"}, "is_reserved": 0, "is_disabled": 0, "type": "electric_scooter", "bike_id": "b71a1a327ee0f488b0311d20cc457b32"}, {"lon": -76.98731216666667, "lat": 38.86706266666667, "name": "08d820b8e132fad37a5fa8dfa5c34767", "fusion_lat": 0.0, "fusion_lon": 0.0, "rental_uris": {"android": "https://dc.lft.to/lastmile_qr_scan", "ios": "https://dc.lft.to/lastmile_qr_scan"}, "is_reserved": 0, "is_disabled": 0, "type": "electric_scooter", "bike_id": "08d820b8e132fad37a5fa8dfa5c34767"}, {"lon": -77.03264366666667, "lat": 38.90863016666667, "name": "1c3706b7b2675c107629cff8395a5ee3", "fusion_lat": 0.0, "fusion_lon": 0.0, "rental_uris": {"android": "https://dc.lft.to/lastmile_qr_scan", "ios": "https://dc.lft.to/lastmile_qr_scan"}, "is_reserved": 0, "is_disabled": 0, "type": "electric_scooter", "bike_id": "1c3706b7b2675c107629cff8395a5ee3"}, {"lon": -76.99933883333334, "lat": 38.89620516666667, "name": "b5afc024593abe81805460613fe5a7df", "fusion_lat": 0.0, "fusion_lon": 0.0, "rental_uris": {"android": "https://dc.lft.to/lastmile_qr_scan", "ios": "https://dc.lft.to/lastmile_qr_scan"}, "is_reserved": 0, "is_disabled": 0, "type": "electric_scooter", "bike_id": "b5afc024593abe81805460613fe5a7df"}, {"lon": -77.07634516666667, "lat": 38.906134, "name": "9715eb374a5a4b85afd273159de1afff", "fusion_lat": 0.0, "fusion_lon": 0.0, "rental_uris": {"android": "https://dc.lft.to/lastmile_qr_scan", "ios": "https://dc.lft.to/lastmile_qr_scan"}, "is_reserved": 0, "is_disabled": 0, "type": "electric_bike", "bike_id": "9715eb374a5a4b85afd273159de1afff"}, {"lon": -77.032609, "lat": 38.90223016666667, "name": "5dee218c6fa11b0cac8fcee3841abb87", "fusion_lat": 0.0, "fusion_lon": 0.0, "rental_uris": {"android": "https://dc.lft.to/lastmile_qr_scan", "ios": "https://dc.lft.to/lastmile_qr_scan"}, "is_reserved": 0, "is_disabled": 0, "type": "electric_scooter", "bike_id": "5dee218c6fa11b0cac8fcee3841abb87"}, {"lon": -77.01842616666667, "lat": 38.946266666666666, "name": "dc631be3bf02f4f53ebe94346b90587f", "fusion_lat": 0.0, "fusion_lon": 0.0, "rental_uris": {"android": "https://dc.lft.to/lastmile_qr_scan", "ios": "https://dc.lft.to/lastmile_qr_scan"}, "is_reserved": 0, "is_disabled": 0, "type": "electric_scooter", "bike_id": "dc631be3bf02f4f53ebe94346b90587f"}, {"lon": -77.06464083333333, "lat": 38.94658166666667, "name": "d20985b593b2bca9638c56eccb039222", "fusion_lat": 0.0, "fusion_lon": 0.0, "rental_uris": {"android": "https://dc.lft.to/lastmile_qr_scan", "ios": "https://dc.lft.to/lastmile_qr_scan"}, "is_reserved": 0, "is_disabled": 0, "type": "electric_bike", "bike_id": "d20985b593b2bca9638c56eccb039222"}, {"lon": -77.024852, "lat": 38.892222833333335, "name": "e8b9f89f829871381879d998baba3f89", "fusion_lat": 0.0, "fusion_lon": 0.0, "rental_uris": {"android": "https://dc.lft.to/lastmile_qr_scan", "ios": "https://dc.lft.to/lastmile_qr_scan"}, "is_reserved": 0, "is_disabled": 0, "type": "electric_scooter", "bike_id": "e8b9f89f829871381879d998baba3f89"}, {"lon": -77.04635516666667, "lat": 38.89220533333334, "name": "e4a592eb9fa5ed034ca81d2a49160466", "fusion_lat": 0.0, "fusion_lon": 0.0, "rental_uris": {"android": "https://dc.lft.to/lastmile_qr_scan", "ios": "https://dc.lft.to/lastmile_qr_scan"}, "is_reserved": 0, "is_disabled": 0, "type": "electric_scooter", "bike_id": "e4a592eb9fa5ed034ca81d2a49160466"}, {"lon": -77.00208066666667, "lat": 38.82259766666667, "name": "b27e487496d4c845d0862d563b2e4329", "fusion_lat": 0.0, "fusion_lon": 0.0, "rental_uris": {"android": "https://dc.lft.to/lastmile_qr_scan", "ios": "https://dc.lft.to/lastmile_qr_scan"}, "is_reserved": 0, "is_disabled": 0, "type": "electric_scooter", "bike_id": "b27e487496d4c845d0862d563b2e4329"}, {"lon": -77.04078216666667, "lat": 38.9201905, "name": "8dd7bd484444140f870d7f2cf6170d07", "fusion_lat": 0.0, "fusion_lon": 0.0, "rental_uris": {"android": "https://dc.lft.to/lastmile_qr_scan", "ios": "https://dc.lft.to/lastmile_qr_scan"}, "is_reserved": 0, "is_disabled": 0, "type": "electric_scooter", "bike_id": "8dd7bd484444140f870d7f2cf6170d07"}, {"lon": -77.01523033333334, "lat": 38.8873985, "name": "5f1b235dd0ebcbb45a34abb07cf18e54", "fusion_lat": 0.0, "fusion_lon": 0.0, "rental_uris": {"android": "https://dc.lft.to/lastmile_qr_scan", "ios": "https://dc.lft.to/lastmile_qr_scan"}, "is_reserved": 0, "is_disabled": 0, "type": "electric_scooter", "bike_id": "5f1b235dd0ebcbb45a34abb07cf18e54"}, {"lon": -76.98358983333333, "lat": 38.864839333333336, "name": "eaeb96f5cbe9bee33ffd0956dbfda081", "fusion_lat": 0.0, "fusion_lon": 0.0, "rental_uris": {"android": "https://dc.lft.to/lastmile_qr_scan", "ios": "https://dc.lft.to/lastmile_qr_scan"}, "is_reserved": 0, "is_disabled": 0, "type": "electric_scooter", "bike_id": "eaeb96f5cbe9bee33ffd0956dbfda081"}, {"lon": -77.03199466666666, "lat": 38.9128155, "name": "bc6402520be80e7b21ae4f9fe2e8a39f", "fusion_lat": 0.0, "fusion_lon": 0.0, "rental_uris": {"android": "https://dc.lft.to/lastmile_qr_scan", "ios": "https://dc.lft.to/lastmile_qr_scan"}, "is_reserved": 0, "is_disabled": 0, "type": "electric_scooter", "bike_id": "bc6402520be80e7b21ae4f9fe2e8a39f"}, {"lon": -77.0114885, "lat": 38.95673266666667, "name": "f3b1940b2c52b11d962711e071c9dea2", "fusion_lat": 0.0, "fusion_lon": 0.0, "rental_uris": {"android": "https://dc.lft.to/lastmile_qr_scan", "ios": "https://dc.lft.to/lastmile_qr_scan"}, "is_reserved": 0, "is_disabled": 0, "type": "electric_scooter", "bike_id": "f3b1940b2c52b11d962711e071c9dea2"}, {"lon": -77.077974, "lat": 38.845135666666664, "name": "9369ae5eebb13ee936da6613e6991dc0", "fusion_lat": 0.0, "fusion_lon": 0.0, "rental_uris": {"android": "https://dc.lft.to/lastmile_qr_scan", "ios": "https://dc.lft.to/lastmile_qr_scan"}, "is_reserved": 0, "is_disabled": 0, "type": "electric_bike", "bike_id": "9369ae5eebb13ee936da6613e6991dc0"}, {"lon": -77.0195855, "lat": 38.883548166666664, "name": "a52323688a63117d61aa4e64fbb983bf", "fusion_lat": 0.0, "fusion_lon": 0.0, "rental_uris": {"android": "https://dc.lft.to/lastmile_qr_scan", "ios": "https://dc.lft.to/lastmile_qr_scan"}, "is_reserved": 0, "is_disabled": 0, "type": "electric_scooter", "bike_id": "a52323688a63117d61aa4e64fbb983bf"}, {"lon": -77.0326805, "lat": 38.91403833333333, "name": "e09ba0cd42f64ab676a048136b80ae1c", "fusion_lat": 0.0, "fusion_lon": 0.0, "rental_uris": {"android": "https://dc.lft.to/lastmile_qr_scan", "ios": "https://dc.lft.to/lastmile_qr_scan"}, "is_reserved": 0, "is_disabled": 0, "type": "electric_scooter", "bike_id": "e09ba0cd42f64ab676a048136b80ae1c"}, {"lon": -77.048655, "lat": 38.90491633333333, "name": "3db39f310076c8e08252187e15104d50", "fusion_lat": 0.0, "fusion_lon": 0.0, "rental_uris": {"android": "https://dc.lft.to/lastmile_qr_scan", "ios": "https://dc.lft.to/lastmile_qr_scan"}, "is_reserved": 0, "is_disabled": 0, "type": "electric_scooter", "bike_id": "3db39f310076c8e08252187e15104d50"}, {"lon": -77.05736933333333, "lat": 38.933682166666664, "name": "1126a026fd4b45a5b375ff8e06efaa58", "fusion_lat": 0.0, "fusion_lon": 0.0, "rental_uris": {"android": "https://dc.lft.to/lastmile_qr_scan", "ios": "https://dc.lft.to/lastmile_qr_scan"}, "is_reserved": 0, "is_disabled": 0, "type": "electric_scooter", "bike_id": "1126a026fd4b45a5b375ff8e06efaa58"}, {"lon": -76.98783933333333, "lat": 38.8453905, "name": "0702d58d1b7e1fad4e2cdae315e40712", "fusion_lat": 0.0, "fusion_lon": 0.0, "rental_uris": {"android": "https://dc.lft.to/lastmile_qr_scan", "ios": "https://dc.lft.to/lastmile_qr_scan"}, "is_reserved": 0, "is_disabled": 0, "type": "electric_bike", "bike_id": "0702d58d1b7e1fad4e2cdae315e40712"}, {"lon": -77.0213255, "lat": 38.90301083333333, "name": "c47f9d27163475ce5fe22ee854206a70", "fusion_lat": 0.0, "fusion_lon": 0.0, "rental_uris": {"android": "https://dc.lft.to/lastmile_qr_scan", "ios": "https://dc.lft.to/lastmile_qr_scan"}, "is_reserved": 0, "is_disabled": 0, "type": "electric_scooter", "bike_id": "c47f9d27163475ce5fe22ee854206a70"}, {"lon": -77.06534383333333, "lat": 38.93468216666667, "name": "86510580cb0d2e659d42d91afbb936e6", "fusion_lat": 0.0, "fusion_lon": 0.0, "rental_uris": {"android": "https://dc.lft.to/lastmile_qr_scan", "ios": "https://dc.lft.to/lastmile_qr_scan"}, "is_reserved": 0, "is_disabled": 0, "type": "electric_scooter", "bike_id": "86510580cb0d2e659d42d91afbb936e6"}, {"lon": -76.98433283333334, "lat": 38.914290666666666, "name": "fcc22378a6521f79984b31e5600f7f74", "fusion_lat": 0.0, "fusion_lon": 0.0, "rental_uris": {"android": "https://dc.lft.to/lastmile_qr_scan", "ios": "https://dc.lft.to/lastmile_qr_scan"}, "is_reserved": 0, "is_disabled": 0, "type": "electric_scooter", "bike_id": "fcc22378a6521f79984b31e5600f7f74"}, {"lon": -77.04821083333333, "lat": 38.913309, "name": "e68206a320130d0654080f29c95c7ad1", "fusion_lat": 0.0, "fusion_lon": 0.0, "rental_uris": {"android": "https://dc.lft.to/lastmile_qr_scan", "ios": "https://dc.lft.to/lastmile_qr_scan"}, "is_reserved": 0, "is_disabled": 0, "type": "electric_scooter", "bike_id": "e68206a320130d0654080f29c95c7ad1"}, {"lon": -77.02595633333334, "lat": 38.892382, "name": "1382359db4e2eda9f3078505f4c67b68", "fusion_lat": 0.0, "fusion_lon": 0.0, "rental_uris": {"android": "https://dc.lft.to/lastmile_qr_scan", "ios": "https://dc.lft.to/lastmile_qr_scan"}, "is_reserved": 0, "is_disabled": 0, "type": "electric_scooter", "bike_id": "1382359db4e2eda9f3078505f4c67b68"}, {"lon": -77.0344725, "lat": 38.90734466666667, "name": "2157ecd1b9676afc5030fab8952bd623", "fusion_lat": 0.0, "fusion_lon": 0.0, "rental_uris": {"android": "https://dc.lft.to/lastmile_qr_scan", "ios": "https://dc.lft.to/lastmile_qr_scan"}, "is_reserved": 0, "is_disabled": 0, "type": "electric_scooter", "bike_id": "2157ecd1b9676afc5030fab8952bd623"}, {"lon": -76.908169, "lat": 38.9945405, "name": "c24be1da5af27df025bbb263af4355c8", "fusion_lat": 0.0, "fusion_lon": 0.0, "rental_uris": {"android": "https://dc.lft.to/lastmile_qr_scan", "ios": "https://dc.lft.to/lastmile_qr_scan"}, "is_reserved": 0, "is_disabled": 0, "type": "electric_bike", "bike_id": "c24be1da5af27df025bbb263af4355c8"}, {"lon": -77.031934, "lat": 38.929934833333334, "name": "1b5d32f1f045db387b6465978f1477c1", "fusion_lat": 0.0, "fusion_lon": 0.0, "rental_uris": {"android": "https://dc.lft.to/lastmile_qr_scan", "ios": "https://dc.lft.to/lastmile_qr_scan"}, "is_reserved": 0, "is_disabled": 0, "type": "electric_scooter", "bike_id": "1b5d32f1f045db387b6465978f1477c1"}, {"lon": -77.026917, "lat": 38.903583833333336, "name": "0b72362dd27e0b87f6e91099c6d71ee8", "fusion_lat": 0.0, "fusion_lon": 0.0, "rental_uris": {"android": "https://dc.lft.to/lastmile_qr_scan", "ios": "https://dc.lft.to/lastmile_qr_scan"}, "is_reserved": 0, "is_disabled": 0, "type": "electric_scooter", "bike_id": "0b72362dd27e0b87f6e91099c6d71ee8"}, {"lon": -77.02769916666666, "lat": 38.892288666666666, "name": "3eb13fa88898e5244403e8870133014e", "fusion_lat": 0.0, "fusion_lon": 0.0, "rental_uris": {"android": "https://dc.lft.to/lastmile_qr_scan", "ios": "https://dc.lft.to/lastmile_qr_scan"}, "is_reserved": 0, "is_disabled": 0, "type": "electric_scooter", "bike_id": "3eb13fa88898e5244403e8870133014e"}, {"lon": -77.041394, "lat": 38.922516, "name": "fbe59dadb6e51c2d9de5cb69da7148a6", "fusion_lat": 0.0, "fusion_lon": 0.0, "rental_uris": {"android": "https://dc.lft.to/lastmile_qr_scan", "ios": "https://dc.lft.to/lastmile_qr_scan"}, "is_reserved": 0, "is_disabled": 0, "type": "electric_scooter", "bike_id": "fbe59dadb6e51c2d9de5cb69da7148a6"}, {"lon": -77.03853383333333, "lat": 38.9105445, "name": "80f2640e967b674e7a6cedabe3354167", "fusion_lat": 0.0, "fusion_lon": 0.0, "rental_uris": {"android": "https://dc.lft.to/lastmile_qr_scan", "ios": "https://dc.lft.to/lastmile_qr_scan"}, "is_reserved": 0, "is_disabled": 0, "type": "electric_scooter", "bike_id": "80f2640e967b674e7a6cedabe3354167"}, {"lon": -77.02372766666667, "lat": 38.90720066666667, "name": "3169e0f3cc1b83fbd00bc70ae3027a69", "fusion_lat": 0.0, "fusion_lon": 0.0, "rental_uris": {"android": "https://dc.lft.to/lastmile_qr_scan", "ios": "https://dc.lft.to/lastmile_qr_scan"}, "is_reserved": 0, "is_disabled": 0, "type": "electric_scooter", "bike_id": "3169e0f3cc1b83fbd00bc70ae3027a69"}, {"lon": -76.98852266666667, "lat": 38.90346016666667, "name": "97adadb7f9f7f36c90964d84512afb84", "fusion_lat": 0.0, "fusion_lon": 0.0, "rental_uris": {"android": "https://dc.lft.to/lastmile_qr_scan", "ios": "https://dc.lft.to/lastmile_qr_scan"}, "is_reserved": 0, "is_disabled": 0, "type": "electric_scooter", "bike_id": "97adadb7f9f7f36c90964d84512afb84"}, {"lon": -77.04180916666667, "lat": 38.91400633333333, "name": "1452ab890546cb18d7f4b2517c586e06", "fusion_lat": 0.0, "fusion_lon": 0.0, "rental_uris": {"android": "https://dc.lft.to/lastmile_qr_scan", "ios": "https://dc.lft.to/lastmile_qr_scan"}, "is_reserved": 0, "is_disabled": 0, "type": "electric_scooter", "bike_id": "1452ab890546cb18d7f4b2517c586e06"}, {"lon": -77.04637216666667, "lat": 38.892186, "name": "f2fbbc33d57c5439ce86b8583fca3c4c", "fusion_lat": 0.0, "fusion_lon": 0.0, "rental_uris": {"android": "https://dc.lft.to/lastmile_qr_scan", "ios": "https://dc.lft.to/lastmile_qr_scan"}, "is_reserved": 0, "is_disabled": 0, "type": "electric_scooter", "bike_id": "f2fbbc33d57c5439ce86b8583fca3c4c"}, {"lon": -77.032819, "lat": 38.93681016666667, "name": "509a113e75c00fdba37e5d04fb570c00", "fusion_lat": 0.0, "fusion_lon": 0.0, "rental_uris": {"android": "https://dc.lft.to/lastmile_qr_scan", "ios": "https://dc.lft.to/lastmile_qr_scan"}, "is_reserved": 0, "is_disabled": 0, "type": "electric_scooter", "bike_id": "509a113e75c00fdba37e5d04fb570c00"}, {"lon": -76.98118983333333, "lat": 38.89673883333333, "name": "9ae6728eb5b2e00b2221541ffbcbc8ea", "fusion_lat": 0.0, "fusion_lon": 0.0, "rental_uris": {"android": "https://dc.lft.to/lastmile_qr_scan", "ios": "https://dc.lft.to/lastmile_qr_scan"}, "is_reserved": 0, "is_disabled": 0, "type": "electric_bike", "bike_id": "9ae6728eb5b2e00b2221541ffbcbc8ea"}, {"lon": -77.02230616666667, "lat": 38.87884183333333, "name": "07ca96741608876c6f459d1dd23d77ca", "fusion_lat": 0.0, "fusion_lon": 0.0, "rental_uris": {"android": "https://dc.lft.to/lastmile_qr_scan", "ios": "https://dc.lft.to/lastmile_qr_scan"}, "is_reserved": 0, "is_disabled": 0, "type": "electric_scooter", "bike_id": "07ca96741608876c6f459d1dd23d77ca"}, {"lon": -77.0220615, "lat": 38.887111833333336, "name": "b24a50d498f36dfee72dd2232c3cc0a3", "fusion_lat": 0.0, "fusion_lon": 0.0, "rental_uris": {"android": "https://dc.lft.to/lastmile_qr_scan", "ios": "https://dc.lft.to/lastmile_qr_scan"}, "is_reserved": 0, "is_disabled": 0, "type": "electric_scooter", "bike_id": "b24a50d498f36dfee72dd2232c3cc0a3"}, {"lon": -77.02974233333333, "lat": 38.922540833333336, "name": "6a77e4cc08eab3466dbd201ef3a33bd0", "fusion_lat": 0.0, "fusion_lon": 0.0, "rental_uris": {"android": "https://dc.lft.to/lastmile_qr_scan", "ios": "https://dc.lft.to/lastmile_qr_scan"}, "is_reserved": 0, "is_disabled": 0, "type": "electric_scooter", "bike_id": "6a77e4cc08eab3466dbd201ef3a33bd0"}, {"lon": -77.04142933333334, "lat": 38.892188166666664, "name": "a40cfaacf740b32034ce6418d2d1bb2b", "fusion_lat": 0.0, "fusion_lon": 0.0, "rental_uris": {"android": "https://dc.lft.to/lastmile_qr_scan", "ios": "https://dc.lft.to/lastmile_qr_scan"}, "is_reserved": 0, "is_disabled": 0, "type": "electric_scooter", "bike_id": "a40cfaacf740b32034ce6418d2d1bb2b"}, {"lon": -77.027689, "lat": 38.89196533333333, "name": "38452d3702eb17c35fe664932777b958", "fusion_lat": 0.0, "fusion_lon": 0.0, "rental_uris": {"android": "https://dc.lft.to/lastmile_qr_scan", "ios": "https://dc.lft.to/lastmile_qr_scan"}, "is_reserved": 0, "is_disabled": 0, "type": "electric_scooter", "bike_id": "38452d3702eb17c35fe664932777b958"}, {"lon": -76.983309, "lat": 38.966048, "name": "23c28f88af1bc174d50a2d3caa9273a0", "fusion_lat": 0.0, "fusion_lon": 0.0, "rental_uris": {"android": "https://dc.lft.to/lastmile_qr_scan", "ios": "https://dc.lft.to/lastmile_qr_scan"}, "is_reserved": 0, "is_disabled": 0, "type": "electric_bike", "bike_id": "23c28f88af1bc174d50a2d3caa9273a0"}, {"lon": -76.996139, "lat": 38.904747666666665, "name": "0c8d9551f136da6bb6b4fecb6771fe42", "fusion_lat": 0.0, "fusion_lon": 0.0, "rental_uris": {"android": "https://dc.lft.to/lastmile_qr_scan", "ios": "https://dc.lft.to/lastmile_qr_scan"}, "is_reserved": 0, "is_disabled": 0, "type": "electric_scooter", "bike_id": "0c8d9551f136da6bb6b4fecb6771fe42"}, {"lon": -77.02438083333334, "lat": 38.87957766666667, "name": "6cb0ea5e6dcf0a3f9711ba0ca3ecf91d", "fusion_lat": 0.0, "fusion_lon": 0.0, "rental_uris": {"android": "https://dc.lft.to/lastmile_qr_scan", "ios": "https://dc.lft.to/lastmile_qr_scan"}, "is_reserved": 0, "is_disabled": 0, "type": "electric_scooter", "bike_id": "6cb0ea5e6dcf0a3f9711ba0ca3ecf91d"}, {"lon": -77.0332565, "lat": 38.898322, "name": "e237817401cb84864d4e491a7f80de8a", "fusion_lat": 0.0, "fusion_lon": 0.0, "rental_uris": {"android": "https://dc.lft.to/lastmile_qr_scan", "ios": "https://dc.lft.to/lastmile_qr_scan"}, "is_reserved": 0, "is_disabled": 0, "type": "electric_scooter", "bike_id": "e237817401cb84864d4e491a7f80de8a"}, {"lon": -76.96526783333333, "lat": 38.876269666666666, "name": "5d4c5e516222da3cb4a9d6bbe9df82eb", "fusion_lat": 0.0, "fusion_lon": 0.0, "rental_uris": {"android": "https://dc.lft.to/lastmile_qr_scan", "ios": "https://dc.lft.to/lastmile_qr_scan"}, "is_reserved": 0, "is_disabled": 0, "type": "electric_scooter", "bike_id": "5d4c5e516222da3cb4a9d6bbe9df82eb"}, {"lon": -77.11231816666667, "lat": 38.812216, "name": "94ab978d531ad980d6f809c82ef85049", "fusion_lat": 0.0, "fusion_lon": 0.0, "rental_uris": {"android": "https://dc.lft.to/lastmile_qr_scan", "ios": "https://dc.lft.to/lastmile_qr_scan"}, "is_reserved": 0, "is_disabled": 0, "type": "electric_bike", "bike_id": "94ab978d531ad980d6f809c82ef85049"}, {"lon": -76.95255766666666, "lat": 38.90691433333333, "name": "7acabfbffaaf6defbab2fa9b5cf8065c", "fusion_lat": 0.0, "fusion_lon": 0.0, "rental_uris": {"android": "https://dc.lft.to/lastmile_qr_scan", "ios": "https://dc.lft.to/lastmile_qr_scan"}, "is_reserved": 0, "is_disabled": 0, "type": "electric_bike", "bike_id": "7acabfbffaaf6defbab2fa9b5cf8065c"}, {"lon": -77.0170475, "lat": 38.9138605, "name": "609465014cc36017b6f788670bcd1f35", "fusion_lat": 0.0, "fusion_lon": 0.0, "rental_uris": {"android": "https://dc.lft.to/lastmile_qr_scan", "ios": "https://dc.lft.to/lastmile_qr_scan"}, "is_reserved": 0, "is_disabled": 0, "type": "electric_scooter", "bike_id": "609465014cc36017b6f788670bcd1f35"}, {"lon": -77.021572, "lat": 38.92602566666667, "name": "435e4f77314fbd763daca39805e7f714", "fusion_lat": 0.0, "fusion_lon": 0.0, "rental_uris": {"android": "https://dc.lft.to/lastmile_qr_scan", "ios": "https://dc.lft.to/lastmile_qr_scan"}, "is_reserved": 0, "is_disabled": 0, "type": "electric_scooter", "bike_id": "435e4f77314fbd763daca39805e7f714"}, {"lon": -77.01529283333333, "lat": 38.887349, "name": "5b411a198fb8b9f71b4ed6431376b2f4", "fusion_lat": 0.0, "fusion_lon": 0.0, "rental_uris": {"android": "https://dc.lft.to/lastmile_qr_scan", "ios": "https://dc.lft.to/lastmile_qr_scan"}, "is_reserved": 0, "is_disabled": 0, "type": "electric_scooter", "bike_id": "5b411a198fb8b9f71b4ed6431376b2f4"}, {"lon": -77.11429633333333, "lat": 38.84271283333333, "name": "382482911d946ea55e9d990b7a35b519", "fusion_lat": 0.0, "fusion_lon": 0.0, "rental_uris": {"android": "https://dc.lft.to/lastmile_qr_scan", "ios": "https://dc.lft.to/lastmile_qr_scan"}, "is_reserved": 0, "is_disabled": 0, "type": "electric_bike", "bike_id": "382482911d946ea55e9d990b7a35b519"}, {"lon": -77.02519033333333, "lat": 38.921343, "name": "2e059de82073f44f0aec88f38eb0b46f", "fusion_lat": 0.0, "fusion_lon": 0.0, "rental_uris": {"android": "https://dc.lft.to/lastmile_qr_scan", "ios": "https://dc.lft.to/lastmile_qr_scan"}, "is_reserved": 0, "is_disabled": 0, "type": "electric_scooter", "bike_id": "2e059de82073f44f0aec88f38eb0b46f"}, {"lon": -77.03183183333333, "lat": 38.91328266666667, "name": "a9596a0248706a2628646b8da8146d32", "fusion_lat": 0.0, "fusion_lon": 0.0, "rental_uris": {"android": "https://dc.lft.to/lastmile_qr_scan", "ios": "https://dc.lft.to/lastmile_qr_scan"}, "is_reserved": 0, "is_disabled": 0, "type": "electric_scooter", "bike_id": "a9596a0248706a2628646b8da8146d32"}, {"lon": -77.0531075, "lat": 38.820383166666666, "name": "397571f300617b1350e61be491dbf5e3", "fusion_lat": 0.0, "fusion_lon": 0.0, "rental_uris": {"android": "https://dc.lft.to/lastmile_qr_scan", "ios": "https://dc.lft.to/lastmile_qr_scan"}, "is_reserved": 0, "is_disabled": 0, "type": "electric_bike", "bike_id": "397571f300617b1350e61be491dbf5e3"}, {"lon": -77.07902283333334, "lat": 38.83934166666667, "name": "48b2e481d4d5594d5f592dec6637c68c", "fusion_lat": 0.0, "fusion_lon": 0.0, "rental_uris": {"android": "https://dc.lft.to/lastmile_qr_scan", "ios": "https://dc.lft.to/lastmile_qr_scan"}, "is_reserved": 0, "is_disabled": 0, "type": "electric_bike", "bike_id": "48b2e481d4d5594d5f592dec6637c68c"}, {"lon": -77.02974066666667, "lat": 38.9049685, "name": "414e6a7118d892d05ae579cf10ad18d1", "fusion_lat": 0.0, "fusion_lon": 0.0, "rental_uris": {"android": "https://dc.lft.to/lastmile_qr_scan", "ios": "https://dc.lft.to/lastmile_qr_scan"}, "is_reserved": 0, "is_disabled": 0, "type": "electric_scooter", "bike_id": "414e6a7118d892d05ae579cf10ad18d1"}, {"lon": -77.0290095, "lat": 38.88429, "name": "dbc2997355ed9973143f131866806ed0", "fusion_lat": 0.0, "fusion_lon": 0.0, "rental_uris": {"android": "https://dc.lft.to/lastmile_qr_scan", "ios": "https://dc.lft.to/lastmile_qr_scan"}, "is_reserved": 0, "is_disabled": 0, "type": "electric_scooter", "bike_id": "dbc2997355ed9973143f131866806ed0"}, {"lon": -77.03706216666667, "lat": 38.91660866666667, "name": "7673c276b7cc8f2bdf85aeddc9798564", "fusion_lat": 0.0, "fusion_lon": 0.0, "rental_uris": {"android": "https://dc.lft.to/lastmile_qr_scan", "ios": "https://dc.lft.to/lastmile_qr_scan"}, "is_reserved": 0, "is_disabled": 0, "type": "electric_scooter", "bike_id": "7673c276b7cc8f2bdf85aeddc9798564"}, {"lon": -77.00860266666666, "lat": 38.8694535, "name": "ca40cb2e4d09161421f0e1b5d85b4cdb", "fusion_lat": 0.0, "fusion_lon": 0.0, "rental_uris": {"android": "https://dc.lft.to/lastmile_qr_scan", "ios": "https://dc.lft.to/lastmile_qr_scan"}, "is_reserved": 0, "is_disabled": 0, "type": "electric_scooter", "bike_id": "ca40cb2e4d09161421f0e1b5d85b4cdb"}, {"lon": -77.02464816666667, "lat": 38.93852533333333, "name": "65c9b3c5357a4c0a88c5dcc73a79e920", "fusion_lat": 0.0, "fusion_lon": 0.0, "rental_uris": {"android": "https://dc.lft.to/lastmile_qr_scan", "ios": "https://dc.lft.to/lastmile_qr_scan"}, "is_reserved": 0, "is_disabled": 0, "type": "electric_scooter", "bike_id": "65c9b3c5357a4c0a88c5dcc73a79e920"}, {"lon": -77.06267516666666, "lat": 38.905945833333334, "name": "94fc8bc506113c8bcea7ce30f93ab9de", "fusion_lat": 0.0, "fusion_lon": 0.0, "rental_uris": {"android": "https://dc.lft.to/lastmile_qr_scan", "ios": "https://dc.lft.to/lastmile_qr_scan"}, "is_reserved": 0, "is_disabled": 0, "type": "electric_scooter", "bike_id": "94fc8bc506113c8bcea7ce30f93ab9de"}, {"lon": -77.007261, "lat": 38.877226666666665, "name": "ceb1db6efa554132d4abef844c52f15f", "fusion_lat": 0.0, "fusion_lon": 0.0, "rental_uris": {"android": "https://dc.lft.to/lastmile_qr_scan", "ios": "https://dc.lft.to/lastmile_qr_scan"}, "is_reserved": 0, "is_disabled": 0, "type": "electric_scooter", "bike_id": "ceb1db6efa554132d4abef844c52f15f"}, {"lon": -77.03403766666666, "lat": 38.919232, "name": "4180ad5fa1ea67495ee0cc63a080d5fd", "fusion_lat": 0.0, "fusion_lon": 0.0, "rental_uris": {"android": "https://dc.lft.to/lastmile_qr_scan", "ios": "https://dc.lft.to/lastmile_qr_scan"}, "is_reserved": 0, "is_disabled": 0, "type": "electric_scooter", "bike_id": "4180ad5fa1ea67495ee0cc63a080d5fd"}, {"lon": -76.99915366666667, "lat": 38.909479, "name": "82b74d0cf613c5332fb6dd30665067dc", "fusion_lat": 0.0, "fusion_lon": 0.0, "rental_uris": {"android": "https://dc.lft.to/lastmile_qr_scan", "ios": "https://dc.lft.to/lastmile_qr_scan"}, "is_reserved": 0, "is_disabled": 0, "type": "electric_scooter", "bike_id": "82b74d0cf613c5332fb6dd30665067dc"}, {"lon": -77.0382355, "lat": 38.93132, "name": "e181bb2b110399eb56cb31c22378c085", "fusion_lat": 0.0, "fusion_lon": 0.0, "rental_uris": {"android": "https://dc.lft.to/lastmile_qr_scan", "ios": "https://dc.lft.to/lastmile_qr_scan"}, "is_reserved": 0, "is_disabled": 0, "type": "electric_scooter", "bike_id": "e181bb2b110399eb56cb31c22378c085"}, {"lon": -77.03671216666666, "lat": 38.931675166666665, "name": "894733794be55530dcc4e3cbba1b6278", "fusion_lat": 0.0, "fusion_lon": 0.0, "rental_uris": {"android": "https://dc.lft.to/lastmile_qr_scan", "ios": "https://dc.lft.to/lastmile_qr_scan"}, "is_reserved": 0, "is_disabled": 0, "type": "electric_scooter", "bike_id": "894733794be55530dcc4e3cbba1b6278"}, {"lon": -77.13097066666667, "lat": 38.861625333333336, "name": "5f6116a7c9607cafe3ef69d7d634fc9d", "fusion_lat": 0.0, "fusion_lon": 0.0, "rental_uris": {"android": "https://dc.lft.to/lastmile_qr_scan", "ios": "https://dc.lft.to/lastmile_qr_scan"}, "is_reserved": 0, "is_disabled": 0, "type": "electric_bike", "bike_id": "5f6116a7c9607cafe3ef69d7d634fc9d"}, {"lon": -77.03444216666666, "lat": 38.91819533333334, "name": "547c5acccb6476d1dc2561a8d2d0c984", "fusion_lat": 0.0, "fusion_lon": 0.0, "rental_uris": {"android": "https://dc.lft.to/lastmile_qr_scan", "ios": "https://dc.lft.to/lastmile_qr_scan"}, "is_reserved": 0, "is_disabled": 0, "type": "electric_scooter", "bike_id": "547c5acccb6476d1dc2561a8d2d0c984"}, {"lon": -76.983091, "lat": 38.86894816666667, "name": "6c56b761f2a030a5a7ffb52f6dc60aa9", "fusion_lat": 0.0, "fusion_lon": 0.0, "rental_uris": {"android": "https://dc.lft.to/lastmile_qr_scan", "ios": "https://dc.lft.to/lastmile_qr_scan"}, "is_reserved": 0, "is_disabled": 0, "type": "electric_scooter", "bike_id": "6c56b761f2a030a5a7ffb52f6dc60aa9"}, {"lon": -77.04512316666667, "lat": 38.89220133333333, "name": "51db90ff503c860bda70f107aec0fe9b", "fusion_lat": 0.0, "fusion_lon": 0.0, "rental_uris": {"android": "https://dc.lft.to/lastmile_qr_scan", "ios": "https://dc.lft.to/lastmile_qr_scan"}, "is_reserved": 0, "is_disabled": 0, "type": "electric_scooter", "bike_id": "51db90ff503c860bda70f107aec0fe9b"}, {"lon": -77.02289816666666, "lat": 38.91832483333334, "name": "0721abb61e757e82c45cf654af638299", "fusion_lat": 0.0, "fusion_lon": 0.0, "rental_uris": {"android": "https://dc.lft.to/lastmile_qr_scan", "ios": "https://dc.lft.to/lastmile_qr_scan"}, "is_reserved": 0, "is_disabled": 0, "type": "electric_scooter", "bike_id": "0721abb61e757e82c45cf654af638299"}, {"lon": -77.03828683333333, "lat": 38.9112475, "name": "5f65aed7bb0bb895fc2bc3269bda28bd", "fusion_lat": 0.0, "fusion_lon": 0.0, "rental_uris": {"android": "https://dc.lft.to/lastmile_qr_scan", "ios": "https://dc.lft.to/lastmile_qr_scan"}, "is_reserved": 0, "is_disabled": 0, "type": "electric_scooter", "bike_id": "5f65aed7bb0bb895fc2bc3269bda28bd"}, {"lon": -77.02836366666666, "lat": 38.88765766666667, "name": "ace7e05abf318fa2d196a0d986837f29", "fusion_lat": 0.0, "fusion_lon": 0.0, "rental_uris": {"android": "https://dc.lft.to/lastmile_qr_scan", "ios": "https://dc.lft.to/lastmile_qr_scan"}, "is_reserved": 0, "is_disabled": 0, "type": "electric_scooter", "bike_id": "ace7e05abf318fa2d196a0d986837f29"}, {"lon": -77.0385285, "lat": 38.9325055, "name": "9a441339b45ea419633a3a8800526e5e", "fusion_lat": 0.0, "fusion_lon": 0.0, "rental_uris": {"android": "https://dc.lft.to/lastmile_qr_scan", "ios": "https://dc.lft.to/lastmile_qr_scan"}, "is_reserved": 0, "is_disabled": 0, "type": "electric_scooter", "bike_id": "9a441339b45ea419633a3a8800526e5e"}, {"lon": -77.031445, "lat": 38.896795833333336, "name": "7d62cbf52e118564d2ca28b9bd93b378", "fusion_lat": 0.0, "fusion_lon": 0.0, "rental_uris": {"android": "https://dc.lft.to/lastmile_qr_scan", "ios": "https://dc.lft.to/lastmile_qr_scan"}, "is_reserved": 0, "is_disabled": 0, "type": "electric_scooter", "bike_id": "7d62cbf52e118564d2ca28b9bd93b378"}, {"lon": -77.00200333333333, "lat": 38.902337333333335, "name": "886f1175407a4369d4939dc46c7d6dc7", "fusion_lat": 0.0, "fusion_lon": 0.0, "rental_uris": {"android": "https://dc.lft.to/lastmile_qr_scan", "ios": "https://dc.lft.to/lastmile_qr_scan"}, "is_reserved": 0, "is_disabled": 0, "type": "electric_scooter", "bike_id": "886f1175407a4369d4939dc46c7d6dc7"}, {"lon": -77.02403216666667, "lat": 38.88742716666667, "name": "e874f1d002ec264be438de544ff95214", "fusion_lat": 0.0, "fusion_lon": 0.0, "rental_uris": {"android": "https://dc.lft.to/lastmile_qr_scan", "ios": "https://dc.lft.to/lastmile_qr_scan"}, "is_reserved": 0, "is_disabled": 0, "type": "electric_scooter", "bike_id": "e874f1d002ec264be438de544ff95214"}, {"lon": -77.01816066666666, "lat": 38.908098, "name": "75f976cb97769a04b15a0930d1f7de42", "fusion_lat": 0.0, "fusion_lon": 0.0, "rental_uris": {"android": "https://dc.lft.to/lastmile_qr_scan", "ios": "https://dc.lft.to/lastmile_qr_scan"}, "is_reserved": 0, "is_disabled": 0, "type": "electric_scooter", "bike_id": "75f976cb97769a04b15a0930d1f7de42"}, {"lon": -77.04389716666667, "lat": 38.922753666666665, "name": "d9af7ad5388acbd7df2addd143f54465", "fusion_lat": 0.0, "fusion_lon": 0.0, "rental_uris": {"android": "https://dc.lft.to/lastmile_qr_scan", "ios": "https://dc.lft.to/lastmile_qr_scan"}, "is_reserved": 0, "is_disabled": 0, "type": "electric_scooter", "bike_id": "d9af7ad5388acbd7df2addd143f54465"}, {"lon": -77.027925, "lat": 38.89798966666667, "name": "f1338b28960ba35ffaaf62b6bca0832d", "fusion_lat": 0.0, "fusion_lon": 0.0, "rental_uris": {"android": "https://dc.lft.to/lastmile_qr_scan", "ios": "https://dc.lft.to/lastmile_qr_scan"}, "is_reserved": 0, "is_disabled": 0, "type": "electric_scooter", "bike_id": "f1338b28960ba35ffaaf62b6bca0832d"}, {"lon": -77.01076833333333, "lat": 38.87103116666667, "name": "8313ad8868084e1e6d00444a74e29f6f", "fusion_lat": 0.0, "fusion_lon": 0.0, "rental_uris": {"android": "https://dc.lft.to/lastmile_qr_scan", "ios": "https://dc.lft.to/lastmile_qr_scan"}, "is_reserved": 0, "is_disabled": 0, "type": "electric_scooter", "bike_id": "8313ad8868084e1e6d00444a74e29f6f"}, {"lon": -76.97183816666667, "lat": 38.912621, "name": "160fe3bb84a40a6dc1771801cd03cd89", "fusion_lat": 0.0, "fusion_lon": 0.0, "rental_uris": {"android": "https://dc.lft.to/lastmile_qr_scan", "ios": "https://dc.lft.to/lastmile_qr_scan"}, "is_reserved": 0, "is_disabled": 0, "type": "electric_scooter", "bike_id": "160fe3bb84a40a6dc1771801cd03cd89"}, {"lon": -77.02231516666667, "lat": 38.886181, "name": "af725ff048b52f50963b6641f8673d52", "fusion_lat": 0.0, "fusion_lon": 0.0, "rental_uris": {"android": "https://dc.lft.to/lastmile_qr_scan", "ios": "https://dc.lft.to/lastmile_qr_scan"}, "is_reserved": 0, "is_disabled": 0, "type": "electric_bike", "bike_id": "af725ff048b52f50963b6641f8673d52"}, {"lon": -76.99033433333334, "lat": 38.858720166666664, "name": "f09751eb6bb2815d7dcd36bb06bed4ba", "fusion_lat": 0.0, "fusion_lon": 0.0, "rental_uris": {"android": "https://dc.lft.to/lastmile_qr_scan", "ios": "https://dc.lft.to/lastmile_qr_scan"}, "is_reserved": 0, "is_disabled": 0, "type": "electric_scooter", "bike_id": "f09751eb6bb2815d7dcd36bb06bed4ba"}, {"lon": -77.03201633333333, "lat": 38.900218333333335, "name": "7f1aa88afd30b9fadab379b34e5c30ec", "fusion_lat": 0.0, "fusion_lon": 0.0, "rental_uris": {"android": "https://dc.lft.to/lastmile_qr_scan", "ios": "https://dc.lft.to/lastmile_qr_scan"}, "is_reserved": 0, "is_disabled": 0, "type": "electric_scooter", "bike_id": "7f1aa88afd30b9fadab379b34e5c30ec"}, {"lon": -76.96509216666666, "lat": 38.87647166666667, "name": "ce9b14fe3f3b971f5842ec428096fca0", "fusion_lat": 0.0, "fusion_lon": 0.0, "rental_uris": {"android": "https://dc.lft.to/lastmile_qr_scan", "ios": "https://dc.lft.to/lastmile_qr_scan"}, "is_reserved": 0, "is_disabled": 0, "type": "electric_scooter", "bike_id": "ce9b14fe3f3b971f5842ec428096fca0"}, {"lon": -77.1091675, "lat": 39.05200633333333, "name": "e405af3cb90ed4148cad81dcfe1cf6bb", "fusion_lat": 0.0, "fusion_lon": 0.0, "rental_uris": {"android": "https://dc.lft.to/lastmile_qr_scan", "ios": "https://dc.lft.to/lastmile_qr_scan"}, "is_reserved": 0, "is_disabled": 0, "type": "electric_bike", "bike_id": "e405af3cb90ed4148cad81dcfe1cf6bb"}, {"lon": -77.141213, "lat": 38.81599383333333, "name": "42e3095bfaaa9ff9362676f3fcbf788e", "fusion_lat": 0.0, "fusion_lon": 0.0, "rental_uris": {"android": "https://dc.lft.to/lastmile_qr_scan", "ios": "https://dc.lft.to/lastmile_qr_scan"}, "is_reserved": 0, "is_disabled": 0, "type": "electric_bike", "bike_id": "42e3095bfaaa9ff9362676f3fcbf788e"}, {"lon": -77.00660783333333, "lat": 38.87476016666667, "name": "56f0f662a3b94a4e63131026ce5d7254", "fusion_lat": 0.0, "fusion_lon": 0.0, "rental_uris": {"android": "https://dc.lft.to/lastmile_qr_scan", "ios": "https://dc.lft.to/lastmile_qr_scan"}, "is_reserved": 0, "is_disabled": 0, "type": "electric_scooter", "bike_id": "56f0f662a3b94a4e63131026ce5d7254"}, {"lon": -77.04630316666666, "lat": 38.91916916666667, "name": "667aafe0729d4827089cf95817006bbb", "fusion_lat": 0.0, "fusion_lon": 0.0, "rental_uris": {"android": "https://dc.lft.to/lastmile_qr_scan", "ios": "https://dc.lft.to/lastmile_qr_scan"}, "is_reserved": 0, "is_disabled": 0, "type": "electric_scooter", "bike_id": "667aafe0729d4827089cf95817006bbb"}, {"lon": -77.00610083333333, "lat": 38.874646, "name": "54df56cf635e63f976ff4d5d146a88fe", "fusion_lat": 0.0, "fusion_lon": 0.0, "rental_uris": {"android": "https://dc.lft.to/lastmile_qr_scan", "ios": "https://dc.lft.to/lastmile_qr_scan"}, "is_reserved": 0, "is_disabled": 0, "type": "electric_scooter", "bike_id": "54df56cf635e63f976ff4d5d146a88fe"}, {"lon": -77.038352, "lat": 38.91226416666667, "name": "5864ad092ee406ca02f77ac98b4c32fc", "fusion_lat": 0.0, "fusion_lon": 0.0, "rental_uris": {"android": "https://dc.lft.to/lastmile_qr_scan", "ios": "https://dc.lft.to/lastmile_qr_scan"}, "is_reserved": 0, "is_disabled": 0, "type": "electric_scooter", "bike_id": "5864ad092ee406ca02f77ac98b4c32fc"}, {"lon": -77.0276435, "lat": 38.891954166666665, "name": "725132a524c615263cafe591e3f6d5a6", "fusion_lat": 0.0, "fusion_lon": 0.0, "rental_uris": {"android": "https://dc.lft.to/lastmile_qr_scan", "ios": "https://dc.lft.to/lastmile_qr_scan"}, "is_reserved": 0, "is_disabled": 0, "type": "electric_scooter", "bike_id": "725132a524c615263cafe591e3f6d5a6"}, {"lon": -77.04995733333334, "lat": 38.90129483333333, "name": "44f7df71f326c2336777c6eb1fa295e1", "fusion_lat": 0.0, "fusion_lon": 0.0, "rental_uris": {"android": "https://dc.lft.to/lastmile_qr_scan", "ios": "https://dc.lft.to/lastmile_qr_scan"}, "is_reserved": 0, "is_disabled": 0, "type": "electric_scooter", "bike_id": "44f7df71f326c2336777c6eb1fa295e1"}, {"lon": -77.02350266666667, "lat": 38.93325383333333, "name": "d048700cffb6c4e6fbb1aba7ea4e57e1", "fusion_lat": 0.0, "fusion_lon": 0.0, "rental_uris": {"android": "https://dc.lft.to/lastmile_qr_scan", "ios": "https://dc.lft.to/lastmile_qr_scan"}, "is_reserved": 0, "is_disabled": 0, "type": "electric_scooter", "bike_id": "d048700cffb6c4e6fbb1aba7ea4e57e1"}, {"lon": -77.00353633333333, "lat": 38.907266666666665, "name": "d2a2ac3e7751597fd366f682e40c8554", "fusion_lat": 0.0, "fusion_lon": 0.0, "rental_uris": {"android": "https://dc.lft.to/lastmile_qr_scan", "ios": "https://dc.lft.to/lastmile_qr_scan"}, "is_reserved": 0, "is_disabled": 0, "type": "electric_scooter", "bike_id": "d2a2ac3e7751597fd366f682e40c8554"}, {"lon": -76.93535183333333, "lat": 38.896762333333335, "name": "96bf7dd456ee27db97b2761a5a71ce24", "fusion_lat": 0.0, "fusion_lon": 0.0, "rental_uris": {"android": "https://dc.lft.to/lastmile_qr_scan", "ios": "https://dc.lft.to/lastmile_qr_scan"}, "is_reserved": 0, "is_disabled": 0, "type": "electric_scooter", "bike_id": "96bf7dd456ee27db97b2761a5a71ce24"}, {"lon": -77.0218565, "lat": 38.911349, "name": "0f243f50088b7cb76eb24fac6ca3e05d", "fusion_lat": 0.0, "fusion_lon": 0.0, "rental_uris": {"android": "https://dc.lft.to/lastmile_qr_scan", "ios": "https://dc.lft.to/lastmile_qr_scan"}, "is_reserved": 0, "is_disabled": 0, "type": "electric_scooter", "bike_id": "0f243f50088b7cb76eb24fac6ca3e05d"}, {"lon": -77.002245, "lat": 38.9075665, "name": "51c076993870fc5a651dcb5391bbf35f", "fusion_lat": 0.0, "fusion_lon": 0.0, "rental_uris": {"android": "https://dc.lft.to/lastmile_qr_scan", "ios": "https://dc.lft.to/lastmile_qr_scan"}, "is_reserved": 0, "is_disabled": 0, "type": "electric_scooter", "bike_id": "51c076993870fc5a651dcb5391bbf35f"}, {"lon": -77.04820066666667, "lat": 38.90055433333333, "name": "87b110aedf9dbf589fcabb3432b76e72", "fusion_lat": 0.0, "fusion_lon": 0.0, "rental_uris": {"android": "https://dc.lft.to/lastmile_qr_scan", "ios": "https://dc.lft.to/lastmile_qr_scan"}, "is_reserved": 0, "is_disabled": 0, "type": "electric_scooter", "bike_id": "87b110aedf9dbf589fcabb3432b76e72"}, {"lon": -77.037717, "lat": 38.916918, "name": "6ecce30b48230bd69264b405f2a4cb14", "fusion_lat": 0.0, "fusion_lon": 0.0, "rental_uris": {"android": "https://dc.lft.to/lastmile_qr_scan", "ios": "https://dc.lft.to/lastmile_qr_scan"}, "is_reserved": 0, "is_disabled": 0, "type": "electric_scooter", "bike_id": "6ecce30b48230bd69264b405f2a4cb14"}, {"lon": -77.0487385, "lat": 38.912336, "name": "c3221f0b72dbc9f75f578f5da7b2760e", "fusion_lat": 0.0, "fusion_lon": 0.0, "rental_uris": {"android": "https://dc.lft.to/lastmile_qr_scan", "ios": "https://dc.lft.to/lastmile_qr_scan"}, "is_reserved": 0, "is_disabled": 0, "type": "electric_scooter", "bike_id": "c3221f0b72dbc9f75f578f5da7b2760e"}, {"lon": -76.90535183333333, "lat": 38.897361, "name": "6882259df98950aeed2b21ea301b5bae", "fusion_lat": 0.0, "fusion_lon": 0.0, "rental_uris": {"android": "https://dc.lft.to/lastmile_qr_scan", "ios": "https://dc.lft.to/lastmile_qr_scan"}, "is_reserved": 0, "is_disabled": 0, "type": "electric_bike", "bike_id": "6882259df98950aeed2b21ea301b5bae"}, {"lon": -77.02001533333333, "lat": 38.904740333333336, "name": "9dc4cf712bb9b7e42cf3b41450cf1b13", "fusion_lat": 0.0, "fusion_lon": 0.0, "rental_uris": {"android": "https://dc.lft.to/lastmile_qr_scan", "ios": "https://dc.lft.to/lastmile_qr_scan"}, "is_reserved": 0, "is_disabled": 0, "type": "electric_scooter", "bike_id": "9dc4cf712bb9b7e42cf3b41450cf1b13"}, {"lon": -77.032643, "lat": 38.914042, "name": "1193e0fb5d94e4b2e2deef56930c83f8", "fusion_lat": 0.0, "fusion_lon": 0.0, "rental_uris": {"android": "https://dc.lft.to/lastmile_qr_scan", "ios": "https://dc.lft.to/lastmile_qr_scan"}, "is_reserved": 0, "is_disabled": 0, "type": "electric_scooter", "bike_id": "1193e0fb5d94e4b2e2deef56930c83f8"}, {"lon": -77.0212, "lat": 38.93700616666667, "name": "64c8e2055f0d7278ce69de178d5cb56a", "fusion_lat": 0.0, "fusion_lon": 0.0, "rental_uris": {"android": "https://dc.lft.to/lastmile_qr_scan", "ios": "https://dc.lft.to/lastmile_qr_scan"}, "is_reserved": 0, "is_disabled": 0, "type": "electric_scooter", "bike_id": "64c8e2055f0d7278ce69de178d5cb56a"}, {"lon": -77.03854766666667, "lat": 38.902800166666665, "name": "ba0ece9d658a408cbfd1633b573dd9e4", "fusion_lat": 0.0, "fusion_lon": 0.0, "rental_uris": {"android": "https://dc.lft.to/lastmile_qr_scan", "ios": "https://dc.lft.to/lastmile_qr_scan"}, "is_reserved": 0, "is_disabled": 0, "type": "electric_scooter", "bike_id": "ba0ece9d658a408cbfd1633b573dd9e4"}, {"lon": -77.03089916666667, "lat": 38.90994283333333, "name": "d6cd09f25cb9a660029777356a561dbd", "fusion_lat": 0.0, "fusion_lon": 0.0, "rental_uris": {"android": "https://dc.lft.to/lastmile_qr_scan", "ios": "https://dc.lft.to/lastmile_qr_scan"}, "is_reserved": 0, "is_disabled": 0, "type": "electric_scooter", "bike_id": "d6cd09f25cb9a660029777356a561dbd"}, {"lon": -77.00834933333333, "lat": 38.91549416666667, "name": "c05ad6327ff0b1f7182ee4498752ecab", "fusion_lat": 0.0, "fusion_lon": 0.0, "rental_uris": {"android": "https://dc.lft.to/lastmile_qr_scan", "ios": "https://dc.lft.to/lastmile_qr_scan"}, "is_reserved": 0, "is_disabled": 0, "type": "electric_scooter", "bike_id": "c05ad6327ff0b1f7182ee4498752ecab"}, {"lon": -77.0404095, "lat": 38.923042, "name": "43db6f99186f8115ee4e6ae019b7b23b", "fusion_lat": 0.0, "fusion_lon": 0.0, "rental_uris": {"android": "https://dc.lft.to/lastmile_qr_scan", "ios": "https://dc.lft.to/lastmile_qr_scan"}, "is_reserved": 0, "is_disabled": 0, "type": "electric_scooter", "bike_id": "43db6f99186f8115ee4e6ae019b7b23b"}, {"lon": -77.02686183333333, "lat": 38.92481016666667, "name": "d4b35898b4a6097a1e3dff7ac1630a36", "fusion_lat": 0.0, "fusion_lon": 0.0, "rental_uris": {"android": "https://dc.lft.to/lastmile_qr_scan", "ios": "https://dc.lft.to/lastmile_qr_scan"}, "is_reserved": 0, "is_disabled": 0, "type": "electric_scooter", "bike_id": "d4b35898b4a6097a1e3dff7ac1630a36"}, {"lon": -77.02827916666666, "lat": 38.902504, "name": "f80b448a42b8dfc4ce74fa2720c9a3ef", "fusion_lat": 0.0, "fusion_lon": 0.0, "rental_uris": {"android": "https://dc.lft.to/lastmile_qr_scan", "ios": "https://dc.lft.to/lastmile_qr_scan"}, "is_reserved": 0, "is_disabled": 0, "type": "electric_scooter", "bike_id": "f80b448a42b8dfc4ce74fa2720c9a3ef"}, {"lon": -77.0370225, "lat": 38.92644283333333, "name": "233dd82f6a2e76f2951e77fdeb5a229e", "fusion_lat": 0.0, "fusion_lon": 0.0, "rental_uris": {"android": "https://dc.lft.to/lastmile_qr_scan", "ios": "https://dc.lft.to/lastmile_qr_scan"}, "is_reserved": 0, "is_disabled": 0, "type": "electric_scooter", "bike_id": "233dd82f6a2e76f2951e77fdeb5a229e"}, {"lon": -76.98771216666667, "lat": 38.9117545, "name": "53f2692d18772b91daa76c1854c610f2", "fusion_lat": 0.0, "fusion_lon": 0.0, "rental_uris": {"android": "https://dc.lft.to/lastmile_qr_scan", "ios": "https://dc.lft.to/lastmile_qr_scan"}, "is_reserved": 0, "is_disabled": 0, "type": "electric_scooter", "bike_id": "53f2692d18772b91daa76c1854c610f2"}, {"lon": -77.03836366666667, "lat": 38.911140833333334, "name": "9c037756b7d822a0c5e6b7a0dc9c5254", "fusion_lat": 0.0, "fusion_lon": 0.0, "rental_uris": {"android": "https://dc.lft.to/lastmile_qr_scan", "ios": "https://dc.lft.to/lastmile_qr_scan"}, "is_reserved": 0, "is_disabled": 0, "type": "electric_scooter", "bike_id": "9c037756b7d822a0c5e6b7a0dc9c5254"}, {"lon": -77.01776983333333, "lat": 38.89835016666667, "name": "8da3e6b4aa7547c11d99086ff052c435", "fusion_lat": 0.0, "fusion_lon": 0.0, "rental_uris": {"android": "https://dc.lft.to/lastmile_qr_scan", "ios": "https://dc.lft.to/lastmile_qr_scan"}, "is_reserved": 0, "is_disabled": 0, "type": "electric_scooter", "bike_id": "8da3e6b4aa7547c11d99086ff052c435"}, {"lon": -77.04652116666666, "lat": 38.904317, "name": "462382a4d8eb318f6a6d6a79b510d91c", "fusion_lat": 0.0, "fusion_lon": 0.0, "rental_uris": {"android": "https://dc.lft.to/lastmile_qr_scan", "ios": "https://dc.lft.to/lastmile_qr_scan"}, "is_reserved": 0, "is_disabled": 0, "type": "electric_scooter", "bike_id": "462382a4d8eb318f6a6d6a79b510d91c"}, {"lon": -76.94119366666666, "lat": 38.907919, "name": "94620cb698579a546414f62e671485af", "fusion_lat": 0.0, "fusion_lon": 0.0, "rental_uris": {"android": "https://dc.lft.to/lastmile_qr_scan", "ios": "https://dc.lft.to/lastmile_qr_scan"}, "is_reserved": 0, "is_disabled": 0, "type": "electric_scooter", "bike_id": "94620cb698579a546414f62e671485af"}, {"lon": -77.05241683333334, "lat": 38.924728333333334, "name": "9f87a1a2c73f802cd5c9f376bd216286", "fusion_lat": 0.0, "fusion_lon": 0.0, "rental_uris": {"android": "https://dc.lft.to/lastmile_qr_scan", "ios": "https://dc.lft.to/lastmile_qr_scan"}, "is_reserved": 0, "is_disabled": 0, "type": "electric_scooter", "bike_id": "9f87a1a2c73f802cd5c9f376bd216286"}, {"lon": -77.127394, "lat": 38.888142333333334, "name": "488b493a6e5cf5f5cf031a62d148e253", "fusion_lat": 0.0, "fusion_lon": 0.0, "rental_uris": {"android": "https://dc.lft.to/lastmile_qr_scan", "ios": "https://dc.lft.to/lastmile_qr_scan"}, "is_reserved": 0, "is_disabled": 0, "type": "electric_bike", "bike_id": "488b493a6e5cf5f5cf031a62d148e253"}, {"lon": -76.93659666666667, "lat": 38.90288966666667, "name": "2a3ce4e5205a06045a93077aa875b6b8", "fusion_lat": 0.0, "fusion_lon": 0.0, "rental_uris": {"android": "https://dc.lft.to/lastmile_qr_scan", "ios": "https://dc.lft.to/lastmile_qr_scan"}, "is_reserved": 0, "is_disabled": 0, "type": "electric_scooter", "bike_id": "2a3ce4e5205a06045a93077aa875b6b8"}, {"lon": -77.04671316666666, "lat": 38.8955395, "name": "ce1fe6eb60820c024f31a8b34b003a9a", "fusion_lat": 0.0, "fusion_lon": 0.0, "rental_uris": {"android": "https://dc.lft.to/lastmile_qr_scan", "ios": "https://dc.lft.to/lastmile_qr_scan"}, "is_reserved": 0, "is_disabled": 0, "type": "electric_scooter", "bike_id": "ce1fe6eb60820c024f31a8b34b003a9a"}, {"lon": -77.04292083333333, "lat": 38.911112833333334, "name": "48c2f64a6ba055e088bf28f8d4d38dc0", "fusion_lat": 0.0, "fusion_lon": 0.0, "rental_uris": {"android": "https://dc.lft.to/lastmile_qr_scan", "ios": "https://dc.lft.to/lastmile_qr_scan"}, "is_reserved": 0, "is_disabled": 0, "type": "electric_scooter", "bike_id": "48c2f64a6ba055e088bf28f8d4d38dc0"}, {"lon": -77.008294, "lat": 38.90468716666667, "name": "efe3c16091262de3ada372ac008a0ac3", "fusion_lat": 0.0, "fusion_lon": 0.0, "rental_uris": {"android": "https://dc.lft.to/lastmile_qr_scan", "ios": "https://dc.lft.to/lastmile_qr_scan"}, "is_reserved": 0, "is_disabled": 0, "type": "electric_scooter", "bike_id": "efe3c16091262de3ada372ac008a0ac3"}, {"lon": -77.02397816666667, "lat": 38.887397666666665, "name": "4cbf70af6f39d56a5365b50a8ef315e8", "fusion_lat": 0.0, "fusion_lon": 0.0, "rental_uris": {"android": "https://dc.lft.to/lastmile_qr_scan", "ios": "https://dc.lft.to/lastmile_qr_scan"}, "is_reserved": 0, "is_disabled": 0, "type": "electric_scooter", "bike_id": "4cbf70af6f39d56a5365b50a8ef315e8"}, {"lon": -77.06162066666667, "lat": 38.942224, "name": "f80c78f478441f8a99802d073264fc49", "fusion_lat": 0.0, "fusion_lon": 0.0, "rental_uris": {"android": "https://dc.lft.to/lastmile_qr_scan", "ios": "https://dc.lft.to/lastmile_qr_scan"}, "is_reserved": 0, "is_disabled": 0, "type": "electric_scooter", "bike_id": "f80c78f478441f8a99802d073264fc49"}, {"lon": -76.93157433333333, "lat": 38.8988045, "name": "4a82b6b61b044a027de51d97ca0dcd33", "fusion_lat": 0.0, "fusion_lon": 0.0, "rental_uris": {"android": "https://dc.lft.to/lastmile_qr_scan", "ios": "https://dc.lft.to/lastmile_qr_scan"}, "is_reserved": 0, "is_disabled": 0, "type": "electric_scooter", "bike_id": "4a82b6b61b044a027de51d97ca0dcd33"}, {"lon": -77.02541, "lat": 38.924062, "name": "031ebfd1c74b4e442ec15197500b722b", "fusion_lat": 0.0, "fusion_lon": 0.0, "rental_uris": {"android": "https://dc.lft.to/lastmile_qr_scan", "ios": "https://dc.lft.to/lastmile_qr_scan"}, "is_reserved": 0, "is_disabled": 0, "type": "electric_scooter", "bike_id": "031ebfd1c74b4e442ec15197500b722b"}, {"lon": -77.025881, "lat": 38.892451666666666, "name": "0ff5efc5e46add10c1f8f7a47aaf06e7", "fusion_lat": 0.0, "fusion_lon": 0.0, "rental_uris": {"android": "https://dc.lft.to/lastmile_qr_scan", "ios": "https://dc.lft.to/lastmile_qr_scan"}, "is_reserved": 0, "is_disabled": 0, "type": "electric_scooter", "bike_id": "0ff5efc5e46add10c1f8f7a47aaf06e7"}, {"lon": -77.039689, "lat": 38.902275, "name": "4317fa5a4cfbdb77a1600b90abf51929", "fusion_lat": 0.0, "fusion_lon": 0.0, "rental_uris": {"android": "https://dc.lft.to/lastmile_qr_scan", "ios": "https://dc.lft.to/lastmile_qr_scan"}, "is_reserved": 0, "is_disabled": 0, "type": "electric_scooter", "bike_id": "4317fa5a4cfbdb77a1600b90abf51929"}, {"lon": -77.03932383333333, "lat": 38.908426166666665, "name": "7b146adaf9025bf2cd49ebf49ff3831f", "fusion_lat": 0.0, "fusion_lon": 0.0, "rental_uris": {"android": "https://dc.lft.to/lastmile_qr_scan", "ios": "https://dc.lft.to/lastmile_qr_scan"}, "is_reserved": 0, "is_disabled": 0, "type": "electric_scooter", "bike_id": "7b146adaf9025bf2cd49ebf49ff3831f"}, {"lon": -77.026863, "lat": 38.924831, "name": "7266662d052d6e6a1d0bcbc14e4fdd9b", "fusion_lat": 0.0, "fusion_lon": 0.0, "rental_uris": {"android": "https://dc.lft.to/lastmile_qr_scan", "ios": "https://dc.lft.to/lastmile_qr_scan"}, "is_reserved": 0, "is_disabled": 0, "type": "electric_scooter", "bike_id": "7266662d052d6e6a1d0bcbc14e4fdd9b"}, {"lon": -77.018711, "lat": 38.94898666666667, "name": "52c188845869d7bbe4de840bb16c7274", "fusion_lat": 0.0, "fusion_lon": 0.0, "rental_uris": {"android": "https://dc.lft.to/lastmile_qr_scan", "ios": "https://dc.lft.to/lastmile_qr_scan"}, "is_reserved": 0, "is_disabled": 0, "type": "electric_scooter", "bike_id": "52c188845869d7bbe4de840bb16c7274"}, {"lon": -77.02928933333334, "lat": 38.8821515, "name": "7b144098e546f2905ba0fe9463d82b8a", "fusion_lat": 0.0, "fusion_lon": 0.0, "rental_uris": {"android": "https://dc.lft.to/lastmile_qr_scan", "ios": "https://dc.lft.to/lastmile_qr_scan"}, "is_reserved": 0, "is_disabled": 0, "type": "electric_scooter", "bike_id": "7b144098e546f2905ba0fe9463d82b8a"}, {"lon": -77.03934116666667, "lat": 38.91416066666667, "name": "d9deffb0efbf126c73dd7522dbfb6382", "fusion_lat": 0.0, "fusion_lon": 0.0, "rental_uris": {"android": "https://dc.lft.to/lastmile_qr_scan", "ios": "https://dc.lft.to/lastmile_qr_scan"}, "is_reserved": 0, "is_disabled": 0, "type": "electric_scooter", "bike_id": "d9deffb0efbf126c73dd7522dbfb6382"}, {"lon": -77.01100233333334, "lat": 38.9057385, "name": "2d99963a90bbafe6d2394c1b96a9360d", "fusion_lat": 0.0, "fusion_lon": 0.0, "rental_uris": {"android": "https://dc.lft.to/lastmile_qr_scan", "ios": "https://dc.lft.to/lastmile_qr_scan"}, "is_reserved": 0, "is_disabled": 0, "type": "electric_scooter", "bike_id": "2d99963a90bbafe6d2394c1b96a9360d"}, {"lon": -76.98163733333334, "lat": 38.959680166666665, "name": "62ca6425548289fedf6ff00875ae3ebb", "fusion_lat": 0.0, "fusion_lon": 0.0, "rental_uris": {"android": "https://dc.lft.to/lastmile_qr_scan", "ios": "https://dc.lft.to/lastmile_qr_scan"}, "is_reserved": 0, "is_disabled": 0, "type": "electric_bike", "bike_id": "62ca6425548289fedf6ff00875ae3ebb"}, {"lon": -77.05564583333333, "lat": 38.900085, "name": "b50c1e5da41aecb41f5929cb935db40a", "fusion_lat": 0.0, "fusion_lon": 0.0, "rental_uris": {"android": "https://dc.lft.to/lastmile_qr_scan", "ios": "https://dc.lft.to/lastmile_qr_scan"}, "is_reserved": 0, "is_disabled": 0, "type": "electric_scooter", "bike_id": "b50c1e5da41aecb41f5929cb935db40a"}, {"lon": -76.96525383333334, "lat": 38.87628316666667, "name": "17d959bd22918219411c317b5cddfce1", "fusion_lat": 0.0, "fusion_lon": 0.0, "rental_uris": {"android": "https://dc.lft.to/lastmile_qr_scan", "ios": "https://dc.lft.to/lastmile_qr_scan"}, "is_reserved": 0, "is_disabled": 0, "type": "electric_scooter", "bike_id": "17d959bd22918219411c317b5cddfce1"}, {"lon": -77.06414533333333, "lat": 38.905214666666666, "name": "d3344f392ced6e0fb3e333e7744f12d3", "fusion_lat": 0.0, "fusion_lon": 0.0, "rental_uris": {"android": "https://dc.lft.to/lastmile_qr_scan", "ios": "https://dc.lft.to/lastmile_qr_scan"}, "is_reserved": 0, "is_disabled": 0, "type": "electric_scooter", "bike_id": "d3344f392ced6e0fb3e333e7744f12d3"}, {"lon": -77.05005566666667, "lat": 38.8922765, "name": "4c87e89a4ff4377516675dc9bd8e2101", "fusion_lat": 0.0, "fusion_lon": 0.0, "rental_uris": {"android": "https://dc.lft.to/lastmile_qr_scan", "ios": "https://dc.lft.to/lastmile_qr_scan"}, "is_reserved": 0, "is_disabled": 0, "type": "electric_scooter", "bike_id": "4c87e89a4ff4377516675dc9bd8e2101"}, {"lon": -77.00728966666667, "lat": 38.95970966666667, "name": "cff96e4f0a2d451c0fde3a3249bf1a18", "fusion_lat": 0.0, "fusion_lon": 0.0, "rental_uris": {"android": "https://dc.lft.to/lastmile_qr_scan", "ios": "https://dc.lft.to/lastmile_qr_scan"}, "is_reserved": 0, "is_disabled": 0, "type": "electric_scooter", "bike_id": "cff96e4f0a2d451c0fde3a3249bf1a18"}, {"lon": -76.99125116666667, "lat": 38.90017266666667, "name": "cc7a8357fd212f08e7972c658a57da22", "fusion_lat": 0.0, "fusion_lon": 0.0, "rental_uris": {"android": "https://dc.lft.to/lastmile_qr_scan", "ios": "https://dc.lft.to/lastmile_qr_scan"}, "is_reserved": 0, "is_disabled": 0, "type": "electric_scooter", "bike_id": "cc7a8357fd212f08e7972c658a57da22"}, {"lon": -76.96878033333333, "lat": 38.846061166666665, "name": "66c64755161ae1e3934f7b8d0b3883d4", "fusion_lat": 0.0, "fusion_lon": 0.0, "rental_uris": {"android": "https://dc.lft.to/lastmile_qr_scan", "ios": "https://dc.lft.to/lastmile_qr_scan"}, "is_reserved": 0, "is_disabled": 0, "type": "electric_bike", "bike_id": "66c64755161ae1e3934f7b8d0b3883d4"}, {"lon": -77.06776966666666, "lat": 38.949620333333336, "name": "f45662582032de36ba522160a238ba60", "fusion_lat": 0.0, "fusion_lon": 0.0, "rental_uris": {"android": "https://dc.lft.to/lastmile_qr_scan", "ios": "https://dc.lft.to/lastmile_qr_scan"}, "is_reserved": 0, "is_disabled": 0, "type": "electric_scooter", "bike_id": "f45662582032de36ba522160a238ba60"}, {"lon": -77.06418016666667, "lat": 38.90591916666666, "name": "b031f687f37eae1fafa15368a661461c", "fusion_lat": 0.0, "fusion_lon": 0.0, "rental_uris": {"android": "https://dc.lft.to/lastmile_qr_scan", "ios": "https://dc.lft.to/lastmile_qr_scan"}, "is_reserved": 0, "is_disabled": 0, "type": "electric_bike", "bike_id": "b031f687f37eae1fafa15368a661461c"}, {"lon": -77.03637583333334, "lat": 38.924277833333335, "name": "204bf64ae3ce0536b3a242bf5c8d8d0e", "fusion_lat": 0.0, "fusion_lon": 0.0, "rental_uris": {"android": "https://dc.lft.to/lastmile_qr_scan", "ios": "https://dc.lft.to/lastmile_qr_scan"}, "is_reserved": 0, "is_disabled": 0, "type": "electric_scooter", "bike_id": "204bf64ae3ce0536b3a242bf5c8d8d0e"}, {"lon": -77.01840283333334, "lat": 38.919736666666665, "name": "7dee7a8da1f0d460e3c777e67a9127eb", "fusion_lat": 0.0, "fusion_lon": 0.0, "rental_uris": {"android": "https://dc.lft.to/lastmile_qr_scan", "ios": "https://dc.lft.to/lastmile_qr_scan"}, "is_reserved": 0, "is_disabled": 0, "type": "electric_scooter", "bike_id": "7dee7a8da1f0d460e3c777e67a9127eb"}, {"lon": -76.97222983333333, "lat": 38.84479866666667, "name": "bfaee96d337f584c3364a75bbb5f63e7", "fusion_lat": 0.0, "fusion_lon": 0.0, "rental_uris": {"android": "https://dc.lft.to/lastmile_qr_scan", "ios": "https://dc.lft.to/lastmile_qr_scan"}, "is_reserved": 0, "is_disabled": 0, "type": "electric_bike", "bike_id": "bfaee96d337f584c3364a75bbb5f63e7"}, {"lon": -77.02677583333333, "lat": 38.90232816666666, "name": "0deef86fa743ffc776f6dd5976b2427f", "fusion_lat": 0.0, "fusion_lon": 0.0, "rental_uris": {"android": "https://dc.lft.to/lastmile_qr_scan", "ios": "https://dc.lft.to/lastmile_qr_scan"}, "is_reserved": 0, "is_disabled": 0, "type": "electric_scooter", "bike_id": "0deef86fa743ffc776f6dd5976b2427f"}, {"lon": -77.02234083333333, "lat": 38.922225833333336, "name": "1776e0a0df9e09e555358b4fac9b9ba2", "fusion_lat": 0.0, "fusion_lon": 0.0, "rental_uris": {"android": "https://dc.lft.to/lastmile_qr_scan", "ios": "https://dc.lft.to/lastmile_qr_scan"}, "is_reserved": 0, "is_disabled": 0, "type": "electric_bike", "bike_id": "1776e0a0df9e09e555358b4fac9b9ba2"}, {"lon": -77.03853933333333, "lat": 38.91542166666667, "name": "59344ea097ae84ece59bebbde2159af9", "fusion_lat": 0.0, "fusion_lon": 0.0, "rental_uris": {"android": "https://dc.lft.to/lastmile_qr_scan", "ios": "https://dc.lft.to/lastmile_qr_scan"}, "is_reserved": 0, "is_disabled": 0, "type": "electric_scooter", "bike_id": "59344ea097ae84ece59bebbde2159af9"}, {"lon": -77.031972, "lat": 38.912411666666664, "name": "a8b4c53f50e0980ac6ff4bf86648e303", "fusion_lat": 0.0, "fusion_lon": 0.0, "rental_uris": {"android": "https://dc.lft.to/lastmile_qr_scan", "ios": "https://dc.lft.to/lastmile_qr_scan"}, "is_reserved": 0, "is_disabled": 0, "type": "electric_scooter", "bike_id": "a8b4c53f50e0980ac6ff4bf86648e303"}, {"lon": -76.9471865, "lat": 38.89736116666667, "name": "626a3f1bdac01e9dd57be0d5d405ae88", "fusion_lat": 0.0, "fusion_lon": 0.0, "rental_uris": {"android": "https://dc.lft.to/lastmile_qr_scan", "ios": "https://dc.lft.to/lastmile_qr_scan"}, "is_reserved": 0, "is_disabled": 0, "type": "electric_scooter", "bike_id": "626a3f1bdac01e9dd57be0d5d405ae88"}, {"lon": -77.02195016666667, "lat": 38.905461833333334, "name": "45df49d7b8d65a1a724080c6c670c8b6", "fusion_lat": 0.0, "fusion_lon": 0.0, "rental_uris": {"android": "https://dc.lft.to/lastmile_qr_scan", "ios": "https://dc.lft.to/lastmile_qr_scan"}, "is_reserved": 0, "is_disabled": 0, "type": "electric_scooter", "bike_id": "45df49d7b8d65a1a724080c6c670c8b6"}, {"lon": -77.04064216666667, "lat": 38.91764766666667, "name": "0f714cc126064897195f566dbcbcaf6b", "fusion_lat": 0.0, "fusion_lon": 0.0, "rental_uris": {"android": "https://dc.lft.to/lastmile_qr_scan", "ios": "https://dc.lft.to/lastmile_qr_scan"}, "is_reserved": 0, "is_disabled": 0, "type": "electric_scooter", "bike_id": "0f714cc126064897195f566dbcbcaf6b"}, {"lon": -77.01421933333333, "lat": 38.9283445, "name": "cdc00e62a930fff2f4d954a6581b0f45", "fusion_lat": 0.0, "fusion_lon": 0.0, "rental_uris": {"android": "https://dc.lft.to/lastmile_qr_scan", "ios": "https://dc.lft.to/lastmile_qr_scan"}, "is_reserved": 0, "is_disabled": 0, "type": "electric_scooter", "bike_id": "cdc00e62a930fff2f4d954a6581b0f45"}, {"lon": -77.02809783333333, "lat": 38.88178, "name": "0badb2784f45a7db173fb1b1e25cdd9c", "fusion_lat": 0.0, "fusion_lon": 0.0, "rental_uris": {"android": "https://dc.lft.to/lastmile_qr_scan", "ios": "https://dc.lft.to/lastmile_qr_scan"}, "is_reserved": 0, "is_disabled": 0, "type": "electric_scooter", "bike_id": "0badb2784f45a7db173fb1b1e25cdd9c"}, {"lon": -77.03450033333333, "lat": 38.90560516666667, "name": "efd84238f43660c9caf8be84ad6b420a", "fusion_lat": 0.0, "fusion_lon": 0.0, "rental_uris": {"android": "https://dc.lft.to/lastmile_qr_scan", "ios": "https://dc.lft.to/lastmile_qr_scan"}, "is_reserved": 0, "is_disabled": 0, "type": "electric_scooter", "bike_id": "efd84238f43660c9caf8be84ad6b420a"}, {"lon": -77.03414266666667, "lat": 38.92274183333333, "name": "e3e15e6e3e68fc64db17218f3e939a19", "fusion_lat": 0.0, "fusion_lon": 0.0, "rental_uris": {"android": "https://dc.lft.to/lastmile_qr_scan", "ios": "https://dc.lft.to/lastmile_qr_scan"}, "is_reserved": 0, "is_disabled": 0, "type": "electric_scooter", "bike_id": "e3e15e6e3e68fc64db17218f3e939a19"}, {"lon": -77.0461505, "lat": 38.92239883333333, "name": "e984e7e4c1787bcdfa3437c50ce8d1cf", "fusion_lat": 0.0, "fusion_lon": 0.0, "rental_uris": {"android": "https://dc.lft.to/lastmile_qr_scan", "ios": "https://dc.lft.to/lastmile_qr_scan"}, "is_reserved": 0, "is_disabled": 0, "type": "electric_scooter", "bike_id": "e984e7e4c1787bcdfa3437c50ce8d1cf"}, {"lon": -76.991511, "lat": 38.89544816666667, "name": "274e4c593c066b646e5373e231554066", "fusion_lat": 0.0, "fusion_lon": 0.0, "rental_uris": {"android": "https://dc.lft.to/lastmile_qr_scan", "ios": "https://dc.lft.to/lastmile_qr_scan"}, "is_reserved": 0, "is_disabled": 0, "type": "electric_scooter", "bike_id": "274e4c593c066b646e5373e231554066"}, {"lon": -77.02028683333333, "lat": 38.924308833333335, "name": "3be28d6ad306fa406392f49723564735", "fusion_lat": 0.0, "fusion_lon": 0.0, "rental_uris": {"android": "https://dc.lft.to/lastmile_qr_scan", "ios": "https://dc.lft.to/lastmile_qr_scan"}, "is_reserved": 0, "is_disabled": 0, "type": "electric_scooter", "bike_id": "3be28d6ad306fa406392f49723564735"}, {"lon": -77.06766, "lat": 38.90365633333333, "name": "68e7150f4d47ecf70e971965f43e0026", "fusion_lat": 0.0, "fusion_lon": 0.0, "rental_uris": {"android": "https://dc.lft.to/lastmile_qr_scan", "ios": "https://dc.lft.to/lastmile_qr_scan"}, "is_reserved": 0, "is_disabled": 0, "type": "electric_scooter", "bike_id": "68e7150f4d47ecf70e971965f43e0026"}, {"lon": -77.0344555, "lat": 38.90811433333333, "name": "9169eeb29d7725dc4331dfd003965fb1", "fusion_lat": 0.0, "fusion_lon": 0.0, "rental_uris": {"android": "https://dc.lft.to/lastmile_qr_scan", "ios": "https://dc.lft.to/lastmile_qr_scan"}, "is_reserved": 0, "is_disabled": 0, "type": "electric_scooter", "bike_id": "9169eeb29d7725dc4331dfd003965fb1"}, {"lon": -76.98715616666667, "lat": 38.862512, "name": "f5ab8250b6b6c770869c99e8937a924d", "fusion_lat": 0.0, "fusion_lon": 0.0, "rental_uris": {"android": "https://dc.lft.to/lastmile_qr_scan", "ios": "https://dc.lft.to/lastmile_qr_scan"}, "is_reserved": 0, "is_disabled": 0, "type": "electric_scooter", "bike_id": "f5ab8250b6b6c770869c99e8937a924d"}, {"lon": -77.05851616666666, "lat": 38.9342675, "name": "29d9cc77e53be5c257b38e18907a5fa9", "fusion_lat": 0.0, "fusion_lon": 0.0, "rental_uris": {"android": "https://dc.lft.to/lastmile_qr_scan", "ios": "https://dc.lft.to/lastmile_qr_scan"}, "is_reserved": 0, "is_disabled": 0, "type": "electric_scooter", "bike_id": "29d9cc77e53be5c257b38e18907a5fa9"}, {"lon": -77.03044183333333, "lat": 38.88432366666667, "name": "189c722ca58de63806fcd97521edcdc0", "fusion_lat": 0.0, "fusion_lon": 0.0, "rental_uris": {"android": "https://dc.lft.to/lastmile_qr_scan", "ios": "https://dc.lft.to/lastmile_qr_scan"}, "is_reserved": 0, "is_disabled": 0, "type": "electric_scooter", "bike_id": "189c722ca58de63806fcd97521edcdc0"}, {"lon": -77.02171166666666, "lat": 38.90569383333333, "name": "80f46955bff3df92c9a2d3c0ac422a73", "fusion_lat": 0.0, "fusion_lon": 0.0, "rental_uris": {"android": "https://dc.lft.to/lastmile_qr_scan", "ios": "https://dc.lft.to/lastmile_qr_scan"}, "is_reserved": 0, "is_disabled": 0, "type": "electric_scooter", "bike_id": "80f46955bff3df92c9a2d3c0ac422a73"}, {"lon": -77.03454166666667, "lat": 38.94563983333333, "name": "c2935917cdab62a448849ce09f2e6e1e", "fusion_lat": 0.0, "fusion_lon": 0.0, "rental_uris": {"android": "https://dc.lft.to/lastmile_qr_scan", "ios": "https://dc.lft.to/lastmile_qr_scan"}, "is_reserved": 0, "is_disabled": 0, "type": "electric_scooter", "bike_id": "c2935917cdab62a448849ce09f2e6e1e"}, {"lon": -76.9955325, "lat": 38.885949333333336, "name": "d42c5a2b2bce4544f4e07693b52a7d7f", "fusion_lat": 0.0, "fusion_lon": 0.0, "rental_uris": {"android": "https://dc.lft.to/lastmile_qr_scan", "ios": "https://dc.lft.to/lastmile_qr_scan"}, "is_reserved": 0, "is_disabled": 0, "type": "electric_scooter", "bike_id": "d42c5a2b2bce4544f4e07693b52a7d7f"}, {"lon": -77.03356283333333, "lat": 38.885062, "name": "2abeade03600196fdfd23876139508b3", "fusion_lat": 0.0, "fusion_lon": 0.0, "rental_uris": {"android": "https://dc.lft.to/lastmile_qr_scan", "ios": "https://dc.lft.to/lastmile_qr_scan"}, "is_reserved": 0, "is_disabled": 0, "type": "electric_scooter", "bike_id": "2abeade03600196fdfd23876139508b3"}, {"lon": -77.08538566666667, "lat": 38.85621866666666, "name": "3fdf35a1dd0f1b9daa05265c1668ecf2", "fusion_lat": 0.0, "fusion_lon": 0.0, "rental_uris": {"android": "https://dc.lft.to/lastmile_qr_scan", "ios": "https://dc.lft.to/lastmile_qr_scan"}, "is_reserved": 0, "is_disabled": 0, "type": "electric_bike", "bike_id": "3fdf35a1dd0f1b9daa05265c1668ecf2"}, {"lon": -77.0254215, "lat": 38.940940166666664, "name": "bbacdb6c624a12cb729900a30e9048b4", "fusion_lat": 0.0, "fusion_lon": 0.0, "rental_uris": {"android": "https://dc.lft.to/lastmile_qr_scan", "ios": "https://dc.lft.to/lastmile_qr_scan"}, "is_reserved": 0, "is_disabled": 0, "type": "electric_scooter", "bike_id": "bbacdb6c624a12cb729900a30e9048b4"}, {"lon": -76.988998, "lat": 38.8666925, "name": "edf37b5e413fffa5e6ac40a38ac1c4e3", "fusion_lat": 0.0, "fusion_lon": 0.0, "rental_uris": {"android": "https://dc.lft.to/lastmile_qr_scan", "ios": "https://dc.lft.to/lastmile_qr_scan"}, "is_reserved": 0, "is_disabled": 0, "type": "electric_scooter", "bike_id": "edf37b5e413fffa5e6ac40a38ac1c4e3"}, {"lon": -77.17849, "lat": 39.089040833333335, "name": "6559a79d14abb279c5fd03509253ac71", "fusion_lat": 0.0, "fusion_lon": 0.0, "rental_uris": {"android": "https://dc.lft.to/lastmile_qr_scan", "ios": "https://dc.lft.to/lastmile_qr_scan"}, "is_reserved": 0, "is_disabled": 0, "type": "electric_bike", "bike_id": "6559a79d14abb279c5fd03509253ac71"}, {"lon": -77.02715116666667, "lat": 38.900735166666664, "name": "c0be7d3e5a560eceecba68a2b2f8ae48", "fusion_lat": 0.0, "fusion_lon": 0.0, "rental_uris": {"android": "https://dc.lft.to/lastmile_qr_scan", "ios": "https://dc.lft.to/lastmile_qr_scan"}, "is_reserved": 0, "is_disabled": 0, "type": "electric_scooter", "bike_id": "c0be7d3e5a560eceecba68a2b2f8ae48"}, {"lon": -77.0262465, "lat": 38.96225166666667, "name": "4012e6976aadc818575754b86ace49b3", "fusion_lat": 0.0, "fusion_lon": 0.0, "rental_uris": {"android": "https://dc.lft.to/lastmile_qr_scan", "ios": "https://dc.lft.to/lastmile_qr_scan"}, "is_reserved": 0, "is_disabled": 0, "type": "electric_bike", "bike_id": "4012e6976aadc818575754b86ace49b3"}, {"lon": -77.0263525, "lat": 38.915512166666666, "name": "3ad5a5f09a8bf21912c6b532527e39d0", "fusion_lat": 0.0, "fusion_lon": 0.0, "rental_uris": {"android": "https://dc.lft.to/lastmile_qr_scan", "ios": "https://dc.lft.to/lastmile_qr_scan"}, "is_reserved": 0, "is_disabled": 0, "type": "electric_scooter", "bike_id": "3ad5a5f09a8bf21912c6b532527e39d0"}, {"lon": -76.99507983333334, "lat": 38.87914766666667, "name": "e84c140e9de70abe63907e6c42340406", "fusion_lat": 0.0, "fusion_lon": 0.0, "rental_uris": {"android": "https://dc.lft.to/lastmile_qr_scan", "ios": "https://dc.lft.to/lastmile_qr_scan"}, "is_reserved": 0, "is_disabled": 0, "type": "electric_scooter", "bike_id": "e84c140e9de70abe63907e6c42340406"}, {"lon": -77.0243275, "lat": 38.907153, "name": "db9268b988774edfcbfa34f906abe717", "fusion_lat": 0.0, "fusion_lon": 0.0, "rental_uris": {"android": "https://dc.lft.to/lastmile_qr_scan", "ios": "https://dc.lft.to/lastmile_qr_scan"}, "is_reserved": 0, "is_disabled": 0, "type": "electric_scooter", "bike_id": "db9268b988774edfcbfa34f906abe717"}, {"lon": -77.00590933333334, "lat": 38.9156365, "name": "0cbf0d10b7b94f71d47b05deae1240c8", "fusion_lat": 0.0, "fusion_lon": 0.0, "rental_uris": {"android": "https://dc.lft.to/lastmile_qr_scan", "ios": "https://dc.lft.to/lastmile_qr_scan"}, "is_reserved": 0, "is_disabled": 0, "type": "electric_scooter", "bike_id": "0cbf0d10b7b94f71d47b05deae1240c8"}, {"lon": -77.00576216666667, "lat": 38.902494, "name": "e94888316f0ac49fd2a3d764e9707ac9", "fusion_lat": 0.0, "fusion_lon": 0.0, "rental_uris": {"android": "https://dc.lft.to/lastmile_qr_scan", "ios": "https://dc.lft.to/lastmile_qr_scan"}, "is_reserved": 0, "is_disabled": 0, "type": "electric_scooter", "bike_id": "e94888316f0ac49fd2a3d764e9707ac9"}, {"lon": -77.04339433333334, "lat": 38.90317316666667, "name": "9cf5828c644578aa4bb6bfc3734b506e", "fusion_lat": 0.0, "fusion_lon": 0.0, "rental_uris": {"android": "https://dc.lft.to/lastmile_qr_scan", "ios": "https://dc.lft.to/lastmile_qr_scan"}, "is_reserved": 0, "is_disabled": 0, "type": "electric_scooter", "bike_id": "9cf5828c644578aa4bb6bfc3734b506e"}, {"lon": -77.12494183333334, "lat": 39.024135333333334, "name": "891a208a6dc7e9dcc11bde3473eda284", "fusion_lat": 0.0, "fusion_lon": 0.0, "rental_uris": {"android": "https://dc.lft.to/lastmile_qr_scan", "ios": "https://dc.lft.to/lastmile_qr_scan"}, "is_reserved": 0, "is_disabled": 0, "type": "electric_bike", "bike_id": "891a208a6dc7e9dcc11bde3473eda284"}, {"lon": -77.04333833333334, "lat": 38.9221955, "name": "ff9fa1fd4f3ce82dfd6fe64ff9baf83c", "fusion_lat": 0.0, "fusion_lon": 0.0, "rental_uris": {"android": "https://dc.lft.to/lastmile_qr_scan", "ios": "https://dc.lft.to/lastmile_qr_scan"}, "is_reserved": 0, "is_disabled": 0, "type": "electric_scooter", "bike_id": "ff9fa1fd4f3ce82dfd6fe64ff9baf83c"}, {"lon": -77.02654083333333, "lat": 38.938610833333335, "name": "7e3017ebf2dc38fb3abd6d555285df4d", "fusion_lat": 0.0, "fusion_lon": 0.0, "rental_uris": {"android": "https://dc.lft.to/lastmile_qr_scan", "ios": "https://dc.lft.to/lastmile_qr_scan"}, "is_reserved": 0, "is_disabled": 0, "type": "electric_scooter", "bike_id": "7e3017ebf2dc38fb3abd6d555285df4d"}, {"lon": -77.032942, "lat": 38.92884433333333, "name": "1a24831774db71fcaa408bdd9bc52919", "fusion_lat": 0.0, "fusion_lon": 0.0, "rental_uris": {"android": "https://dc.lft.to/lastmile_qr_scan", "ios": "https://dc.lft.to/lastmile_qr_scan"}, "is_reserved": 0, "is_disabled": 0, "type": "electric_scooter", "bike_id": "1a24831774db71fcaa408bdd9bc52919"}, {"lon": -77.023421, "lat": 38.962057, "name": "e830d083c72c97ca9ae90823d7c651f7", "fusion_lat": 0.0, "fusion_lon": 0.0, "rental_uris": {"android": "https://dc.lft.to/lastmile_qr_scan", "ios": "https://dc.lft.to/lastmile_qr_scan"}, "is_reserved": 0, "is_disabled": 0, "type": "electric_scooter", "bike_id": "e830d083c72c97ca9ae90823d7c651f7"}, {"lon": -77.22572266666667, "lat": 38.929620166666666, "name": "6fbb72b091d82dbccfd77e4466933e3d", "fusion_lat": 0.0, "fusion_lon": 0.0, "rental_uris": {"android": "https://dc.lft.to/lastmile_qr_scan", "ios": "https://dc.lft.to/lastmile_qr_scan"}, "is_reserved": 0, "is_disabled": 0, "type": "electric_bike", "bike_id": "6fbb72b091d82dbccfd77e4466933e3d"}, {"lon": -77.02407133333334, "lat": 38.90853766666667, "name": "02e00be71b167feadce22d300b2194dd", "fusion_lat": 0.0, "fusion_lon": 0.0, "rental_uris": {"android": "https://dc.lft.to/lastmile_qr_scan", "ios": "https://dc.lft.to/lastmile_qr_scan"}, "is_reserved": 0, "is_disabled": 0, "type": "electric_scooter", "bike_id": "02e00be71b167feadce22d300b2194dd"}, {"lon": -77.0263285, "lat": 38.9155355, "name": "357a03add8af77d4955c7dd9e5c18ff3", "fusion_lat": 0.0, "fusion_lon": 0.0, "rental_uris": {"android": "https://dc.lft.to/lastmile_qr_scan", "ios": "https://dc.lft.to/lastmile_qr_scan"}, "is_reserved": 0, "is_disabled": 0, "type": "electric_scooter", "bike_id": "357a03add8af77d4955c7dd9e5c18ff3"}, {"lon": -76.92996933333333, "lat": 38.887991, "name": "af85a0ac7b7c2a3f19c282a953bd626b", "fusion_lat": 0.0, "fusion_lon": 0.0, "rental_uris": {"android": "https://dc.lft.to/lastmile_qr_scan", "ios": "https://dc.lft.to/lastmile_qr_scan"}, "is_reserved": 0, "is_disabled": 0, "type": "electric_bike", "bike_id": "af85a0ac7b7c2a3f19c282a953bd626b"}, {"lon": -77.07931816666667, "lat": 38.94853716666667, "name": "0fe5bbbdbd00544e15dfeddbc686e826", "fusion_lat": 0.0, "fusion_lon": 0.0, "rental_uris": {"android": "https://dc.lft.to/lastmile_qr_scan", "ios": "https://dc.lft.to/lastmile_qr_scan"}, "is_reserved": 0, "is_disabled": 0, "type": "electric_scooter", "bike_id": "0fe5bbbdbd00544e15dfeddbc686e826"}, {"lon": -77.00346366666666, "lat": 38.903598, "name": "5234eccfcff19c5ae0762099932b3740", "fusion_lat": 0.0, "fusion_lon": 0.0, "rental_uris": {"android": "https://dc.lft.to/lastmile_qr_scan", "ios": "https://dc.lft.to/lastmile_qr_scan"}, "is_reserved": 0, "is_disabled": 0, "type": "electric_scooter", "bike_id": "5234eccfcff19c5ae0762099932b3740"}, {"lon": -77.013697, "lat": 38.875973, "name": "a15054f1b032efdf4559b139fe660da4", "fusion_lat": 0.0, "fusion_lon": 0.0, "rental_uris": {"android": "https://dc.lft.to/lastmile_qr_scan", "ios": "https://dc.lft.to/lastmile_qr_scan"}, "is_reserved": 0, "is_disabled": 0, "type": "electric_scooter", "bike_id": "a15054f1b032efdf4559b139fe660da4"}, {"lon": -77.04960033333333, "lat": 38.9126425, "name": "4b7ed9397de54dfa8e62889d2a937133", "fusion_lat": 0.0, "fusion_lon": 0.0, "rental_uris": {"android": "https://dc.lft.to/lastmile_qr_scan", "ios": "https://dc.lft.to/lastmile_qr_scan"}, "is_reserved": 0, "is_disabled": 0, "type": "electric_scooter", "bike_id": "4b7ed9397de54dfa8e62889d2a937133"}, {"lon": -77.02388033333334, "lat": 38.957339833333336, "name": "b0a38e97737bb1d05ccfe14ebe5d65d3", "fusion_lat": 0.0, "fusion_lon": 0.0, "rental_uris": {"android": "https://dc.lft.to/lastmile_qr_scan", "ios": "https://dc.lft.to/lastmile_qr_scan"}, "is_reserved": 0, "is_disabled": 0, "type": "electric_scooter", "bike_id": "b0a38e97737bb1d05ccfe14ebe5d65d3"}, {"lon": -77.03962166666666, "lat": 38.9199035, "name": "d55f2ffa8b0079a84ccf3181152e9b54", "fusion_lat": 0.0, "fusion_lon": 0.0, "rental_uris": {"android": "https://dc.lft.to/lastmile_qr_scan", "ios": "https://dc.lft.to/lastmile_qr_scan"}, "is_reserved": 0, "is_disabled": 0, "type": "electric_scooter", "bike_id": "d55f2ffa8b0079a84ccf3181152e9b54"}, {"lon": -76.9877825, "lat": 38.9002585, "name": "caf61a21877f41617380965d689130ec", "fusion_lat": 0.0, "fusion_lon": 0.0, "rental_uris": {"android": "https://dc.lft.to/lastmile_qr_scan", "ios": "https://dc.lft.to/lastmile_qr_scan"}, "is_reserved": 0, "is_disabled": 0, "type": "electric_scooter", "bike_id": "caf61a21877f41617380965d689130ec"}, {"lon": -76.9902825, "lat": 38.864047666666664, "name": "4c6d5acaf978f8f602cd624e2a4b9ac1", "fusion_lat": 0.0, "fusion_lon": 0.0, "rental_uris": {"android": "https://dc.lft.to/lastmile_qr_scan", "ios": "https://dc.lft.to/lastmile_qr_scan"}, "is_reserved": 0, "is_disabled": 0, "type": "electric_scooter", "bike_id": "4c6d5acaf978f8f602cd624e2a4b9ac1"}, {"lon": -77.0327615, "lat": 38.929107, "name": "a8bc72fb85db7ea78f146461ec9db48d", "fusion_lat": 0.0, "fusion_lon": 0.0, "rental_uris": {"android": "https://dc.lft.to/lastmile_qr_scan", "ios": "https://dc.lft.to/lastmile_qr_scan"}, "is_reserved": 0, "is_disabled": 0, "type": "electric_scooter", "bike_id": "a8bc72fb85db7ea78f146461ec9db48d"}, {"lon": -76.9456995, "lat": 38.866245166666666, "name": "dd533051bf3086085d1f20ba4d84d97e", "fusion_lat": 0.0, "fusion_lon": 0.0, "rental_uris": {"android": "https://dc.lft.to/lastmile_qr_scan", "ios": "https://dc.lft.to/lastmile_qr_scan"}, "is_reserved": 0, "is_disabled": 0, "type": "electric_bike", "bike_id": "dd533051bf3086085d1f20ba4d84d97e"}, {"lon": -77.02489816666667, "lat": 38.938594333333334, "name": "6b3faebf4ab1e1999ef29929abb1e906", "fusion_lat": 0.0, "fusion_lon": 0.0, "rental_uris": {"android": "https://dc.lft.to/lastmile_qr_scan", "ios": "https://dc.lft.to/lastmile_qr_scan"}, "is_reserved": 0, "is_disabled": 0, "type": "electric_scooter", "bike_id": "6b3faebf4ab1e1999ef29929abb1e906"}, {"lon": -77.015523, "lat": 38.89194366666667, "name": "b2fdd46a96009e9f5541cf36881f9d5e", "fusion_lat": 0.0, "fusion_lon": 0.0, "rental_uris": {"android": "https://dc.lft.to/lastmile_qr_scan", "ios": "https://dc.lft.to/lastmile_qr_scan"}, "is_reserved": 0, "is_disabled": 0, "type": "electric_scooter", "bike_id": "b2fdd46a96009e9f5541cf36881f9d5e"}, {"lon": -77.032254, "lat": 38.892183, "name": "c7f3bfb5904690d2901c99599041e4ba", "fusion_lat": 0.0, "fusion_lon": 0.0, "rental_uris": {"android": "https://dc.lft.to/lastmile_qr_scan", "ios": "https://dc.lft.to/lastmile_qr_scan"}, "is_reserved": 0, "is_disabled": 0, "type": "electric_scooter", "bike_id": "c7f3bfb5904690d2901c99599041e4ba"}, {"lon": -77.03256566666667, "lat": 38.9324405, "name": "fc9173fc352577cb08aec2fde3fc45c3", "fusion_lat": 0.0, "fusion_lon": 0.0, "rental_uris": {"android": "https://dc.lft.to/lastmile_qr_scan", "ios": "https://dc.lft.to/lastmile_qr_scan"}, "is_reserved": 0, "is_disabled": 0, "type": "electric_scooter", "bike_id": "fc9173fc352577cb08aec2fde3fc45c3"}, {"lon": -76.93347533333333, "lat": 38.89912116666667, "name": "8b93d98f56c800f9200a4056925eaf1a", "fusion_lat": 0.0, "fusion_lon": 0.0, "rental_uris": {"android": "https://dc.lft.to/lastmile_qr_scan", "ios": "https://dc.lft.to/lastmile_qr_scan"}, "is_reserved": 0, "is_disabled": 0, "type": "electric_scooter", "bike_id": "8b93d98f56c800f9200a4056925eaf1a"}, {"lon": -77.0230575, "lat": 38.89697533333333, "name": "6875447f77a5ba49414a8b66d6194ff9", "fusion_lat": 0.0, "fusion_lon": 0.0, "rental_uris": {"android": "https://dc.lft.to/lastmile_qr_scan", "ios": "https://dc.lft.to/lastmile_qr_scan"}, "is_reserved": 0, "is_disabled": 0, "type": "electric_scooter", "bike_id": "6875447f77a5ba49414a8b66d6194ff9"}, {"lon": -77.06197216666666, "lat": 38.94165816666667, "name": "a4673b36c4960f7989993a449cd9e335", "fusion_lat": 0.0, "fusion_lon": 0.0, "rental_uris": {"android": "https://dc.lft.to/lastmile_qr_scan", "ios": "https://dc.lft.to/lastmile_qr_scan"}, "is_reserved": 0, "is_disabled": 0, "type": "electric_scooter", "bike_id": "a4673b36c4960f7989993a449cd9e335"}, {"lon": -76.97308766666667, "lat": 38.91992, "name": "dcad9e34265a2638cb9140629263b034", "fusion_lat": 0.0, "fusion_lon": 0.0, "rental_uris": {"android": "https://dc.lft.to/lastmile_qr_scan", "ios": "https://dc.lft.to/lastmile_qr_scan"}, "is_reserved": 0, "is_disabled": 0, "type": "electric_scooter", "bike_id": "dcad9e34265a2638cb9140629263b034"}, {"lon": -76.990609, "lat": 38.936876, "name": "733a402438f8046baaedf7ddb4a9bef3", "fusion_lat": 0.0, "fusion_lon": 0.0, "rental_uris": {"android": "https://dc.lft.to/lastmile_qr_scan", "ios": "https://dc.lft.to/lastmile_qr_scan"}, "is_reserved": 0, "is_disabled": 0, "type": "electric_bike", "bike_id": "733a402438f8046baaedf7ddb4a9bef3"}, {"lon": -77.04068416666667, "lat": 38.81239133333333, "name": "6a3fc24951130b2593f7463d874ef837", "fusion_lat": 0.0, "fusion_lon": 0.0, "rental_uris": {"android": "https://dc.lft.to/lastmile_qr_scan", "ios": "https://dc.lft.to/lastmile_qr_scan"}, "is_reserved": 0, "is_disabled": 0, "type": "electric_bike", "bike_id": "6a3fc24951130b2593f7463d874ef837"}, {"lon": -77.0387475, "lat": 38.93253816666667, "name": "e86b6070378cb0f3b39eef294ff6422d", "fusion_lat": 0.0, "fusion_lon": 0.0, "rental_uris": {"android": "https://dc.lft.to/lastmile_qr_scan", "ios": "https://dc.lft.to/lastmile_qr_scan"}, "is_reserved": 0, "is_disabled": 0, "type": "electric_scooter", "bike_id": "e86b6070378cb0f3b39eef294ff6422d"}, {"lon": -77.03849133333334, "lat": 38.90460016666667, "name": "b7ca8e24daefd3c8edca7fa6c735fcf1", "fusion_lat": 0.0, "fusion_lon": 0.0, "rental_uris": {"android": "https://dc.lft.to/lastmile_qr_scan", "ios": "https://dc.lft.to/lastmile_qr_scan"}, "is_reserved": 0, "is_disabled": 0, "type": "electric_scooter", "bike_id": "b7ca8e24daefd3c8edca7fa6c735fcf1"}, {"lon": -77.02987516666667, "lat": 38.956279333333335, "name": "df3c46f8a9eb29a8e2a2bfb51227a2fd", "fusion_lat": 0.0, "fusion_lon": 0.0, "rental_uris": {"android": "https://dc.lft.to/lastmile_qr_scan", "ios": "https://dc.lft.to/lastmile_qr_scan"}, "is_reserved": 0, "is_disabled": 0, "type": "electric_scooter", "bike_id": "df3c46f8a9eb29a8e2a2bfb51227a2fd"}, {"lon": -76.93204933333334, "lat": 38.87235016666666, "name": "db5483a1a7f0cccb285f545e01aaa801", "fusion_lat": 0.0, "fusion_lon": 0.0, "rental_uris": {"android": "https://dc.lft.to/lastmile_qr_scan", "ios": "https://dc.lft.to/lastmile_qr_scan"}, "is_reserved": 0, "is_disabled": 0, "type": "electric_bike", "bike_id": "db5483a1a7f0cccb285f545e01aaa801"}, {"lon": -77.03698766666666, "lat": 38.91689616666667, "name": "985b4ff3f38d7a9ba3c78c11a4dfb19e", "fusion_lat": 0.0, "fusion_lon": 0.0, "rental_uris": {"android": "https://dc.lft.to/lastmile_qr_scan", "ios": "https://dc.lft.to/lastmile_qr_scan"}, "is_reserved": 0, "is_disabled": 0, "type": "electric_scooter", "bike_id": "985b4ff3f38d7a9ba3c78c11a4dfb19e"},