{"data": {"bikes": [{"lon": -77.0959815, "bike_id": "1670f6b12b997dee3ca0355cdd3fb427", "lat": 39.028898833333336, "fusion_lon": 0.0, "fusion_lat": 0.0, "type": "electric_bike", "name": "1670f6b12b997dee3ca0355cdd3fb427", "is_disabled": 0, "rental_uris": {"ios": "https://dc.lft.to/lastmile_qr_scan", "android": "https://dc.lft.to/lastmile_qr_scan"}, "is_reserved": 0}, {"lon": -77.13103383333333, "bike_id": "cb28d7f10862a404ce0d57c038dabcd0", "lat": 39.024377666666666, "fusion_lon": 0.0, "fusion_lat": 0.0, "type": "electric_bike", "name": "cb28d7f10862a404ce0d57c038dabcd0", "is_disabled": 0, "rental_uris": {"ios": "https://dc.lft.to/lastmile_qr_scan", "android": "https://dc.lft.to/lastmile_qr_scan"}, "is_reserved": 0}, {"lon": -77.04496433333334, "bike_id": "a6c96a77f93a68e040207e2b6e5d4268", "lat": 38.900057833333335, "fusion_lon": 0.0, "fusion_lat": 0.0, "type": "electric_scooter", "name": "a6c96a77f93a68e040207e2b6e5d4268", "is_disabled": 0, "rental_uris": {"ios": "https://dc.lft.to/lastmile_qr_scan", "android": "https://dc.lft.to/lastmile_qr_scan"}, "is_reserved": 0}, {"lon": -77.03464483333333, "bike_id": "5f0255bb7375746a8a45d2acafb779dd", "lat": 38.907314666666664, "fusion_lon": 0.0, "fusion_lat": 0.0, "type": "electric_scooter", "name": "5f0255bb7375746a8a45d2acafb779dd", "is_disabled": 0, "rental_uris": {"ios": "https://dc.lft.to/lastmile_qr_scan", "android": "https://dc.lft.to/lastmile_qr_scan"}, "is_reserved": 0}, {"lon": -77.03542233333333, "bike_id": "4e6967abd2d93abed0301af4444be18e", "lat": 38.924164166666664, "fusion_lon": 0.0, "fusion_lat": 0.0, "type": "electric_scooter", "name": "4e6967abd2d93abed0301af4444be18e", "is_disabled": 0, "rental_uris": {"ios": "https://dc.lft.to/lastmile_qr_scan", "android": "https://dc.lft.to/lastmile_qr_scan"}, "is_reserved": 0}, {"lon": -77.029423, "bike_id": "a1899b319a15f304da309498a328b082", "lat": 38.920579000000004, "fusion_lon": 0.0, "fusion_lat": 0.0, "type": "electric_scooter", "name": "a1899b319a15f304da309498a328b082", "is_disabled": 0, "rental_uris": {"ios": "https://dc.lft.to/lastmile_qr_scan", "android": "https://dc.lft.to/lastmile_qr_scan"}, "is_reserved": 0}, {"lon": -77.01117933333333, "bike_id": "4edf695affe4f7418efcf126633edc09", "lat": 38.885506666666664, "fusion_lon": 0.0, "fusion_lat": 0.0, "type": "electric_scooter", "name": "4edf695affe4f7418efcf126633edc09", "is_disabled": 0, "rental_uris": {"ios": "https://dc.lft.to/lastmile_qr_scan", "android": "https://dc.lft.to/lastmile_qr_scan"}, "is_reserved": 0}, {"lon": -77.05625866666666, "bike_id": "4d0210759952585da4c0cf522ff286ff", "lat": 38.96071216666667, "fusion_lon": 0.0, "fusion_lat": 0.0, "type": "electric_scooter", "name": "4d0210759952585da4c0cf522ff286ff", "is_disabled": 0, "rental_uris": {"ios": "https://dc.lft.to/lastmile_qr_scan", "android": "https://dc.lft.to/lastmile_qr_scan"}, "is_reserved": 0}, {"lon": -76.9658135, "bike_id": "52c209573b7623fa123bddd9a8679589", "lat": 38.8713165, "fusion_lon": 0.0, "fusion_lat": 0.0, "type": "electric_scooter", "name": "52c209573b7623fa123bddd9a8679589", "is_disabled": 0, "rental_uris": {"ios": "https://dc.lft.to/lastmile_qr_scan", "android": "https://dc.lft.to/lastmile_qr_scan"}, "is_reserved": 0}, {"lon": -77.003592, "bike_id": "9c460bf655086e3f7d2ea1876903f0c8", "lat": 38.915497, "fusion_lon": 0.0, "fusion_lat": 0.0, "type": "electric_scooter", "name": "9c460bf655086e3f7d2ea1876903f0c8", "is_disabled": 0, "rental_uris": {"ios": "https://dc.lft.to/lastmile_qr_scan", "android": "https://dc.lft.to/lastmile_qr_scan"}, "is_reserved": 0}, {"lon": -77.03396766666667, "bike_id": "7b5986a901f44a08a7b3190fb5a6b6a1", "lat": 38.9602915, "fusion_lon": 0.0, "fusion_lat": 0.0, "type": "electric_bike", "name": "7b5986a901f44a08a7b3190fb5a6b6a1", "is_disabled": 0, "rental_uris": {"ios": "https://dc.lft.to/lastmile_qr_scan", "android": "https://dc.lft.to/lastmile_qr_scan"}, "is_reserved": 0}, {"lon": -77.03247616666667, "bike_id": "708ec5ce491110a756834718de6650e9", "lat": 38.929193833333336, "fusion_lon": 0.0, "fusion_lat": 0.0, "type": "electric_scooter", "name": "708ec5ce491110a756834718de6650e9", "is_disabled": 0, "rental_uris": {"ios": "https://dc.lft.to/lastmile_qr_scan", "android": "https://dc.lft.to/lastmile_qr_scan"}, "is_reserved": 0}, {"lon": -77.04218983333334, "bike_id": "3ebefda9af0bf8e1496e9d20c30b0f17", "lat": 38.9111795, "fusion_lon": 0.0, "fusion_lat": 0.0, "type": "electric_scooter", "name": "3ebefda9af0bf8e1496e9d20c30b0f17", "is_disabled": 0, "rental_uris": {"ios": "https://dc.lft.to/lastmile_qr_scan", "android": "https://dc.lft.to/lastmile_qr_scan"}, "is_reserved": 0}, {"lon": -76.99778133333334, "bike_id": "f2721ac169b8f1c6e52252a631e8d98b", "lat": 38.844304666666666, "fusion_lon": 0.0, "fusion_lat": 0.0, "type": "electric_scooter", "name": "f2721ac169b8f1c6e52252a631e8d98b", "is_disabled": 0, "rental_uris": {"ios": "https://dc.lft.to/lastmile_qr_scan", "android": "https://dc.lft.to/lastmile_qr_scan"}, "is_reserved": 0}, {"lon": -77.03171866666666, "bike_id": "64234f915948ad95849ef5ea747cb064", "lat": 38.9191175, "fusion_lon": 0.0, "fusion_lat": 0.0, "type": "electric_scooter", "name": "64234f915948ad95849ef5ea747cb064", "is_disabled": 0, "rental_uris": {"ios": "https://dc.lft.to/lastmile_qr_scan", "android": "https://dc.lft.to/lastmile_qr_scan"}, "is_reserved": 0}, {"lon": -77.07021416666667, "bike_id": "fc60f81d850551d8a06c8304f5ae3216", "lat": 38.906229333333336, "fusion_lon": 0.0, "fusion_lat": 0.0, "type": "electric_scooter", "name": "fc60f81d850551d8a06c8304f5ae3216", "is_disabled": 0, "rental_uris": {"ios": "https://dc.lft.to/lastmile_qr_scan", "android": "https://dc.lft.to/lastmile_qr_scan"}, "is_reserved": 0}, {"lon": -77.00284916666666, "bike_id": "c4886cc7c308a47fea7c823b6129ffe1", "lat": 38.9569695, "fusion_lon": 0.0, "fusion_lat": 0.0, "type": "electric_bike", "name": "c4886cc7c308a47fea7c823b6129ffe1", "is_disabled": 0, "rental_uris": {"ios": "https://dc.lft.to/lastmile_qr_scan", "android": "https://dc.lft.to/lastmile_qr_scan"}, "is_reserved": 0}, {"lon": -77.06535816666667, "bike_id": "1d16eb61a2e53f073139deca176e7d64", "lat": 38.947429, "fusion_lon": 0.0, "fusion_lat": 0.0, "type": "electric_scooter", "name": "1d16eb61a2e53f073139deca176e7d64", "is_disabled": 0, "rental_uris": {"ios": "https://dc.lft.to/lastmile_qr_scan", "android": "https://dc.lft.to/lastmile_qr_scan"}, "is_reserved": 0}, {"lon": -77.00911083333334, "bike_id": "2836464da533b4ac4a25064fc3619aee", "lat": 38.89555333333333, "fusion_lon": 0.0, "fusion_lat": 0.0, "type": "electric_scooter", "name": "2836464da533b4ac4a25064fc3619aee", "is_disabled": 0, "rental_uris": {"ios": "https://dc.lft.to/lastmile_qr_scan", "android": "https://dc.lft.to/lastmile_qr_scan"}, "is_reserved": 0}, {"lon": -77.0269465, "bike_id": "25e731965d7ff4b71e9fa6514dd813bb", "lat": 38.91039466666667, "fusion_lon": 0.0, "fusion_lat": 0.0, "type": "electric_scooter", "name": "25e731965d7ff4b71e9fa6514dd813bb", "is_disabled": 0, "rental_uris": {"ios": "https://dc.lft.to/lastmile_qr_scan", "android": "https://dc.lft.to/lastmile_qr_scan"}, "is_reserved": 0}, {"lon": -77.04318683333334, "bike_id": "a9721d21ee4dd30b1a6501921bccb64a", "lat": 38.91875683333333, "fusion_lon": 0.0, "fusion_lat": 0.0, "type": "electric_scooter", "name": "a9721d21ee4dd30b1a6501921bccb64a", "is_disabled": 0, "rental_uris": {"ios": "https://dc.lft.to/lastmile_qr_scan", "android": "https://dc.lft.to/lastmile_qr_scan"}, "is_reserved": 0}, {"lon": -76.98487566666667, "bike_id": "f989da395a35de87ccfab8dde85b8324", "lat": 38.898976833333336, "fusion_lon": 0.0, "fusion_lat": 0.0, "type": "electric_scooter", "name": "f989da395a35de87ccfab8dde85b8324", "is_disabled": 0, "rental_uris": {"ios": "https://dc.lft.to/lastmile_qr_scan", "android": "https://dc.lft.to/lastmile_qr_scan"}, "is_reserved": 0}, {"lon": -77.00086466666667, "bike_id": "c09e1272007d8dfcf75b0b3cdc7d74c4", "lat": 38.89484816666667, "fusion_lon": 0.0, "fusion_lat": 0.0, "type": "electric_scooter", "name": "c09e1272007d8dfcf75b0b3cdc7d74c4", "is_disabled": 0, "rental_uris": {"ios": "https://dc.lft.to/lastmile_qr_scan", "android": "https://dc.lft.to/lastmile_qr_scan"}, "is_reserved": 0}, {"lon": -77.03061183333334, "bike_id": "044f679a75a5ea4dae8de68926931333", "lat": 38.92479083333333, "fusion_lon": 0.0, "fusion_lat": 0.0, "type": "electric_scooter", "name": "044f679a75a5ea4dae8de68926931333", "is_disabled": 0, "rental_uris": {"ios": "https://dc.lft.to/lastmile_qr_scan", "android": "https://dc.lft.to/lastmile_qr_scan"}, "is_reserved": 0}, {"lon": -77.02786816666666, "bike_id": "1c4d812734678c32e5f1b82b12350c75", "lat": 38.96216366666667, "fusion_lon": 0.0, "fusion_lat": 0.0, "type": "electric_scooter", "name": "1c4d812734678c32e5f1b82b12350c75", "is_disabled": 0, "rental_uris": {"ios": "https://dc.lft.to/lastmile_qr_scan", "android": "https://dc.lft.to/lastmile_qr_scan"}, "is_reserved": 0}, {"lon": -77.021998, "bike_id": "98f44032fbc63020896ac864ff2d84b3", "lat": 38.91139533333333, "fusion_lon": 0.0, "fusion_lat": 0.0, "type": "electric_scooter", "name": "98f44032fbc63020896ac864ff2d84b3", "is_disabled": 0, "rental_uris": {"ios": "https://dc.lft.to/lastmile_qr_scan", "android": "https://dc.lft.to/lastmile_qr_scan"}, "is_reserved": 0}, {"lon": -77.03466233333333, "bike_id": "01ba42ab66726784d80d39c53dfc8ce7", "lat": 38.90570966666667, "fusion_lon": 0.0, "fusion_lat": 0.0, "type": "electric_scooter", "name": "01ba42ab66726784d80d39c53dfc8ce7", "is_disabled": 0, "rental_uris": {"ios": "https://dc.lft.to/lastmile_qr_scan", "android": "https://dc.lft.to/lastmile_qr_scan"}, "is_reserved": 0}, {"lon": -77.04342283333334, "bike_id": "5b8550dcc7b13b05fa360d9e6017d94e", "lat": 38.90818083333333, "fusion_lon": 0.0, "fusion_lat": 0.0, "type": "electric_scooter", "name": "5b8550dcc7b13b05fa360d9e6017d94e", "is_disabled": 0, "rental_uris": {"ios": "https://dc.lft.to/lastmile_qr_scan", "android": "https://dc.lft.to/lastmile_qr_scan"}, "is_reserved": 0}, {"lon": -77.05120533333333, "bike_id": "d9115c4cc1ce6f1129f6ae8201451aba", "lat": 38.923075833333336, "fusion_lon": 0.0, "fusion_lat": 0.0, "type": "electric_scooter", "name": "d9115c4cc1ce6f1129f6ae8201451aba", "is_disabled": 0, "rental_uris": {"ios": "https://dc.lft.to/lastmile_qr_scan", "android": "https://dc.lft.to/lastmile_qr_scan"}, "is_reserved": 0}, {"lon": -77.05471466666667, "bike_id": "e9ba19b78233c8cab9a74b55488e186e", "lat": 38.897868, "fusion_lon": 0.0, "fusion_lat": 0.0, "type": "electric_scooter", "name": "e9ba19b78233c8cab9a74b55488e186e", "is_disabled": 0, "rental_uris": {"ios": "https://dc.lft.to/lastmile_qr_scan", "android": "https://dc.lft.to/lastmile_qr_scan"}, "is_reserved": 0}, {"lon": -77.01506666666667, "bike_id": "0273d071c4dfd30fdbf5499304c8be7b", "lat": 38.88864683333333, "fusion_lon": 0.0, "fusion_lat": 0.0, "type": "electric_scooter", "name": "0273d071c4dfd30fdbf5499304c8be7b", "is_disabled": 0, "rental_uris": {"ios": "https://dc.lft.to/lastmile_qr_scan", "android": "https://dc.lft.to/lastmile_qr_scan"}, "is_reserved": 0}, {"lon": -77.00661833333334, "bike_id": "a6a0c580e8edbfd592c87acc90bb7bcb", "lat": 38.880704, "fusion_lon": 0.0, "fusion_lat": 0.0, "type": "electric_scooter", "name": "a6a0c580e8edbfd592c87acc90bb7bcb", "is_disabled": 0, "rental_uris": {"ios": "https://dc.lft.to/lastmile_qr_scan", "android": "https://dc.lft.to/lastmile_qr_scan"}, "is_reserved": 0}, {"lon": -77.04597866666667, "bike_id": "4e4adefca75478c0358d04f6916a6c85", "lat": 38.921786833333336, "fusion_lon": 0.0, "fusion_lat": 0.0, "type": "electric_scooter", "name": "4e4adefca75478c0358d04f6916a6c85", "is_disabled": 0, "rental_uris": {"ios": "https://dc.lft.to/lastmile_qr_scan", "android": "https://dc.lft.to/lastmile_qr_scan"}, "is_reserved": 0}, {"lon": -77.02608666666667, "bike_id": "2efd42ecf207eff5b34d797bf379a511", "lat": 38.929869833333335, "fusion_lon": 0.0, "fusion_lat": 0.0, "type": "electric_scooter", "name": "2efd42ecf207eff5b34d797bf379a511", "is_disabled": 0, "rental_uris": {"ios": "https://dc.lft.to/lastmile_qr_scan", "android": "https://dc.lft.to/lastmile_qr_scan"}, "is_reserved": 0}, {"lon": -76.99176616666666, "bike_id": "e5891b880618b4035fe27142fd5ea397", "lat": 38.905034, "fusion_lon": 0.0, "fusion_lat": 0.0, "type": "electric_scooter", "name": "e5891b880618b4035fe27142fd5ea397", "is_disabled": 0, "rental_uris": {"ios": "https://dc.lft.to/lastmile_qr_scan", "android": "https://dc.lft.to/lastmile_qr_scan"}, "is_reserved": 0}, {"lon": -77.03406216666667, "bike_id": "15ff14a29ba867a1bedafab3f152e7dd", "lat": 38.934259, "fusion_lon": 0.0, "fusion_lat": 0.0, "type": "electric_scooter", "name": "15ff14a29ba867a1bedafab3f152e7dd", "is_disabled": 0, "rental_uris": {"ios": "https://dc.lft.to/lastmile_qr_scan", "android": "https://dc.lft.to/lastmile_qr_scan"}, "is_reserved": 0}, {"lon": -76.987268, "bike_id": "2d620d3deada00333f1b469a17a52132", "lat": 38.8670715, "fusion_lon": 0.0, "fusion_lat": 0.0, "type": "electric_scooter", "name": "2d620d3deada00333f1b469a17a52132", "is_disabled": 0, "rental_uris": {"ios": "https://dc.lft.to/lastmile_qr_scan", "android": "https://dc.lft.to/lastmile_qr_scan"}, "is_reserved": 0}, {"lon": -77.02975933333333, "bike_id": "2b981679289c6a246b3df1e63aa5c5bc", "lat": 38.9473355, "fusion_lon": 0.0, "fusion_lat": 0.0, "type": "electric_scooter", "name": "2b981679289c6a246b3df1e63aa5c5bc", "is_disabled": 0, "rental_uris": {"ios": "https://dc.lft.to/lastmile_qr_scan", "android": "https://dc.lft.to/lastmile_qr_scan"}, "is_reserved": 0}, {"lon": -77.03162716666667, "bike_id": "b3a69259ce6f2f8b068e7e3a3d680ac6", "lat": 38.917124, "fusion_lon": 0.0, "fusion_lat": 0.0, "type": "electric_scooter", "name": "b3a69259ce6f2f8b068e7e3a3d680ac6", "is_disabled": 0, "rental_uris": {"ios": "https://dc.lft.to/lastmile_qr_scan", "android": "https://dc.lft.to/lastmile_qr_scan"}, "is_reserved": 0}, {"lon": -77.031185, "bike_id": "76e97836ff4d624a2e9589c2cd5df116", "lat": 38.916995166666666, "fusion_lon": 0.0, "fusion_lat": 0.0, "type": "electric_scooter", "name": "76e97836ff4d624a2e9589c2cd5df116", "is_disabled": 0, "rental_uris": {"ios": "https://dc.lft.to/lastmile_qr_scan", "android": "https://dc.lft.to/lastmile_qr_scan"}, "is_reserved": 0}, {"lon": -77.105994, "bike_id": "a95c618537c0e391696ba65346948382", "lat": 38.9289405, "fusion_lon": 0.0, "fusion_lat": 0.0, "type": "electric_bike", "name": "a95c618537c0e391696ba65346948382", "is_disabled": 0, "rental_uris": {"ios": "https://dc.lft.to/lastmile_qr_scan", "android": "https://dc.lft.to/lastmile_qr_scan"}, "is_reserved": 0}, {"lon": -76.985915, "bike_id": "6a02ad8eea9b568371961221284bb058", "lat": 38.86238133333333, "fusion_lon": 0.0, "fusion_lat": 0.0, "type": "electric_scooter", "name": "6a02ad8eea9b568371961221284bb058", "is_disabled": 0, "rental_uris": {"ios": "https://dc.lft.to/lastmile_qr_scan", "android": "https://dc.lft.to/lastmile_qr_scan"}, "is_reserved": 0}, {"lon": -77.032049, "bike_id": "073f9ce8a4780d56ee503a7a6e3be200", "lat": 38.909700666666666, "fusion_lon": 0.0, "fusion_lat": 0.0, "type": "electric_scooter", "name": "073f9ce8a4780d56ee503a7a6e3be200", "is_disabled": 0, "rental_uris": {"ios": "https://dc.lft.to/lastmile_qr_scan", "android": "https://dc.lft.to/lastmile_qr_scan"}, "is_reserved": 0}, {"lon": -77.03321566666666, "bike_id": "ef52af22c5589f317d50e7fee395d435", "lat": 38.890080166666664, "fusion_lon": 0.0, "fusion_lat": 0.0, "type": "electric_scooter", "name": "ef52af22c5589f317d50e7fee395d435", "is_disabled": 0, "rental_uris": {"ios": "https://dc.lft.to/lastmile_qr_scan", "android": "https://dc.lft.to/lastmile_qr_scan"}, "is_reserved": 0}, {"lon": -77.02967133333334, "bike_id": "07962b9bd3a4dfa4f77e8fa010a559d3", "lat": 38.931920166666664, "fusion_lon": 0.0, "fusion_lat": 0.0, "type": "electric_scooter", "name": "07962b9bd3a4dfa4f77e8fa010a559d3", "is_disabled": 0, "rental_uris": {"ios": "https://dc.lft.to/lastmile_qr_scan", "android": "https://dc.lft.to/lastmile_qr_scan"}, "is_reserved": 0}, {"lon": -76.9615445, "bike_id": "a59487c16401c787f61081c71ca60e17", "lat": 38.8835835, "fusion_lon": 0.0, "fusion_lat": 0.0, "type": "electric_scooter", "name": "a59487c16401c787f61081c71ca60e17", "is_disabled": 0, "rental_uris": {"ios": "https://dc.lft.to/lastmile_qr_scan", "android": "https://dc.lft.to/lastmile_qr_scan"}, "is_reserved": 0}, {"lon": -76.9853785, "bike_id": "35f93aba110ad8478239eeca70abd0be", "lat": 38.9102125, "fusion_lon": 0.0, "fusion_lat": 0.0, "type": "electric_scooter", "name": "35f93aba110ad8478239eeca70abd0be", "is_disabled": 0, "rental_uris": {"ios": "https://dc.lft.to/lastmile_qr_scan", "android": "https://dc.lft.to/lastmile_qr_scan"}, "is_reserved": 0}, {"lon": -77.0468245, "bike_id": "104970a083051b624bfaa1e63fbe4056", "lat": 38.921198, "fusion_lon": 0.0, "fusion_lat": 0.0, "type": "electric_scooter", "name": "104970a083051b624bfaa1e63fbe4056", "is_disabled": 0, "rental_uris": {"ios": "https://dc.lft.to/lastmile_qr_scan", "android": "https://dc.lft.to/lastmile_qr_scan"}, "is_reserved": 0}, {"lon": -76.99613766666667, "bike_id": "116f95eb20936d71403d06d3ee8702da", "lat": 38.900565, "fusion_lon": 0.0, "fusion_lat": 0.0, "type": "electric_scooter", "name": "116f95eb20936d71403d06d3ee8702da", "is_disabled": 0, "rental_uris": {"ios": "https://dc.lft.to/lastmile_qr_scan", "android": "https://dc.lft.to/lastmile_qr_scan"}, "is_reserved": 0}, {"lon": -77.03869666666667, "bike_id": "9787ad185a34ea984bc030acc6c5b434", "lat": 38.9027605, "fusion_lon": 0.0, "fusion_lat": 0.0, "type": "electric_scooter", "name": "9787ad185a34ea984bc030acc6c5b434", "is_disabled": 0, "rental_uris": {"ios": "https://dc.lft.to/lastmile_qr_scan", "android": "https://dc.lft.to/lastmile_qr_scan"}, "is_reserved": 0}, {"lon": -77.038598, "bike_id": "1c508a3ef9add625905e3d8fc77942cb", "lat": 38.917113, "fusion_lon": 0.0, "fusion_lat": 0.0, "type": "electric_scooter", "name": "1c508a3ef9add625905e3d8fc77942cb", "is_disabled": 0, "rental_uris": {"ios": "https://dc.lft.to/lastmile_qr_scan", "android": "https://dc.lft.to/lastmile_qr_scan"}, "is_reserved": 0}, {"lon": -77.03205933333334, "bike_id": "b04a456154504f7b85df0145e4517850", "lat": 38.90969583333333, "fusion_lon": 0.0, "fusion_lat": 0.0, "type": "electric_scooter", "name": "b04a456154504f7b85df0145e4517850", "is_disabled": 0, "rental_uris": {"ios": "https://dc.lft.to/lastmile_qr_scan", "android": "https://dc.lft.to/lastmile_qr_scan"}, "is_reserved": 0}, {"lon": -77.03318933333334, "bike_id": "7a7701a79fc8260e540493840bd3e49e", "lat": 38.914022333333335, "fusion_lon": 0.0, "fusion_lat": 0.0, "type": "electric_scooter", "name": "7a7701a79fc8260e540493840bd3e49e", "is_disabled": 0, "rental_uris": {"ios": "https://dc.lft.to/lastmile_qr_scan", "android": "https://dc.lft.to/lastmile_qr_scan"}, "is_reserved": 0}, {"lon": -76.976474, "bike_id": "27dd0abdc31588386d31c9d4d5c861a0", "lat": 38.8877925, "fusion_lon": 0.0, "fusion_lat": 0.0, "type": "electric_scooter", "name": "27dd0abdc31588386d31c9d4d5c861a0", "is_disabled": 0, "rental_uris": {"ios": "https://dc.lft.to/lastmile_qr_scan", "android": "https://dc.lft.to/lastmile_qr_scan"}, "is_reserved": 0}, {"lon": -77.032254, "bike_id": "227d31fa15b0a7d1b97747e3a86a7f15", "lat": 38.93155016666667, "fusion_lon": 0.0, "fusion_lat": 0.0, "type": "electric_scooter", "name": "227d31fa15b0a7d1b97747e3a86a7f15", "is_disabled": 0, "rental_uris": {"ios": "https://dc.lft.to/lastmile_qr_scan", "android": "https://dc.lft.to/lastmile_qr_scan"}, "is_reserved": 0}, {"lon": -77.02409233333333, "bike_id": "5963afc214c4825e15dd1252f1645d41", "lat": 38.91698433333333, "fusion_lon": 0.0, "fusion_lat": 0.0, "type": "electric_scooter", "name": "5963afc214c4825e15dd1252f1645d41", "is_disabled": 0, "rental_uris": {"ios": "https://dc.lft.to/lastmile_qr_scan", "android": "https://dc.lft.to/lastmile_qr_scan"}, "is_reserved": 0}, {"lon": -77.03202, "bike_id": "9d1aa3f073e234bd222268e3f06b10b8", "lat": 38.896616, "fusion_lon": 0.0, "fusion_lat": 0.0, "type": "electric_scooter", "name": "9d1aa3f073e234bd222268e3f06b10b8", "is_disabled": 0, "rental_uris": {"ios": "https://dc.lft.to/lastmile_qr_scan", "android": "https://dc.lft.to/lastmile_qr_scan"}, "is_reserved": 0}, {"lon": -77.0383885, "bike_id": "9ab39bb172abdecddf82d28a83fc6b7c", "lat": 38.910926833333335, "fusion_lon": 0.0, "fusion_lat": 0.0, "type": "electric_scooter", "name": "9ab39bb172abdecddf82d28a83fc6b7c", "is_disabled": 0, "rental_uris": {"ios": "https://dc.lft.to/lastmile_qr_scan", "android": "https://dc.lft.to/lastmile_qr_scan"}, "is_reserved": 0}, {"lon": -77.06132216666667, "bike_id": "8a42783ab5f2a6b19ff6e38c616f2463", "lat": 38.905201, "fusion_lon": 0.0, "fusion_lat": 0.0, "type": "electric_scooter", "name": "8a42783ab5f2a6b19ff6e38c616f2463", "is_disabled": 0, "rental_uris": {"ios": "https://dc.lft.to/lastmile_qr_scan", "android": "https://dc.lft.to/lastmile_qr_scan"}, "is_reserved": 0}, {"lon": -77.01666083333333, "bike_id": "654cb11fd3bf0b8cbe22ede25de94af3", "lat": 38.881173833333335, "fusion_lon": 0.0, "fusion_lat": 0.0, "type": "electric_scooter", "name": "654cb11fd3bf0b8cbe22ede25de94af3", "is_disabled": 0, "rental_uris": {"ios": "https://dc.lft.to/lastmile_qr_scan", "android": "https://dc.lft.to/lastmile_qr_scan"}, "is_reserved": 0}, {"lon": -77.02654333333334, "bike_id": "59ed69bf5f615e79468cc37ff3c97856", "lat": 38.929770500000004, "fusion_lon": 0.0, "fusion_lat": 0.0, "type": "electric_scooter", "name": "59ed69bf5f615e79468cc37ff3c97856", "is_disabled": 0, "rental_uris": {"ios": "https://dc.lft.to/lastmile_qr_scan", "android": "https://dc.lft.to/lastmile_qr_scan"}, "is_reserved": 0}, {"lon": -77.0297845, "bike_id": "3887f3d97cf69be22ecd5647e4e616be", "lat": 38.93064733333333, "fusion_lon": 0.0, "fusion_lat": 0.0, "type": "electric_scooter", "name": "3887f3d97cf69be22ecd5647e4e616be", "is_disabled": 0, "rental_uris": {"ios": "https://dc.lft.to/lastmile_qr_scan", "android": "https://dc.lft.to/lastmile_qr_scan"}, "is_reserved": 0}, {"lon": -77.0217235, "bike_id": "4b045fcd08da5e490e7dac5b6abaffa0", "lat": 38.942909666666665, "fusion_lon": 0.0, "fusion_lat": 0.0, "type": "electric_scooter", "name": "4b045fcd08da5e490e7dac5b6abaffa0", "is_disabled": 0, "rental_uris": {"ios": "https://dc.lft.to/lastmile_qr_scan", "android": "https://dc.lft.to/lastmile_qr_scan"}, "is_reserved": 0}, {"lon": -77.05410966666666, "bike_id": "3849938a53a94c455ef2228794d8c7bc", "lat": 38.90145116666667, "fusion_lon": 0.0, "fusion_lat": 0.0, "type": "electric_scooter", "name": "3849938a53a94c455ef2228794d8c7bc", "is_disabled": 0, "rental_uris": {"ios": "https://dc.lft.to/lastmile_qr_scan", "android": "https://dc.lft.to/lastmile_qr_scan"}, "is_reserved": 0}, {"lon": -77.0404395, "bike_id": "55c950ceac1ca8c59ce0463508215d8b", "lat": 38.92388666666667, "fusion_lon": 0.0, "fusion_lat": 0.0, "type": "electric_scooter", "name": "55c950ceac1ca8c59ce0463508215d8b", "is_disabled": 0, "rental_uris": {"ios": "https://dc.lft.to/lastmile_qr_scan", "android": "https://dc.lft.to/lastmile_qr_scan"}, "is_reserved": 0}, {"lon": -76.98887116666667, "bike_id": "a690d7913e7f8c9234a941bdc1549b58", "lat": 38.866556833333334, "fusion_lon": 0.0, "fusion_lat": 0.0, "type": "electric_scooter", "name": "a690d7913e7f8c9234a941bdc1549b58", "is_disabled": 0, "rental_uris": {"ios": "https://dc.lft.to/lastmile_qr_scan", "android": "https://dc.lft.to/lastmile_qr_scan"}, "is_reserved": 0}, {"lon": -77.02081416666667, "bike_id": "ce3eacc732032dde5ef49802037cb615", "lat": 38.93638383333333, "fusion_lon": 0.0, "fusion_lat": 0.0, "type": "electric_scooter", "name": "ce3eacc732032dde5ef49802037cb615", "is_disabled": 0, "rental_uris": {"ios": "https://dc.lft.to/lastmile_qr_scan", "android": "https://dc.lft.to/lastmile_qr_scan"}, "is_reserved": 0}, {"lon": -77.03379666666666, "bike_id": "56c288083310e75227ef690317513190", "lat": 38.90301683333333, "fusion_lon": 0.0, "fusion_lat": 0.0, "type": "electric_scooter", "name": "56c288083310e75227ef690317513190", "is_disabled": 0, "rental_uris": {"ios": "https://dc.lft.to/lastmile_qr_scan", "android": "https://dc.lft.to/lastmile_qr_scan"}, "is_reserved": 0}, {"lon": -77.02985116666666, "bike_id": "9265247e07f5d3a42e40221ffdf971ee", "lat": 38.90730283333333, "fusion_lon": 0.0, "fusion_lat": 0.0, "type": "electric_scooter", "name": "9265247e07f5d3a42e40221ffdf971ee", "is_disabled": 0, "rental_uris": {"ios": "https://dc.lft.to/lastmile_qr_scan", "android": "https://dc.lft.to/lastmile_qr_scan"}, "is_reserved": 0}, {"lon": -77.02179133333334, "bike_id": "cd0377b34b0266a61a9968683dd69362", "lat": 38.919852166666665, "fusion_lon": 0.0, "fusion_lat": 0.0, "type": "electric_scooter", "name": "cd0377b34b0266a61a9968683dd69362", "is_disabled": 0, "rental_uris": {"ios": "https://dc.lft.to/lastmile_qr_scan", "android": "https://dc.lft.to/lastmile_qr_scan"}, "is_reserved": 0}, {"lon": -77.02398383333333, "bike_id": "d78df0feed2ebb00e3bbb79b5b5269bb", "lat": 38.90949083333334, "fusion_lon": 0.0, "fusion_lat": 0.0, "type": "electric_scooter", "name": "d78df0feed2ebb00e3bbb79b5b5269bb", "is_disabled": 0, "rental_uris": {"ios": "https://dc.lft.to/lastmile_qr_scan", "android": "https://dc.lft.to/lastmile_qr_scan"}, "is_reserved": 0}, {"lon": -77.0322455, "bike_id": "9c572098811ea124daa60d5f17444f68", "lat": 38.9315635, "fusion_lon": 0.0, "fusion_lat": 0.0, "type": "electric_scooter", "name": "9c572098811ea124daa60d5f17444f68", "is_disabled": 0, "rental_uris": {"ios": "https://dc.lft.to/lastmile_qr_scan", "android": "https://dc.lft.to/lastmile_qr_scan"}, "is_reserved": 0}, {"lon": -77.03473116666666, "bike_id": "826c55e122abb2bc4e3a2f463e98024f", "lat": 38.884877833333334, "fusion_lon": 0.0, "fusion_lat": 0.0, "type": "electric_scooter", "name": "826c55e122abb2bc4e3a2f463e98024f", "is_disabled": 0, "rental_uris": {"ios": "https://dc.lft.to/lastmile_qr_scan", "android": "https://dc.lft.to/lastmile_qr_scan"}, "is_reserved": 0}, {"lon": -76.97685766666666, "bike_id": "d6fe125dcf67a9e933e5fbb88c70144a", "lat": 38.896218166666664, "fusion_lon": 0.0, "fusion_lat": 0.0, "type": "electric_scooter", "name": "d6fe125dcf67a9e933e5fbb88c70144a", "is_disabled": 0, "rental_uris": {"ios": "https://dc.lft.to/lastmile_qr_scan", "android": "https://dc.lft.to/lastmile_qr_scan"}, "is_reserved": 0}, {"lon": -76.99617483333333, "bike_id": "c0eadef477b342b03072f8e09bcce54c", "lat": 38.90057916666667, "fusion_lon": 0.0, "fusion_lat": 0.0, "type": "electric_scooter", "name": "c0eadef477b342b03072f8e09bcce54c", "is_disabled": 0, "rental_uris": {"ios": "https://dc.lft.to/lastmile_qr_scan", "android": "https://dc.lft.to/lastmile_qr_scan"}, "is_reserved": 0}, {"lon": -76.993337, "bike_id": "bc02f7ab1d594a173c3e4a6eb25d10c9", "lat": 38.87143733333333, "fusion_lon": 0.0, "fusion_lat": 0.0, "type": "electric_scooter", "name": "bc02f7ab1d594a173c3e4a6eb25d10c9", "is_disabled": 0, "rental_uris": {"ios": "https://dc.lft.to/lastmile_qr_scan", "android": "https://dc.lft.to/lastmile_qr_scan"}, "is_reserved": 0}, {"lon": -77.02088083333334, "bike_id": "49a5870bb0ef2984ddf80ceef42ebd5e", "lat": 38.95745816666667, "fusion_lon": 0.0, "fusion_lat": 0.0, "type": "electric_scooter", "name": "49a5870bb0ef2984ddf80ceef42ebd5e", "is_disabled": 0, "rental_uris": {"ios": "https://dc.lft.to/lastmile_qr_scan", "android": "https://dc.lft.to/lastmile_qr_scan"}, "is_reserved": 0}, {"lon": -76.98724516666667, "bike_id": "525dc8dc94599cfa1801cd48a9420d03", "lat": 38.867082, "fusion_lon": 0.0, "fusion_lat": 0.0, "type": "electric_scooter", "name": "525dc8dc94599cfa1801cd48a9420d03", "is_disabled": 0, "rental_uris": {"ios": "https://dc.lft.to/lastmile_qr_scan", "android": "https://dc.lft.to/lastmile_qr_scan"}, "is_reserved": 0}, {"lon": -77.0333785, "bike_id": "74f252a52f562ae1331b6abd1c955e8d", "lat": 38.936368, "fusion_lon": 0.0, "fusion_lat": 0.0, "type": "electric_scooter", "name": "74f252a52f562ae1331b6abd1c955e8d", "is_disabled": 0, "rental_uris": {"ios": "https://dc.lft.to/lastmile_qr_scan", "android": "https://dc.lft.to/lastmile_qr_scan"}, "is_reserved": 0}, {"lon": -76.94886933333333, "bike_id": "b62211e2b6325328ed777a590f9d4bc4", "lat": 38.895102, "fusion_lon": 0.0, "fusion_lat": 0.0, "type": "electric_scooter", "name": "b62211e2b6325328ed777a590f9d4bc4", "is_disabled": 0, "rental_uris": {"ios": "https://dc.lft.to/lastmile_qr_scan", "android": "https://dc.lft.to/lastmile_qr_scan"}, "is_reserved": 0}, {"lon": -77.02200116666667, "bike_id": "747605fe1f5d25489e7b898b214255ea", "lat": 38.90278716666667, "fusion_lon": 0.0, "fusion_lat": 0.0, "type": "electric_scooter", "name": "747605fe1f5d25489e7b898b214255ea", "is_disabled": 0, "rental_uris": {"ios": "https://dc.lft.to/lastmile_qr_scan", "android": "https://dc.lft.to/lastmile_qr_scan"}, "is_reserved": 0}, {"lon": -77.02417016666666, "bike_id": "14967821ffdfd116a1430e0903e04ed8", "lat": 38.89959133333333, "fusion_lon": 0.0, "fusion_lat": 0.0, "type": "electric_scooter", "name": "14967821ffdfd116a1430e0903e04ed8", "is_disabled": 0, "rental_uris": {"ios": "https://dc.lft.to/lastmile_qr_scan", "android": "https://dc.lft.to/lastmile_qr_scan"}, "is_reserved": 0}, {"lon": -77.02497666666666, "bike_id": "5963b2ea052398cd0367570bbacd17f4", "lat": 38.92017116666667, "fusion_lon": 0.0, "fusion_lat": 0.0, "type": "electric_scooter", "name": "5963b2ea052398cd0367570bbacd17f4", "is_disabled": 0, "rental_uris": {"ios": "https://dc.lft.to/lastmile_qr_scan", "android": "https://dc.lft.to/lastmile_qr_scan"}, "is_reserved": 0}, {"lon": -77.03188083333333, "bike_id": "ffdf14b8d4fd4bdea3e873ca3028ae4b", "lat": 38.907728166666665, "fusion_lon": 0.0, "fusion_lat": 0.0, "type": "electric_scooter", "name": "ffdf14b8d4fd4bdea3e873ca3028ae4b", "is_disabled": 0, "rental_uris": {"ios": "https://dc.lft.to/lastmile_qr_scan", "android": "https://dc.lft.to/lastmile_qr_scan"}, "is_reserved": 0}, {"lon": -76.988658, "bike_id": "bb5efceec18c8b433b6c66ac54754fae", "lat": 38.954771666666666, "fusion_lon": 0.0, "fusion_lat": 0.0, "type": "electric_bike", "name": "bb5efceec18c8b433b6c66ac54754fae", "is_disabled": 0, "rental_uris": {"ios": "https://dc.lft.to/lastmile_qr_scan", "android": "https://dc.lft.to/lastmile_qr_scan"}, "is_reserved": 0}, {"lon": -76.97223983333333, "bike_id": "754b2d149c303325a0dbb9b16bd9af08", "lat": 38.9144265, "fusion_lon": 0.0, "fusion_lat": 0.0, "type": "electric_bike", "name": "754b2d149c303325a0dbb9b16bd9af08", "is_disabled": 0, "rental_uris": {"ios": "https://dc.lft.to/lastmile_qr_scan", "android": "https://dc.lft.to/lastmile_qr_scan"}, "is_reserved": 0}, {"lon": -77.02778483333333, "bike_id": "722400e68ff181cfe315db1e72e80e3a", "lat": 38.8969995, "fusion_lon": 0.0, "fusion_lat": 0.0, "type": "electric_scooter", "name": "722400e68ff181cfe315db1e72e80e3a", "is_disabled": 0, "rental_uris": {"ios": "https://dc.lft.to/lastmile_qr_scan", "android": "https://dc.lft.to/lastmile_qr_scan"}, "is_reserved": 0}, {"lon": -76.98709633333333, "bike_id": "b8a27983a9126a58f7a53f469eb2bd76", "lat": 38.86536533333334, "fusion_lon": 0.0, "fusion_lat": 0.0, "type": "electric_scooter", "name": "b8a27983a9126a58f7a53f469eb2bd76", "is_disabled": 0, "rental_uris": {"ios": "https://dc.lft.to/lastmile_qr_scan", "android": "https://dc.lft.to/lastmile_qr_scan"}, "is_reserved": 0}, {"lon": -76.985444, "bike_id": "822c40c68043855d4eb30648b4c5062d", "lat": 38.910601166666666, "fusion_lon": 0.0, "fusion_lat": 0.0, "type": "electric_scooter", "name": "822c40c68043855d4eb30648b4c5062d", "is_disabled": 0, "rental_uris": {"ios": "https://dc.lft.to/lastmile_qr_scan", "android": "https://dc.lft.to/lastmile_qr_scan"}, "is_reserved": 0}, {"lon": -77.04930566666667, "bike_id": "64cb9ec5823c41e7a5e26256764df401", "lat": 38.918290166666665, "fusion_lon": 0.0, "fusion_lat": 0.0, "type": "electric_scooter", "name": "64cb9ec5823c41e7a5e26256764df401", "is_disabled": 0, "rental_uris": {"ios": "https://dc.lft.to/lastmile_qr_scan", "android": "https://dc.lft.to/lastmile_qr_scan"}, "is_reserved": 0}, {"lon": -77.03850233333333, "bike_id": "623f0f66865984cb1f3f799b57476a78", "lat": 38.907514666666664, "fusion_lon": 0.0, "fusion_lat": 0.0, "type": "electric_scooter", "name": "623f0f66865984cb1f3f799b57476a78", "is_disabled": 0, "rental_uris": {"ios": "https://dc.lft.to/lastmile_qr_scan", "android": "https://dc.lft.to/lastmile_qr_scan"}, "is_reserved": 0}, {"lon": -76.96058883333333, "bike_id": "796ced6d005ffeda317b28ffd904d7d0", "lat": 38.884033, "fusion_lon": 0.0, "fusion_lat": 0.0, "type": "electric_bike", "name": "796ced6d005ffeda317b28ffd904d7d0", "is_disabled": 0, "rental_uris": {"ios": "https://dc.lft.to/lastmile_qr_scan", "android": "https://dc.lft.to/lastmile_qr_scan"}, "is_reserved": 0}, {"lon": -76.99464633333334, "bike_id": "9785a8c546ff5cb39ef8e7b93ce13380", "lat": 38.86223783333333, "fusion_lon": 0.0, "fusion_lat": 0.0, "type": "electric_scooter", "name": "9785a8c546ff5cb39ef8e7b93ce13380", "is_disabled": 0, "rental_uris": {"ios": "https://dc.lft.to/lastmile_qr_scan", "android": "https://dc.lft.to/lastmile_qr_scan"}, "is_reserved": 0}, {"lon": -77.00197466666667, "bike_id": "15f5a9803146eea2fc8a6df296e54202", "lat": 38.900409333333336, "fusion_lon": 0.0, "fusion_lat": 0.0, "type": "electric_scooter", "name": "15f5a9803146eea2fc8a6df296e54202", "is_disabled": 0, "rental_uris": {"ios": "https://dc.lft.to/lastmile_qr_scan", "android": "https://dc.lft.to/lastmile_qr_scan"}, "is_reserved": 0}, {"lon": -77.04807583333333, "bike_id": "0e62ddc0708429e18a76aa98ac3c5f8f", "lat": 38.91627616666667, "fusion_lon": 0.0, "fusion_lat": 0.0, "type": "electric_scooter", "name": "0e62ddc0708429e18a76aa98ac3c5f8f", "is_disabled": 0, "rental_uris": {"ios": "https://dc.lft.to/lastmile_qr_scan", "android": "https://dc.lft.to/lastmile_qr_scan"}, "is_reserved": 0}, {"lon": -77.033991, "bike_id": "8807e9b978e1f26d0b6a70e3d7395873", "lat": 38.9312245, "fusion_lon": 0.0, "fusion_lat": 0.0, "type": "electric_scooter", "name": "8807e9b978e1f26d0b6a70e3d7395873", "is_disabled": 0, "rental_uris": {"ios": "https://dc.lft.to/lastmile_qr_scan", "android": "https://dc.lft.to/lastmile_qr_scan"}, "is_reserved": 0}, {"lon": -77.06494716666667, "bike_id": "5bf691a9dcb2ebfb3bbdca6603ae1339", "lat": 38.929057666666665, "fusion_lon": 0.0, "fusion_lat": 0.0, "type": "electric_scooter", "name": "5bf691a9dcb2ebfb3bbdca6603ae1339", "is_disabled": 0, "rental_uris": {"ios": "https://dc.lft.to/lastmile_qr_scan", "android": "https://dc.lft.to/lastmile_qr_scan"}, "is_reserved": 0}, {"lon": -77.026683, "bike_id": "783953b875d7e428faa0a94f72ef2305", "lat": 38.984282666666665, "fusion_lon": 0.0, "fusion_lat": 0.0, "type": "electric_scooter", "name": "783953b875d7e428faa0a94f72ef2305", "is_disabled": 0, "rental_uris": {"ios": "https://dc.lft.to/lastmile_qr_scan", "android": "https://dc.lft.to/lastmile_qr_scan"}, "is_reserved": 0}, {"lon": -76.98035016666667, "bike_id": "959397acc67e85cde5d86cc8c916d0db", "lat": 38.88962933333333, "fusion_lon": 0.0, "fusion_lat": 0.0, "type": "electric_scooter", "name": "959397acc67e85cde5d86cc8c916d0db", "is_disabled": 0, "rental_uris": {"ios": "https://dc.lft.to/lastmile_qr_scan", "android": "https://dc.lft.to/lastmile_qr_scan"}, "is_reserved": 0}, {"lon": -77.02291983333333, "bike_id": "960c237db9cf8c5b4080830d358d0d79", "lat": 38.91682133333333, "fusion_lon": 0.0, "fusion_lat": 0.0, "type": "electric_scooter", "name": "960c237db9cf8c5b4080830d358d0d79", "is_disabled": 0, "rental_uris": {"ios": "https://dc.lft.to/lastmile_qr_scan", "android": "https://dc.lft.to/lastmile_qr_scan"}, "is_reserved": 0}, {"lon": -77.00202266666666, "bike_id": "74f46dbad8a278043d00fcaa1a872e59", "lat": 38.900286333333334, "fusion_lon": 0.0, "fusion_lat": 0.0, "type": "electric_scooter", "name": "74f46dbad8a278043d00fcaa1a872e59", "is_disabled": 0, "rental_uris": {"ios": "https://dc.lft.to/lastmile_qr_scan", "android": "https://dc.lft.to/lastmile_qr_scan"}, "is_reserved": 0}, {"lon": -77.04815583333334, "bike_id": "274425d49a6bac78a971334a80290f73", "lat": 38.9203545, "fusion_lon": 0.0, "fusion_lat": 0.0, "type": "electric_scooter", "name": "274425d49a6bac78a971334a80290f73", "is_disabled": 0, "rental_uris": {"ios": "https://dc.lft.to/lastmile_qr_scan", "android": "https://dc.lft.to/lastmile_qr_scan"}, "is_reserved": 0}, {"lon": -77.026135, "bike_id": "d363c64751a809b7801b5342934c3614", "lat": 38.916928166666665, "fusion_lon": 0.0, "fusion_lat": 0.0, "type": "electric_scooter", "name": "d363c64751a809b7801b5342934c3614", "is_disabled": 0, "rental_uris": {"ios": "https://dc.lft.to/lastmile_qr_scan", "android": "https://dc.lft.to/lastmile_qr_scan"}, "is_reserved": 0}, {"lon": -77.03781233333333, "bike_id": "825a99860c4fae116989f824f39efc7e", "lat": 38.9257115, "fusion_lon": 0.0, "fusion_lat": 0.0, "type": "electric_scooter", "name": "825a99860c4fae116989f824f39efc7e", "is_disabled": 0, "rental_uris": {"ios": "https://dc.lft.to/lastmile_qr_scan", "android": "https://dc.lft.to/lastmile_qr_scan"}, "is_reserved": 0}, {"lon": -77.00884516666666, "bike_id": "83e6a74345f3b5560174dda7377d04b9", "lat": 38.9171515, "fusion_lon": 0.0, "fusion_lat": 0.0, "type": "electric_scooter", "name": "83e6a74345f3b5560174dda7377d04b9", "is_disabled": 0, "rental_uris": {"ios": "https://dc.lft.to/lastmile_qr_scan", "android": "https://dc.lft.to/lastmile_qr_scan"}, "is_reserved": 0}, {"lon": -77.025854, "bike_id": "46c745d0a96586dd1329b03698dfc937", "lat": 38.89231433333333, "fusion_lon": 0.0, "fusion_lat": 0.0, "type": "electric_scooter", "name": "46c745d0a96586dd1329b03698dfc937", "is_disabled": 0, "rental_uris": {"ios": "https://dc.lft.to/lastmile_qr_scan", "android": "https://dc.lft.to/lastmile_qr_scan"}, "is_reserved": 0}, {"lon": -76.99031983333333, "bike_id": "217407e9bf77b7055bc794a5a92ec914", "lat": 38.89800616666667, "fusion_lon": 0.0, "fusion_lat": 0.0, "type": "electric_scooter", "name": "217407e9bf77b7055bc794a5a92ec914", "is_disabled": 0, "rental_uris": {"ios": "https://dc.lft.to/lastmile_qr_scan", "android": "https://dc.lft.to/lastmile_qr_scan"}, "is_reserved": 0}, {"lon": -77.03068533333334, "bike_id": "0ed3fa21bbd4424fcb5fcbfb002ecdb4", "lat": 38.885829333333334, "fusion_lon": 0.0, "fusion_lat": 0.0, "type": "electric_scooter", "name": "0ed3fa21bbd4424fcb5fcbfb002ecdb4", "is_disabled": 0, "rental_uris": {"ios": "https://dc.lft.to/lastmile_qr_scan", "android": "https://dc.lft.to/lastmile_qr_scan"}, "is_reserved": 0}, {"lon": -76.978444, "bike_id": "f433df88fcc752625b7c2df6907f9ff2", "lat": 38.865773833333336, "fusion_lon": 0.0, "fusion_lat": 0.0, "type": "electric_bike", "name": "f433df88fcc752625b7c2df6907f9ff2", "is_disabled": 0, "rental_uris": {"ios": "https://dc.lft.to/lastmile_qr_scan", "android": "https://dc.lft.to/lastmile_qr_scan"}, "is_reserved": 0}, {"lon": -76.99763566666667, "bike_id": "41ef688bfa25a05ba73e146c7fa8cdbd", "lat": 38.92446016666667, "fusion_lon": 0.0, "fusion_lat": 0.0, "type": "electric_scooter", "name": "41ef688bfa25a05ba73e146c7fa8cdbd", "is_disabled": 0, "rental_uris": {"ios": "https://dc.lft.to/lastmile_qr_scan", "android": "https://dc.lft.to/lastmile_qr_scan"}, "is_reserved": 0}, {"lon": -77.034668, "bike_id": "75ef57b3c371610c42f3949121a36e73", "lat": 38.905761, "fusion_lon": 0.0, "fusion_lat": 0.0, "type": "electric_scooter", "name": "75ef57b3c371610c42f3949121a36e73", "is_disabled": 0, "rental_uris": {"ios": "https://dc.lft.to/lastmile_qr_scan", "android": "https://dc.lft.to/lastmile_qr_scan"}, "is_reserved": 0}, {"lon": -77.04867316666666, "bike_id": "53776b74ac0376d40a2e222a4789c39e", "lat": 38.892231333333335, "fusion_lon": 0.0, "fusion_lat": 0.0, "type": "electric_scooter", "name": "53776b74ac0376d40a2e222a4789c39e", "is_disabled": 0, "rental_uris": {"ios": "https://dc.lft.to/lastmile_qr_scan", "android": "https://dc.lft.to/lastmile_qr_scan"}, "is_reserved": 0}, {"lon": -77.029882, "bike_id": "987172b1f8ea6fdf9504a7d716233861", "lat": 38.9743945, "fusion_lon": 0.0, "fusion_lat": 0.0, "type": "electric_bike", "name": "987172b1f8ea6fdf9504a7d716233861", "is_disabled": 0, "rental_uris": {"ios": "https://dc.lft.to/lastmile_qr_scan", "android": "https://dc.lft.to/lastmile_qr_scan"}, "is_reserved": 0}, {"lon": -77.0250725, "bike_id": "8113d3031d0ba191dd07adb372eaa2d9", "lat": 38.934113833333335, "fusion_lon": 0.0, "fusion_lat": 0.0, "type": "electric_bike", "name": "8113d3031d0ba191dd07adb372eaa2d9", "is_disabled": 0, "rental_uris": {"ios": "https://dc.lft.to/lastmile_qr_scan", "android": "https://dc.lft.to/lastmile_qr_scan"}, "is_reserved": 0}, {"lon": -77.05130183333333, "bike_id": "9f5387f879c0c819a6b50858d9b40a18", "lat": 38.923612, "fusion_lon": 0.0, "fusion_lat": 0.0, "type": "electric_scooter", "name": "9f5387f879c0c819a6b50858d9b40a18", "is_disabled": 0, "rental_uris": {"ios": "https://dc.lft.to/lastmile_qr_scan", "android": "https://dc.lft.to/lastmile_qr_scan"}, "is_reserved": 0}, {"lon": -77.02314533333333, "bike_id": "d1a368ffcfa81bf4fb08797f62f692fb", "lat": 38.90959083333333, "fusion_lon": 0.0, "fusion_lat": 0.0, "type": "electric_scooter", "name": "d1a368ffcfa81bf4fb08797f62f692fb", "is_disabled": 0, "rental_uris": {"ios": "https://dc.lft.to/lastmile_qr_scan", "android": "https://dc.lft.to/lastmile_qr_scan"}, "is_reserved": 0}, {"lon": -77.00343283333333, "bike_id": "2cef652431dba76f40b18396a3017fed", "lat": 38.895220333333334, "fusion_lon": 0.0, "fusion_lat": 0.0, "type": "electric_scooter", "name": "2cef652431dba76f40b18396a3017fed", "is_disabled": 0, "rental_uris": {"ios": "https://dc.lft.to/lastmile_qr_scan", "android": "https://dc.lft.to/lastmile_qr_scan"}, "is_reserved": 0}, {"lon": -77.031916, "bike_id": "50d24473fc37f49f5bc957696c9e5ca8", "lat": 38.91683066666667, "fusion_lon": 0.0, "fusion_lat": 0.0, "type": "electric_scooter", "name": "50d24473fc37f49f5bc957696c9e5ca8", "is_disabled": 0, "rental_uris": {"ios": "https://dc.lft.to/lastmile_qr_scan", "android": "https://dc.lft.to/lastmile_qr_scan"}, "is_reserved": 0}, {"lon": -77.05858933333333, "bike_id": "eed61e518ccb7ef9c7b16c3b5676eaa4", "lat": 38.936084666666666, "fusion_lon": 0.0, "fusion_lat": 0.0, "type": "electric_scooter", "name": "eed61e518ccb7ef9c7b16c3b5676eaa4", "is_disabled": 0, "rental_uris": {"ios": "https://dc.lft.to/lastmile_qr_scan", "android": "https://dc.lft.to/lastmile_qr_scan"}, "is_reserved": 0}, {"lon": -77.05015316666666, "bike_id": "fe15f1ad818c098c2bfba41dcfdb2980", "lat": 38.897802666666664, "fusion_lon": 0.0, "fusion_lat": 0.0, "type": "electric_scooter", "name": "fe15f1ad818c098c2bfba41dcfdb2980", "is_disabled": 0, "rental_uris": {"ios": "https://dc.lft.to/lastmile_qr_scan", "android": "https://dc.lft.to/lastmile_qr_scan"}, "is_reserved": 0}, {"lon": -77.03227283333334, "bike_id": "d35864b05e01c9c235418f6ac2846227", "lat": 38.92653633333333, "fusion_lon": 0.0, "fusion_lat": 0.0, "type": "electric_scooter", "name": "d35864b05e01c9c235418f6ac2846227", "is_disabled": 0, "rental_uris": {"ios": "https://dc.lft.to/lastmile_qr_scan", "android": "https://dc.lft.to/lastmile_qr_scan"}, "is_reserved": 0}, {"lon": -77.031615, "bike_id": "d39974f38f9cb912d4c48ef1eb169a65", "lat": 38.89219583333333, "fusion_lon": 0.0, "fusion_lat": 0.0, "type": "electric_scooter", "name": "d39974f38f9cb912d4c48ef1eb169a65", "is_disabled": 0, "rental_uris": {"ios": "https://dc.lft.to/lastmile_qr_scan", "android": "https://dc.lft.to/lastmile_qr_scan"}, "is_reserved": 0}, {"lon": -76.98192683333333, "bike_id": "baf86003a541078556650c7a99bfff5d", "lat": 38.899481333333334, "fusion_lon": 0.0, "fusion_lat": 0.0, "type": "electric_scooter", "name": "baf86003a541078556650c7a99bfff5d", "is_disabled": 0, "rental_uris": {"ios": "https://dc.lft.to/lastmile_qr_scan", "android": "https://dc.lft.to/lastmile_qr_scan"}, "is_reserved": 0}, {"lon": -76.9518575, "bike_id": "04f7ed1ebbadca43e00cee7e322f2ebd", "lat": 38.907373166666666, "fusion_lon": 0.0, "fusion_lat": 0.0, "type": "electric_scooter", "name": "04f7ed1ebbadca43e00cee7e322f2ebd", "is_disabled": 0, "rental_uris": {"ios": "https://dc.lft.to/lastmile_qr_scan", "android": "https://dc.lft.to/lastmile_qr_scan"}, "is_reserved": 0}, {"lon": -76.98714083333333, "bike_id": "03184fb9bc1aebfbb4baaa6ea0102cf3", "lat": 38.86625866666667, "fusion_lon": 0.0, "fusion_lat": 0.0, "type": "electric_scooter", "name": "03184fb9bc1aebfbb4baaa6ea0102cf3", "is_disabled": 0, "rental_uris": {"ios": "https://dc.lft.to/lastmile_qr_scan", "android": "https://dc.lft.to/lastmile_qr_scan"}, "is_reserved": 0}, {"lon": -76.98001683333334, "bike_id": "80befcbe39bd253b28f69e647388fc8e", "lat": 38.906776666666666, "fusion_lon": 0.0, "fusion_lat": 0.0, "type": "electric_scooter", "name": "80befcbe39bd253b28f69e647388fc8e", "is_disabled": 0, "rental_uris": {"ios": "https://dc.lft.to/lastmile_qr_scan", "android": "https://dc.lft.to/lastmile_qr_scan"}, "is_reserved": 0}, {"lon": -77.03669216666667, "bike_id": "c7c8429a168a0d4ea20d98404e25c8e1", "lat": 38.909612, "fusion_lon": 0.0, "fusion_lat": 0.0, "type": "electric_scooter", "name": "c7c8429a168a0d4ea20d98404e25c8e1", "is_disabled": 0, "rental_uris": {"ios": "https://dc.lft.to/lastmile_qr_scan", "android": "https://dc.lft.to/lastmile_qr_scan"}, "is_reserved": 0}, {"lon": -77.02839433333334, "bike_id": "a7aa67dea84010d9ed2f1fba1b821bbe", "lat": 38.89219466666667, "fusion_lon": 0.0, "fusion_lat": 0.0, "type": "electric_scooter", "name": "a7aa67dea84010d9ed2f1fba1b821bbe", "is_disabled": 0, "rental_uris": {"ios": "https://dc.lft.to/lastmile_qr_scan", "android": "https://dc.lft.to/lastmile_qr_scan"}, "is_reserved": 0}, {"lon": -76.98951733333334, "bike_id": "5695e4135e7049d1c73d802abdc95759", "lat": 38.856912333333334, "fusion_lon": 0.0, "fusion_lat": 0.0, "type": "electric_scooter", "name": "5695e4135e7049d1c73d802abdc95759", "is_disabled": 0, "rental_uris": {"ios": "https://dc.lft.to/lastmile_qr_scan", "android": "https://dc.lft.to/lastmile_qr_scan"}, "is_reserved": 0}, {"lon": -76.9826365, "bike_id": "6fb13a8869bf8af270e87b7e0e8fc0ca", "lat": 38.908541666666665, "fusion_lon": 0.0, "fusion_lat": 0.0, "type": "electric_scooter", "name": "6fb13a8869bf8af270e87b7e0e8fc0ca", "is_disabled": 0, "rental_uris": {"ios": "https://dc.lft.to/lastmile_qr_scan", "android": "https://dc.lft.to/lastmile_qr_scan"}, "is_reserved": 0}, {"lon": -77.02613866666667, "bike_id": "527a7f64789ac5847dc74d3c8fad5521", "lat": 38.91690633333333, "fusion_lon": 0.0, "fusion_lat": 0.0, "type": "electric_scooter", "name": "527a7f64789ac5847dc74d3c8fad5521", "is_disabled": 0, "rental_uris": {"ios": "https://dc.lft.to/lastmile_qr_scan", "android": "https://dc.lft.to/lastmile_qr_scan"}, "is_reserved": 0}, {"lon": -77.04924683333333, "bike_id": "61a65ab40db60127a6e099dc41fddf1f", "lat": 38.90378033333333, "fusion_lon": 0.0, "fusion_lat": 0.0, "type": "electric_scooter", "name": "61a65ab40db60127a6e099dc41fddf1f", "is_disabled": 0, "rental_uris": {"ios": "https://dc.lft.to/lastmile_qr_scan", "android": "https://dc.lft.to/lastmile_qr_scan"}, "is_reserved": 0}, {"lon": -77.02366266666667, "bike_id": "0012df7b0a4312477989a4615b9d43f5", "lat": 38.892188833333336, "fusion_lon": 0.0, "fusion_lat": 0.0, "type": "electric_scooter", "name": "0012df7b0a4312477989a4615b9d43f5", "is_disabled": 0, "rental_uris": {"ios": "https://dc.lft.to/lastmile_qr_scan", "android": "https://dc.lft.to/lastmile_qr_scan"}, "is_reserved": 0}, {"lon": -77.02763533333334, "bike_id": "b30e8838cb36fe0cec790f59dbcf1ed7", "lat": 38.954255, "fusion_lon": 0.0, "fusion_lat": 0.0, "type": "electric_scooter", "name": "b30e8838cb36fe0cec790f59dbcf1ed7", "is_disabled": 0, "rental_uris": {"ios": "https://dc.lft.to/lastmile_qr_scan", "android": "https://dc.lft.to/lastmile_qr_scan"}, "is_reserved": 0}, {"lon": -77.01541783333333, "bike_id": "4b12e02ecc76b8306f49b3d41db3e0ec", "lat": 38.88499616666667, "fusion_lon": 0.0, "fusion_lat": 0.0, "type": "electric_scooter", "name": "4b12e02ecc76b8306f49b3d41db3e0ec", "is_disabled": 0, "rental_uris": {"ios": "https://dc.lft.to/lastmile_qr_scan", "android": "https://dc.lft.to/lastmile_qr_scan"}, "is_reserved": 0}, {"lon": -77.03754416666666, "bike_id": "18a644e9e69083a8614199595b6ca3f7", "lat": 38.911951333333334, "fusion_lon": 0.0, "fusion_lat": 0.0, "type": "electric_scooter", "name": "18a644e9e69083a8614199595b6ca3f7", "is_disabled": 0, "rental_uris": {"ios": "https://dc.lft.to/lastmile_qr_scan", "android": "https://dc.lft.to/lastmile_qr_scan"}, "is_reserved": 0}, {"lon": -77.02471966666667, "bike_id": "0b8cdf2f27ecb2c95e6f84345bc543a0", "lat": 38.903999, "fusion_lon": 0.0, "fusion_lat": 0.0, "type": "electric_scooter", "name": "0b8cdf2f27ecb2c95e6f84345bc543a0", "is_disabled": 0, "rental_uris": {"ios": "https://dc.lft.to/lastmile_qr_scan", "android": "https://dc.lft.to/lastmile_qr_scan"}, "is_reserved": 0}, {"lon": -77.03839083333334, "bike_id": "644d3e81cd0a13281942d8f694243c00", "lat": 38.91564316666667, "fusion_lon": 0.0, "fusion_lat": 0.0, "type": "electric_scooter", "name": "644d3e81cd0a13281942d8f694243c00", "is_disabled": 0, "rental_uris": {"ios": "https://dc.lft.to/lastmile_qr_scan", "android": "https://dc.lft.to/lastmile_qr_scan"}, "is_reserved": 0}, {"lon": -77.00732566666667, "bike_id": "cd632d4a656889c375d8a435a91a50ef", "lat": 38.89852666666667, "fusion_lon": 0.0, "fusion_lat": 0.0, "type": "electric_scooter", "name": "cd632d4a656889c375d8a435a91a50ef", "is_disabled": 0, "rental_uris": {"ios": "https://dc.lft.to/lastmile_qr_scan", "android": "https://dc.lft.to/lastmile_qr_scan"}, "is_reserved": 0}, {"lon": -77.03771216666667, "bike_id": "54fa521c1818ffa75a5209c06dadf794", "lat": 38.916851333333334, "fusion_lon": 0.0, "fusion_lat": 0.0, "type": "electric_scooter", "name": "54fa521c1818ffa75a5209c06dadf794", "is_disabled": 0, "rental_uris": {"ios": "https://dc.lft.to/lastmile_qr_scan", "android": "https://dc.lft.to/lastmile_qr_scan"}, "is_reserved": 0}, {"lon": -76.94996533333334, "bike_id": "c4dd2c9205c32e3597aaa7b535c71583", "lat": 38.893794, "fusion_lon": 0.0, "fusion_lat": 0.0, "type": "electric_scooter", "name": "c4dd2c9205c32e3597aaa7b535c71583", "is_disabled": 0, "rental_uris": {"ios": "https://dc.lft.to/lastmile_qr_scan", "android": "https://dc.lft.to/lastmile_qr_scan"}, "is_reserved": 0}, {"lon": -77.0225795, "bike_id": "ac727f8aa74ced1336919ff38871d2c4", "lat": 38.9252755, "fusion_lon": 0.0, "fusion_lat": 0.0, "type": "electric_scooter", "name": "ac727f8aa74ced1336919ff38871d2c4", "is_disabled": 0, "rental_uris": {"ios": "https://dc.lft.to/lastmile_qr_scan", "android": "https://dc.lft.to/lastmile_qr_scan"}, "is_reserved": 0}, {"lon": -77.02542516666666, "bike_id": "a390f49144fcbe4d8179e90395743c68", "lat": 38.92073466666667, "fusion_lon": 0.0, "fusion_lat": 0.0, "type": "electric_scooter", "name": "a390f49144fcbe4d8179e90395743c68", "is_disabled": 0, "rental_uris": {"ios": "https://dc.lft.to/lastmile_qr_scan", "android": "https://dc.lft.to/lastmile_qr_scan"}, "is_reserved": 0}, {"lon": -77.07588966666667, "bike_id": "a0660206bdab179d34aa2eb7dd76e8a5", "lat": 38.9121845, "fusion_lon": 0.0, "fusion_lat": 0.0, "type": "electric_scooter", "name": "a0660206bdab179d34aa2eb7dd76e8a5", "is_disabled": 0, "rental_uris": {"ios": "https://dc.lft.to/lastmile_qr_scan", "android": "https://dc.lft.to/lastmile_qr_scan"}, "is_reserved": 0}, {"lon": -77.02011116666667, "bike_id": "73ea1ab2aa845c207637d6ee334d911c", "lat": 38.897269666666666, "fusion_lon": 0.0, "fusion_lat": 0.0, "type": "electric_scooter", "name": "73ea1ab2aa845c207637d6ee334d911c", "is_disabled": 0, "rental_uris": {"ios": "https://dc.lft.to/lastmile_qr_scan", "android": "https://dc.lft.to/lastmile_qr_scan"}, "is_reserved": 0}, {"lon": -77.04086633333333, "bike_id": "3a99da26a61fa18d43a653a37bdce91b", "lat": 38.905865, "fusion_lon": 0.0, "fusion_lat": 0.0, "type": "electric_scooter", "name": "3a99da26a61fa18d43a653a37bdce91b", "is_disabled": 0, "rental_uris": {"ios": "https://dc.lft.to/lastmile_qr_scan", "android": "https://dc.lft.to/lastmile_qr_scan"}, "is_reserved": 0}, {"lon": -77.02415033333334, "bike_id": "7f7754dbbb3c36a3cb6fc32d90409c0c", "lat": 38.905680833333335, "fusion_lon": 0.0, "fusion_lat": 0.0, "type": "electric_scooter", "name": "7f7754dbbb3c36a3cb6fc32d90409c0c", "is_disabled": 0, "rental_uris": {"ios": "https://dc.lft.to/lastmile_qr_scan", "android": "https://dc.lft.to/lastmile_qr_scan"}, "is_reserved": 0}, {"lon": -77.0317515, "bike_id": "6fabb6f122901eca7e0082b4d616876c", "lat": 38.921103333333335, "fusion_lon": 0.0, "fusion_lat": 0.0, "type": "electric_bike", "name": "6fabb6f122901eca7e0082b4d616876c", "is_disabled": 0, "rental_uris": {"ios": "https://dc.lft.to/lastmile_qr_scan", "android": "https://dc.lft.to/lastmile_qr_scan"}, "is_reserved": 0}, {"lon": -76.99064566666667, "bike_id": "1b147968fad086c63403f993e2b79741", "lat": 38.898219166666664, "fusion_lon": 0.0, "fusion_lat": 0.0, "type": "electric_bike", "name": "1b147968fad086c63403f993e2b79741", "is_disabled": 0, "rental_uris": {"ios": "https://dc.lft.to/lastmile_qr_scan", "android": "https://dc.lft.to/lastmile_qr_scan"}, "is_reserved": 0}, {"lon": -76.987737, "bike_id": "d6a22cc0a979fa868c0982e451ae5e1b", "lat": 38.866053666666666, "fusion_lon": 0.0, "fusion_lat": 0.0, "type": "electric_bike", "name": "d6a22cc0a979fa868c0982e451ae5e1b", "is_disabled": 0, "rental_uris": {"ios": "https://dc.lft.to/lastmile_qr_scan", "android": "https://dc.lft.to/lastmile_qr_scan"}, "is_reserved": 0}, {"lon": -77.01880083333333, "bike_id": "7d83a999ff8791f4f53eee18bd44af9e", "lat": 38.91414483333333, "fusion_lon": 0.0, "fusion_lat": 0.0, "type": "electric_scooter", "name": "7d83a999ff8791f4f53eee18bd44af9e", "is_disabled": 0, "rental_uris": {"ios": "https://dc.lft.to/lastmile_qr_scan", "android": "https://dc.lft.to/lastmile_qr_scan"}, "is_reserved": 0}, {"lon": -77.03288216666667, "bike_id": "07a84052f8a1764a2212f48c5efb05b1", "lat": 38.934381, "fusion_lon": 0.0, "fusion_lat": 0.0, "type": "electric_scooter", "name": "07a84052f8a1764a2212f48c5efb05b1", "is_disabled": 0, "rental_uris": {"ios": "https://dc.lft.to/lastmile_qr_scan", "android": "https://dc.lft.to/lastmile_qr_scan"}, "is_reserved": 0}, {"lon": -77.03176066666667, "bike_id": "054c4536096af8a8913d7d86e1c718f4", "lat": 38.936066333333336, "fusion_lon": 0.0, "fusion_lat": 0.0, "type": "electric_scooter", "name": "054c4536096af8a8913d7d86e1c718f4", "is_disabled": 0, "rental_uris": {"ios": "https://dc.lft.to/lastmile_qr_scan", "android": "https://dc.lft.to/lastmile_qr_scan"}, "is_reserved": 0}, {"lon": -76.9775325, "bike_id": "eaf76bb002319dd3544d01ecb37cd588", "lat": 38.86488766666667, "fusion_lon": 0.0, "fusion_lat": 0.0, "type": "electric_bike", "name": "eaf76bb002319dd3544d01ecb37cd588", "is_disabled": 0, "rental_uris": {"ios": "https://dc.lft.to/lastmile_qr_scan", "android": "https://dc.lft.to/lastmile_qr_scan"}, "is_reserved": 0}, {"lon": -77.03710733333334, "bike_id": "3f30211cdddd524bdc6af07f96261f6f", "lat": 38.926439, "fusion_lon": 0.0, "fusion_lat": 0.0, "type": "electric_scooter", "name": "3f30211cdddd524bdc6af07f96261f6f", "is_disabled": 0, "rental_uris": {"ios": "https://dc.lft.to/lastmile_qr_scan", "android": "https://dc.lft.to/lastmile_qr_scan"}, "is_reserved": 0}, {"lon": -77.18562816666666, "bike_id": "96ce193f5612117fc89b1944827a0976", "lat": 39.09975216666667, "fusion_lon": 0.0, "fusion_lat": 0.0, "type": "electric_bike", "name": "96ce193f5612117fc89b1944827a0976", "is_disabled": 0, "rental_uris": {"ios": "https://dc.lft.to/lastmile_qr_scan", "android": "https://dc.lft.to/lastmile_qr_scan"}, "is_reserved": 0}, {"lon": -76.996017, "bike_id": "b277a24c8be9a451f8f4a1c250e486c6", "lat": 38.950704, "fusion_lon": 0.0, "fusion_lat": 0.0, "type": "electric_bike", "name": "b277a24c8be9a451f8f4a1c250e486c6", "is_disabled": 0, "rental_uris": {"ios": "https://dc.lft.to/lastmile_qr_scan", "android": "https://dc.lft.to/lastmile_qr_scan"}, "is_reserved": 0}, {"lon": -77.00449466666667, "bike_id": "7c047746716439770aa3d512ce34495a", "lat": 38.87757466666667, "fusion_lon": 0.0, "fusion_lat": 0.0, "type": "electric_scooter", "name": "7c047746716439770aa3d512ce34495a", "is_disabled": 0, "rental_uris": {"ios": "https://dc.lft.to/lastmile_qr_scan", "android": "https://dc.lft.to/lastmile_qr_scan"}, "is_reserved": 0}, {"lon": -77.022032, "bike_id": "71e40beaf815deab630c0b3baa661869", "lat": 38.89510383333333, "fusion_lon": 0.0, "fusion_lat": 0.0, "type": "electric_scooter", "name": "71e40beaf815deab630c0b3baa661869", "is_disabled": 0, "rental_uris": {"ios": "https://dc.lft.to/lastmile_qr_scan", "android": "https://dc.lft.to/lastmile_qr_scan"}, "is_reserved": 0}, {"lon": -77.07591666666667, "bike_id": "c56b0ad38815a7a2d0fdb3cebe0ba166", "lat": 38.912155166666665, "fusion_lon": 0.0, "fusion_lat": 0.0, "type": "electric_scooter", "name": "c56b0ad38815a7a2d0fdb3cebe0ba166", "is_disabled": 0, "rental_uris": {"ios": "https://dc.lft.to/lastmile_qr_scan", "android": "https://dc.lft.to/lastmile_qr_scan"}, "is_reserved": 0}, {"lon": -76.99943383333333, "bike_id": "43b6444b867cd0762fc23d6e25b26b9d", "lat": 38.90769433333333, "fusion_lon": 0.0, "fusion_lat": 0.0, "type": "electric_scooter", "name": "43b6444b867cd0762fc23d6e25b26b9d", "is_disabled": 0, "rental_uris": {"ios": "https://dc.lft.to/lastmile_qr_scan", "android": "https://dc.lft.to/lastmile_qr_scan"}, "is_reserved": 0}, {"lon": -77.00947866666667, "bike_id": "e23899e17aee5d59db5c76e17a3bca3b", "lat": 38.91701966666667, "fusion_lon": 0.0, "fusion_lat": 0.0, "type": "electric_scooter", "name": "e23899e17aee5d59db5c76e17a3bca3b", "is_disabled": 0, "rental_uris": {"ios": "https://dc.lft.to/lastmile_qr_scan", "android": "https://dc.lft.to/lastmile_qr_scan"}, "is_reserved": 0}, {"lon": -77.02281733333334, "bike_id": "b367934b9ce8e38b9db81dc597f35db8", "lat": 38.916531166666665, "fusion_lon": 0.0, "fusion_lat": 0.0, "type": "electric_scooter", "name": "b367934b9ce8e38b9db81dc597f35db8", "is_disabled": 0, "rental_uris": {"ios": "https://dc.lft.to/lastmile_qr_scan", "android": "https://dc.lft.to/lastmile_qr_scan"}, "is_reserved": 0}, {"lon": -77.02796266666667, "bike_id": "26bd4b5d46e0f90a4bc982afd191c228", "lat": 38.934224, "fusion_lon": 0.0, "fusion_lat": 0.0, "type": "electric_scooter", "name": "26bd4b5d46e0f90a4bc982afd191c228", "is_disabled": 0, "rental_uris": {"ios": "https://dc.lft.to/lastmile_qr_scan", "android": "https://dc.lft.to/lastmile_qr_scan"}, "is_reserved": 0}, {"lon": -77.10480616666666, "bike_id": "35e440799810e259f572897934e2596a", "lat": 38.85600483333333, "fusion_lon": 0.0, "fusion_lat": 0.0, "type": "electric_bike", "name": "35e440799810e259f572897934e2596a", "is_disabled": 0, "rental_uris": {"ios": "https://dc.lft.to/lastmile_qr_scan", "android": "https://dc.lft.to/lastmile_qr_scan"}, "is_reserved": 0}, {"lon": -76.98233566666667, "bike_id": "7e3f4803db2e81653cf092b60da311ac", "lat": 38.916417, "fusion_lon": 0.0, "fusion_lat": 0.0, "type": "electric_scooter", "name": "7e3f4803db2e81653cf092b60da311ac", "is_disabled": 0, "rental_uris": {"ios": "https://dc.lft.to/lastmile_qr_scan", "android": "https://dc.lft.to/lastmile_qr_scan"}, "is_reserved": 0}, {"lon": -77.0572095, "bike_id": "d9334303875a74b9541844019364c938", "lat": 38.93369933333334, "fusion_lon": 0.0, "fusion_lat": 0.0, "type": "electric_scooter", "name": "d9334303875a74b9541844019364c938", "is_disabled": 0, "rental_uris": {"ios": "https://dc.lft.to/lastmile_qr_scan", "android": "https://dc.lft.to/lastmile_qr_scan"}, "is_reserved": 0}, {"lon": -77.0344745, "bike_id": "e5de3b1dd46473834c4444c37ca080e7", "lat": 38.90976033333333, "fusion_lon": 0.0, "fusion_lat": 0.0, "type": "electric_scooter", "name": "e5de3b1dd46473834c4444c37ca080e7", "is_disabled": 0, "rental_uris": {"ios": "https://dc.lft.to/lastmile_qr_scan", "android": "https://dc.lft.to/lastmile_qr_scan"}, "is_reserved": 0}, {"lon": -77.00363083333333, "bike_id": "0d6051eb6359a54914b581945514725d", "lat": 38.89904833333333, "fusion_lon": 0.0, "fusion_lat": 0.0, "type": "electric_scooter", "name": "0d6051eb6359a54914b581945514725d", "is_disabled": 0, "rental_uris": {"ios": "https://dc.lft.to/lastmile_qr_scan", "android": "https://dc.lft.to/lastmile_qr_scan"}, "is_reserved": 0}, {"lon": -77.02859116666667, "bike_id": "da473a48220bce16f56b636b2c6d71b1", "lat": 38.88743483333333, "fusion_lon": 0.0, "fusion_lat": 0.0, "type": "electric_scooter", "name": "da473a48220bce16f56b636b2c6d71b1", "is_disabled": 0, "rental_uris": {"ios": "https://dc.lft.to/lastmile_qr_scan", "android": "https://dc.lft.to/lastmile_qr_scan"}, "is_reserved": 0}, {"lon": -77.04463516666667, "bike_id": "844074d90fed0c342d61e7a4cbf63d97", "lat": 38.91571583333333, "fusion_lon": 0.0, "fusion_lat": 0.0, "type": "electric_scooter", "name": "844074d90fed0c342d61e7a4cbf63d97", "is_disabled": 0, "rental_uris": {"ios": "https://dc.lft.to/lastmile_qr_scan", "android": "https://dc.lft.to/lastmile_qr_scan"}, "is_reserved": 0}, {"lon": -77.03695216666667, "bike_id": "ab550e263157e1a15d3451957262d9cf", "lat": 38.93279616666667, "fusion_lon": 0.0, "fusion_lat": 0.0, "type": "electric_scooter", "name": "ab550e263157e1a15d3451957262d9cf", "is_disabled": 0, "rental_uris": {"ios": "https://dc.lft.to/lastmile_qr_scan", "android": "https://dc.lft.to/lastmile_qr_scan"}, "is_reserved": 0}, {"lon": -77.07290766666667, "bike_id": "b0b1f3d0a3f0a6bd93b22290c24bc5bc", "lat": 38.924639166666665, "fusion_lon": 0.0, "fusion_lat": 0.0, "type": "electric_scooter", "name": "b0b1f3d0a3f0a6bd93b22290c24bc5bc", "is_disabled": 0, "rental_uris": {"ios": "https://dc.lft.to/lastmile_qr_scan", "android": "https://dc.lft.to/lastmile_qr_scan"}, "is_reserved": 0}, {"lon": -77.0192015, "bike_id": "48c77c53256d89aad61933246e3076a6", "lat": 38.93462566666667, "fusion_lon": 0.0, "fusion_lat": 0.0, "type": "electric_scooter", "name": "48c77c53256d89aad61933246e3076a6", "is_disabled": 0, "rental_uris": {"ios": "https://dc.lft.to/lastmile_qr_scan", "android": "https://dc.lft.to/lastmile_qr_scan"}, "is_reserved": 0}, {"lon": -76.97364416666667, "bike_id": "fa753debe4614143c929108b15e98dad", "lat": 38.86547083333333, "fusion_lon": 0.0, "fusion_lat": 0.0, "type": "electric_scooter", "name": "fa753debe4614143c929108b15e98dad", "is_disabled": 0, "rental_uris": {"ios": "https://dc.lft.to/lastmile_qr_scan", "android": "https://dc.lft.to/lastmile_qr_scan"}, "is_reserved": 0}, {"lon": -76.982271, "bike_id": "9587773864054ceac3a8cf8ac21c42ff", "lat": 38.8864345, "fusion_lon": 0.0, "fusion_lat": 0.0, "type": "electric_scooter", "name": "9587773864054ceac3a8cf8ac21c42ff", "is_disabled": 0, "rental_uris": {"ios": "https://dc.lft.to/lastmile_qr_scan", "android": "https://dc.lft.to/lastmile_qr_scan"}, "is_reserved": 0}, {"lon": -77.02208066666667, "bike_id": "07fec9eebb38d8c96aeb50e0cc01ceaa", "lat": 38.91415816666667, "fusion_lon": 0.0, "fusion_lat": 0.0, "type": "electric_scooter", "name": "07fec9eebb38d8c96aeb50e0cc01ceaa", "is_disabled": 0, "rental_uris": {"ios": "https://dc.lft.to/lastmile_qr_scan", "android": "https://dc.lft.to/lastmile_qr_scan"}, "is_reserved": 0}, {"lon": -77.03469966666667, "bike_id": "5d72ab75a24f20709452ef0b0eb283ef", "lat": 38.908657, "fusion_lon": 0.0, "fusion_lat": 0.0, "type": "electric_scooter", "name": "5d72ab75a24f20709452ef0b0eb283ef", "is_disabled": 0, "rental_uris": {"ios": "https://dc.lft.to/lastmile_qr_scan", "android": "https://dc.lft.to/lastmile_qr_scan"}, "is_reserved": 0}, {"lon": -77.0335555, "bike_id": "c10c155481595c588d67ea6688e50ab5", "lat": 38.902762, "fusion_lon": 0.0, "fusion_lat": 0.0, "type": "electric_scooter", "name": "c10c155481595c588d67ea6688e50ab5", "is_disabled": 0, "rental_uris": {"ios": "https://dc.lft.to/lastmile_qr_scan", "android": "https://dc.lft.to/lastmile_qr_scan"}, "is_reserved": 0}, {"lon": -77.00215833333333, "bike_id": "25ce665115644537488ccaf8e8aadb82", "lat": 38.9001785, "fusion_lon": 0.0, "fusion_lat": 0.0, "type": "electric_scooter", "name": "25ce665115644537488ccaf8e8aadb82", "is_disabled": 0, "rental_uris": {"ios": "https://dc.lft.to/lastmile_qr_scan", "android": "https://dc.lft.to/lastmile_qr_scan"}, "is_reserved": 0}, {"lon": -77.02375, "bike_id": "991ce7cd61fb23d4f34af157f1894f5f", "lat": 38.901965833333335, "fusion_lon": 0.0, "fusion_lat": 0.0, "type": "electric_scooter", "name": "991ce7cd61fb23d4f34af157f1894f5f", "is_disabled": 0, "rental_uris": {"ios": "https://dc.lft.to/lastmile_qr_scan", "android": "https://dc.lft.to/lastmile_qr_scan"}, "is_reserved": 0}, {"lon": -77.01221333333334, "bike_id": "d45d283c079bc9fd93db9a2fe544ccf6", "lat": 38.8718395, "fusion_lon": 0.0, "fusion_lat": 0.0, "type": "electric_scooter", "name": "d45d283c079bc9fd93db9a2fe544ccf6", "is_disabled": 0, "rental_uris": {"ios": "https://dc.lft.to/lastmile_qr_scan", "android": "https://dc.lft.to/lastmile_qr_scan"}, "is_reserved": 0}, {"lon": -77.02947633333333, "bike_id": "44e4fd85f30f99c28ca17493655ce91c", "lat": 38.908043666666664, "fusion_lon": 0.0, "fusion_lat": 0.0, "type": "electric_scooter", "name": "44e4fd85f30f99c28ca17493655ce91c", "is_disabled": 0, "rental_uris": {"ios": "https://dc.lft.to/lastmile_qr_scan", "android": "https://dc.lft.to/lastmile_qr_scan"}, "is_reserved": 0}, {"lon": -77.04375283333333, "bike_id": "2d13e571ffa5fca83ed90f72d303795d", "lat": 38.9026615, "fusion_lon": 0.0, "fusion_lat": 0.0, "type": "electric_scooter", "name": "2d13e571ffa5fca83ed90f72d303795d", "is_disabled": 0, "rental_uris": {"ios": "https://dc.lft.to/lastmile_qr_scan", "android": "https://dc.lft.to/lastmile_qr_scan"}, "is_reserved": 0}, {"lon": -77.04690066666667, "bike_id": "e5675aa88ee7cf4e12869565cbc0cc12", "lat": 39.02393083333333, "fusion_lon": 0.0, "fusion_lat": 0.0, "type": "electric_bike", "name": "e5675aa88ee7cf4e12869565cbc0cc12", "is_disabled": 0, "rental_uris": {"ios": "https://dc.lft.to/lastmile_qr_scan", "android": "https://dc.lft.to/lastmile_qr_scan"}, "is_reserved": 0}, {"lon": -77.02457066666666, "bike_id": "9bfc5a66d8540a7599d24ec1046a445b", "lat": 38.93800916666667, "fusion_lon": 0.0, "fusion_lat": 0.0, "type": "electric_scooter", "name": "9bfc5a66d8540a7599d24ec1046a445b", "is_disabled": 0, "rental_uris": {"ios": "https://dc.lft.to/lastmile_qr_scan", "android": "https://dc.lft.to/lastmile_qr_scan"}, "is_reserved": 0}, {"lon": -77.166273, "bike_id": "2bf44fbd27a69735b490d72e664db447", "lat": 38.8883745, "fusion_lon": 0.0, "fusion_lat": 0.0, "type": "electric_bike", "name": "2bf44fbd27a69735b490d72e664db447", "is_disabled": 0, "rental_uris": {"ios": "https://dc.lft.to/lastmile_qr_scan", "android": "https://dc.lft.to/lastmile_qr_scan"}, "is_reserved": 0}, {"lon": -77.03319333333333, "bike_id": "319053c643ecb3c0f6ec19b4826f057b", "lat": 38.928859833333334, "fusion_lon": 0.0, "fusion_lat": 0.0, "type": "electric_scooter", "name": "319053c643ecb3c0f6ec19b4826f057b", "is_disabled": 0, "rental_uris": {"ios": "https://dc.lft.to/lastmile_qr_scan", "android": "https://dc.lft.to/lastmile_qr_scan"}, "is_reserved": 0}, {"lon": -77.11152733333333, "bike_id": "71be8414f27dede19b457f79880e1af1", "lat": 38.85508816666667, "fusion_lon": 0.0, "fusion_lat": 0.0, "type": "electric_bike", "name": "71be8414f27dede19b457f79880e1af1", "is_disabled": 0, "rental_uris": {"ios": "https://dc.lft.to/lastmile_qr_scan", "android": "https://dc.lft.to/lastmile_qr_scan"}, "is_reserved": 0}, {"lon": -77.03864883333334, "bike_id": "4c8c5372a8b924c555a7b52bfa977d6c", "lat": 38.91254466666667, "fusion_lon": 0.0, "fusion_lat": 0.0, "type": "electric_scooter", "name": "4c8c5372a8b924c555a7b52bfa977d6c", "is_disabled": 0, "rental_uris": {"ios": "https://dc.lft.to/lastmile_qr_scan", "android": "https://dc.lft.to/lastmile_qr_scan"}, "is_reserved": 0}, {"lon": -77.02341333333334, "bike_id": "2c7b55a0c3273957c927bfbbf7531b59", "lat": 38.91767216666667, "fusion_lon": 0.0, "fusion_lat": 0.0, "type": "electric_scooter", "name": "2c7b55a0c3273957c927bfbbf7531b59", "is_disabled": 0, "rental_uris": {"ios": "https://dc.lft.to/lastmile_qr_scan", "android": "https://dc.lft.to/lastmile_qr_scan"}, "is_reserved": 0}, {"lon": -77.02279316666667, "bike_id": "839b448286789eae9f303fcc03715bae", "lat": 38.926852, "fusion_lon": 0.0, "fusion_lat": 0.0, "type": "electric_scooter", "name": "839b448286789eae9f303fcc03715bae", "is_disabled": 0, "rental_uris": {"ios": "https://dc.lft.to/lastmile_qr_scan", "android": "https://dc.lft.to/lastmile_qr_scan"}, "is_reserved": 0}, {"lon": -77.0135355, "bike_id": "3f5e0aa9a635c84d8c31e36bf4c3af36", "lat": 38.919633833333336, "fusion_lon": 0.0, "fusion_lat": 0.0, "type": "electric_scooter", "name": "3f5e0aa9a635c84d8c31e36bf4c3af36", "is_disabled": 0, "rental_uris": {"ios": "https://dc.lft.to/lastmile_qr_scan", "android": "https://dc.lft.to/lastmile_qr_scan"}, "is_reserved": 0}, {"lon": -77.03329133333334, "bike_id": "cedbf34bf9eede6f837f4c7b7ac6f6c6", "lat": 38.898321833333334, "fusion_lon": 0.0, "fusion_lat": 0.0, "type": "electric_scooter", "name": "cedbf34bf9eede6f837f4c7b7ac6f6c6", "is_disabled": 0, "rental_uris": {"ios": "https://dc.lft.to/lastmile_qr_scan", "android": "https://dc.lft.to/lastmile_qr_scan"}, "is_reserved": 0}, {"lon": -77.04334483333334, "bike_id": "7477aff57ec1eb21aea9bd716d76663d", "lat": 38.908019, "fusion_lon": 0.0, "fusion_lat": 0.0, "type": "electric_scooter", "name": "7477aff57ec1eb21aea9bd716d76663d", "is_disabled": 0, "rental_uris": {"ios": "https://dc.lft.to/lastmile_qr_scan", "android": "https://dc.lft.to/lastmile_qr_scan"}, "is_reserved": 0}, {"lon": -76.96216433333333, "bike_id": "3d485fa587af88a3d7a3f0fcf8be10b9", "lat": 38.87778016666667, "fusion_lon": 0.0, "fusion_lat": 0.0, "type": "electric_scooter", "name": "3d485fa587af88a3d7a3f0fcf8be10b9", "is_disabled": 0, "rental_uris": {"ios": "https://dc.lft.to/lastmile_qr_scan", "android": "https://dc.lft.to/lastmile_qr_scan"}, "is_reserved": 0}, {"lon": -77.03321, "bike_id": "ab335bd940f48dda67e3eebc2ed102e1", "lat": 38.93899066666667, "fusion_lon": 0.0, "fusion_lat": 0.0, "type": "electric_scooter", "name": "ab335bd940f48dda67e3eebc2ed102e1", "is_disabled": 0, "rental_uris": {"ios": "https://dc.lft.to/lastmile_qr_scan", "android": "https://dc.lft.to/lastmile_qr_scan"}, "is_reserved": 0}, {"lon": -77.07330216666666, "bike_id": "54dba07ddd59b2f4f5b19d7f7d79b284", "lat": 38.914031666666666, "fusion_lon": 0.0, "fusion_lat": 0.0, "type": "electric_scooter", "name": "54dba07ddd59b2f4f5b19d7f7d79b284", "is_disabled": 0, "rental_uris": {"ios": "https://dc.lft.to/lastmile_qr_scan", "android": "https://dc.lft.to/lastmile_qr_scan"}, "is_reserved": 0}, {"lon": -77.042462, "bike_id": "d4c3b411976e5c98897cae470c5f762f", "lat": 38.9242835, "fusion_lon": 0.0, "fusion_lat": 0.0, "type": "electric_scooter", "name": "d4c3b411976e5c98897cae470c5f762f", "is_disabled": 0, "rental_uris": {"ios": "https://dc.lft.to/lastmile_qr_scan", "android": "https://dc.lft.to/lastmile_qr_scan"}, "is_reserved": 0}, {"lon": -77.01731533333333, "bike_id": "c19306211b5e49ab1047fafef93c0a49", "lat": 38.9038355, "fusion_lon": 0.0, "fusion_lat": 0.0, "type": "electric_scooter", "name": "c19306211b5e49ab1047fafef93c0a49", "is_disabled": 0, "rental_uris": {"ios": "https://dc.lft.to/lastmile_qr_scan", "android": "https://dc.lft.to/lastmile_qr_scan"}, "is_reserved": 0}, {"lon": -77.033689, "bike_id": "27ae53bf73673b6a3783ea23ae7ab418", "lat": 38.93530583333333, "fusion_lon": 0.0, "fusion_lat": 0.0, "type": "electric_scooter", "name": "27ae53bf73673b6a3783ea23ae7ab418", "is_disabled": 0, "rental_uris": {"ios": "https://dc.lft.to/lastmile_qr_scan", "android": "https://dc.lft.to/lastmile_qr_scan"}, "is_reserved": 0}, {"lon": -77.02680966666667, "bike_id": "644298407c82eb383d45b16eca3d35b1", "lat": 38.912523666666665, "fusion_lon": 0.0, "fusion_lat": 0.0, "type": "electric_scooter", "name": "644298407c82eb383d45b16eca3d35b1", "is_disabled": 0, "rental_uris": {"ios": "https://dc.lft.to/lastmile_qr_scan", "android": "https://dc.lft.to/lastmile_qr_scan"}, "is_reserved": 0}, {"lon": -77.027866, "bike_id": "e46f9b740761cf226ccca09605f8293f", "lat": 38.95678383333333, "fusion_lon": 0.0, "fusion_lat": 0.0, "type": "electric_scooter", "name": "e46f9b740761cf226ccca09605f8293f", "is_disabled": 0, "rental_uris": {"ios": "https://dc.lft.to/lastmile_qr_scan", "android": "https://dc.lft.to/lastmile_qr_scan"}, "is_reserved": 0}, {"lon": -77.0228865, "bike_id": "294b9c442163c1843b18c0cc568d9beb", "lat": 38.90910516666667, "fusion_lon": 0.0, "fusion_lat": 0.0, "type": "electric_scooter", "name": "294b9c442163c1843b18c0cc568d9beb", "is_disabled": 0, "rental_uris": {"ios": "https://dc.lft.to/lastmile_qr_scan", "android": "https://dc.lft.to/lastmile_qr_scan"}, "is_reserved": 0}, {"lon": -77.0513185, "bike_id": "13cd2f4f59d68e2d665ed1101c44e32b", "lat": 38.92361916666667, "fusion_lon": 0.0, "fusion_lat": 0.0, "type": "electric_scooter", "name": "13cd2f4f59d68e2d665ed1101c44e32b", "is_disabled": 0, "rental_uris": {"ios": "https://dc.lft.to/lastmile_qr_scan", "android": "https://dc.lft.to/lastmile_qr_scan"}, "is_reserved": 0}, {"lon": -77.02487616666667, "bike_id": "b696ccf8b53fda38ab6d630417875a9c", "lat": 38.93861066666667, "fusion_lon": 0.0, "fusion_lat": 0.0, "type": "electric_scooter", "name": "b696ccf8b53fda38ab6d630417875a9c", "is_disabled": 0, "rental_uris": {"ios": "https://dc.lft.to/lastmile_qr_scan", "android": "https://dc.lft.to/lastmile_qr_scan"}, "is_reserved": 0}, {"lon": -77.00781866666667, "bike_id": "3492b2838ee575a0f9e6f9587d3e8d8a", "lat": 38.90653266666666, "fusion_lon": 0.0, "fusion_lat": 0.0, "type": "electric_scooter", "name": "3492b2838ee575a0f9e6f9587d3e8d8a", "is_disabled": 0, "rental_uris": {"ios": "https://dc.lft.to/lastmile_qr_scan", "android": "https://dc.lft.to/lastmile_qr_scan"}, "is_reserved": 0}, {"lon": -77.04399933333333, "bike_id": "0e1b2774e7f6f432724b015a7b0a4301", "lat": 38.9332045, "fusion_lon": 0.0, "fusion_lat": 0.0, "type": "electric_scooter", "name": "0e1b2774e7f6f432724b015a7b0a4301", "is_disabled": 0, "rental_uris": {"ios": "https://dc.lft.to/lastmile_qr_scan", "android": "https://dc.lft.to/lastmile_qr_scan"}, "is_reserved": 0}, {"lon": -76.9275305, "bike_id": "f414e59c66db6f2ffe00e672df0dcf95", "lat": 38.88056233333333, "fusion_lon": 0.0, "fusion_lat": 0.0, "type": "electric_scooter", "name": "f414e59c66db6f2ffe00e672df0dcf95", "is_disabled": 0, "rental_uris": {"ios": "https://dc.lft.to/lastmile_qr_scan", "android": "https://dc.lft.to/lastmile_qr_scan"}, "is_reserved": 0}, {"lon": -77.05269983333334, "bike_id": "2a5b0013eb9b179838d1cb3a70fca8de", "lat": 38.910221166666666, "fusion_lon": 0.0, "fusion_lat": 0.0, "type": "electric_scooter", "name": "2a5b0013eb9b179838d1cb3a70fca8de", "is_disabled": 0, "rental_uris": {"ios": "https://dc.lft.to/lastmile_qr_scan", "android": "https://dc.lft.to/lastmile_qr_scan"}, "is_reserved": 0}, {"lon": -77.05353616666666, "bike_id": "687f96355781be430aaf555d0992fdd7", "lat": 38.927104166666666, "fusion_lon": 0.0, "fusion_lat": 0.0, "type": "electric_scooter", "name": "687f96355781be430aaf555d0992fdd7", "is_disabled": 0, "rental_uris": {"ios": "https://dc.lft.to/lastmile_qr_scan", "android": "https://dc.lft.to/lastmile_qr_scan"}, "is_reserved": 0}, {"lon": -77.00593433333333, "bike_id": "3701c3dbe19187b123d5db3c97981c6f", "lat": 38.90620416666667, "fusion_lon": 0.0, "fusion_lat": 0.0, "type": "electric_scooter", "name": "3701c3dbe19187b123d5db3c97981c6f", "is_disabled": 0, "rental_uris": {"ios": "https://dc.lft.to/lastmile_qr_scan", "android": "https://dc.lft.to/lastmile_qr_scan"}, "is_reserved": 0}, {"lon": -77.03475883333333, "bike_id": "6f5d01ab98c7f07b57e5b6a6c4f72257", "lat": 38.924804333333334, "fusion_lon": 0.0, "fusion_lat": 0.0, "type": "electric_scooter", "name": "6f5d01ab98c7f07b57e5b6a6c4f72257", "is_disabled": 0, "rental_uris": {"ios": "https://dc.lft.to/lastmile_qr_scan", "android": "https://dc.lft.to/lastmile_qr_scan"}, "is_reserved": 0}, {"lon": -77.0241285, "bike_id": "448adad2b6fa4b0349b5bb3f146e3e98", "lat": 38.9096875, "fusion_lon": 0.0, "fusion_lat": 0.0, "type": "electric_scooter", "name": "448adad2b6fa4b0349b5bb3f146e3e98", "is_disabled": 0, "rental_uris": {"ios": "https://dc.lft.to/lastmile_qr_scan", "android": "https://dc.lft.to/lastmile_qr_scan"}, "is_reserved": 0}, {"lon": -76.99461633333334, "bike_id": "b4ba81afbd81844827b0ad4e54aee660", "lat": 38.940664166666664, "fusion_lon": 0.0, "fusion_lat": 0.0, "type": "electric_scooter", "name": "b4ba81afbd81844827b0ad4e54aee660", "is_disabled": 0, "rental_uris": {"ios": "https://dc.lft.to/lastmile_qr_scan", "android": "https://dc.lft.to/lastmile_qr_scan"}, "is_reserved": 0}, {"lon": -77.02387033333333, "bike_id": "f454434805f673e0998b5c03ec11a8c5", "lat": 38.907383, "fusion_lon": 0.0, "fusion_lat": 0.0, "type": "electric_scooter", "name": "f454434805f673e0998b5c03ec11a8c5", "is_disabled": 0, "rental_uris": {"ios": "https://dc.lft.to/lastmile_qr_scan", "android": "https://dc.lft.to/lastmile_qr_scan"}, "is_reserved": 0}, {"lon": -77.02942266666666, "bike_id": "322de93c0b8f0b76ea9e94b79a2179eb", "lat": 38.9047705, "fusion_lon": 0.0, "fusion_lat": 0.0, "type": "electric_scooter", "name": "322de93c0b8f0b76ea9e94b79a2179eb", "is_disabled": 0, "rental_uris": {"ios": "https://dc.lft.to/lastmile_qr_scan", "android": "https://dc.lft.to/lastmile_qr_scan"}, "is_reserved": 0}, {"lon": -76.97671583333333, "bike_id": "2892c6630d1c74cde2732002e800d701", "lat": 38.952435, "fusion_lon": 0.0, "fusion_lat": 0.0, "type": "electric_bike", "name": "2892c6630d1c74cde2732002e800d701", "is_disabled": 0, "rental_uris": {"ios": "https://dc.lft.to/lastmile_qr_scan", "android": "https://dc.lft.to/lastmile_qr_scan"}, "is_reserved": 0}, {"lon": -77.03121833333333, "bike_id": "17d8214d8b1b01f2fefb944e27bab52a", "lat": 38.920744166666665, "fusion_lon": 0.0, "fusion_lat": 0.0, "type": "electric_bike", "name": "17d8214d8b1b01f2fefb944e27bab52a", "is_disabled": 0, "rental_uris": {"ios": "https://dc.lft.to/lastmile_qr_scan", "android": "https://dc.lft.to/lastmile_qr_scan"}, "is_reserved": 0}, {"lon": -76.9814645, "bike_id": "c6732578afa710d0501fb736f8f952d7", "lat": 38.903242666666664, "fusion_lon": 0.0, "fusion_lat": 0.0, "type": "electric_scooter", "name": "c6732578afa710d0501fb736f8f952d7", "is_disabled": 0, "rental_uris": {"ios": "https://dc.lft.to/lastmile_qr_scan", "android": "https://dc.lft.to/lastmile_qr_scan"}, "is_reserved": 0}, {"lon": -77.04339883333333, "bike_id": "7c5c9790ff805b77c0796ef7d24cca9b", "lat": 38.90811816666667, "fusion_lon": 0.0, "fusion_lat": 0.0, "type": "electric_scooter", "name": "7c5c9790ff805b77c0796ef7d24cca9b", "is_disabled": 0, "rental_uris": {"ios": "https://dc.lft.to/lastmile_qr_scan", "android": "https://dc.lft.to/lastmile_qr_scan"}, "is_reserved": 0}, {"lon": -77.02981933333334, "bike_id": "73617d481a10dd741d1f3d4612ec8c0e", "lat": 38.907098833333336, "fusion_lon": 0.0, "fusion_lat": 0.0, "type": "electric_scooter", "name": "73617d481a10dd741d1f3d4612ec8c0e", "is_disabled": 0, "rental_uris": {"ios": "https://dc.lft.to/lastmile_qr_scan", "android": "https://dc.lft.to/lastmile_qr_scan"}, "is_reserved": 0}, {"lon": -76.998492, "bike_id": "33248fe92497b509aa6d54fa8d8cdbe7", "lat": 38.89080583333333, "fusion_lon": 0.0, "fusion_lat": 0.0, "type": "electric_scooter", "name": "33248fe92497b509aa6d54fa8d8cdbe7", "is_disabled": 0, "rental_uris": {"ios": "https://dc.lft.to/lastmile_qr_scan", "android": "https://dc.lft.to/lastmile_qr_scan"}, "is_reserved": 0}, {"lon": -77.02441366666666, "bike_id": "d23a968f3b004b68c35e96131b54979c", "lat": 38.87968866666667, "fusion_lon": 0.0, "fusion_lat": 0.0, "type": "electric_scooter", "name": "d23a968f3b004b68c35e96131b54979c", "is_disabled": 0, "rental_uris": {"ios": "https://dc.lft.to/lastmile_qr_scan", "android": "https://dc.lft.to/lastmile_qr_scan"}, "is_reserved": 0}, {"lon": -76.9880045, "bike_id": "283cf14ac81cef2d9e691f7e08d6c4e8", "lat": 38.867273, "fusion_lon": 0.0, "fusion_lat": 0.0, "type": "electric_scooter", "name": "283cf14ac81cef2d9e691f7e08d6c4e8", "is_disabled": 0, "rental_uris": {"ios": "https://dc.lft.to/lastmile_qr_scan", "android": "https://dc.lft.to/lastmile_qr_scan"}, "is_reserved": 0}, {"lon": -77.0308925, "bike_id": "cf422fe1388aae0075e62e6ac4d48a84", "lat": 38.927157666666666, "fusion_lon": 0.0, "fusion_lat": 0.0, "type": "electric_scooter", "name": "cf422fe1388aae0075e62e6ac4d48a84", "is_disabled": 0, "rental_uris": {"ios": "https://dc.lft.to/lastmile_qr_scan", "android": "https://dc.lft.to/lastmile_qr_scan"}, "is_reserved": 0}, {"lon": -77.04863866666666, "bike_id": "e56597b1ced55326e2830e4572bf950a", "lat": 38.892236, "fusion_lon": 0.0, "fusion_lat": 0.0, "type": "electric_scooter", "name": "e56597b1ced55326e2830e4572bf950a", "is_disabled": 0, "rental_uris": {"ios": "https://dc.lft.to/lastmile_qr_scan", "android": "https://dc.lft.to/lastmile_qr_scan"}, "is_reserved": 0}, {"lon": -77.00197316666667, "bike_id": "692a0202d6f7417a37f61b9fe9ce881b", "lat": 38.902379333333336, "fusion_lon": 0.0, "fusion_lat": 0.0, "type": "electric_scooter", "name": "692a0202d6f7417a37f61b9fe9ce881b", "is_disabled": 0, "rental_uris": {"ios": "https://dc.lft.to/lastmile_qr_scan", "android": "https://dc.lft.to/lastmile_qr_scan"}, "is_reserved": 0}, {"lon": -77.03257683333334, "bike_id": "06966bb591eed4e535e26f0c7b0e8807", "lat": 38.90591583333333, "fusion_lon": 0.0, "fusion_lat": 0.0, "type": "electric_scooter", "name": "06966bb591eed4e535e26f0c7b0e8807", "is_disabled": 0, "rental_uris": {"ios": "https://dc.lft.to/lastmile_qr_scan", "android": "https://dc.lft.to/lastmile_qr_scan"}, "is_reserved": 0}, {"lon": -77.032051, "bike_id": "4aa2a0edd4c551ff6399652a3efbce0e", "lat": 38.917280166666664, "fusion_lon": 0.0, "fusion_lat": 0.0, "type": "electric_scooter", "name": "4aa2a0edd4c551ff6399652a3efbce0e", "is_disabled": 0, "rental_uris": {"ios": "https://dc.lft.to/lastmile_qr_scan", "android": "https://dc.lft.to/lastmile_qr_scan"}, "is_reserved": 0}, {"lon": -77.0223555, "bike_id": "9db13312530f8706fbacfcee5d6742fe", "lat": 38.91561633333333, "fusion_lon": 0.0, "fusion_lat": 0.0, "type": "electric_scooter", "name": "9db13312530f8706fbacfcee5d6742fe", "is_disabled": 0, "rental_uris": {"ios": "https://dc.lft.to/lastmile_qr_scan", "android": "https://dc.lft.to/lastmile_qr_scan"}, "is_reserved": 0}, {"lon": -77.079148, "bike_id": "7ffe9998c91d973b1725fa93227b38dc", "lat": 38.930911, "fusion_lon": 0.0, "fusion_lat": 0.0, "type": "electric_scooter", "name": "7ffe9998c91d973b1725fa93227b38dc", "is_disabled": 0, "rental_uris": {"ios": "https://dc.lft.to/lastmile_qr_scan", "android": "https://dc.lft.to/lastmile_qr_scan"}, "is_reserved": 0}, {"lon": -77.03596166666667, "bike_id": "d97cc3033b15ccda42775e627e426c8c", "lat": 38.9393285, "fusion_lon": 0.0, "fusion_lat": 0.0, "type": "electric_scooter", "name": "d97cc3033b15ccda42775e627e426c8c", "is_disabled": 0, "rental_uris": {"ios": "https://dc.lft.to/lastmile_qr_scan", "android": "https://dc.lft.to/lastmile_qr_scan"}, "is_reserved": 0}, {"lon": -77.032793, "bike_id": "b1bb3a1aa1d416cccb0fb9eea16a1d1e", "lat": 38.927548333333334, "fusion_lon": 0.0, "fusion_lat": 0.0, "type": "electric_scooter", "name": "b1bb3a1aa1d416cccb0fb9eea16a1d1e", "is_disabled": 0, "rental_uris": {"ios": "https://dc.lft.to/lastmile_qr_scan", "android": "https://dc.lft.to/lastmile_qr_scan"}, "is_reserved": 0}, {"lon": -77.04103816666667, "bike_id": "08273eb6bd2600a1a58a41d32c15e146", "lat": 38.8985075, "fusion_lon": 0.0, "fusion_lat": 0.0, "type": "electric_scooter", "name": "08273eb6bd2600a1a58a41d32c15e146", "is_disabled": 0, "rental_uris": {"ios": "https://dc.lft.to/lastmile_qr_scan", "android": "https://dc.lft.to/lastmile_qr_scan"}, "is_reserved": 0}, {"lon": -76.997785, "bike_id": "6e0d9eebe04c59befdc21731c58d6cb6", "lat": 38.842998, "fusion_lon": 0.0, "fusion_lat": 0.0, "type": "electric_scooter", "name": "6e0d9eebe04c59befdc21731c58d6cb6", "is_disabled": 0, "rental_uris": {"ios": "https://dc.lft.to/lastmile_qr_scan", "android": "https://dc.lft.to/lastmile_qr_scan"}, "is_reserved": 0}, {"lon": -77.007101, "bike_id": "1c12408ab4764635977a8f3c60896773", "lat": 38.8848625, "fusion_lon": 0.0, "fusion_lat": 0.0, "type": "electric_scooter", "name": "1c12408ab4764635977a8f3c60896773", "is_disabled": 0, "rental_uris": {"ios": "https://dc.lft.to/lastmile_qr_scan", "android": "https://dc.lft.to/lastmile_qr_scan"}, "is_reserved": 0}, {"lon": -76.94121016666666, "bike_id": "afdb0da3c2d8b7faca4d116b326a160a", "lat": 38.90820083333333, "fusion_lon": 0.0, "fusion_lat": 0.0, "type": "electric_scooter", "name": "afdb0da3c2d8b7faca4d116b326a160a", "is_disabled": 0, "rental_uris": {"ios": "https://dc.lft.to/lastmile_qr_scan", "android": "https://dc.lft.to/lastmile_qr_scan"}, "is_reserved": 0}, {"lon": -77.03384616666666, "bike_id": "26cf9b98efa8c6906186875280384512", "lat": 38.9385805, "fusion_lon": 0.0, "fusion_lat": 0.0, "type": "electric_scooter", "name": "26cf9b98efa8c6906186875280384512", "is_disabled": 0, "rental_uris": {"ios": "https://dc.lft.to/lastmile_qr_scan", "android": "https://dc.lft.to/lastmile_qr_scan"}, "is_reserved": 0}, {"lon": -77.02377333333334, "bike_id": "d22d54885edf2a89162743676794b6a8", "lat": 38.90684866666667, "fusion_lon": 0.0, "fusion_lat": 0.0, "type": "electric_scooter", "name": "d22d54885edf2a89162743676794b6a8", "is_disabled": 0, "rental_uris": {"ios": "https://dc.lft.to/lastmile_qr_scan", "android": "https://dc.lft.to/lastmile_qr_scan"}, "is_reserved": 0}, {"lon": -77.0421335, "bike_id": "827bdd8145fbe985197c11342c710921", "lat": 38.8926885, "fusion_lon": 0.0, "fusion_lat": 0.0, "type": "electric_scooter", "name": "827bdd8145fbe985197c11342c710921", "is_disabled": 0, "rental_uris": {"ios": "https://dc.lft.to/lastmile_qr_scan", "android": "https://dc.lft.to/lastmile_qr_scan"}, "is_reserved": 0}, {"lon": -77.002298, "bike_id": "aca2497e11e1561237ddea25786bc00d", "lat": 38.9083455, "fusion_lon": 0.0, "fusion_lat": 0.0, "type": "electric_scooter", "name": "aca2497e11e1561237ddea25786bc00d", "is_disabled": 0, "rental_uris": {"ios": "https://dc.lft.to/lastmile_qr_scan", "android": "https://dc.lft.to/lastmile_qr_scan"}, "is_reserved": 0}, {"lon": -77.03267266666667, "bike_id": "289f7c755be547c46fbdbaa1e163311f", "lat": 38.93443583333333, "fusion_lon": 0.0, "fusion_lat": 0.0, "type": "electric_scooter", "name": "289f7c755be547c46fbdbaa1e163311f", "is_disabled": 0, "rental_uris": {"ios": "https://dc.lft.to/lastmile_qr_scan", "android": "https://dc.lft.to/lastmile_qr_scan"}, "is_reserved": 0}, {"lon": -77.015515, "bike_id": "57c82e701001c68446ea4a4fff76c902", "lat": 38.89222316666667, "fusion_lon": 0.0, "fusion_lat": 0.0, "type": "electric_scooter", "name": "57c82e701001c68446ea4a4fff76c902", "is_disabled": 0, "rental_uris": {"ios": "https://dc.lft.to/lastmile_qr_scan", "android": "https://dc.lft.to/lastmile_qr_scan"}, "is_reserved": 0}, {"lon": -76.948036, "bike_id": "ed9cb1ea124df40f92ba4f1934ded3d4", "lat": 38.861934833333336, "fusion_lon": 0.0, "fusion_lat": 0.0, "type": "electric_bike", "name": "ed9cb1ea124df40f92ba4f1934ded3d4", "is_disabled": 0, "rental_uris": {"ios": "https://dc.lft.to/lastmile_qr_scan", "android": "https://dc.lft.to/lastmile_qr_scan"}, "is_reserved": 0}, {"lon": -77.023838, "bike_id": "3878cc2c9bc800fa471adb3c03bc1e8b", "lat": 38.90047233333333, "fusion_lon": 0.0, "fusion_lat": 0.0, "type": "electric_scooter", "name": "3878cc2c9bc800fa471adb3c03bc1e8b", "is_disabled": 0, "rental_uris": {"ios": "https://dc.lft.to/lastmile_qr_scan", "android": "https://dc.lft.to/lastmile_qr_scan"}, "is_reserved": 0}, {"lon": -76.99517133333333, "bike_id": "dcfdfdfd68b185e99bca39fa14b49226", "lat": 38.89605366666667, "fusion_lon": 0.0, "fusion_lat": 0.0, "type": "electric_scooter", "name": "dcfdfdfd68b185e99bca39fa14b49226", "is_disabled": 0, "rental_uris": {"ios": "https://dc.lft.to/lastmile_qr_scan", "android": "https://dc.lft.to/lastmile_qr_scan"}, "is_reserved": 0}, {"lon": -76.9884305, "bike_id": "48304af833bc6877d62ad1251d849354", "lat": 38.900713833333334, "fusion_lon": 0.0, "fusion_lat": 0.0, "type": "electric_scooter", "name": "48304af833bc6877d62ad1251d849354", "is_disabled": 0, "rental_uris": {"ios": "https://dc.lft.to/lastmile_qr_scan", "android": "https://dc.lft.to/lastmile_qr_scan"}, "is_reserved": 0}, {"lon": -76.94652883333333, "bike_id": "055af6b54ee0f27597fd932b78c56be4", "lat": 38.898247, "fusion_lon": 0.0, "fusion_lat": 0.0, "type": "electric_scooter", "name": "055af6b54ee0f27597fd932b78c56be4", "is_disabled": 0, "rental_uris": {"ios": "https://dc.lft.to/lastmile_qr_scan", "android": "https://dc.lft.to/lastmile_qr_scan"}, "is_reserved": 0}, {"lon": -76.99030583333334, "bike_id": "dcdfc8a6989ac5a7d4dc7e1ec63cc534", "lat": 38.89600083333333, "fusion_lon": 0.0, "fusion_lat": 0.0, "type": "electric_scooter", "name": "dcdfc8a6989ac5a7d4dc7e1ec63cc534", "is_disabled": 0, "rental_uris": {"ios": "https://dc.lft.to/lastmile_qr_scan", "android": "https://dc.lft.to/lastmile_qr_scan"}, "is_reserved": 0}, {"lon": -77.017724, "bike_id": "832c7c0b18f2a33189cc715585c6479d", "lat": 38.9003615, "fusion_lon": 0.0, "fusion_lat": 0.0, "type": "electric_scooter", "name": "832c7c0b18f2a33189cc715585c6479d", "is_disabled": 0, "rental_uris": {"ios": "https://dc.lft.to/lastmile_qr_scan", "android": "https://dc.lft.to/lastmile_qr_scan"}, "is_reserved": 0}, {"lon": -76.98232983333334, "bike_id": "0697b90875cb8e71b96847da776b6f56", "lat": 38.86469833333334, "fusion_lon": 0.0, "fusion_lat": 0.0, "type": "electric_scooter", "name": "0697b90875cb8e71b96847da776b6f56", "is_disabled": 0, "rental_uris": {"ios": "https://dc.lft.to/lastmile_qr_scan", "android": "https://dc.lft.to/lastmile_qr_scan"}, "is_reserved": 0}, {"lon": -77.03261616666667, "bike_id": "5d291c33d5f3d9ca79a9347e226cca39", "lat": 38.9323015, "fusion_lon": 0.0, "fusion_lat": 0.0, "type": "electric_scooter", "name": "5d291c33d5f3d9ca79a9347e226cca39", "is_disabled": 0, "rental_uris": {"ios": "https://dc.lft.to/lastmile_qr_scan", "android": "https://dc.lft.to/lastmile_qr_scan"}, "is_reserved": 0}, {"lon": -77.049037, "bike_id": "1871a8228be438a5ec9424df3b7c712f", "lat": 38.915989, "fusion_lon": 0.0, "fusion_lat": 0.0, "type": "electric_scooter", "name": "1871a8228be438a5ec9424df3b7c712f", "is_disabled": 0, "rental_uris": {"ios": "https://dc.lft.to/lastmile_qr_scan", "android": "https://dc.lft.to/lastmile_qr_scan"}, "is_reserved": 0}, {"lon": -77.02580033333334, "bike_id": "32dae0acb543e1cab8eb0fca9bd633c5", "lat": 38.91402583333333, "fusion_lon": 0.0, "fusion_lat": 0.0, "type": "electric_scooter", "name": "32dae0acb543e1cab8eb0fca9bd633c5", "is_disabled": 0, "rental_uris": {"ios": "https://dc.lft.to/lastmile_qr_scan", "android": "https://dc.lft.to/lastmile_qr_scan"}, "is_reserved": 0}, {"lon": -77.0531345, "bike_id": "8c90aef6ca400a498c88ab70681015e1", "lat": 38.900745666666666, "fusion_lon": 0.0, "fusion_lat": 0.0, "type": "electric_scooter", "name": "8c90aef6ca400a498c88ab70681015e1", "is_disabled": 0, "rental_uris": {"ios": "https://dc.lft.to/lastmile_qr_scan", "android": "https://dc.lft.to/lastmile_qr_scan"}, "is_reserved": 0}, {"lon": -77.13925516666667, "bike_id": "e8fa3627da2bb5109c461a366ec8b70f", "lat": 38.87296416666667, "fusion_lon": 0.0, "fusion_lat": 0.0, "type": "electric_bike", "name": "e8fa3627da2bb5109c461a366ec8b70f", "is_disabled": 0, "rental_uris": {"ios": "https://dc.lft.to/lastmile_qr_scan", "android": "https://dc.lft.to/lastmile_qr_scan"}, "is_reserved": 0}, {"lon": -77.03430066666667, "bike_id": "85d3671d71f2074ea739102de889b579", "lat": 38.96533616666667, "fusion_lon": 0.0, "fusion_lat": 0.0, "type": "electric_bike", "name": "85d3671d71f2074ea739102de889b579", "is_disabled": 0, "rental_uris": {"ios": "https://dc.lft.to/lastmile_qr_scan", "android": "https://dc.lft.to/lastmile_qr_scan"}, "is_reserved": 0}, {"lon": -77.04704733333334, "bike_id": "ab2b6da19f7e0cc5ca107018b04ad9ff", "lat": 38.922243, "fusion_lon": 0.0, "fusion_lat": 0.0, "type": "electric_scooter", "name": "ab2b6da19f7e0cc5ca107018b04ad9ff", "is_disabled": 0, "rental_uris": {"ios": "https://dc.lft.to/lastmile_qr_scan", "android": "https://dc.lft.to/lastmile_qr_scan"}, "is_reserved": 0}, {"lon": -76.99535483333334, "bike_id": "fe67175024eb0f8f364ea17c73fb7538", "lat": 38.862048333333334, "fusion_lon": 0.0, "fusion_lat": 0.0, "type": "electric_scooter", "name": "fe67175024eb0f8f364ea17c73fb7538", "is_disabled": 0, "rental_uris": {"ios": "https://dc.lft.to/lastmile_qr_scan", "android": "https://dc.lft.to/lastmile_qr_scan"}, "is_reserved": 0}, {"lon": -77.05576016666667, "bike_id": "7743617273da6e99f11b0295387649d1", "lat": 38.89730016666667, "fusion_lon": 0.0, "fusion_lat": 0.0, "type": "electric_scooter", "name": "7743617273da6e99f11b0295387649d1", "is_disabled": 0, "rental_uris": {"ios": "https://dc.lft.to/lastmile_qr_scan", "android": "https://dc.lft.to/lastmile_qr_scan"}, "is_reserved": 0}, {"lon": -77.02283466666667, "bike_id": "e15c011e3786bd450bc34e753bdd58f0", "lat": 38.91653766666667, "fusion_lon": 0.0, "fusion_lat": 0.0, "type": "electric_scooter", "name": "e15c011e3786bd450bc34e753bdd58f0", "is_disabled": 0, "rental_uris": {"ios": "https://dc.lft.to/lastmile_qr_scan", "android": "https://dc.lft.to/lastmile_qr_scan"}, "is_reserved": 0}, {"lon": -77.07452233333333, "bike_id": "b1592bf28b5c78a6aae21772811afa9d", "lat": 38.9451035, "fusion_lon": 0.0, "fusion_lat": 0.0, "type": "electric_scooter", "name": "b1592bf28b5c78a6aae21772811afa9d", "is_disabled": 0, "rental_uris": {"ios": "https://dc.lft.to/lastmile_qr_scan", "android": "https://dc.lft.to/lastmile_qr_scan"}, "is_reserved": 0}, {"lon": -76.97624983333333, "bike_id": "cfec1f5d6a930a620683d483fc9fcd86", "lat": 38.90571216666667, "fusion_lon": 0.0, "fusion_lat": 0.0, "type": "electric_scooter", "name": "cfec1f5d6a930a620683d483fc9fcd86", "is_disabled": 0, "rental_uris": {"ios": "https://dc.lft.to/lastmile_qr_scan", "android": "https://dc.lft.to/lastmile_qr_scan"}, "is_reserved": 0}, {"lon": -76.99858483333334, "bike_id": "2ab920e6058696cfab1093220b614478", "lat": 38.900268, "fusion_lon": 0.0, "fusion_lat": 0.0, "type": "electric_scooter", "name": "2ab920e6058696cfab1093220b614478", "is_disabled": 0, "rental_uris": {"ios": "https://dc.lft.to/lastmile_qr_scan", "android": "https://dc.lft.to/lastmile_qr_scan"}, "is_reserved": 0}, {"lon": -77.03358166666666, "bike_id": "9d36a2ed543cbc253f5f60e142e091fe", "lat": 38.886971333333335, "fusion_lon": 0.0, "fusion_lat": 0.0, "type": "electric_scooter", "name": "9d36a2ed543cbc253f5f60e142e091fe", "is_disabled": 0, "rental_uris": {"ios": "https://dc.lft.to/lastmile_qr_scan", "android": "https://dc.lft.to/lastmile_qr_scan"}, "is_reserved": 0}, {"lon": -77.05913316666667, "bike_id": "829b161a18d2851313740e427c22e64f", "lat": 38.903547333333336, "fusion_lon": 0.0, "fusion_lat": 0.0, "type": "electric_scooter", "name": "829b161a18d2851313740e427c22e64f", "is_disabled": 0, "rental_uris": {"ios": "https://dc.lft.to/lastmile_qr_scan", "android": "https://dc.lft.to/lastmile_qr_scan"}, "is_reserved": 0}, {"lon": -77.04481383333334, "bike_id": "c6740680b34ca0b647919e481f602500", "lat": 38.892589, "fusion_lon": 0.0, "fusion_lat": 0.0, "type": "electric_scooter", "name": "c6740680b34ca0b647919e481f602500", "is_disabled": 0, "rental_uris": {"ios": "https://dc.lft.to/lastmile_qr_scan", "android": "https://dc.lft.to/lastmile_qr_scan"}, "is_reserved": 0}, {"lon": -77.0756395, "bike_id": "50d9241426f27b715b905021035180aa", "lat": 38.89482666666667, "fusion_lon": 0.0, "fusion_lat": 0.0, "type": "electric_scooter", "name": "50d9241426f27b715b905021035180aa", "is_disabled": 0, "rental_uris": {"ios": "https://dc.lft.to/lastmile_qr_scan", "android": "https://dc.lft.to/lastmile_qr_scan"}, "is_reserved": 0}, {"lon": -77.02570316666667, "bike_id": "ab92506824682ea7bd2597349ad5aaad", "lat": 38.924565666666666, "fusion_lon": 0.0, "fusion_lat": 0.0, "type": "electric_scooter", "name": "ab92506824682ea7bd2597349ad5aaad", "is_disabled": 0, "rental_uris": {"ios": "https://dc.lft.to/lastmile_qr_scan", "android": "https://dc.lft.to/lastmile_qr_scan"}, "is_reserved": 0}, {"lon": -77.03621166666667, "bike_id": "dd44f584da51ae29bf5c583e799ec8be", "lat": 38.931591833333336, "fusion_lon": 0.0, "fusion_lat": 0.0, "type": "electric_scooter", "name": "dd44f584da51ae29bf5c583e799ec8be", "is_disabled": 0, "rental_uris": {"ios": "https://dc.lft.to/lastmile_qr_scan", "android": "https://dc.lft.to/lastmile_qr_scan"}, "is_reserved": 0}, {"lon": -77.125268, "bike_id": "e05bfe80b9079100e44271dd6bba9066", "lat": 39.05634116666667, "fusion_lon": 0.0, "fusion_lat": 0.0, "type": "electric_bike", "name": "e05bfe80b9079100e44271dd6bba9066", "is_disabled": 0, "rental_uris": {"ios": "https://dc.lft.to/lastmile_qr_scan", "android": "https://dc.lft.to/lastmile_qr_scan"}, "is_reserved": 0}, {"lon": -77.00152516666667, "bike_id": "36f77d44bc8495bbdc5d0e377d2350ef", "lat": 38.874806166666666, "fusion_lon": 0.0, "fusion_lat": 0.0, "type": "electric_scooter", "name": "36f77d44bc8495bbdc5d0e377d2350ef", "is_disabled": 0, "rental_uris": {"ios": "https://dc.lft.to/lastmile_qr_scan", "android": "https://dc.lft.to/lastmile_qr_scan"}, "is_reserved": 0}, {"lon": -77.02390216666667, "bike_id": "ce47531ab17e59b065743e22f11a1f05", "lat": 38.91520116666667, "fusion_lon": 0.0, "fusion_lat": 0.0, "type": "electric_scooter", "name": "ce47531ab17e59b065743e22f11a1f05", "is_disabled": 0, "rental_uris": {"ios": "https://dc.lft.to/lastmile_qr_scan", "android": "https://dc.lft.to/lastmile_qr_scan"}, "is_reserved": 0}, {"lon": -76.98364883333333, "bike_id": "8cd354b04c27098b6b7d3856f875f4d6", "lat": 38.908854833333336, "fusion_lon": 0.0, "fusion_lat": 0.0, "type": "electric_scooter", "name": "8cd354b04c27098b6b7d3856f875f4d6", "is_disabled": 0, "rental_uris": {"ios": "https://dc.lft.to/lastmile_qr_scan", "android": "https://dc.lft.to/lastmile_qr_scan"}, "is_reserved": 0}, {"lon": -76.980147, "bike_id": "ee27f53001a78eee68bb56590be0e5f0", "lat": 38.90283, "fusion_lon": 0.0, "fusion_lat": 0.0, "type": "electric_scooter", "name": "ee27f53001a78eee68bb56590be0e5f0", "is_disabled": 0, "rental_uris": {"ios": "https://dc.lft.to/lastmile_qr_scan", "android": "https://dc.lft.to/lastmile_qr_scan"}, "is_reserved": 0}, {"lon": -77.001988, "bike_id": "06336e7395ecb9356b5fa9817c957870", "lat": 38.9158875, "fusion_lon": 0.0, "fusion_lat": 0.0, "type": "electric_scooter", "name": "06336e7395ecb9356b5fa9817c957870", "is_disabled": 0, "rental_uris": {"ios": "https://dc.lft.to/lastmile_qr_scan", "android": "https://dc.lft.to/lastmile_qr_scan"}, "is_reserved": 0}, {"lon": -77.021755, "bike_id": "6d3e8173d7bab1894421869bae5b3919", "lat": 38.91986333333333, "fusion_lon": 0.0, "fusion_lat": 0.0, "type": "electric_scooter", "name": "6d3e8173d7bab1894421869bae5b3919", "is_disabled": 0, "rental_uris": {"ios": "https://dc.lft.to/lastmile_qr_scan", "android": "https://dc.lft.to/lastmile_qr_scan"}, "is_reserved": 0}, {"lon": -77.0289995, "bike_id": "3fa07f87b7740e654fd22acee6547170", "lat": 38.92815066666667, "fusion_lon": 0.0, "fusion_lat": 0.0, "type": "electric_scooter", "name": "3fa07f87b7740e654fd22acee6547170", "is_disabled": 0, "rental_uris": {"ios": "https://dc.lft.to/lastmile_qr_scan", "android": "https://dc.lft.to/lastmile_qr_scan"}, "is_reserved": 0}, {"lon": -77.02042633333333, "bike_id": "413b22d5a6a1c38990d9078c90068d7c", "lat": 38.932890666666665, "fusion_lon": 0.0, "fusion_lat": 0.0, "type": "electric_scooter", "name": "413b22d5a6a1c38990d9078c90068d7c", "is_disabled": 0, "rental_uris": {"ios": "https://dc.lft.to/lastmile_qr_scan", "android": "https://dc.lft.to/lastmile_qr_scan"}, "is_reserved": 0}, {"lon": -76.99877416666666, "bike_id": "9207054e5d53a01eee0378f1f637f8ee", "lat": 38.9012845, "fusion_lon": 0.0, "fusion_lat": 0.0, "type": "electric_scooter", "name": "9207054e5d53a01eee0378f1f637f8ee", "is_disabled": 0, "rental_uris": {"ios": "https://dc.lft.to/lastmile_qr_scan", "android": "https://dc.lft.to/lastmile_qr_scan"}, "is_reserved": 0}, {"lon": -77.03476316666666, "bike_id": "198888380623d5d56dd06fa4551b349a", "lat": 38.935354833333335, "fusion_lon": 0.0, "fusion_lat": 0.0, "type": "electric_scooter", "name": "198888380623d5d56dd06fa4551b349a", "is_disabled": 0, "rental_uris": {"ios": "https://dc.lft.to/lastmile_qr_scan", "android": "https://dc.lft.to/lastmile_qr_scan"}, "is_reserved": 0},