{"data": {"bikes": [{"bike_id": "5dac7c396c78aa1a5c915881f7e917f5", "type": "electric_scooter", "is_disabled": 0, "lat": 38.891952833333335, "rental_uris": {"ios": "https://dc.lft.to/lastmile_qr_scan", "android": "https://dc.lft.to/lastmile_qr_scan"}, "is_reserved": 0, "fusion_lon": 0.0, "fusion_lat": 0.0, "lon": -77.00233666666666, "name": "5dac7c396c78aa1a5c915881f7e917f5"}, {"bike_id": "ac8861ec6bfb78dfc3ddfff37b3a402f", "type": "electric_scooter", "is_disabled": 0, "lat": 38.89723, "rental_uris": {"ios": "https://dc.lft.to/lastmile_qr_scan", "android": "https://dc.lft.to/lastmile_qr_scan"}, "is_reserved": 0, "fusion_lon": 0.0, "fusion_lat": 0.0, "lon": -77.03328616666667, "name": "ac8861ec6bfb78dfc3ddfff37b3a402f"}, {"bike_id": "c5c2b21a3ea38c0b76159f3013f56a1d", "type": "electric_scooter", "is_disabled": 0, "lat": 38.88149033333333, "rental_uris": {"ios": "https://dc.lft.to/lastmile_qr_scan", "android": "https://dc.lft.to/lastmile_qr_scan"}, "is_reserved": 0, "fusion_lon": 0.0, "fusion_lat": 0.0, "lon": -77.01650066666667, "name": "c5c2b21a3ea38c0b76159f3013f56a1d"}, {"bike_id": "449b3696310cd3ba56f5905d17221d20", "type": "electric_scooter", "is_disabled": 0, "lat": 38.87079283333333, "rental_uris": {"ios": "https://dc.lft.to/lastmile_qr_scan", "android": "https://dc.lft.to/lastmile_qr_scan"}, "is_reserved": 0, "fusion_lon": 0.0, "fusion_lat": 0.0, "lon": -76.98914833333333, "name": "449b3696310cd3ba56f5905d17221d20"}, {"bike_id": "aa1ea2cff75dfd4b4f1f286dfc04d66e", "type": "electric_scooter", "is_disabled": 0, "lat": 38.9209055, "rental_uris": {"ios": "https://dc.lft.to/lastmile_qr_scan", "android": "https://dc.lft.to/lastmile_qr_scan"}, "is_reserved": 0, "fusion_lon": 0.0, "fusion_lat": 0.0, "lon": -77.02535416666667, "name": "aa1ea2cff75dfd4b4f1f286dfc04d66e"}, {"bike_id": "62c0cd1205121214ae68b9e0f39ff31c", "type": "electric_scooter", "is_disabled": 0, "lat": 38.90679816666667, "rental_uris": {"ios": "https://dc.lft.to/lastmile_qr_scan", "android": "https://dc.lft.to/lastmile_qr_scan"}, "is_reserved": 0, "fusion_lon": 0.0, "fusion_lat": 0.0, "lon": -77.07158166666666, "name": "62c0cd1205121214ae68b9e0f39ff31c"}, {"bike_id": "d139bdff38cf948679934a7db3cf7135", "type": "electric_scooter", "is_disabled": 0, "lat": 38.90043566666667, "rental_uris": {"ios": "https://dc.lft.to/lastmile_qr_scan", "android": "https://dc.lft.to/lastmile_qr_scan"}, "is_reserved": 0, "fusion_lon": 0.0, "fusion_lat": 0.0, "lon": -77.00099816666666, "name": "d139bdff38cf948679934a7db3cf7135"}, {"bike_id": "defd5e84f228eff7704933014504e48d", "type": "electric_scooter", "is_disabled": 0, "lat": 38.932384, "rental_uris": {"ios": "https://dc.lft.to/lastmile_qr_scan", "android": "https://dc.lft.to/lastmile_qr_scan"}, "is_reserved": 0, "fusion_lon": 0.0, "fusion_lat": 0.0, "lon": -77.03385316666666, "name": "defd5e84f228eff7704933014504e48d"}, {"bike_id": "b18e369da13b85df51318adabec08c45", "type": "electric_scooter", "is_disabled": 0, "lat": 38.93454166666667, "rental_uris": {"ios": "https://dc.lft.to/lastmile_qr_scan", "android": "https://dc.lft.to/lastmile_qr_scan"}, "is_reserved": 0, "fusion_lon": 0.0, "fusion_lat": 0.0, "lon": -77.03049433333334, "name": "b18e369da13b85df51318adabec08c45"}, {"bike_id": "54a6a169cb7b6c675b81ffb6c75a2fa3", "type": "electric_scooter", "is_disabled": 0, "lat": 38.90805233333333, "rental_uris": {"ios": "https://dc.lft.to/lastmile_qr_scan", "android": "https://dc.lft.to/lastmile_qr_scan"}, "is_reserved": 0, "fusion_lon": 0.0, "fusion_lat": 0.0, "lon": -77.03452633333333, "name": "54a6a169cb7b6c675b81ffb6c75a2fa3"}, {"bike_id": "79b471276cb7f4e75a29be19a4c85066", "type": "electric_scooter", "is_disabled": 0, "lat": 38.910440333333334, "rental_uris": {"ios": "https://dc.lft.to/lastmile_qr_scan", "android": "https://dc.lft.to/lastmile_qr_scan"}, "is_reserved": 0, "fusion_lon": 0.0, "fusion_lat": 0.0, "lon": -77.03828416666667, "name": "79b471276cb7f4e75a29be19a4c85066"}, {"bike_id": "6737a0cdb1b3e1d53f3866308b510260", "type": "electric_scooter", "is_disabled": 0, "lat": 38.920613333333336, "rental_uris": {"ios": "https://dc.lft.to/lastmile_qr_scan", "android": "https://dc.lft.to/lastmile_qr_scan"}, "is_reserved": 0, "fusion_lon": 0.0, "fusion_lat": 0.0, "lon": -77.034665, "name": "6737a0cdb1b3e1d53f3866308b510260"}, {"bike_id": "cac51e626dbfd7b00da0219e0f897b33", "type": "electric_scooter", "is_disabled": 0, "lat": 38.896694333333336, "rental_uris": {"ios": "https://dc.lft.to/lastmile_qr_scan", "android": "https://dc.lft.to/lastmile_qr_scan"}, "is_reserved": 0, "fusion_lon": 0.0, "fusion_lat": 0.0, "lon": -76.98815783333333, "name": "cac51e626dbfd7b00da0219e0f897b33"}, {"bike_id": "c929a69c3a195e15ec5dd7ddf83159fc", "type": "electric_scooter", "is_disabled": 0, "lat": 38.93537366666666, "rental_uris": {"ios": "https://dc.lft.to/lastmile_qr_scan", "android": "https://dc.lft.to/lastmile_qr_scan"}, "is_reserved": 0, "fusion_lon": 0.0, "fusion_lat": 0.0, "lon": -77.0235095, "name": "c929a69c3a195e15ec5dd7ddf83159fc"}, {"bike_id": "3a6a7a1b4b08b318942070a0072baf41", "type": "electric_scooter", "is_disabled": 0, "lat": 38.9030535, "rental_uris": {"ios": "https://dc.lft.to/lastmile_qr_scan", "android": "https://dc.lft.to/lastmile_qr_scan"}, "is_reserved": 0, "fusion_lon": 0.0, "fusion_lat": 0.0, "lon": -76.98351666666667, "name": "3a6a7a1b4b08b318942070a0072baf41"}, {"bike_id": "ce282be92c88e47c2c26c15ba010161c", "type": "electric_scooter", "is_disabled": 0, "lat": 38.920643, "rental_uris": {"ios": "https://dc.lft.to/lastmile_qr_scan", "android": "https://dc.lft.to/lastmile_qr_scan"}, "is_reserved": 0, "fusion_lon": 0.0, "fusion_lat": 0.0, "lon": -77.02369533333334, "name": "ce282be92c88e47c2c26c15ba010161c"}, {"bike_id": "4270963a29848a7943f488f21f3eef19", "type": "electric_scooter", "is_disabled": 0, "lat": 38.89858566666667, "rental_uris": {"ios": "https://dc.lft.to/lastmile_qr_scan", "android": "https://dc.lft.to/lastmile_qr_scan"}, "is_reserved": 0, "fusion_lon": 0.0, "fusion_lat": 0.0, "lon": -77.04865766666667, "name": "4270963a29848a7943f488f21f3eef19"}, {"bike_id": "2d6bd622c80c4b89ace61a69ed069d6c", "type": "electric_scooter", "is_disabled": 0, "lat": 38.913630166666664, "rental_uris": {"ios": "https://dc.lft.to/lastmile_qr_scan", "android": "https://dc.lft.to/lastmile_qr_scan"}, "is_reserved": 0, "fusion_lon": 0.0, "fusion_lat": 0.0, "lon": -77.0447425, "name": "2d6bd622c80c4b89ace61a69ed069d6c"}, {"bike_id": "cc77c28cd6240088784b2db7929ccd8e", "type": "electric_scooter", "is_disabled": 0, "lat": 38.91283283333333, "rental_uris": {"ios": "https://dc.lft.to/lastmile_qr_scan", "android": "https://dc.lft.to/lastmile_qr_scan"}, "is_reserved": 0, "fusion_lon": 0.0, "fusion_lat": 0.0, "lon": -77.02717133333333, "name": "cc77c28cd6240088784b2db7929ccd8e"}, {"bike_id": "5b749d9e218d2961469cdb58578e045b", "type": "electric_scooter", "is_disabled": 0, "lat": 38.912669, "rental_uris": {"ios": "https://dc.lft.to/lastmile_qr_scan", "android": "https://dc.lft.to/lastmile_qr_scan"}, "is_reserved": 0, "fusion_lon": 0.0, "fusion_lat": 0.0, "lon": -77.01246783333333, "name": "5b749d9e218d2961469cdb58578e045b"}, {"bike_id": "61822b289ec35cca91d83b32901a655f", "type": "electric_scooter", "is_disabled": 0, "lat": 38.942908333333335, "rental_uris": {"ios": "https://dc.lft.to/lastmile_qr_scan", "android": "https://dc.lft.to/lastmile_qr_scan"}, "is_reserved": 0, "fusion_lon": 0.0, "fusion_lat": 0.0, "lon": -77.02173133333334, "name": "61822b289ec35cca91d83b32901a655f"}, {"bike_id": "0a7fcb1e522bf9fff8970dd14420eca7", "type": "electric_scooter", "is_disabled": 0, "lat": 38.90672966666666, "rental_uris": {"ios": "https://dc.lft.to/lastmile_qr_scan", "android": "https://dc.lft.to/lastmile_qr_scan"}, "is_reserved": 0, "fusion_lon": 0.0, "fusion_lat": 0.0, "lon": -77.02719683333333, "name": "0a7fcb1e522bf9fff8970dd14420eca7"}, {"bike_id": "7032779f643f3588a5214a33ddd7d675", "type": "electric_scooter", "is_disabled": 0, "lat": 38.90557116666667, "rental_uris": {"ios": "https://dc.lft.to/lastmile_qr_scan", "android": "https://dc.lft.to/lastmile_qr_scan"}, "is_reserved": 0, "fusion_lon": 0.0, "fusion_lat": 0.0, "lon": -77.04345966666666, "name": "7032779f643f3588a5214a33ddd7d675"}, {"bike_id": "cbb9b201b203958df342cbf2dd831944", "type": "electric_scooter", "is_disabled": 0, "lat": 38.909735166666664, "rental_uris": {"ios": "https://dc.lft.to/lastmile_qr_scan", "android": "https://dc.lft.to/lastmile_qr_scan"}, "is_reserved": 0, "fusion_lon": 0.0, "fusion_lat": 0.0, "lon": -77.031899, "name": "cbb9b201b203958df342cbf2dd831944"}, {"bike_id": "762c210ff3bd544484e161e839af7056", "type": "electric_scooter", "is_disabled": 0, "lat": 38.8784685, "rental_uris": {"ios": "https://dc.lft.to/lastmile_qr_scan", "android": "https://dc.lft.to/lastmile_qr_scan"}, "is_reserved": 0, "fusion_lon": 0.0, "fusion_lat": 0.0, "lon": -77.01965716666666, "name": "762c210ff3bd544484e161e839af7056"}, {"bike_id": "d66f670c40916ad3d9d4fa010f8e1cc1", "type": "electric_scooter", "is_disabled": 0, "lat": 38.923886333333336, "rental_uris": {"ios": "https://dc.lft.to/lastmile_qr_scan", "android": "https://dc.lft.to/lastmile_qr_scan"}, "is_reserved": 0, "fusion_lon": 0.0, "fusion_lat": 0.0, "lon": -77.03662916666667, "name": "d66f670c40916ad3d9d4fa010f8e1cc1"}, {"bike_id": "72d533faac2110269b3edddc2e464ac9", "type": "electric_scooter", "is_disabled": 0, "lat": 38.92844733333333, "rental_uris": {"ios": "https://dc.lft.to/lastmile_qr_scan", "android": "https://dc.lft.to/lastmile_qr_scan"}, "is_reserved": 0, "fusion_lon": 0.0, "fusion_lat": 0.0, "lon": -77.03276616666666, "name": "72d533faac2110269b3edddc2e464ac9"}, {"bike_id": "1ad0fe56e0603964ec8292e1a859ffe1", "type": "electric_scooter", "is_disabled": 0, "lat": 38.927530833333336, "rental_uris": {"ios": "https://dc.lft.to/lastmile_qr_scan", "android": "https://dc.lft.to/lastmile_qr_scan"}, "is_reserved": 0, "fusion_lon": 0.0, "fusion_lat": 0.0, "lon": -77.02531916666666, "name": "1ad0fe56e0603964ec8292e1a859ffe1"}, {"bike_id": "8ea7fdff9ed28d4901c25a308b5989ea", "type": "electric_scooter", "is_disabled": 0, "lat": 38.9227585, "rental_uris": {"ios": "https://dc.lft.to/lastmile_qr_scan", "android": "https://dc.lft.to/lastmile_qr_scan"}, "is_reserved": 0, "fusion_lon": 0.0, "fusion_lat": 0.0, "lon": -76.99451, "name": "8ea7fdff9ed28d4901c25a308b5989ea"}, {"bike_id": "f4845188bfb9331446d608abe6b4127f", "type": "electric_scooter", "is_disabled": 0, "lat": 38.921550333333336, "rental_uris": {"ios": "https://dc.lft.to/lastmile_qr_scan", "android": "https://dc.lft.to/lastmile_qr_scan"}, "is_reserved": 0, "fusion_lon": 0.0, "fusion_lat": 0.0, "lon": -77.0353365, "name": "f4845188bfb9331446d608abe6b4127f"}, {"bike_id": "58088740a5867ea986497d895e15e6ad", "type": "electric_scooter", "is_disabled": 0, "lat": 38.905651666666664, "rental_uris": {"ios": "https://dc.lft.to/lastmile_qr_scan", "android": "https://dc.lft.to/lastmile_qr_scan"}, "is_reserved": 0, "fusion_lon": 0.0, "fusion_lat": 0.0, "lon": -77.04345316666667, "name": "58088740a5867ea986497d895e15e6ad"}, {"bike_id": "f5b5c9efd858d750dcae99751c045a69", "type": "electric_bike", "is_disabled": 0, "lat": 38.853523333333335, "rental_uris": {"ios": "https://dc.lft.to/lastmile_qr_scan", "android": "https://dc.lft.to/lastmile_qr_scan"}, "is_reserved": 0, "fusion_lon": 0.0, "fusion_lat": 0.0, "lon": -77.13468033333334, "name": "f5b5c9efd858d750dcae99751c045a69"}, {"bike_id": "24a76d9a93b57ec447c8e648ab4b126d", "type": "electric_scooter", "is_disabled": 0, "lat": 38.90573533333333, "rental_uris": {"ios": "https://dc.lft.to/lastmile_qr_scan", "android": "https://dc.lft.to/lastmile_qr_scan"}, "is_reserved": 0, "fusion_lon": 0.0, "fusion_lat": 0.0, "lon": -77.03452783333333, "name": "24a76d9a93b57ec447c8e648ab4b126d"}, {"bike_id": "7f256ad56865d2c776b3f931eaa95179", "type": "electric_scooter", "is_disabled": 0, "lat": 38.8783935, "rental_uris": {"ios": "https://dc.lft.to/lastmile_qr_scan", "android": "https://dc.lft.to/lastmile_qr_scan"}, "is_reserved": 0, "fusion_lon": 0.0, "fusion_lat": 0.0, "lon": -77.00575583333334, "name": "7f256ad56865d2c776b3f931eaa95179"}, {"bike_id": "4b13363617d7fd7cd6a9de56a646ba51", "type": "electric_scooter", "is_disabled": 0, "lat": 38.87656833333333, "rental_uris": {"ios": "https://dc.lft.to/lastmile_qr_scan", "android": "https://dc.lft.to/lastmile_qr_scan"}, "is_reserved": 0, "fusion_lon": 0.0, "fusion_lat": 0.0, "lon": -77.00414, "name": "4b13363617d7fd7cd6a9de56a646ba51"}, {"bike_id": "ed1fd127b1e6b1705fa2029e8ff2986f", "type": "electric_scooter", "is_disabled": 0, "lat": 38.89088616666667, "rental_uris": {"ios": "https://dc.lft.to/lastmile_qr_scan", "android": "https://dc.lft.to/lastmile_qr_scan"}, "is_reserved": 0, "fusion_lon": 0.0, "fusion_lat": 0.0, "lon": -77.00260866666666, "name": "ed1fd127b1e6b1705fa2029e8ff2986f"}, {"bike_id": "06656f5227b3ae7d243076bfceb4feee", "type": "electric_scooter", "is_disabled": 0, "lat": 38.942116166666665, "rental_uris": {"ios": "https://dc.lft.to/lastmile_qr_scan", "android": "https://dc.lft.to/lastmile_qr_scan"}, "is_reserved": 0, "fusion_lon": 0.0, "fusion_lat": 0.0, "lon": -77.02583066666666, "name": "06656f5227b3ae7d243076bfceb4feee"}, {"bike_id": "243d8013d44b877b4227742645a39304", "type": "electric_scooter", "is_disabled": 0, "lat": 38.90577066666667, "rental_uris": {"ios": "https://dc.lft.to/lastmile_qr_scan", "android": "https://dc.lft.to/lastmile_qr_scan"}, "is_reserved": 0, "fusion_lon": 0.0, "fusion_lat": 0.0, "lon": -77.02598933333333, "name": "243d8013d44b877b4227742645a39304"}, {"bike_id": "0216f3cd2a544e19357b067e020b058a", "type": "electric_scooter", "is_disabled": 0, "lat": 38.919413, "rental_uris": {"ios": "https://dc.lft.to/lastmile_qr_scan", "android": "https://dc.lft.to/lastmile_qr_scan"}, "is_reserved": 0, "fusion_lon": 0.0, "fusion_lat": 0.0, "lon": -77.03120583333333, "name": "0216f3cd2a544e19357b067e020b058a"}, {"bike_id": "12b59236635988b5e1c4e4b896497ad8", "type": "electric_scooter", "is_disabled": 0, "lat": 38.91286083333333, "rental_uris": {"ios": "https://dc.lft.to/lastmile_qr_scan", "android": "https://dc.lft.to/lastmile_qr_scan"}, "is_reserved": 0, "fusion_lon": 0.0, "fusion_lat": 0.0, "lon": -77.02244683333333, "name": "12b59236635988b5e1c4e4b896497ad8"}, {"bike_id": "33bd08610b648805474fe446f7b2980d", "type": "electric_scooter", "is_disabled": 0, "lat": 38.915629, "rental_uris": {"ios": "https://dc.lft.to/lastmile_qr_scan", "android": "https://dc.lft.to/lastmile_qr_scan"}, "is_reserved": 0, "fusion_lon": 0.0, "fusion_lat": 0.0, "lon": -77.03872383333334, "name": "33bd08610b648805474fe446f7b2980d"}, {"bike_id": "edfcecf27df7a33930fab07870e2ae4b", "type": "electric_scooter", "is_disabled": 0, "lat": 38.90373116666667, "rental_uris": {"ios": "https://dc.lft.to/lastmile_qr_scan", "android": "https://dc.lft.to/lastmile_qr_scan"}, "is_reserved": 0, "fusion_lon": 0.0, "fusion_lat": 0.0, "lon": -77.03979533333333, "name": "edfcecf27df7a33930fab07870e2ae4b"}, {"bike_id": "0b344dc6ee637924926655ce9f41e143", "type": "electric_scooter", "is_disabled": 0, "lat": 38.92158416666667, "rental_uris": {"ios": "https://dc.lft.to/lastmile_qr_scan", "android": "https://dc.lft.to/lastmile_qr_scan"}, "is_reserved": 0, "fusion_lon": 0.0, "fusion_lat": 0.0, "lon": -77.03441266666667, "name": "0b344dc6ee637924926655ce9f41e143"}, {"bike_id": "d54022db116346fb97591e459701eca7", "type": "electric_scooter", "is_disabled": 0, "lat": 38.926112, "rental_uris": {"ios": "https://dc.lft.to/lastmile_qr_scan", "android": "https://dc.lft.to/lastmile_qr_scan"}, "is_reserved": 0, "fusion_lon": 0.0, "fusion_lat": 0.0, "lon": -77.02660916666666, "name": "d54022db116346fb97591e459701eca7"}, {"bike_id": "f2dd8eed3f35b67d7da8a0a5e6a74734", "type": "electric_scooter", "is_disabled": 0, "lat": 38.9051925, "rental_uris": {"ios": "https://dc.lft.to/lastmile_qr_scan", "android": "https://dc.lft.to/lastmile_qr_scan"}, "is_reserved": 0, "fusion_lon": 0.0, "fusion_lat": 0.0, "lon": -77.06878383333333, "name": "f2dd8eed3f35b67d7da8a0a5e6a74734"}, {"bike_id": "f0f238e6a41adf3d12c2e8c5d813feb2", "type": "electric_scooter", "is_disabled": 0, "lat": 38.87098016666667, "rental_uris": {"ios": "https://dc.lft.to/lastmile_qr_scan", "android": "https://dc.lft.to/lastmile_qr_scan"}, "is_reserved": 0, "fusion_lon": 0.0, "fusion_lat": 0.0, "lon": -77.0080615, "name": "f0f238e6a41adf3d12c2e8c5d813feb2"}, {"bike_id": "f864162d41e2c27677e8dbabd7709c78", "type": "electric_scooter", "is_disabled": 0, "lat": 38.90040416666667, "rental_uris": {"ios": "https://dc.lft.to/lastmile_qr_scan", "android": "https://dc.lft.to/lastmile_qr_scan"}, "is_reserved": 0, "fusion_lon": 0.0, "fusion_lat": 0.0, "lon": -77.00705233333333, "name": "f864162d41e2c27677e8dbabd7709c78"}, {"bike_id": "2b706da92cc927a50e624a64b95dfb56", "type": "electric_scooter", "is_disabled": 0, "lat": 38.906023, "rental_uris": {"ios": "https://dc.lft.to/lastmile_qr_scan", "android": "https://dc.lft.to/lastmile_qr_scan"}, "is_reserved": 0, "fusion_lon": 0.0, "fusion_lat": 0.0, "lon": -77.06296466666667, "name": "2b706da92cc927a50e624a64b95dfb56"}, {"bike_id": "6abf98b7e8985ea0dfa43bcac7e5eda2", "type": "electric_scooter", "is_disabled": 0, "lat": 38.913718, "rental_uris": {"ios": "https://dc.lft.to/lastmile_qr_scan", "android": "https://dc.lft.to/lastmile_qr_scan"}, "is_reserved": 0, "fusion_lon": 0.0, "fusion_lat": 0.0, "lon": -77.03017133333333, "name": "6abf98b7e8985ea0dfa43bcac7e5eda2"}, {"bike_id": "b48a4d6dc66972f84ca1d50d370dd61c", "type": "electric_scooter", "is_disabled": 0, "lat": 38.885169, "rental_uris": {"ios": "https://dc.lft.to/lastmile_qr_scan", "android": "https://dc.lft.to/lastmile_qr_scan"}, "is_reserved": 0, "fusion_lon": 0.0, "fusion_lat": 0.0, "lon": -77.0282275, "name": "b48a4d6dc66972f84ca1d50d370dd61c"}, {"bike_id": "2ad5a2341e956b9697dc798b0a8aff8f", "type": "electric_scooter", "is_disabled": 0, "lat": 38.92341966666667, "rental_uris": {"ios": "https://dc.lft.to/lastmile_qr_scan", "android": "https://dc.lft.to/lastmile_qr_scan"}, "is_reserved": 0, "fusion_lon": 0.0, "fusion_lat": 0.0, "lon": -77.0504965, "name": "2ad5a2341e956b9697dc798b0a8aff8f"}, {"bike_id": "0436c006370ce94cca2fd36d7b1e7cfb", "type": "electric_scooter", "is_disabled": 0, "lat": 38.9212795, "rental_uris": {"ios": "https://dc.lft.to/lastmile_qr_scan", "android": "https://dc.lft.to/lastmile_qr_scan"}, "is_reserved": 0, "fusion_lon": 0.0, "fusion_lat": 0.0, "lon": -77.0442085, "name": "0436c006370ce94cca2fd36d7b1e7cfb"}, {"bike_id": "84079d6b2027bfffdea7447776098625", "type": "electric_bike", "is_disabled": 0, "lat": 38.9562745, "rental_uris": {"ios": "https://dc.lft.to/lastmile_qr_scan", "android": "https://dc.lft.to/lastmile_qr_scan"}, "is_reserved": 0, "fusion_lon": 0.0, "fusion_lat": 0.0, "lon": -77.025912, "name": "84079d6b2027bfffdea7447776098625"}, {"bike_id": "09bffea85308e7a5d34f92fdf4cddc85", "type": "electric_scooter", "is_disabled": 0, "lat": 38.933416333333334, "rental_uris": {"ios": "https://dc.lft.to/lastmile_qr_scan", "android": "https://dc.lft.to/lastmile_qr_scan"}, "is_reserved": 0, "fusion_lon": 0.0, "fusion_lat": 0.0, "lon": -77.0388195, "name": "09bffea85308e7a5d34f92fdf4cddc85"}, {"bike_id": "79855a204f7a52f6fd08f17a99dae2e5", "type": "electric_scooter", "is_disabled": 0, "lat": 38.9200465, "rental_uris": {"ios": "https://dc.lft.to/lastmile_qr_scan", "android": "https://dc.lft.to/lastmile_qr_scan"}, "is_reserved": 0, "fusion_lon": 0.0, "fusion_lat": 0.0, "lon": -77.02799783333333, "name": "79855a204f7a52f6fd08f17a99dae2e5"}, {"bike_id": "aa53e158c994d2c6588f04250a913b91", "type": "electric_scooter", "is_disabled": 0, "lat": 38.92661233333333, "rental_uris": {"ios": "https://dc.lft.to/lastmile_qr_scan", "android": "https://dc.lft.to/lastmile_qr_scan"}, "is_reserved": 0, "fusion_lon": 0.0, "fusion_lat": 0.0, "lon": -77.037287, "name": "aa53e158c994d2c6588f04250a913b91"}, {"bike_id": "2377aae1ee2ebbc03f4ae59f130afdd0", "type": "electric_scooter", "is_disabled": 0, "lat": 38.915677, "rental_uris": {"ios": "https://dc.lft.to/lastmile_qr_scan", "android": "https://dc.lft.to/lastmile_qr_scan"}, "is_reserved": 0, "fusion_lon": 0.0, "fusion_lat": 0.0, "lon": -77.031392, "name": "2377aae1ee2ebbc03f4ae59f130afdd0"}, {"bike_id": "c2b97fa44a5b5ebb8eff65d349136b1b", "type": "electric_scooter", "is_disabled": 0, "lat": 38.86245183333333, "rental_uris": {"ios": "https://dc.lft.to/lastmile_qr_scan", "android": "https://dc.lft.to/lastmile_qr_scan"}, "is_reserved": 0, "fusion_lon": 0.0, "fusion_lat": 0.0, "lon": -76.99501216666667, "name": "c2b97fa44a5b5ebb8eff65d349136b1b"}, {"bike_id": "51a76f888298969655cf590b9bb024cf", "type": "electric_scooter", "is_disabled": 0, "lat": 38.90666216666666, "rental_uris": {"ios": "https://dc.lft.to/lastmile_qr_scan", "android": "https://dc.lft.to/lastmile_qr_scan"}, "is_reserved": 0, "fusion_lon": 0.0, "fusion_lat": 0.0, "lon": -77.07165766666667, "name": "51a76f888298969655cf590b9bb024cf"}, {"bike_id": "f33fa87656bedac52a2b249cf30a67c7", "type": "electric_scooter", "is_disabled": 0, "lat": 38.93372816666667, "rental_uris": {"ios": "https://dc.lft.to/lastmile_qr_scan", "android": "https://dc.lft.to/lastmile_qr_scan"}, "is_reserved": 0, "fusion_lon": 0.0, "fusion_lat": 0.0, "lon": -77.03985366666667, "name": "f33fa87656bedac52a2b249cf30a67c7"}, {"bike_id": "18e1c96ce00d9125ff71f03715d5e2ce", "type": "electric_scooter", "is_disabled": 0, "lat": 38.917350166666665, "rental_uris": {"ios": "https://dc.lft.to/lastmile_qr_scan", "android": "https://dc.lft.to/lastmile_qr_scan"}, "is_reserved": 0, "fusion_lon": 0.0, "fusion_lat": 0.0, "lon": -77.03634866666667, "name": "18e1c96ce00d9125ff71f03715d5e2ce"}, {"bike_id": "1ee72f9debc05b68216f9f3653896a5a", "type": "electric_bike", "is_disabled": 0, "lat": 38.900758333333336, "rental_uris": {"ios": "https://dc.lft.to/lastmile_qr_scan", "android": "https://dc.lft.to/lastmile_qr_scan"}, "is_reserved": 0, "fusion_lon": 0.0, "fusion_lat": 0.0, "lon": -77.03927166666666, "name": "1ee72f9debc05b68216f9f3653896a5a"}, {"bike_id": "01413cf43182d7d77e2cbb5952b2a657", "type": "electric_scooter", "is_disabled": 0, "lat": 38.88055083333333, "rental_uris": {"ios": "https://dc.lft.to/lastmile_qr_scan", "android": "https://dc.lft.to/lastmile_qr_scan"}, "is_reserved": 0, "fusion_lon": 0.0, "fusion_lat": 0.0, "lon": -76.9321825, "name": "01413cf43182d7d77e2cbb5952b2a657"}, {"bike_id": "2f5d9d62825ad701467d34d86a0e03bd", "type": "electric_scooter", "is_disabled": 0, "lat": 38.917084333333335, "rental_uris": {"ios": "https://dc.lft.to/lastmile_qr_scan", "android": "https://dc.lft.to/lastmile_qr_scan"}, "is_reserved": 0, "fusion_lon": 0.0, "fusion_lat": 0.0, "lon": -77.01072266666667, "name": "2f5d9d62825ad701467d34d86a0e03bd"}, {"bike_id": "75865ece1357393efdca2eae7e18e849", "type": "electric_scooter", "is_disabled": 0, "lat": 38.954150166666665, "rental_uris": {"ios": "https://dc.lft.to/lastmile_qr_scan", "android": "https://dc.lft.to/lastmile_qr_scan"}, "is_reserved": 0, "fusion_lon": 0.0, "fusion_lat": 0.0, "lon": -76.99849833333333, "name": "75865ece1357393efdca2eae7e18e849"}, {"bike_id": "7103eb7c2660a642f376a47642146f05", "type": "electric_bike", "is_disabled": 0, "lat": 39.05286066666667, "rental_uris": {"ios": "https://dc.lft.to/lastmile_qr_scan", "android": "https://dc.lft.to/lastmile_qr_scan"}, "is_reserved": 0, "fusion_lon": 0.0, "fusion_lat": 0.0, "lon": -77.0807185, "name": "7103eb7c2660a642f376a47642146f05"}, {"bike_id": "08ad7daff0ceae354c8d1ee832a76534", "type": "electric_scooter", "is_disabled": 0, "lat": 38.910484, "rental_uris": {"ios": "https://dc.lft.to/lastmile_qr_scan", "android": "https://dc.lft.to/lastmile_qr_scan"}, "is_reserved": 0, "fusion_lon": 0.0, "fusion_lat": 0.0, "lon": -77.02684483333333, "name": "08ad7daff0ceae354c8d1ee832a76534"}, {"bike_id": "b32fa87834fa54d7c69ab3e85817a4cc", "type": "electric_scooter", "is_disabled": 0, "lat": 38.91420033333333, "rental_uris": {"ios": "https://dc.lft.to/lastmile_qr_scan", "android": "https://dc.lft.to/lastmile_qr_scan"}, "is_reserved": 0, "fusion_lon": 0.0, "fusion_lat": 0.0, "lon": -77.0218165, "name": "b32fa87834fa54d7c69ab3e85817a4cc"}, {"bike_id": "4693b348a1cf1b4e891af59dc5b3adf2", "type": "electric_scooter", "is_disabled": 0, "lat": 38.913269166666666, "rental_uris": {"ios": "https://dc.lft.to/lastmile_qr_scan", "android": "https://dc.lft.to/lastmile_qr_scan"}, "is_reserved": 0, "fusion_lon": 0.0, "fusion_lat": 0.0, "lon": -77.04344766666667, "name": "4693b348a1cf1b4e891af59dc5b3adf2"}, {"bike_id": "5b2e297b93d8f4eb894b5d1638a9e3c1", "type": "electric_scooter", "is_disabled": 0, "lat": 38.87095333333333, "rental_uris": {"ios": "https://dc.lft.to/lastmile_qr_scan", "android": "https://dc.lft.to/lastmile_qr_scan"}, "is_reserved": 0, "fusion_lon": 0.0, "fusion_lat": 0.0, "lon": -76.96583283333334, "name": "5b2e297b93d8f4eb894b5d1638a9e3c1"}, {"bike_id": "dcab208ed583aad1e4928292b04f0037", "type": "electric_scooter", "is_disabled": 0, "lat": 38.8669955, "rental_uris": {"ios": "https://dc.lft.to/lastmile_qr_scan", "android": "https://dc.lft.to/lastmile_qr_scan"}, "is_reserved": 0, "fusion_lon": 0.0, "fusion_lat": 0.0, "lon": -76.98715866666667, "name": "dcab208ed583aad1e4928292b04f0037"}, {"bike_id": "cde04043a74e6a652208c97825cd659f", "type": "electric_scooter", "is_disabled": 0, "lat": 38.94085116666667, "rental_uris": {"ios": "https://dc.lft.to/lastmile_qr_scan", "android": "https://dc.lft.to/lastmile_qr_scan"}, "is_reserved": 0, "fusion_lon": 0.0, "fusion_lat": 0.0, "lon": -77.02723466666667, "name": "cde04043a74e6a652208c97825cd659f"}, {"bike_id": "015df00b4ee505a057f0379b349df17b", "type": "electric_scooter", "is_disabled": 0, "lat": 38.918286333333334, "rental_uris": {"ios": "https://dc.lft.to/lastmile_qr_scan", "android": "https://dc.lft.to/lastmile_qr_scan"}, "is_reserved": 0, "fusion_lon": 0.0, "fusion_lat": 0.0, "lon": -77.04939116666667, "name": "015df00b4ee505a057f0379b349df17b"}, {"bike_id": "99a8c8a1bf0a53809d670292d93d4bf0", "type": "electric_scooter", "is_disabled": 0, "lat": 38.90015283333334, "rental_uris": {"ios": "https://dc.lft.to/lastmile_qr_scan", "android": "https://dc.lft.to/lastmile_qr_scan"}, "is_reserved": 0, "fusion_lon": 0.0, "fusion_lat": 0.0, "lon": -77.041594, "name": "99a8c8a1bf0a53809d670292d93d4bf0"}, {"bike_id": "33143ed4c799d56566e96372f43983ef", "type": "electric_scooter", "is_disabled": 0, "lat": 38.878345, "rental_uris": {"ios": "https://dc.lft.to/lastmile_qr_scan", "android": "https://dc.lft.to/lastmile_qr_scan"}, "is_reserved": 0, "fusion_lon": 0.0, "fusion_lat": 0.0, "lon": -76.963062, "name": "33143ed4c799d56566e96372f43983ef"}, {"bike_id": "acb6f367e9cc09a696c5c4abec2084bd", "type": "electric_scooter", "is_disabled": 0, "lat": 38.917052, "rental_uris": {"ios": "https://dc.lft.to/lastmile_qr_scan", "android": "https://dc.lft.to/lastmile_qr_scan"}, "is_reserved": 0, "fusion_lon": 0.0, "fusion_lat": 0.0, "lon": -77.00654366666667, "name": "acb6f367e9cc09a696c5c4abec2084bd"}, {"bike_id": "b470c1c028eafad8d0e50da4aa82e70b", "type": "electric_scooter", "is_disabled": 0, "lat": 38.906805166666665, "rental_uris": {"ios": "https://dc.lft.to/lastmile_qr_scan", "android": "https://dc.lft.to/lastmile_qr_scan"}, "is_reserved": 0, "fusion_lon": 0.0, "fusion_lat": 0.0, "lon": -77.03826566666666, "name": "b470c1c028eafad8d0e50da4aa82e70b"}, {"bike_id": "2cb98e99dd03040fdf1868f171aec23d", "type": "electric_scooter", "is_disabled": 0, "lat": 38.899426166666665, "rental_uris": {"ios": "https://dc.lft.to/lastmile_qr_scan", "android": "https://dc.lft.to/lastmile_qr_scan"}, "is_reserved": 0, "fusion_lon": 0.0, "fusion_lat": 0.0, "lon": -77.04802116666667, "name": "2cb98e99dd03040fdf1868f171aec23d"}, {"bike_id": "440c844bc8ff295a4640e5504ab0f1df", "type": "electric_scooter", "is_disabled": 0, "lat": 38.84436216666667, "rental_uris": {"ios": "https://dc.lft.to/lastmile_qr_scan", "android": "https://dc.lft.to/lastmile_qr_scan"}, "is_reserved": 0, "fusion_lon": 0.0, "fusion_lat": 0.0, "lon": -76.99780066666666, "name": "440c844bc8ff295a4640e5504ab0f1df"}, {"bike_id": "b542626bd4482f893d66e9979a337ff4", "type": "electric_scooter", "is_disabled": 0, "lat": 38.92191166666667, "rental_uris": {"ios": "https://dc.lft.to/lastmile_qr_scan", "android": "https://dc.lft.to/lastmile_qr_scan"}, "is_reserved": 0, "fusion_lon": 0.0, "fusion_lat": 0.0, "lon": -76.9936195, "name": "b542626bd4482f893d66e9979a337ff4"}, {"bike_id": "be6db55e72b14e6552a908c6e6f44aa2", "type": "electric_scooter", "is_disabled": 0, "lat": 38.893589166666665, "rental_uris": {"ios": "https://dc.lft.to/lastmile_qr_scan", "android": "https://dc.lft.to/lastmile_qr_scan"}, "is_reserved": 0, "fusion_lon": 0.0, "fusion_lat": 0.0, "lon": -76.94933666666667, "name": "be6db55e72b14e6552a908c6e6f44aa2"}, {"bike_id": "51aef5fd06b307e3500d359f562c0efa", "type": "electric_scooter", "is_disabled": 0, "lat": 38.928025, "rental_uris": {"ios": "https://dc.lft.to/lastmile_qr_scan", "android": "https://dc.lft.to/lastmile_qr_scan"}, "is_reserved": 0, "fusion_lon": 0.0, "fusion_lat": 0.0, "lon": -77.03213116666667, "name": "51aef5fd06b307e3500d359f562c0efa"}, {"bike_id": "521618af3c18a180d12b4d01d5bac57c", "type": "electric_bike", "is_disabled": 0, "lat": 39.04309516666667, "rental_uris": {"ios": "https://dc.lft.to/lastmile_qr_scan", "android": "https://dc.lft.to/lastmile_qr_scan"}, "is_reserved": 0, "fusion_lon": 0.0, "fusion_lat": 0.0, "lon": -77.05160266666667, "name": "521618af3c18a180d12b4d01d5bac57c"}, {"bike_id": "4ca90b2a9f3c9bb0df29d79af4889a52", "type": "electric_scooter", "is_disabled": 0, "lat": 38.90002283333333, "rental_uris": {"ios": "https://dc.lft.to/lastmile_qr_scan", "android": "https://dc.lft.to/lastmile_qr_scan"}, "is_reserved": 0, "fusion_lon": 0.0, "fusion_lat": 0.0, "lon": -76.99617716666667, "name": "4ca90b2a9f3c9bb0df29d79af4889a52"}, {"bike_id": "b6020dbb1863bfdd74ffa06245a30441", "type": "electric_scooter", "is_disabled": 0, "lat": 38.90258816666667, "rental_uris": {"ios": "https://dc.lft.to/lastmile_qr_scan", "android": "https://dc.lft.to/lastmile_qr_scan"}, "is_reserved": 0, "fusion_lon": 0.0, "fusion_lat": 0.0, "lon": -77.01863066666667, "name": "b6020dbb1863bfdd74ffa06245a30441"}, {"bike_id": "213548a2222a205080f772c07399a859", "type": "electric_scooter", "is_disabled": 0, "lat": 38.93719316666667, "rental_uris": {"ios": "https://dc.lft.to/lastmile_qr_scan", "android": "https://dc.lft.to/lastmile_qr_scan"}, "is_reserved": 0, "fusion_lon": 0.0, "fusion_lat": 0.0, "lon": -77.0246265, "name": "213548a2222a205080f772c07399a859"}, {"bike_id": "32ba95b8970d514635f5025d8f037183", "type": "electric_scooter", "is_disabled": 0, "lat": 38.91540766666667, "rental_uris": {"ios": "https://dc.lft.to/lastmile_qr_scan", "android": "https://dc.lft.to/lastmile_qr_scan"}, "is_reserved": 0, "fusion_lon": 0.0, "fusion_lat": 0.0, "lon": -76.97011933333333, "name": "32ba95b8970d514635f5025d8f037183"}, {"bike_id": "4f7cb0e0616c34e72d83d9a06eef2fad", "type": "electric_scooter", "is_disabled": 0, "lat": 38.910449, "rental_uris": {"ios": "https://dc.lft.to/lastmile_qr_scan", "android": "https://dc.lft.to/lastmile_qr_scan"}, "is_reserved": 0, "fusion_lon": 0.0, "fusion_lat": 0.0, "lon": -77.07346716666666, "name": "4f7cb0e0616c34e72d83d9a06eef2fad"}, {"bike_id": "1d66b0a8f05e9ea3623a11a7b0816234", "type": "electric_bike", "is_disabled": 0, "lat": 38.823812333333336, "rental_uris": {"ios": "https://dc.lft.to/lastmile_qr_scan", "android": "https://dc.lft.to/lastmile_qr_scan"}, "is_reserved": 0, "fusion_lon": 0.0, "fusion_lat": 0.0, "lon": -77.002272, "name": "1d66b0a8f05e9ea3623a11a7b0816234"}, {"bike_id": "d6cbef420702f080c7c2ee4fda8367b5", "type": "electric_scooter", "is_disabled": 0, "lat": 38.9111045, "rental_uris": {"ios": "https://dc.lft.to/lastmile_qr_scan", "android": "https://dc.lft.to/lastmile_qr_scan"}, "is_reserved": 0, "fusion_lon": 0.0, "fusion_lat": 0.0, "lon": -77.038286, "name": "d6cbef420702f080c7c2ee4fda8367b5"}, {"bike_id": "0b574058c1b389c0a3b499efe3e990d4", "type": "electric_scooter", "is_disabled": 0, "lat": 38.900651833333335, "rental_uris": {"ios": "https://dc.lft.to/lastmile_qr_scan", "android": "https://dc.lft.to/lastmile_qr_scan"}, "is_reserved": 0, "fusion_lon": 0.0, "fusion_lat": 0.0, "lon": -77.04537, "name": "0b574058c1b389c0a3b499efe3e990d4"}, {"bike_id": "220b9ece0aa8b529e837be726d5ef3ae", "type": "electric_bike", "is_disabled": 0, "lat": 38.90511016666667, "rental_uris": {"ios": "https://dc.lft.to/lastmile_qr_scan", "android": "https://dc.lft.to/lastmile_qr_scan"}, "is_reserved": 0, "fusion_lon": 0.0, "fusion_lat": 0.0, "lon": -76.987254, "name": "220b9ece0aa8b529e837be726d5ef3ae"}, {"bike_id": "926557bfc4fc20a589bf84f1980f3438", "type": "electric_bike", "is_disabled": 0, "lat": 38.88245533333333, "rental_uris": {"ios": "https://dc.lft.to/lastmile_qr_scan", "android": "https://dc.lft.to/lastmile_qr_scan"}, "is_reserved": 0, "fusion_lon": 0.0, "fusion_lat": 0.0, "lon": -76.9625485, "name": "926557bfc4fc20a589bf84f1980f3438"}, {"bike_id": "8b327e657cd30d8ea2f691414187bb94", "type": "electric_scooter", "is_disabled": 0, "lat": 38.903575833333335, "rental_uris": {"ios": "https://dc.lft.to/lastmile_qr_scan", "android": "https://dc.lft.to/lastmile_qr_scan"}, "is_reserved": 0, "fusion_lon": 0.0, "fusion_lat": 0.0, "lon": -77.01953116666667, "name": "8b327e657cd30d8ea2f691414187bb94"}, {"bike_id": "e37e3b61a61aee8ef25b5049986a7083", "type": "electric_scooter", "is_disabled": 0, "lat": 38.9329335, "rental_uris": {"ios": "https://dc.lft.to/lastmile_qr_scan", "android": "https://dc.lft.to/lastmile_qr_scan"}, "is_reserved": 0, "fusion_lon": 0.0, "fusion_lat": 0.0, "lon": -77.03541433333334, "name": "e37e3b61a61aee8ef25b5049986a7083"}, {"bike_id": "eb33319dee2bebe4b8b619f97a5acfb7", "type": "electric_scooter", "is_disabled": 0, "lat": 38.918008, "rental_uris": {"ios": "https://dc.lft.to/lastmile_qr_scan", "android": "https://dc.lft.to/lastmile_qr_scan"}, "is_reserved": 0, "fusion_lon": 0.0, "fusion_lat": 0.0, "lon": -77.034395, "name": "eb33319dee2bebe4b8b619f97a5acfb7"}, {"bike_id": "d07f66da1fcde0da18d3bf4183502cb6", "type": "electric_scooter", "is_disabled": 0, "lat": 38.91053683333333, "rental_uris": {"ios": "https://dc.lft.to/lastmile_qr_scan", "android": "https://dc.lft.to/lastmile_qr_scan"}, "is_reserved": 0, "fusion_lon": 0.0, "fusion_lat": 0.0, "lon": -77.00919383333333, "name": "d07f66da1fcde0da18d3bf4183502cb6"}, {"bike_id": "1e55e9e207c4f06d73abf17ca89fbf02", "type": "electric_scooter", "is_disabled": 0, "lat": 38.90488916666666, "rental_uris": {"ios": "https://dc.lft.to/lastmile_qr_scan", "android": "https://dc.lft.to/lastmile_qr_scan"}, "is_reserved": 0, "fusion_lon": 0.0, "fusion_lat": 0.0, "lon": -77.03230816666667, "name": "1e55e9e207c4f06d73abf17ca89fbf02"}, {"bike_id": "50efe8471e12a459b7c369f591cf4f8a", "type": "electric_scooter", "is_disabled": 0, "lat": 38.921447, "rental_uris": {"ios": "https://dc.lft.to/lastmile_qr_scan", "android": "https://dc.lft.to/lastmile_qr_scan"}, "is_reserved": 0, "fusion_lon": 0.0, "fusion_lat": 0.0, "lon": -77.043699, "name": "50efe8471e12a459b7c369f591cf4f8a"}, {"bike_id": "f1b57b71846f4f7f425728f60f3fa31d", "type": "electric_scooter", "is_disabled": 0, "lat": 38.879519, "rental_uris": {"ios": "https://dc.lft.to/lastmile_qr_scan", "android": "https://dc.lft.to/lastmile_qr_scan"}, "is_reserved": 0, "fusion_lon": 0.0, "fusion_lat": 0.0, "lon": -77.02360233333333, "name": "f1b57b71846f4f7f425728f60f3fa31d"}, {"bike_id": "53795854e441ad48d7b772ec6e371632", "type": "electric_scooter", "is_disabled": 0, "lat": 38.9156715, "rental_uris": {"ios": "https://dc.lft.to/lastmile_qr_scan", "android": "https://dc.lft.to/lastmile_qr_scan"}, "is_reserved": 0, "fusion_lon": 0.0, "fusion_lat": 0.0, "lon": -77.031275, "name": "53795854e441ad48d7b772ec6e371632"}, {"bike_id": "305f3cfc06107e3c718bb5ffcdeb805e", "type": "electric_scooter", "is_disabled": 0, "lat": 38.8619565, "rental_uris": {"ios": "https://dc.lft.to/lastmile_qr_scan", "android": "https://dc.lft.to/lastmile_qr_scan"}, "is_reserved": 0, "fusion_lon": 0.0, "fusion_lat": 0.0, "lon": -77.08824916666667, "name": "305f3cfc06107e3c718bb5ffcdeb805e"}, {"bike_id": "1a73f0c06ea15142e8fdf525b46a1222", "type": "electric_bike", "is_disabled": 0, "lat": 38.9082945, "rental_uris": {"ios": "https://dc.lft.to/lastmile_qr_scan", "android": "https://dc.lft.to/lastmile_qr_scan"}, "is_reserved": 0, "fusion_lon": 0.0, "fusion_lat": 0.0, "lon": -76.9415905, "name": "1a73f0c06ea15142e8fdf525b46a1222"}, {"bike_id": "ef228a7dfda960ffb58967a3d887df57", "type": "electric_bike", "is_disabled": 0, "lat": 39.054973833333335, "rental_uris": {"ios": "https://dc.lft.to/lastmile_qr_scan", "android": "https://dc.lft.to/lastmile_qr_scan"}, "is_reserved": 0, "fusion_lon": 0.0, "fusion_lat": 0.0, "lon": -77.11790266666667, "name": "ef228a7dfda960ffb58967a3d887df57"}, {"bike_id": "0903bb185e22d1e47faa7c4a3d25285f", "type": "electric_scooter", "is_disabled": 0, "lat": 38.9238215, "rental_uris": {"ios": "https://dc.lft.to/lastmile_qr_scan", "android": "https://dc.lft.to/lastmile_qr_scan"}, "is_reserved": 0, "fusion_lon": 0.0, "fusion_lat": 0.0, "lon": -77.027599, "name": "0903bb185e22d1e47faa7c4a3d25285f"}, {"bike_id": "46bf513fb94e03855716c27182b7e873", "type": "electric_scooter", "is_disabled": 0, "lat": 38.92893616666667, "rental_uris": {"ios": "https://dc.lft.to/lastmile_qr_scan", "android": "https://dc.lft.to/lastmile_qr_scan"}, "is_reserved": 0, "fusion_lon": 0.0, "fusion_lat": 0.0, "lon": -77.013632, "name": "46bf513fb94e03855716c27182b7e873"}, {"bike_id": "e2a0766c651c45a850a9f7fa536d9239", "type": "electric_scooter", "is_disabled": 0, "lat": 38.90398066666667, "rental_uris": {"ios": "https://dc.lft.to/lastmile_qr_scan", "android": "https://dc.lft.to/lastmile_qr_scan"}, "is_reserved": 0, "fusion_lon": 0.0, "fusion_lat": 0.0, "lon": -77.00559566666666, "name": "e2a0766c651c45a850a9f7fa536d9239"}, {"bike_id": "f8a8f96957a841dfeba26cacb143836c", "type": "electric_scooter", "is_disabled": 0, "lat": 38.906695, "rental_uris": {"ios": "https://dc.lft.to/lastmile_qr_scan", "android": "https://dc.lft.to/lastmile_qr_scan"}, "is_reserved": 0, "fusion_lon": 0.0, "fusion_lat": 0.0, "lon": -77.0091655, "name": "f8a8f96957a841dfeba26cacb143836c"}, {"bike_id": "33a0d9ab56f8ce99e0db0b4d60bd8e66", "type": "electric_bike", "is_disabled": 0, "lat": 39.0374535, "rental_uris": {"ios": "https://dc.lft.to/lastmile_qr_scan", "android": "https://dc.lft.to/lastmile_qr_scan"}, "is_reserved": 0, "fusion_lon": 0.0, "fusion_lat": 0.0, "lon": -77.05477066666667, "name": "33a0d9ab56f8ce99e0db0b4d60bd8e66"}, {"bike_id": "27a8c7fc461d559c275b76d4ca50efc1", "type": "electric_scooter", "is_disabled": 0, "lat": 38.90538383333333, "rental_uris": {"ios": "https://dc.lft.to/lastmile_qr_scan", "android": "https://dc.lft.to/lastmile_qr_scan"}, "is_reserved": 0, "fusion_lon": 0.0, "fusion_lat": 0.0, "lon": -77.06899466666667, "name": "27a8c7fc461d559c275b76d4ca50efc1"}, {"bike_id": "bb1fcd518ba3ab452e8ae711e4568eb3", "type": "electric_scooter", "is_disabled": 0, "lat": 38.907772, "rental_uris": {"ios": "https://dc.lft.to/lastmile_qr_scan", "android": "https://dc.lft.to/lastmile_qr_scan"}, "is_reserved": 0, "fusion_lon": 0.0, "fusion_lat": 0.0, "lon": -77.043512, "name": "bb1fcd518ba3ab452e8ae711e4568eb3"}, {"bike_id": "f0c70e227d37d77bd9b26b42f77e112b", "type": "electric_scooter", "is_disabled": 0, "lat": 38.8892995, "rental_uris": {"ios": "https://dc.lft.to/lastmile_qr_scan", "android": "https://dc.lft.to/lastmile_qr_scan"}, "is_reserved": 0, "fusion_lon": 0.0, "fusion_lat": 0.0, "lon": -77.0150455, "name": "f0c70e227d37d77bd9b26b42f77e112b"}, {"bike_id": "a55485ba7aef64b3b159457e538f6fb8", "type": "electric_scooter", "is_disabled": 0, "lat": 38.922564666666666, "rental_uris": {"ios": "https://dc.lft.to/lastmile_qr_scan", "android": "https://dc.lft.to/lastmile_qr_scan"}, "is_reserved": 0, "fusion_lon": 0.0, "fusion_lat": 0.0, "lon": -77.03897733333334, "name": "a55485ba7aef64b3b159457e538f6fb8"}, {"bike_id": "3ac437b24d1e7d1c1ef868533b4f2391", "type": "electric_scooter", "is_disabled": 0, "lat": 38.904986, "rental_uris": {"ios": "https://dc.lft.to/lastmile_qr_scan", "android": "https://dc.lft.to/lastmile_qr_scan"}, "is_reserved": 0, "fusion_lon": 0.0, "fusion_lat": 0.0, "lon": -77.02003466666666, "name": "3ac437b24d1e7d1c1ef868533b4f2391"}, {"bike_id": "12e8986d5e271e52f70bf171a4f2d650", "type": "electric_scooter", "is_disabled": 0, "lat": 38.91807933333333, "rental_uris": {"ios": "https://dc.lft.to/lastmile_qr_scan", "android": "https://dc.lft.to/lastmile_qr_scan"}, "is_reserved": 0, "fusion_lon": 0.0, "fusion_lat": 0.0, "lon": -77.03206316666666, "name": "12e8986d5e271e52f70bf171a4f2d650"}, {"bike_id": "7c5887b8576ff39e53a10df1d757531b", "type": "electric_scooter", "is_disabled": 0, "lat": 38.92274116666667, "rental_uris": {"ios": "https://dc.lft.to/lastmile_qr_scan", "android": "https://dc.lft.to/lastmile_qr_scan"}, "is_reserved": 0, "fusion_lon": 0.0, "fusion_lat": 0.0, "lon": -76.99448383333333, "name": "7c5887b8576ff39e53a10df1d757531b"}, {"bike_id": "c36ffb461efb118e09fea010e526fe09", "type": "electric_scooter", "is_disabled": 0, "lat": 38.884289, "rental_uris": {"ios": "https://dc.lft.to/lastmile_qr_scan", "android": "https://dc.lft.to/lastmile_qr_scan"}, "is_reserved": 0, "fusion_lon": 0.0, "fusion_lat": 0.0, "lon": -76.95756166666666, "name": "c36ffb461efb118e09fea010e526fe09"}, {"bike_id": "0a91222b0d36ba601309800c5dd8d917", "type": "electric_scooter", "is_disabled": 0, "lat": 38.89536066666667, "rental_uris": {"ios": "https://dc.lft.to/lastmile_qr_scan", "android": "https://dc.lft.to/lastmile_qr_scan"}, "is_reserved": 0, "fusion_lon": 0.0, "fusion_lat": 0.0, "lon": -77.0110475, "name": "0a91222b0d36ba601309800c5dd8d917"}, {"bike_id": "dde5d9263abe499f40efafbfc94cb6b5", "type": "electric_scooter", "is_disabled": 0, "lat": 38.90947383333334, "rental_uris": {"ios": "https://dc.lft.to/lastmile_qr_scan", "android": "https://dc.lft.to/lastmile_qr_scan"}, "is_reserved": 0, "fusion_lon": 0.0, "fusion_lat": 0.0, "lon": -77.03446833333334, "name": "dde5d9263abe499f40efafbfc94cb6b5"}, {"bike_id": "a3ce636148355abd4ad1a0a58600616f", "type": "electric_scooter", "is_disabled": 0, "lat": 38.928383, "rental_uris": {"ios": "https://dc.lft.to/lastmile_qr_scan", "android": "https://dc.lft.to/lastmile_qr_scan"}, "is_reserved": 0, "fusion_lon": 0.0, "fusion_lat": 0.0, "lon": -77.02749483333334, "name": "a3ce636148355abd4ad1a0a58600616f"}, {"bike_id": "de15b6bc9feca54bc7f0eaa58c349ae9", "type": "electric_bike", "is_disabled": 0, "lat": 38.8070885, "rental_uris": {"ios": "https://dc.lft.to/lastmile_qr_scan", "android": "https://dc.lft.to/lastmile_qr_scan"}, "is_reserved": 0, "fusion_lon": 0.0, "fusion_lat": 0.0, "lon": -77.0617185, "name": "de15b6bc9feca54bc7f0eaa58c349ae9"}, {"bike_id": "2d5e9d73da9ab684e28388ba450e090d", "type": "electric_scooter", "is_disabled": 0, "lat": 38.93637283333333, "rental_uris": {"ios": "https://dc.lft.to/lastmile_qr_scan", "android": "https://dc.lft.to/lastmile_qr_scan"}, "is_reserved": 0, "fusion_lon": 0.0, "fusion_lat": 0.0, "lon": -77.05883883333334, "name": "2d5e9d73da9ab684e28388ba450e090d"}, {"bike_id": "002c1722a6fdd74f48d5780faf651418", "type": "electric_scooter", "is_disabled": 0, "lat": 38.923398666666664, "rental_uris": {"ios": "https://dc.lft.to/lastmile_qr_scan", "android": "https://dc.lft.to/lastmile_qr_scan"}, "is_reserved": 0, "fusion_lon": 0.0, "fusion_lat": 0.0, "lon": -77.001891, "name": "002c1722a6fdd74f48d5780faf651418"}, {"bike_id": "af5862d2c4c73a00a0d8259f7bd5fd0e", "type": "electric_bike", "is_disabled": 0, "lat": 38.95224416666667, "rental_uris": {"ios": "https://dc.lft.to/lastmile_qr_scan", "android": "https://dc.lft.to/lastmile_qr_scan"}, "is_reserved": 0, "fusion_lon": 0.0, "fusion_lat": 0.0, "lon": -77.00240266666667, "name": "af5862d2c4c73a00a0d8259f7bd5fd0e"}, {"bike_id": "3e1f3ab6a792220717eab712bc6d85b3", "type": "electric_bike", "is_disabled": 0, "lat": 38.8041655, "rental_uris": {"ios": "https://dc.lft.to/lastmile_qr_scan", "android": "https://dc.lft.to/lastmile_qr_scan"}, "is_reserved": 0, "fusion_lon": 0.0, "fusion_lat": 0.0, "lon": -77.05554316666667, "name": "3e1f3ab6a792220717eab712bc6d85b3"}, {"bike_id": "a38f7c35591cebc15f15a047f71d7c70", "type": "electric_scooter", "is_disabled": 0, "lat": 38.92290366666667, "rental_uris": {"ios": "https://dc.lft.to/lastmile_qr_scan", "android": "https://dc.lft.to/lastmile_qr_scan"}, "is_reserved": 0, "fusion_lon": 0.0, "fusion_lat": 0.0, "lon": -77.02968783333333, "name": "a38f7c35591cebc15f15a047f71d7c70"}, {"bike_id": "5ed4e07e084a7c08b41e29b1711e14b9", "type": "electric_scooter", "is_disabled": 0, "lat": 38.905547, "rental_uris": {"ios": "https://dc.lft.to/lastmile_qr_scan", "android": "https://dc.lft.to/lastmile_qr_scan"}, "is_reserved": 0, "fusion_lon": 0.0, "fusion_lat": 0.0, "lon": -76.9961945, "name": "5ed4e07e084a7c08b41e29b1711e14b9"}, {"bike_id": "129e58eed8919318478e479315e8afaf", "type": "electric_scooter", "is_disabled": 0, "lat": 38.88404366666666, "rental_uris": {"ios": "https://dc.lft.to/lastmile_qr_scan", "android": "https://dc.lft.to/lastmile_qr_scan"}, "is_reserved": 0, "fusion_lon": 0.0, "fusion_lat": 0.0, "lon": -76.95395383333333, "name": "129e58eed8919318478e479315e8afaf"}, {"bike_id": "9ce03bbd55a01bd6a1eee8feec7e535e", "type": "electric_scooter", "is_disabled": 0, "lat": 38.905712, "rental_uris": {"ios": "https://dc.lft.to/lastmile_qr_scan", "android": "https://dc.lft.to/lastmile_qr_scan"}, "is_reserved": 0, "fusion_lon": 0.0, "fusion_lat": 0.0, "lon": -76.97624316666666, "name": "9ce03bbd55a01bd6a1eee8feec7e535e"}, {"bike_id": "5327486a548f7f8d9251f4a6f1757f0e", "type": "electric_scooter", "is_disabled": 0, "lat": 38.900865333333336, "rental_uris": {"ios": "https://dc.lft.to/lastmile_qr_scan", "android": "https://dc.lft.to/lastmile_qr_scan"}, "is_reserved": 0, "fusion_lon": 0.0, "fusion_lat": 0.0, "lon": -77.03186366666667, "name": "5327486a548f7f8d9251f4a6f1757f0e"}, {"bike_id": "9f3553a4d436c703dc7538f7b350c667", "type": "electric_scooter", "is_disabled": 0, "lat": 38.9032405, "rental_uris": {"ios": "https://dc.lft.to/lastmile_qr_scan", "android": "https://dc.lft.to/lastmile_qr_scan"}, "is_reserved": 0, "fusion_lon": 0.0, "fusion_lat": 0.0, "lon": -76.99419566666667, "name": "9f3553a4d436c703dc7538f7b350c667"}, {"bike_id": "922af4a90cadcc8a662ad9cc020bb4e8", "type": "electric_scooter", "is_disabled": 0, "lat": 38.909007833333334, "rental_uris": {"ios": "https://dc.lft.to/lastmile_qr_scan", "android": "https://dc.lft.to/lastmile_qr_scan"}, "is_reserved": 0, "fusion_lon": 0.0, "fusion_lat": 0.0, "lon": -77.04491583333333, "name": "922af4a90cadcc8a662ad9cc020bb4e8"}, {"bike_id": "1e6fac89c7a4906cd063cb6373bf86fc", "type": "electric_scooter", "is_disabled": 0, "lat": 38.9285815, "rental_uris": {"ios": "https://dc.lft.to/lastmile_qr_scan", "android": "https://dc.lft.to/lastmile_qr_scan"}, "is_reserved": 0, "fusion_lon": 0.0, "fusion_lat": 0.0, "lon": -77.05433216666667, "name": "1e6fac89c7a4906cd063cb6373bf86fc"}, {"bike_id": "cf68ef0df19dd12fa451c83141861977", "type": "electric_scooter", "is_disabled": 0, "lat": 38.902460833333336, "rental_uris": {"ios": "https://dc.lft.to/lastmile_qr_scan", "android": "https://dc.lft.to/lastmile_qr_scan"}, "is_reserved": 0, "fusion_lon": 0.0, "fusion_lat": 0.0, "lon": -77.018633, "name": "cf68ef0df19dd12fa451c83141861977"}, {"bike_id": "c5a2c5b49e87b45410e9b0cffefdd605", "type": "electric_scooter", "is_disabled": 0, "lat": 38.911175, "rental_uris": {"ios": "https://dc.lft.to/lastmile_qr_scan", "android": "https://dc.lft.to/lastmile_qr_scan"}, "is_reserved": 0, "fusion_lon": 0.0, "fusion_lat": 0.0, "lon": -77.03832666666666, "name": "c5a2c5b49e87b45410e9b0cffefdd605"}, {"bike_id": "231967942c6a48e0f6685aff5a5329e5", "type": "electric_scooter", "is_disabled": 0, "lat": 38.91696316666667, "rental_uris": {"ios": "https://dc.lft.to/lastmile_qr_scan", "android": "https://dc.lft.to/lastmile_qr_scan"}, "is_reserved": 0, "fusion_lon": 0.0, "fusion_lat": 0.0, "lon": -77.0316985, "name": "231967942c6a48e0f6685aff5a5329e5"}, {"bike_id": "46e2f579fae02629e80e147a9b9d156a", "type": "electric_bike", "is_disabled": 0, "lat": 38.908385833333334, "rental_uris": {"ios": "https://dc.lft.to/lastmile_qr_scan", "android": "https://dc.lft.to/lastmile_qr_scan"}, "is_reserved": 0, "fusion_lon": 0.0, "fusion_lat": 0.0, "lon": -76.9329775, "name": "46e2f579fae02629e80e147a9b9d156a"}, {"bike_id": "ac4db8b6b7ac6d3ff72a79acba289b2a", "type": "electric_scooter", "is_disabled": 0, "lat": 38.92267916666667, "rental_uris": {"ios": "https://dc.lft.to/lastmile_qr_scan", "android": "https://dc.lft.to/lastmile_qr_scan"}, "is_reserved": 0, "fusion_lon": 0.0, "fusion_lat": 0.0, "lon": -77.03278683333333, "name": "ac4db8b6b7ac6d3ff72a79acba289b2a"}, {"bike_id": "61f2b8e39f180557f86685e467d4dcb6", "type": "electric_scooter", "is_disabled": 0, "lat": 38.907369, "rental_uris": {"ios": "https://dc.lft.to/lastmile_qr_scan", "android": "https://dc.lft.to/lastmile_qr_scan"}, "is_reserved": 0, "fusion_lon": 0.0, "fusion_lat": 0.0, "lon": -77.02951633333333, "name": "61f2b8e39f180557f86685e467d4dcb6"}, {"bike_id": "8b337c097bc729f36f7df3d3f8f9a847", "type": "electric_scooter", "is_disabled": 0, "lat": 38.870923166666664, "rental_uris": {"ios": "https://dc.lft.to/lastmile_qr_scan", "android": "https://dc.lft.to/lastmile_qr_scan"}, "is_reserved": 0, "fusion_lon": 0.0, "fusion_lat": 0.0, "lon": -77.012071, "name": "8b337c097bc729f36f7df3d3f8f9a847"}, {"bike_id": "e71eb2fac276253204896704e9860926", "type": "electric_bike", "is_disabled": 0, "lat": 38.89743, "rental_uris": {"ios": "https://dc.lft.to/lastmile_qr_scan", "android": "https://dc.lft.to/lastmile_qr_scan"}, "is_reserved": 0, "fusion_lon": 0.0, "fusion_lat": 0.0, "lon": -76.92046883333333, "name": "e71eb2fac276253204896704e9860926"}, {"bike_id": "05248db7191caee33592f7314cb1dd15", "type": "electric_scooter", "is_disabled": 0, "lat": 38.91692883333333, "rental_uris": {"ios": "https://dc.lft.to/lastmile_qr_scan", "android": "https://dc.lft.to/lastmile_qr_scan"}, "is_reserved": 0, "fusion_lon": 0.0, "fusion_lat": 0.0, "lon": -77.0374775, "name": "05248db7191caee33592f7314cb1dd15"}, {"bike_id": "f3eb4adc9ff6dc21130b2d55c542da16", "type": "electric_scooter", "is_disabled": 0, "lat": 38.961358, "rental_uris": {"ios": "https://dc.lft.to/lastmile_qr_scan", "android": "https://dc.lft.to/lastmile_qr_scan"}, "is_reserved": 0, "fusion_lon": 0.0, "fusion_lat": 0.0, "lon": -77.00969333333333, "name": "f3eb4adc9ff6dc21130b2d55c542da16"}, {"bike_id": "8dc5dfb6a52df02e9f58ad781e50fa9b", "type": "electric_scooter", "is_disabled": 0, "lat": 38.919205, "rental_uris": {"ios": "https://dc.lft.to/lastmile_qr_scan", "android": "https://dc.lft.to/lastmile_qr_scan"}, "is_reserved": 0, "fusion_lon": 0.0, "fusion_lat": 0.0, "lon": -77.03360466666666, "name": "8dc5dfb6a52df02e9f58ad781e50fa9b"}, {"bike_id": "051b8ffdb1d2e785f3fb12e8e1e9b202", "type": "electric_scooter", "is_disabled": 0, "lat": 38.9266545, "rental_uris": {"ios": "https://dc.lft.to/lastmile_qr_scan", "android": "https://dc.lft.to/lastmile_qr_scan"}, "is_reserved": 0, "fusion_lon": 0.0, "fusion_lat": 0.0, "lon": -77.03732166666667, "name": "051b8ffdb1d2e785f3fb12e8e1e9b202"}, {"bike_id": "838d304b31e2353f341581bf3ff23ba3", "type": "electric_scooter", "is_disabled": 0, "lat": 38.921550833333335, "rental_uris": {"ios": "https://dc.lft.to/lastmile_qr_scan", "android": "https://dc.lft.to/lastmile_qr_scan"}, "is_reserved": 0, "fusion_lon": 0.0, "fusion_lat": 0.0, "lon": -77.03872633333333, "name": "838d304b31e2353f341581bf3ff23ba3"}, {"bike_id": "9b01f03a42028df2977c79b5574e2c87", "type": "electric_scooter", "is_disabled": 0, "lat": 38.905600166666666, "rental_uris": {"ios": "https://dc.lft.to/lastmile_qr_scan", "android": "https://dc.lft.to/lastmile_qr_scan"}, "is_reserved": 0, "fusion_lon": 0.0, "fusion_lat": 0.0, "lon": -77.0382105, "name": "9b01f03a42028df2977c79b5574e2c87"}, {"bike_id": "5f4ff91af14f2c12ffc21ddb91b312d6", "type": "electric_scooter", "is_disabled": 0, "lat": 38.8600425, "rental_uris": {"ios": "https://dc.lft.to/lastmile_qr_scan", "android": "https://dc.lft.to/lastmile_qr_scan"}, "is_reserved": 0, "fusion_lon": 0.0, "fusion_lat": 0.0, "lon": -76.985206, "name": "5f4ff91af14f2c12ffc21ddb91b312d6"}, {"bike_id": "815a414c37df81fa5d4949cbe0121f02", "type": "electric_scooter", "is_disabled": 0, "lat": 38.89195566666667, "rental_uris": {"ios": "https://dc.lft.to/lastmile_qr_scan", "android": "https://dc.lft.to/lastmile_qr_scan"}, "is_reserved": 0, "fusion_lon": 0.0, "fusion_lat": 0.0, "lon": -77.02981583333333, "name": "815a414c37df81fa5d4949cbe0121f02"}, {"bike_id": "8cdeb29efeadd4cc8d89c8024ea0b7c8", "type": "electric_scooter", "is_disabled": 0, "lat": 38.9059495, "rental_uris": {"ios": "https://dc.lft.to/lastmile_qr_scan", "android": "https://dc.lft.to/lastmile_qr_scan"}, "is_reserved": 0, "fusion_lon": 0.0, "fusion_lat": 0.0, "lon": -77.0701285, "name": "8cdeb29efeadd4cc8d89c8024ea0b7c8"}, {"bike_id": "80206bf06fb6e73960bd8a45fe47798c", "type": "electric_scooter", "is_disabled": 0, "lat": 38.90865016666667, "rental_uris": {"ios": "https://dc.lft.to/lastmile_qr_scan", "android": "https://dc.lft.to/lastmile_qr_scan"}, "is_reserved": 0, "fusion_lon": 0.0, "fusion_lat": 0.0, "lon": -77.003357, "name": "80206bf06fb6e73960bd8a45fe47798c"}, {"bike_id": "735596164a0751c43ca18cde2c9b7949", "type": "electric_scooter", "is_disabled": 0, "lat": 38.91928466666667, "rental_uris": {"ios": "https://dc.lft.to/lastmile_qr_scan", "android": "https://dc.lft.to/lastmile_qr_scan"}, "is_reserved": 0, "fusion_lon": 0.0, "fusion_lat": 0.0, "lon": -77.04628533333333, "name": "735596164a0751c43ca18cde2c9b7949"}, {"bike_id": "830247f01232bd4447b0ee35f692f442", "type": "electric_scooter", "is_disabled": 0, "lat": 38.918256666666665, "rental_uris": {"ios": "https://dc.lft.to/lastmile_qr_scan", "android": "https://dc.lft.to/lastmile_qr_scan"}, "is_reserved": 0, "fusion_lon": 0.0, "fusion_lat": 0.0, "lon": -77.04942916666667, "name": "830247f01232bd4447b0ee35f692f442"}, {"bike_id": "48cb3e2370e89971e53d74256434c4dc", "type": "electric_bike", "is_disabled": 0, "lat": 38.807624, "rental_uris": {"ios": "https://dc.lft.to/lastmile_qr_scan", "android": "https://dc.lft.to/lastmile_qr_scan"}, "is_reserved": 0, "fusion_lon": 0.0, "fusion_lat": 0.0, "lon": -77.09467383333333, "name": "48cb3e2370e89971e53d74256434c4dc"}, {"bike_id": "e3acbaea1ff6010e8f70e47b33d55a4d", "type": "electric_scooter", "is_disabled": 0, "lat": 38.918773, "rental_uris": {"ios": "https://dc.lft.to/lastmile_qr_scan", "android": "https://dc.lft.to/lastmile_qr_scan"}, "is_reserved": 0, "fusion_lon": 0.0, "fusion_lat": 0.0, "lon": -77.0348215, "name": "e3acbaea1ff6010e8f70e47b33d55a4d"}, {"bike_id": "a0406c008ac83d59e7ff99f86a86daff", "type": "electric_scooter", "is_disabled": 0, "lat": 38.9296615, "rental_uris": {"ios": "https://dc.lft.to/lastmile_qr_scan", "android": "https://dc.lft.to/lastmile_qr_scan"}, "is_reserved": 0, "fusion_lon": 0.0, "fusion_lat": 0.0, "lon": -77.03136, "name": "a0406c008ac83d59e7ff99f86a86daff"}, {"bike_id": "58e527cab10543a442c6cf60554d7bc0", "type": "electric_scooter", "is_disabled": 0, "lat": 38.909780166666664, "rental_uris": {"ios": "https://dc.lft.to/lastmile_qr_scan", "android": "https://dc.lft.to/lastmile_qr_scan"}, "is_reserved": 0, "fusion_lon": 0.0, "fusion_lat": 0.0, "lon": -77.03444716666667, "name": "58e527cab10543a442c6cf60554d7bc0"}, {"bike_id": "74fb39f87014a44691743ad0330967cc", "type": "electric_scooter", "is_disabled": 0, "lat": 38.86504933333333, "rental_uris": {"ios": "https://dc.lft.to/lastmile_qr_scan", "android": "https://dc.lft.to/lastmile_qr_scan"}, "is_reserved": 0, "fusion_lon": 0.0, "fusion_lat": 0.0, "lon": -76.99002383333334, "name": "74fb39f87014a44691743ad0330967cc"}, {"bike_id": "22c7831d54d205921d58594f30a31224", "type": "electric_scooter", "is_disabled": 0, "lat": 38.91402583333333, "rental_uris": {"ios": "https://dc.lft.to/lastmile_qr_scan", "android": "https://dc.lft.to/lastmile_qr_scan"}, "is_reserved": 0, "fusion_lon": 0.0, "fusion_lat": 0.0, "lon": -77.03451116666666, "name": "22c7831d54d205921d58594f30a31224"}, {"bike_id": "290be44c917d7d12a05b374151b33248", "type": "electric_scooter", "is_disabled": 0, "lat": 38.92061366666667, "rental_uris": {"ios": "https://dc.lft.to/lastmile_qr_scan", "android": "https://dc.lft.to/lastmile_qr_scan"}, "is_reserved": 0, "fusion_lon": 0.0, "fusion_lat": 0.0, "lon": -77.04406683333333, "name": "290be44c917d7d12a05b374151b33248"}, {"bike_id": "0987ca91183d4d0b9004932201ba9e2f", "type": "electric_scooter", "is_disabled": 0, "lat": 38.903248166666664, "rental_uris": {"ios": "https://dc.lft.to/lastmile_qr_scan", "android": "https://dc.lft.to/lastmile_qr_scan"}, "is_reserved": 0, "fusion_lon": 0.0, "fusion_lat": 0.0, "lon": -76.98286133333333, "name": "0987ca91183d4d0b9004932201ba9e2f"}, {"bike_id": "119fcc38cd3773fa052a2ef4c2bff01a", "type": "electric_scooter", "is_disabled": 0, "lat": 38.92323116666667, "rental_uris": {"ios": "https://dc.lft.to/lastmile_qr_scan", "android": "https://dc.lft.to/lastmile_qr_scan"}, "is_reserved": 0, "fusion_lon": 0.0, "fusion_lat": 0.0, "lon": -77.04045516666666, "name": "119fcc38cd3773fa052a2ef4c2bff01a"}, {"bike_id": "2747c12e1fca86dcf1d18a287b926205", "type": "electric_bike", "is_disabled": 0, "lat": 38.993457166666666, "rental_uris": {"ios": "https://dc.lft.to/lastmile_qr_scan", "android": "https://dc.lft.to/lastmile_qr_scan"}, "is_reserved": 0, "fusion_lon": 0.0, "fusion_lat": 0.0, "lon": -77.115753, "name": "2747c12e1fca86dcf1d18a287b926205"}, {"bike_id": "981328a344d129966983e8bc2da5852f", "type": "electric_scooter", "is_disabled": 0, "lat": 38.9357865, "rental_uris": {"ios": "https://dc.lft.to/lastmile_qr_scan", "android": "https://dc.lft.to/lastmile_qr_scan"}, "is_reserved": 0, "fusion_lon": 0.0, "fusion_lat": 0.0, "lon": -77.03359933333333, "name": "981328a344d129966983e8bc2da5852f"}, {"bike_id": "df413d20e678751d16b1bf34d5280cc3", "type": "electric_scooter", "is_disabled": 0, "lat": 38.91610033333333, "rental_uris": {"ios": "https://dc.lft.to/lastmile_qr_scan", "android": "https://dc.lft.to/lastmile_qr_scan"}, "is_reserved": 0, "fusion_lon": 0.0, "fusion_lat": 0.0, "lon": -77.03388633333333, "name": "df413d20e678751d16b1bf34d5280cc3"}, {"bike_id": "f3e2a0fac83249fd7a34d5cc03d500a6", "type": "electric_scooter", "is_disabled": 0, "lat": 38.878025, "rental_uris": {"ios": "https://dc.lft.to/lastmile_qr_scan", "android": "https://dc.lft.to/lastmile_qr_scan"}, "is_reserved": 0, "fusion_lon": 0.0, "fusion_lat": 0.0, "lon": -77.01747383333333, "name": "f3e2a0fac83249fd7a34d5cc03d500a6"}, {"bike_id": "c089c812243c2d3680410d69ae30ab56", "type": "electric_scooter", "is_disabled": 0, "lat": 38.924170333333336, "rental_uris": {"ios": "https://dc.lft.to/lastmile_qr_scan", "android": "https://dc.lft.to/lastmile_qr_scan"}, "is_reserved": 0, "fusion_lon": 0.0, "fusion_lat": 0.0, "lon": -77.05064216666666, "name": "c089c812243c2d3680410d69ae30ab56"}, {"bike_id": "0a7a45970a6974c453216940ad25cd5e", "type": "electric_scooter", "is_disabled": 0, "lat": 38.903979666666665, "rental_uris": {"ios": "https://dc.lft.to/lastmile_qr_scan", "android": "https://dc.lft.to/lastmile_qr_scan"}, "is_reserved": 0, "fusion_lon": 0.0, "fusion_lat": 0.0, "lon": -77.00556183333333, "name": "0a7a45970a6974c453216940ad25cd5e"}, {"bike_id": "d04df4d1c45d6b8ceb75262c0e83a0cb", "type": "electric_scooter", "is_disabled": 0, "lat": 38.902688166666664, "rental_uris": {"ios": "https://dc.lft.to/lastmile_qr_scan", "android": "https://dc.lft.to/lastmile_qr_scan"}, "is_reserved": 0, "fusion_lon": 0.0, "fusion_lat": 0.0, "lon": -77.02114216666666, "name": "d04df4d1c45d6b8ceb75262c0e83a0cb"}, {"bike_id": "0aabe354b6ccdec3dc0c037c4e2c9834", "type": "electric_scooter", "is_disabled": 0, "lat": 38.907368, "rental_uris": {"ios": "https://dc.lft.to/lastmile_qr_scan", "android": "https://dc.lft.to/lastmile_qr_scan"}, "is_reserved": 0, "fusion_lon": 0.0, "fusion_lat": 0.0, "lon": -77.02809283333333, "name": "0aabe354b6ccdec3dc0c037c4e2c9834"}, {"bike_id": "4b8b8a1057bd951fe36e351c4a294ed6", "type": "electric_bike", "is_disabled": 0, "lat": 38.8131125, "rental_uris": {"ios": "https://dc.lft.to/lastmile_qr_scan", "android": "https://dc.lft.to/lastmile_qr_scan"}, "is_reserved": 0, "fusion_lon": 0.0, "fusion_lat": 0.0, "lon": -77.1096505, "name": "4b8b8a1057bd951fe36e351c4a294ed6"}, {"bike_id": "69ce4a35d335f65daace7bb515121d33", "type": "electric_scooter", "is_disabled": 0, "lat": 38.89734966666666, "rental_uris": {"ios": "https://dc.lft.to/lastmile_qr_scan", "android": "https://dc.lft.to/lastmile_qr_scan"}, "is_reserved": 0, "fusion_lon": 0.0, "fusion_lat": 0.0, "lon": -77.04851766666667, "name": "69ce4a35d335f65daace7bb515121d33"}, {"bike_id": "79eec6a5172ebb02b5803051039d5c52", "type": "electric_scooter", "is_disabled": 0, "lat": 38.892234333333334, "rental_uris": {"ios": "https://dc.lft.to/lastmile_qr_scan", "android": "https://dc.lft.to/lastmile_qr_scan"}, "is_reserved": 0, "fusion_lon": 0.0, "fusion_lat": 0.0, "lon": -77.0155825, "name": "79eec6a5172ebb02b5803051039d5c52"}, {"bike_id": "e54495c4248dd7952a3ec12725218324", "type": "electric_scooter", "is_disabled": 0, "lat": 38.87636466666667, "rental_uris": {"ios": "https://dc.lft.to/lastmile_qr_scan", "android": "https://dc.lft.to/lastmile_qr_scan"}, "is_reserved": 0, "fusion_lon": 0.0, "fusion_lat": 0.0, "lon": -77.01692366666667, "name": "e54495c4248dd7952a3ec12725218324"}, {"bike_id": "c23e56898f08f7953df02a7098cb9d3f", "type": "electric_scooter", "is_disabled": 0, "lat": 38.88699533333333, "rental_uris": {"ios": "https://dc.lft.to/lastmile_qr_scan", "android": "https://dc.lft.to/lastmile_qr_scan"}, "is_reserved": 0, "fusion_lon": 0.0, "fusion_lat": 0.0, "lon": -76.99610833333334, "name": "c23e56898f08f7953df02a7098cb9d3f"}, {"bike_id": "504c7ffc60f3633a0b7110401d637a6b", "type": "electric_scooter", "is_disabled": 0, "lat": 38.90168283333333, "rental_uris": {"ios": "https://dc.lft.to/lastmile_qr_scan", "android": "https://dc.lft.to/lastmile_qr_scan"}, "is_reserved": 0, "fusion_lon": 0.0, "fusion_lat": 0.0, "lon": -76.930246, "name": "504c7ffc60f3633a0b7110401d637a6b"}, {"bike_id": "404d79c9a90c9c0795e3c73e6552a508", "type": "electric_scooter", "is_disabled": 0, "lat": 38.88709383333333, "rental_uris": {"ios": "https://dc.lft.to/lastmile_qr_scan", "android": "https://dc.lft.to/lastmile_qr_scan"}, "is_reserved": 0, "fusion_lon": 0.0, "fusion_lat": 0.0, "lon": -77.02205316666667, "name": "404d79c9a90c9c0795e3c73e6552a508"}, {"bike_id": "07aa43b23762d538c61716c0dccbdbe8", "type": "electric_scooter", "is_disabled": 0, "lat": 38.905361166666665, "rental_uris": {"ios": "https://dc.lft.to/lastmile_qr_scan", "android": "https://dc.lft.to/lastmile_qr_scan"}, "is_reserved": 0, "fusion_lon": 0.0, "fusion_lat": 0.0, "lon": -77.06010433333333, "name": "07aa43b23762d538c61716c0dccbdbe8"}, {"bike_id": "0cff87930c80cc9c9e0b940e5d35a2bb", "type": "electric_scooter", "is_disabled": 0, "lat": 38.93334216666667, "rental_uris": {"ios": "https://dc.lft.to/lastmile_qr_scan", "android": "https://dc.lft.to/lastmile_qr_scan"}, "is_reserved": 0, "fusion_lon": 0.0, "fusion_lat": 0.0, "lon": -77.045401, "name": "0cff87930c80cc9c9e0b940e5d35a2bb"}, {"bike_id": "9157daa0dddea1c31f6ef118d534407d", "type": "electric_scooter", "is_disabled": 0, "lat": 38.88711966666666, "rental_uris": {"ios": "https://dc.lft.to/lastmile_qr_scan", "android": "https://dc.lft.to/lastmile_qr_scan"}, "is_reserved": 0, "fusion_lon": 0.0, "fusion_lat": 0.0, "lon": -77.022015, "name": "9157daa0dddea1c31f6ef118d534407d"}, {"bike_id": "6e950f0b8c36040e64f628ddc41db692", "type": "electric_bike", "is_disabled": 0, "lat": 38.874807, "rental_uris": {"ios": "https://dc.lft.to/lastmile_qr_scan", "android": "https://dc.lft.to/lastmile_qr_scan"}, "is_reserved": 0, "fusion_lon": 0.0, "fusion_lat": 0.0, "lon": -76.96532466666666, "name": "6e950f0b8c36040e64f628ddc41db692"}, {"bike_id": "d825788390fd76bd6fb62de6454508de", "type": "electric_scooter", "is_disabled": 0, "lat": 38.956362166666665, "rental_uris": {"ios": "https://dc.lft.to/lastmile_qr_scan", "android": "https://dc.lft.to/lastmile_qr_scan"}, "is_reserved": 0, "fusion_lon": 0.0, "fusion_lat": 0.0, "lon": -77.01160416666667, "name": "d825788390fd76bd6fb62de6454508de"}, {"bike_id": "11df595aedf9ed6736dab82b0415b33f", "type": "electric_scooter", "is_disabled": 0, "lat": 38.92054483333333, "rental_uris": {"ios": "https://dc.lft.to/lastmile_qr_scan", "android": "https://dc.lft.to/lastmile_qr_scan"}, "is_reserved": 0, "fusion_lon": 0.0, "fusion_lat": 0.0, "lon": -76.99882916666667, "name": "11df595aedf9ed6736dab82b0415b33f"}, {"bike_id": "7315efc7c2c3aa35297e251a1a577608", "type": "electric_scooter", "is_disabled": 0, "lat": 38.9171255, "rental_uris": {"ios": "https://dc.lft.to/lastmile_qr_scan", "android": "https://dc.lft.to/lastmile_qr_scan"}, "is_reserved": 0, "fusion_lon": 0.0, "fusion_lat": 0.0, "lon": -77.03660783333333, "name": "7315efc7c2c3aa35297e251a1a577608"}, {"bike_id": "d161e9071d2c6afe8e26021a9f339f75", "type": "electric_scooter", "is_disabled": 0, "lat": 38.908647333333334, "rental_uris": {"ios": "https://dc.lft.to/lastmile_qr_scan", "android": "https://dc.lft.to/lastmile_qr_scan"}, "is_reserved": 0, "fusion_lon": 0.0, "fusion_lat": 0.0, "lon": -77.02693383333333, "name": "d161e9071d2c6afe8e26021a9f339f75"}, {"bike_id": "cdde45aa886d430f75cc4e7a4564dc94", "type": "electric_scooter", "is_disabled": 0, "lat": 38.91100733333333, "rental_uris": {"ios": "https://dc.lft.to/lastmile_qr_scan", "android": "https://dc.lft.to/lastmile_qr_scan"}, "is_reserved": 0, "fusion_lon": 0.0, "fusion_lat": 0.0, "lon": -77.02802116666666, "name": "cdde45aa886d430f75cc4e7a4564dc94"}, {"bike_id": "bf73c5e39d98d21f98b47357ff8fd9d1", "type": "electric_scooter", "is_disabled": 0, "lat": 38.92661833333333, "rental_uris": {"ios": "https://dc.lft.to/lastmile_qr_scan", "android": "https://dc.lft.to/lastmile_qr_scan"}, "is_reserved": 0, "fusion_lon": 0.0, "fusion_lat": 0.0, "lon": -77.03728783333334, "name": "bf73c5e39d98d21f98b47357ff8fd9d1"}, {"bike_id": "682a1a752a91c596d5216626312f9331", "type": "electric_scooter", "is_disabled": 0, "lat": 38.91553066666667, "rental_uris": {"ios": "https://dc.lft.to/lastmile_qr_scan", "android": "https://dc.lft.to/lastmile_qr_scan"}, "is_reserved": 0, "fusion_lon": 0.0, "fusion_lat": 0.0, "lon": -77.03205983333334, "name": "682a1a752a91c596d5216626312f9331"}, {"bike_id": "988bc441e987591a67f06c5b1dba13b0", "type": "electric_scooter", "is_disabled": 0, "lat": 38.90674116666667, "rental_uris": {"ios": "https://dc.lft.to/lastmile_qr_scan", "android": "https://dc.lft.to/lastmile_qr_scan"}, "is_reserved": 0, "fusion_lon": 0.0, "fusion_lat": 0.0, "lon": -77.0271695, "name": "988bc441e987591a67f06c5b1dba13b0"}, {"bike_id": "80b007953cc1804e36aab179a7c21b3f", "type": "electric_scooter", "is_disabled": 0, "lat": 38.928987, "rental_uris": {"ios": "https://dc.lft.to/lastmile_qr_scan", "android": "https://dc.lft.to/lastmile_qr_scan"}, "is_reserved": 0, "fusion_lon": 0.0, "fusion_lat": 0.0, "lon": -77.02583083333333, "name": "80b007953cc1804e36aab179a7c21b3f"}, {"bike_id": "e6434ac26e087ea8af754daebe8664bd", "type": "electric_scooter", "is_disabled": 0, "lat": 38.916718, "rental_uris": {"ios": "https://dc.lft.to/lastmile_qr_scan", "android": "https://dc.lft.to/lastmile_qr_scan"}, "is_reserved": 0, "fusion_lon": 0.0, "fusion_lat": 0.0, "lon": -77.0321035, "name": "e6434ac26e087ea8af754daebe8664bd"}, {"bike_id": "e1bd23c6f1469f7fcb00a57832a64e50", "type": "electric_scooter", "is_disabled": 0, "lat": 38.911239, "rental_uris": {"ios": "https://dc.lft.to/lastmile_qr_scan", "android": "https://dc.lft.to/lastmile_qr_scan"}, "is_reserved": 0, "fusion_lon": 0.0, "fusion_lat": 0.0, "lon": -77.04232933333333, "name": "e1bd23c6f1469f7fcb00a57832a64e50"}, {"bike_id": "bf9f9c8d29689e90b10c0e55617a791d", "type": "electric_scooter", "is_disabled": 0, "lat": 38.923604833333336, "rental_uris": {"ios": "https://dc.lft.to/lastmile_qr_scan", "android": "https://dc.lft.to/lastmile_qr_scan"}, "is_reserved": 0, "fusion_lon": 0.0, "fusion_lat": 0.0, "lon": -77.05130966666667, "name": "bf9f9c8d29689e90b10c0e55617a791d"}, {"bike_id": "cf909d1e2efb5221056c808e17f7dcce", "type": "electric_scooter", "is_disabled": 0, "lat": 38.90017816666666, "rental_uris": {"ios": "https://dc.lft.to/lastmile_qr_scan", "android": "https://dc.lft.to/lastmile_qr_scan"}, "is_reserved": 0, "fusion_lon": 0.0, "fusion_lat": 0.0, "lon": -77.04675883333333, "name": "cf909d1e2efb5221056c808e17f7dcce"}, {"bike_id": "d7c0d130fcc3d66364fb08fcd5ae26f8", "type": "electric_bike", "is_disabled": 0, "lat": 39.050575333333335, "rental_uris": {"ios": "https://dc.lft.to/lastmile_qr_scan", "android": "https://dc.lft.to/lastmile_qr_scan"}, "is_reserved": 0, "fusion_lon": 0.0, "fusion_lat": 0.0, "lon": -77.051475, "name": "d7c0d130fcc3d66364fb08fcd5ae26f8"}, {"bike_id": "cc00c29054281171eab3928b3d956042", "type": "electric_scooter", "is_disabled": 0, "lat": 38.90006016666667, "rental_uris": {"ios": "https://dc.lft.to/lastmile_qr_scan", "android": "https://dc.lft.to/lastmile_qr_scan"}, "is_reserved": 0, "fusion_lon": 0.0, "fusion_lat": 0.0, "lon": -77.04481366666667, "name": "cc00c29054281171eab3928b3d956042"}, {"bike_id": "a479101600999b8c7fafaf9a32691df6", "type": "electric_scooter", "is_disabled": 0, "lat": 38.893829833333335, "rental_uris": {"ios": "https://dc.lft.to/lastmile_qr_scan", "android": "https://dc.lft.to/lastmile_qr_scan"}, "is_reserved": 0, "fusion_lon": 0.0, "fusion_lat": 0.0, "lon": -77.02832166666667, "name": "a479101600999b8c7fafaf9a32691df6"}, {"bike_id": "b0930ffc1c06d201e87abae3bae8e0e8", "type": "electric_scooter", "is_disabled": 0, "lat": 38.914169666666666, "rental_uris": {"ios": "https://dc.lft.to/lastmile_qr_scan", "android": "https://dc.lft.to/lastmile_qr_scan"}, "is_reserved": 0, "fusion_lon": 0.0, "fusion_lat": 0.0, "lon": -77.0298575, "name": "b0930ffc1c06d201e87abae3bae8e0e8"}, {"bike_id": "611c64964b5129c03a6d4e9b189917b9", "type": "electric_scooter", "is_disabled": 0, "lat": 38.93246283333333, "rental_uris": {"ios": "https://dc.lft.to/lastmile_qr_scan", "android": "https://dc.lft.to/lastmile_qr_scan"}, "is_reserved": 0, "fusion_lon": 0.0, "fusion_lat": 0.0, "lon": -77.03853166666667, "name": "611c64964b5129c03a6d4e9b189917b9"}, {"bike_id": "6ba8f9a3d3fd7f2d91b9fb4da938dda2", "type": "electric_scooter", "is_disabled": 0, "lat": 38.9041185, "rental_uris": {"ios": "https://dc.lft.to/lastmile_qr_scan", "android": "https://dc.lft.to/lastmile_qr_scan"}, "is_reserved": 0, "fusion_lon": 0.0, "fusion_lat": 0.0, "lon": -76.97332783333333, "name": "6ba8f9a3d3fd7f2d91b9fb4da938dda2"}, {"bike_id": "74f63a24b13c63dd60de33d3586c3acf", "type": "electric_scooter", "is_disabled": 0, "lat": 38.88011216666666, "rental_uris": {"ios": "https://dc.lft.to/lastmile_qr_scan", "android": "https://dc.lft.to/lastmile_qr_scan"}, "is_reserved": 0, "fusion_lon": 0.0, "fusion_lat": 0.0, "lon": -77.02475833333334, "name": "74f63a24b13c63dd60de33d3586c3acf"}, {"bike_id": "ca8dbb9a6dfe37100057fddd6a24bb4a", "type": "electric_bike", "is_disabled": 0, "lat": 38.8324145, "rental_uris": {"ios": "https://dc.lft.to/lastmile_qr_scan", "android": "https://dc.lft.to/lastmile_qr_scan"}, "is_reserved": 0, "fusion_lon": 0.0, "fusion_lat": 0.0, "lon": -76.94619866666666, "name": "ca8dbb9a6dfe37100057fddd6a24bb4a"}, {"bike_id": "29a6cd2755853b33f3dd350ee90209f0", "type": "electric_scooter", "is_disabled": 0, "lat": 38.89797466666667, "rental_uris": {"ios": "https://dc.lft.to/lastmile_qr_scan", "android": "https://dc.lft.to/lastmile_qr_scan"}, "is_reserved": 0, "fusion_lon": 0.0, "fusion_lat": 0.0, "lon": -77.0119565, "name": "29a6cd2755853b33f3dd350ee90209f0"}, {"bike_id": "8220bb7152c613e6110abea4e2b99626", "type": "electric_scooter", "is_disabled": 0, "lat": 38.8953425, "rental_uris": {"ios": "https://dc.lft.to/lastmile_qr_scan", "android": "https://dc.lft.to/lastmile_qr_scan"}, "is_reserved": 0, "fusion_lon": 0.0, "fusion_lat": 0.0, "lon": -76.94932566666667, "name": "8220bb7152c613e6110abea4e2b99626"}, {"bike_id": "37d7611747353d66c36347175d4f9e6b", "type": "electric_scooter", "is_disabled": 0, "lat": 38.9244885, "rental_uris": {"ios": "https://dc.lft.to/lastmile_qr_scan", "android": "https://dc.lft.to/lastmile_qr_scan"}, "is_reserved": 0, "fusion_lon": 0.0, "fusion_lat": 0.0, "lon": -77.04115666666667, "name": "37d7611747353d66c36347175d4f9e6b"}, {"bike_id": "c5c2f9dd6415b7dfbfcb968a54787cd8", "type": "electric_scooter", "is_disabled": 0, "lat": 38.9232745, "rental_uris": {"ios": "https://dc.lft.to/lastmile_qr_scan", "android": "https://dc.lft.to/lastmile_qr_scan"}, "is_reserved": 0, "fusion_lon": 0.0, "fusion_lat": 0.0, "lon": -77.00053483333333, "name": "c5c2f9dd6415b7dfbfcb968a54787cd8"}, {"bike_id": "48caf3fbf83e7a024dca18121c000495", "type": "electric_scooter", "is_disabled": 0, "lat": 38.90064316666667, "rental_uris": {"ios": "https://dc.lft.to/lastmile_qr_scan", "android": "https://dc.lft.to/lastmile_qr_scan"}, "is_reserved": 0, "fusion_lon": 0.0, "fusion_lat": 0.0, "lon": -77.00705716666667, "name": "48caf3fbf83e7a024dca18121c000495"}, {"bike_id": "e5ea199f08d8539e8d4b057ae1ae5c48", "type": "electric_scooter", "is_disabled": 0, "lat": 38.919373666666665, "rental_uris": {"ios": "https://dc.lft.to/lastmile_qr_scan", "android": "https://dc.lft.to/lastmile_qr_scan"}, "is_reserved": 0, "fusion_lon": 0.0, "fusion_lat": 0.0, "lon": -77.04483566666667, "name": "e5ea199f08d8539e8d4b057ae1ae5c48"}, {"bike_id": "7a823ec0c87578a27aec588ec76417b1", "type": "electric_scooter", "is_disabled": 0, "lat": 38.92902633333333, "rental_uris": {"ios": "https://dc.lft.to/lastmile_qr_scan", "android": "https://dc.lft.to/lastmile_qr_scan"}, "is_reserved": 0, "fusion_lon": 0.0, "fusion_lat": 0.0, "lon": -77.03236366666667, "name": "7a823ec0c87578a27aec588ec76417b1"}, {"bike_id": "2a8ce0fad0f5d0513951c9f466fd214d", "type": "electric_scooter", "is_disabled": 0, "lat": 38.9069005, "rental_uris": {"ios": "https://dc.lft.to/lastmile_qr_scan", "android": "https://dc.lft.to/lastmile_qr_scan"}, "is_reserved": 0, "fusion_lon": 0.0, "fusion_lat": 0.0, "lon": -77.02690066666666, "name": "2a8ce0fad0f5d0513951c9f466fd214d"}, {"bike_id": "75b28a71a7288624d747b44544bca3b6", "type": "electric_scooter", "is_disabled": 0, "lat": 38.9274595, "rental_uris": {"ios": "https://dc.lft.to/lastmile_qr_scan", "android": "https://dc.lft.to/lastmile_qr_scan"}, "is_reserved": 0, "fusion_lon": 0.0, "fusion_lat": 0.0, "lon": -77.0357255, "name": "75b28a71a7288624d747b44544bca3b6"}, {"bike_id": "1dc482956fba8abf5f11b5fec3913b35", "type": "electric_scooter", "is_disabled": 0, "lat": 38.905465166666666, "rental_uris": {"ios": "https://dc.lft.to/lastmile_qr_scan", "android": "https://dc.lft.to/lastmile_qr_scan"}, "is_reserved": 0, "fusion_lon": 0.0, "fusion_lat": 0.0, "lon": -77.00590633333333, "name": "1dc482956fba8abf5f11b5fec3913b35"}, {"bike_id": "8f88f22f6d0a317a5c8188a0a7e2dc88", "type": "electric_scooter", "is_disabled": 0, "lat": 38.951878666666666, "rental_uris": {"ios": "https://dc.lft.to/lastmile_qr_scan", "android": "https://dc.lft.to/lastmile_qr_scan"}, "is_reserved": 0, "fusion_lon": 0.0, "fusion_lat": 0.0, "lon": -77.026117, "name": "8f88f22f6d0a317a5c8188a0a7e2dc88"}, {"bike_id": "a2d56d6e8a13da1fa5ebc58ff3aef4d0", "type": "electric_scooter", "is_disabled": 0, "lat": 38.902670666666666, "rental_uris": {"ios": "https://dc.lft.to/lastmile_qr_scan", "android": "https://dc.lft.to/lastmile_qr_scan"}, "is_reserved": 0, "fusion_lon": 0.0, "fusion_lat": 0.0, "lon": -77.01967833333333, "name": "a2d56d6e8a13da1fa5ebc58ff3aef4d0"}, {"bike_id": "22ba0fb47864172c20f2c5603530986e", "type": "electric_scooter", "is_disabled": 0, "lat": 38.923858833333334, "rental_uris": {"ios": "https://dc.lft.to/lastmile_qr_scan", "android": "https://dc.lft.to/lastmile_qr_scan"}, "is_reserved": 0, "fusion_lon": 0.0, "fusion_lat": 0.0, "lon": -77.03656883333333, "name": "22ba0fb47864172c20f2c5603530986e"}, {"bike_id": "00baa6f13cc4ef6bc89b017f9d071c8e", "type": "electric_scooter", "is_disabled": 0, "lat": 38.866567, "rental_uris": {"ios": "https://dc.lft.to/lastmile_qr_scan", "android": "https://dc.lft.to/lastmile_qr_scan"}, "is_reserved": 0, "fusion_lon": 0.0, "fusion_lat": 0.0, "lon": -76.98884983333333, "name": "00baa6f13cc4ef6bc89b017f9d071c8e"}, {"bike_id": "579b018c6561383200da371bb15b34bc", "type": "electric_bike", "is_disabled": 0, "lat": 38.94476133333333, "rental_uris": {"ios": "https://dc.lft.to/lastmile_qr_scan", "android": "https://dc.lft.to/lastmile_qr_scan"}, "is_reserved": 0, "fusion_lon": 0.0, "fusion_lat": 0.0, "lon": -76.98688283333334, "name": "579b018c6561383200da371bb15b34bc"}, {"bike_id": "cf2b1df25a6e173d3917462441342ca2", "type": "electric_scooter", "is_disabled": 0, "lat": 38.929117833333336, "rental_uris": {"ios": "https://dc.lft.to/lastmile_qr_scan", "android": "https://dc.lft.to/lastmile_qr_scan"}, "is_reserved": 0, "fusion_lon": 0.0, "fusion_lat": 0.0, "lon": -77.02269566666666, "name": "cf2b1df25a6e173d3917462441342ca2"}, {"bike_id": "b469c494980d4b4450fc8d25293b0053", "type": "electric_scooter", "is_disabled": 0, "lat": 38.90412666666667, "rental_uris": {"ios": "https://dc.lft.to/lastmile_qr_scan", "android": "https://dc.lft.to/lastmile_qr_scan"}, "is_reserved": 0, "fusion_lon": 0.0, "fusion_lat": 0.0, "lon": -76.97332766666666, "name": "b469c494980d4b4450fc8d25293b0053"}, {"bike_id": "2025dfb42ae525a47da086f6f4f0220d", "type": "electric_scooter", "is_disabled": 0, "lat": 38.91032666666667, "rental_uris": {"ios": "https://dc.lft.to/lastmile_qr_scan", "android": "https://dc.lft.to/lastmile_qr_scan"}, "is_reserved": 0, "fusion_lon": 0.0, "fusion_lat": 0.0, "lon": -76.98665983333333, "name": "2025dfb42ae525a47da086f6f4f0220d"}, {"bike_id": "1f91d8630ca824b089e394aa53bf67c5", "type": "electric_scooter", "is_disabled": 0, "lat": 38.90813983333334, "rental_uris": {"ios": "https://dc.lft.to/lastmile_qr_scan", "android": "https://dc.lft.to/lastmile_qr_scan"}, "is_reserved": 0, "fusion_lon": 0.0, "fusion_lat": 0.0, "lon": -77.04973183333334, "name": "1f91d8630ca824b089e394aa53bf67c5"}, {"bike_id": "a31b95eb1c058022019635378af36bbf", "type": "electric_scooter", "is_disabled": 0, "lat": 38.93011816666667, "rental_uris": {"ios": "https://dc.lft.to/lastmile_qr_scan", "android": "https://dc.lft.to/lastmile_qr_scan"}, "is_reserved": 0, "fusion_lon": 0.0, "fusion_lat": 0.0, "lon": -77.03776833333333, "name": "a31b95eb1c058022019635378af36bbf"}, {"bike_id": "94af6e223384218cacc63522922959ac", "type": "electric_scooter", "is_disabled": 0, "lat": 38.90416783333333, "rental_uris": {"ios": "https://dc.lft.to/lastmile_qr_scan", "android": "https://dc.lft.to/lastmile_qr_scan"}, "is_reserved": 0, "fusion_lon": 0.0, "fusion_lat": 0.0, "lon": -77.06879, "name": "94af6e223384218cacc63522922959ac"}, {"bike_id": "760a501e83b9eb5a0062b7fc448955ce", "type": "electric_scooter", "is_disabled": 0, "lat": 38.92333566666667, "rental_uris": {"ios": "https://dc.lft.to/lastmile_qr_scan", "android": "https://dc.lft.to/lastmile_qr_scan"}, "is_reserved": 0, "fusion_lon": 0.0, "fusion_lat": 0.0, "lon": -77.03782716666667, "name": "760a501e83b9eb5a0062b7fc448955ce"}, {"bike_id": "9440aeb9e259b8b115e6cab451ad60e9", "type": "electric_scooter", "is_disabled": 0, "lat": 38.924557, "rental_uris": {"ios": "https://dc.lft.to/lastmile_qr_scan", "android": "https://dc.lft.to/lastmile_qr_scan"}, "is_reserved": 0, "fusion_lon": 0.0, "fusion_lat": 0.0, "lon": -77.0240795, "name": "9440aeb9e259b8b115e6cab451ad60e9"}, {"bike_id": "3b8dd640a6b30b1be6b2c0f580e32f7f", "type": "electric_scooter", "is_disabled": 0, "lat": 38.873361833333334, "rental_uris": {"ios": "https://dc.lft.to/lastmile_qr_scan", "android": "https://dc.lft.to/lastmile_qr_scan"}, "is_reserved": 0, "fusion_lon": 0.0, "fusion_lat": 0.0, "lon": -76.967869, "name": "3b8dd640a6b30b1be6b2c0f580e32f7f"}, {"bike_id": "36b57f050079a22d79c7cb8fbc3ea691", "type": "electric_scooter", "is_disabled": 0, "lat": 38.87715133333333, "rental_uris": {"ios": "https://dc.lft.to/lastmile_qr_scan", "android": "https://dc.lft.to/lastmile_qr_scan"}, "is_reserved": 0, "fusion_lon": 0.0, "fusion_lat": 0.0, "lon": -77.02006383333334, "name": "36b57f050079a22d79c7cb8fbc3ea691"}, {"bike_id": "b0d1baeafa66efaef62d6de53a7456c2", "type": "electric_scooter", "is_disabled": 0, "lat": 38.929011333333335, "rental_uris": {"ios": "https://dc.lft.to/lastmile_qr_scan", "android": "https://dc.lft.to/lastmile_qr_scan"}, "is_reserved": 0, "fusion_lon": 0.0, "fusion_lat": 0.0, "lon": -77.0545815, "name": "b0d1baeafa66efaef62d6de53a7456c2"}, {"bike_id": "a97d3e92e45854aa4b1c2902f18e9478", "type": "electric_scooter", "is_disabled": 0, "lat": 38.9562615, "rental_uris": {"ios": "https://dc.lft.to/lastmile_qr_scan", "android": "https://dc.lft.to/lastmile_qr_scan"}, "is_reserved": 0, "fusion_lon": 0.0, "fusion_lat": 0.0, "lon": -77.036182, "name": "a97d3e92e45854aa4b1c2902f18e9478"}, {"bike_id": "db5cd0bdf074a68eb25f8384b7b67b0c", "type": "electric_scooter", "is_disabled": 0, "lat": 38.87916166666667, "rental_uris": {"ios": "https://dc.lft.to/lastmile_qr_scan", "android": "https://dc.lft.to/lastmile_qr_scan"}, "is_reserved": 0, "fusion_lon": 0.0, "fusion_lat": 0.0, "lon": -77.00881166666667, "name": "db5cd0bdf074a68eb25f8384b7b67b0c"}, {"bike_id": "1608847ac5926be812c3415c3a6c5466", "type": "electric_scooter", "is_disabled": 0, "lat": 38.937569333333336, "rental_uris": {"ios": "https://dc.lft.to/lastmile_qr_scan", "android": "https://dc.lft.to/lastmile_qr_scan"}, "is_reserved": 0, "fusion_lon": 0.0, "fusion_lat": 0.0, "lon": -77.02474816666667, "name": "1608847ac5926be812c3415c3a6c5466"}, {"bike_id": "66983cd8bf4fb6157bd5fe2444d3028c", "type": "electric_scooter", "is_disabled": 0, "lat": 38.93134666666667, "rental_uris": {"ios": "https://dc.lft.to/lastmile_qr_scan", "android": "https://dc.lft.to/lastmile_qr_scan"}, "is_reserved": 0, "fusion_lon": 0.0, "fusion_lat": 0.0, "lon": -77.02800816666667, "name": "66983cd8bf4fb6157bd5fe2444d3028c"}, {"bike_id": "b6c50bfd91363ccc3aff10ee2721a5ce", "type": "electric_scooter", "is_disabled": 0, "lat": 38.9012505, "rental_uris": {"ios": "https://dc.lft.to/lastmile_qr_scan", "android": "https://dc.lft.to/lastmile_qr_scan"}, "is_reserved": 0, "fusion_lon": 0.0, "fusion_lat": 0.0, "lon": -76.92952716666667, "name": "b6c50bfd91363ccc3aff10ee2721a5ce"}, {"bike_id": "ed13f2045002563f139f95be1a39b08a", "type": "electric_scooter", "is_disabled": 0, "lat": 38.90278, "rental_uris": {"ios": "https://dc.lft.to/lastmile_qr_scan", "android": "https://dc.lft.to/lastmile_qr_scan"}, "is_reserved": 0, "fusion_lon": 0.0, "fusion_lat": 0.0, "lon": -77.0032515, "name": "ed13f2045002563f139f95be1a39b08a"}, {"bike_id": "644750329e8d31d50a2c060139bac3ad", "type": "electric_bike", "is_disabled": 0, "lat": 38.9739885, "rental_uris": {"ios": "https://dc.lft.to/lastmile_qr_scan", "android": "https://dc.lft.to/lastmile_qr_scan"}, "is_reserved": 0, "fusion_lon": 0.0, "fusion_lat": 0.0, "lon": -77.06452383333334, "name": "644750329e8d31d50a2c060139bac3ad"}, {"bike_id": "6e97d1bf2cf25d596e4a57058db56dd3", "type": "electric_scooter", "is_disabled": 0, "lat": 38.917160333333335, "rental_uris": {"ios": "https://dc.lft.to/lastmile_qr_scan", "android": "https://dc.lft.to/lastmile_qr_scan"}, "is_reserved": 0, "fusion_lon": 0.0, "fusion_lat": 0.0, "lon": -77.034668, "name": "6e97d1bf2cf25d596e4a57058db56dd3"}, {"bike_id": "51ef0f14a3aed509e9840569c4512671", "type": "electric_scooter", "is_disabled": 0, "lat": 38.90659683333333, "rental_uris": {"ios": "https://dc.lft.to/lastmile_qr_scan", "android": "https://dc.lft.to/lastmile_qr_scan"}, "is_reserved": 0, "fusion_lon": 0.0, "fusion_lat": 0.0, "lon": -77.01412733333333, "name": "51ef0f14a3aed509e9840569c4512671"}, {"bike_id": "c915a0d26a4ecc4b6583d65ee1491042", "type": "electric_scooter", "is_disabled": 0, "lat": 38.9353805, "rental_uris": {"ios": "https://dc.lft.to/lastmile_qr_scan", "android": "https://dc.lft.to/lastmile_qr_scan"}, "is_reserved": 0, "fusion_lon": 0.0, "fusion_lat": 0.0, "lon": -77.0388755, "name": "c915a0d26a4ecc4b6583d65ee1491042"}, {"bike_id": "c5bec418507965c53c91c391f5330c62", "type": "electric_scooter", "is_disabled": 0, "lat": 38.926213, "rental_uris": {"ios": "https://dc.lft.to/lastmile_qr_scan", "android": "https://dc.lft.to/lastmile_qr_scan"}, "is_reserved": 0, "fusion_lon": 0.0, "fusion_lat": 0.0, "lon": -77.04330666666667, "name": "c5bec418507965c53c91c391f5330c62"}, {"bike_id": "53a86f1436f8d820d35e1c255582d608", "type": "electric_scooter", "is_disabled": 0, "lat": 38.899968333333334, "rental_uris": {"ios": "https://dc.lft.to/lastmile_qr_scan", "android": "https://dc.lft.to/lastmile_qr_scan"}, "is_reserved": 0, "fusion_lon": 0.0, "fusion_lat": 0.0, "lon": -77.00193983333334, "name": "53a86f1436f8d820d35e1c255582d608"}, {"bike_id": "017c97c6cfb9cd26b2928cd00508a9a9", "type": "electric_scooter", "is_disabled": 0, "lat": 38.907971, "rental_uris": {"ios": "https://dc.lft.to/lastmile_qr_scan", "android": "https://dc.lft.to/lastmile_qr_scan"}, "is_reserved": 0, "fusion_lon": 0.0, "fusion_lat": 0.0, "lon": -77.03126233333333, "name": "017c97c6cfb9cd26b2928cd00508a9a9"}, {"bike_id": "9e8444ee8e406b50a08a06ff6dcd714d", "type": "electric_bike", "is_disabled": 0, "lat": 38.9465175, "rental_uris": {"ios": "https://dc.lft.to/lastmile_qr_scan", "android": "https://dc.lft.to/lastmile_qr_scan"}, "is_reserved": 0, "fusion_lon": 0.0, "fusion_lat": 0.0, "lon": -76.99489933333334, "name": "9e8444ee8e406b50a08a06ff6dcd714d"}, {"bike_id": "de77cf427a09b66b7b8bd6a8a7858f8a", "type": "electric_scooter", "is_disabled": 0, "lat": 38.91012116666667, "rental_uris": {"ios": "https://dc.lft.to/lastmile_qr_scan", "android": "https://dc.lft.to/lastmile_qr_scan"}, "is_reserved": 0, "fusion_lon": 0.0, "fusion_lat": 0.0, "lon": -77.01624116666666, "name": "de77cf427a09b66b7b8bd6a8a7858f8a"}, {"bike_id": "e596ad1b8e5b2dac81a41f61657fb61a", "type": "electric_scooter", "is_disabled": 0, "lat": 38.91818283333333, "rental_uris": {"ios": "https://dc.lft.to/lastmile_qr_scan", "android": "https://dc.lft.to/lastmile_qr_scan"}, "is_reserved": 0, "fusion_lon": 0.0, "fusion_lat": 0.0, "lon": -77.0325165, "name": "e596ad1b8e5b2dac81a41f61657fb61a"}, {"bike_id": "2e949e8412eed27341566ce86d1b12d0", "type": "electric_scooter", "is_disabled": 0, "lat": 38.9141805, "rental_uris": {"ios": "https://dc.lft.to/lastmile_qr_scan", "android": "https://dc.lft.to/lastmile_qr_scan"}, "is_reserved": 0, "fusion_lon": 0.0, "fusion_lat": 0.0, "lon": -77.022878, "name": "2e949e8412eed27341566ce86d1b12d0"}, {"bike_id": "19681974f796f42966cff4664d7ac477", "type": "electric_scooter", "is_disabled": 0, "lat": 38.90514866666667, "rental_uris": {"ios": "https://dc.lft.to/lastmile_qr_scan", "android": "https://dc.lft.to/lastmile_qr_scan"}, "is_reserved": 0, "fusion_lon": 0.0, "fusion_lat": 0.0, "lon": -77.029788, "name": "19681974f796f42966cff4664d7ac477"}, {"bike_id": "e99752967874207e0584c3bda39ef423", "type": "electric_scooter", "is_disabled": 0, "lat": 38.911458, "rental_uris": {"ios": "https://dc.lft.to/lastmile_qr_scan", "android": "https://dc.lft.to/lastmile_qr_scan"}, "is_reserved": 0, "fusion_lon": 0.0, "fusion_lat": 0.0, "lon": -77.02806316666667, "name": "e99752967874207e0584c3bda39ef423"}, {"bike_id": "a42825c36fa2d1fd94defb574392205e", "type": "electric_scooter", "is_disabled": 0, "lat": 38.8953375, "rental_uris": {"ios": "https://dc.lft.to/lastmile_qr_scan", "android": "https://dc.lft.to/lastmile_qr_scan"}, "is_reserved": 0, "fusion_lon": 0.0, "fusion_lat": 0.0, "lon": -76.94891033333333, "name": "a42825c36fa2d1fd94defb574392205e"}, {"bike_id": "3ddefc5077aa0b622c7201468f2c7730", "type": "electric_scooter", "is_disabled": 0, "lat": 38.907984666666664, "rental_uris": {"ios": "https://dc.lft.to/lastmile_qr_scan", "android": "https://dc.lft.to/lastmile_qr_scan"}, "is_reserved": 0, "fusion_lon": 0.0, "fusion_lat": 0.0, "lon": -77.01009433333333, "name": "3ddefc5077aa0b622c7201468f2c7730"}, {"bike_id": "67adddd0dcf3b3e707e5ed021e53cbd7", "type": "electric_scooter", "is_disabled": 0, "lat": 38.923634666666665, "rental_uris": {"ios": "https://dc.lft.to/lastmile_qr_scan", "android": "https://dc.lft.to/lastmile_qr_scan"}, "is_reserved": 0, "fusion_lon": 0.0, "fusion_lat": 0.0, "lon": -77.05129083333334, "name": "67adddd0dcf3b3e707e5ed021e53cbd7"}, {"bike_id": "a6914f264ffb0370750de9757893a90a", "type": "electric_scooter", "is_disabled": 0, "lat": 38.916970166666665, "rental_uris": {"ios": "https://dc.lft.to/lastmile_qr_scan", "android": "https://dc.lft.to/lastmile_qr_scan"}, "is_reserved": 0, "fusion_lon": 0.0, "fusion_lat": 0.0, "lon": -77.01051583333333, "name": "a6914f264ffb0370750de9757893a90a"}, {"bike_id": "e666400cf1c1b7d5c90bd0a42e0eec58", "type": "electric_scooter", "is_disabled": 0, "lat": 38.928643, "rental_uris": {"ios": "https://dc.lft.to/lastmile_qr_scan", "android": "https://dc.lft.to/lastmile_qr_scan"}, "is_reserved": 0, "fusion_lon": 0.0, "fusion_lat": 0.0, "lon": -77.037097, "name": "e666400cf1c1b7d5c90bd0a42e0eec58"}, {"bike_id": "f22ffa3b85f29bcd16b08f846a619d96", "type": "electric_scooter", "is_disabled": 0, "lat": 38.91900433333333, "rental_uris": {"ios": "https://dc.lft.to/lastmile_qr_scan", "android": "https://dc.lft.to/lastmile_qr_scan"}, "is_reserved": 0, "fusion_lon": 0.0, "fusion_lat": 0.0, "lon": -77.0031735, "name": "f22ffa3b85f29bcd16b08f846a619d96"}, {"bike_id": "c56a5533bf08c0456ad1d24262b43f28", "type": "electric_scooter", "is_disabled": 0, "lat": 38.902062666666666, "rental_uris": {"ios": "https://dc.lft.to/lastmile_qr_scan", "android": "https://dc.lft.to/lastmile_qr_scan"}, "is_reserved": 0, "fusion_lon": 0.0, "fusion_lat": 0.0, "lon": -77.05133483333333, "name": "c56a5533bf08c0456ad1d24262b43f28"}, {"bike_id": "025f6b1671e39d5fc373397be31a8e22", "type": "electric_scooter", "is_disabled": 0, "lat": 38.92222983333333, "rental_uris": {"ios": "https://dc.lft.to/lastmile_qr_scan", "android": "https://dc.lft.to/lastmile_qr_scan"}, "is_reserved": 0, "fusion_lon": 0.0, "fusion_lat": 0.0, "lon": -77.02666833333333, "name": "025f6b1671e39d5fc373397be31a8e22"}, {"bike_id": "eaa27e4c671ee629b315e1b241098c73", "type": "electric_scooter", "is_disabled": 0, "lat": 38.90264333333333, "rental_uris": {"ios": "https://dc.lft.to/lastmile_qr_scan", "android": "https://dc.lft.to/lastmile_qr_scan"}, "is_reserved": 0, "fusion_lon": 0.0, "fusion_lat": 0.0, "lon": -77.00329783333333, "name": "eaa27e4c671ee629b315e1b241098c73"}, {"bike_id": "accd3d2896ca1a947de6147b163130d5", "type": "electric_scooter", "is_disabled": 0, "lat": 38.918918166666664, "rental_uris": {"ios": "https://dc.lft.to/lastmile_qr_scan", "android": "https://dc.lft.to/lastmile_qr_scan"}, "is_reserved": 0, "fusion_lon": 0.0, "fusion_lat": 0.0, "lon": -77.034838, "name": "accd3d2896ca1a947de6147b163130d5"}, {"bike_id": "f303adf9a79d7df7357ac20bb99f4e9e", "type": "electric_scooter", "is_disabled": 0, "lat": 38.94050466666667, "rental_uris": {"ios": "https://dc.lft.to/lastmile_qr_scan", "android": "https://dc.lft.to/lastmile_qr_scan"}, "is_reserved": 0, "fusion_lon": 0.0, "fusion_lat": 0.0, "lon": -77.02977533333333, "name": "f303adf9a79d7df7357ac20bb99f4e9e"}, {"bike_id": "ab691fd687696e6fc21c11c0ebb550c1", "type": "electric_scooter", "is_disabled": 0, "lat": 38.89982966666667, "rental_uris": {"ios": "https://dc.lft.to/lastmile_qr_scan", "android": "https://dc.lft.to/lastmile_qr_scan"}, "is_reserved": 0, "fusion_lon": 0.0, "fusion_lat": 0.0, "lon": -77.02384883333333, "name": "ab691fd687696e6fc21c11c0ebb550c1"}, {"bike_id": "769908541aaa57ec23d7ce2d3676c9fb", "type": "electric_scooter", "is_disabled": 0, "lat": 38.9097405, "rental_uris": {"ios": "https://dc.lft.to/lastmile_qr_scan", "android": "https://dc.lft.to/lastmile_qr_scan"}, "is_reserved": 0, "fusion_lon": 0.0, "fusion_lat": 0.0, "lon": -77.03212783333333, "name": "769908541aaa57ec23d7ce2d3676c9fb"}, {"bike_id": "7ec0c4016c441ea6e69b3800ce9cd8a3", "type": "electric_scooter", "is_disabled": 0, "lat": 38.92237166666666, "rental_uris": {"ios": "https://dc.lft.to/lastmile_qr_scan", "android": "https://dc.lft.to/lastmile_qr_scan"}, "is_reserved": 0, "fusion_lon": 0.0, "fusion_lat": 0.0, "lon": -77.0441765, "name": "7ec0c4016c441ea6e69b3800ce9cd8a3"}, {"bike_id": "50aac9c1ce29a17981b9a4d33c6a77f7", "type": "electric_scooter", "is_disabled": 0, "lat": 38.92845466666667, "rental_uris": {"ios": "https://dc.lft.to/lastmile_qr_scan", "android": "https://dc.lft.to/lastmile_qr_scan"}, "is_reserved": 0, "fusion_lon": 0.0, "fusion_lat": 0.0, "lon": -77.03292683333333, "name": "50aac9c1ce29a17981b9a4d33c6a77f7"}, {"bike_id": "c61bade1d35e080811b35472754cfee8", "type": "electric_scooter", "is_disabled": 0, "lat": 38.904844833333335, "rental_uris": {"ios": "https://dc.lft.to/lastmile_qr_scan", "android": "https://dc.lft.to/lastmile_qr_scan"}, "is_reserved": 0, "fusion_lon": 0.0, "fusion_lat": 0.0, "lon": -77.00715416666667, "name": "c61bade1d35e080811b35472754cfee8"}, {"bike_id": "619bf82dceb2210a6a4c688d9eec568b", "type": "electric_scooter", "is_disabled": 0, "lat": 38.90079266666667, "rental_uris": {"ios": "https://dc.lft.to/lastmile_qr_scan", "android": "https://dc.lft.to/lastmile_qr_scan"}, "is_reserved": 0, "fusion_lon": 0.0, "fusion_lat": 0.0, "lon": -77.0475975, "name": "619bf82dceb2210a6a4c688d9eec568b"}, {"bike_id": "3ad9d4064345e16410ade90453b04deb", "type": "electric_scooter", "is_disabled": 0, "lat": 38.9429325, "rental_uris": {"ios": "https://dc.lft.to/lastmile_qr_scan", "android": "https://dc.lft.to/lastmile_qr_scan"}, "is_reserved": 0, "fusion_lon": 0.0, "fusion_lat": 0.0, "lon": -77.02172016666667, "name": "3ad9d4064345e16410ade90453b04deb"}, {"bike_id": "59fd210e029e1dc1d3526755fcabe786", "type": "electric_scooter", "is_disabled": 0, "lat": 38.917448, "rental_uris": {"ios": "https://dc.lft.to/lastmile_qr_scan", "android": "https://dc.lft.to/lastmile_qr_scan"}, "is_reserved": 0, "fusion_lon": 0.0, "fusion_lat": 0.0, "lon": -77.01709216666667, "name": "59fd210e029e1dc1d3526755fcabe786"}, {"bike_id": "f2e2f2b64842af0e388d9bcfb7e4c58e", "type": "electric_scooter", "is_disabled": 0, "lat": 38.927223, "rental_uris": {"ios": "https://dc.lft.to/lastmile_qr_scan", "android": "https://dc.lft.to/lastmile_qr_scan"}, "is_reserved": 0, "fusion_lon": 0.0, "fusion_lat": 0.0, "lon": -77.03989566666667, "name": "f2e2f2b64842af0e388d9bcfb7e4c58e"}, {"bike_id": "85977ad2bd4f140dd1db2463438b2b7c", "type": "electric_scooter", "is_disabled": 0, "lat": 38.917501333333334, "rental_uris": {"ios": "https://dc.lft.to/lastmile_qr_scan", "android": "https://dc.lft.to/lastmile_qr_scan"}, "is_reserved": 0, "fusion_lon": 0.0, "fusion_lat": 0.0, "lon": -77.02285116666667, "name": "85977ad2bd4f140dd1db2463438b2b7c"}, {"bike_id": "80a94e60b371a55d9c847d8386a8d7a9", "type": "electric_scooter", "is_disabled": 0, "lat": 38.91377266666667, "rental_uris": {"ios": "https://dc.lft.to/lastmile_qr_scan", "android": "https://dc.lft.to/lastmile_qr_scan"}, "is_reserved": 0, "fusion_lon": 0.0, "fusion_lat": 0.0, "lon": -77.0413555, "name": "80a94e60b371a55d9c847d8386a8d7a9"}, {"bike_id": "0d71a7ff59fbaaf7adbcca43b75b15f1", "type": "electric_scooter", "is_disabled": 0, "lat": 38.90826333333333, "rental_uris": {"ios": "https://dc.lft.to/lastmile_qr_scan", "android": "https://dc.lft.to/lastmile_qr_scan"}, "is_reserved": 0, "fusion_lon": 0.0, "fusion_lat": 0.0, "lon": -76.94159283333333, "name": "0d71a7ff59fbaaf7adbcca43b75b15f1"}, {"bike_id": "d620eeee61fe5a891aab0e1a8b5b9a0c", "type": "electric_bike", "is_disabled": 0, "lat": 38.8727585, "rental_uris": {"ios": "https://dc.lft.to/lastmile_qr_scan", "android": "https://dc.lft.to/lastmile_qr_scan"}, "is_reserved": 0, "fusion_lon": 0.0, "fusion_lat": 0.0, "lon": -77.233288, "name": "d620eeee61fe5a891aab0e1a8b5b9a0c"}, {"bike_id": "fcf8b18027f8ee758a5fedb335ef786b", "type": "electric_scooter", "is_disabled": 0, "lat": 38.91414616666667, "rental_uris": {"ios": "https://dc.lft.to/lastmile_qr_scan", "android": "https://dc.lft.to/lastmile_qr_scan"}, "is_reserved": 0, "fusion_lon": 0.0, "fusion_lat": 0.0, "lon": -77.04134833333333, "name": "fcf8b18027f8ee758a5fedb335ef786b"}, {"bike_id": "c256974e8c2700fe11a06c0505f853c9", "type": "electric_bike", "is_disabled": 0, "lat": 38.96474083333333, "rental_uris": {"ios": "https://dc.lft.to/lastmile_qr_scan", "android": "https://dc.lft.to/lastmile_qr_scan"}, "is_reserved": 0, "fusion_lon": 0.0, "fusion_lat": 0.0, "lon": -77.03562383333333, "name": "c256974e8c2700fe11a06c0505f853c9"}, {"bike_id": "ee8db5fc8406c1d2a24feecd6528278f", "type": "electric_scooter", "is_disabled": 0, "lat": 38.885656166666664, "rental_uris": {"ios": "https://dc.lft.to/lastmile_qr_scan", "android": "https://dc.lft.to/lastmile_qr_scan"}, "is_reserved": 0, "fusion_lon": 0.0, "fusion_lat": 0.0, "lon": -77.0020875, "name": "ee8db5fc8406c1d2a24feecd6528278f"}, {"bike_id": "05333641a9217e13b5f7f8c746241b7c", "type": "electric_scooter", "is_disabled": 0, "lat": 38.92861933333333, "rental_uris": {"ios": "https://dc.lft.to/lastmile_qr_scan", "android": "https://dc.lft.to/lastmile_qr_scan"}, "is_reserved": 0, "fusion_lon": 0.0, "fusion_lat": 0.0, "lon": -77.03705383333333, "name": "05333641a9217e13b5f7f8c746241b7c"}, {"bike_id": "07dea3c2b2b557df023ae40d29789711", "type": "electric_scooter", "is_disabled": 0, "lat": 38.933747, "rental_uris": {"ios": "https://dc.lft.to/lastmile_qr_scan", "android": "https://dc.lft.to/lastmile_qr_scan"}, "is_reserved": 0, "fusion_lon": 0.0, "fusion_lat": 0.0, "lon": -77.02383566666667, "name": "07dea3c2b2b557df023ae40d29789711"}, {"bike_id": "9419745a422d5c715d47f8a2b2ee978c", "type": "electric_scooter", "is_disabled": 0, "lat": 38.92483566666667, "rental_uris": {"ios": "https://dc.lft.to/lastmile_qr_scan", "android": "https://dc.lft.to/lastmile_qr_scan"}, "is_reserved": 0, "fusion_lon": 0.0, "fusion_lat": 0.0, "lon": -77.0271215, "name": "9419745a422d5c715d47f8a2b2ee978c"}, {"bike_id": "410df5971426bedefe5ddd31c94de611", "type": "electric_scooter", "is_disabled": 0, "lat": 38.931095666666664, "rental_uris": {"ios": "https://dc.lft.to/lastmile_qr_scan", "android": "https://dc.lft.to/lastmile_qr_scan"}, "is_reserved": 0, "fusion_lon": 0.0, "fusion_lat": 0.0, "lon": -77.03787483333333, "name": "410df5971426bedefe5ddd31c94de611"}, {"bike_id": "477138c25bf2b742371cc97e60450df6", "type": "electric_scooter", "is_disabled": 0, "lat": 38.87680233333333, "rental_uris": {"ios": "https://dc.lft.to/lastmile_qr_scan", "android": "https://dc.lft.to/lastmile_qr_scan"}, "is_reserved": 0, "fusion_lon": 0.0, "fusion_lat": 0.0, "lon": -77.0198375, "name": "477138c25bf2b742371cc97e60450df6"}, {"bike_id": "fc5b74c3ce3e2660a3bc9f105918e728", "type": "electric_scooter", "is_disabled": 0, "lat": 38.928713, "rental_uris": {"ios": "https://dc.lft.to/lastmile_qr_scan", "android": "https://dc.lft.to/lastmile_qr_scan"}, "is_reserved": 0, "fusion_lon": 0.0, "fusion_lat": 0.0, "lon": -77.02176216666666, "name": "fc5b74c3ce3e2660a3bc9f105918e728"}, {"bike_id": "de697146edcac7b83d9a5ee381b8d777", "type": "electric_scooter", "is_disabled": 0, "lat": 38.92321916666667, "rental_uris": {"ios": "https://dc.lft.to/lastmile_qr_scan", "android": "https://dc.lft.to/lastmile_qr_scan"}, "is_reserved": 0, "fusion_lon": 0.0, "fusion_lat": 0.0, "lon": -77.00891016666667, "name": "de697146edcac7b83d9a5ee381b8d777"}, {"bike_id": "0777df95b35efdd5f5940423f92611a6", "type": "electric_scooter", "is_disabled": 0, "lat": 38.90188666666667, "rental_uris": {"ios": "https://dc.lft.to/lastmile_qr_scan", "android": "https://dc.lft.to/lastmile_qr_scan"}, "is_reserved": 0, "fusion_lon": 0.0, "fusion_lat": 0.0, "lon": -77.039571, "name": "0777df95b35efdd5f5940423f92611a6"},