{"data": {"bikes": [{"fusion_lat": 0.0, "type": "electric_scooter", "name": "832489238db6a8749a0c74940fd12e18", "fusion_lon": 0.0, "bike_id": "832489238db6a8749a0c74940fd12e18", "is_reserved": 0, "rental_uris": {"android": "https://dc.lft.to/lastmile_qr_scan", "ios": "https://dc.lft.to/lastmile_qr_scan"}, "lat": 38.924982666666665, "is_disabled": 0, "lon": -77.0244145}, {"fusion_lat": 0.0, "type": "electric_scooter", "name": "a6473eafa302180e1da86d8890df944c", "fusion_lon": 0.0, "bike_id": "a6473eafa302180e1da86d8890df944c", "is_reserved": 0, "rental_uris": {"android": "https://dc.lft.to/lastmile_qr_scan", "ios": "https://dc.lft.to/lastmile_qr_scan"}, "lat": 38.924710166666664, "is_disabled": 0, "lon": -77.02836633333334}, {"fusion_lat": 0.0, "type": "electric_scooter", "name": "4dde6bf11dc74645ae8873af1a9875a1", "fusion_lon": 0.0, "bike_id": "4dde6bf11dc74645ae8873af1a9875a1", "is_reserved": 0, "rental_uris": {"android": "https://dc.lft.to/lastmile_qr_scan", "ios": "https://dc.lft.to/lastmile_qr_scan"}, "lat": 38.908925833333335, "is_disabled": 0, "lon": -77.0040975}, {"fusion_lat": 0.0, "type": "electric_scooter", "name": "155a4b44f49b3a831d31ff5baf12ea51", "fusion_lon": 0.0, "bike_id": "155a4b44f49b3a831d31ff5baf12ea51", "is_reserved": 0, "rental_uris": {"android": "https://dc.lft.to/lastmile_qr_scan", "ios": "https://dc.lft.to/lastmile_qr_scan"}, "lat": 38.915871833333334, "is_disabled": 0, "lon": -77.044836}, {"fusion_lat": 0.0, "type": "electric_scooter", "name": "c220effe46cfb0b36c723bf8463aca5f", "fusion_lon": 0.0, "bike_id": "c220effe46cfb0b36c723bf8463aca5f", "is_reserved": 0, "rental_uris": {"android": "https://dc.lft.to/lastmile_qr_scan", "ios": "https://dc.lft.to/lastmile_qr_scan"}, "lat": 38.8851295, "is_disabled": 0, "lon": -77.01597233333334}, {"fusion_lat": 0.0, "type": "electric_scooter", "name": "b5451909920ecae53fbed41f974704bc", "fusion_lon": 0.0, "bike_id": "b5451909920ecae53fbed41f974704bc", "is_reserved": 0, "rental_uris": {"android": "https://dc.lft.to/lastmile_qr_scan", "ios": "https://dc.lft.to/lastmile_qr_scan"}, "lat": 38.88875266666667, "is_disabled": 0, "lon": -76.99036433333333}, {"fusion_lat": 0.0, "type": "electric_scooter", "name": "f4b362ac63dcbf3ba007833a240c671f", "fusion_lon": 0.0, "bike_id": "f4b362ac63dcbf3ba007833a240c671f", "is_reserved": 0, "rental_uris": {"android": "https://dc.lft.to/lastmile_qr_scan", "ios": "https://dc.lft.to/lastmile_qr_scan"}, "lat": 38.881308, "is_disabled": 0, "lon": -77.02625116666667}, {"fusion_lat": 0.0, "type": "electric_scooter", "name": "e86e2bc05b66c76f1c7dec71b3b139df", "fusion_lon": 0.0, "bike_id": "e86e2bc05b66c76f1c7dec71b3b139df", "is_reserved": 0, "rental_uris": {"android": "https://dc.lft.to/lastmile_qr_scan", "ios": "https://dc.lft.to/lastmile_qr_scan"}, "lat": 38.952070666666664, "is_disabled": 0, "lon": -77.0272875}, {"fusion_lat": 0.0, "type": "electric_scooter", "name": "965bd8d704056caabf382152f3895e77", "fusion_lon": 0.0, "bike_id": "965bd8d704056caabf382152f3895e77", "is_reserved": 0, "rental_uris": {"android": "https://dc.lft.to/lastmile_qr_scan", "ios": "https://dc.lft.to/lastmile_qr_scan"}, "lat": 38.93374983333333, "is_disabled": 0, "lon": -77.0572895}, {"fusion_lat": 0.0, "type": "electric_scooter", "name": "02dc1713c8fe5dd2faa8a73948f36edb", "fusion_lon": 0.0, "bike_id": "02dc1713c8fe5dd2faa8a73948f36edb", "is_reserved": 0, "rental_uris": {"android": "https://dc.lft.to/lastmile_qr_scan", "ios": "https://dc.lft.to/lastmile_qr_scan"}, "lat": 38.9057715, "is_disabled": 0, "lon": -76.97623333333334}, {"fusion_lat": 0.0, "type": "electric_scooter", "name": "0f55353bd779904e7988a34098c89a7e", "fusion_lon": 0.0, "bike_id": "0f55353bd779904e7988a34098c89a7e", "is_reserved": 0, "rental_uris": {"android": "https://dc.lft.to/lastmile_qr_scan", "ios": "https://dc.lft.to/lastmile_qr_scan"}, "lat": 38.90958166666667, "is_disabled": 0, "lon": -77.022013}, {"fusion_lat": 0.0, "type": "electric_scooter", "name": "6e2562a13b375fe886a08e8032d25511", "fusion_lon": 0.0, "bike_id": "6e2562a13b375fe886a08e8032d25511", "is_reserved": 0, "rental_uris": {"android": "https://dc.lft.to/lastmile_qr_scan", "ios": "https://dc.lft.to/lastmile_qr_scan"}, "lat": 38.8867235, "is_disabled": 0, "lon": -76.936151}, {"fusion_lat": 0.0, "type": "electric_scooter", "name": "3353913b54e4d8efa37618e6c6fde61c", "fusion_lon": 0.0, "bike_id": "3353913b54e4d8efa37618e6c6fde61c", "is_reserved": 0, "rental_uris": {"android": "https://dc.lft.to/lastmile_qr_scan", "ios": "https://dc.lft.to/lastmile_qr_scan"}, "lat": 38.92063616666667, "is_disabled": 0, "lon": -77.034599}, {"fusion_lat": 0.0, "type": "electric_scooter", "name": "bac62235e9f1a372ec6715120a23ab5f", "fusion_lon": 0.0, "bike_id": "bac62235e9f1a372ec6715120a23ab5f", "is_reserved": 0, "rental_uris": {"android": "https://dc.lft.to/lastmile_qr_scan", "ios": "https://dc.lft.to/lastmile_qr_scan"}, "lat": 38.952627666666665, "is_disabled": 0, "lon": -77.02568216666667}, {"fusion_lat": 0.0, "type": "electric_scooter", "name": "a90d289fd40a113bda35f4851590ce40", "fusion_lon": 0.0, "bike_id": "a90d289fd40a113bda35f4851590ce40", "is_reserved": 0, "rental_uris": {"android": "https://dc.lft.to/lastmile_qr_scan", "ios": "https://dc.lft.to/lastmile_qr_scan"}, "lat": 38.9238255, "is_disabled": 0, "lon": -77.02737}, {"fusion_lat": 0.0, "type": "electric_scooter", "name": "7cfc678bef29eaffd4396f4d967436a2", "fusion_lon": 0.0, "bike_id": "7cfc678bef29eaffd4396f4d967436a2", "is_reserved": 0, "rental_uris": {"android": "https://dc.lft.to/lastmile_qr_scan", "ios": "https://dc.lft.to/lastmile_qr_scan"}, "lat": 38.88610633333333, "is_disabled": 0, "lon": -76.95582733333333}, {"fusion_lat": 0.0, "type": "electric_scooter", "name": "288ea065cf2dd072998a9a35f1d1b64f", "fusion_lon": 0.0, "bike_id": "288ea065cf2dd072998a9a35f1d1b64f", "is_reserved": 0, "rental_uris": {"android": "https://dc.lft.to/lastmile_qr_scan", "ios": "https://dc.lft.to/lastmile_qr_scan"}, "lat": 38.8929785, "is_disabled": 0, "lon": -76.99816916666667}, {"fusion_lat": 0.0, "type": "electric_scooter", "name": "39454a03c7aabcb8740af61ffdae72ed", "fusion_lon": 0.0, "bike_id": "39454a03c7aabcb8740af61ffdae72ed", "is_reserved": 0, "rental_uris": {"android": "https://dc.lft.to/lastmile_qr_scan", "ios": "https://dc.lft.to/lastmile_qr_scan"}, "lat": 38.92061416666667, "is_disabled": 0, "lon": -77.03458466666666}, {"fusion_lat": 0.0, "type": "electric_scooter", "name": "064cf471922f10ce6437655188452efc", "fusion_lon": 0.0, "bike_id": "064cf471922f10ce6437655188452efc", "is_reserved": 0, "rental_uris": {"android": "https://dc.lft.to/lastmile_qr_scan", "ios": "https://dc.lft.to/lastmile_qr_scan"}, "lat": 38.92343866666667, "is_disabled": 0, "lon": -77.02413283333334}, {"fusion_lat": 0.0, "type": "electric_scooter", "name": "a4242d83dede3bdd27dbd28b71696f14", "fusion_lon": 0.0, "bike_id": "a4242d83dede3bdd27dbd28b71696f14", "is_reserved": 0, "rental_uris": {"android": "https://dc.lft.to/lastmile_qr_scan", "ios": "https://dc.lft.to/lastmile_qr_scan"}, "lat": 38.93413316666667, "is_disabled": 0, "lon": -77.03264983333334}, {"fusion_lat": 0.0, "type": "electric_scooter", "name": "fc1509985fa44c6cb4f74e62b787e65a", "fusion_lon": 0.0, "bike_id": "fc1509985fa44c6cb4f74e62b787e65a", "is_reserved": 0, "rental_uris": {"android": "https://dc.lft.to/lastmile_qr_scan", "ios": "https://dc.lft.to/lastmile_qr_scan"}, "lat": 38.916964666666665, "is_disabled": 0, "lon": -77.0349045}, {"fusion_lat": 0.0, "type": "electric_scooter", "name": "9cfd0189f5d2782cae0df5f88348abcc", "fusion_lon": 0.0, "bike_id": "9cfd0189f5d2782cae0df5f88348abcc", "is_reserved": 0, "rental_uris": {"android": "https://dc.lft.to/lastmile_qr_scan", "ios": "https://dc.lft.to/lastmile_qr_scan"}, "lat": 38.91267533333333, "is_disabled": 0, "lon": -77.033017}, {"fusion_lat": 0.0, "type": "electric_bike", "name": "6e43e5b826c53798920bd3dd00a84383", "fusion_lon": 0.0, "bike_id": "6e43e5b826c53798920bd3dd00a84383", "is_reserved": 0, "rental_uris": {"android": "https://dc.lft.to/lastmile_qr_scan", "ios": "https://dc.lft.to/lastmile_qr_scan"}, "lat": 38.927243833333335, "is_disabled": 0, "lon": -77.07325483333334}, {"fusion_lat": 0.0, "type": "electric_scooter", "name": "227db2a1d6ae947f421854c6511add89", "fusion_lon": 0.0, "bike_id": "227db2a1d6ae947f421854c6511add89", "is_reserved": 0, "rental_uris": {"android": "https://dc.lft.to/lastmile_qr_scan", "ios": "https://dc.lft.to/lastmile_qr_scan"}, "lat": 38.908906333333334, "is_disabled": 0, "lon": -77.02181683333333}, {"fusion_lat": 0.0, "type": "electric_scooter", "name": "77815f347e9ee512874a9181c145d52f", "fusion_lon": 0.0, "bike_id": "77815f347e9ee512874a9181c145d52f", "is_reserved": 0, "rental_uris": {"android": "https://dc.lft.to/lastmile_qr_scan", "ios": "https://dc.lft.to/lastmile_qr_scan"}, "lat": 38.944642, "is_disabled": 0, "lon": -77.06022733333333}, {"fusion_lat": 0.0, "type": "electric_scooter", "name": "6df392122da83991429c6c8ceaa42525", "fusion_lon": 0.0, "bike_id": "6df392122da83991429c6c8ceaa42525", "is_reserved": 0, "rental_uris": {"android": "https://dc.lft.to/lastmile_qr_scan", "ios": "https://dc.lft.to/lastmile_qr_scan"}, "lat": 38.915745333333334, "is_disabled": 0, "lon": -77.0385405}, {"fusion_lat": 0.0, "type": "electric_scooter", "name": "596926ef16f4714db7ece99b7eded547", "fusion_lon": 0.0, "bike_id": "596926ef16f4714db7ece99b7eded547", "is_reserved": 0, "rental_uris": {"android": "https://dc.lft.to/lastmile_qr_scan", "ios": "https://dc.lft.to/lastmile_qr_scan"}, "lat": 38.907957833333334, "is_disabled": 0, "lon": -77.01110416666667}, {"fusion_lat": 0.0, "type": "electric_scooter", "name": "687ff96c87f1a3a071700b855c602054", "fusion_lon": 0.0, "bike_id": "687ff96c87f1a3a071700b855c602054", "is_reserved": 0, "rental_uris": {"android": "https://dc.lft.to/lastmile_qr_scan", "ios": "https://dc.lft.to/lastmile_qr_scan"}, "lat": 38.8936695, "is_disabled": 0, "lon": -77.05493633333333}, {"fusion_lat": 0.0, "type": "electric_scooter", "name": "7c7af3589fba9538e7cb5ecb2f24d1e7", "fusion_lon": 0.0, "bike_id": "7c7af3589fba9538e7cb5ecb2f24d1e7", "is_reserved": 0, "rental_uris": {"android": "https://dc.lft.to/lastmile_qr_scan", "ios": "https://dc.lft.to/lastmile_qr_scan"}, "lat": 38.907352833333334, "is_disabled": 0, "lon": -77.034525}, {"fusion_lat": 0.0, "type": "electric_scooter", "name": "11e83732114aa9bc2375f15de5f9f44d", "fusion_lon": 0.0, "bike_id": "11e83732114aa9bc2375f15de5f9f44d", "is_reserved": 0, "rental_uris": {"android": "https://dc.lft.to/lastmile_qr_scan", "ios": "https://dc.lft.to/lastmile_qr_scan"}, "lat": 38.92707433333333, "is_disabled": 0, "lon": -77.02392866666666}, {"fusion_lat": 0.0, "type": "electric_scooter", "name": "a77ede863fb1c1990c6d3de8831a801f", "fusion_lon": 0.0, "bike_id": "a77ede863fb1c1990c6d3de8831a801f", "is_reserved": 0, "rental_uris": {"android": "https://dc.lft.to/lastmile_qr_scan", "ios": "https://dc.lft.to/lastmile_qr_scan"}, "lat": 38.89430466666666, "is_disabled": 0, "lon": -76.94879916666666}, {"fusion_lat": 0.0, "type": "electric_scooter", "name": "fd7cf14c92f266a4074260fbe52cc71e", "fusion_lon": 0.0, "bike_id": "fd7cf14c92f266a4074260fbe52cc71e", "is_reserved": 0, "rental_uris": {"android": "https://dc.lft.to/lastmile_qr_scan", "ios": "https://dc.lft.to/lastmile_qr_scan"}, "lat": 38.8923, "is_disabled": 0, "lon": -77.03220333333333}, {"fusion_lat": 0.0, "type": "electric_scooter", "name": "938f981c1644359496f70959e7052106", "fusion_lon": 0.0, "bike_id": "938f981c1644359496f70959e7052106", "is_reserved": 0, "rental_uris": {"android": "https://dc.lft.to/lastmile_qr_scan", "ios": "https://dc.lft.to/lastmile_qr_scan"}, "lat": 38.949050166666666, "is_disabled": 0, "lon": -77.00647466666666}, {"fusion_lat": 0.0, "type": "electric_scooter", "name": "d1065c26b69d66b5dbc6fab8235cc6f9", "fusion_lon": 0.0, "bike_id": "d1065c26b69d66b5dbc6fab8235cc6f9", "is_reserved": 0, "rental_uris": {"android": "https://dc.lft.to/lastmile_qr_scan", "ios": "https://dc.lft.to/lastmile_qr_scan"}, "lat": 38.90482383333333, "is_disabled": 0, "lon": -77.007157}, {"fusion_lat": 0.0, "type": "electric_bike", "name": "7968b8bead0cbd8e2d40ac4ae504c0db", "fusion_lon": 0.0, "bike_id": "7968b8bead0cbd8e2d40ac4ae504c0db", "is_reserved": 0, "rental_uris": {"android": "https://dc.lft.to/lastmile_qr_scan", "ios": "https://dc.lft.to/lastmile_qr_scan"}, "lat": 38.92219683333333, "is_disabled": 0, "lon": -77.08193616666667}, {"fusion_lat": 0.0, "type": "electric_scooter", "name": "8bc524472a67103c34557a3a20664a83", "fusion_lon": 0.0, "bike_id": "8bc524472a67103c34557a3a20664a83", "is_reserved": 0, "rental_uris": {"android": "https://dc.lft.to/lastmile_qr_scan", "ios": "https://dc.lft.to/lastmile_qr_scan"}, "lat": 38.911184166666665, "is_disabled": 0, "lon": -77.04371366666666}, {"fusion_lat": 0.0, "type": "electric_scooter", "name": "b30fd36490935726f3281c387d98e11c", "fusion_lon": 0.0, "bike_id": "b30fd36490935726f3281c387d98e11c", "is_reserved": 0, "rental_uris": {"android": "https://dc.lft.to/lastmile_qr_scan", "ios": "https://dc.lft.to/lastmile_qr_scan"}, "lat": 38.89226566666667, "is_disabled": 0, "lon": -77.0234475}, {"fusion_lat": 0.0, "type": "electric_scooter", "name": "009e9d46ea58ebf99a3c25c7375a7442", "fusion_lon": 0.0, "bike_id": "009e9d46ea58ebf99a3c25c7375a7442", "is_reserved": 0, "rental_uris": {"android": "https://dc.lft.to/lastmile_qr_scan", "ios": "https://dc.lft.to/lastmile_qr_scan"}, "lat": 38.919980333333335, "is_disabled": 0, "lon": -77.02373183333333}, {"fusion_lat": 0.0, "type": "electric_scooter", "name": "312302c346da0cae42649fe1d935935c", "fusion_lon": 0.0, "bike_id": "312302c346da0cae42649fe1d935935c", "is_reserved": 0, "rental_uris": {"android": "https://dc.lft.to/lastmile_qr_scan", "ios": "https://dc.lft.to/lastmile_qr_scan"}, "lat": 38.918825166666664, "is_disabled": 0, "lon": -77.03764716666667}, {"fusion_lat": 0.0, "type": "electric_scooter", "name": "47241d13c5e2e0dfa8993fca77537377", "fusion_lon": 0.0, "bike_id": "47241d13c5e2e0dfa8993fca77537377", "is_reserved": 0, "rental_uris": {"android": "https://dc.lft.to/lastmile_qr_scan", "ios": "https://dc.lft.to/lastmile_qr_scan"}, "lat": 38.89825716666667, "is_disabled": 0, "lon": -77.03299616666666}, {"fusion_lat": 0.0, "type": "electric_scooter", "name": "cb2d2fa50a5c9dd5aecb977361d484c5", "fusion_lon": 0.0, "bike_id": "cb2d2fa50a5c9dd5aecb977361d484c5", "is_reserved": 0, "rental_uris": {"android": "https://dc.lft.to/lastmile_qr_scan", "ios": "https://dc.lft.to/lastmile_qr_scan"}, "lat": 38.857235833333334, "is_disabled": 0, "lon": -76.98939416666667}, {"fusion_lat": 0.0, "type": "electric_scooter", "name": "1940038c4cb77f5dd510f5e15f92afd1", "fusion_lon": 0.0, "bike_id": "1940038c4cb77f5dd510f5e15f92afd1", "is_reserved": 0, "rental_uris": {"android": "https://dc.lft.to/lastmile_qr_scan", "ios": "https://dc.lft.to/lastmile_qr_scan"}, "lat": 38.887484666666666, "is_disabled": 0, "lon": -77.02733816666667}, {"fusion_lat": 0.0, "type": "electric_scooter", "name": "017f8a40b61d486ffaa64d60362f2921", "fusion_lon": 0.0, "bike_id": "017f8a40b61d486ffaa64d60362f2921", "is_reserved": 0, "rental_uris": {"android": "https://dc.lft.to/lastmile_qr_scan", "ios": "https://dc.lft.to/lastmile_qr_scan"}, "lat": 38.877835, "is_disabled": 0, "lon": -76.99358816666667}, {"fusion_lat": 0.0, "type": "electric_scooter", "name": "f7803784c8a5cb396bc2025ef02fbf47", "fusion_lon": 0.0, "bike_id": "f7803784c8a5cb396bc2025ef02fbf47", "is_reserved": 0, "rental_uris": {"android": "https://dc.lft.to/lastmile_qr_scan", "ios": "https://dc.lft.to/lastmile_qr_scan"}, "lat": 38.907661, "is_disabled": 0, "lon": -76.993054}, {"fusion_lat": 0.0, "type": "electric_scooter", "name": "82911bce0617ed8f03c8deaffb0e4bc1", "fusion_lon": 0.0, "bike_id": "82911bce0617ed8f03c8deaffb0e4bc1", "is_reserved": 0, "rental_uris": {"android": "https://dc.lft.to/lastmile_qr_scan", "ios": "https://dc.lft.to/lastmile_qr_scan"}, "lat": 38.9228375, "is_disabled": 0, "lon": -77.03904383333334}, {"fusion_lat": 0.0, "type": "electric_scooter", "name": "26ef334b819afaadc5210d33dee2ccc9", "fusion_lon": 0.0, "bike_id": "26ef334b819afaadc5210d33dee2ccc9", "is_reserved": 0, "rental_uris": {"android": "https://dc.lft.to/lastmile_qr_scan", "ios": "https://dc.lft.to/lastmile_qr_scan"}, "lat": 38.87470583333333, "is_disabled": 0, "lon": -77.01127016666666}, {"fusion_lat": 0.0, "type": "electric_scooter", "name": "0fd501c21a1528330e86e8735f3547f8", "fusion_lon": 0.0, "bike_id": "0fd501c21a1528330e86e8735f3547f8", "is_reserved": 0, "rental_uris": {"android": "https://dc.lft.to/lastmile_qr_scan", "ios": "https://dc.lft.to/lastmile_qr_scan"}, "lat": 38.876595, "is_disabled": 0, "lon": -76.99451533333334}, {"fusion_lat": 0.0, "type": "electric_scooter", "name": "437049282c4438db6d60f79601183fdc", "fusion_lon": 0.0, "bike_id": "437049282c4438db6d60f79601183fdc", "is_reserved": 0, "rental_uris": {"android": "https://dc.lft.to/lastmile_qr_scan", "ios": "https://dc.lft.to/lastmile_qr_scan"}, "lat": 38.9002405, "is_disabled": 0, "lon": -77.0185765}, {"fusion_lat": 0.0, "type": "electric_scooter", "name": "c862c6a2bfcb4c2c7481a9e7f6e7c107", "fusion_lon": 0.0, "bike_id": "c862c6a2bfcb4c2c7481a9e7f6e7c107", "is_reserved": 0, "rental_uris": {"android": "https://dc.lft.to/lastmile_qr_scan", "ios": "https://dc.lft.to/lastmile_qr_scan"}, "lat": 38.892357, "is_disabled": 0, "lon": -77.02383733333333}, {"fusion_lat": 0.0, "type": "electric_scooter", "name": "4788811d8a170a979b7c3a80ae43e632", "fusion_lon": 0.0, "bike_id": "4788811d8a170a979b7c3a80ae43e632", "is_reserved": 0, "rental_uris": {"android": "https://dc.lft.to/lastmile_qr_scan", "ios": "https://dc.lft.to/lastmile_qr_scan"}, "lat": 38.90007516666667, "is_disabled": 0, "lon": -77.0012375}, {"fusion_lat": 0.0, "type": "electric_scooter", "name": "a3ae6be22cf9a9078574f2de540fd857", "fusion_lon": 0.0, "bike_id": "a3ae6be22cf9a9078574f2de540fd857", "is_reserved": 0, "rental_uris": {"android": "https://dc.lft.to/lastmile_qr_scan", "ios": "https://dc.lft.to/lastmile_qr_scan"}, "lat": 38.872503, "is_disabled": 0, "lon": -76.97724716666667}, {"fusion_lat": 0.0, "type": "electric_scooter", "name": "1834d81f39dff2bac9ba976a960a2238", "fusion_lon": 0.0, "bike_id": "1834d81f39dff2bac9ba976a960a2238", "is_reserved": 0, "rental_uris": {"android": "https://dc.lft.to/lastmile_qr_scan", "ios": "https://dc.lft.to/lastmile_qr_scan"}, "lat": 38.893600666666664, "is_disabled": 0, "lon": -77.02218683333334}, {"fusion_lat": 0.0, "type": "electric_scooter", "name": "f0355ee162f4ef2f7a6037197c907e39", "fusion_lon": 0.0, "bike_id": "f0355ee162f4ef2f7a6037197c907e39", "is_reserved": 0, "rental_uris": {"android": "https://dc.lft.to/lastmile_qr_scan", "ios": "https://dc.lft.to/lastmile_qr_scan"}, "lat": 38.9002005, "is_disabled": 0, "lon": -77.0439775}, {"fusion_lat": 0.0, "type": "electric_scooter", "name": "70879db26138e34417eae986a60d31a2", "fusion_lon": 0.0, "bike_id": "70879db26138e34417eae986a60d31a2", "is_reserved": 0, "rental_uris": {"android": "https://dc.lft.to/lastmile_qr_scan", "ios": "https://dc.lft.to/lastmile_qr_scan"}, "lat": 38.91099966666667, "is_disabled": 0, "lon": -77.0448505}, {"fusion_lat": 0.0, "type": "electric_scooter", "name": "2be98e8149c94589a27d6063d6b87c05", "fusion_lon": 0.0, "bike_id": "2be98e8149c94589a27d6063d6b87c05", "is_reserved": 0, "rental_uris": {"android": "https://dc.lft.to/lastmile_qr_scan", "ios": "https://dc.lft.to/lastmile_qr_scan"}, "lat": 38.91981166666667, "is_disabled": 0, "lon": -77.011991}, {"fusion_lat": 0.0, "type": "electric_scooter", "name": "5f1bf328b550c6e2403b4562441ce07a", "fusion_lon": 0.0, "bike_id": "5f1bf328b550c6e2403b4562441ce07a", "is_reserved": 0, "rental_uris": {"android": "https://dc.lft.to/lastmile_qr_scan", "ios": "https://dc.lft.to/lastmile_qr_scan"}, "lat": 38.908168, "is_disabled": 0, "lon": -77.04332133333334}, {"fusion_lat": 0.0, "type": "electric_scooter", "name": "dec6f21308759c9ef6a3a3e843a00690", "fusion_lon": 0.0, "bike_id": "dec6f21308759c9ef6a3a3e843a00690", "is_reserved": 0, "rental_uris": {"android": "https://dc.lft.to/lastmile_qr_scan", "ios": "https://dc.lft.to/lastmile_qr_scan"}, "lat": 38.9283015, "is_disabled": 0, "lon": -77.02155366666666}, {"fusion_lat": 0.0, "type": "electric_scooter", "name": "ba941d2d819dc1bed095bd3a4bdbdb09", "fusion_lon": 0.0, "bike_id": "ba941d2d819dc1bed095bd3a4bdbdb09", "is_reserved": 0, "rental_uris": {"android": "https://dc.lft.to/lastmile_qr_scan", "ios": "https://dc.lft.to/lastmile_qr_scan"}, "lat": 38.8845625, "is_disabled": 0, "lon": -76.92946616666667}, {"fusion_lat": 0.0, "type": "electric_scooter", "name": "51be573ab02c13867bf6c5cf3f2a509f", "fusion_lon": 0.0, "bike_id": "51be573ab02c13867bf6c5cf3f2a509f", "is_reserved": 0, "rental_uris": {"android": "https://dc.lft.to/lastmile_qr_scan", "ios": "https://dc.lft.to/lastmile_qr_scan"}, "lat": 38.89328283333333, "is_disabled": 0, "lon": -77.0467695}, {"fusion_lat": 0.0, "type": "electric_scooter", "name": "651c4868f5ece70971f7706c573e2562", "fusion_lon": 0.0, "bike_id": "651c4868f5ece70971f7706c573e2562", "is_reserved": 0, "rental_uris": {"android": "https://dc.lft.to/lastmile_qr_scan", "ios": "https://dc.lft.to/lastmile_qr_scan"}, "lat": 38.99603166666667, "is_disabled": 0, "lon": -77.0322385}, {"fusion_lat": 0.0, "type": "electric_scooter", "name": "ad87562f90b4f82a4b986eef2f6438e0", "fusion_lon": 0.0, "bike_id": "ad87562f90b4f82a4b986eef2f6438e0", "is_reserved": 0, "rental_uris": {"android": "https://dc.lft.to/lastmile_qr_scan", "ios": "https://dc.lft.to/lastmile_qr_scan"}, "lat": 38.91108533333333, "is_disabled": 0, "lon": -77.03754733333334}, {"fusion_lat": 0.0, "type": "electric_scooter", "name": "6330e562a4061f8cc71eb12a3b401ff7", "fusion_lon": 0.0, "bike_id": "6330e562a4061f8cc71eb12a3b401ff7", "is_reserved": 0, "rental_uris": {"android": "https://dc.lft.to/lastmile_qr_scan", "ios": "https://dc.lft.to/lastmile_qr_scan"}, "lat": 38.939561833333336, "is_disabled": 0, "lon": -77.02498233333333}, {"fusion_lat": 0.0, "type": "electric_scooter", "name": "d9941ab9d20fd6d7e88ff5107dfe5c2d", "fusion_lon": 0.0, "bike_id": "d9941ab9d20fd6d7e88ff5107dfe5c2d", "is_reserved": 0, "rental_uris": {"android": "https://dc.lft.to/lastmile_qr_scan", "ios": "https://dc.lft.to/lastmile_qr_scan"}, "lat": 38.905904166666666, "is_disabled": 0, "lon": -77.02596333333334}, {"fusion_lat": 0.0, "type": "electric_scooter", "name": "bdc69dbe9f449ba1dfc89635fb465f62", "fusion_lon": 0.0, "bike_id": "bdc69dbe9f449ba1dfc89635fb465f62", "is_reserved": 0, "rental_uris": {"android": "https://dc.lft.to/lastmile_qr_scan", "ios": "https://dc.lft.to/lastmile_qr_scan"}, "lat": 38.90466166666667, "is_disabled": 0, "lon": -76.9806785}, {"fusion_lat": 0.0, "type": "electric_scooter", "name": "b753ce93012ddc17686214261fc1396d", "fusion_lon": 0.0, "bike_id": "b753ce93012ddc17686214261fc1396d", "is_reserved": 0, "rental_uris": {"android": "https://dc.lft.to/lastmile_qr_scan", "ios": "https://dc.lft.to/lastmile_qr_scan"}, "lat": 38.91284683333333, "is_disabled": 0, "lon": -77.038485}, {"fusion_lat": 0.0, "type": "electric_scooter", "name": "62806937fb617ef86d4f27808152b1b2", "fusion_lon": 0.0, "bike_id": "62806937fb617ef86d4f27808152b1b2", "is_reserved": 0, "rental_uris": {"android": "https://dc.lft.to/lastmile_qr_scan", "ios": "https://dc.lft.to/lastmile_qr_scan"}, "lat": 38.92737916666667, "is_disabled": 0, "lon": -77.022643}, {"fusion_lat": 0.0, "type": "electric_scooter", "name": "9ae68e480b0023fd77e6fb45378fe749", "fusion_lon": 0.0, "bike_id": "9ae68e480b0023fd77e6fb45378fe749", "is_reserved": 0, "rental_uris": {"android": "https://dc.lft.to/lastmile_qr_scan", "ios": "https://dc.lft.to/lastmile_qr_scan"}, "lat": 38.91714733333333, "is_disabled": 0, "lon": -77.0334285}, {"fusion_lat": 0.0, "type": "electric_scooter", "name": "a88f4dc4a5be70c5d0137ec25a6920bd", "fusion_lon": 0.0, "bike_id": "a88f4dc4a5be70c5d0137ec25a6920bd", "is_reserved": 0, "rental_uris": {"android": "https://dc.lft.to/lastmile_qr_scan", "ios": "https://dc.lft.to/lastmile_qr_scan"}, "lat": 38.91809516666667, "is_disabled": 0, "lon": -77.03444633333334}, {"fusion_lat": 0.0, "type": "electric_scooter", "name": "a5055d847fb5ea9a13b7351619858246", "fusion_lon": 0.0, "bike_id": "a5055d847fb5ea9a13b7351619858246", "is_reserved": 0, "rental_uris": {"android": "https://dc.lft.to/lastmile_qr_scan", "ios": "https://dc.lft.to/lastmile_qr_scan"}, "lat": 38.938794666666666, "is_disabled": 0, "lon": -77.02483016666666}, {"fusion_lat": 0.0, "type": "electric_scooter", "name": "80fe63e2377511dc73b84278b0f9f672", "fusion_lon": 0.0, "bike_id": "80fe63e2377511dc73b84278b0f9f672", "is_reserved": 0, "rental_uris": {"android": "https://dc.lft.to/lastmile_qr_scan", "ios": "https://dc.lft.to/lastmile_qr_scan"}, "lat": 38.90204416666667, "is_disabled": 0, "lon": -76.978511}, {"fusion_lat": 0.0, "type": "electric_bike", "name": "a00326d2ce3c19601af59a179791f5d2", "fusion_lon": 0.0, "bike_id": "a00326d2ce3c19601af59a179791f5d2", "is_reserved": 0, "rental_uris": {"android": "https://dc.lft.to/lastmile_qr_scan", "ios": "https://dc.lft.to/lastmile_qr_scan"}, "lat": 38.829102666666664, "is_disabled": 0, "lon": -76.99774983333333}, {"fusion_lat": 0.0, "type": "electric_scooter", "name": "42c34d2658885bd4c10be0c147cfa7ac", "fusion_lon": 0.0, "bike_id": "42c34d2658885bd4c10be0c147cfa7ac", "is_reserved": 0, "rental_uris": {"android": "https://dc.lft.to/lastmile_qr_scan", "ios": "https://dc.lft.to/lastmile_qr_scan"}, "lat": 38.93418633333334, "is_disabled": 0, "lon": -77.04410266666666}, {"fusion_lat": 0.0, "type": "electric_scooter", "name": "170d438b8f151e1ee2d1ef1833792443", "fusion_lon": 0.0, "bike_id": "170d438b8f151e1ee2d1ef1833792443", "is_reserved": 0, "rental_uris": {"android": "https://dc.lft.to/lastmile_qr_scan", "ios": "https://dc.lft.to/lastmile_qr_scan"}, "lat": 38.921090166666666, "is_disabled": 0, "lon": -77.07189133333334}, {"fusion_lat": 0.0, "type": "electric_scooter", "name": "8e815d9b2a2ea688b883340583f69982", "fusion_lon": 0.0, "bike_id": "8e815d9b2a2ea688b883340583f69982", "is_reserved": 0, "rental_uris": {"android": "https://dc.lft.to/lastmile_qr_scan", "ios": "https://dc.lft.to/lastmile_qr_scan"}, "lat": 38.9253065, "is_disabled": 0, "lon": -77.05135883333334}, {"fusion_lat": 0.0, "type": "electric_scooter", "name": "53f1c1db9eedcdc3b4bc56e0e5036e6f", "fusion_lon": 0.0, "bike_id": "53f1c1db9eedcdc3b4bc56e0e5036e6f", "is_reserved": 0, "rental_uris": {"android": "https://dc.lft.to/lastmile_qr_scan", "ios": "https://dc.lft.to/lastmile_qr_scan"}, "lat": 38.90637666666667, "is_disabled": 0, "lon": -77.0059535}, {"fusion_lat": 0.0, "type": "electric_scooter", "name": "89c092f8fb7bba9505dcbf28f3806ba7", "fusion_lon": 0.0, "bike_id": "89c092f8fb7bba9505dcbf28f3806ba7", "is_reserved": 0, "rental_uris": {"android": "https://dc.lft.to/lastmile_qr_scan", "ios": "https://dc.lft.to/lastmile_qr_scan"}, "lat": 38.89373533333333, "is_disabled": 0, "lon": -76.9499595}, {"fusion_lat": 0.0, "type": "electric_scooter", "name": "3bef8a38d02be2babc74f3b0dd8384fa", "fusion_lon": 0.0, "bike_id": "3bef8a38d02be2babc74f3b0dd8384fa", "is_reserved": 0, "rental_uris": {"android": "https://dc.lft.to/lastmile_qr_scan", "ios": "https://dc.lft.to/lastmile_qr_scan"}, "lat": 38.88844133333333, "is_disabled": 0, "lon": -77.0490095}, {"fusion_lat": 0.0, "type": "electric_scooter", "name": "f0cce34242aeca5e1d4506397472c8d8", "fusion_lon": 0.0, "bike_id": "f0cce34242aeca5e1d4506397472c8d8", "is_reserved": 0, "rental_uris": {"android": "https://dc.lft.to/lastmile_qr_scan", "ios": "https://dc.lft.to/lastmile_qr_scan"}, "lat": 38.898886833333336, "is_disabled": 0, "lon": -77.03932933333333}, {"fusion_lat": 0.0, "type": "electric_scooter", "name": "7ca630425f51ee381db987d4bc8b5d81", "fusion_lon": 0.0, "bike_id": "7ca630425f51ee381db987d4bc8b5d81", "is_reserved": 0, "rental_uris": {"android": "https://dc.lft.to/lastmile_qr_scan", "ios": "https://dc.lft.to/lastmile_qr_scan"}, "lat": 38.91792366666667, "is_disabled": 0, "lon": -77.032077}, {"fusion_lat": 0.0, "type": "electric_bike", "name": "f3c099d11188baa7f52d3a8ec3647296", "fusion_lon": 0.0, "bike_id": "f3c099d11188baa7f52d3a8ec3647296", "is_reserved": 0, "rental_uris": {"android": "https://dc.lft.to/lastmile_qr_scan", "ios": "https://dc.lft.to/lastmile_qr_scan"}, "lat": 38.86746983333333, "is_disabled": 0, "lon": -77.1170705}, {"fusion_lat": 0.0, "type": "electric_scooter", "name": "b6b69bd1ec4b32332c92f9935c78bac0", "fusion_lon": 0.0, "bike_id": "b6b69bd1ec4b32332c92f9935c78bac0", "is_reserved": 0, "rental_uris": {"android": "https://dc.lft.to/lastmile_qr_scan", "ios": "https://dc.lft.to/lastmile_qr_scan"}, "lat": 38.916388833333336, "is_disabled": 0, "lon": -77.01081233333333}, {"fusion_lat": 0.0, "type": "electric_scooter", "name": "b87fb206ca16e67bfe3194e1f35c567d", "fusion_lon": 0.0, "bike_id": "b87fb206ca16e67bfe3194e1f35c567d", "is_reserved": 0, "rental_uris": {"android": "https://dc.lft.to/lastmile_qr_scan", "ios": "https://dc.lft.to/lastmile_qr_scan"}, "lat": 38.8877485, "is_disabled": 0, "lon": -76.9557375}, {"fusion_lat": 0.0, "type": "electric_scooter", "name": "4687b09e0afe2db4c2f3149f7ceb3708", "fusion_lon": 0.0, "bike_id": "4687b09e0afe2db4c2f3149f7ceb3708", "is_reserved": 0, "rental_uris": {"android": "https://dc.lft.to/lastmile_qr_scan", "ios": "https://dc.lft.to/lastmile_qr_scan"}, "lat": 38.9008225, "is_disabled": 0, "lon": -76.99362233333333}, {"fusion_lat": 0.0, "type": "electric_scooter", "name": "15bde5ae6bef67b74433be6f67688b90", "fusion_lon": 0.0, "bike_id": "15bde5ae6bef67b74433be6f67688b90", "is_reserved": 0, "rental_uris": {"android": "https://dc.lft.to/lastmile_qr_scan", "ios": "https://dc.lft.to/lastmile_qr_scan"}, "lat": 38.9257345, "is_disabled": 0, "lon": -77.02842333333334}, {"fusion_lat": 0.0, "type": "electric_scooter", "name": "87851c7dec5755908bccefa480cd2768", "fusion_lon": 0.0, "bike_id": "87851c7dec5755908bccefa480cd2768", "is_reserved": 0, "rental_uris": {"android": "https://dc.lft.to/lastmile_qr_scan", "ios": "https://dc.lft.to/lastmile_qr_scan"}, "lat": 38.922719, "is_disabled": 0, "lon": -77.03672583333334}, {"fusion_lat": 0.0, "type": "electric_scooter", "name": "57149b9e63b70860e1f4969525d52a21", "fusion_lon": 0.0, "bike_id": "57149b9e63b70860e1f4969525d52a21", "is_reserved": 0, "rental_uris": {"android": "https://dc.lft.to/lastmile_qr_scan", "ios": "https://dc.lft.to/lastmile_qr_scan"}, "lat": 38.9172775, "is_disabled": 0, "lon": -77.029766}, {"fusion_lat": 0.0, "type": "electric_scooter", "name": "b90a387020f396758aafd61816ebe46b", "fusion_lon": 0.0, "bike_id": "b90a387020f396758aafd61816ebe46b", "is_reserved": 0, "rental_uris": {"android": "https://dc.lft.to/lastmile_qr_scan", "ios": "https://dc.lft.to/lastmile_qr_scan"}, "lat": 38.935432666666664, "is_disabled": 0, "lon": -77.05823866666667}, {"fusion_lat": 0.0, "type": "electric_scooter", "name": "9f4c96ba08666cd90315e36d2c8f8f01", "fusion_lon": 0.0, "bike_id": "9f4c96ba08666cd90315e36d2c8f8f01", "is_reserved": 0, "rental_uris": {"android": "https://dc.lft.to/lastmile_qr_scan", "ios": "https://dc.lft.to/lastmile_qr_scan"}, "lat": 38.90942716666667, "is_disabled": 0, "lon": -77.04389683333333}, {"fusion_lat": 0.0, "type": "electric_scooter", "name": "82aacab323a2dd4c107e9153ce1b7b4e", "fusion_lon": 0.0, "bike_id": "82aacab323a2dd4c107e9153ce1b7b4e", "is_reserved": 0, "rental_uris": {"android": "https://dc.lft.to/lastmile_qr_scan", "ios": "https://dc.lft.to/lastmile_qr_scan"}, "lat": 38.895010666666664, "is_disabled": 0, "lon": -77.0094615}, {"fusion_lat": 0.0, "type": "electric_scooter", "name": "e3ba4ebfe759dce378aba635f61372c3", "fusion_lon": 0.0, "bike_id": "e3ba4ebfe759dce378aba635f61372c3", "is_reserved": 0, "rental_uris": {"android": "https://dc.lft.to/lastmile_qr_scan", "ios": "https://dc.lft.to/lastmile_qr_scan"}, "lat": 38.94182516666667, "is_disabled": 0, "lon": -77.0253215}, {"fusion_lat": 0.0, "type": "electric_bike", "name": "24e4e9d0dff552bb5edfead04c65ca50", "fusion_lon": 0.0, "bike_id": "24e4e9d0dff552bb5edfead04c65ca50", "is_reserved": 0, "rental_uris": {"android": "https://dc.lft.to/lastmile_qr_scan", "ios": "https://dc.lft.to/lastmile_qr_scan"}, "lat": 38.9855095, "is_disabled": 0, "lon": -77.00406233333334}, {"fusion_lat": 0.0, "type": "electric_scooter", "name": "179bff3c9cefad0bf1529bcb2ba5be09", "fusion_lon": 0.0, "bike_id": "179bff3c9cefad0bf1529bcb2ba5be09", "is_reserved": 0, "rental_uris": {"android": "https://dc.lft.to/lastmile_qr_scan", "ios": "https://dc.lft.to/lastmile_qr_scan"}, "lat": 38.918176833333334, "is_disabled": 0, "lon": -77.03357383333334}, {"fusion_lat": 0.0, "type": "electric_scooter", "name": "18fc1f8d379ee62b06ea78ecb6e197b8", "fusion_lon": 0.0, "bike_id": "18fc1f8d379ee62b06ea78ecb6e197b8", "is_reserved": 0, "rental_uris": {"android": "https://dc.lft.to/lastmile_qr_scan", "ios": "https://dc.lft.to/lastmile_qr_scan"}, "lat": 38.916567, "is_disabled": 0, "lon": -77.03666416666667}, {"fusion_lat": 0.0, "type": "electric_scooter", "name": "86ab4d2edad01be74a219317722335d4", "fusion_lon": 0.0, "bike_id": "86ab4d2edad01be74a219317722335d4", "is_reserved": 0, "rental_uris": {"android": "https://dc.lft.to/lastmile_qr_scan", "ios": "https://dc.lft.to/lastmile_qr_scan"}, "lat": 38.87200933333333, "is_disabled": 0, "lon": -77.00569666666667}, {"fusion_lat": 0.0, "type": "electric_scooter", "name": "6cccd7b0766beadbd1e55b63cd99e5b5", "fusion_lon": 0.0, "bike_id": "6cccd7b0766beadbd1e55b63cd99e5b5", "is_reserved": 0, "rental_uris": {"android": "https://dc.lft.to/lastmile_qr_scan", "ios": "https://dc.lft.to/lastmile_qr_scan"}, "lat": 38.907492833333336, "is_disabled": 0, "lon": -77.007681}, {"fusion_lat": 0.0, "type": "electric_scooter", "name": "52a6192996a4033f18d601c5b048c213", "fusion_lon": 0.0, "bike_id": "52a6192996a4033f18d601c5b048c213", "is_reserved": 0, "rental_uris": {"android": "https://dc.lft.to/lastmile_qr_scan", "ios": "https://dc.lft.to/lastmile_qr_scan"}, "lat": 38.935639333333334, "is_disabled": 0, "lon": -77.08202216666666}, {"fusion_lat": 0.0, "type": "electric_scooter", "name": "a3d45f3b713b8b32e1c84eda8c145833", "fusion_lon": 0.0, "bike_id": "a3d45f3b713b8b32e1c84eda8c145833", "is_reserved": 0, "rental_uris": {"android": "https://dc.lft.to/lastmile_qr_scan", "ios": "https://dc.lft.to/lastmile_qr_scan"}, "lat": 38.899954, "is_disabled": 0, "lon": -77.0261985}, {"fusion_lat": 0.0, "type": "electric_scooter", "name": "6782d4b53216e7248714effaf97196dd", "fusion_lon": 0.0, "bike_id": "6782d4b53216e7248714effaf97196dd", "is_reserved": 0, "rental_uris": {"android": "https://dc.lft.to/lastmile_qr_scan", "ios": "https://dc.lft.to/lastmile_qr_scan"}, "lat": 38.89228833333333, "is_disabled": 0, "lon": -77.02345266666667}, {"fusion_lat": 0.0, "type": "electric_scooter", "name": "82ce78c262257564f31b7979c7d5f1a7", "fusion_lon": 0.0, "bike_id": "82ce78c262257564f31b7979c7d5f1a7", "is_reserved": 0, "rental_uris": {"android": "https://dc.lft.to/lastmile_qr_scan", "ios": "https://dc.lft.to/lastmile_qr_scan"}, "lat": 38.905063, "is_disabled": 0, "lon": -77.04812033333333}, {"fusion_lat": 0.0, "type": "electric_scooter", "name": "7b0b6f9f5d5bb1ffddd70a61207ecb9f", "fusion_lon": 0.0, "bike_id": "7b0b6f9f5d5bb1ffddd70a61207ecb9f", "is_reserved": 0, "rental_uris": {"android": "https://dc.lft.to/lastmile_qr_scan", "ios": "https://dc.lft.to/lastmile_qr_scan"}, "lat": 38.89291433333333, "is_disabled": 0, "lon": -77.031832}, {"fusion_lat": 0.0, "type": "electric_scooter", "name": "bb89a7bfa79a3ab0fbfcd3989d5be40f", "fusion_lon": 0.0, "bike_id": "bb89a7bfa79a3ab0fbfcd3989d5be40f", "is_reserved": 0, "rental_uris": {"android": "https://dc.lft.to/lastmile_qr_scan", "ios": "https://dc.lft.to/lastmile_qr_scan"}, "lat": 38.88594066666667, "is_disabled": 0, "lon": -77.01232816666666}, {"fusion_lat": 0.0, "type": "electric_scooter", "name": "ec23d5a507ba4b05123061c51a27c5be", "fusion_lon": 0.0, "bike_id": "ec23d5a507ba4b05123061c51a27c5be", "is_reserved": 0, "rental_uris": {"android": "https://dc.lft.to/lastmile_qr_scan", "ios": "https://dc.lft.to/lastmile_qr_scan"}, "lat": 38.931086, "is_disabled": 0, "lon": -77.03258683333334}, {"fusion_lat": 0.0, "type": "electric_scooter", "name": "e047fa8504662f6173341e4f3b50a08f", "fusion_lon": 0.0, "bike_id": "e047fa8504662f6173341e4f3b50a08f", "is_reserved": 0, "rental_uris": {"android": "https://dc.lft.to/lastmile_qr_scan", "ios": "https://dc.lft.to/lastmile_qr_scan"}, "lat": 38.905132, "is_disabled": 0, "lon": -77.0686045}, {"fusion_lat": 0.0, "type": "electric_scooter", "name": "8604794640afb62c329e10afb108e518", "fusion_lon": 0.0, "bike_id": "8604794640afb62c329e10afb108e518", "is_reserved": 0, "rental_uris": {"android": "https://dc.lft.to/lastmile_qr_scan", "ios": "https://dc.lft.to/lastmile_qr_scan"}, "lat": 38.91969266666667, "is_disabled": 0, "lon": -77.045117}, {"fusion_lat": 0.0, "type": "electric_bike", "name": "a35d9267b14c52309faa3f363beac71c", "fusion_lon": 0.0, "bike_id": "a35d9267b14c52309faa3f363beac71c", "is_reserved": 0, "rental_uris": {"android": "https://dc.lft.to/lastmile_qr_scan", "ios": "https://dc.lft.to/lastmile_qr_scan"}, "lat": 38.86938983333334, "is_disabled": 0, "lon": -77.09467}, {"fusion_lat": 0.0, "type": "electric_scooter", "name": "5ff0581f2cc44a1edd8696f63372f857", "fusion_lon": 0.0, "bike_id": "5ff0581f2cc44a1edd8696f63372f857", "is_reserved": 0, "rental_uris": {"android": "https://dc.lft.to/lastmile_qr_scan", "ios": "https://dc.lft.to/lastmile_qr_scan"}, "lat": 38.87234983333333, "is_disabled": 0, "lon": -77.01156483333334}, {"fusion_lat": 0.0, "type": "electric_scooter", "name": "35cdcee88c854eda1c6fb8e93d5b903c", "fusion_lon": 0.0, "bike_id": "35cdcee88c854eda1c6fb8e93d5b903c", "is_reserved": 0, "rental_uris": {"android": "https://dc.lft.to/lastmile_qr_scan", "ios": "https://dc.lft.to/lastmile_qr_scan"}, "lat": 38.888512666666664, "is_disabled": 0, "lon": -76.92680083333333}, {"fusion_lat": 0.0, "type": "electric_scooter", "name": "9f43ed4e6b20e50728eae40fb733dc2c", "fusion_lon": 0.0, "bike_id": "9f43ed4e6b20e50728eae40fb733dc2c", "is_reserved": 0, "rental_uris": {"android": "https://dc.lft.to/lastmile_qr_scan", "ios": "https://dc.lft.to/lastmile_qr_scan"}, "lat": 38.86703583333333, "is_disabled": 0, "lon": -76.9859685}, {"fusion_lat": 0.0, "type": "electric_scooter", "name": "0fc911b618ca07759ed2af6f7d3e40a8", "fusion_lon": 0.0, "bike_id": "0fc911b618ca07759ed2af6f7d3e40a8", "is_reserved": 0, "rental_uris": {"android": "https://dc.lft.to/lastmile_qr_scan", "ios": "https://dc.lft.to/lastmile_qr_scan"}, "lat": 38.907287833333335, "is_disabled": 0, "lon": -77.04546616666667}, {"fusion_lat": 0.0, "type": "electric_bike", "name": "c67cf1e86f360878b4461929e26c4f86", "fusion_lon": 0.0, "bike_id": "c67cf1e86f360878b4461929e26c4f86", "is_reserved": 0, "rental_uris": {"android": "https://dc.lft.to/lastmile_qr_scan", "ios": "https://dc.lft.to/lastmile_qr_scan"}, "lat": 38.9048145, "is_disabled": 0, "lon": -76.9732295}, {"fusion_lat": 0.0, "type": "electric_scooter", "name": "be57be2cb008f5c86560819d775e8650", "fusion_lon": 0.0, "bike_id": "be57be2cb008f5c86560819d775e8650", "is_reserved": 0, "rental_uris": {"android": "https://dc.lft.to/lastmile_qr_scan", "ios": "https://dc.lft.to/lastmile_qr_scan"}, "lat": 38.909818666666666, "is_disabled": 0, "lon": -77.0347445}, {"fusion_lat": 0.0, "type": "electric_scooter", "name": "d82023b929471eeab7b00f5353a47e69", "fusion_lon": 0.0, "bike_id": "d82023b929471eeab7b00f5353a47e69", "is_reserved": 0, "rental_uris": {"android": "https://dc.lft.to/lastmile_qr_scan", "ios": "https://dc.lft.to/lastmile_qr_scan"}, "lat": 38.92490083333333, "is_disabled": 0, "lon": -77.02138783333334}, {"fusion_lat": 0.0, "type": "electric_scooter", "name": "b87b8e3780422ee186173f6910ca26bf", "fusion_lon": 0.0, "bike_id": "b87b8e3780422ee186173f6910ca26bf", "is_reserved": 0, "rental_uris": {"android": "https://dc.lft.to/lastmile_qr_scan", "ios": "https://dc.lft.to/lastmile_qr_scan"}, "lat": 38.897297, "is_disabled": 0, "lon": -77.0270995}, {"fusion_lat": 0.0, "type": "electric_scooter", "name": "7353b42144da3be88146bbc79ea245b5", "fusion_lon": 0.0, "bike_id": "7353b42144da3be88146bbc79ea245b5", "is_reserved": 0, "rental_uris": {"android": "https://dc.lft.to/lastmile_qr_scan", "ios": "https://dc.lft.to/lastmile_qr_scan"}, "lat": 38.919135, "is_disabled": 0, "lon": -77.0315125}, {"fusion_lat": 0.0, "type": "electric_scooter", "name": "93f638ece6cd6d2cbaeda549b16647fb", "fusion_lon": 0.0, "bike_id": "93f638ece6cd6d2cbaeda549b16647fb", "is_reserved": 0, "rental_uris": {"android": "https://dc.lft.to/lastmile_qr_scan", "ios": "https://dc.lft.to/lastmile_qr_scan"}, "lat": 38.90148466666667, "is_disabled": 0, "lon": -77.01598066666666}, {"fusion_lat": 0.0, "type": "electric_scooter", "name": "90545a87610460265e396aaa5aaf6449", "fusion_lon": 0.0, "bike_id": "90545a87610460265e396aaa5aaf6449", "is_reserved": 0, "rental_uris": {"android": "https://dc.lft.to/lastmile_qr_scan", "ios": "https://dc.lft.to/lastmile_qr_scan"}, "lat": 38.92537083333333, "is_disabled": 0, "lon": -76.97212016666667}, {"fusion_lat": 0.0, "type": "electric_scooter", "name": "155ccb15ae1ea000fc18a91aff2c6590", "fusion_lon": 0.0, "bike_id": "155ccb15ae1ea000fc18a91aff2c6590", "is_reserved": 0, "rental_uris": {"android": "https://dc.lft.to/lastmile_qr_scan", "ios": "https://dc.lft.to/lastmile_qr_scan"}, "lat": 38.89224633333333, "is_disabled": 0, "lon": -77.0322065}, {"fusion_lat": 0.0, "type": "electric_scooter", "name": "792e7d1dd52e41a71b64e3fe0eee7d79", "fusion_lon": 0.0, "bike_id": "792e7d1dd52e41a71b64e3fe0eee7d79", "is_reserved": 0, "rental_uris": {"android": "https://dc.lft.to/lastmile_qr_scan", "ios": "https://dc.lft.to/lastmile_qr_scan"}, "lat": 38.924391166666666, "is_disabled": 0, "lon": -77.03397183333334}, {"fusion_lat": 0.0, "type": "electric_scooter", "name": "e6ce17bbcfaf8575c224a822dafe8fd5", "fusion_lon": 0.0, "bike_id": "e6ce17bbcfaf8575c224a822dafe8fd5", "is_reserved": 0, "rental_uris": {"android": "https://dc.lft.to/lastmile_qr_scan", "ios": "https://dc.lft.to/lastmile_qr_scan"}, "lat": 38.9001375, "is_disabled": 0, "lon": -76.93030583333334}, {"fusion_lat": 0.0, "type": "electric_scooter", "name": "baf3b602aba57a67f7e5333e50db9a25", "fusion_lon": 0.0, "bike_id": "baf3b602aba57a67f7e5333e50db9a25", "is_reserved": 0, "rental_uris": {"android": "https://dc.lft.to/lastmile_qr_scan", "ios": "https://dc.lft.to/lastmile_qr_scan"}, "lat": 38.911192666666665, "is_disabled": 0, "lon": -77.03153016666667}, {"fusion_lat": 0.0, "type": "electric_bike", "name": "fc1442f50f0cb8994f55a964aa8a735a", "fusion_lon": 0.0, "bike_id": "fc1442f50f0cb8994f55a964aa8a735a", "is_reserved": 0, "rental_uris": {"android": "https://dc.lft.to/lastmile_qr_scan", "ios": "https://dc.lft.to/lastmile_qr_scan"}, "lat": 38.8548385, "is_disabled": 0, "lon": -77.1160365}, {"fusion_lat": 0.0, "type": "electric_scooter", "name": "2bd37994bab3fbfbfdc6ae7d9c0e52b5", "fusion_lon": 0.0, "bike_id": "2bd37994bab3fbfbfdc6ae7d9c0e52b5", "is_reserved": 0, "rental_uris": {"android": "https://dc.lft.to/lastmile_qr_scan", "ios": "https://dc.lft.to/lastmile_qr_scan"}, "lat": 38.90216516666667, "is_disabled": 0, "lon": -77.04667316666666}, {"fusion_lat": 0.0, "type": "electric_scooter", "name": "9a6be4e85557e081a6f0238f9a5352e3", "fusion_lon": 0.0, "bike_id": "9a6be4e85557e081a6f0238f9a5352e3", "is_reserved": 0, "rental_uris": {"android": "https://dc.lft.to/lastmile_qr_scan", "ios": "https://dc.lft.to/lastmile_qr_scan"}, "lat": 38.945142, "is_disabled": 0, "lon": -77.03317766666666}, {"fusion_lat": 0.0, "type": "electric_scooter", "name": "da55cffa64c1c2541a4a0f6952b9ddbe", "fusion_lon": 0.0, "bike_id": "da55cffa64c1c2541a4a0f6952b9ddbe", "is_reserved": 0, "rental_uris": {"android": "https://dc.lft.to/lastmile_qr_scan", "ios": "https://dc.lft.to/lastmile_qr_scan"}, "lat": 38.923267333333335, "is_disabled": 0, "lon": -77.03608416666667}, {"fusion_lat": 0.0, "type": "electric_scooter", "name": "37de140198204355960a14e36642d2ea", "fusion_lon": 0.0, "bike_id": "37de140198204355960a14e36642d2ea", "is_reserved": 0, "rental_uris": {"android": "https://dc.lft.to/lastmile_qr_scan", "ios": "https://dc.lft.to/lastmile_qr_scan"}, "lat": 38.904096, "is_disabled": 0, "lon": -76.98089516666667}, {"fusion_lat": 0.0, "type": "electric_scooter", "name": "a08294c042a3e8b6f3249d7f8808448d", "fusion_lon": 0.0, "bike_id": "a08294c042a3e8b6f3249d7f8808448d", "is_reserved": 0, "rental_uris": {"android": "https://dc.lft.to/lastmile_qr_scan", "ios": "https://dc.lft.to/lastmile_qr_scan"}, "lat": 38.92333516666667, "is_disabled": 0, "lon": -77.03612216666667}, {"fusion_lat": 0.0, "type": "electric_scooter", "name": "7275abefc4a6b9c16feb50cadfaa7248", "fusion_lon": 0.0, "bike_id": "7275abefc4a6b9c16feb50cadfaa7248", "is_reserved": 0, "rental_uris": {"android": "https://dc.lft.to/lastmile_qr_scan", "ios": "https://dc.lft.to/lastmile_qr_scan"}, "lat": 38.90251083333333, "is_disabled": 0, "lon": -77.005859}, {"fusion_lat": 0.0, "type": "electric_scooter", "name": "a4ca91d99497cb0e3b602d67e3ad4f09", "fusion_lon": 0.0, "bike_id": "a4ca91d99497cb0e3b602d67e3ad4f09", "is_reserved": 0, "rental_uris": {"android": "https://dc.lft.to/lastmile_qr_scan", "ios": "https://dc.lft.to/lastmile_qr_scan"}, "lat": 38.92563366666667, "is_disabled": 0, "lon": -77.0228605}, {"fusion_lat": 0.0, "type": "electric_scooter", "name": "ad1b62d15d6a86aab331fd466cd1cb51", "fusion_lon": 0.0, "bike_id": "ad1b62d15d6a86aab331fd466cd1cb51", "is_reserved": 0, "rental_uris": {"android": "https://dc.lft.to/lastmile_qr_scan", "ios": "https://dc.lft.to/lastmile_qr_scan"}, "lat": 38.905678, "is_disabled": 0, "lon": -77.0059835}, {"fusion_lat": 0.0, "type": "electric_scooter", "name": "727603eb02d6d7a59d59ea309b7d9e7d", "fusion_lon": 0.0, "bike_id": "727603eb02d6d7a59d59ea309b7d9e7d", "is_reserved": 0, "rental_uris": {"android": "https://dc.lft.to/lastmile_qr_scan", "ios": "https://dc.lft.to/lastmile_qr_scan"}, "lat": 38.94994033333333, "is_disabled": 0, "lon": -77.026947}, {"fusion_lat": 0.0, "type": "electric_scooter", "name": "c037bcc8f856949ad50a64e203b9d9f2", "fusion_lon": 0.0, "bike_id": "c037bcc8f856949ad50a64e203b9d9f2", "is_reserved": 0, "rental_uris": {"android": "https://dc.lft.to/lastmile_qr_scan", "ios": "https://dc.lft.to/lastmile_qr_scan"}, "lat": 38.887183666666665, "is_disabled": 0, "lon": -77.0220545}, {"fusion_lat": 0.0, "type": "electric_scooter", "name": "b97d69772fe4c6f801601c50c28896ab", "fusion_lon": 0.0, "bike_id": "b97d69772fe4c6f801601c50c28896ab", "is_reserved": 0, "rental_uris": {"android": "https://dc.lft.to/lastmile_qr_scan", "ios": "https://dc.lft.to/lastmile_qr_scan"}, "lat": 38.919925166666665, "is_disabled": 0, "lon": -77.02407133333334}, {"fusion_lat": 0.0, "type": "electric_scooter", "name": "6c29f9ca6928444326ef5d2fe68b1f33", "fusion_lon": 0.0, "bike_id": "6c29f9ca6928444326ef5d2fe68b1f33", "is_reserved": 0, "rental_uris": {"android": "https://dc.lft.to/lastmile_qr_scan", "ios": "https://dc.lft.to/lastmile_qr_scan"}, "lat": 38.8860985, "is_disabled": 0, "lon": -77.00136233333333}, {"fusion_lat": 0.0, "type": "electric_scooter", "name": "79e35abed914b125def923b79eed3703", "fusion_lon": 0.0, "bike_id": "79e35abed914b125def923b79eed3703", "is_reserved": 0, "rental_uris": {"android": "https://dc.lft.to/lastmile_qr_scan", "ios": "https://dc.lft.to/lastmile_qr_scan"}, "lat": 38.864744, "is_disabled": 0, "lon": -76.98223183333333}, {"fusion_lat": 0.0, "type": "electric_scooter", "name": "4d6412e46b428a2ecb12ec4f4400b50c", "fusion_lon": 0.0, "bike_id": "4d6412e46b428a2ecb12ec4f4400b50c", "is_reserved": 0, "rental_uris": {"android": "https://dc.lft.to/lastmile_qr_scan", "ios": "https://dc.lft.to/lastmile_qr_scan"}, "lat": 38.92152933333333, "is_disabled": 0, "lon": -77.03380833333334}, {"fusion_lat": 0.0, "type": "electric_bike", "name": "6877e66f4a65a1fb09ed56946c786e4d", "fusion_lon": 0.0, "bike_id": "6877e66f4a65a1fb09ed56946c786e4d", "is_reserved": 0, "rental_uris": {"android": "https://dc.lft.to/lastmile_qr_scan", "ios": "https://dc.lft.to/lastmile_qr_scan"}, "lat": 38.8741885, "is_disabled": 0, "lon": -76.97164066666667}, {"fusion_lat": 0.0, "type": "electric_bike", "name": "8c2c1c3e3bc35cfb3427632f92cfc4a1", "fusion_lon": 0.0, "bike_id": "8c2c1c3e3bc35cfb3427632f92cfc4a1", "is_reserved": 0, "rental_uris": {"android": "https://dc.lft.to/lastmile_qr_scan", "ios": "https://dc.lft.to/lastmile_qr_scan"}, "lat": 38.85939333333334, "is_disabled": 0, "lon": -77.11828566666667}, {"fusion_lat": 0.0, "type": "electric_bike", "name": "e8a297630f8d37fad23862f37771c2ae", "fusion_lon": 0.0, "bike_id": "e8a297630f8d37fad23862f37771c2ae", "is_reserved": 0, "rental_uris": {"android": "https://dc.lft.to/lastmile_qr_scan", "ios": "https://dc.lft.to/lastmile_qr_scan"}, "lat": 38.981552, "is_disabled": 0, "lon": -77.02640683333334}, {"fusion_lat": 0.0, "type": "electric_bike", "name": "c33dae2900af5172052f210ae5ecd7da", "fusion_lon": 0.0, "bike_id": "c33dae2900af5172052f210ae5ecd7da", "is_reserved": 0, "rental_uris": {"android": "https://dc.lft.to/lastmile_qr_scan", "ios": "https://dc.lft.to/lastmile_qr_scan"}, "lat": 38.94806966666667, "is_disabled": 0, "lon": -76.95968816666667}, {"fusion_lat": 0.0, "type": "electric_scooter", "name": "b4d422a58b0785b2aa239528da7fba75", "fusion_lon": 0.0, "bike_id": "b4d422a58b0785b2aa239528da7fba75", "is_reserved": 0, "rental_uris": {"android": "https://dc.lft.to/lastmile_qr_scan", "ios": "https://dc.lft.to/lastmile_qr_scan"}, "lat": 38.92038683333333, "is_disabled": 0, "lon": -77.03638866666667}, {"fusion_lat": 0.0, "type": "electric_scooter", "name": "61b71ad218ad0ca6b1318e57206ad830", "fusion_lon": 0.0, "bike_id": "61b71ad218ad0ca6b1318e57206ad830", "is_reserved": 0, "rental_uris": {"android": "https://dc.lft.to/lastmile_qr_scan", "ios": "https://dc.lft.to/lastmile_qr_scan"}, "lat": 38.93423133333334, "is_disabled": 0, "lon": -77.043977}, {"fusion_lat": 0.0, "type": "electric_scooter", "name": "f55e5cff8e5977668b3735dc1ee25b4c", "fusion_lon": 0.0, "bike_id": "f55e5cff8e5977668b3735dc1ee25b4c", "is_reserved": 0, "rental_uris": {"android": "https://dc.lft.to/lastmile_qr_scan", "ios": "https://dc.lft.to/lastmile_qr_scan"}, "lat": 38.89855, "is_disabled": 0, "lon": -76.9903165}, {"fusion_lat": 0.0, "type": "electric_scooter", "name": "0909e01d62a2ca59b240ee3fd97b095e", "fusion_lon": 0.0, "bike_id": "0909e01d62a2ca59b240ee3fd97b095e", "is_reserved": 0, "rental_uris": {"android": "https://dc.lft.to/lastmile_qr_scan", "ios": "https://dc.lft.to/lastmile_qr_scan"}, "lat": 38.943194, "is_disabled": 0, "lon": -77.01727433333333}, {"fusion_lat": 0.0, "type": "electric_scooter", "name": "44f7d50c5463b4f1e5c28b33b9368040", "fusion_lon": 0.0, "bike_id": "44f7d50c5463b4f1e5c28b33b9368040", "is_reserved": 0, "rental_uris": {"android": "https://dc.lft.to/lastmile_qr_scan", "ios": "https://dc.lft.to/lastmile_qr_scan"}, "lat": 38.906292666666666, "is_disabled": 0, "lon": -77.05158016666667}, {"fusion_lat": 0.0, "type": "electric_scooter", "name": "4ecd0427fa2efa1296c494ef0269c94c", "fusion_lon": 0.0, "bike_id": "4ecd0427fa2efa1296c494ef0269c94c", "is_reserved": 0, "rental_uris": {"android": "https://dc.lft.to/lastmile_qr_scan", "ios": "https://dc.lft.to/lastmile_qr_scan"}, "lat": 38.90724516666667, "is_disabled": 0, "lon": -77.03192416666667}, {"fusion_lat": 0.0, "type": "electric_scooter", "name": "6b3525a36da2123c3f9ea6d03491ef19", "fusion_lon": 0.0, "bike_id": "6b3525a36da2123c3f9ea6d03491ef19", "is_reserved": 0, "rental_uris": {"android": "https://dc.lft.to/lastmile_qr_scan", "ios": "https://dc.lft.to/lastmile_qr_scan"}, "lat": 38.90758, "is_disabled": 0, "lon": -77.04199133333333}, {"fusion_lat": 0.0, "type": "electric_scooter", "name": "acb9286013e9d917ba77e4952f9c36ed", "fusion_lon": 0.0, "bike_id": "acb9286013e9d917ba77e4952f9c36ed", "is_reserved": 0, "rental_uris": {"android": "https://dc.lft.to/lastmile_qr_scan", "ios": "https://dc.lft.to/lastmile_qr_scan"}, "lat": 38.91589466666667, "is_disabled": 0, "lon": -77.03518533333333}, {"fusion_lat": 0.0, "type": "electric_scooter", "name": "a2c1854ed3ae079fc52f03ae0d9eef2c", "fusion_lon": 0.0, "bike_id": "a2c1854ed3ae079fc52f03ae0d9eef2c", "is_reserved": 0, "rental_uris": {"android": "https://dc.lft.to/lastmile_qr_scan", "ios": "https://dc.lft.to/lastmile_qr_scan"}, "lat": 38.911073, "is_disabled": 0, "lon": -77.01903766666666}, {"fusion_lat": 0.0, "type": "electric_scooter", "name": "20e88a253ca2d7b6e58009996e1ca497", "fusion_lon": 0.0, "bike_id": "20e88a253ca2d7b6e58009996e1ca497", "is_reserved": 0, "rental_uris": {"android": "https://dc.lft.to/lastmile_qr_scan", "ios": "https://dc.lft.to/lastmile_qr_scan"}, "lat": 38.900708, "is_disabled": 0, "lon": -77.04535166666666}, {"fusion_lat": 0.0, "type": "electric_scooter", "name": "f22b0bef75f18c27a0ca5b6293d2f3e8", "fusion_lon": 0.0, "bike_id": "f22b0bef75f18c27a0ca5b6293d2f3e8", "is_reserved": 0, "rental_uris": {"android": "https://dc.lft.to/lastmile_qr_scan", "ios": "https://dc.lft.to/lastmile_qr_scan"}, "lat": 38.9216545, "is_disabled": 0, "lon": -77.0337875}, {"fusion_lat": 0.0, "type": "electric_bike", "name": "abf6e02353b92bda3c297b917d3f31dd", "fusion_lon": 0.0, "bike_id": "abf6e02353b92bda3c297b917d3f31dd", "is_reserved": 0, "rental_uris": {"android": "https://dc.lft.to/lastmile_qr_scan", "ios": "https://dc.lft.to/lastmile_qr_scan"}, "lat": 38.91929183333333, "is_disabled": 0, "lon": -77.073801}, {"fusion_lat": 0.0, "type": "electric_bike", "name": "3847661012f7ccae498824cfbbef3a4c", "fusion_lon": 0.0, "bike_id": "3847661012f7ccae498824cfbbef3a4c", "is_reserved": 0, "rental_uris": {"android": "https://dc.lft.to/lastmile_qr_scan", "ios": "https://dc.lft.to/lastmile_qr_scan"}, "lat": 38.850229166666665, "is_disabled": 0, "lon": -77.09822366666667}, {"fusion_lat": 0.0, "type": "electric_scooter", "name": "5962e169844faab262b839080a2f910f", "fusion_lon": 0.0, "bike_id": "5962e169844faab262b839080a2f910f", "is_reserved": 0, "rental_uris": {"android": "https://dc.lft.to/lastmile_qr_scan", "ios": "https://dc.lft.to/lastmile_qr_scan"}, "lat": 38.882073166666665, "is_disabled": 0, "lon": -77.017456}, {"fusion_lat": 0.0, "type": "electric_scooter", "name": "f895132f5a5cb519b648cdcf39413262", "fusion_lon": 0.0, "bike_id": "f895132f5a5cb519b648cdcf39413262", "is_reserved": 0, "rental_uris": {"android": "https://dc.lft.to/lastmile_qr_scan", "ios": "https://dc.lft.to/lastmile_qr_scan"}, "lat": 38.8872355, "is_disabled": 0, "lon": -77.017727}, {"fusion_lat": 0.0, "type": "electric_scooter", "name": "aaf811fe7f7ee769a76709438a4b4ecf", "fusion_lon": 0.0, "bike_id": "aaf811fe7f7ee769a76709438a4b4ecf", "is_reserved": 0, "rental_uris": {"android": "https://dc.lft.to/lastmile_qr_scan", "ios": "https://dc.lft.to/lastmile_qr_scan"}, "lat": 38.91767133333333, "is_disabled": 0, "lon": -77.014901}, {"fusion_lat": 0.0, "type": "electric_scooter", "name": "3f69c7828d55b6f83a0e2565310cc926", "fusion_lon": 0.0, "bike_id": "3f69c7828d55b6f83a0e2565310cc926", "is_reserved": 0, "rental_uris": {"android": "https://dc.lft.to/lastmile_qr_scan", "ios": "https://dc.lft.to/lastmile_qr_scan"}, "lat": 38.900535, "is_disabled": 0, "lon": -76.99032266666667}, {"fusion_lat": 0.0, "type": "electric_scooter", "name": "a0e09b129c7e6f9ae8de88324a5220e2", "fusion_lon": 0.0, "bike_id": "a0e09b129c7e6f9ae8de88324a5220e2", "is_reserved": 0, "rental_uris": {"android": "https://dc.lft.to/lastmile_qr_scan", "ios": "https://dc.lft.to/lastmile_qr_scan"}, "lat": 38.86057983333333, "is_disabled": 0, "lon": -76.98421433333333}, {"fusion_lat": 0.0, "type": "electric_scooter", "name": "b2a3d9c555010be3b3ac1b142ef7c456", "fusion_lon": 0.0, "bike_id": "b2a3d9c555010be3b3ac1b142ef7c456", "is_reserved": 0, "rental_uris": {"android": "https://dc.lft.to/lastmile_qr_scan", "ios": "https://dc.lft.to/lastmile_qr_scan"}, "lat": 38.903736, "is_disabled": 0, "lon": -77.01775}, {"fusion_lat": 0.0, "type": "electric_bike", "name": "3abe293c7c95267fd4f29190f679f90a", "fusion_lon": 0.0, "bike_id": "3abe293c7c95267fd4f29190f679f90a", "is_reserved": 0, "rental_uris": {"android": "https://dc.lft.to/lastmile_qr_scan", "ios": "https://dc.lft.to/lastmile_qr_scan"}, "lat": 38.87730916666667, "is_disabled": 0, "lon": -76.98107333333333}, {"fusion_lat": 0.0, "type": "electric_scooter", "name": "5373e656660fb4cf834203bd88c38dbf", "fusion_lon": 0.0, "bike_id": "5373e656660fb4cf834203bd88c38dbf", "is_reserved": 0, "rental_uris": {"android": "https://dc.lft.to/lastmile_qr_scan", "ios": "https://dc.lft.to/lastmile_qr_scan"}, "lat": 38.91861433333333, "is_disabled": 0, "lon": -77.02525733333333}, {"fusion_lat": 0.0, "type": "electric_scooter", "name": "cd8230b826a345ae9e8987de80b3fc94", "fusion_lon": 0.0, "bike_id": "cd8230b826a345ae9e8987de80b3fc94", "is_reserved": 0, "rental_uris": {"android": "https://dc.lft.to/lastmile_qr_scan", "ios": "https://dc.lft.to/lastmile_qr_scan"}, "lat": 38.89886166666667, "is_disabled": 0, "lon": -76.93175233333334}, {"fusion_lat": 0.0, "type": "electric_scooter", "name": "9f36812b5a6f459bec64ac67d89d5335", "fusion_lon": 0.0, "bike_id": "9f36812b5a6f459bec64ac67d89d5335", "is_reserved": 0, "rental_uris": {"android": "https://dc.lft.to/lastmile_qr_scan", "ios": "https://dc.lft.to/lastmile_qr_scan"}, "lat": 38.874658833333335, "is_disabled": 0, "lon": -77.0095585}, {"fusion_lat": 0.0, "type": "electric_scooter", "name": "2fb1f30e055c6e348ee9a53779db1ce4", "fusion_lon": 0.0, "bike_id": "2fb1f30e055c6e348ee9a53779db1ce4", "is_reserved": 0, "rental_uris": {"android": "https://dc.lft.to/lastmile_qr_scan", "ios": "https://dc.lft.to/lastmile_qr_scan"}, "lat": 38.949022666666664, "is_disabled": 0, "lon": -77.00644216666667}, {"fusion_lat": 0.0, "type": "electric_scooter", "name": "f16fc377e4b1b9adfa4addf0679809cb", "fusion_lon": 0.0, "bike_id": "f16fc377e4b1b9adfa4addf0679809cb", "is_reserved": 0, "rental_uris": {"android": "https://dc.lft.to/lastmile_qr_scan", "ios": "https://dc.lft.to/lastmile_qr_scan"}, "lat": 38.8922385, "is_disabled": 0, "lon": -77.0468635}, {"fusion_lat": 0.0, "type": "electric_scooter", "name": "262a1b168a24e9b0d8bd601e47e858d8", "fusion_lon": 0.0, "bike_id": "262a1b168a24e9b0d8bd601e47e858d8", "is_reserved": 0, "rental_uris": {"android": "https://dc.lft.to/lastmile_qr_scan", "ios": "https://dc.lft.to/lastmile_qr_scan"}, "lat": 38.9096095, "is_disabled": 0, "lon": -77.02715133333334}, {"fusion_lat": 0.0, "type": "electric_scooter", "name": "b6a8e5741b65708da2dedd8ac1e33fb1", "fusion_lon": 0.0, "bike_id": "b6a8e5741b65708da2dedd8ac1e33fb1", "is_reserved": 0, "rental_uris": {"android": "https://dc.lft.to/lastmile_qr_scan", "ios": "https://dc.lft.to/lastmile_qr_scan"}, "lat": 38.935360833333334, "is_disabled": 0, "lon": -77.02344333333333}, {"fusion_lat": 0.0, "type": "electric_scooter", "name": "93ab13e31383e6b101cfbb3f0fe3aa3a", "fusion_lon": 0.0, "bike_id": "93ab13e31383e6b101cfbb3f0fe3aa3a", "is_reserved": 0, "rental_uris": {"android": "https://dc.lft.to/lastmile_qr_scan", "ios": "https://dc.lft.to/lastmile_qr_scan"}, "lat": 38.934610166666666, "is_disabled": 0, "lon": -77.0578065}, {"fusion_lat": 0.0, "type": "electric_scooter", "name": "620fd234966f11cb6d56c4bd65342ae9", "fusion_lon": 0.0, "bike_id": "620fd234966f11cb6d56c4bd65342ae9", "is_reserved": 0, "rental_uris": {"android": "https://dc.lft.to/lastmile_qr_scan", "ios": "https://dc.lft.to/lastmile_qr_scan"}, "lat": 38.91000233333333, "is_disabled": 0, "lon": -77.00895666666666}, {"fusion_lat": 0.0, "type": "electric_scooter", "name": "0a2b6837fdb97040aaf918e1ce423644", "fusion_lon": 0.0, "bike_id": "0a2b6837fdb97040aaf918e1ce423644", "is_reserved": 0, "rental_uris": {"android": "https://dc.lft.to/lastmile_qr_scan", "ios": "https://dc.lft.to/lastmile_qr_scan"}, "lat": 38.923100833333336, "is_disabled": 0, "lon": -77.04461316666666}, {"fusion_lat": 0.0, "type": "electric_scooter", "name": "191be9407c34f7acf8881623cf92adfe", "fusion_lon": 0.0, "bike_id": "191be9407c34f7acf8881623cf92adfe", "is_reserved": 0, "rental_uris": {"android": "https://dc.lft.to/lastmile_qr_scan", "ios": "https://dc.lft.to/lastmile_qr_scan"}, "lat": 38.898452, "is_disabled": 0, "lon": -76.9464255}, {"fusion_lat": 0.0, "type": "electric_scooter", "name": "9ec804ca9fdeb47f8a8254b97995c348", "fusion_lon": 0.0, "bike_id": "9ec804ca9fdeb47f8a8254b97995c348", "is_reserved": 0, "rental_uris": {"android": "https://dc.lft.to/lastmile_qr_scan", "ios": "https://dc.lft.to/lastmile_qr_scan"}, "lat": 38.909008, "is_disabled": 0, "lon": -77.03217466666666}, {"fusion_lat": 0.0, "type": "electric_scooter", "name": "2500653d1157c9fd4b5d0adc52cf851e", "fusion_lon": 0.0, "bike_id": "2500653d1157c9fd4b5d0adc52cf851e", "is_reserved": 0, "rental_uris": {"android": "https://dc.lft.to/lastmile_qr_scan", "ios": "https://dc.lft.to/lastmile_qr_scan"}, "lat": 38.97535933333333, "is_disabled": 0, "lon": -77.01687683333333}, {"fusion_lat": 0.0, "type": "electric_scooter", "name": "d4f0244f8599b58b8fa1e15cee6e5549", "fusion_lon": 0.0, "bike_id": "d4f0244f8599b58b8fa1e15cee6e5549", "is_reserved": 0, "rental_uris": {"android": "https://dc.lft.to/lastmile_qr_scan", "ios": "https://dc.lft.to/lastmile_qr_scan"}, "lat": 38.906292, "is_disabled": 0, "lon": -77.0100755}, {"fusion_lat": 0.0, "type": "electric_scooter", "name": "e5a855f81a632b2223e5fa1ca93631c0", "fusion_lon": 0.0, "bike_id": "e5a855f81a632b2223e5fa1ca93631c0", "is_reserved": 0, "rental_uris": {"android": "https://dc.lft.to/lastmile_qr_scan", "ios": "https://dc.lft.to/lastmile_qr_scan"}, "lat": 38.89216366666667, "is_disabled": 0, "lon": -77.03159533333333}, {"fusion_lat": 0.0, "type": "electric_scooter", "name": "15f52c962a5d0f5a316bfeb6571e0364", "fusion_lon": 0.0, "bike_id": "15f52c962a5d0f5a316bfeb6571e0364", "is_reserved": 0, "rental_uris": {"android": "https://dc.lft.to/lastmile_qr_scan", "ios": "https://dc.lft.to/lastmile_qr_scan"}, "lat": 38.89745666666666, "is_disabled": 0, "lon": -76.989822}, {"fusion_lat": 0.0, "type": "electric_scooter", "name": "f613350f9cc3ba87771df59fb4b85eff", "fusion_lon": 0.0, "bike_id": "f613350f9cc3ba87771df59fb4b85eff", "is_reserved": 0, "rental_uris": {"android": "https://dc.lft.to/lastmile_qr_scan", "ios": "https://dc.lft.to/lastmile_qr_scan"}, "lat": 38.928118833333336, "is_disabled": 0, "lon": -77.0544525}, {"fusion_lat": 0.0, "type": "electric_scooter", "name": "a315ab290f25621cc971a0f5c5da44a1", "fusion_lon": 0.0, "bike_id": "a315ab290f25621cc971a0f5c5da44a1", "is_reserved": 0, "rental_uris": {"android": "https://dc.lft.to/lastmile_qr_scan", "ios": "https://dc.lft.to/lastmile_qr_scan"}, "lat": 38.949916, "is_disabled": 0, "lon": -77.02705483333334}, {"fusion_lat": 0.0, "type": "electric_bike", "name": "058ee65cad293389654c68042ccd0d36", "fusion_lon": 0.0, "bike_id": "058ee65cad293389654c68042ccd0d36", "is_reserved": 0, "rental_uris": {"android": "https://dc.lft.to/lastmile_qr_scan", "ios": "https://dc.lft.to/lastmile_qr_scan"}, "lat": 38.8381345, "is_disabled": 0, "lon": -77.09524383333333}, {"fusion_lat": 0.0, "type": "electric_bike", "name": "12f22fe3e6e7f4d0aecd20d7ded65cb5", "fusion_lon": 0.0, "bike_id": "12f22fe3e6e7f4d0aecd20d7ded65cb5", "is_reserved": 0, "rental_uris": {"android": "https://dc.lft.to/lastmile_qr_scan", "ios": "https://dc.lft.to/lastmile_qr_scan"}, "lat": 38.86523916666667, "is_disabled": 0, "lon": -76.973388}, {"fusion_lat": 0.0, "type": "electric_scooter", "name": "397581897f3d748c69987f724e6c6833", "fusion_lon": 0.0, "bike_id": "397581897f3d748c69987f724e6c6833", "is_reserved": 0, "rental_uris": {"android": "https://dc.lft.to/lastmile_qr_scan", "ios": "https://dc.lft.to/lastmile_qr_scan"}, "lat": 38.866688833333335, "is_disabled": 0, "lon": -76.98526433333333}, {"fusion_lat": 0.0, "type": "electric_scooter", "name": "2f16f43e52556f80d115d14e13c045be", "fusion_lon": 0.0, "bike_id": "2f16f43e52556f80d115d14e13c045be", "is_reserved": 0, "rental_uris": {"android": "https://dc.lft.to/lastmile_qr_scan", "ios": "https://dc.lft.to/lastmile_qr_scan"}, "lat": 38.898067, "is_disabled": 0, "lon": -76.99160516666667}, {"fusion_lat": 0.0, "type": "electric_scooter", "name": "aa888d15e88817bb83a382b35219e5bd", "fusion_lon": 0.0, "bike_id": "aa888d15e88817bb83a382b35219e5bd", "is_reserved": 0, "rental_uris": {"android": "https://dc.lft.to/lastmile_qr_scan", "ios": "https://dc.lft.to/lastmile_qr_scan"}, "lat": 38.88460366666666, "is_disabled": 0, "lon": -76.9262105}, {"fusion_lat": 0.0, "type": "electric_scooter", "name": "f464c8e0935795fb232ab649c8ce84c6", "fusion_lon": 0.0, "bike_id": "f464c8e0935795fb232ab649c8ce84c6", "is_reserved": 0, "rental_uris": {"android": "https://dc.lft.to/lastmile_qr_scan", "ios": "https://dc.lft.to/lastmile_qr_scan"}, "lat": 38.92140916666666, "is_disabled": 0, "lon": -77.0287435}, {"fusion_lat": 0.0, "type": "electric_scooter", "name": "8fec8fcb634d52352ed5935596522c6d", "fusion_lon": 0.0, "bike_id": "8fec8fcb634d52352ed5935596522c6d", "is_reserved": 0, "rental_uris": {"android": "https://dc.lft.to/lastmile_qr_scan", "ios": "https://dc.lft.to/lastmile_qr_scan"}, "lat": 38.923402333333335, "is_disabled": 0, "lon": -77.02121033333333}, {"fusion_lat": 0.0, "type": "electric_bike", "name": "7c08200d0060df25862c367d3d65af16", "fusion_lon": 0.0, "bike_id": "7c08200d0060df25862c367d3d65af16", "is_reserved": 0, "rental_uris": {"android": "https://dc.lft.to/lastmile_qr_scan", "ios": "https://dc.lft.to/lastmile_qr_scan"}, "lat": 38.96224516666667, "is_disabled": 0, "lon": -77.02625466666667}, {"fusion_lat": 0.0, "type": "electric_scooter", "name": "34921273e395b3d3c748bbfd723b2bde", "fusion_lon": 0.0, "bike_id": "34921273e395b3d3c748bbfd723b2bde", "is_reserved": 0, "rental_uris": {"android": "https://dc.lft.to/lastmile_qr_scan", "ios": "https://dc.lft.to/lastmile_qr_scan"}, "lat": 38.92366666666667, "is_disabled": 0, "lon": -77.0505045}, {"fusion_lat": 0.0, "type": "electric_scooter", "name": "5956bf3c9f54e44257d061816c1d8e69", "fusion_lon": 0.0, "bike_id": "5956bf3c9f54e44257d061816c1d8e69", "is_reserved": 0, "rental_uris": {"android": "https://dc.lft.to/lastmile_qr_scan", "ios": "https://dc.lft.to/lastmile_qr_scan"}, "lat": 38.934597333333336, "is_disabled": 0, "lon": -77.022176}, {"fusion_lat": 0.0, "type": "electric_bike", "name": "1bd10f7f6f5f1d91d051e11daef509f0", "fusion_lon": 0.0, "bike_id": "1bd10f7f6f5f1d91d051e11daef509f0", "is_reserved": 0, "rental_uris": {"android": "https://dc.lft.to/lastmile_qr_scan", "ios": "https://dc.lft.to/lastmile_qr_scan"}, "lat": 38.938713666666665, "is_disabled": 0, "lon": -76.942957}, {"fusion_lat": 0.0, "type": "electric_scooter", "name": "5fbb1a52860255f64631ca12a58b3e31", "fusion_lon": 0.0, "bike_id": "5fbb1a52860255f64631ca12a58b3e31", "is_reserved": 0, "rental_uris": {"android": "https://dc.lft.to/lastmile_qr_scan", "ios": "https://dc.lft.to/lastmile_qr_scan"}, "lat": 38.891886166666666, "is_disabled": 0, "lon": -76.99035733333334}, {"fusion_lat": 0.0, "type": "electric_scooter", "name": "2fcad97a03b819038063a5eb1d99b7d9", "fusion_lon": 0.0, "bike_id": "2fcad97a03b819038063a5eb1d99b7d9", "is_reserved": 0, "rental_uris": {"android": "https://dc.lft.to/lastmile_qr_scan", "ios": "https://dc.lft.to/lastmile_qr_scan"}, "lat": 38.897324, "is_disabled": 0, "lon": -77.04365666666666}, {"fusion_lat": 0.0, "type": "electric_scooter", "name": "6b0b183068f989389694c9ea5d84336d", "fusion_lon": 0.0, "bike_id": "6b0b183068f989389694c9ea5d84336d", "is_reserved": 0, "rental_uris": {"android": "https://dc.lft.to/lastmile_qr_scan", "ios": "https://dc.lft.to/lastmile_qr_scan"}, "lat": 38.911103, "is_disabled": 0, "lon": -77.0046015}, {"fusion_lat": 0.0, "type": "electric_bike", "name": "1429b48cef856e46299f678589562912", "fusion_lon": 0.0, "bike_id": "1429b48cef856e46299f678589562912", "is_reserved": 0, "rental_uris": {"android": "https://dc.lft.to/lastmile_qr_scan", "ios": "https://dc.lft.to/lastmile_qr_scan"}, "lat": 38.95959633333333, "is_disabled": 0, "lon": -77.100903}, {"fusion_lat": 0.0, "type": "electric_scooter", "name": "57ea13d901e61cf01e07d06c21e0be7f", "fusion_lon": 0.0, "bike_id": "57ea13d901e61cf01e07d06c21e0be7f", "is_reserved": 0, "rental_uris": {"android": "https://dc.lft.to/lastmile_qr_scan", "ios": "https://dc.lft.to/lastmile_qr_scan"}, "lat": 38.93349966666667, "is_disabled": 0, "lon": -77.04124916666666}, {"fusion_lat": 0.0, "type": "electric_bike", "name": "2e1cf71581e7176f813453b22c1ae537", "fusion_lon": 0.0, "bike_id": "2e1cf71581e7176f813453b22c1ae537", "is_reserved": 0, "rental_uris": {"android": "https://dc.lft.to/lastmile_qr_scan", "ios": "https://dc.lft.to/lastmile_qr_scan"}, "lat": 38.83159583333333, "is_disabled": 0, "lon": -76.995458}, {"fusion_lat": 0.0, "type": "electric_scooter", "name": "91cde12db6125fd63056fdbb3decf2bc", "fusion_lon": 0.0, "bike_id": "91cde12db6125fd63056fdbb3decf2bc", "is_reserved": 0, "rental_uris": {"android": "https://dc.lft.to/lastmile_qr_scan", "ios": "https://dc.lft.to/lastmile_qr_scan"}, "lat": 38.865796, "is_disabled": 0, "lon": -76.98917633333333}, {"fusion_lat": 0.0, "type": "electric_bike", "name": "bc3097317186df7eae152461dd60cc9e", "fusion_lon": 0.0, "bike_id": "bc3097317186df7eae152461dd60cc9e", "is_reserved": 0, "rental_uris": {"android": "https://dc.lft.to/lastmile_qr_scan", "ios": "https://dc.lft.to/lastmile_qr_scan"}, "lat": 38.812045499999996, "is_disabled": 0, "lon": -77.1083705}, {"fusion_lat": 0.0, "type": "electric_scooter", "name": "a8a8f65f01a7a9f8f2e19b92f6217932", "fusion_lon": 0.0, "bike_id": "a8a8f65f01a7a9f8f2e19b92f6217932", "is_reserved": 0, "rental_uris": {"android": "https://dc.lft.to/lastmile_qr_scan", "ios": "https://dc.lft.to/lastmile_qr_scan"}, "lat": 38.901983, "is_disabled": 0, "lon": -76.98066433333334}, {"fusion_lat": 0.0, "type": "electric_scooter", "name": "fcb4d14f0688b748623fab4bdd730196", "fusion_lon": 0.0, "bike_id": "fcb4d14f0688b748623fab4bdd730196", "is_reserved": 0, "rental_uris": {"android": "https://dc.lft.to/lastmile_qr_scan", "ios": "https://dc.lft.to/lastmile_qr_scan"}, "lat": 38.910901, "is_disabled": 0, "lon": -77.03716166666666}, {"fusion_lat": 0.0, "type": "electric_scooter", "name": "5c28755a64faa61cad35653b5c7f496c", "fusion_lon": 0.0, "bike_id": "5c28755a64faa61cad35653b5c7f496c", "is_reserved": 0, "rental_uris": {"android": "https://dc.lft.to/lastmile_qr_scan", "ios": "https://dc.lft.to/lastmile_qr_scan"}, "lat": 38.88734933333333, "is_disabled": 0, "lon": -77.02581416666666}, {"fusion_lat": 0.0, "type": "electric_bike", "name": "a2545e02ca25fcc791366ee1ed867ada", "fusion_lon": 0.0, "bike_id": "a2545e02ca25fcc791366ee1ed867ada", "is_reserved": 0, "rental_uris": {"android": "https://dc.lft.to/lastmile_qr_scan", "ios": "https://dc.lft.to/lastmile_qr_scan"}, "lat": 38.96780016666666, "is_disabled": 0, "lon": -77.00039883333334}, {"fusion_lat": 0.0, "type": "electric_scooter", "name": "d5d2702bbbde527894422e75309ebb50", "fusion_lon": 0.0, "bike_id": "d5d2702bbbde527894422e75309ebb50", "is_reserved": 0, "rental_uris": {"android": "https://dc.lft.to/lastmile_qr_scan", "ios": "https://dc.lft.to/lastmile_qr_scan"}, "lat": 38.89239516666667, "is_disabled": 0, "lon": -77.03208983333333}, {"fusion_lat": 0.0, "type": "electric_scooter", "name": "27a0ef504b9c06aa1f14f24291c5b69a", "fusion_lon": 0.0, "bike_id": "27a0ef504b9c06aa1f14f24291c5b69a", "is_reserved": 0, "rental_uris": {"android": "https://dc.lft.to/lastmile_qr_scan", "ios": "https://dc.lft.to/lastmile_qr_scan"}, "lat": 38.89232033333333, "is_disabled": 0, "lon": -77.0318225}, {"fusion_lat": 0.0, "type": "electric_scooter", "name": "671a8ace3f7441c10fa93ed1744e41a2", "fusion_lon": 0.0, "bike_id": "671a8ace3f7441c10fa93ed1744e41a2", "is_reserved": 0, "rental_uris": {"android": "https://dc.lft.to/lastmile_qr_scan", "ios": "https://dc.lft.to/lastmile_qr_scan"}, "lat": 38.91745366666667, "is_disabled": 0, "lon": -77.03186633333334}, {"fusion_lat": 0.0, "type": "electric_scooter", "name": "6719b9edeeb07e0f96932c8f604fc425", "fusion_lon": 0.0, "bike_id": "6719b9edeeb07e0f96932c8f604fc425", "is_reserved": 0, "rental_uris": {"android": "https://dc.lft.to/lastmile_qr_scan", "ios": "https://dc.lft.to/lastmile_qr_scan"}, "lat": 38.909261, "is_disabled": 0, "lon": -77.03850183333333}, {"fusion_lat": 0.0, "type": "electric_scooter", "name": "79318123a55d7b95ddb2bff04cff366e", "fusion_lon": 0.0, "bike_id": "79318123a55d7b95ddb2bff04cff366e", "is_reserved": 0, "rental_uris": {"android": "https://dc.lft.to/lastmile_qr_scan", "ios": "https://dc.lft.to/lastmile_qr_scan"}, "lat": 38.90957933333333, "is_disabled": 0, "lon": -77.03215383333334}, {"fusion_lat": 0.0, "type": "electric_scooter", "name": "39bce55b1aac48ff4064c9b322661892", "fusion_lon": 0.0, "bike_id": "39bce55b1aac48ff4064c9b322661892", "is_reserved": 0, "rental_uris": {"android": "https://dc.lft.to/lastmile_qr_scan", "ios": "https://dc.lft.to/lastmile_qr_scan"}, "lat": 38.9015115, "is_disabled": 0, "lon": -76.99012833333333}, {"fusion_lat": 0.0, "type": "electric_scooter", "name": "0e83944d11661d9048277a7a5eb5a3d7", "fusion_lon": 0.0, "bike_id": "0e83944d11661d9048277a7a5eb5a3d7", "is_reserved": 0, "rental_uris": {"android": "https://dc.lft.to/lastmile_qr_scan", "ios": "https://dc.lft.to/lastmile_qr_scan"}, "lat": 38.90034333333333, "is_disabled": 0, "lon": -76.9843585}, {"fusion_lat": 0.0, "type": "electric_scooter", "name": "ac43e8f029424d22d1bb02223e7f99a3", "fusion_lon": 0.0, "bike_id": "ac43e8f029424d22d1bb02223e7f99a3", "is_reserved": 0, "rental_uris": {"android": "https://dc.lft.to/lastmile_qr_scan", "ios": "https://dc.lft.to/lastmile_qr_scan"}, "lat": 38.913273, "is_disabled": 0, "lon": -77.014571}, {"fusion_lat": 0.0, "type": "electric_scooter", "name": "d1ead24de3972956061efb0c324045da", "fusion_lon": 0.0, "bike_id": "d1ead24de3972956061efb0c324045da", "is_reserved": 0, "rental_uris": {"android": "https://dc.lft.to/lastmile_qr_scan", "ios": "https://dc.lft.to/lastmile_qr_scan"}, "lat": 38.903932833333336, "is_disabled": 0, "lon": -77.06276383333334}, {"fusion_lat": 0.0, "type": "electric_scooter", "name": "1db3ed05d9c8acff0dd3b32e73290125", "fusion_lon": 0.0, "bike_id": "1db3ed05d9c8acff0dd3b32e73290125", "is_reserved": 0, "rental_uris": {"android": "https://dc.lft.to/lastmile_qr_scan", "ios": "https://dc.lft.to/lastmile_qr_scan"}, "lat": 38.909844666666665, "is_disabled": 0, "lon": -77.0241845}, {"fusion_lat": 0.0, "type": "electric_scooter", "name": "27d441a9246be576288907d6a23c1f06", "fusion_lon": 0.0, "bike_id": "27d441a9246be576288907d6a23c1f06", "is_reserved": 0, "rental_uris": {"android": "https://dc.lft.to/lastmile_qr_scan", "ios": "https://dc.lft.to/lastmile_qr_scan"}, "lat": 38.902545333333336, "is_disabled": 0, "lon": -77.01944733333333}, {"fusion_lat": 0.0, "type": "electric_scooter", "name": "35387740af983edb5d568942db6a01e5", "fusion_lon": 0.0, "bike_id": "35387740af983edb5d568942db6a01e5", "is_reserved": 0, "rental_uris": {"android": "https://dc.lft.to/lastmile_qr_scan", "ios": "https://dc.lft.to/lastmile_qr_scan"}, "lat": 38.89236116666667, "is_disabled": 0, "lon": -77.043672}, {"fusion_lat": 0.0, "type": "electric_scooter", "name": "85503c1cec576dfd1a9a58b870a51dd5", "fusion_lon": 0.0, "bike_id": "85503c1cec576dfd1a9a58b870a51dd5", "is_reserved": 0, "rental_uris": {"android": "https://dc.lft.to/lastmile_qr_scan", "ios": "https://dc.lft.to/lastmile_qr_scan"}, "lat": 38.9056625, "is_disabled": 0, "lon": -76.98380533333334}, {"fusion_lat": 0.0, "type": "electric_scooter", "name": "299adf9ab754138a6da0389fafe86e7b", "fusion_lon": 0.0, "bike_id": "299adf9ab754138a6da0389fafe86e7b", "is_reserved": 0, "rental_uris": {"android": "https://dc.lft.to/lastmile_qr_scan", "ios": "https://dc.lft.to/lastmile_qr_scan"}, "lat": 38.91823816666667, "is_disabled": 0, "lon": -77.03940866666667}, {"fusion_lat": 0.0, "type": "electric_scooter", "name": "25f912bb00544d60e18cd367e0607861", "fusion_lon": 0.0, "bike_id": "25f912bb00544d60e18cd367e0607861", "is_reserved": 0, "rental_uris": {"android": "https://dc.lft.to/lastmile_qr_scan", "ios": "https://dc.lft.to/lastmile_qr_scan"}, "lat": 38.92584433333333, "is_disabled": 0, "lon": -77.03736883333333}, {"fusion_lat": 0.0, "type": "electric_scooter", "name": "fc8113bbcdab128a90f8877e87ae0327", "fusion_lon": 0.0, "bike_id": "fc8113bbcdab128a90f8877e87ae0327", "is_reserved": 0, "rental_uris": {"android": "https://dc.lft.to/lastmile_qr_scan", "ios": "https://dc.lft.to/lastmile_qr_scan"}, "lat": 38.94069183333333, "is_disabled": 0, "lon": -77.0115005}, {"fusion_lat": 0.0, "type": "electric_bike", "name": "3fef143e971d5ccf0d1ff74241850211", "fusion_lon": 0.0, "bike_id": "3fef143e971d5ccf0d1ff74241850211", "is_reserved": 0, "rental_uris": {"android": "https://dc.lft.to/lastmile_qr_scan", "ios": "https://dc.lft.to/lastmile_qr_scan"}, "lat": 38.827902333333334, "is_disabled": 0, "lon": -77.00916483333333}, {"fusion_lat": 0.0, "type": "electric_scooter", "name": "4a75cec5fc8e88d139897b75f03204e9", "fusion_lon": 0.0, "bike_id": "4a75cec5fc8e88d139897b75f03204e9", "is_reserved": 0, "rental_uris": {"android": "https://dc.lft.to/lastmile_qr_scan", "ios": "https://dc.lft.to/lastmile_qr_scan"}, "lat": 38.9137015, "is_disabled": 0, "lon": -77.03854166666666}, {"fusion_lat": 0.0, "type": "electric_scooter", "name": "8da8c6e12fe52ae90a222289cd4a01c9", "fusion_lon": 0.0, "bike_id": "8da8c6e12fe52ae90a222289cd4a01c9", "is_reserved": 0, "rental_uris": {"android": "https://dc.lft.to/lastmile_qr_scan", "ios": "https://dc.lft.to/lastmile_qr_scan"}, "lat": 38.87755583333333, "is_disabled": 0, "lon": -77.01773766666666}, {"fusion_lat": 0.0, "type": "electric_scooter", "name": "82c71055e6a48b3737528a64bbd3acb3", "fusion_lon": 0.0, "bike_id": "82c71055e6a48b3737528a64bbd3acb3", "is_reserved": 0, "rental_uris": {"android": "https://dc.lft.to/lastmile_qr_scan", "ios": "https://dc.lft.to/lastmile_qr_scan"}, "lat": 38.92364633333333, "is_disabled": 0, "lon": -77.05052266666667}, {"fusion_lat": 0.0, "type": "electric_scooter", "name": "60532909e98dbd0d45b008dd3d4f18e7", "fusion_lon": 0.0, "bike_id": "60532909e98dbd0d45b008dd3d4f18e7", "is_reserved": 0, "rental_uris": {"android": "https://dc.lft.to/lastmile_qr_scan", "ios": "https://dc.lft.to/lastmile_qr_scan"}, "lat": 38.92796716666667, "is_disabled": 0, "lon": -77.04356416666667}, {"fusion_lat": 0.0, "type": "electric_scooter", "name": "1b81a8adf96a4c47db1c34032b5796ec", "fusion_lon": 0.0, "bike_id": "1b81a8adf96a4c47db1c34032b5796ec", "is_reserved": 0, "rental_uris": {"android": "https://dc.lft.to/lastmile_qr_scan", "ios": "https://dc.lft.to/lastmile_qr_scan"}, "lat": 38.91554883333333, "is_disabled": 0, "lon": -77.02981866666667}, {"fusion_lat": 0.0, "type": "electric_scooter", "name": "74be25093e434a710816a940f1a7629b", "fusion_lon": 0.0, "bike_id": "74be25093e434a710816a940f1a7629b", "is_reserved": 0, "rental_uris": {"android": "https://dc.lft.to/lastmile_qr_scan", "ios": "https://dc.lft.to/lastmile_qr_scan"}, "lat": 38.91721116666667, "is_disabled": 0, "lon": -77.02534483333334}, {"fusion_lat": 0.0, "type": "electric_scooter", "name": "604d480b92aba915b7aeb59fb2388071", "fusion_lon": 0.0, "bike_id": "604d480b92aba915b7aeb59fb2388071", "is_reserved": 0, "rental_uris": {"android": "https://dc.lft.to/lastmile_qr_scan", "ios": "https://dc.lft.to/lastmile_qr_scan"}, "lat": 38.9117925, "is_disabled": 0, "lon": -77.0609365}, {"fusion_lat": 0.0, "type": "electric_scooter", "name": "7959d6f0c29a43a30af96b3526c1e973", "fusion_lon": 0.0, "bike_id": "7959d6f0c29a43a30af96b3526c1e973", "is_reserved": 0, "rental_uris": {"android": "https://dc.lft.to/lastmile_qr_scan", "ios": "https://dc.lft.to/lastmile_qr_scan"}, "lat": 38.93390333333333, "is_disabled": 0, "lon": -77.02354433333333}, {"fusion_lat": 0.0, "type": "electric_scooter", "name": "74436497fb6b5ae035fb7405d0dced62", "fusion_lon": 0.0, "bike_id": "74436497fb6b5ae035fb7405d0dced62", "is_reserved": 0, "rental_uris": {"android": "https://dc.lft.to/lastmile_qr_scan", "ios": "https://dc.lft.to/lastmile_qr_scan"}, "lat": 38.90970866666667, "is_disabled": 0, "lon": -77.02419266666666}, {"fusion_lat": 0.0, "type": "electric_scooter", "name": "0cc3f4e1641d75e8e2d27c3e5bea1779", "fusion_lon": 0.0, "bike_id": "0cc3f4e1641d75e8e2d27c3e5bea1779", "is_reserved": 0, "rental_uris": {"android": "https://dc.lft.to/lastmile_qr_scan", "ios": "https://dc.lft.to/lastmile_qr_scan"}, "lat": 38.912673, "is_disabled": 0, "lon": -77.038236}, {"fusion_lat": 0.0, "type": "electric_scooter", "name": "06a452ed2f033e2ab282ae5171c5107c", "fusion_lon": 0.0, "bike_id": "06a452ed2f033e2ab282ae5171c5107c", "is_reserved": 0, "rental_uris": {"android": "https://dc.lft.to/lastmile_qr_scan", "ios": "https://dc.lft.to/lastmile_qr_scan"}, "lat": 38.933698, "is_disabled": 0, "lon": -77.05725716666667}, {"fusion_lat": 0.0, "type": "electric_scooter", "name": "6ebe10eba960d68533821af55c7af069", "fusion_lon": 0.0, "bike_id": "6ebe10eba960d68533821af55c7af069", "is_reserved": 0, "rental_uris": {"android": "https://dc.lft.to/lastmile_qr_scan", "ios": "https://dc.lft.to/lastmile_qr_scan"}, "lat": 38.86645266666667, "is_disabled": 0, "lon": -76.9853275}, {"fusion_lat": 0.0, "type": "electric_scooter", "name": "25a590c6a3f617167a02579c492c4020", "fusion_lon": 0.0, "bike_id": "25a590c6a3f617167a02579c492c4020", "is_reserved": 0, "rental_uris": {"android": "https://dc.lft.to/lastmile_qr_scan", "ios": "https://dc.lft.to/lastmile_qr_scan"}, "lat": 38.9279545, "is_disabled": 0, "lon": -77.02598483333334}, {"fusion_lat": 0.0, "type": "electric_scooter", "name": "cd26bf26e310dc7ab7ea38b38819aa26", "fusion_lon": 0.0, "bike_id": "cd26bf26e310dc7ab7ea38b38819aa26", "is_reserved": 0, "rental_uris": {"android": "https://dc.lft.to/lastmile_qr_scan", "ios": "https://dc.lft.to/lastmile_qr_scan"}, "lat": 38.900293166666664, "is_disabled": 0, "lon": -76.98633416666667}, {"fusion_lat": 0.0, "type": "electric_scooter", "name": "984a68550dbd875ed398829009b0525e", "fusion_lon": 0.0, "bike_id": "984a68550dbd875ed398829009b0525e", "is_reserved": 0, "rental_uris": {"android": "https://dc.lft.to/lastmile_qr_scan", "ios": "https://dc.lft.to/lastmile_qr_scan"}, "lat": 38.920405833333334, "is_disabled": 0, "lon": -76.99562666666667}, {"fusion_lat": 0.0, "type": "electric_scooter", "name": "be75ebd0fa3cd4187b94788aa9ecc6dd", "fusion_lon": 0.0, "bike_id": "be75ebd0fa3cd4187b94788aa9ecc6dd", "is_reserved": 0, "rental_uris": {"android": "https://dc.lft.to/lastmile_qr_scan", "ios": "https://dc.lft.to/lastmile_qr_scan"}, "lat": 38.873234333333336, "is_disabled": 0, "lon": -77.00575766666667}, {"fusion_lat": 0.0, "type": "electric_scooter", "name": "f58c5573ab420239b38c9b7f549d8fb1", "fusion_lon": 0.0, "bike_id": "f58c5573ab420239b38c9b7f549d8fb1", "is_reserved": 0, "rental_uris": {"android": "https://dc.lft.to/lastmile_qr_scan", "ios": "https://dc.lft.to/lastmile_qr_scan"}, "lat": 38.89330966666667, "is_disabled": 0, "lon": -77.0120495}, {"fusion_lat": 0.0, "type": "electric_scooter", "name": "8174362b08f70e37810ea26eb69cafb8", "fusion_lon": 0.0, "bike_id": "8174362b08f70e37810ea26eb69cafb8", "is_reserved": 0, "rental_uris": {"android": "https://dc.lft.to/lastmile_qr_scan", "ios": "https://dc.lft.to/lastmile_qr_scan"}, "lat": 38.88813283333333, "is_disabled": 0, "lon": -76.93344083333334}, {"fusion_lat": 0.0, "type": "electric_scooter", "name": "e5afd741bc4c7b4b21125828ae690dc6", "fusion_lon": 0.0, "bike_id": "e5afd741bc4c7b4b21125828ae690dc6", "is_reserved": 0, "rental_uris": {"android": "https://dc.lft.to/lastmile_qr_scan", "ios": "https://dc.lft.to/lastmile_qr_scan"}, "lat": 38.892403333333334, "is_disabled": 0, "lon": -77.03185716666667}, {"fusion_lat": 0.0, "type": "electric_scooter", "name": "6c889c711c6be6a57b52c6d1cc362486", "fusion_lon": 0.0, "bike_id": "6c889c711c6be6a57b52c6d1cc362486", "is_reserved": 0, "rental_uris": {"android": "https://dc.lft.to/lastmile_qr_scan", "ios": "https://dc.lft.to/lastmile_qr_scan"}, "lat": 38.897302, "is_disabled": 0, "lon": -77.02714466666667}, {"fusion_lat": 0.0, "type": "electric_scooter", "name": "31f7a48622b8e3977570b3249626ee50", "fusion_lon": 0.0, "bike_id": "31f7a48622b8e3977570b3249626ee50", "is_reserved": 0, "rental_uris": {"android": "https://dc.lft.to/lastmile_qr_scan", "ios": "https://dc.lft.to/lastmile_qr_scan"}, "lat": 38.912906, "is_disabled": 0, "lon": -77.02306266666666}, {"fusion_lat": 0.0, "type": "electric_scooter", "name": "e90670144886f7cce403a56fab9d28fd", "fusion_lon": 0.0, "bike_id": "e90670144886f7cce403a56fab9d28fd", "is_reserved": 0, "rental_uris": {"android": "https://dc.lft.to/lastmile_qr_scan", "ios": "https://dc.lft.to/lastmile_qr_scan"}, "lat": 38.915554, "is_disabled": 0, "lon": -77.00704183333333}, {"fusion_lat": 0.0, "type": "electric_scooter", "name": "09504ce520e444c0f4503f7350c8975d", "fusion_lon": 0.0, "bike_id": "09504ce520e444c0f4503f7350c8975d", "is_reserved": 0, "rental_uris": {"android": "https://dc.lft.to/lastmile_qr_scan", "ios": "https://dc.lft.to/lastmile_qr_scan"}, "lat": 38.956909333333336, "is_disabled": 0, "lon": -77.03259}, {"fusion_lat": 0.0, "type": "electric_scooter", "name": "f0451b56385fa0f24e7e3129d1d030fd", "fusion_lon": 0.0, "bike_id": "f0451b56385fa0f24e7e3129d1d030fd", "is_reserved": 0, "rental_uris": {"android": "https://dc.lft.to/lastmile_qr_scan", "ios": "https://dc.lft.to/lastmile_qr_scan"}, "lat": 38.874601, "is_disabled": 0, "lon": -77.0054225}, {"fusion_lat": 0.0, "type": "electric_scooter", "name": "a8283cd70c1927c98e5b17ef2cd7fab1", "fusion_lon": 0.0, "bike_id": "a8283cd70c1927c98e5b17ef2cd7fab1", "is_reserved": 0, "rental_uris": {"android": "https://dc.lft.to/lastmile_qr_scan", "ios": "https://dc.lft.to/lastmile_qr_scan"}, "lat": 38.93399766666667, "is_disabled": 0, "lon": -77.022053}, {"fusion_lat": 0.0, "type": "electric_scooter", "name": "b39e82cb99db58d95ea75266ca788cab", "fusion_lon": 0.0, "bike_id": "b39e82cb99db58d95ea75266ca788cab", "is_reserved": 0, "rental_uris": {"android": "https://dc.lft.to/lastmile_qr_scan", "ios": "https://dc.lft.to/lastmile_qr_scan"}, "lat": 38.863772166666664, "is_disabled": 0, "lon": -76.99057283333333}, {"fusion_lat": 0.0, "type": "electric_scooter", "name": "ab5c0633a944860a1da01398ee71812a", "fusion_lon": 0.0, "bike_id": "ab5c0633a944860a1da01398ee71812a", "is_reserved": 0, "rental_uris": {"android": "https://dc.lft.to/lastmile_qr_scan", "ios": "https://dc.lft.to/lastmile_qr_scan"}, "lat": 38.9248825, "is_disabled": 0, "lon": -77.057541}, {"fusion_lat": 0.0, "type": "electric_scooter", "name": "9b5830d7074f9f0eb6ea8bd98ee6aeb8", "fusion_lon": 0.0, "bike_id": "9b5830d7074f9f0eb6ea8bd98ee6aeb8", "is_reserved": 0, "rental_uris": {"android": "https://dc.lft.to/lastmile_qr_scan", "ios": "https://dc.lft.to/lastmile_qr_scan"}, "lat": 38.892977, "is_disabled": 0, "lon": -77.0123685}, {"fusion_lat": 0.0, "type": "electric_scooter", "name": "3e96da09e884e58c9e1ef8179f2d996f", "fusion_lon": 0.0, "bike_id": "3e96da09e884e58c9e1ef8179f2d996f", "is_reserved": 0, "rental_uris": {"android": "https://dc.lft.to/lastmile_qr_scan", "ios": "https://dc.lft.to/lastmile_qr_scan"}, "lat": 38.920902833333336, "is_disabled": 0, "lon": -77.03314683333333}, {"fusion_lat": 0.0, "type": "electric_scooter", "name": "5c2a22d8d597c0befa8e4f436d197925", "fusion_lon": 0.0, "bike_id": "5c2a22d8d597c0befa8e4f436d197925", "is_reserved": 0, "rental_uris": {"android": "https://dc.lft.to/lastmile_qr_scan", "ios": "https://dc.lft.to/lastmile_qr_scan"}, "lat": 38.919171, "is_disabled": 0, "lon": -77.0344295}, {"fusion_lat": 0.0, "type": "electric_scooter", "name": "87f22936f2fc5998ab7cc8dc2273067a", "fusion_lon": 0.0, "bike_id": "87f22936f2fc5998ab7cc8dc2273067a", "is_reserved": 0, "rental_uris": {"android": "https://dc.lft.to/lastmile_qr_scan", "ios": "https://dc.lft.to/lastmile_qr_scan"}, "lat": 38.86650983333333, "is_disabled": 0, "lon": -76.98521516666666}, {"fusion_lat": 0.0, "type": "electric_scooter", "name": "823cf07c8b7b227928a5ec05ec068d3a", "fusion_lon": 0.0, "bike_id": "823cf07c8b7b227928a5ec05ec068d3a", "is_reserved": 0, "rental_uris": {"android": "https://dc.lft.to/lastmile_qr_scan", "ios": "https://dc.lft.to/lastmile_qr_scan"}, "lat": 38.892351833333336, "is_disabled": 0, "lon": -77.01978316666667}, {"fusion_lat": 0.0, "type": "electric_scooter", "name": "3ae523a179395092f0375d78ae8d5999", "fusion_lon": 0.0, "bike_id": "3ae523a179395092f0375d78ae8d5999", "is_reserved": 0, "rental_uris": {"android": "https://dc.lft.to/lastmile_qr_scan", "ios": "https://dc.lft.to/lastmile_qr_scan"}, "lat": 38.93296566666667, "is_disabled": 0, "lon": -77.0461755}, {"fusion_lat": 0.0, "type": "electric_scooter", "name": "e3f39edf38332c351c7b5949500977f0", "fusion_lon": 0.0, "bike_id": "e3f39edf38332c351c7b5949500977f0", "is_reserved": 0, "rental_uris": {"android": "https://dc.lft.to/lastmile_qr_scan", "ios": "https://dc.lft.to/lastmile_qr_scan"}, "lat": 38.92236533333333, "is_disabled": 0, "lon": -77.042456}, {"fusion_lat": 0.0, "type": "electric_scooter", "name": "56acc5b6e1ffa1be1c821e5983c6ac0b", "fusion_lon": 0.0, "bike_id": "56acc5b6e1ffa1be1c821e5983c6ac0b", "is_reserved": 0, "rental_uris": {"android": "https://dc.lft.to/lastmile_qr_scan", "ios": "https://dc.lft.to/lastmile_qr_scan"}, "lat": 38.892277, "is_disabled": 0, "lon": -77.04335216666666}, {"fusion_lat": 0.0, "type": "electric_bike", "name": "d285f8227332f15ce0913b9e2c41c492", "fusion_lon": 0.0, "bike_id": "d285f8227332f15ce0913b9e2c41c492", "is_reserved": 0, "rental_uris": {"android": "https://dc.lft.to/lastmile_qr_scan", "ios": "https://dc.lft.to/lastmile_qr_scan"}, "lat": 38.846137666666664, "is_disabled": 0, "lon": -77.089723}, {"fusion_lat": 0.0, "type": "electric_bike", "name": "5c71dcc22158ecd841e34643e982aab2", "fusion_lon": 0.0, "bike_id": "5c71dcc22158ecd841e34643e982aab2", "is_reserved": 0, "rental_uris": {"android": "https://dc.lft.to/lastmile_qr_scan", "ios": "https://dc.lft.to/lastmile_qr_scan"}, "lat": 38.993519, "is_disabled": 0, "lon": -77.1158615}, {"fusion_lat": 0.0, "type": "electric_scooter", "name": "fe42b073973ffa949397e63ee9ac9919", "fusion_lon": 0.0, "bike_id": "fe42b073973ffa949397e63ee9ac9919", "is_reserved": 0, "rental_uris": {"android": "https://dc.lft.to/lastmile_qr_scan", "ios": "https://dc.lft.to/lastmile_qr_scan"}, "lat": 38.9071185, "is_disabled": 0, "lon": -77.02696433333334}, {"fusion_lat": 0.0, "type": "electric_scooter", "name": "3163af37569bd357157568da6fbb82e4", "fusion_lon": 0.0, "bike_id": "3163af37569bd357157568da6fbb82e4", "is_reserved": 0, "rental_uris": {"android": "https://dc.lft.to/lastmile_qr_scan", "ios": "https://dc.lft.to/lastmile_qr_scan"}, "lat": 38.901418, "is_disabled": 0, "lon": -77.04399733333334}, {"fusion_lat": 0.0, "type": "electric_scooter", "name": "2765e45a4899631de8d3d13f81f08ccd", "fusion_lon": 0.0, "bike_id": "2765e45a4899631de8d3d13f81f08ccd", "is_reserved": 0, "rental_uris": {"android": "https://dc.lft.to/lastmile_qr_scan", "ios": "https://dc.lft.to/lastmile_qr_scan"}, "lat": 38.86658716666667, "is_disabled": 0, "lon": -76.98521133333334}, {"fusion_lat": 0.0, "type": "electric_scooter", "name": "8e5b40ff8f7d34628382ad3a96ae7c0e", "fusion_lon": 0.0, "bike_id": "8e5b40ff8f7d34628382ad3a96ae7c0e", "is_reserved": 0, "rental_uris": {"android": "https://dc.lft.to/lastmile_qr_scan", "ios": "https://dc.lft.to/lastmile_qr_scan"}, "lat": 38.930152666666665, "is_disabled": 0, "lon": -77.05519283333334}, {"fusion_lat": 0.0, "type": "electric_scooter", "name": "fdee6b8cf667f7539945598957c8bfb3", "fusion_lon": 0.0, "bike_id": "fdee6b8cf667f7539945598957c8bfb3", "is_reserved": 0, "rental_uris": {"android": "https://dc.lft.to/lastmile_qr_scan", "ios": "https://dc.lft.to/lastmile_qr_scan"}, "lat": 38.924322, "is_disabled": 0, "lon": -77.04247683333334}, {"fusion_lat": 0.0, "type": "electric_scooter", "name": "18e313ed965f3fc348dfe60eecf9aeee", "fusion_lon": 0.0, "bike_id": "18e313ed965f3fc348dfe60eecf9aeee", "is_reserved": 0, "rental_uris": {"android": "https://dc.lft.to/lastmile_qr_scan", "ios": "https://dc.lft.to/lastmile_qr_scan"}, "lat": 38.906928666666666, "is_disabled": 0, "lon": -77.03692883333333}, {"fusion_lat": 0.0, "type": "electric_scooter", "name": "bfce118699085cba183755517afe6933", "fusion_lon": 0.0, "bike_id": "bfce118699085cba183755517afe6933", "is_reserved": 0, "rental_uris": {"android": "https://dc.lft.to/lastmile_qr_scan", "ios": "https://dc.lft.to/lastmile_qr_scan"}, "lat": 38.893039333333334, "is_disabled": 0, "lon": -77.01233016666667}, {"fusion_lat": 0.0, "type": "electric_scooter", "name": "fb7a9e79780314b05cd2d2fe5c7179a3", "fusion_lon": 0.0, "bike_id": "fb7a9e79780314b05cd2d2fe5c7179a3", "is_reserved": 0, "rental_uris": {"android": "https://dc.lft.to/lastmile_qr_scan", "ios": "https://dc.lft.to/lastmile_qr_scan"}, "lat": 38.860067, "is_disabled": 0, "lon": -76.98519966666667}, {"fusion_lat": 0.0, "type": "electric_scooter", "name": "6aa0bb01b8f4ed217b13c5c7060f9d49", "fusion_lon": 0.0, "bike_id": "6aa0bb01b8f4ed217b13c5c7060f9d49", "is_reserved": 0, "rental_uris": {"android": "https://dc.lft.to/lastmile_qr_scan", "ios": "https://dc.lft.to/lastmile_qr_scan"}, "lat": 38.903226, "is_disabled": 0, "lon": -76.99116483333333}, {"fusion_lat": 0.0, "type": "electric_scooter", "name": "01ff05aa889ad14ff01dd9ab90e499ba", "fusion_lon": 0.0, "bike_id": "01ff05aa889ad14ff01dd9ab90e499ba", "is_reserved": 0, "rental_uris": {"android": "https://dc.lft.to/lastmile_qr_scan", "ios": "https://dc.lft.to/lastmile_qr_scan"}, "lat": 38.935835, "is_disabled": 0, "lon": -77.03513016666666}, {"fusion_lat": 0.0, "type": "electric_scooter", "name": "59162ddfa8b3bbc5616ad31ba58dfa5d", "fusion_lon": 0.0, "bike_id": "59162ddfa8b3bbc5616ad31ba58dfa5d", "is_reserved": 0, "rental_uris": {"android": "https://dc.lft.to/lastmile_qr_scan", "ios": "https://dc.lft.to/lastmile_qr_scan"}, "lat": 38.91688033333333, "is_disabled": 0, "lon": -77.01573016666667}, {"fusion_lat": 0.0, "type": "electric_scooter", "name": "bf5d9ae653b418a9c98e25dd9fb76b8d", "fusion_lon": 0.0, "bike_id": "bf5d9ae653b418a9c98e25dd9fb76b8d", "is_reserved": 0, "rental_uris": {"android": "https://dc.lft.to/lastmile_qr_scan", "ios": "https://dc.lft.to/lastmile_qr_scan"}, "lat": 38.87636283333333, "is_disabled": 0, "lon": -77.0125995}, {"fusion_lat": 0.0, "type": "electric_scooter", "name": "ba5747b4d080861928291ed7b45041a8", "fusion_lon": 0.0, "bike_id": "ba5747b4d080861928291ed7b45041a8", "is_reserved": 0, "rental_uris": {"android": "https://dc.lft.to/lastmile_qr_scan", "ios": "https://dc.lft.to/lastmile_qr_scan"}, "lat": 38.9432815, "is_disabled": 0, "lon": -77.026817}, {"fusion_lat": 0.0, "type": "electric_scooter", "name": "1ebe4fe49371a61d7ea43d4e5b1a0218", "fusion_lon": 0.0, "bike_id": "1ebe4fe49371a61d7ea43d4e5b1a0218", "is_reserved": 0, "rental_uris": {"android": "https://dc.lft.to/lastmile_qr_scan", "ios": "https://dc.lft.to/lastmile_qr_scan"}, "lat": 38.909544, "is_disabled": 0, "lon": -76.98538183333334}, {"fusion_lat": 0.0, "type": "electric_scooter", "name": "3ffa4c8b785946a547e77cb0077693cc", "fusion_lon": 0.0, "bike_id": "3ffa4c8b785946a547e77cb0077693cc", "is_reserved": 0, "rental_uris": {"android": "https://dc.lft.to/lastmile_qr_scan", "ios": "https://dc.lft.to/lastmile_qr_scan"}, "lat": 38.924156833333335, "is_disabled": 0, "lon": -77.02970566666667}, {"fusion_lat": 0.0, "type": "electric_scooter", "name": "7a1df00b1c086db43d1c21c42f68bcc6", "fusion_lon": 0.0, "bike_id": "7a1df00b1c086db43d1c21c42f68bcc6", "is_reserved": 0, "rental_uris": {"android": "https://dc.lft.to/lastmile_qr_scan", "ios": "https://dc.lft.to/lastmile_qr_scan"}, "lat": 38.88087133333333, "is_disabled": 0, "lon": -76.99834916666667}, {"fusion_lat": 0.0, "type": "electric_scooter", "name": "95967465c88a80200376780f71c70f94", "fusion_lon": 0.0, "bike_id": "95967465c88a80200376780f71c70f94", "is_reserved": 0, "rental_uris": {"android": "https://dc.lft.to/lastmile_qr_scan", "ios": "https://dc.lft.to/lastmile_qr_scan"}, "lat": 38.874742, "is_disabled": 0, "lon": -77.01895916666666}, {"fusion_lat": 0.0, "type": "electric_scooter", "name": "b350afe63be5d18181b428842de9123c", "fusion_lon": 0.0, "bike_id": "b350afe63be5d18181b428842de9123c", "is_reserved": 0, "rental_uris": {"android": "https://dc.lft.to/lastmile_qr_scan", "ios": "https://dc.lft.to/lastmile_qr_scan"}, "lat": 38.95277566666667, "is_disabled": 0, "lon": -77.069808}, {"fusion_lat": 0.0, "type": "electric_scooter", "name": "b3d2262f5dd64d969c351f20ed4d6b65", "fusion_lon": 0.0, "bike_id": "b3d2262f5dd64d969c351f20ed4d6b65", "is_reserved": 0, "rental_uris": {"android": "https://dc.lft.to/lastmile_qr_scan", "ios": "https://dc.lft.to/lastmile_qr_scan"}, "lat": 38.91644866666667, "is_disabled": 0, "lon": -77.04259466666667}, {"fusion_lat": 0.0, "type": "electric_scooter", "name": "235798f5d7fdea354accee96915e21f2", "fusion_lon": 0.0, "bike_id": "235798f5d7fdea354accee96915e21f2", "is_reserved": 0, "rental_uris": {"android": "https://dc.lft.to/lastmile_qr_scan", "ios": "https://dc.lft.to/lastmile_qr_scan"}, "lat": 38.898923333333336, "is_disabled": 0, "lon": -77.03934616666666}, {"fusion_lat": 0.0, "type": "electric_scooter", "name": "6cd77a59b5472d69594b50c88c37f924", "fusion_lon": 0.0, "bike_id": "6cd77a59b5472d69594b50c88c37f924", "is_reserved": 0, "rental_uris": {"android": "https://dc.lft.to/lastmile_qr_scan", "ios": "https://dc.lft.to/lastmile_qr_scan"}, "lat": 38.924836666666664, "is_disabled": 0, "lon": -77.04162733333334}, {"fusion_lat": 0.0, "type": "electric_scooter", "name": "b9f76d7ca799c76fd86acdee06f549e3", "fusion_lon": 0.0, "bike_id": "b9f76d7ca799c76fd86acdee06f549e3", "is_reserved": 0, "rental_uris": {"android": "https://dc.lft.to/lastmile_qr_scan", "ios": "https://dc.lft.to/lastmile_qr_scan"}, "lat": 38.87293, "is_disabled": 0, "lon": -77.00982083333334}, {"fusion_lat": 0.0, "type": "electric_scooter", "name": "8df8516ecf544e825db859168c6c0025", "fusion_lon": 0.0, "bike_id": "8df8516ecf544e825db859168c6c0025", "is_reserved": 0, "rental_uris": {"android": "https://dc.lft.to/lastmile_qr_scan", "ios": "https://dc.lft.to/lastmile_qr_scan"}, "lat": 38.9279415, "is_disabled": 0, "lon": -77.031546}, {"fusion_lat": 0.0, "type": "electric_scooter", "name": "c19e7408b0a61439dee4b343d0001e62", "fusion_lon": 0.0, "bike_id": "c19e7408b0a61439dee4b343d0001e62", "is_reserved": 0, "rental_uris": {"android": "https://dc.lft.to/lastmile_qr_scan", "ios": "https://dc.lft.to/lastmile_qr_scan"}, "lat": 38.91129566666667, "is_disabled": 0, "lon": -77.0219245}, {"fusion_lat": 0.0, "type": "electric_scooter", "name": "9b08da9aa5c8e517538976db06823f50", "fusion_lon": 0.0, "bike_id": "9b08da9aa5c8e517538976db06823f50", "is_reserved": 0, "rental_uris": {"android": "https://dc.lft.to/lastmile_qr_scan", "ios": "https://dc.lft.to/lastmile_qr_scan"}, "lat": 38.90982133333333, "is_disabled": 0, "lon": -77.0344115}, {"fusion_lat": 0.0, "type": "electric_scooter", "name": "e5ca4ad43ed016863d7aa8756408a7d9", "fusion_lon": 0.0, "bike_id": "e5ca4ad43ed016863d7aa8756408a7d9", "is_reserved": 0, "rental_uris": {"android": "https://dc.lft.to/lastmile_qr_scan", "ios": "https://dc.lft.to/lastmile_qr_scan"}, "lat": 38.917408, "is_disabled": 0, "lon": -77.01802116666667}, {"fusion_lat": 0.0, "type": "electric_scooter", "name": "de7dcc1b88edcf90099e8ef664d2063f", "fusion_lon": 0.0, "bike_id": "de7dcc1b88edcf90099e8ef664d2063f", "is_reserved": 0, "rental_uris": {"android": "https://dc.lft.to/lastmile_qr_scan", "ios": "https://dc.lft.to/lastmile_qr_scan"}, "lat": 38.9106025, "is_disabled": 0, "lon": -77.05306033333333}, {"fusion_lat": 0.0, "type": "electric_scooter", "name": "65a513d32eb1baf02fa3fef83ebe9ebe", "fusion_lon": 0.0, "bike_id": "65a513d32eb1baf02fa3fef83ebe9ebe", "is_reserved": 0, "rental_uris": {"android": "https://dc.lft.to/lastmile_qr_scan", "ios": "https://dc.lft.to/lastmile_qr_scan"}, "lat": 38.9001685, "is_disabled": 0, "lon": -77.039389}, {"fusion_lat": 0.0, "type": "electric_bike", "name": "4f6db2b0a9bcd3a6f03d0a2c68054f99", "fusion_lon": 0.0, "bike_id": "4f6db2b0a9bcd3a6f03d0a2c68054f99", "is_reserved": 0, "rental_uris": {"android": "https://dc.lft.to/lastmile_qr_scan", "ios": "https://dc.lft.to/lastmile_qr_scan"},