{"data": {"bikes": [{"lon": -77.04679733333333, "bike_id": "052796325449ba805f83c1106dc8305a", "lat": 38.905370833333336, "fusion_lon": 0.0, "fusion_lat": 0.0, "type": "electric_scooter", "name": "052796325449ba805f83c1106dc8305a", "is_disabled": 0, "rental_uris": {"ios": "https://dc.lft.to/lastmile_qr_scan", "android": "https://dc.lft.to/lastmile_qr_scan"}, "is_reserved": 0}, {"lon": -77.03331083333333, "bike_id": "f314f991da8cd34fe9ebab3a6774562d", "lat": 38.90151133333333, "fusion_lon": 0.0, "fusion_lat": 0.0, "type": "electric_scooter", "name": "f314f991da8cd34fe9ebab3a6774562d", "is_disabled": 0, "rental_uris": {"ios": "https://dc.lft.to/lastmile_qr_scan", "android": "https://dc.lft.to/lastmile_qr_scan"}, "is_reserved": 0}, {"lon": -77.02710716666667, "bike_id": "0788f4e297a55da568d2a61c90cca2df", "lat": 38.89759316666667, "fusion_lon": 0.0, "fusion_lat": 0.0, "type": "electric_scooter", "name": "0788f4e297a55da568d2a61c90cca2df", "is_disabled": 0, "rental_uris": {"ios": "https://dc.lft.to/lastmile_qr_scan", "android": "https://dc.lft.to/lastmile_qr_scan"}, "is_reserved": 0}, {"lon": -77.02189316666667, "bike_id": "2bd062429578e89844d49ff7bfe12d0b", "lat": 38.93306116666667, "fusion_lon": 0.0, "fusion_lat": 0.0, "type": "electric_scooter", "name": "2bd062429578e89844d49ff7bfe12d0b", "is_disabled": 0, "rental_uris": {"ios": "https://dc.lft.to/lastmile_qr_scan", "android": "https://dc.lft.to/lastmile_qr_scan"}, "is_reserved": 0}, {"lon": -76.933593, "bike_id": "7e79e5164792d908a6bc3fe34408dd38", "lat": 38.887964833333335, "fusion_lon": 0.0, "fusion_lat": 0.0, "type": "electric_scooter", "name": "7e79e5164792d908a6bc3fe34408dd38", "is_disabled": 0, "rental_uris": {"ios": "https://dc.lft.to/lastmile_qr_scan", "android": "https://dc.lft.to/lastmile_qr_scan"}, "is_reserved": 0}, {"lon": -77.02968333333334, "bike_id": "4a72a2e9f74583595433726b2963b024", "lat": 38.91660533333334, "fusion_lon": 0.0, "fusion_lat": 0.0, "type": "electric_scooter", "name": "4a72a2e9f74583595433726b2963b024", "is_disabled": 0, "rental_uris": {"ios": "https://dc.lft.to/lastmile_qr_scan", "android": "https://dc.lft.to/lastmile_qr_scan"}, "is_reserved": 0}, {"lon": -76.9317775, "bike_id": "0368017bb0585cd224f95b739d06cee2", "lat": 38.90369116666667, "fusion_lon": 0.0, "fusion_lat": 0.0, "type": "electric_scooter", "name": "0368017bb0585cd224f95b739d06cee2", "is_disabled": 0, "rental_uris": {"ios": "https://dc.lft.to/lastmile_qr_scan", "android": "https://dc.lft.to/lastmile_qr_scan"}, "is_reserved": 0}, {"lon": -77.029707, "bike_id": "f7ef1476679523d22445080304f877f2", "lat": 38.9167965, "fusion_lon": 0.0, "fusion_lat": 0.0, "type": "electric_scooter", "name": "f7ef1476679523d22445080304f877f2", "is_disabled": 0, "rental_uris": {"ios": "https://dc.lft.to/lastmile_qr_scan", "android": "https://dc.lft.to/lastmile_qr_scan"}, "is_reserved": 0}, {"lon": -77.04341583333333, "bike_id": "f4b5904cc3e322ceea41fd9f7c6fc0d9", "lat": 38.9081325, "fusion_lon": 0.0, "fusion_lat": 0.0, "type": "electric_scooter", "name": "f4b5904cc3e322ceea41fd9f7c6fc0d9", "is_disabled": 0, "rental_uris": {"ios": "https://dc.lft.to/lastmile_qr_scan", "android": "https://dc.lft.to/lastmile_qr_scan"}, "is_reserved": 0}, {"lon": -77.0500175, "bike_id": "0d21481a79de18d144c4058c00a4638d", "lat": 38.891932, "fusion_lon": 0.0, "fusion_lat": 0.0, "type": "electric_scooter", "name": "0d21481a79de18d144c4058c00a4638d", "is_disabled": 0, "rental_uris": {"ios": "https://dc.lft.to/lastmile_qr_scan", "android": "https://dc.lft.to/lastmile_qr_scan"}, "is_reserved": 0}, {"lon": -77.04478766666666, "bike_id": "dcafced44cc5f6a6db735c0e3d6f0dbd", "lat": 38.903898, "fusion_lon": 0.0, "fusion_lat": 0.0, "type": "electric_scooter", "name": "dcafced44cc5f6a6db735c0e3d6f0dbd", "is_disabled": 0, "rental_uris": {"ios": "https://dc.lft.to/lastmile_qr_scan", "android": "https://dc.lft.to/lastmile_qr_scan"}, "is_reserved": 0}, {"lon": -77.01720166666667, "bike_id": "b1591391cb0bd45fcd342614cc0c22ea", "lat": 38.909678166666666, "fusion_lon": 0.0, "fusion_lat": 0.0, "type": "electric_scooter", "name": "b1591391cb0bd45fcd342614cc0c22ea", "is_disabled": 0, "rental_uris": {"ios": "https://dc.lft.to/lastmile_qr_scan", "android": "https://dc.lft.to/lastmile_qr_scan"}, "is_reserved": 0}, {"lon": -77.00135233333333, "bike_id": "56c19e6b15905fb3dd20d0189436d7a6", "lat": 38.89472283333333, "fusion_lon": 0.0, "fusion_lat": 0.0, "type": "electric_scooter", "name": "56c19e6b15905fb3dd20d0189436d7a6", "is_disabled": 0, "rental_uris": {"ios": "https://dc.lft.to/lastmile_qr_scan", "android": "https://dc.lft.to/lastmile_qr_scan"}, "is_reserved": 0}, {"lon": -76.9266795, "bike_id": "dda02f399fa9dd2ff06a3dbba81a0460", "lat": 38.88030883333333, "fusion_lon": 0.0, "fusion_lat": 0.0, "type": "electric_scooter", "name": "dda02f399fa9dd2ff06a3dbba81a0460", "is_disabled": 0, "rental_uris": {"ios": "https://dc.lft.to/lastmile_qr_scan", "android": "https://dc.lft.to/lastmile_qr_scan"}, "is_reserved": 0}, {"lon": -77.02982, "bike_id": "e40d7ad88d6796d56a1ae6ef0506c405", "lat": 38.9244605, "fusion_lon": 0.0, "fusion_lat": 0.0, "type": "electric_scooter", "name": "e40d7ad88d6796d56a1ae6ef0506c405", "is_disabled": 0, "rental_uris": {"ios": "https://dc.lft.to/lastmile_qr_scan", "android": "https://dc.lft.to/lastmile_qr_scan"}, "is_reserved": 0}, {"lon": -76.99914483333333, "bike_id": "c40d7b157397d011b1847c00643c1a95", "lat": 38.909163666666664, "fusion_lon": 0.0, "fusion_lat": 0.0, "type": "electric_scooter", "name": "c40d7b157397d011b1847c00643c1a95", "is_disabled": 0, "rental_uris": {"ios": "https://dc.lft.to/lastmile_qr_scan", "android": "https://dc.lft.to/lastmile_qr_scan"}, "is_reserved": 0}, {"lon": -77.0318645, "bike_id": "b36fde8e04acf11e7ff61064e773c218", "lat": 38.909933333333335, "fusion_lon": 0.0, "fusion_lat": 0.0, "type": "electric_scooter", "name": "b36fde8e04acf11e7ff61064e773c218", "is_disabled": 0, "rental_uris": {"ios": "https://dc.lft.to/lastmile_qr_scan", "android": "https://dc.lft.to/lastmile_qr_scan"}, "is_reserved": 0}, {"lon": -76.93744266666667, "bike_id": "cfa32255b319fa29c1de3c5570844444", "lat": 38.89008783333333, "fusion_lon": 0.0, "fusion_lat": 0.0, "type": "electric_scooter", "name": "cfa32255b319fa29c1de3c5570844444", "is_disabled": 0, "rental_uris": {"ios": "https://dc.lft.to/lastmile_qr_scan", "android": "https://dc.lft.to/lastmile_qr_scan"}, "is_reserved": 0}, {"lon": -77.0345345, "bike_id": "7eaafed13a02f9119ef61795cc7c2027", "lat": 38.908108666666664, "fusion_lon": 0.0, "fusion_lat": 0.0, "type": "electric_scooter", "name": "7eaafed13a02f9119ef61795cc7c2027", "is_disabled": 0, "rental_uris": {"ios": "https://dc.lft.to/lastmile_qr_scan", "android": "https://dc.lft.to/lastmile_qr_scan"}, "is_reserved": 0}, {"lon": -77.038578, "bike_id": "2d29b43d658ad0eb5eaaaf831ed31ded", "lat": 38.9154405, "fusion_lon": 0.0, "fusion_lat": 0.0, "type": "electric_scooter", "name": "2d29b43d658ad0eb5eaaaf831ed31ded", "is_disabled": 0, "rental_uris": {"ios": "https://dc.lft.to/lastmile_qr_scan", "android": "https://dc.lft.to/lastmile_qr_scan"}, "is_reserved": 0}, {"lon": -77.03469666666666, "bike_id": "3fb306fa9af4d7ca1cdb7d72e3157cc7", "lat": 38.917043166666666, "fusion_lon": 0.0, "fusion_lat": 0.0, "type": "electric_scooter", "name": "3fb306fa9af4d7ca1cdb7d72e3157cc7", "is_disabled": 0, "rental_uris": {"ios": "https://dc.lft.to/lastmile_qr_scan", "android": "https://dc.lft.to/lastmile_qr_scan"}, "is_reserved": 0}, {"lon": -77.027776, "bike_id": "9d0407c6ba9878dd65b86beb3aa33b49", "lat": 38.892198, "fusion_lon": 0.0, "fusion_lat": 0.0, "type": "electric_scooter", "name": "9d0407c6ba9878dd65b86beb3aa33b49", "is_disabled": 0, "rental_uris": {"ios": "https://dc.lft.to/lastmile_qr_scan", "android": "https://dc.lft.to/lastmile_qr_scan"}, "is_reserved": 0}, {"lon": -77.027785, "bike_id": "4b0c9f0892243047fdd80bd0cc287038", "lat": 38.8921735, "fusion_lon": 0.0, "fusion_lat": 0.0, "type": "electric_scooter", "name": "4b0c9f0892243047fdd80bd0cc287038", "is_disabled": 0, "rental_uris": {"ios": "https://dc.lft.to/lastmile_qr_scan", "android": "https://dc.lft.to/lastmile_qr_scan"}, "is_reserved": 0}, {"lon": -76.98227266666666, "bike_id": "c68501d7c341a7d862cde660cce91888", "lat": 38.88647783333333, "fusion_lon": 0.0, "fusion_lat": 0.0, "type": "electric_scooter", "name": "c68501d7c341a7d862cde660cce91888", "is_disabled": 0, "rental_uris": {"ios": "https://dc.lft.to/lastmile_qr_scan", "android": "https://dc.lft.to/lastmile_qr_scan"}, "is_reserved": 0}, {"lon": -77.02143616666666, "bike_id": "2c7ee00932079713aa97f6b6f259301c", "lat": 38.90378716666667, "fusion_lon": 0.0, "fusion_lat": 0.0, "type": "electric_scooter", "name": "2c7ee00932079713aa97f6b6f259301c", "is_disabled": 0, "rental_uris": {"ios": "https://dc.lft.to/lastmile_qr_scan", "android": "https://dc.lft.to/lastmile_qr_scan"}, "is_reserved": 0}, {"lon": -77.043362, "bike_id": "385626cb3e0406aa7f465cb1ffef4a35", "lat": 38.922213, "fusion_lon": 0.0, "fusion_lat": 0.0, "type": "electric_scooter", "name": "385626cb3e0406aa7f465cb1ffef4a35", "is_disabled": 0, "rental_uris": {"ios": "https://dc.lft.to/lastmile_qr_scan", "android": "https://dc.lft.to/lastmile_qr_scan"}, "is_reserved": 0}, {"lon": -77.03999916666666, "bike_id": "485eff8f48d8f549f5b4d02e81afc3e2", "lat": 38.91415516666667, "fusion_lon": 0.0, "fusion_lat": 0.0, "type": "electric_scooter", "name": "485eff8f48d8f549f5b4d02e81afc3e2", "is_disabled": 0, "rental_uris": {"ios": "https://dc.lft.to/lastmile_qr_scan", "android": "https://dc.lft.to/lastmile_qr_scan"}, "is_reserved": 0}, {"lon": -77.01208383333334, "bike_id": "599b001b31982094a911062931178015", "lat": 38.92121316666667, "fusion_lon": 0.0, "fusion_lat": 0.0, "type": "electric_scooter", "name": "599b001b31982094a911062931178015", "is_disabled": 0, "rental_uris": {"ios": "https://dc.lft.to/lastmile_qr_scan", "android": "https://dc.lft.to/lastmile_qr_scan"}, "is_reserved": 0}, {"lon": -77.02305066666666, "bike_id": "380435e097af1b1dec505e6a2490e2e8", "lat": 38.917011333333335, "fusion_lon": 0.0, "fusion_lat": 0.0, "type": "electric_scooter", "name": "380435e097af1b1dec505e6a2490e2e8", "is_disabled": 0, "rental_uris": {"ios": "https://dc.lft.to/lastmile_qr_scan", "android": "https://dc.lft.to/lastmile_qr_scan"}, "is_reserved": 0}, {"lon": -77.0418125, "bike_id": "69c28750e50504ad7eb4684c4c583464", "lat": 38.8922485, "fusion_lon": 0.0, "fusion_lat": 0.0, "type": "electric_scooter", "name": "69c28750e50504ad7eb4684c4c583464", "is_disabled": 0, "rental_uris": {"ios": "https://dc.lft.to/lastmile_qr_scan", "android": "https://dc.lft.to/lastmile_qr_scan"}, "is_reserved": 0}, {"lon": -77.04266933333334, "bike_id": "3f2705e72d7b387cb024d3b4a2450b10", "lat": 38.907426666666666, "fusion_lon": 0.0, "fusion_lat": 0.0, "type": "electric_scooter", "name": "3f2705e72d7b387cb024d3b4a2450b10", "is_disabled": 0, "rental_uris": {"ios": "https://dc.lft.to/lastmile_qr_scan", "android": "https://dc.lft.to/lastmile_qr_scan"}, "is_reserved": 0}, {"lon": -77.05159616666667, "bike_id": "333586be3ceb205a7424cd1714a2e5aa", "lat": 39.043048, "fusion_lon": 0.0, "fusion_lat": 0.0, "type": "electric_bike", "name": "333586be3ceb205a7424cd1714a2e5aa", "is_disabled": 0, "rental_uris": {"ios": "https://dc.lft.to/lastmile_qr_scan", "android": "https://dc.lft.to/lastmile_qr_scan"}, "is_reserved": 0}, {"lon": -76.98230416666667, "bike_id": "47192878d81dcbdfd34ff1666a451300", "lat": 38.86654033333333, "fusion_lon": 0.0, "fusion_lat": 0.0, "type": "electric_scooter", "name": "47192878d81dcbdfd34ff1666a451300", "is_disabled": 0, "rental_uris": {"ios": "https://dc.lft.to/lastmile_qr_scan", "android": "https://dc.lft.to/lastmile_qr_scan"}, "is_reserved": 0}, {"lon": -77.04353716666667, "bike_id": "761af4eeb615331e38bae9999c81cd03", "lat": 38.9013115, "fusion_lon": 0.0, "fusion_lat": 0.0, "type": "electric_scooter", "name": "761af4eeb615331e38bae9999c81cd03", "is_disabled": 0, "rental_uris": {"ios": "https://dc.lft.to/lastmile_qr_scan", "android": "https://dc.lft.to/lastmile_qr_scan"}, "is_reserved": 0}, {"lon": -76.9300725, "bike_id": "0956c7a353e9e8a6e09fd023281bd44b", "lat": 38.891989833333334, "fusion_lon": 0.0, "fusion_lat": 0.0, "type": "electric_scooter", "name": "0956c7a353e9e8a6e09fd023281bd44b", "is_disabled": 0, "rental_uris": {"ios": "https://dc.lft.to/lastmile_qr_scan", "android": "https://dc.lft.to/lastmile_qr_scan"}, "is_reserved": 0}, {"lon": -77.1115555, "bike_id": "4574ddd2a452f69e30fbbed67649fdaf", "lat": 38.85514233333333, "fusion_lon": 0.0, "fusion_lat": 0.0, "type": "electric_bike", "name": "4574ddd2a452f69e30fbbed67649fdaf", "is_disabled": 0, "rental_uris": {"ios": "https://dc.lft.to/lastmile_qr_scan", "android": "https://dc.lft.to/lastmile_qr_scan"}, "is_reserved": 0}, {"lon": -77.03831566666666, "bike_id": "deef981116d9040e637905ffe17fc320", "lat": 38.911150666666664, "fusion_lon": 0.0, "fusion_lat": 0.0, "type": "electric_scooter", "name": "deef981116d9040e637905ffe17fc320", "is_disabled": 0, "rental_uris": {"ios": "https://dc.lft.to/lastmile_qr_scan", "android": "https://dc.lft.to/lastmile_qr_scan"}, "is_reserved": 0}, {"lon": -77.056958, "bike_id": "78c49a9b31baef100831ead535135d70", "lat": 38.93716833333333, "fusion_lon": 0.0, "fusion_lat": 0.0, "type": "electric_scooter", "name": "78c49a9b31baef100831ead535135d70", "is_disabled": 0, "rental_uris": {"ios": "https://dc.lft.to/lastmile_qr_scan", "android": "https://dc.lft.to/lastmile_qr_scan"}, "is_reserved": 0}, {"lon": -77.02471616666666, "bike_id": "654f96df978f6d87cce620bf0ca11218", "lat": 38.91820166666667, "fusion_lon": 0.0, "fusion_lat": 0.0, "type": "electric_scooter", "name": "654f96df978f6d87cce620bf0ca11218", "is_disabled": 0, "rental_uris": {"ios": "https://dc.lft.to/lastmile_qr_scan", "android": "https://dc.lft.to/lastmile_qr_scan"}, "is_reserved": 0}, {"lon": -77.05723733333333, "bike_id": "e9aba0fe0e26400dc99f6d51e5cc5e8b", "lat": 38.933658666666666, "fusion_lon": 0.0, "fusion_lat": 0.0, "type": "electric_scooter", "name": "e9aba0fe0e26400dc99f6d51e5cc5e8b", "is_disabled": 0, "rental_uris": {"ios": "https://dc.lft.to/lastmile_qr_scan", "android": "https://dc.lft.to/lastmile_qr_scan"}, "is_reserved": 0}, {"lon": -77.1049095, "bike_id": "e7865aa1143b71983e5dfb8c18fc7238", "lat": 38.856075833333335, "fusion_lon": 0.0, "fusion_lat": 0.0, "type": "electric_bike", "name": "e7865aa1143b71983e5dfb8c18fc7238", "is_disabled": 0, "rental_uris": {"ios": "https://dc.lft.to/lastmile_qr_scan", "android": "https://dc.lft.to/lastmile_qr_scan"}, "is_reserved": 0}, {"lon": -77.00051233333333, "bike_id": "a4dd2860ed6d9727f9ce5564285eaa5d", "lat": 38.89501383333333, "fusion_lon": 0.0, "fusion_lat": 0.0, "type": "electric_scooter", "name": "a4dd2860ed6d9727f9ce5564285eaa5d", "is_disabled": 0, "rental_uris": {"ios": "https://dc.lft.to/lastmile_qr_scan", "android": "https://dc.lft.to/lastmile_qr_scan"}, "is_reserved": 0}, {"lon": -77.04157833333333, "bike_id": "5ce1620ff6379d5bbe96d04cf13511a1", "lat": 38.9141835, "fusion_lon": 0.0, "fusion_lat": 0.0, "type": "electric_scooter", "name": "5ce1620ff6379d5bbe96d04cf13511a1", "is_disabled": 0, "rental_uris": {"ios": "https://dc.lft.to/lastmile_qr_scan", "android": "https://dc.lft.to/lastmile_qr_scan"}, "is_reserved": 0}, {"lon": -77.04339233333333, "bike_id": "339d1a346f298147a75636084db4fe99", "lat": 38.91105966666667, "fusion_lon": 0.0, "fusion_lat": 0.0, "type": "electric_scooter", "name": "339d1a346f298147a75636084db4fe99", "is_disabled": 0, "rental_uris": {"ios": "https://dc.lft.to/lastmile_qr_scan", "android": "https://dc.lft.to/lastmile_qr_scan"}, "is_reserved": 0}, {"lon": -77.02550433333333, "bike_id": "2c5db6b5393229870aef96a050de6090", "lat": 38.93085116666666, "fusion_lon": 0.0, "fusion_lat": 0.0, "type": "electric_scooter", "name": "2c5db6b5393229870aef96a050de6090", "is_disabled": 0, "rental_uris": {"ios": "https://dc.lft.to/lastmile_qr_scan", "android": "https://dc.lft.to/lastmile_qr_scan"}, "is_reserved": 0}, {"lon": -77.10837966666666, "bike_id": "ac2bdb9ebf543e673e842ce397b8895d", "lat": 38.812045166666664, "fusion_lon": 0.0, "fusion_lat": 0.0, "type": "electric_bike", "name": "ac2bdb9ebf543e673e842ce397b8895d", "is_disabled": 0, "rental_uris": {"ios": "https://dc.lft.to/lastmile_qr_scan", "android": "https://dc.lft.to/lastmile_qr_scan"}, "is_reserved": 0}, {"lon": -77.00525383333333, "bike_id": "53cb094c91f6c724375afdb665341e20", "lat": 38.87546316666667, "fusion_lon": 0.0, "fusion_lat": 0.0, "type": "electric_scooter", "name": "53cb094c91f6c724375afdb665341e20", "is_disabled": 0, "rental_uris": {"ios": "https://dc.lft.to/lastmile_qr_scan", "android": "https://dc.lft.to/lastmile_qr_scan"}, "is_reserved": 0}, {"lon": -76.980831, "bike_id": "3dfb9e228dc4ba6952828cffb4182a48", "lat": 38.907088, "fusion_lon": 0.0, "fusion_lat": 0.0, "type": "electric_scooter", "name": "3dfb9e228dc4ba6952828cffb4182a48", "is_disabled": 0, "rental_uris": {"ios": "https://dc.lft.to/lastmile_qr_scan", "android": "https://dc.lft.to/lastmile_qr_scan"}, "is_reserved": 0}, {"lon": -77.0269685, "bike_id": "1846bd467d89d9f1479694f46d6a3d51", "lat": 38.90615483333333, "fusion_lon": 0.0, "fusion_lat": 0.0, "type": "electric_scooter", "name": "1846bd467d89d9f1479694f46d6a3d51", "is_disabled": 0, "rental_uris": {"ios": "https://dc.lft.to/lastmile_qr_scan", "android": "https://dc.lft.to/lastmile_qr_scan"}, "is_reserved": 0}, {"lon": -77.0357315, "bike_id": "30cb6ca72ee40606d17e53a4852dca7b", "lat": 38.9177435, "fusion_lon": 0.0, "fusion_lat": 0.0, "type": "electric_scooter", "name": "30cb6ca72ee40606d17e53a4852dca7b", "is_disabled": 0, "rental_uris": {"ios": "https://dc.lft.to/lastmile_qr_scan", "android": "https://dc.lft.to/lastmile_qr_scan"}, "is_reserved": 0}, {"lon": -77.027961, "bike_id": "19eea07d115ebb5d55269994ff4cc716", "lat": 38.893915666666665, "fusion_lon": 0.0, "fusion_lat": 0.0, "type": "electric_scooter", "name": "19eea07d115ebb5d55269994ff4cc716", "is_disabled": 0, "rental_uris": {"ios": "https://dc.lft.to/lastmile_qr_scan", "android": "https://dc.lft.to/lastmile_qr_scan"}, "is_reserved": 0}, {"lon": -76.99002033333333, "bike_id": "da15e31a4c301987a95d6a6bfa7ec397", "lat": 38.86504883333333, "fusion_lon": 0.0, "fusion_lat": 0.0, "type": "electric_scooter", "name": "da15e31a4c301987a95d6a6bfa7ec397", "is_disabled": 0, "rental_uris": {"ios": "https://dc.lft.to/lastmile_qr_scan", "android": "https://dc.lft.to/lastmile_qr_scan"}, "is_reserved": 0}, {"lon": -77.0277925, "bike_id": "2fe47f2b11cd00b2cb9af2af3b41af5e", "lat": 38.93009933333333, "fusion_lon": 0.0, "fusion_lat": 0.0, "type": "electric_scooter", "name": "2fe47f2b11cd00b2cb9af2af3b41af5e", "is_disabled": 0, "rental_uris": {"ios": "https://dc.lft.to/lastmile_qr_scan", "android": "https://dc.lft.to/lastmile_qr_scan"}, "is_reserved": 0}, {"lon": -77.03939033333333, "bike_id": "bb1e56d05b81677a1d2b7a24b5432d2b", "lat": 38.89873266666667, "fusion_lon": 0.0, "fusion_lat": 0.0, "type": "electric_scooter", "name": "bb1e56d05b81677a1d2b7a24b5432d2b", "is_disabled": 0, "rental_uris": {"ios": "https://dc.lft.to/lastmile_qr_scan", "android": "https://dc.lft.to/lastmile_qr_scan"}, "is_reserved": 0}, {"lon": -76.98906233333334, "bike_id": "b2d86f407172cadc4c9d54909d2d5d54", "lat": 38.86664116666667, "fusion_lon": 0.0, "fusion_lat": 0.0, "type": "electric_scooter", "name": "b2d86f407172cadc4c9d54909d2d5d54", "is_disabled": 0, "rental_uris": {"ios": "https://dc.lft.to/lastmile_qr_scan", "android": "https://dc.lft.to/lastmile_qr_scan"}, "is_reserved": 0}, {"lon": -77.03811983333334, "bike_id": "fd10668b725f76601b42015f0c922505", "lat": 38.909698166666665, "fusion_lon": 0.0, "fusion_lat": 0.0, "type": "electric_scooter", "name": "fd10668b725f76601b42015f0c922505", "is_disabled": 0, "rental_uris": {"ios": "https://dc.lft.to/lastmile_qr_scan", "android": "https://dc.lft.to/lastmile_qr_scan"}, "is_reserved": 0}, {"lon": -76.99368716666666, "bike_id": "04d0d31fd31d8fd8559626e79fa5d1d4", "lat": 38.94024016666667, "fusion_lon": 0.0, "fusion_lat": 0.0, "type": "electric_scooter", "name": "04d0d31fd31d8fd8559626e79fa5d1d4", "is_disabled": 0, "rental_uris": {"ios": "https://dc.lft.to/lastmile_qr_scan", "android": "https://dc.lft.to/lastmile_qr_scan"}, "is_reserved": 0}, {"lon": -76.985852, "bike_id": "2c397f5eea173dbdc44c3d740198c85a", "lat": 38.8841185, "fusion_lon": 0.0, "fusion_lat": 0.0, "type": "electric_scooter", "name": "2c397f5eea173dbdc44c3d740198c85a", "is_disabled": 0, "rental_uris": {"ios": "https://dc.lft.to/lastmile_qr_scan", "android": "https://dc.lft.to/lastmile_qr_scan"}, "is_reserved": 0}, {"lon": -77.04974733333333, "bike_id": "09e502d701e606d9d361e8cd2358474e", "lat": 39.062946333333336, "fusion_lon": 0.0, "fusion_lat": 0.0, "type": "electric_bike", "name": "09e502d701e606d9d361e8cd2358474e", "is_disabled": 0, "rental_uris": {"ios": "https://dc.lft.to/lastmile_qr_scan", "android": "https://dc.lft.to/lastmile_qr_scan"}, "is_reserved": 0}, {"lon": -77.06319466666666, "bike_id": "938d97334049d4a72601bd312f2bd3f9", "lat": 38.86537333333333, "fusion_lon": 0.0, "fusion_lat": 0.0, "type": "electric_bike", "name": "938d97334049d4a72601bd312f2bd3f9", "is_disabled": 0, "rental_uris": {"ios": "https://dc.lft.to/lastmile_qr_scan", "android": "https://dc.lft.to/lastmile_qr_scan"}, "is_reserved": 0}, {"lon": -77.001536, "bike_id": "d5bfc02ef1c53b7952611f52725a073d", "lat": 38.91628083333333, "fusion_lon": 0.0, "fusion_lat": 0.0, "type": "electric_scooter", "name": "d5bfc02ef1c53b7952611f52725a073d", "is_disabled": 0, "rental_uris": {"ios": "https://dc.lft.to/lastmile_qr_scan", "android": "https://dc.lft.to/lastmile_qr_scan"}, "is_reserved": 0}, {"lon": -77.03192433333334, "bike_id": "f8dcad774f2947dad8d31b8b3a0680dc", "lat": 38.918255333333335, "fusion_lon": 0.0, "fusion_lat": 0.0, "type": "electric_scooter", "name": "f8dcad774f2947dad8d31b8b3a0680dc", "is_disabled": 0, "rental_uris": {"ios": "https://dc.lft.to/lastmile_qr_scan", "android": "https://dc.lft.to/lastmile_qr_scan"}, "is_reserved": 0}, {"lon": -77.05141116666667, "bike_id": "c1305851cca450afdfaf30e099bb1d1b", "lat": 38.89864216666667, "fusion_lon": 0.0, "fusion_lat": 0.0, "type": "electric_scooter", "name": "c1305851cca450afdfaf30e099bb1d1b", "is_disabled": 0, "rental_uris": {"ios": "https://dc.lft.to/lastmile_qr_scan", "android": "https://dc.lft.to/lastmile_qr_scan"}, "is_reserved": 0}, {"lon": -77.02558083333334, "bike_id": "296f53f06ceecffc26a65b4e936853ec", "lat": 38.94173283333333, "fusion_lon": 0.0, "fusion_lat": 0.0, "type": "electric_scooter", "name": "296f53f06ceecffc26a65b4e936853ec", "is_disabled": 0, "rental_uris": {"ios": "https://dc.lft.to/lastmile_qr_scan", "android": "https://dc.lft.to/lastmile_qr_scan"}, "is_reserved": 0}, {"lon": -76.97871716666667, "bike_id": "f31872791935eb886220d20b3a5e3838", "lat": 38.882991, "fusion_lon": 0.0, "fusion_lat": 0.0, "type": "electric_scooter", "name": "f31872791935eb886220d20b3a5e3838", "is_disabled": 0, "rental_uris": {"ios": "https://dc.lft.to/lastmile_qr_scan", "android": "https://dc.lft.to/lastmile_qr_scan"}, "is_reserved": 0}, {"lon": -77.02973266666666, "bike_id": "9a09625cb709312e722beaf188bf2c6b", "lat": 38.912760166666665, "fusion_lon": 0.0, "fusion_lat": 0.0, "type": "electric_scooter", "name": "9a09625cb709312e722beaf188bf2c6b", "is_disabled": 0, "rental_uris": {"ios": "https://dc.lft.to/lastmile_qr_scan", "android": "https://dc.lft.to/lastmile_qr_scan"}, "is_reserved": 0}, {"lon": -77.01762616666667, "bike_id": "d205e43343114678651d982c035a4d17", "lat": 38.88729816666667, "fusion_lon": 0.0, "fusion_lat": 0.0, "type": "electric_scooter", "name": "d205e43343114678651d982c035a4d17", "is_disabled": 0, "rental_uris": {"ios": "https://dc.lft.to/lastmile_qr_scan", "android": "https://dc.lft.to/lastmile_qr_scan"}, "is_reserved": 0}, {"lon": -77.038606, "bike_id": "e152e2fe4710f5861a9826fdec5839cc", "lat": 38.920188833333334, "fusion_lon": 0.0, "fusion_lat": 0.0, "type": "electric_scooter", "name": "e152e2fe4710f5861a9826fdec5839cc", "is_disabled": 0, "rental_uris": {"ios": "https://dc.lft.to/lastmile_qr_scan", "android": "https://dc.lft.to/lastmile_qr_scan"}, "is_reserved": 0}, {"lon": -77.03749916666666, "bike_id": "4111926a1105b52948824bde0c895163", "lat": 38.929121333333335, "fusion_lon": 0.0, "fusion_lat": 0.0, "type": "electric_scooter", "name": "4111926a1105b52948824bde0c895163", "is_disabled": 0, "rental_uris": {"ios": "https://dc.lft.to/lastmile_qr_scan", "android": "https://dc.lft.to/lastmile_qr_scan"}, "is_reserved": 0}, {"lon": -77.046909, "bike_id": "a34b9ffec677ee2e993910cf5df3f6ec", "lat": 38.92144283333333, "fusion_lon": 0.0, "fusion_lat": 0.0, "type": "electric_scooter", "name": "a34b9ffec677ee2e993910cf5df3f6ec", "is_disabled": 0, "rental_uris": {"ios": "https://dc.lft.to/lastmile_qr_scan", "android": "https://dc.lft.to/lastmile_qr_scan"}, "is_reserved": 0}, {"lon": -77.03261216666667, "bike_id": "32561278b501dc3127012e6730bd1a22", "lat": 38.93203833333333, "fusion_lon": 0.0, "fusion_lat": 0.0, "type": "electric_scooter", "name": "32561278b501dc3127012e6730bd1a22", "is_disabled": 0, "rental_uris": {"ios": "https://dc.lft.to/lastmile_qr_scan", "android": "https://dc.lft.to/lastmile_qr_scan"}, "is_reserved": 0}, {"lon": -77.02165066666667, "bike_id": "5f97304d43bbb1203cfe95afc0752db3", "lat": 38.93000416666667, "fusion_lon": 0.0, "fusion_lat": 0.0, "type": "electric_scooter", "name": "5f97304d43bbb1203cfe95afc0752db3", "is_disabled": 0, "rental_uris": {"ios": "https://dc.lft.to/lastmile_qr_scan", "android": "https://dc.lft.to/lastmile_qr_scan"}, "is_reserved": 0}, {"lon": -77.02505333333333, "bike_id": "2739ed43d37baf253c4a913a00f719fc", "lat": 38.920753, "fusion_lon": 0.0, "fusion_lat": 0.0, "type": "electric_scooter", "name": "2739ed43d37baf253c4a913a00f719fc", "is_disabled": 0, "rental_uris": {"ios": "https://dc.lft.to/lastmile_qr_scan", "android": "https://dc.lft.to/lastmile_qr_scan"}, "is_reserved": 0}, {"lon": -77.03262733333334, "bike_id": "ebb47b26cd0d98b1061b509958845b9c", "lat": 38.93772333333333, "fusion_lon": 0.0, "fusion_lat": 0.0, "type": "electric_scooter", "name": "ebb47b26cd0d98b1061b509958845b9c", "is_disabled": 0, "rental_uris": {"ios": "https://dc.lft.to/lastmile_qr_scan", "android": "https://dc.lft.to/lastmile_qr_scan"}, "is_reserved": 0}, {"lon": -77.0348485, "bike_id": "597efcfa1aac1072f7ac2c62d99d5f64", "lat": 38.934363833333336, "fusion_lon": 0.0, "fusion_lat": 0.0, "type": "electric_scooter", "name": "597efcfa1aac1072f7ac2c62d99d5f64", "is_disabled": 0, "rental_uris": {"ios": "https://dc.lft.to/lastmile_qr_scan", "android": "https://dc.lft.to/lastmile_qr_scan"}, "is_reserved": 0}, {"lon": -77.00380433333333, "bike_id": "a24e76b602d72fe1a42abcd09f021fdb", "lat": 38.8360535, "fusion_lon": 0.0, "fusion_lat": 0.0, "type": "electric_bike", "name": "a24e76b602d72fe1a42abcd09f021fdb", "is_disabled": 0, "rental_uris": {"ios": "https://dc.lft.to/lastmile_qr_scan", "android": "https://dc.lft.to/lastmile_qr_scan"}, "is_reserved": 0}, {"lon": -77.0275485, "bike_id": "8407794cd9b759fda9c8d5a3b4259c12", "lat": 38.916984666666664, "fusion_lon": 0.0, "fusion_lat": 0.0, "type": "electric_scooter", "name": "8407794cd9b759fda9c8d5a3b4259c12", "is_disabled": 0, "rental_uris": {"ios": "https://dc.lft.to/lastmile_qr_scan", "android": "https://dc.lft.to/lastmile_qr_scan"}, "is_reserved": 0}, {"lon": -77.04692716666666, "bike_id": "26d876e1d622b2fd390c94d37efb0e94", "lat": 38.9217875, "fusion_lon": 0.0, "fusion_lat": 0.0, "type": "electric_scooter", "name": "26d876e1d622b2fd390c94d37efb0e94", "is_disabled": 0, "rental_uris": {"ios": "https://dc.lft.to/lastmile_qr_scan", "android": "https://dc.lft.to/lastmile_qr_scan"}, "is_reserved": 0}, {"lon": -77.04651466666667, "bike_id": "ffa5005b9c0d9186e9950f27a94a9b84", "lat": 38.91421033333334, "fusion_lon": 0.0, "fusion_lat": 0.0, "type": "electric_scooter", "name": "ffa5005b9c0d9186e9950f27a94a9b84", "is_disabled": 0, "rental_uris": {"ios": "https://dc.lft.to/lastmile_qr_scan", "android": "https://dc.lft.to/lastmile_qr_scan"}, "is_reserved": 0}, {"lon": -76.992918, "bike_id": "02cdd9d9bf75c6290e36ee7f730308d1", "lat": 38.898867, "fusion_lon": 0.0, "fusion_lat": 0.0, "type": "electric_scooter", "name": "02cdd9d9bf75c6290e36ee7f730308d1", "is_disabled": 0, "rental_uris": {"ios": "https://dc.lft.to/lastmile_qr_scan", "android": "https://dc.lft.to/lastmile_qr_scan"}, "is_reserved": 0}, {"lon": -77.04519583333334, "bike_id": "c1d0ef1c8d6ad5e3ae93bba6463e70e0", "lat": 38.92310333333333, "fusion_lon": 0.0, "fusion_lat": 0.0, "type": "electric_scooter", "name": "c1d0ef1c8d6ad5e3ae93bba6463e70e0", "is_disabled": 0, "rental_uris": {"ios": "https://dc.lft.to/lastmile_qr_scan", "android": "https://dc.lft.to/lastmile_qr_scan"}, "is_reserved": 0}, {"lon": -77.02660483333334, "bike_id": "314ecb32e6e972dda4cf1594e2640db3", "lat": 38.91689233333334, "fusion_lon": 0.0, "fusion_lat": 0.0, "type": "electric_scooter", "name": "314ecb32e6e972dda4cf1594e2640db3", "is_disabled": 0, "rental_uris": {"ios": "https://dc.lft.to/lastmile_qr_scan", "android": "https://dc.lft.to/lastmile_qr_scan"}, "is_reserved": 0}, {"lon": -77.03554666666666, "bike_id": "904e2201cd60b32a67489377ec55b5cb", "lat": 38.92478216666667, "fusion_lon": 0.0, "fusion_lat": 0.0, "type": "electric_scooter", "name": "904e2201cd60b32a67489377ec55b5cb", "is_disabled": 0, "rental_uris": {"ios": "https://dc.lft.to/lastmile_qr_scan", "android": "https://dc.lft.to/lastmile_qr_scan"}, "is_reserved": 0}, {"lon": -77.0554595, "bike_id": "a1de556b86bdf6cdba64c71e50f1b088", "lat": 38.930055, "fusion_lon": 0.0, "fusion_lat": 0.0, "type": "electric_scooter", "name": "a1de556b86bdf6cdba64c71e50f1b088", "is_disabled": 0, "rental_uris": {"ios": "https://dc.lft.to/lastmile_qr_scan", "android": "https://dc.lft.to/lastmile_qr_scan"}, "is_reserved": 0}, {"lon": -77.04228, "bike_id": "79b044469637f9765f617d2bc849abd0", "lat": 38.913401666666665, "fusion_lon": 0.0, "fusion_lat": 0.0, "type": "electric_scooter", "name": "79b044469637f9765f617d2bc849abd0", "is_disabled": 0, "rental_uris": {"ios": "https://dc.lft.to/lastmile_qr_scan", "android": "https://dc.lft.to/lastmile_qr_scan"}, "is_reserved": 0}, {"lon": -76.92774283333333, "bike_id": "0675e5d93e7c1d834ffc1fdd750f1774", "lat": 38.969262666666665, "fusion_lon": 0.0, "fusion_lat": 0.0, "type": "electric_bike", "name": "0675e5d93e7c1d834ffc1fdd750f1774", "is_disabled": 0, "rental_uris": {"ios": "https://dc.lft.to/lastmile_qr_scan", "android": "https://dc.lft.to/lastmile_qr_scan"}, "is_reserved": 0}, {"lon": -76.92768766666667, "bike_id": "bfb66f83ab54ee644014f6e20c1d4a5c", "lat": 38.90089316666667, "fusion_lon": 0.0, "fusion_lat": 0.0, "type": "electric_scooter", "name": "bfb66f83ab54ee644014f6e20c1d4a5c", "is_disabled": 0, "rental_uris": {"ios": "https://dc.lft.to/lastmile_qr_scan", "android": "https://dc.lft.to/lastmile_qr_scan"}, "is_reserved": 0}, {"lon": -76.98885233333333, "bike_id": "a0c70f6070dec5db3037dbbb7023a303", "lat": 38.86659683333333, "fusion_lon": 0.0, "fusion_lat": 0.0, "type": "electric_scooter", "name": "a0c70f6070dec5db3037dbbb7023a303", "is_disabled": 0, "rental_uris": {"ios": "https://dc.lft.to/lastmile_qr_scan", "android": "https://dc.lft.to/lastmile_qr_scan"}, "is_reserved": 0}, {"lon": -77.00216466666667, "bike_id": "ae10f213e00de21812a243b350585c71", "lat": 38.90015183333333, "fusion_lon": 0.0, "fusion_lat": 0.0, "type": "electric_scooter", "name": "ae10f213e00de21812a243b350585c71", "is_disabled": 0, "rental_uris": {"ios": "https://dc.lft.to/lastmile_qr_scan", "android": "https://dc.lft.to/lastmile_qr_scan"}, "is_reserved": 0}, {"lon": -76.987105, "bike_id": "d32085cee48b7d215dc46e08d0028521", "lat": 38.86625, "fusion_lon": 0.0, "fusion_lat": 0.0, "type": "electric_scooter", "name": "d32085cee48b7d215dc46e08d0028521", "is_disabled": 0, "rental_uris": {"ios": "https://dc.lft.to/lastmile_qr_scan", "android": "https://dc.lft.to/lastmile_qr_scan"}, "is_reserved": 0}, {"lon": -77.00204983333333, "bike_id": "f697e09826ebca6627cb398217485797", "lat": 38.988531, "fusion_lon": 0.0, "fusion_lat": 0.0, "type": "electric_bike", "name": "f697e09826ebca6627cb398217485797", "is_disabled": 0, "rental_uris": {"ios": "https://dc.lft.to/lastmile_qr_scan", "android": "https://dc.lft.to/lastmile_qr_scan"}, "is_reserved": 0}, {"lon": -76.97908916666667, "bike_id": "a9fa3cd3bdb1acb761491e075730e7c0", "lat": 38.86357666666667, "fusion_lon": 0.0, "fusion_lat": 0.0, "type": "electric_scooter", "name": "a9fa3cd3bdb1acb761491e075730e7c0", "is_disabled": 0, "rental_uris": {"ios": "https://dc.lft.to/lastmile_qr_scan", "android": "https://dc.lft.to/lastmile_qr_scan"}, "is_reserved": 0}, {"lon": -77.03659483333334, "bike_id": "f587d2a0f456c096af711e7f579fec5e", "lat": 38.91772116666667, "fusion_lon": 0.0, "fusion_lat": 0.0, "type": "electric_scooter", "name": "f587d2a0f456c096af711e7f579fec5e", "is_disabled": 0, "rental_uris": {"ios": "https://dc.lft.to/lastmile_qr_scan", "android": "https://dc.lft.to/lastmile_qr_scan"}, "is_reserved": 0}, {"lon": -77.02500566666667, "bike_id": "df99f7e412fd0598debc0c7ca0b2c07a", "lat": 38.920811666666665, "fusion_lon": 0.0, "fusion_lat": 0.0, "type": "electric_scooter", "name": "df99f7e412fd0598debc0c7ca0b2c07a", "is_disabled": 0, "rental_uris": {"ios": "https://dc.lft.to/lastmile_qr_scan", "android": "https://dc.lft.to/lastmile_qr_scan"}, "is_reserved": 0}, {"lon": -77.03720816666667, "bike_id": "de440678b9911121c9966f2acdf35b40", "lat": 38.931862333333335, "fusion_lon": 0.0, "fusion_lat": 0.0, "type": "electric_scooter", "name": "de440678b9911121c9966f2acdf35b40", "is_disabled": 0, "rental_uris": {"ios": "https://dc.lft.to/lastmile_qr_scan", "android": "https://dc.lft.to/lastmile_qr_scan"}, "is_reserved": 0}, {"lon": -77.02485483333334, "bike_id": "12f1b432303ee0f9c01e4928a582d00b", "lat": 38.9170345, "fusion_lon": 0.0, "fusion_lat": 0.0, "type": "electric_scooter", "name": "12f1b432303ee0f9c01e4928a582d00b", "is_disabled": 0, "rental_uris": {"ios": "https://dc.lft.to/lastmile_qr_scan", "android": "https://dc.lft.to/lastmile_qr_scan"}, "is_reserved": 0}, {"lon": -77.0317385, "bike_id": "ab2198c266ae2e03b1bc3e4fd3f7819f", "lat": 38.91418383333333, "fusion_lon": 0.0, "fusion_lat": 0.0, "type": "electric_scooter", "name": "ab2198c266ae2e03b1bc3e4fd3f7819f", "is_disabled": 0, "rental_uris": {"ios": "https://dc.lft.to/lastmile_qr_scan", "android": "https://dc.lft.to/lastmile_qr_scan"}, "is_reserved": 0}, {"lon": -77.0306265, "bike_id": "0979942f2ecf59bc6798ccf0a47afde3", "lat": 38.88742, "fusion_lon": 0.0, "fusion_lat": 0.0, "type": "electric_scooter", "name": "0979942f2ecf59bc6798ccf0a47afde3", "is_disabled": 0, "rental_uris": {"ios": "https://dc.lft.to/lastmile_qr_scan", "android": "https://dc.lft.to/lastmile_qr_scan"}, "is_reserved": 0}, {"lon": -76.99471966666667, "bike_id": "0f354e53ff9e913202d788d84bead985", "lat": 38.86228233333333, "fusion_lon": 0.0, "fusion_lat": 0.0, "type": "electric_scooter", "name": "0f354e53ff9e913202d788d84bead985", "is_disabled": 0, "rental_uris": {"ios": "https://dc.lft.to/lastmile_qr_scan", "android": "https://dc.lft.to/lastmile_qr_scan"}, "is_reserved": 0}, {"lon": -77.043556, "bike_id": "506daf9167ae7a2287aa472a1f14f630", "lat": 38.912152666666664, "fusion_lon": 0.0, "fusion_lat": 0.0, "type": "electric_scooter", "name": "506daf9167ae7a2287aa472a1f14f630", "is_disabled": 0, "rental_uris": {"ios": "https://dc.lft.to/lastmile_qr_scan", "android": "https://dc.lft.to/lastmile_qr_scan"}, "is_reserved": 0}, {"lon": -77.02388733333333, "bike_id": "6f658d8094aee237b2bf4dada76fa720", "lat": 38.91141833333333, "fusion_lon": 0.0, "fusion_lat": 0.0, "type": "electric_scooter", "name": "6f658d8094aee237b2bf4dada76fa720", "is_disabled": 0, "rental_uris": {"ios": "https://dc.lft.to/lastmile_qr_scan", "android": "https://dc.lft.to/lastmile_qr_scan"}, "is_reserved": 0}, {"lon": -77.05563766666667, "bike_id": "7d1470655255795d416bf92385680734", "lat": 38.93041933333333, "fusion_lon": 0.0, "fusion_lat": 0.0, "type": "electric_scooter", "name": "7d1470655255795d416bf92385680734", "is_disabled": 0, "rental_uris": {"ios": "https://dc.lft.to/lastmile_qr_scan", "android": "https://dc.lft.to/lastmile_qr_scan"}, "is_reserved": 0}, {"lon": -77.10524366666667, "bike_id": "7aa246852b7f0c0029e2831c96f4aef2", "lat": 38.873732, "fusion_lon": 0.0, "fusion_lat": 0.0, "type": "electric_bike", "name": "7aa246852b7f0c0029e2831c96f4aef2", "is_disabled": 0, "rental_uris": {"ios": "https://dc.lft.to/lastmile_qr_scan", "android": "https://dc.lft.to/lastmile_qr_scan"}, "is_reserved": 0}, {"lon": -77.04255616666667, "bike_id": "0654dc927b3ddff851a6a8785a26203d", "lat": 38.90030016666667, "fusion_lon": 0.0, "fusion_lat": 0.0, "type": "electric_scooter", "name": "0654dc927b3ddff851a6a8785a26203d", "is_disabled": 0, "rental_uris": {"ios": "https://dc.lft.to/lastmile_qr_scan", "android": "https://dc.lft.to/lastmile_qr_scan"}, "is_reserved": 0}, {"lon": -77.0782245, "bike_id": "c25f7728947ffd4d768742adf39017f8", "lat": 38.92369433333333, "fusion_lon": 0.0, "fusion_lat": 0.0, "type": "electric_scooter", "name": "c25f7728947ffd4d768742adf39017f8", "is_disabled": 0, "rental_uris": {"ios": "https://dc.lft.to/lastmile_qr_scan", "android": "https://dc.lft.to/lastmile_qr_scan"}, "is_reserved": 0}, {"lon": -77.03318516666667, "bike_id": "18fbddf03563a74b9c3850b272667635", "lat": 38.902981833333335, "fusion_lon": 0.0, "fusion_lat": 0.0, "type": "electric_scooter", "name": "18fbddf03563a74b9c3850b272667635", "is_disabled": 0, "rental_uris": {"ios": "https://dc.lft.to/lastmile_qr_scan", "android": "https://dc.lft.to/lastmile_qr_scan"}, "is_reserved": 0}, {"lon": -77.07289733333333, "bike_id": "c4fd09d635848b1bcdfaa92fed41368d", "lat": 38.92284933333333, "fusion_lon": 0.0, "fusion_lat": 0.0, "type": "electric_scooter", "name": "c4fd09d635848b1bcdfaa92fed41368d", "is_disabled": 0, "rental_uris": {"ios": "https://dc.lft.to/lastmile_qr_scan", "android": "https://dc.lft.to/lastmile_qr_scan"}, "is_reserved": 0}, {"lon": -77.03192816666666, "bike_id": "74c3b0d3fa9c916d5b7ef0c19a3d6161", "lat": 38.9120665, "fusion_lon": 0.0, "fusion_lat": 0.0, "type": "electric_scooter", "name": "74c3b0d3fa9c916d5b7ef0c19a3d6161", "is_disabled": 0, "rental_uris": {"ios": "https://dc.lft.to/lastmile_qr_scan", "android": "https://dc.lft.to/lastmile_qr_scan"}, "is_reserved": 0}, {"lon": -76.98795133333333, "bike_id": "8da68e14c374b8a59536b01768d53886", "lat": 38.892404, "fusion_lon": 0.0, "fusion_lat": 0.0, "type": "electric_scooter", "name": "8da68e14c374b8a59536b01768d53886", "is_disabled": 0, "rental_uris": {"ios": "https://dc.lft.to/lastmile_qr_scan", "android": "https://dc.lft.to/lastmile_qr_scan"}, "is_reserved": 0}, {"lon": -77.04109583333333, "bike_id": "4105cc4b0e632293515b7d58b676bddc", "lat": 38.915531333333334, "fusion_lon": 0.0, "fusion_lat": 0.0, "type": "electric_scooter", "name": "4105cc4b0e632293515b7d58b676bddc", "is_disabled": 0, "rental_uris": {"ios": "https://dc.lft.to/lastmile_qr_scan", "android": "https://dc.lft.to/lastmile_qr_scan"}, "is_reserved": 0}, {"lon": -77.00579483333334, "bike_id": "6359cc88754db573cb4f973ab1248938", "lat": 38.829959333333335, "fusion_lon": 0.0, "fusion_lat": 0.0, "type": "electric_scooter", "name": "6359cc88754db573cb4f973ab1248938", "is_disabled": 0, "rental_uris": {"ios": "https://dc.lft.to/lastmile_qr_scan", "android": "https://dc.lft.to/lastmile_qr_scan"}, "is_reserved": 0}, {"lon": -77.02689483333333, "bike_id": "42874287a2fdb8a2b3208f3ac2df72a7", "lat": 38.91814866666667, "fusion_lon": 0.0, "fusion_lat": 0.0, "type": "electric_scooter", "name": "42874287a2fdb8a2b3208f3ac2df72a7", "is_disabled": 0, "rental_uris": {"ios": "https://dc.lft.to/lastmile_qr_scan", "android": "https://dc.lft.to/lastmile_qr_scan"}, "is_reserved": 0}, {"lon": -77.022227, "bike_id": "9bc23b9607a81aa71764f698e0d47bfd", "lat": 38.935508166666665, "fusion_lon": 0.0, "fusion_lat": 0.0, "type": "electric_scooter", "name": "9bc23b9607a81aa71764f698e0d47bfd", "is_disabled": 0, "rental_uris": {"ios": "https://dc.lft.to/lastmile_qr_scan", "android": "https://dc.lft.to/lastmile_qr_scan"}, "is_reserved": 0}, {"lon": -77.0365785, "bike_id": "4758cadc45d61f711e6cb8fa42a7f70c", "lat": 38.91819483333333, "fusion_lon": 0.0, "fusion_lat": 0.0, "type": "electric_scooter", "name": "4758cadc45d61f711e6cb8fa42a7f70c", "is_disabled": 0, "rental_uris": {"ios": "https://dc.lft.to/lastmile_qr_scan", "android": "https://dc.lft.to/lastmile_qr_scan"}, "is_reserved": 0}, {"lon": -77.09466066666667, "bike_id": "c92bcc1ce89176b0fbe13136190e507b", "lat": 38.86939616666667, "fusion_lon": 0.0, "fusion_lat": 0.0, "type": "electric_bike", "name": "c92bcc1ce89176b0fbe13136190e507b", "is_disabled": 0, "rental_uris": {"ios": "https://dc.lft.to/lastmile_qr_scan", "android": "https://dc.lft.to/lastmile_qr_scan"}, "is_reserved": 0}, {"lon": -77.03249866666667, "bike_id": "124dcab1d372cbbf96129ae695cf88af", "lat": 38.92979833333333, "fusion_lon": 0.0, "fusion_lat": 0.0, "type": "electric_scooter", "name": "124dcab1d372cbbf96129ae695cf88af", "is_disabled": 0, "rental_uris": {"ios": "https://dc.lft.to/lastmile_qr_scan", "android": "https://dc.lft.to/lastmile_qr_scan"}, "is_reserved": 0}, {"lon": -77.0250685, "bike_id": "093e4dd4559ae538dd7546dc1f595134", "lat": 38.920499, "fusion_lon": 0.0, "fusion_lat": 0.0, "type": "electric_scooter", "name": "093e4dd4559ae538dd7546dc1f595134", "is_disabled": 0, "rental_uris": {"ios": "https://dc.lft.to/lastmile_qr_scan", "android": "https://dc.lft.to/lastmile_qr_scan"}, "is_reserved": 0}, {"lon": -77.02947666666667, "bike_id": "8e68023ccd6ee2e1ac803b2ce3ea5f0d", "lat": 38.90835833333333, "fusion_lon": 0.0, "fusion_lat": 0.0, "type": "electric_bike", "name": "8e68023ccd6ee2e1ac803b2ce3ea5f0d", "is_disabled": 0, "rental_uris": {"ios": "https://dc.lft.to/lastmile_qr_scan", "android": "https://dc.lft.to/lastmile_qr_scan"}, "is_reserved": 0}, {"lon": -76.98143783333333, "bike_id": "9ff2029530468cfddd4497a14a80ce3f", "lat": 38.90566833333333, "fusion_lon": 0.0, "fusion_lat": 0.0, "type": "electric_scooter", "name": "9ff2029530468cfddd4497a14a80ce3f", "is_disabled": 0, "rental_uris": {"ios": "https://dc.lft.to/lastmile_qr_scan", "android": "https://dc.lft.to/lastmile_qr_scan"}, "is_reserved": 0}, {"lon": -77.033129, "bike_id": "b78eef84c00768efa1c7a8a958da76fd", "lat": 38.901112, "fusion_lon": 0.0, "fusion_lat": 0.0, "type": "electric_scooter", "name": "b78eef84c00768efa1c7a8a958da76fd", "is_disabled": 0, "rental_uris": {"ios": "https://dc.lft.to/lastmile_qr_scan", "android": "https://dc.lft.to/lastmile_qr_scan"}, "is_reserved": 0}, {"lon": -77.0380045, "bike_id": "a75ef095a5a07177fcc8d3824f0f64ea", "lat": 38.91034533333333, "fusion_lon": 0.0, "fusion_lat": 0.0, "type": "electric_scooter", "name": "a75ef095a5a07177fcc8d3824f0f64ea", "is_disabled": 0, "rental_uris": {"ios": "https://dc.lft.to/lastmile_qr_scan", "android": "https://dc.lft.to/lastmile_qr_scan"}, "is_reserved": 0}, {"lon": -77.03278933333333, "bike_id": "cbc0fde7d29002c77eaf7afa8308d8bf", "lat": 38.9287595, "fusion_lon": 0.0, "fusion_lat": 0.0, "type": "electric_scooter", "name": "cbc0fde7d29002c77eaf7afa8308d8bf", "is_disabled": 0, "rental_uris": {"ios": "https://dc.lft.to/lastmile_qr_scan", "android": "https://dc.lft.to/lastmile_qr_scan"}, "is_reserved": 0}, {"lon": -77.02655433333334, "bike_id": "9ba9080483a9117a8db35fb6a89f645b", "lat": 38.927733, "fusion_lon": 0.0, "fusion_lat": 0.0, "type": "electric_scooter", "name": "9ba9080483a9117a8db35fb6a89f645b", "is_disabled": 0, "rental_uris": {"ios": "https://dc.lft.to/lastmile_qr_scan", "android": "https://dc.lft.to/lastmile_qr_scan"}, "is_reserved": 0}, {"lon": -77.00196833333334, "bike_id": "097b454b097fe1d7e4e7a0b83cef136c", "lat": 38.902392166666665, "fusion_lon": 0.0, "fusion_lat": 0.0, "type": "electric_scooter", "name": "097b454b097fe1d7e4e7a0b83cef136c", "is_disabled": 0, "rental_uris": {"ios": "https://dc.lft.to/lastmile_qr_scan", "android": "https://dc.lft.to/lastmile_qr_scan"}, "is_reserved": 0}, {"lon": -77.0505355, "bike_id": "01934db76f8de7e079371a39b5af82ce", "lat": 38.9004555, "fusion_lon": 0.0, "fusion_lat": 0.0, "type": "electric_scooter", "name": "01934db76f8de7e079371a39b5af82ce", "is_disabled": 0, "rental_uris": {"ios": "https://dc.lft.to/lastmile_qr_scan", "android": "https://dc.lft.to/lastmile_qr_scan"}, "is_reserved": 0}, {"lon": -77.03665216666667, "bike_id": "10f55ccb15303f098d44c4e1ae6be9ea", "lat": 38.92137316666667, "fusion_lon": 0.0, "fusion_lat": 0.0, "type": "electric_scooter", "name": "10f55ccb15303f098d44c4e1ae6be9ea", "is_disabled": 0, "rental_uris": {"ios": "https://dc.lft.to/lastmile_qr_scan", "android": "https://dc.lft.to/lastmile_qr_scan"}, "is_reserved": 0}, {"lon": -77.0387645, "bike_id": "71690f8105cd7339b03c33dd1fd62a4f", "lat": 38.92963533333333, "fusion_lon": 0.0, "fusion_lat": 0.0, "type": "electric_scooter", "name": "71690f8105cd7339b03c33dd1fd62a4f", "is_disabled": 0, "rental_uris": {"ios": "https://dc.lft.to/lastmile_qr_scan", "android": "https://dc.lft.to/lastmile_qr_scan"}, "is_reserved": 0}, {"lon": -77.05434266666667, "bike_id": "023b7f82342a461d9ec1c335651ac4e9", "lat": 38.836860333333334, "fusion_lon": 0.0, "fusion_lat": 0.0, "type": "electric_bike", "name": "023b7f82342a461d9ec1c335651ac4e9", "is_disabled": 0, "rental_uris": {"ios": "https://dc.lft.to/lastmile_qr_scan", "android": "https://dc.lft.to/lastmile_qr_scan"}, "is_reserved": 0}, {"lon": -77.00041583333334, "bike_id": "dc60dabe9ae2b5c9fa92729d0c5f865e", "lat": 38.96772083333333, "fusion_lon": 0.0, "fusion_lat": 0.0, "type": "electric_bike", "name": "dc60dabe9ae2b5c9fa92729d0c5f865e", "is_disabled": 0, "rental_uris": {"ios": "https://dc.lft.to/lastmile_qr_scan", "android": "https://dc.lft.to/lastmile_qr_scan"}, "is_reserved": 0}, {"lon": -77.0320035, "bike_id": "347b6a511e3e72f66242ca95efd89339", "lat": 38.9440905, "fusion_lon": 0.0, "fusion_lat": 0.0, "type": "electric_scooter", "name": "347b6a511e3e72f66242ca95efd89339", "is_disabled": 0, "rental_uris": {"ios": "https://dc.lft.to/lastmile_qr_scan", "android": "https://dc.lft.to/lastmile_qr_scan"}, "is_reserved": 0}, {"lon": -77.045598, "bike_id": "b1d9c60c6f9528e105c6e95ec53a12c7", "lat": 38.89618316666667, "fusion_lon": 0.0, "fusion_lat": 0.0, "type": "electric_scooter", "name": "b1d9c60c6f9528e105c6e95ec53a12c7", "is_disabled": 0, "rental_uris": {"ios": "https://dc.lft.to/lastmile_qr_scan", "android": "https://dc.lft.to/lastmile_qr_scan"}, "is_reserved": 0}, {"lon": -77.03186233333334, "bike_id": "af6519be44c6ed68d05fb728e9733e66", "lat": 38.917463166666664, "fusion_lon": 0.0, "fusion_lat": 0.0, "type": "electric_scooter", "name": "af6519be44c6ed68d05fb728e9733e66", "is_disabled": 0, "rental_uris": {"ios": "https://dc.lft.to/lastmile_qr_scan", "android": "https://dc.lft.to/lastmile_qr_scan"}, "is_reserved": 0}, {"lon": -77.0415445, "bike_id": "1a01e8dfd3469a872ce4cdbb670e70f1", "lat": 38.903401333333335, "fusion_lon": 0.0, "fusion_lat": 0.0, "type": "electric_scooter", "name": "1a01e8dfd3469a872ce4cdbb670e70f1", "is_disabled": 0, "rental_uris": {"ios": "https://dc.lft.to/lastmile_qr_scan", "android": "https://dc.lft.to/lastmile_qr_scan"}, "is_reserved": 0}, {"lon": -77.0065135, "bike_id": "ed23c382380fbf9d66c1e053aa19cb07", "lat": 38.83888283333334, "fusion_lon": 0.0, "fusion_lat": 0.0, "type": "electric_scooter", "name": "ed23c382380fbf9d66c1e053aa19cb07", "is_disabled": 0, "rental_uris": {"ios": "https://dc.lft.to/lastmile_qr_scan", "android": "https://dc.lft.to/lastmile_qr_scan"}, "is_reserved": 0}, {"lon": -76.874967, "bike_id": "7690d2e988cdad1e65da5266ad117cbc", "lat": 38.990883, "fusion_lon": 0.0, "fusion_lat": 0.0, "type": "electric_bike", "name": "7690d2e988cdad1e65da5266ad117cbc", "is_disabled": 0, "rental_uris": {"ios": "https://dc.lft.to/lastmile_qr_scan", "android": "https://dc.lft.to/lastmile_qr_scan"}, "is_reserved": 0}, {"lon": -76.93174916666666, "bike_id": "ebabc8db821e91ed2e281fb665298532", "lat": 38.89883, "fusion_lon": 0.0, "fusion_lat": 0.0, "type": "electric_scooter", "name": "ebabc8db821e91ed2e281fb665298532", "is_disabled": 0, "rental_uris": {"ios": "https://dc.lft.to/lastmile_qr_scan", "android": "https://dc.lft.to/lastmile_qr_scan"}, "is_reserved": 0}, {"lon": -77.03286166666666, "bike_id": "04da3cc3979783b424126e0f32e1baa7", "lat": 38.95647233333333, "fusion_lon": 0.0, "fusion_lat": 0.0, "type": "electric_scooter", "name": "04da3cc3979783b424126e0f32e1baa7", "is_disabled": 0, "rental_uris": {"ios": "https://dc.lft.to/lastmile_qr_scan", "android": "https://dc.lft.to/lastmile_qr_scan"}, "is_reserved": 0}, {"lon": -76.93009916666666, "bike_id": "327fb55d05807f1964effa218b8ec625", "lat": 38.89653216666667, "fusion_lon": 0.0, "fusion_lat": 0.0, "type": "electric_bike", "name": "327fb55d05807f1964effa218b8ec625", "is_disabled": 0, "rental_uris": {"ios": "https://dc.lft.to/lastmile_qr_scan", "android": "https://dc.lft.to/lastmile_qr_scan"}, "is_reserved": 0}, {"lon": -77.03859, "bike_id": "ab19b4bf5e48e35c3fac5dfbbe3b305a", "lat": 38.9066245, "fusion_lon": 0.0, "fusion_lat": 0.0, "type": "electric_scooter", "name": "ab19b4bf5e48e35c3fac5dfbbe3b305a", "is_disabled": 0, "rental_uris": {"ios": "https://dc.lft.to/lastmile_qr_scan", "android": "https://dc.lft.to/lastmile_qr_scan"}, "is_reserved": 0}, {"lon": -77.02557983333334, "bike_id": "4513a8b5b12b3a38b8386a0fc2c83894", "lat": 38.93854316666667, "fusion_lon": 0.0, "fusion_lat": 0.0, "type": "electric_scooter", "name": "4513a8b5b12b3a38b8386a0fc2c83894", "is_disabled": 0, "rental_uris": {"ios": "https://dc.lft.to/lastmile_qr_scan", "android": "https://dc.lft.to/lastmile_qr_scan"}, "is_reserved": 0}, {"lon": -76.9574785, "bike_id": "3a187d00a82d27fe37486a36aee84980", "lat": 38.88426833333333, "fusion_lon": 0.0, "fusion_lat": 0.0, "type": "electric_scooter", "name": "3a187d00a82d27fe37486a36aee84980", "is_disabled": 0, "rental_uris": {"ios": "https://dc.lft.to/lastmile_qr_scan", "android": "https://dc.lft.to/lastmile_qr_scan"}, "is_reserved": 0}, {"lon": -76.99895816666667, "bike_id": "474328191a12167d6cde672042742da9", "lat": 38.90957366666667, "fusion_lon": 0.0, "fusion_lat": 0.0, "type": "electric_scooter", "name": "474328191a12167d6cde672042742da9", "is_disabled": 0, "rental_uris": {"ios": "https://dc.lft.to/lastmile_qr_scan", "android": "https://dc.lft.to/lastmile_qr_scan"}, "is_reserved": 0}, {"lon": -77.03424833333334, "bike_id": "950d246b65d21f1ed5e2d9ce9cf0d513", "lat": 38.93351033333333, "fusion_lon": 0.0, "fusion_lat": 0.0, "type": "electric_scooter", "name": "950d246b65d21f1ed5e2d9ce9cf0d513", "is_disabled": 0, "rental_uris": {"ios": "https://dc.lft.to/lastmile_qr_scan", "android": "https://dc.lft.to/lastmile_qr_scan"}, "is_reserved": 0}, {"lon": -76.99882616666666, "bike_id": "6d6e24ed3810d482da4356bfc0d32f26", "lat": 38.920529333333334, "fusion_lon": 0.0, "fusion_lat": 0.0, "type": "electric_scooter", "name": "6d6e24ed3810d482da4356bfc0d32f26", "is_disabled": 0, "rental_uris": {"ios": "https://dc.lft.to/lastmile_qr_scan", "android": "https://dc.lft.to/lastmile_qr_scan"}, "is_reserved": 0}, {"lon": -77.032582, "bike_id": "e29a8f0903f21991c68f37db69b656fe", "lat": 38.93888533333333, "fusion_lon": 0.0, "fusion_lat": 0.0, "type": "electric_scooter", "name": "e29a8f0903f21991c68f37db69b656fe", "is_disabled": 0, "rental_uris": {"ios": "https://dc.lft.to/lastmile_qr_scan", "android": "https://dc.lft.to/lastmile_qr_scan"}, "is_reserved": 0}, {"lon": -77.04492083333334, "bike_id": "b60ff421015995121ac47912bbb3d666", "lat": 38.908386666666665, "fusion_lon": 0.0, "fusion_lat": 0.0, "type": "electric_scooter", "name": "b60ff421015995121ac47912bbb3d666", "is_disabled": 0, "rental_uris": {"ios": "https://dc.lft.to/lastmile_qr_scan", "android": "https://dc.lft.to/lastmile_qr_scan"}, "is_reserved": 0}, {"lon": -77.05005283333334, "bike_id": "56958633c7175f67092b3e8ef44eae37", "lat": 38.9053125, "fusion_lon": 0.0, "fusion_lat": 0.0, "type": "electric_scooter", "name": "56958633c7175f67092b3e8ef44eae37", "is_disabled": 0, "rental_uris": {"ios": "https://dc.lft.to/lastmile_qr_scan", "android": "https://dc.lft.to/lastmile_qr_scan"}, "is_reserved": 0}, {"lon": -77.03113583333334, "bike_id": "8fc01f5eb843959a21f9254d920293f8", "lat": 38.887439, "fusion_lon": 0.0, "fusion_lat": 0.0, "type": "electric_scooter", "name": "8fc01f5eb843959a21f9254d920293f8", "is_disabled": 0, "rental_uris": {"ios": "https://dc.lft.to/lastmile_qr_scan", "android": "https://dc.lft.to/lastmile_qr_scan"}, "is_reserved": 0}, {"lon": -76.9753145, "bike_id": "ea723127328132b3ea000a2215e64c21", "lat": 38.92229783333333, "fusion_lon": 0.0, "fusion_lat": 0.0, "type": "electric_scooter", "name": "ea723127328132b3ea000a2215e64c21", "is_disabled": 0, "rental_uris": {"ios": "https://dc.lft.to/lastmile_qr_scan", "android": "https://dc.lft.to/lastmile_qr_scan"}, "is_reserved": 0}, {"lon": -77.03265883333333, "bike_id": "d77d51d88f1bfe9628a9d5c3cf3c4e4e", "lat": 38.91993816666667, "fusion_lon": 0.0, "fusion_lat": 0.0, "type": "electric_scooter", "name": "d77d51d88f1bfe9628a9d5c3cf3c4e4e", "is_disabled": 0, "rental_uris": {"ios": "https://dc.lft.to/lastmile_qr_scan", "android": "https://dc.lft.to/lastmile_qr_scan"}, "is_reserved": 0}, {"lon": -77.02731666666666, "bike_id": "0b9ed62b7f97995ddf41d1acef8f2f8e", "lat": 38.9437755, "fusion_lon": 0.0, "fusion_lat": 0.0, "type": "electric_scooter", "name": "0b9ed62b7f97995ddf41d1acef8f2f8e", "is_disabled": 0, "rental_uris": {"ios": "https://dc.lft.to/lastmile_qr_scan", "android": "https://dc.lft.to/lastmile_qr_scan"}, "is_reserved": 0}, {"lon": -77.04345233333333, "bike_id": "cc8c978b37ac88f8a6f62d66a6d5d1bc", "lat": 38.93331933333333, "fusion_lon": 0.0, "fusion_lat": 0.0, "type": "electric_scooter", "name": "cc8c978b37ac88f8a6f62d66a6d5d1bc", "is_disabled": 0, "rental_uris": {"ios": "https://dc.lft.to/lastmile_qr_scan", "android": "https://dc.lft.to/lastmile_qr_scan"}, "is_reserved": 0}, {"lon": -77.0313805, "bike_id": "d95ecbfd83da2cb247f8f242ca40ecef", "lat": 38.9296435, "fusion_lon": 0.0, "fusion_lat": 0.0, "type": "electric_scooter", "name": "d95ecbfd83da2cb247f8f242ca40ecef", "is_disabled": 0, "rental_uris": {"ios": "https://dc.lft.to/lastmile_qr_scan", "android": "https://dc.lft.to/lastmile_qr_scan"}, "is_reserved": 0}, {"lon": -77.04150233333333, "bike_id": "940d9cab8b780495414b1b8cbe34be6a", "lat": 38.89915933333333, "fusion_lon": 0.0, "fusion_lat": 0.0, "type": "electric_scooter", "name": "940d9cab8b780495414b1b8cbe34be6a", "is_disabled": 0, "rental_uris": {"ios": "https://dc.lft.to/lastmile_qr_scan", "android": "https://dc.lft.to/lastmile_qr_scan"}, "is_reserved": 0}, {"lon": -77.03078016666667, "bike_id": "218e2f12a48b7c77cd0bf62866773164", "lat": 38.880359, "fusion_lon": 0.0, "fusion_lat": 0.0, "type": "electric_scooter", "name": "218e2f12a48b7c77cd0bf62866773164", "is_disabled": 0, "rental_uris": {"ios": "https://dc.lft.to/lastmile_qr_scan", "android": "https://dc.lft.to/lastmile_qr_scan"}, "is_reserved": 0}, {"lon": -77.000396, "bike_id": "d6e9fadf33ec822acc8014c88b0c9303", "lat": 38.908215166666665, "fusion_lon": 0.0, "fusion_lat": 0.0, "type": "electric_scooter", "name": "d6e9fadf33ec822acc8014c88b0c9303", "is_disabled": 0, "rental_uris": {"ios": "https://dc.lft.to/lastmile_qr_scan", "android": "https://dc.lft.to/lastmile_qr_scan"}, "is_reserved": 0}, {"lon": -77.015843, "bike_id": "d40b7291cd389a9d2f6ed4e13553b04d", "lat": 38.87660433333333, "fusion_lon": 0.0, "fusion_lat": 0.0, "type": "electric_scooter", "name": "d40b7291cd389a9d2f6ed4e13553b04d", "is_disabled": 0, "rental_uris": {"ios": "https://dc.lft.to/lastmile_qr_scan", "android": "https://dc.lft.to/lastmile_qr_scan"}, "is_reserved": 0}, {"lon": -77.01205, "bike_id": "8e81e3b42f3d4d4b92ab6ed139343966", "lat": 38.88555216666666, "fusion_lon": 0.0, "fusion_lat": 0.0, "type": "electric_scooter", "name": "8e81e3b42f3d4d4b92ab6ed139343966", "is_disabled": 0, "rental_uris": {"ios": "https://dc.lft.to/lastmile_qr_scan", "android": "https://dc.lft.to/lastmile_qr_scan"}, "is_reserved": 0}, {"lon": -77.0178435, "bike_id": "5f109191e60cf48551546cb00c9ccc65", "lat": 38.92042, "fusion_lon": 0.0, "fusion_lat": 0.0, "type": "electric_scooter", "name": "5f109191e60cf48551546cb00c9ccc65", "is_disabled": 0, "rental_uris": {"ios": "https://dc.lft.to/lastmile_qr_scan", "android": "https://dc.lft.to/lastmile_qr_scan"}, "is_reserved": 0}, {"lon": -77.0268845, "bike_id": "f259937c48395aaf9544f5258760c7b9", "lat": 38.91229466666667, "fusion_lon": 0.0, "fusion_lat": 0.0, "type": "electric_scooter", "name": "f259937c48395aaf9544f5258760c7b9", "is_disabled": 0, "rental_uris": {"ios": "https://dc.lft.to/lastmile_qr_scan", "android": "https://dc.lft.to/lastmile_qr_scan"}, "is_reserved": 0}, {"lon": -77.0383555, "bike_id": "e8c85dbec1b25a91f8e9810ed6861724", "lat": 38.90877316666667, "fusion_lon": 0.0, "fusion_lat": 0.0, "type": "electric_scooter", "name": "e8c85dbec1b25a91f8e9810ed6861724", "is_disabled": 0, "rental_uris": {"ios": "https://dc.lft.to/lastmile_qr_scan", "android": "https://dc.lft.to/lastmile_qr_scan"}, "is_reserved": 0}, {"lon": -77.011202, "bike_id": "923cf8b671d255c67e505a1c26ab7dd0", "lat": 38.90009883333333, "fusion_lon": 0.0, "fusion_lat": 0.0, "type": "electric_scooter", "name": "923cf8b671d255c67e505a1c26ab7dd0", "is_disabled": 0, "rental_uris": {"ios": "https://dc.lft.to/lastmile_qr_scan", "android": "https://dc.lft.to/lastmile_qr_scan"}, "is_reserved": 0}, {"lon": -77.03266033333334, "bike_id": "8d136a381de6b5de726829dcd5a07d9a", "lat": 38.901622333333336, "fusion_lon": 0.0, "fusion_lat": 0.0, "type": "electric_scooter", "name": "8d136a381de6b5de726829dcd5a07d9a", "is_disabled": 0, "rental_uris": {"ios": "https://dc.lft.to/lastmile_qr_scan", "android": "https://dc.lft.to/lastmile_qr_scan"}, "is_reserved": 0}, {"lon": -77.03100116666667, "bike_id": "89d3bb0f511b2fb968dede623714d897", "lat": 38.91903383333333, "fusion_lon": 0.0, "fusion_lat": 0.0, "type": "electric_scooter", "name": "89d3bb0f511b2fb968dede623714d897", "is_disabled": 0, "rental_uris": {"ios": "https://dc.lft.to/lastmile_qr_scan", "android": "https://dc.lft.to/lastmile_qr_scan"}, "is_reserved": 0}, {"lon": -77.00275666666667, "bike_id": "0ca1f2c18a9a7624ad3380b06b66f45c", "lat": 38.9116145, "fusion_lon": 0.0, "fusion_lat": 0.0, "type": "electric_bike", "name": "0ca1f2c18a9a7624ad3380b06b66f45c", "is_disabled": 0, "rental_uris": {"ios": "https://dc.lft.to/lastmile_qr_scan", "android": "https://dc.lft.to/lastmile_qr_scan"}, "is_reserved": 0}, {"lon": -76.9893965, "bike_id": "d27a9066cc985d70a9751e4309825f6f", "lat": 38.865569, "fusion_lon": 0.0, "fusion_lat": 0.0, "type": "electric_scooter", "name": "d27a9066cc985d70a9751e4309825f6f", "is_disabled": 0, "rental_uris": {"ios": "https://dc.lft.to/lastmile_qr_scan", "android": "https://dc.lft.to/lastmile_qr_scan"}, "is_reserved": 0}, {"lon": -77.03216966666666, "bike_id": "6ff6acd2171b9e63e88350dfe4102f44", "lat": 38.91267933333334, "fusion_lon": 0.0, "fusion_lat": 0.0, "type": "electric_scooter", "name": "6ff6acd2171b9e63e88350dfe4102f44", "is_disabled": 0, "rental_uris": {"ios": "https://dc.lft.to/lastmile_qr_scan", "android": "https://dc.lft.to/lastmile_qr_scan"}, "is_reserved": 0}, {"lon": -76.9487825, "bike_id": "69dc349f1d70cdc025c627c0a9e6989d", "lat": 38.894288333333336, "fusion_lon": 0.0, "fusion_lat": 0.0, "type": "electric_scooter", "name": "69dc349f1d70cdc025c627c0a9e6989d", "is_disabled": 0, "rental_uris": {"ios": "https://dc.lft.to/lastmile_qr_scan", "android": "https://dc.lft.to/lastmile_qr_scan"}, "is_reserved": 0}, {"lon": -77.02759916666666, "bike_id": "2daa6bbbb7c13eac3013bddc0d363a62", "lat": 38.95784783333333, "fusion_lon": 0.0, "fusion_lat": 0.0, "type": "electric_scooter", "name": "2daa6bbbb7c13eac3013bddc0d363a62", "is_disabled": 0, "rental_uris": {"ios": "https://dc.lft.to/lastmile_qr_scan", "android": "https://dc.lft.to/lastmile_qr_scan"}, "is_reserved": 0}, {"lon": -76.99373283333334, "bike_id": "fbf29f3f80989a4cc35cc5b222f628af", "lat": 38.89381016666667, "fusion_lon": 0.0, "fusion_lat": 0.0, "type": "electric_scooter", "name": "fbf29f3f80989a4cc35cc5b222f628af", "is_disabled": 0, "rental_uris": {"ios": "https://dc.lft.to/lastmile_qr_scan", "android": "https://dc.lft.to/lastmile_qr_scan"}, "is_reserved": 0}, {"lon": -77.03385983333334, "bike_id": "c01e29ae350ef0f10d70a54b8b90afa0", "lat": 38.93847983333333, "fusion_lon": 0.0, "fusion_lat": 0.0, "type": "electric_scooter", "name": "c01e29ae350ef0f10d70a54b8b90afa0", "is_disabled": 0, "rental_uris": {"ios": "https://dc.lft.to/lastmile_qr_scan", "android": "https://dc.lft.to/lastmile_qr_scan"}, "is_reserved": 0}, {"lon": -77.006763, "bike_id": "009a8e6353c407c07d39b8fa71e7fa2b", "lat": 38.834938666666666, "fusion_lon": 0.0, "fusion_lat": 0.0, "type": "electric_scooter", "name": "009a8e6353c407c07d39b8fa71e7fa2b", "is_disabled": 0, "rental_uris": {"ios": "https://dc.lft.to/lastmile_qr_scan", "android": "https://dc.lft.to/lastmile_qr_scan"}, "is_reserved": 0}, {"lon": -77.030458, "bike_id": "69e5be6d4534fd627e9b1433fe132b08", "lat": 38.90078066666667, "fusion_lon": 0.0, "fusion_lat": 0.0, "type": "electric_scooter", "name": "69e5be6d4534fd627e9b1433fe132b08", "is_disabled": 0, "rental_uris": {"ios": "https://dc.lft.to/lastmile_qr_scan", "android": "https://dc.lft.to/lastmile_qr_scan"}, "is_reserved": 0}, {"lon": -77.03314633333333, "bike_id": "572071ef80006f004da40e5d3e52c459", "lat": 38.92154033333333, "fusion_lon": 0.0, "fusion_lat": 0.0, "type": "electric_scooter", "name": "572071ef80006f004da40e5d3e52c459", "is_disabled": 0, "rental_uris": {"ios": "https://dc.lft.to/lastmile_qr_scan", "android": "https://dc.lft.to/lastmile_qr_scan"}, "is_reserved": 0}, {"lon": -77.04564666666667, "bike_id": "d1440213cfc3f6c3c47f19c25180e728", "lat": 38.9131245, "fusion_lon": 0.0, "fusion_lat": 0.0, "type": "electric_scooter", "name": "d1440213cfc3f6c3c47f19c25180e728", "is_disabled": 0, "rental_uris": {"ios": "https://dc.lft.to/lastmile_qr_scan", "android": "https://dc.lft.to/lastmile_qr_scan"}, "is_reserved": 0}, {"lon": -77.0236975, "bike_id": "e31d4e3be5471deb31c6345ba3afe2c1", "lat": 38.9199055, "fusion_lon": 0.0, "fusion_lat": 0.0, "type": "electric_scooter", "name": "e31d4e3be5471deb31c6345ba3afe2c1", "is_disabled": 0, "rental_uris": {"ios": "https://dc.lft.to/lastmile_qr_scan", "android": "https://dc.lft.to/lastmile_qr_scan"}, "is_reserved": 0}, {"lon": -76.99055166666666, "bike_id": "b0b3f20f99182d4c1605899827035e77", "lat": 38.86378633333333, "fusion_lon": 0.0, "fusion_lat": 0.0, "type": "electric_scooter", "name": "b0b3f20f99182d4c1605899827035e77", "is_disabled": 0, "rental_uris": {"ios": "https://dc.lft.to/lastmile_qr_scan", "android": "https://dc.lft.to/lastmile_qr_scan"}, "is_reserved": 0}, {"lon": -77.04458016666666, "bike_id": "0e44616d1c03cb46b8a2cf0655345789", "lat": 38.91805933333333, "fusion_lon": 0.0, "fusion_lat": 0.0, "type": "electric_scooter", "name": "0e44616d1c03cb46b8a2cf0655345789", "is_disabled": 0, "rental_uris": {"ios": "https://dc.lft.to/lastmile_qr_scan", "android": "https://dc.lft.to/lastmile_qr_scan"}, "is_reserved": 0}, {"lon": -77.02770833333334, "bike_id": "862377b0127aad6c1c920066f4bf6739", "lat": 38.8921855, "fusion_lon": 0.0, "fusion_lat": 0.0, "type": "electric_scooter", "name": "862377b0127aad6c1c920066f4bf6739", "is_disabled": 0, "rental_uris": {"ios": "https://dc.lft.to/lastmile_qr_scan", "android": "https://dc.lft.to/lastmile_qr_scan"}, "is_reserved": 0}, {"lon": -77.0205225, "bike_id": "b24e9a89b86caacca3128a7e6f3f52ac", "lat": 38.92924166666667, "fusion_lon": 0.0, "fusion_lat": 0.0, "type": "electric_scooter", "name": "b24e9a89b86caacca3128a7e6f3f52ac", "is_disabled": 0, "rental_uris": {"ios": "https://dc.lft.to/lastmile_qr_scan", "android": "https://dc.lft.to/lastmile_qr_scan"}, "is_reserved": 0}, {"lon": -77.02689583333333, "bike_id": "7e9f022d36c7ab833845d056f36e100f", "lat": 38.908427833333334, "fusion_lon": 0.0, "fusion_lat": 0.0, "type": "electric_scooter", "name": "7e9f022d36c7ab833845d056f36e100f", "is_disabled": 0, "rental_uris": {"ios": "https://dc.lft.to/lastmile_qr_scan", "android": "https://dc.lft.to/lastmile_qr_scan"}, "is_reserved": 0}, {"lon": -77.0006355, "bike_id": "8ba418b62124a1755365941c2f06c949", "lat": 38.900845333333336, "fusion_lon": 0.0, "fusion_lat": 0.0, "type": "electric_scooter", "name": "8ba418b62124a1755365941c2f06c949", "is_disabled": 0, "rental_uris": {"ios": "https://dc.lft.to/lastmile_qr_scan", "android": "https://dc.lft.to/lastmile_qr_scan"}, "is_reserved": 0}, {"lon": -77.01985, "bike_id": "4f828c2225d716558932dcb1fba7b8d0", "lat": 38.92551683333333, "fusion_lon": 0.0, "fusion_lat": 0.0, "type": "electric_bike", "name": "4f828c2225d716558932dcb1fba7b8d0", "is_disabled": 0, "rental_uris": {"ios": "https://dc.lft.to/lastmile_qr_scan", "android": "https://dc.lft.to/lastmile_qr_scan"}, "is_reserved": 0}, {"lon": -77.0179145, "bike_id": "3af6a3a57bea5ff89c84e1e666608c76", "lat": 38.9411545, "fusion_lon": 0.0, "fusion_lat": 0.0, "type": "electric_scooter", "name": "3af6a3a57bea5ff89c84e1e666608c76", "is_disabled": 0, "rental_uris": {"ios": "https://dc.lft.to/lastmile_qr_scan", "android": "https://dc.lft.to/lastmile_qr_scan"}, "is_reserved": 0}, {"lon": -77.010842, "bike_id": "536b6d304d6dec4759258d258df0fb18", "lat": 38.906649333333334, "fusion_lon": 0.0, "fusion_lat": 0.0, "type": "electric_bike", "name": "536b6d304d6dec4759258d258df0fb18", "is_disabled": 0, "rental_uris": {"ios": "https://dc.lft.to/lastmile_qr_scan", "android": "https://dc.lft.to/lastmile_qr_scan"}, "is_reserved": 0}, {"lon": -77.02849683333334, "bike_id": "b0f9b9152f3ae045232eaaf941616ad0", "lat": 38.9334745, "fusion_lon": 0.0, "fusion_lat": 0.0, "type": "electric_scooter", "name": "b0f9b9152f3ae045232eaaf941616ad0", "is_disabled": 0, "rental_uris": {"ios": "https://dc.lft.to/lastmile_qr_scan", "android": "https://dc.lft.to/lastmile_qr_scan"}, "is_reserved": 0}, {"lon": -76.94921983333333, "bike_id": "4e18e020813cac3dd1db9e185aae8c0a", "lat": 38.893512, "fusion_lon": 0.0, "fusion_lat": 0.0, "type": "electric_scooter", "name": "4e18e020813cac3dd1db9e185aae8c0a", "is_disabled": 0, "rental_uris": {"ios": "https://dc.lft.to/lastmile_qr_scan", "android": "https://dc.lft.to/lastmile_qr_scan"}, "is_reserved": 0}, {"lon": -77.04136116666666, "bike_id": "833b8b99e77154ad00d0de62856596d3", "lat": 38.92653, "fusion_lon": 0.0, "fusion_lat": 0.0, "type": "electric_scooter", "name": "833b8b99e77154ad00d0de62856596d3", "is_disabled": 0, "rental_uris": {"ios": "https://dc.lft.to/lastmile_qr_scan", "android": "https://dc.lft.to/lastmile_qr_scan"}, "is_reserved": 0}, {"lon": -76.989429, "bike_id": "225c600cd99f75c6c96388a0eebc9a8f", "lat": 38.90392766666667, "fusion_lon": 0.0, "fusion_lat": 0.0, "type": "electric_scooter", "name": "225c600cd99f75c6c96388a0eebc9a8f", "is_disabled": 0, "rental_uris": {"ios": "https://dc.lft.to/lastmile_qr_scan", "android": "https://dc.lft.to/lastmile_qr_scan"}, "is_reserved": 0}, {"lon": -77.064032, "bike_id": "6250275279d0f48aed311d6a5a22b007", "lat": 38.907803666666666, "fusion_lon": 0.0, "fusion_lat": 0.0, "type": "electric_scooter", "name": "6250275279d0f48aed311d6a5a22b007", "is_disabled": 0, "rental_uris": {"ios": "https://dc.lft.to/lastmile_qr_scan", "android": "https://dc.lft.to/lastmile_qr_scan"}, "is_reserved": 0}, {"lon": -77.05859883333333, "bike_id": "79d7a298da9e6b5c8e536d1179ce9b88", "lat": 38.93609083333333, "fusion_lon": 0.0, "fusion_lat": 0.0, "type": "electric_scooter", "name": "79d7a298da9e6b5c8e536d1179ce9b88", "is_disabled": 0, "rental_uris": {"ios": "https://dc.lft.to/lastmile_qr_scan", "android": "https://dc.lft.to/lastmile_qr_scan"}, "is_reserved": 0}, {"lon": -77.00972416666667, "bike_id": "a33d95e59de7a468076016d96470a288", "lat": 38.894817, "fusion_lon": 0.0, "fusion_lat": 0.0, "type": "electric_scooter", "name": "a33d95e59de7a468076016d96470a288", "is_disabled": 0, "rental_uris": {"ios": "https://dc.lft.to/lastmile_qr_scan", "android": "https://dc.lft.to/lastmile_qr_scan"}, "is_reserved": 0}, {"lon": -77.0475315, "bike_id": "976c7db4d14bc2b4c11505c8cda0aac6", "lat": 38.909808166666664, "fusion_lon": 0.0, "fusion_lat": 0.0, "type": "electric_scooter", "name": "976c7db4d14bc2b4c11505c8cda0aac6", "is_disabled": 0, "rental_uris": {"ios": "https://dc.lft.to/lastmile_qr_scan", "android": "https://dc.lft.to/lastmile_qr_scan"}, "is_reserved": 0}, {"lon": -77.07434366666666, "bike_id": "6b0840be45b42b6c87aec0fddd3e8962", "lat": 38.99946116666667, "fusion_lon": 0.0, "fusion_lat": 0.0, "type": "electric_bike", "name": "6b0840be45b42b6c87aec0fddd3e8962", "is_disabled": 0, "rental_uris": {"ios": "https://dc.lft.to/lastmile_qr_scan", "android": "https://dc.lft.to/lastmile_qr_scan"}, "is_reserved": 0}, {"lon": -76.987188, "bike_id": "c4093f8a644c322ddc4fb4a65e07cbb8", "lat": 38.866242666666665, "fusion_lon": 0.0, "fusion_lat": 0.0, "type": "electric_scooter", "name": "c4093f8a644c322ddc4fb4a65e07cbb8", "is_disabled": 0, "rental_uris": {"ios": "https://dc.lft.to/lastmile_qr_scan", "android": "https://dc.lft.to/lastmile_qr_scan"}, "is_reserved": 0}, {"lon": -77.02412933333333, "bike_id": "3e48e421232b5d2a3f598eb2ab72edb3", "lat": 38.920658, "fusion_lon": 0.0, "fusion_lat": 0.0, "type": "electric_scooter", "name": "3e48e421232b5d2a3f598eb2ab72edb3", "is_disabled": 0, "rental_uris": {"ios": "https://dc.lft.to/lastmile_qr_scan", "android": "https://dc.lft.to/lastmile_qr_scan"}, "is_reserved": 0}, {"lon": -77.058106, "bike_id": "126f9e59c4258cd387a8a423219b7865", "lat": 38.82394766666667, "fusion_lon": 0.0, "fusion_lat": 0.0, "type": "electric_bike", "name": "126f9e59c4258cd387a8a423219b7865", "is_disabled": 0, "rental_uris": {"ios": "https://dc.lft.to/lastmile_qr_scan", "android": "https://dc.lft.to/lastmile_qr_scan"}, "is_reserved": 0}, {"lon": -77.0520995, "bike_id": "4e4549b1669fec1f19a9982ddf21c8e7", "lat": 38.924801333333335, "fusion_lon": 0.0, "fusion_lat": 0.0, "type": "electric_scooter", "name": "4e4549b1669fec1f19a9982ddf21c8e7", "is_disabled": 0, "rental_uris": {"ios": "https://dc.lft.to/lastmile_qr_scan", "android": "https://dc.lft.to/lastmile_qr_scan"}, "is_reserved": 0}, {"lon": -76.99799316666666, "bike_id": "63e56cece68e8c69cbb3de1cdc8d2631", "lat": 38.90849883333333, "fusion_lon": 0.0, "fusion_lat": 0.0, "type": "electric_scooter", "name": "63e56cece68e8c69cbb3de1cdc8d2631", "is_disabled": 0, "rental_uris": {"ios": "https://dc.lft.to/lastmile_qr_scan", "android": "https://dc.lft.to/lastmile_qr_scan"}, "is_reserved": 0}, {"lon": -77.0228345, "bike_id": "16865b9633752bc2a9468532eeeec1ed", "lat": 38.91650683333334, "fusion_lon": 0.0, "fusion_lat": 0.0, "type": "electric_scooter", "name": "16865b9633752bc2a9468532eeeec1ed", "is_disabled": 0, "rental_uris": {"ios": "https://dc.lft.to/lastmile_qr_scan", "android": "https://dc.lft.to/lastmile_qr_scan"}, "is_reserved": 0}, {"lon": -77.02603266666667, "bike_id": "b0456a0a602f486273b87a44c3fdf39b", "lat": 38.93380616666666, "fusion_lon": 0.0, "fusion_lat": 0.0, "type": "electric_scooter", "name": "b0456a0a602f486273b87a44c3fdf39b", "is_disabled": 0, "rental_uris": {"ios": "https://dc.lft.to/lastmile_qr_scan", "android": "https://dc.lft.to/lastmile_qr_scan"}, "is_reserved": 0}, {"lon": -76.98528816666666, "bike_id": "83ba07cd2952ead566cc76f680ebc6c2", "lat": 38.8668825, "fusion_lon": 0.0, "fusion_lat": 0.0, "type": "electric_scooter", "name": "83ba07cd2952ead566cc76f680ebc6c2", "is_disabled": 0, "rental_uris": {"ios": "https://dc.lft.to/lastmile_qr_scan", "android": "https://dc.lft.to/lastmile_qr_scan"}, "is_reserved": 0}, {"lon": -77.02296416666667, "bike_id": "423df4b2c2c27054158c4807c5beb8a3", "lat": 38.91702733333333, "fusion_lon": 0.0, "fusion_lat": 0.0, "type": "electric_scooter", "name": "423df4b2c2c27054158c4807c5beb8a3", "is_disabled": 0, "rental_uris": {"ios": "https://dc.lft.to/lastmile_qr_scan", "android": "https://dc.lft.to/lastmile_qr_scan"}, "is_reserved": 0}, {"lon": -77.02221316666666, "bike_id": "13bbd1ef3f32c5e14ecebbffb344f483", "lat": 38.892197833333334, "fusion_lon": 0.0, "fusion_lat": 0.0, "type": "electric_scooter", "name": "13bbd1ef3f32c5e14ecebbffb344f483", "is_disabled": 0, "rental_uris": {"ios": "https://dc.lft.to/lastmile_qr_scan", "android": "https://dc.lft.to/lastmile_qr_scan"}, "is_reserved": 0}, {"lon": -76.9793595, "bike_id": "463a4302f87a8e0e4a2c1f1f781c5119", "lat": 38.90241616666667, "fusion_lon": 0.0, "fusion_lat": 0.0, "type": "electric_scooter", "name": "463a4302f87a8e0e4a2c1f1f781c5119", "is_disabled": 0, "rental_uris": {"ios": "https://dc.lft.to/lastmile_qr_scan", "android": "https://dc.lft.to/lastmile_qr_scan"}, "is_reserved": 0}, {"lon": -77.00560116666666, "bike_id": "50c0c0fab13a18e6a0e3a406e93aa8ed", "lat": 38.8747265, "fusion_lon": 0.0, "fusion_lat": 0.0, "type": "electric_scooter", "name": "50c0c0fab13a18e6a0e3a406e93aa8ed", "is_disabled": 0, "rental_uris": {"ios": "https://dc.lft.to/lastmile_qr_scan", "android": "https://dc.lft.to/lastmile_qr_scan"}, "is_reserved": 0}, {"lon": -76.90739966666666, "bike_id": "71934fe9154f4ba14b4b2abcfd37b626", "lat": 38.896193833333335, "fusion_lon": 0.0, "fusion_lat": 0.0, "type": "electric_bike", "name": "71934fe9154f4ba14b4b2abcfd37b626", "is_disabled": 0, "rental_uris": {"ios": "https://dc.lft.to/lastmile_qr_scan", "android": "https://dc.lft.to/lastmile_qr_scan"}, "is_reserved": 0}, {"lon": -77.0471355, "bike_id": "0e607260df99662c497f3179f15f0ba0", "lat": 38.92313566666667, "fusion_lon": 0.0, "fusion_lat": 0.0, "type": "electric_scooter", "name": "0e607260df99662c497f3179f15f0ba0", "is_disabled": 0, "rental_uris": {"ios": "https://dc.lft.to/lastmile_qr_scan", "android": "https://dc.lft.to/lastmile_qr_scan"}, "is_reserved": 0}, {"lon": -77.03130283333333, "bike_id": "0b7749d5c7334e7a64e14f0dd7ccf514", "lat": 38.9203855, "fusion_lon": 0.0, "fusion_lat": 0.0, "type": "electric_scooter", "name": "0b7749d5c7334e7a64e14f0dd7ccf514", "is_disabled": 0, "rental_uris": {"ios": "https://dc.lft.to/lastmile_qr_scan", "android": "https://dc.lft.to/lastmile_qr_scan"}, "is_reserved": 0}, {"lon": -77.044673, "bike_id": "b5613905d92f3cbf8b15a25d98557747", "lat": 38.9239065, "fusion_lon": 0.0, "fusion_lat": 0.0, "type": "electric_scooter", "name": "b5613905d92f3cbf8b15a25d98557747", "is_disabled": 0, "rental_uris": {"ios": "https://dc.lft.to/lastmile_qr_scan", "android": "https://dc.lft.to/lastmile_qr_scan"}, "is_reserved": 0}, {"lon": -77.04354933333333, "bike_id": "90b87f63ae84f721f2b34ce0127140b5", "lat": 38.9070315, "fusion_lon": 0.0, "fusion_lat": 0.0, "type": "electric_scooter", "name": "90b87f63ae84f721f2b34ce0127140b5", "is_disabled": 0, "rental_uris": {"ios": "https://dc.lft.to/lastmile_qr_scan", "android": "https://dc.lft.to/lastmile_qr_scan"}, "is_reserved": 0}, {"lon": -77.039831, "bike_id": "f4e2becfb7020f5acf9a0f023e2b7601", "lat": 38.933388666666666, "fusion_lon": 0.0, "fusion_lat": 0.0, "type": "electric_scooter", "name": "f4e2becfb7020f5acf9a0f023e2b7601", "is_disabled": 0, "rental_uris": {"ios": "https://dc.lft.to/lastmile_qr_scan", "android": "https://dc.lft.to/lastmile_qr_scan"}, "is_reserved": 0}, {"lon": -77.0515045, "bike_id": "fa08e7e38596a9316efd49dfec4c5844", "lat": 38.92372816666666, "fusion_lon": 0.0, "fusion_lat": 0.0, "type": "electric_scooter", "name": "fa08e7e38596a9316efd49dfec4c5844", "is_disabled": 0, "rental_uris": {"ios": "https://dc.lft.to/lastmile_qr_scan", "android": "https://dc.lft.to/lastmile_qr_scan"}, "is_reserved": 0}, {"lon": -77.04864183333333, "bike_id": "f5175f11b0d6838b1814ee3f3dc3d687", "lat": 38.90094533333333, "fusion_lon": 0.0, "fusion_lat": 0.0, "type": "electric_scooter", "name": "f5175f11b0d6838b1814ee3f3dc3d687", "is_disabled": 0, "rental_uris": {"ios": "https://dc.lft.to/lastmile_qr_scan", "android": "https://dc.lft.to/lastmile_qr_scan"}, "is_reserved": 0}, {"lon": -77.0256205, "bike_id": "a49543a0de8f8bf317844966968d6666", "lat": 38.933542333333335, "fusion_lon": 0.0, "fusion_lat": 0.0, "type": "electric_scooter", "name": "a49543a0de8f8bf317844966968d6666", "is_disabled": 0, "rental_uris": {"ios": "https://dc.lft.to/lastmile_qr_scan", "android": "https://dc.lft.to/lastmile_qr_scan"}, "is_reserved": 0}, {"lon": -77.03523833333334, "bike_id": "a39e61e597f1dded2b6059dc4afff3b6", "lat": 38.922575, "fusion_lon": 0.0, "fusion_lat": 0.0, "type": "electric_scooter", "name": "a39e61e597f1dded2b6059dc4afff3b6", "is_disabled": 0, "rental_uris": {"ios": "https://dc.lft.to/lastmile_qr_scan", "android": "https://dc.lft.to/lastmile_qr_scan"}, "is_reserved": 0}, {"lon": -77.021544, "bike_id": "37ebedf265b9a26241db274a58e0f003", "lat": 38.89465416666667, "fusion_lon": 0.0, "fusion_lat": 0.0, "type": "electric_scooter", "name": "37ebedf265b9a26241db274a58e0f003", "is_disabled": 0, "rental_uris": {"ios": "https://dc.lft.to/lastmile_qr_scan", "android": "https://dc.lft.to/lastmile_qr_scan"}, "is_reserved": 0}, {"lon": -77.02904116666667, "bike_id": "1d868c181c2a8c6dd801fa434d601e5f", "lat": 38.916970166666665, "fusion_lon": 0.0, "fusion_lat": 0.0, "type": "electric_scooter", "name": "1d868c181c2a8c6dd801fa434d601e5f", "is_disabled": 0, "rental_uris": {"ios": "https://dc.lft.to/lastmile_qr_scan", "android": "https://dc.lft.to/lastmile_qr_scan"}, "is_reserved": 0}, {"lon": -76.9463215, "bike_id": "f549177c871615f75b9f47a949e75f39", "lat": 38.898295833333336, "fusion_lon": 0.0, "fusion_lat": 0.0, "type": "electric_scooter", "name": "f549177c871615f75b9f47a949e75f39", "is_disabled": 0, "rental_uris": {"ios": "https://dc.lft.to/lastmile_qr_scan", "android": "https://dc.lft.to/lastmile_qr_scan"}, "is_reserved": 0}, {"lon": -77.0238865, "bike_id": "3d5f036def3227d0e3317dab9582da1b", "lat": 38.916952333333334, "fusion_lon": 0.0, "fusion_lat": 0.0, "type": "electric_scooter", "name": "3d5f036def3227d0e3317dab9582da1b", "is_disabled": 0, "rental_uris": {"ios": "https://dc.lft.to/lastmile_qr_scan", "android": "https://dc.lft.to/lastmile_qr_scan"}, "is_reserved": 0}, {"lon": -77.00760366666667, "bike_id": "268932a74eb0df047c30795ee7eb978f", "lat": 38.870864, "fusion_lon": 0.0, "fusion_lat": 0.0, "type": "electric_scooter", "name": "268932a74eb0df047c30795ee7eb978f", "is_disabled": 0, "rental_uris": {"ios": "https://dc.lft.to/lastmile_qr_scan", "android": "https://dc.lft.to/lastmile_qr_scan"}, "is_reserved": 0}, {"lon": -77.02389133333334, "bike_id": "31d82de5ed71005f1a2263a97ea088c0", "lat": 38.91962183333333, "fusion_lon": 0.0, "fusion_lat": 0.0, "type": "electric_scooter", "name": "31d82de5ed71005f1a2263a97ea088c0", "is_disabled": 0, "rental_uris": {"ios": "https://dc.lft.to/lastmile_qr_scan", "android": "https://dc.lft.to/lastmile_qr_scan"}, "is_reserved": 0}, {"lon": -77.05699616666666, "bike_id": "ac8af88cee13cb1ff1dbd43db0d09b56", "lat": 38.90480816666667, "fusion_lon": 0.0, "fusion_lat": 0.0, "type": "electric_scooter", "name": "ac8af88cee13cb1ff1dbd43db0d09b56", "is_disabled": 0, "rental_uris": {"ios": "https://dc.lft.to/lastmile_qr_scan", "android": "https://dc.lft.to/lastmile_qr_scan"}, "is_reserved": 0}, {"lon": -76.96525266666667, "bike_id": "6a770de1ec45a01219148da788174502", "lat": 38.87479666666667, "fusion_lon": 0.0, "fusion_lat": 0.0, "type": "electric_scooter", "name": "6a770de1ec45a01219148da788174502", "is_disabled": 0, "rental_uris": {"ios": "https://dc.lft.to/lastmile_qr_scan", "android": "https://dc.lft.to/lastmile_qr_scan"}, "is_reserved": 0}, {"lon": -77.03939716666666, "bike_id": "a794f440e9031617475f8bfd545e2b2b", "lat": 38.899650666666666, "fusion_lon": 0.0, "fusion_lat": 0.0, "type": "electric_scooter", "name": "a794f440e9031617475f8bfd545e2b2b", "is_disabled": 0, "rental_uris": {"ios": "https://dc.lft.to/lastmile_qr_scan", "android": "https://dc.lft.to/lastmile_qr_scan"}, "is_reserved": 0}, {"lon": -77.017632, "bike_id": "3fb58404aeafcf507db3cee7c58f58a6", "lat": 38.88729933333333, "fusion_lon": 0.0, "fusion_lat": 0.0, "type": "electric_scooter", "name": "3fb58404aeafcf507db3cee7c58f58a6", "is_disabled": 0, "rental_uris": {"ios": "https://dc.lft.to/lastmile_qr_scan", "android": "https://dc.lft.to/lastmile_qr_scan"}, "is_reserved": 0}, {"lon": -77.00576216666667, "bike_id": "62ea1b30a4fc0215cfc84810c3e0a3fc", "lat": 38.8358985, "fusion_lon": 0.0, "fusion_lat": 0.0, "type": "electric_scooter", "name": "62ea1b30a4fc0215cfc84810c3e0a3fc", "is_disabled": 0, "rental_uris": {"ios": "https://dc.lft.to/lastmile_qr_scan", "android": "https://dc.lft.to/lastmile_qr_scan"}, "is_reserved": 0}, {"lon": -77.03510516666667, "bike_id": "e419f34f70247e9caca14f5e54505451", "lat": 38.936002, "fusion_lon": 0.0, "fusion_lat": 0.0, "type": "electric_bike", "name": "e419f34f70247e9caca14f5e54505451", "is_disabled": 0, "rental_uris": {"ios": "https://dc.lft.to/lastmile_qr_scan", "android": "https://dc.lft.to/lastmile_qr_scan"}, "is_reserved": 0}, {"lon": -77.00897416666666, "bike_id": "b4e1e747f4f63777f33d233368bbb4d8", "lat": 38.898017833333334, "fusion_lon": 0.0, "fusion_lat": 0.0, "type": "electric_scooter", "name": "b4e1e747f4f63777f33d233368bbb4d8", "is_disabled": 0, "rental_uris": {"ios": "https://dc.lft.to/lastmile_qr_scan", "android": "https://dc.lft.to/lastmile_qr_scan"}, "is_reserved": 0}, {"lon": -77.033772, "bike_id": "d482c722eb54cd4c4ecbf13d7b8a4da5", "lat": 38.921492666666666, "fusion_lon": 0.0, "fusion_lat": 0.0, "type": "electric_scooter", "name": "d482c722eb54cd4c4ecbf13d7b8a4da5", "is_disabled": 0, "rental_uris": {"ios": "https://dc.lft.to/lastmile_qr_scan", "android": "https://dc.lft.to/lastmile_qr_scan"}, "is_reserved": 0}, {"lon": -77.01806416666666, "bike_id": "b220ce9dfa9ada6607d5c45f6acad1be", "lat": 38.922263, "fusion_lon": 0.0, "fusion_lat": 0.0, "type": "electric_scooter", "name": "b220ce9dfa9ada6607d5c45f6acad1be", "is_disabled": 0, "rental_uris": {"ios": "https://dc.lft.to/lastmile_qr_scan", "android": "https://dc.lft.to/lastmile_qr_scan"}, "is_reserved": 0}, {"lon": -77.0722675, "bike_id": "234268c1e26e84db0503c44b102df657", "lat": 38.9681205, "fusion_lon": 0.0, "fusion_lat": 0.0, "type": "electric_bike", "name": "234268c1e26e84db0503c44b102df657", "is_disabled": 0, "rental_uris": {"ios": "https://dc.lft.to/lastmile_qr_scan", "android": "https://dc.lft.to/lastmile_qr_scan"}, "is_reserved": 0}, {"lon": -77.0344565, "bike_id": "a09eebac7fc2fa7a0a00cc420b00d0f2", "lat": 38.90947716666667, "fusion_lon": 0.0, "fusion_lat": 0.0, "type": "electric_scooter", "name": "a09eebac7fc2fa7a0a00cc420b00d0f2", "is_disabled": 0, "rental_uris": {"ios": "https://dc.lft.to/lastmile_qr_scan", "android": "https://dc.lft.to/lastmile_qr_scan"}, "is_reserved": 0}, {"lon": -76.99379883333333, "bike_id": "f2877902d34b7a6852bd490b30aedc0d", "lat": 38.971906, "fusion_lon": 0.0, "fusion_lat": 0.0, "type": "electric_bike", "name": "f2877902d34b7a6852bd490b30aedc0d", "is_disabled": 0, "rental_uris": {"ios": "https://dc.lft.to/lastmile_qr_scan", "android": "https://dc.lft.to/lastmile_qr_scan"}, "is_reserved": 0}, {"lon": -77.02024816666666, "bike_id": "9295b9ad0c4a081c9265a4990f782b60", "lat": 38.91548816666667, "fusion_lon": 0.0, "fusion_lat": 0.0, "type": "electric_scooter", "name": "9295b9ad0c4a081c9265a4990f782b60", "is_disabled": 0, "rental_uris": {"ios": "https://dc.lft.to/lastmile_qr_scan", "android": "https://dc.lft.to/lastmile_qr_scan"}, "is_reserved": 0}, {"lon": -77.04871916666667, "bike_id": "c5903584fd42bb8697e13fd270f7425f", "lat": 38.892301, "fusion_lon": 0.0, "fusion_lat": 0.0, "type": "electric_scooter", "name": "c5903584fd42bb8697e13fd270f7425f", "is_disabled": 0, "rental_uris": {"ios": "https://dc.lft.to/lastmile_qr_scan", "android": "https://dc.lft.to/lastmile_qr_scan"}, "is_reserved": 0}, {"lon": -77.01302766666667, "bike_id": "64bdbe51808262f35c2e5db32fb6a694", "lat": 38.9432435, "fusion_lon": 0.0, "fusion_lat": 0.0, "type": "electric_scooter", "name": "64bdbe51808262f35c2e5db32fb6a694", "is_disabled": 0, "rental_uris": {"ios": "https://dc.lft.to/lastmile_qr_scan", "android": "https://dc.lft.to/lastmile_qr_scan"}, "is_reserved": 0}, {"lon": -77.04176833333334, "bike_id": "4e74245e761e24c033e5af883a9cbb9f", "lat": 38.91142816666667, "fusion_lon": 0.0, "fusion_lat": 0.0, "type": "electric_scooter", "name": "4e74245e761e24c033e5af883a9cbb9f", "is_disabled": 0, "rental_uris": {"ios": "https://dc.lft.to/lastmile_qr_scan", "android": "https://dc.lft.to/lastmile_qr_scan"}, "is_reserved": 0}, {"lon": -76.96090833333334, "bike_id": "4cbb4b389253d384fbcc1f3c3bc62df4", "lat": 38.91853066666667, "fusion_lon": 0.0, "fusion_lat": 0.0, "type": "electric_bike", "name": "4cbb4b389253d384fbcc1f3c3bc62df4", "is_disabled": 0, "rental_uris": {"ios": "https://dc.lft.to/lastmile_qr_scan", "android": "https://dc.lft.to/lastmile_qr_scan"}, "is_reserved": 0}, {"lon": -77.04572883333333, "bike_id": "a124d03b1bbdd106f5022efce9ca36f9", "lat": 38.921222666666665, "fusion_lon": 0.0, "fusion_lat": 0.0, "type": "electric_scooter", "name": "a124d03b1bbdd106f5022efce9ca36f9", "is_disabled": 0, "rental_uris": {"ios": "https://dc.lft.to/lastmile_qr_scan", "android": "https://dc.lft.to/lastmile_qr_scan"}, "is_reserved": 0}, {"lon": -77.036082, "bike_id": "3abe5d250a4b24ebe28fe9c479b2d035", "lat": 38.936824666666666, "fusion_lon": 0.0, "fusion_lat": 0.0, "type": "electric_scooter", "name": "3abe5d250a4b24ebe28fe9c479b2d035", "is_disabled": 0, "rental_uris": {"ios": "https://dc.lft.to/lastmile_qr_scan", "android": "https://dc.lft.to/lastmile_qr_scan"}, "is_reserved": 0}, {"lon": -77.0468865, "bike_id": "f8af2f661ee71b1f6553c9958978cc52", "lat": 38.89220983333333, "fusion_lon": 0.0, "fusion_lat": 0.0, "type": "electric_scooter", "name": "f8af2f661ee71b1f6553c9958978cc52", "is_disabled": 0, "rental_uris": {"ios": "https://dc.lft.to/lastmile_qr_scan", "android": "https://dc.lft.to/lastmile_qr_scan"}, "is_reserved": 0}, {"lon": -77.02214416666666, "bike_id": "6b834b3221512af602e42007959d1780", "lat": 38.91316883333333, "fusion_lon": 0.0, "fusion_lat": 0.0, "type": "electric_bike", "name": "6b834b3221512af602e42007959d1780", "is_disabled": 0, "rental_uris": {"ios": "https://dc.lft.to/lastmile_qr_scan", "android": "https://dc.lft.to/lastmile_qr_scan"}, "is_reserved": 0}, {"lon": -77.01757366666666, "bike_id": "c0fe3daae4da571b6b24e24b69c7d96c", "lat": 38.876659, "fusion_lon": 0.0, "fusion_lat": 0.0, "type": "electric_scooter", "name": "c0fe3daae4da571b6b24e24b69c7d96c", "is_disabled": 0, "rental_uris": {"ios": "https://dc.lft.to/lastmile_qr_scan", "android": "https://dc.lft.to/lastmile_qr_scan"}, "is_reserved": 0}, {"lon": -76.96908416666666, "bike_id": "f5fc626a4b893733d648c4daec010b65", "lat": 38.84615016666667, "fusion_lon": 0.0, "fusion_lat": 0.0, "type": "electric_bike", "name": "f5fc626a4b893733d648c4daec010b65", "is_disabled": 0, "rental_uris": {"ios": "https://dc.lft.to/lastmile_qr_scan", "android": "https://dc.lft.to/lastmile_qr_scan"}, "is_reserved": 0}, {"lon": -77.0007285, "bike_id": "a2872ce8cdfa575ecc7e2801da59b182", "lat": 38.901430166666664, "fusion_lon": 0.0, "fusion_lat": 0.0, "type": "electric_bike", "name": "a2872ce8cdfa575ecc7e2801da59b182", "is_disabled": 0, "rental_uris": {"ios": "https://dc.lft.to/lastmile_qr_scan", "android": "https://dc.lft.to/lastmile_qr_scan"}, "is_reserved": 0}, {"lon": -77.02980133333334, "bike_id": "616eddec27bc2d8e424979ba86547349", "lat": 38.9162785, "fusion_lon": 0.0, "fusion_lat": 0.0, "type": "electric_scooter", "name": "616eddec27bc2d8e424979ba86547349", "is_disabled": 0, "rental_uris": {"ios": "https://dc.lft.to/lastmile_qr_scan", "android": "https://dc.lft.to/lastmile_qr_scan"}, "is_reserved": 0}, {"lon": -77.02701716666667, "bike_id": "3a6f0f266c3f53ec97a0323276e5f34d", "lat": 38.920323333333336, "fusion_lon": 0.0, "fusion_lat": 0.0, "type": "electric_scooter", "name": "3a6f0f266c3f53ec97a0323276e5f34d", "is_disabled": 0, "rental_uris": {"ios": "https://dc.lft.to/lastmile_qr_scan", "android": "https://dc.lft.to/lastmile_qr_scan"}, "is_reserved": 0}, {"lon": -77.00451833333334, "bike_id": "25331207849a37c2415f1de29513d734", "lat": 38.880433333333336, "fusion_lon": 0.0, "fusion_lat": 0.0, "type": "electric_scooter", "name": "25331207849a37c2415f1de29513d734", "is_disabled": 0, "rental_uris": {"ios": "https://dc.lft.to/lastmile_qr_scan", "android": "https://dc.lft.to/lastmile_qr_scan"}, "is_reserved": 0}, {"lon": -77.02975433333333, "bike_id": "dc35c3a584f874827d4e42c57774c0dc", "lat": 38.907293833333334, "fusion_lon": 0.0, "fusion_lat": 0.0, "type": "electric_scooter", "name": "dc35c3a584f874827d4e42c57774c0dc", "is_disabled": 0, "rental_uris": {"ios": "https://dc.lft.to/lastmile_qr_scan", "android": "https://dc.lft.to/lastmile_qr_scan"}, "is_reserved": 0}, {"lon": -77.03117933333333, "bike_id": "41586b1140ed4be8c87ad2103f81b645", "lat": 38.91265216666667, "fusion_lon": 0.0, "fusion_lat": 0.0, "type": "electric_scooter", "name": "41586b1140ed4be8c87ad2103f81b645", "is_disabled": 0, "rental_uris": {"ios": "https://dc.lft.to/lastmile_qr_scan", "android": "https://dc.lft.to/lastmile_qr_scan"}, "is_reserved": 0}, {"lon": -77.11591616666666, "bike_id": "c1d2ab826cb2477fe699449527372795", "lat": 39.07490966666667, "fusion_lon": 0.0, "fusion_lat": 0.0, "type": "electric_bike", "name": "c1d2ab826cb2477fe699449527372795", "is_disabled": 0, "rental_uris": {"ios": "https://dc.lft.to/lastmile_qr_scan", "android": "https://dc.lft.to/lastmile_qr_scan"}, "is_reserved": 0}, {"lon": -77.03213583333333, "bike_id": "dbeecddfb3081f0835d394146cb87ee6", "lat": 38.892408, "fusion_lon": 0.0, "fusion_lat": 0.0, "type": "electric_scooter", "name": "dbeecddfb3081f0835d394146cb87ee6", "is_disabled": 0, "rental_uris": {"ios": "https://dc.lft.to/lastmile_qr_scan", "android": "https://dc.lft.to/lastmile_qr_scan"}, "is_reserved": 0}, {"lon": -76.990303, "bike_id": "7bc561eaf95a1e05829fd0784b8de759", "lat": 38.864049, "fusion_lon": 0.0, "fusion_lat": 0.0, "type": "electric_scooter", "name": "7bc561eaf95a1e05829fd0784b8de759", "is_disabled": 0, "rental_uris": {"ios": "https://dc.lft.to/lastmile_qr_scan", "android": "https://dc.lft.to/lastmile_qr_scan"}, "is_reserved": 0}, {"lon": -76.9906755, "bike_id": "90cdc286bbed88cea25511643ff13867", "lat": 38.9274675, "fusion_lon": 0.0, "fusion_lat": 0.0, "type": "electric_scooter", "name": "90cdc286bbed88cea25511643ff13867", "is_disabled": 0, "rental_uris": {"ios": "https://dc.lft.to/lastmile_qr_scan", "android": "https://dc.lft.to/lastmile_qr_scan"}, "is_reserved": 0}, {"lon": -77.03906816666667, "bike_id": "a29338ffa71bf6bc79a91e2a444495dc", "lat": 38.91427433333333, "fusion_lon": 0.0, "fusion_lat": 0.0, "type": "electric_scooter", "name": "a29338ffa71bf6bc79a91e2a444495dc", "is_disabled": 0, "rental_uris": {"ios": "https://dc.lft.to/lastmile_qr_scan", "android": "https://dc.lft.to/lastmile_qr_scan"}, "is_reserved": 0}, {"lon": -77.03474733333333, "bike_id": "c0ae3d4149e2df8dc0a6e1361c764e13", "lat": 38.917081333333336, "fusion_lon": 0.0, "fusion_lat": 0.0, "type": "electric_scooter", "name": "c0ae3d4149e2df8dc0a6e1361c764e13", "is_disabled": 0, "rental_uris": {"ios": "https://dc.lft.to/lastmile_qr_scan", "android": "https://dc.lft.to/lastmile_qr_scan"}, "is_reserved": 0}, {"lon": -77.04350716666667, "bike_id": "8711321f79400d1d2b1b94011f6b90f8", "lat": 38.92143566666667, "fusion_lon": 0.0, "fusion_lat": 0.0, "type": "electric_scooter", "name": "8711321f79400d1d2b1b94011f6b90f8", "is_disabled": 0, "rental_uris": {"ios": "https://dc.lft.to/lastmile_qr_scan", "android": "https://dc.lft.to/lastmile_qr_scan"}, "is_reserved": 0}, {"lon": -76.99849016666667, "bike_id": "63e6626a2a1fbdad97f5a54b629ddb04", "lat": 38.841579833333334, "fusion_lon": 0.0, "fusion_lat": 0.0, "type": "electric_scooter", "name": "63e6626a2a1fbdad97f5a54b629ddb04", "is_disabled": 0, "rental_uris": {"ios": "https://dc.lft.to/lastmile_qr_scan", "android": "https://dc.lft.to/lastmile_qr_scan"}, "is_reserved": 0}, {"lon": -76.99702916666666, "bike_id": "e72b41ff491da096693a326911d1d8d2", "lat": 38.9111395, "fusion_lon": 0.0, "fusion_lat": 0.0, "type": "electric_scooter", "name": "e72b41ff491da096693a326911d1d8d2", "is_disabled": 0, "rental_uris": {"ios": "https://dc.lft.to/lastmile_qr_scan", "android": "https://dc.lft.to/lastmile_qr_scan"}, "is_reserved": 0}, {"lon": -76.98564383333333, "bike_id": "5bf8ae54090e2625ed6cc31b8f8c7732", "lat": 38.899576833333334, "fusion_lon": 0.0, "fusion_lat": 0.0, "type": "electric_scooter", "name": "5bf8ae54090e2625ed6cc31b8f8c7732", "is_disabled": 0, "rental_uris": {"ios": "https://dc.lft.to/lastmile_qr_scan", "android": "https://dc.lft.to/lastmile_qr_scan"}, "is_reserved": 0}, {"lon": -77.03404316666666, "bike_id": "0ba51e504ff4cf94b9ea122c14e1cd93", "lat": 38.9603085, "fusion_lon": 0.0, "fusion_lat": 0.0, "type": "electric_bike", "name": "0ba51e504ff4cf94b9ea122c14e1cd93", "is_disabled": 0, "rental_uris": {"ios": "https://dc.lft.to/lastmile_qr_scan", "android": "https://dc.lft.to/lastmile_qr_scan"}, "is_reserved": 0}, {"lon": -77.027171, "bike_id": "58e31db19011d84ce26d3d193f152e81", "lat": 38.934714666666665, "fusion_lon": 0.0, "fusion_lat": 0.0, "type": "electric_scooter", "name": "58e31db19011d84ce26d3d193f152e81", "is_disabled": 0, "rental_uris": {"ios": "https://dc.lft.to/lastmile_qr_scan", "android": "https://dc.lft.to/lastmile_qr_scan"}, "is_reserved": 0}, {"lon": -77.04824583333334, "bike_id": "410f803992f8797337d1f191a7481ddc", "lat": 38.90951666666667, "fusion_lon": 0.0, "fusion_lat": 0.0, "type": "electric_scooter", "name": "410f803992f8797337d1f191a7481ddc", "is_disabled": 0, "rental_uris": {"ios": "https://dc.lft.to/lastmile_qr_scan", "android": "https://dc.lft.to/lastmile_qr_scan"}, "is_reserved": 0}, {"lon": -77.08121666666666, "bike_id": "808ff8b57ec8d42c7675cf7c0affe26e", "lat": 38.910811333333335, "fusion_lon": 0.0, "fusion_lat": 0.0, "type": "electric_scooter", "name": "808ff8b57ec8d42c7675cf7c0affe26e", "is_disabled": 0, "rental_uris": {"ios": "https://dc.lft.to/lastmile_qr_scan", "android": "https://dc.lft.to/lastmile_qr_scan"}, "is_reserved": 0}, {"lon": -77.1249305, "bike_id": "4c75af661b05f9351cc9dfef0c213317", "lat": 38.82782783333333, "fusion_lon": 0.0, "fusion_lat": 0.0, "type": "electric_bike", "name": "4c75af661b05f9351cc9dfef0c213317", "is_disabled": 0, "rental_uris": {"ios": "https://dc.lft.to/lastmile_qr_scan", "android": "https://dc.lft.to/lastmile_qr_scan"}, "is_reserved": 0}, {"lon": -77.0488085, "bike_id": "58d0d11d3ac35a3102fb10258f62aca3", "lat": 38.9124675, "fusion_lon": 0.0, "fusion_lat": 0.0, "type": "electric_scooter", "name": "58d0d11d3ac35a3102fb10258f62aca3", "is_disabled": 0, "rental_uris": {"ios": "https://dc.lft.to/lastmile_qr_scan", "android": "https://dc.lft.to/lastmile_qr_scan"}, "is_reserved": 0}, {"lon": -77.0028, "bike_id": "c320e3bf8180d1069f07d88eb692b177", "lat": 38.95709316666667, "fusion_lon": 0.0, "fusion_lat": 0.0, "type": "electric_bike", "name": "c320e3bf8180d1069f07d88eb692b177", "is_disabled": 0, "rental_uris": {"ios": "https://dc.lft.to/lastmile_qr_scan", "android": "https://dc.lft.to/lastmile_qr_scan"}, "is_reserved": 0}, {"lon": -77.0298355, "bike_id": "409782f1b566ffea18f40e10d976ad3e", "lat": 38.93062966666667, "fusion_lon": 0.0, "fusion_lat": 0.0, "type": "electric_scooter", "name": "409782f1b566ffea18f40e10d976ad3e", "is_disabled": 0, "rental_uris": {"ios": "https://dc.lft.to/lastmile_qr_scan", "android": "https://dc.lft.to/lastmile_qr_scan"}, "is_reserved": 0}, {"lon": -77.0113565, "bike_id": "8af204ce4c5605f0932e4278b615d1e8", "lat": 38.906412, "fusion_lon": 0.0, "fusion_lat": 0.0, "type": "electric_scooter", "name": "8af204ce4c5605f0932e4278b615d1e8", "is_disabled": 0, "rental_uris": {"ios": "https://dc.lft.to/lastmile_qr_scan", "android": "https://dc.lft.to/lastmile_qr_scan"}, "is_reserved": 0}, {"lon": -77.044695, "bike_id": "610d0c1f9fb13d992350e128b13e6859", "lat": 38.89225866666666, "fusion_lon": 0.0, "fusion_lat": 0.0, "type": "electric_scooter", "name": "610d0c1f9fb13d992350e128b13e6859", "is_disabled": 0, "rental_uris": {"ios": "https://dc.lft.to/lastmile_qr_scan", "android": "https://dc.lft.to/lastmile_qr_scan"}, "is_reserved": 0}, {"lon": -77.04997516666667, "bike_id": "456583dc62d46df32866d768f540d38f", "lat": 38.892312833333335, "fusion_lon": 0.0, "fusion_lat": 0.0, "type": "electric_scooter", "name": "456583dc62d46df32866d768f540d38f", "is_disabled": 0, "rental_uris": {"ios": "https://dc.lft.to/lastmile_qr_scan", "android": "https://dc.lft.to/lastmile_qr_scan"}, "is_reserved": 0}, {"lon": -76.98883566666666, "bike_id": "0fc3340a17454909dd76fc090eee6f91", "lat": 38.8665675, "fusion_lon": 0.0, "fusion_lat": 0.0, "type": "electric_scooter", "name": "0fc3340a17454909dd76fc090eee6f91", "is_disabled": 0, "rental_uris": {"ios": "https://dc.lft.to/lastmile_qr_scan", "android": "https://dc.lft.to/lastmile_qr_scan"}, "is_reserved": 0}, {"lon": -76.9945065, "bike_id": "f2c639d72b148958a5ab2c041ca2c5c6", "lat": 38.862732333333334, "fusion_lon": 0.0, "fusion_lat": 0.0, "type": "electric_scooter", "name": "f2c639d72b148958a5ab2c041ca2c5c6", "is_disabled": 0, "rental_uris": {"ios": "https://dc.lft.to/lastmile_qr_scan", "android": "https://dc.lft.to/lastmile_qr_scan"}, "is_reserved": 0}, {"lon": -77.02305633333333, "bike_id": "9240e4ca30ff86f3e660e6bbfa35f324", "lat": 38.918426833333335, "fusion_lon": 0.0, "fusion_lat": 0.0, "type": "electric_scooter", "name": "9240e4ca30ff86f3e660e6bbfa35f324", "is_disabled": 0, "rental_uris": {"ios": "https://dc.lft.to/lastmile_qr_scan", "android": "https://dc.lft.to/lastmile_qr_scan"}, "is_reserved": 0}, {"lon": -77.00097616666666, "bike_id": "3a71ca7b1468ac0478d1d767b89712d1", "lat": 38.91241333333333, "fusion_lon": 0.0, "fusion_lat": 0.0, "type": "electric_scooter", "name": "3a71ca7b1468ac0478d1d767b89712d1", "is_disabled": 0, "rental_uris": {"ios": "https://dc.lft.to/lastmile_qr_scan", "android": "https://dc.lft.to/lastmile_qr_scan"}, "is_reserved": 0}, {"lon": -77.03850116666666, "bike_id": "5c6393f6e5919d63fcba7b1721c8edfd", "lat": 38.915532, "fusion_lon": 0.0, "fusion_lat": 0.0, "type": "electric_scooter", "name": "5c6393f6e5919d63fcba7b1721c8edfd", "is_disabled": 0, "rental_uris": {"ios": "https://dc.lft.to/lastmile_qr_scan", "android": "https://dc.lft.to/lastmile_qr_scan"}, "is_reserved": 0}, {"lon": -77.06770216666666, "bike_id": "491168c203263ed3136eec70e717a709", "lat": 38.90498633333333, "fusion_lon": 0.0, "fusion_lat": 0.0, "type": "electric_scooter", "name": "491168c203263ed3136eec70e717a709", "is_disabled": 0, "rental_uris": {"ios": "https://dc.lft.to/lastmile_qr_scan", "android": "https://dc.lft.to/lastmile_qr_scan"}, "is_reserved": 0}, {"lon": -76.98527683333333, "bike_id": "feeb4d46d2c9dc6994ee79a750984346", "lat": 38.8668695, "fusion_lon": 0.0, "fusion_lat": 0.0, "type": "electric_scooter", "name": "feeb4d46d2c9dc6994ee79a750984346", "is_disabled": 0, "rental_uris": {"ios": "https://dc.lft.to/lastmile_qr_scan", "android": "https://dc.lft.to/lastmile_qr_scan"}, "is_reserved": 0}, {"lon": -76.94100116666667, "bike_id": "b919741c6529e1bc9efc051851825f3a", "lat": 38.88457566666666, "fusion_lon": 0.0, "fusion_lat": 0.0, "type": "electric_scooter", "name": "b919741c6529e1bc9efc051851825f3a", "is_disabled": 0, "rental_uris": {"ios": "https://dc.lft.to/lastmile_qr_scan", "android": "https://dc.lft.to/lastmile_qr_scan"}, "is_reserved": 0}, {"lon": -77.00293466666666, "bike_id": "8260fd4e30f3ea1b9bbc85abf2b3acc1", "lat": 38.901245833333334, "fusion_lon": 0.0, "fusion_lat": 0.0, "type": "electric_scooter", "name": "8260fd4e30f3ea1b9bbc85abf2b3acc1", "is_disabled": 0, "rental_uris": {"ios": "https://dc.lft.to/lastmile_qr_scan", "android": "https://dc.lft.to/lastmile_qr_scan"}, "is_reserved": 0}, {"lon": -77.02219916666667, "bike_id": "6bc5e017a63f04a1987d60a43e95197a", "lat": 38.892215666666665, "fusion_lon": 0.0, "fusion_lat": 0.0, "type": "electric_scooter", "name": "6bc5e017a63f04a1987d60a43e95197a", "is_disabled": 0, "rental_uris": {"ios": "https://dc.lft.to/lastmile_qr_scan", "android": "https://dc.lft.to/lastmile_qr_scan"}, "is_reserved": 0},