{"data": {"bikes": [{"rental_uris": {"ios": "https://dc.lft.to/lastmile_qr_scan", "android": "https://dc.lft.to/lastmile_qr_scan"}, "lon": -77.033267, "type": "electric_scooter", "fusion_lat": 0.0, "lat": 38.901198666666666, "name": "8bd8774456e245fd978ad15d15f9381a", "fusion_lon": 0.0, "bike_id": "8bd8774456e245fd978ad15d15f9381a", "is_disabled": 0, "is_reserved": 0}, {"rental_uris": {"ios": "https://dc.lft.to/lastmile_qr_scan", "android": "https://dc.lft.to/lastmile_qr_scan"}, "lon": -76.97221933333333, "type": "electric_bike", "fusion_lat": 0.0, "lat": 38.8448015, "name": "fc77fc38563e707f111ad20fbb6bff0e", "fusion_lon": 0.0, "bike_id": "fc77fc38563e707f111ad20fbb6bff0e", "is_disabled": 0, "is_reserved": 0}, {"rental_uris": {"ios": "https://dc.lft.to/lastmile_qr_scan", "android": "https://dc.lft.to/lastmile_qr_scan"}, "lon": -77.01118766666667, "type": "electric_scooter", "fusion_lat": 0.0, "lat": 38.912694333333334, "name": "32ae4f2c697ff3b1004de65198fcdd4b", "fusion_lon": 0.0, "bike_id": "32ae4f2c697ff3b1004de65198fcdd4b", "is_disabled": 0, "is_reserved": 0}, {"rental_uris": {"ios": "https://dc.lft.to/lastmile_qr_scan", "android": "https://dc.lft.to/lastmile_qr_scan"}, "lon": -76.94437916666666, "type": "electric_bike", "fusion_lat": 0.0, "lat": 38.90296216666667, "name": "65acd209eb08ee8ef3a5bf492582ed44", "fusion_lon": 0.0, "bike_id": "65acd209eb08ee8ef3a5bf492582ed44", "is_disabled": 0, "is_reserved": 0}, {"rental_uris": {"ios": "https://dc.lft.to/lastmile_qr_scan", "android": "https://dc.lft.to/lastmile_qr_scan"}, "lon": -77.06934516666666, "type": "electric_scooter", "fusion_lat": 0.0, "lat": 38.905171, "name": "2f92f0e231316f69c66680cede1557d2", "fusion_lon": 0.0, "bike_id": "2f92f0e231316f69c66680cede1557d2", "is_disabled": 0, "is_reserved": 0}, {"rental_uris": {"ios": "https://dc.lft.to/lastmile_qr_scan", "android": "https://dc.lft.to/lastmile_qr_scan"}, "lon": -77.04627366666666, "type": "electric_scooter", "fusion_lat": 0.0, "lat": 38.915226, "name": "74b7a151b85b44bef69683885568c5b2", "fusion_lon": 0.0, "bike_id": "74b7a151b85b44bef69683885568c5b2", "is_disabled": 0, "is_reserved": 0}, {"rental_uris": {"ios": "https://dc.lft.to/lastmile_qr_scan", "android": "https://dc.lft.to/lastmile_qr_scan"}, "lon": -77.04425916666666, "type": "electric_scooter", "fusion_lat": 0.0, "lat": 38.911287333333334, "name": "35c4096b5dd0d0791369106084682b0d", "fusion_lon": 0.0, "bike_id": "35c4096b5dd0d0791369106084682b0d", "is_disabled": 0, "is_reserved": 0}, {"rental_uris": {"ios": "https://dc.lft.to/lastmile_qr_scan", "android": "https://dc.lft.to/lastmile_qr_scan"}, "lon": -77.01518583333333, "type": "electric_scooter", "fusion_lat": 0.0, "lat": 38.8728405, "name": "f3a84191dc317ace099843115fea97c9", "fusion_lon": 0.0, "bike_id": "f3a84191dc317ace099843115fea97c9", "is_disabled": 0, "is_reserved": 0}, {"rental_uris": {"ios": "https://dc.lft.to/lastmile_qr_scan", "android": "https://dc.lft.to/lastmile_qr_scan"}, "lon": -77.01636966666666, "type": "electric_scooter", "fusion_lat": 0.0, "lat": 38.929348833333336, "name": "c04771c1fbe7ca9c658aeccbc9fbaa20", "fusion_lon": 0.0, "bike_id": "c04771c1fbe7ca9c658aeccbc9fbaa20", "is_disabled": 0, "is_reserved": 0}, {"rental_uris": {"ios": "https://dc.lft.to/lastmile_qr_scan", "android": "https://dc.lft.to/lastmile_qr_scan"}, "lon": -77.0599925, "type": "electric_scooter", "fusion_lat": 0.0, "lat": 38.905306333333336, "name": "5b577010080a5c664c076d42229e2929", "fusion_lon": 0.0, "bike_id": "5b577010080a5c664c076d42229e2929", "is_disabled": 0, "is_reserved": 0}, {"rental_uris": {"ios": "https://dc.lft.to/lastmile_qr_scan", "android": "https://dc.lft.to/lastmile_qr_scan"}, "lon": -77.03978066666667, "type": "electric_scooter", "fusion_lat": 0.0, "lat": 38.92315966666666, "name": "21e57478494c5652bfd3316907166d31", "fusion_lon": 0.0, "bike_id": "21e57478494c5652bfd3316907166d31", "is_disabled": 0, "is_reserved": 0}, {"rental_uris": {"ios": "https://dc.lft.to/lastmile_qr_scan", "android": "https://dc.lft.to/lastmile_qr_scan"}, "lon": -77.04853683333333, "type": "electric_scooter", "fusion_lat": 0.0, "lat": 38.90717183333334, "name": "772cbb6a54abb5e77c623201c203a4b8", "fusion_lon": 0.0, "bike_id": "772cbb6a54abb5e77c623201c203a4b8", "is_disabled": 0, "is_reserved": 0}, {"rental_uris": {"ios": "https://dc.lft.to/lastmile_qr_scan", "android": "https://dc.lft.to/lastmile_qr_scan"}, "lon": -77.03092116666667, "type": "electric_bike", "fusion_lat": 0.0, "lat": 38.940738833333334, "name": "5cd5da46ffe892c8abf644186c4148d4", "fusion_lon": 0.0, "bike_id": "5cd5da46ffe892c8abf644186c4148d4", "is_disabled": 0, "is_reserved": 0}, {"rental_uris": {"ios": "https://dc.lft.to/lastmile_qr_scan", "android": "https://dc.lft.to/lastmile_qr_scan"}, "lon": -76.994818, "type": "electric_scooter", "fusion_lat": 0.0, "lat": 38.902308166666664, "name": "130b00007ffaa50f2578f28c969a1adc", "fusion_lon": 0.0, "bike_id": "130b00007ffaa50f2578f28c969a1adc", "is_disabled": 0, "is_reserved": 0}, {"rental_uris": {"ios": "https://dc.lft.to/lastmile_qr_scan", "android": "https://dc.lft.to/lastmile_qr_scan"}, "lon": -77.02408116666666, "type": "electric_scooter", "fusion_lat": 0.0, "lat": 38.909599166666666, "name": "48287e05f789d5fd5ace089acf90ddf8", "fusion_lon": 0.0, "bike_id": "48287e05f789d5fd5ace089acf90ddf8", "is_disabled": 0, "is_reserved": 0}, {"rental_uris": {"ios": "https://dc.lft.to/lastmile_qr_scan", "android": "https://dc.lft.to/lastmile_qr_scan"}, "lon": -77.04030616666667, "type": "electric_scooter", "fusion_lat": 0.0, "lat": 38.92445283333333, "name": "cefe2b715bf108ace8398e9a61cf124b", "fusion_lon": 0.0, "bike_id": "cefe2b715bf108ace8398e9a61cf124b", "is_disabled": 0, "is_reserved": 0}, {"rental_uris": {"ios": "https://dc.lft.to/lastmile_qr_scan", "android": "https://dc.lft.to/lastmile_qr_scan"}, "lon": -77.03860983333334, "type": "electric_scooter", "fusion_lat": 0.0, "lat": 38.90774416666667, "name": "8f4b6190624c9978825d187543ba086d", "fusion_lon": 0.0, "bike_id": "8f4b6190624c9978825d187543ba086d", "is_disabled": 0, "is_reserved": 0}, {"rental_uris": {"ios": "https://dc.lft.to/lastmile_qr_scan", "android": "https://dc.lft.to/lastmile_qr_scan"}, "lon": -77.17843516666667, "type": "electric_bike", "fusion_lat": 0.0, "lat": 39.088531833333334, "name": "5f3f50f2601c556090b018e6de496224", "fusion_lon": 0.0, "bike_id": "5f3f50f2601c556090b018e6de496224", "is_disabled": 0, "is_reserved": 0}, {"rental_uris": {"ios": "https://dc.lft.to/lastmile_qr_scan", "android": "https://dc.lft.to/lastmile_qr_scan"}, "lon": -76.98711416666667, "type": "electric_scooter", "fusion_lat": 0.0, "lat": 38.86699016666667, "name": "7fd0e2181e475271835c6785ce58aa8f", "fusion_lon": 0.0, "bike_id": "7fd0e2181e475271835c6785ce58aa8f", "is_disabled": 0, "is_reserved": 0}, {"rental_uris": {"ios": "https://dc.lft.to/lastmile_qr_scan", "android": "https://dc.lft.to/lastmile_qr_scan"}, "lon": -77.04131616666666, "type": "electric_scooter", "fusion_lat": 0.0, "lat": 38.923509833333334, "name": "d00fc5876c8ddab483b139cc065bd812", "fusion_lon": 0.0, "bike_id": "d00fc5876c8ddab483b139cc065bd812", "is_disabled": 0, "is_reserved": 0}, {"rental_uris": {"ios": "https://dc.lft.to/lastmile_qr_scan", "android": "https://dc.lft.to/lastmile_qr_scan"}, "lon": -77.00118833333333, "type": "electric_scooter", "fusion_lat": 0.0, "lat": 38.87794816666667, "name": "0b43597b48ad20334f3a4b29a18f288c", "fusion_lon": 0.0, "bike_id": "0b43597b48ad20334f3a4b29a18f288c", "is_disabled": 0, "is_reserved": 0}, {"rental_uris": {"ios": "https://dc.lft.to/lastmile_qr_scan", "android": "https://dc.lft.to/lastmile_qr_scan"}, "lon": -77.0430295, "type": "electric_bike", "fusion_lat": 0.0, "lat": 39.05447383333333, "name": "a9d44c685255e5a164c2f988169cc12c", "fusion_lon": 0.0, "bike_id": "a9d44c685255e5a164c2f988169cc12c", "is_disabled": 0, "is_reserved": 0}, {"rental_uris": {"ios": "https://dc.lft.to/lastmile_qr_scan", "android": "https://dc.lft.to/lastmile_qr_scan"}, "lon": -76.98906516666666, "type": "electric_scooter", "fusion_lat": 0.0, "lat": 38.866923666666665, "name": "aa3318be2d57501aa83ac0887ef7d9a6", "fusion_lon": 0.0, "bike_id": "aa3318be2d57501aa83ac0887ef7d9a6", "is_disabled": 0, "is_reserved": 0}, {"rental_uris": {"ios": "https://dc.lft.to/lastmile_qr_scan", "android": "https://dc.lft.to/lastmile_qr_scan"}, "lon": -77.0363575, "type": "electric_scooter", "fusion_lat": 0.0, "lat": 38.91273733333333, "name": "8f35140984f87b53fa81bafe67a43f26", "fusion_lon": 0.0, "bike_id": "8f35140984f87b53fa81bafe67a43f26", "is_disabled": 0, "is_reserved": 0}, {"rental_uris": {"ios": "https://dc.lft.to/lastmile_qr_scan", "android": "https://dc.lft.to/lastmile_qr_scan"}, "lon": -77.056966, "type": "electric_scooter", "fusion_lat": 0.0, "lat": 38.905527, "name": "52b389e920f9b4c93cfeba667d98c0fc", "fusion_lon": 0.0, "bike_id": "52b389e920f9b4c93cfeba667d98c0fc", "is_disabled": 0, "is_reserved": 0}, {"rental_uris": {"ios": "https://dc.lft.to/lastmile_qr_scan", "android": "https://dc.lft.to/lastmile_qr_scan"}, "lon": -76.95352983333333, "type": "electric_bike", "fusion_lat": 0.0, "lat": 38.939544833333336, "name": "ede24733645fd5ba4822f417b34804e8", "fusion_lon": 0.0, "bike_id": "ede24733645fd5ba4822f417b34804e8", "is_disabled": 0, "is_reserved": 0}, {"rental_uris": {"ios": "https://dc.lft.to/lastmile_qr_scan", "android": "https://dc.lft.to/lastmile_qr_scan"}, "lon": -76.95752483333334, "type": "electric_scooter", "fusion_lat": 0.0, "lat": 38.88423733333333, "name": "d74e6bbaaac47071594b1746daaa9b7b", "fusion_lon": 0.0, "bike_id": "d74e6bbaaac47071594b1746daaa9b7b", "is_disabled": 0, "is_reserved": 0}, {"rental_uris": {"ios": "https://dc.lft.to/lastmile_qr_scan", "android": "https://dc.lft.to/lastmile_qr_scan"}, "lon": -77.05539583333334, "type": "electric_scooter", "fusion_lat": 0.0, "lat": 38.92524, "name": "18fd8e36da557018510bf33e5bfdcc2e", "fusion_lon": 0.0, "bike_id": "18fd8e36da557018510bf33e5bfdcc2e", "is_disabled": 0, "is_reserved": 0}, {"rental_uris": {"ios": "https://dc.lft.to/lastmile_qr_scan", "android": "https://dc.lft.to/lastmile_qr_scan"}, "lon": -77.03525516666667, "type": "electric_scooter", "fusion_lat": 0.0, "lat": 38.923745333333336, "name": "b92393fc54155f37252f0027d25e578c", "fusion_lon": 0.0, "bike_id": "b92393fc54155f37252f0027d25e578c", "is_disabled": 0, "is_reserved": 0}, {"rental_uris": {"ios": "https://dc.lft.to/lastmile_qr_scan", "android": "https://dc.lft.to/lastmile_qr_scan"}, "lon": -77.03929933333333, "type": "electric_scooter", "fusion_lat": 0.0, "lat": 38.921031, "name": "ee1e462519584404f11782913944d0da", "fusion_lon": 0.0, "bike_id": "ee1e462519584404f11782913944d0da", "is_disabled": 0, "is_reserved": 0}, {"rental_uris": {"ios": "https://dc.lft.to/lastmile_qr_scan", "android": "https://dc.lft.to/lastmile_qr_scan"}, "lon": -77.03569083333333, "type": "electric_scooter", "fusion_lat": 0.0, "lat": 38.939816, "name": "c3d8875ad3334e279ef0f97ccb4c69c4", "fusion_lon": 0.0, "bike_id": "c3d8875ad3334e279ef0f97ccb4c69c4", "is_disabled": 0, "is_reserved": 0}, {"rental_uris": {"ios": "https://dc.lft.to/lastmile_qr_scan", "android": "https://dc.lft.to/lastmile_qr_scan"}, "lon": -77.0261935, "type": "electric_scooter", "fusion_lat": 0.0, "lat": 38.91528516666666, "name": "2dad276a9a1dc6704d6dbb2f6778012c", "fusion_lon": 0.0, "bike_id": "2dad276a9a1dc6704d6dbb2f6778012c", "is_disabled": 0, "is_reserved": 0}, {"rental_uris": {"ios": "https://dc.lft.to/lastmile_qr_scan", "android": "https://dc.lft.to/lastmile_qr_scan"}, "lon": -76.93877866666666, "type": "electric_scooter", "fusion_lat": 0.0, "lat": 38.900724833333335, "name": "ec8e76a6758de534703a05ad38e99e74", "fusion_lon": 0.0, "bike_id": "ec8e76a6758de534703a05ad38e99e74", "is_disabled": 0, "is_reserved": 0}, {"rental_uris": {"ios": "https://dc.lft.to/lastmile_qr_scan", "android": "https://dc.lft.to/lastmile_qr_scan"}, "lon": -77.0382415, "type": "electric_scooter", "fusion_lat": 0.0, "lat": 38.90769066666667, "name": "4e83bc11d05c3577d30a9fcbf9e24f69", "fusion_lon": 0.0, "bike_id": "4e83bc11d05c3577d30a9fcbf9e24f69", "is_disabled": 0, "is_reserved": 0}, {"rental_uris": {"ios": "https://dc.lft.to/lastmile_qr_scan", "android": "https://dc.lft.to/lastmile_qr_scan"}, "lon": -76.98130683333333, "type": "electric_scooter", "fusion_lat": 0.0, "lat": 38.857097333333336, "name": "c1cb1b30ed8d7748fb103819aba3eaef", "fusion_lon": 0.0, "bike_id": "c1cb1b30ed8d7748fb103819aba3eaef", "is_disabled": 0, "is_reserved": 0}, {"rental_uris": {"ios": "https://dc.lft.to/lastmile_qr_scan", "android": "https://dc.lft.to/lastmile_qr_scan"}, "lon": -77.05564683333333, "type": "electric_scooter", "fusion_lat": 0.0, "lat": 38.89992983333333, "name": "51c4d4b8f62570d958b783b6af3a8c5c", "fusion_lon": 0.0, "bike_id": "51c4d4b8f62570d958b783b6af3a8c5c", "is_disabled": 0, "is_reserved": 0}, {"rental_uris": {"ios": "https://dc.lft.to/lastmile_qr_scan", "android": "https://dc.lft.to/lastmile_qr_scan"}, "lon": -76.98748183333333, "type": "electric_scooter", "fusion_lat": 0.0, "lat": 38.9101625, "name": "c5867253a0f231b0829055d289d0131d", "fusion_lon": 0.0, "bike_id": "c5867253a0f231b0829055d289d0131d", "is_disabled": 0, "is_reserved": 0}, {"rental_uris": {"ios": "https://dc.lft.to/lastmile_qr_scan", "android": "https://dc.lft.to/lastmile_qr_scan"}, "lon": -77.08055533333334, "type": "electric_bike", "fusion_lat": 0.0, "lat": 38.84841266666667, "name": "dd37cdc19a42fa1da8a8c51b0406e209", "fusion_lon": 0.0, "bike_id": "dd37cdc19a42fa1da8a8c51b0406e209", "is_disabled": 0, "is_reserved": 0}, {"rental_uris": {"ios": "https://dc.lft.to/lastmile_qr_scan", "android": "https://dc.lft.to/lastmile_qr_scan"}, "lon": -76.93963166666667, "type": "electric_scooter", "fusion_lat": 0.0, "lat": 38.899685833333336, "name": "1b0abdd6064f7912f3ce508af574f353", "fusion_lon": 0.0, "bike_id": "1b0abdd6064f7912f3ce508af574f353", "is_disabled": 0, "is_reserved": 0}, {"rental_uris": {"ios": "https://dc.lft.to/lastmile_qr_scan", "android": "https://dc.lft.to/lastmile_qr_scan"}, "lon": -76.99462016666666, "type": "electric_scooter", "fusion_lat": 0.0, "lat": 38.8516275, "name": "71efcdaea18e21b480e2a6a6d8ff8554", "fusion_lon": 0.0, "bike_id": "71efcdaea18e21b480e2a6a6d8ff8554", "is_disabled": 0, "is_reserved": 0}, {"rental_uris": {"ios": "https://dc.lft.to/lastmile_qr_scan", "android": "https://dc.lft.to/lastmile_qr_scan"}, "lon": -76.98611133333333, "type": "electric_scooter", "fusion_lat": 0.0, "lat": 38.87820266666667, "name": "9fcf4280d596721148edb1dac030a59c", "fusion_lon": 0.0, "bike_id": "9fcf4280d596721148edb1dac030a59c", "is_disabled": 0, "is_reserved": 0}, {"rental_uris": {"ios": "https://dc.lft.to/lastmile_qr_scan", "android": "https://dc.lft.to/lastmile_qr_scan"}, "lon": -77.04812383333334, "type": "electric_scooter", "fusion_lat": 0.0, "lat": 38.91083533333333, "name": "3d39baf02e05cfe65262845c70f49ce0", "fusion_lon": 0.0, "bike_id": "3d39baf02e05cfe65262845c70f49ce0", "is_disabled": 0, "is_reserved": 0}, {"rental_uris": {"ios": "https://dc.lft.to/lastmile_qr_scan", "android": "https://dc.lft.to/lastmile_qr_scan"}, "lon": -77.0417855, "type": "electric_scooter", "fusion_lat": 0.0, "lat": 38.92047, "name": "2b0b6e55d5fb6aae6a8d9bcf3d973bc7", "fusion_lon": 0.0, "bike_id": "2b0b6e55d5fb6aae6a8d9bcf3d973bc7", "is_disabled": 0, "is_reserved": 0}, {"rental_uris": {"ios": "https://dc.lft.to/lastmile_qr_scan", "android": "https://dc.lft.to/lastmile_qr_scan"}, "lon": -76.98484683333334, "type": "electric_scooter", "fusion_lat": 0.0, "lat": 38.90784416666666, "name": "c755039947b7405620d09b162d7c2caf", "fusion_lon": 0.0, "bike_id": "c755039947b7405620d09b162d7c2caf", "is_disabled": 0, "is_reserved": 0}, {"rental_uris": {"ios": "https://dc.lft.to/lastmile_qr_scan", "android": "https://dc.lft.to/lastmile_qr_scan"}, "lon": -77.02714733333333, "type": "electric_scooter", "fusion_lat": 0.0, "lat": 38.924667, "name": "482f8d943175511b4ca9461b32e0c89f", "fusion_lon": 0.0, "bike_id": "482f8d943175511b4ca9461b32e0c89f", "is_disabled": 0, "is_reserved": 0}, {"rental_uris": {"ios": "https://dc.lft.to/lastmile_qr_scan", "android": "https://dc.lft.to/lastmile_qr_scan"}, "lon": -76.97491833333333, "type": "electric_bike", "fusion_lat": 0.0, "lat": 38.9200655, "name": "a527db57649b413b7148ccf46598b34a", "fusion_lon": 0.0, "bike_id": "a527db57649b413b7148ccf46598b34a", "is_disabled": 0, "is_reserved": 0}, {"rental_uris": {"ios": "https://dc.lft.to/lastmile_qr_scan", "android": "https://dc.lft.to/lastmile_qr_scan"}, "lon": -77.0411175, "type": "electric_scooter", "fusion_lat": 0.0, "lat": 38.924447, "name": "e263e3086ff87329ff058b72579eecbe", "fusion_lon": 0.0, "bike_id": "e263e3086ff87329ff058b72579eecbe", "is_disabled": 0, "is_reserved": 0}, {"rental_uris": {"ios": "https://dc.lft.to/lastmile_qr_scan", "android": "https://dc.lft.to/lastmile_qr_scan"}, "lon": -77.04004933333333, "type": "electric_scooter", "fusion_lat": 0.0, "lat": 38.9099005, "name": "bf37b6a6290fe1c63e7db75d44361728", "fusion_lon": 0.0, "bike_id": "bf37b6a6290fe1c63e7db75d44361728", "is_disabled": 0, "is_reserved": 0}, {"rental_uris": {"ios": "https://dc.lft.to/lastmile_qr_scan", "android": "https://dc.lft.to/lastmile_qr_scan"}, "lon": -77.04771683333334, "type": "electric_scooter", "fusion_lat": 0.0, "lat": 38.908526, "name": "6960c4e43882a3a402578d96740fd801", "fusion_lon": 0.0, "bike_id": "6960c4e43882a3a402578d96740fd801", "is_disabled": 0, "is_reserved": 0}, {"rental_uris": {"ios": "https://dc.lft.to/lastmile_qr_scan", "android": "https://dc.lft.to/lastmile_qr_scan"}, "lon": -76.974055, "type": "electric_scooter", "fusion_lat": 0.0, "lat": 38.901579, "name": "ea033a66f6b556d2739a7caa59fbe627", "fusion_lon": 0.0, "bike_id": "ea033a66f6b556d2739a7caa59fbe627", "is_disabled": 0, "is_reserved": 0}, {"rental_uris": {"ios": "https://dc.lft.to/lastmile_qr_scan", "android": "https://dc.lft.to/lastmile_qr_scan"}, "lon": -77.0113365, "type": "electric_scooter", "fusion_lat": 0.0, "lat": 38.9180205, "name": "c4b2cea71211c6e18398469a7aae0ac2", "fusion_lon": 0.0, "bike_id": "c4b2cea71211c6e18398469a7aae0ac2", "is_disabled": 0, "is_reserved": 0}, {"rental_uris": {"ios": "https://dc.lft.to/lastmile_qr_scan", "android": "https://dc.lft.to/lastmile_qr_scan"}, "lon": -76.93717616666666, "type": "electric_scooter", "fusion_lat": 0.0, "lat": 38.895844833333335, "name": "42f869ebc58f06e3caa1d7e318872d0c", "fusion_lon": 0.0, "bike_id": "42f869ebc58f06e3caa1d7e318872d0c", "is_disabled": 0, "is_reserved": 0}, {"rental_uris": {"ios": "https://dc.lft.to/lastmile_qr_scan", "android": "https://dc.lft.to/lastmile_qr_scan"}, "lon": -77.00235183333334, "type": "electric_scooter", "fusion_lat": 0.0, "lat": 38.91187766666667, "name": "998a4c5359e98873ca04f250d7fd9ba5", "fusion_lon": 0.0, "bike_id": "998a4c5359e98873ca04f250d7fd9ba5", "is_disabled": 0, "is_reserved": 0}, {"rental_uris": {"ios": "https://dc.lft.to/lastmile_qr_scan", "android": "https://dc.lft.to/lastmile_qr_scan"}, "lon": -77.03419383333333, "type": "electric_scooter", "fusion_lat": 0.0, "lat": 38.935402333333336, "name": "a15392ee48fd7c15ddce78c356504a37", "fusion_lon": 0.0, "bike_id": "a15392ee48fd7c15ddce78c356504a37", "is_disabled": 0, "is_reserved": 0}, {"rental_uris": {"ios": "https://dc.lft.to/lastmile_qr_scan", "android": "https://dc.lft.to/lastmile_qr_scan"}, "lon": -77.04166783333334, "type": "electric_scooter", "fusion_lat": 0.0, "lat": 38.917695333333334, "name": "3fbdfd01de8f5946bd3c76589a1b39d1", "fusion_lon": 0.0, "bike_id": "3fbdfd01de8f5946bd3c76589a1b39d1", "is_disabled": 0, "is_reserved": 0}, {"rental_uris": {"ios": "https://dc.lft.to/lastmile_qr_scan", "android": "https://dc.lft.to/lastmile_qr_scan"}, "lon": -77.03831766666667, "type": "electric_scooter", "fusion_lat": 0.0, "lat": 38.91113333333333, "name": "5a01e6b03bd41ee090430bfa926e3809", "fusion_lon": 0.0, "bike_id": "5a01e6b03bd41ee090430bfa926e3809", "is_disabled": 0, "is_reserved": 0}, {"rental_uris": {"ios": "https://dc.lft.to/lastmile_qr_scan", "android": "https://dc.lft.to/lastmile_qr_scan"}, "lon": -77.02942866666666, "type": "electric_scooter", "fusion_lat": 0.0, "lat": 38.90515666666667, "name": "a2825bf64f656d0e29eafdab1fe6ccda", "fusion_lon": 0.0, "bike_id": "a2825bf64f656d0e29eafdab1fe6ccda", "is_disabled": 0, "is_reserved": 0}, {"rental_uris": {"ios": "https://dc.lft.to/lastmile_qr_scan", "android": "https://dc.lft.to/lastmile_qr_scan"}, "lon": -77.012933, "type": "electric_bike", "fusion_lat": 0.0, "lat": 38.881255833333334, "name": "9d2dc8e2a05d0d8553a0d46f5620ffa7", "fusion_lon": 0.0, "bike_id": "9d2dc8e2a05d0d8553a0d46f5620ffa7", "is_disabled": 0, "is_reserved": 0}, {"rental_uris": {"ios": "https://dc.lft.to/lastmile_qr_scan", "android": "https://dc.lft.to/lastmile_qr_scan"}, "lon": -77.01715416666667, "type": "electric_scooter", "fusion_lat": 0.0, "lat": 38.903796666666665, "name": "134aacc4f808040d01ba12b81f0f3c4a", "fusion_lon": 0.0, "bike_id": "134aacc4f808040d01ba12b81f0f3c4a", "is_disabled": 0, "is_reserved": 0}, {"rental_uris": {"ios": "https://dc.lft.to/lastmile_qr_scan", "android": "https://dc.lft.to/lastmile_qr_scan"}, "lon": -77.03348883333334, "type": "electric_scooter", "fusion_lat": 0.0, "lat": 38.91712416666667, "name": "21595e0459db2d48ee6ecb8be4966d5c", "fusion_lon": 0.0, "bike_id": "21595e0459db2d48ee6ecb8be4966d5c", "is_disabled": 0, "is_reserved": 0}, {"rental_uris": {"ios": "https://dc.lft.to/lastmile_qr_scan", "android": "https://dc.lft.to/lastmile_qr_scan"}, "lon": -77.023952, "type": "electric_scooter", "fusion_lat": 0.0, "lat": 38.9142205, "name": "5fa202e20d39878316d5eeb72d97972f", "fusion_lon": 0.0, "bike_id": "5fa202e20d39878316d5eeb72d97972f", "is_disabled": 0, "is_reserved": 0}, {"rental_uris": {"ios": "https://dc.lft.to/lastmile_qr_scan", "android": "https://dc.lft.to/lastmile_qr_scan"}, "lon": -77.024224, "type": "electric_scooter", "fusion_lat": 0.0, "lat": 38.9205515, "name": "d40a7f044c20c04a5096bbd18d0a4d81", "fusion_lon": 0.0, "bike_id": "d40a7f044c20c04a5096bbd18d0a4d81", "is_disabled": 0, "is_reserved": 0}, {"rental_uris": {"ios": "https://dc.lft.to/lastmile_qr_scan", "android": "https://dc.lft.to/lastmile_qr_scan"}, "lon": -77.005763, "type": "electric_scooter", "fusion_lat": 0.0, "lat": 38.844941, "name": "0e39f801b470fc11dfd44e422e1508c7", "fusion_lon": 0.0, "bike_id": "0e39f801b470fc11dfd44e422e1508c7", "is_disabled": 0, "is_reserved": 0}, {"rental_uris": {"ios": "https://dc.lft.to/lastmile_qr_scan", "android": "https://dc.lft.to/lastmile_qr_scan"}, "lon": -76.97320116666667, "type": "electric_scooter", "fusion_lat": 0.0, "lat": 38.91783266666667, "name": "ed2ffc156341951d3f854dcebab12d2f", "fusion_lon": 0.0, "bike_id": "ed2ffc156341951d3f854dcebab12d2f", "is_disabled": 0, "is_reserved": 0}, {"rental_uris": {"ios": "https://dc.lft.to/lastmile_qr_scan", "android": "https://dc.lft.to/lastmile_qr_scan"}, "lon": -77.03147933333334, "type": "electric_scooter", "fusion_lat": 0.0, "lat": 38.94527516666667, "name": "ba13cc04d7290abe1ebe2f225e2aea4a", "fusion_lon": 0.0, "bike_id": "ba13cc04d7290abe1ebe2f225e2aea4a", "is_disabled": 0, "is_reserved": 0}, {"rental_uris": {"ios": "https://dc.lft.to/lastmile_qr_scan", "android": "https://dc.lft.to/lastmile_qr_scan"}, "lon": -77.01528633333334, "type": "electric_scooter", "fusion_lat": 0.0, "lat": 38.88735233333333, "name": "dccb557938e8dbc2a2b3b7eccf811d12", "fusion_lon": 0.0, "bike_id": "dccb557938e8dbc2a2b3b7eccf811d12", "is_disabled": 0, "is_reserved": 0}, {"rental_uris": {"ios": "https://dc.lft.to/lastmile_qr_scan", "android": "https://dc.lft.to/lastmile_qr_scan"}, "lon": -77.04316816666666, "type": "electric_scooter", "fusion_lat": 0.0, "lat": 38.918755166666664, "name": "8a51407c594e9b8c4782bbc287c40ec1", "fusion_lon": 0.0, "bike_id": "8a51407c594e9b8c4782bbc287c40ec1", "is_disabled": 0, "is_reserved": 0}, {"rental_uris": {"ios": "https://dc.lft.to/lastmile_qr_scan", "android": "https://dc.lft.to/lastmile_qr_scan"}, "lon": -77.0346965, "type": "electric_scooter", "fusion_lat": 0.0, "lat": 38.90278816666667, "name": "6a030fcce81d164205fb4bf270701ad9", "fusion_lon": 0.0, "bike_id": "6a030fcce81d164205fb4bf270701ad9", "is_disabled": 0, "is_reserved": 0}, {"rental_uris": {"ios": "https://dc.lft.to/lastmile_qr_scan", "android": "https://dc.lft.to/lastmile_qr_scan"}, "lon": -77.0101415, "type": "electric_scooter", "fusion_lat": 0.0, "lat": 38.90685216666667, "name": "1a362f2e692b57f4c59b91866b2860d7", "fusion_lon": 0.0, "bike_id": "1a362f2e692b57f4c59b91866b2860d7", "is_disabled": 0, "is_reserved": 0}, {"rental_uris": {"ios": "https://dc.lft.to/lastmile_qr_scan", "android": "https://dc.lft.to/lastmile_qr_scan"}, "lon": -77.0245405, "type": "electric_scooter", "fusion_lat": 0.0, "lat": 38.9085545, "name": "4cdeddd456f4bbca2eb8a72c788b7261", "fusion_lon": 0.0, "bike_id": "4cdeddd456f4bbca2eb8a72c788b7261", "is_disabled": 0, "is_reserved": 0}, {"rental_uris": {"ios": "https://dc.lft.to/lastmile_qr_scan", "android": "https://dc.lft.to/lastmile_qr_scan"}, "lon": -77.02306483333334, "type": "electric_bike", "fusion_lat": 0.0, "lat": 38.92997016666666, "name": "f1f99994680125527c006c82b744a662", "fusion_lon": 0.0, "bike_id": "f1f99994680125527c006c82b744a662", "is_disabled": 0, "is_reserved": 0}, {"rental_uris": {"ios": "https://dc.lft.to/lastmile_qr_scan", "android": "https://dc.lft.to/lastmile_qr_scan"}, "lon": -77.04348333333333, "type": "electric_scooter", "fusion_lat": 0.0, "lat": 38.912283, "name": "9087ac30e7ee47bcbb8180bb2d815bd9", "fusion_lon": 0.0, "bike_id": "9087ac30e7ee47bcbb8180bb2d815bd9", "is_disabled": 0, "is_reserved": 0}, {"rental_uris": {"ios": "https://dc.lft.to/lastmile_qr_scan", "android": "https://dc.lft.to/lastmile_qr_scan"}, "lon": -77.03398183333333, "type": "electric_scooter", "fusion_lat": 0.0, "lat": 38.922652666666664, "name": "0b3e6effdb29911730b10f1eecf35fda", "fusion_lon": 0.0, "bike_id": "0b3e6effdb29911730b10f1eecf35fda", "is_disabled": 0, "is_reserved": 0}, {"rental_uris": {"ios": "https://dc.lft.to/lastmile_qr_scan", "android": "https://dc.lft.to/lastmile_qr_scan"}, "lon": -77.05505733333334, "type": "electric_scooter", "fusion_lat": 0.0, "lat": 38.92970866666667, "name": "db87d38b31ef78106089e326c2ba65e6", "fusion_lon": 0.0, "bike_id": "db87d38b31ef78106089e326c2ba65e6", "is_disabled": 0, "is_reserved": 0}, {"rental_uris": {"ios": "https://dc.lft.to/lastmile_qr_scan", "android": "https://dc.lft.to/lastmile_qr_scan"}, "lon": -77.12499066666666, "type": "electric_bike", "fusion_lat": 0.0, "lat": 39.02421183333333, "name": "e55c0aa576f14677b933754261412740", "fusion_lon": 0.0, "bike_id": "e55c0aa576f14677b933754261412740", "is_disabled": 0, "is_reserved": 0}, {"rental_uris": {"ios": "https://dc.lft.to/lastmile_qr_scan", "android": "https://dc.lft.to/lastmile_qr_scan"}, "lon": -77.0433605, "type": "electric_scooter", "fusion_lat": 0.0, "lat": 38.89660516666667, "name": "166d43deed2ba8f4edc4b669cbdfd712", "fusion_lon": 0.0, "bike_id": "166d43deed2ba8f4edc4b669cbdfd712", "is_disabled": 0, "is_reserved": 0}, {"rental_uris": {"ios": "https://dc.lft.to/lastmile_qr_scan", "android": "https://dc.lft.to/lastmile_qr_scan"}, "lon": -76.95756083333333, "type": "electric_scooter", "fusion_lat": 0.0, "lat": 38.88432733333333, "name": "9a684f51b528d9e4b0281a8fe8f8f00b", "fusion_lon": 0.0, "bike_id": "9a684f51b528d9e4b0281a8fe8f8f00b", "is_disabled": 0, "is_reserved": 0}, {"rental_uris": {"ios": "https://dc.lft.to/lastmile_qr_scan", "android": "https://dc.lft.to/lastmile_qr_scan"}, "lon": -77.09520716666667, "type": "electric_bike", "fusion_lat": 0.0, "lat": 38.83811866666667, "name": "925d0a4a8f41d093b2e4c98e2ec9ef50", "fusion_lon": 0.0, "bike_id": "925d0a4a8f41d093b2e4c98e2ec9ef50", "is_disabled": 0, "is_reserved": 0}, {"rental_uris": {"ios": "https://dc.lft.to/lastmile_qr_scan", "android": "https://dc.lft.to/lastmile_qr_scan"}, "lon": -77.04263283333333, "type": "electric_scooter", "fusion_lat": 0.0, "lat": 38.908614166666666, "name": "7e812f690a6b4fb46f3db7435dc8a28d", "fusion_lon": 0.0, "bike_id": "7e812f690a6b4fb46f3db7435dc8a28d", "is_disabled": 0, "is_reserved": 0}, {"rental_uris": {"ios": "https://dc.lft.to/lastmile_qr_scan", "android": "https://dc.lft.to/lastmile_qr_scan"}, "lon": -76.98616233333334, "type": "electric_scooter", "fusion_lat": 0.0, "lat": 38.868191333333336, "name": "081252b3dc5b3a6e8f39af0dad196162", "fusion_lon": 0.0, "bike_id": "081252b3dc5b3a6e8f39af0dad196162", "is_disabled": 0, "is_reserved": 0}, {"rental_uris": {"ios": "https://dc.lft.to/lastmile_qr_scan", "android": "https://dc.lft.to/lastmile_qr_scan"}, "lon": -77.0326415, "type": "electric_scooter", "fusion_lat": 0.0, "lat": 38.925389333333335, "name": "2de17546a39eb782bafc4136b281d89d", "fusion_lon": 0.0, "bike_id": "2de17546a39eb782bafc4136b281d89d", "is_disabled": 0, "is_reserved": 0}, {"rental_uris": {"ios": "https://dc.lft.to/lastmile_qr_scan", "android": "https://dc.lft.to/lastmile_qr_scan"}, "lon": -77.0638315, "type": "electric_bike", "fusion_lat": 0.0, "lat": 38.905064333333335, "name": "76af807db319ab73c0625d245a7f763b", "fusion_lon": 0.0, "bike_id": "76af807db319ab73c0625d245a7f763b", "is_disabled": 0, "is_reserved": 0}, {"rental_uris": {"ios": "https://dc.lft.to/lastmile_qr_scan", "android": "https://dc.lft.to/lastmile_qr_scan"}, "lon": -77.05583133333333, "type": "electric_scooter", "fusion_lat": 0.0, "lat": 38.92783416666666, "name": "6950839c746574e93d88e91d6e2fa3a2", "fusion_lon": 0.0, "bike_id": "6950839c746574e93d88e91d6e2fa3a2", "is_disabled": 0, "is_reserved": 0}, {"rental_uris": {"ios": "https://dc.lft.to/lastmile_qr_scan", "android": "https://dc.lft.to/lastmile_qr_scan"}, "lon": -77.05823133333334, "type": "electric_scooter", "fusion_lat": 0.0, "lat": 38.934165666666665, "name": "629851fb06c0aaed6772ce200bb32297", "fusion_lon": 0.0, "bike_id": "629851fb06c0aaed6772ce200bb32297", "is_disabled": 0, "is_reserved": 0}, {"rental_uris": {"ios": "https://dc.lft.to/lastmile_qr_scan", "android": "https://dc.lft.to/lastmile_qr_scan"}, "lon": -77.03345, "type": "electric_scooter", "fusion_lat": 0.0, "lat": 38.9192585, "name": "04350717774c7d4c58bcb4492d3bd71e", "fusion_lon": 0.0, "bike_id": "04350717774c7d4c58bcb4492d3bd71e", "is_disabled": 0, "is_reserved": 0}, {"rental_uris": {"ios": "https://dc.lft.to/lastmile_qr_scan", "android": "https://dc.lft.to/lastmile_qr_scan"}, "lon": -77.03563766666667, "type": "electric_scooter", "fusion_lat": 0.0, "lat": 38.918176333333335, "name": "1f8c524fab30459d5206f3564939661f", "fusion_lon": 0.0, "bike_id": "1f8c524fab30459d5206f3564939661f", "is_disabled": 0, "is_reserved": 0}, {"rental_uris": {"ios": "https://dc.lft.to/lastmile_qr_scan", "android": "https://dc.lft.to/lastmile_qr_scan"}, "lon": -77.02132283333333, "type": "electric_scooter", "fusion_lat": 0.0, "lat": 38.915496166666664, "name": "53bc4123543a21aa15f1cd002cf2e066", "fusion_lon": 0.0, "bike_id": "53bc4123543a21aa15f1cd002cf2e066", "is_disabled": 0, "is_reserved": 0}, {"rental_uris": {"ios": "https://dc.lft.to/lastmile_qr_scan", "android": "https://dc.lft.to/lastmile_qr_scan"}, "lon": -77.01731016666666, "type": "electric_scooter", "fusion_lat": 0.0, "lat": 38.90400566666667, "name": "4a1a72c9ccc8884ef2c31ed48eb96491", "fusion_lon": 0.0, "bike_id": "4a1a72c9ccc8884ef2c31ed48eb96491", "is_disabled": 0, "is_reserved": 0}, {"rental_uris": {"ios": "https://dc.lft.to/lastmile_qr_scan", "android": "https://dc.lft.to/lastmile_qr_scan"}, "lon": -76.9581315, "type": "electric_scooter", "fusion_lat": 0.0, "lat": 38.89060633333333, "name": "17a49d457ccd0f736a600f38dbbe095d", "fusion_lon": 0.0, "bike_id": "17a49d457ccd0f736a600f38dbbe095d", "is_disabled": 0, "is_reserved": 0}, {"rental_uris": {"ios": "https://dc.lft.to/lastmile_qr_scan", "android": "https://dc.lft.to/lastmile_qr_scan"}, "lon": -77.0412335, "type": "electric_scooter", "fusion_lat": 0.0, "lat": 38.921534, "name": "9a8f0286542ac521c141f971f62ee931", "fusion_lon": 0.0, "bike_id": "9a8f0286542ac521c141f971f62ee931", "is_disabled": 0, "is_reserved": 0}, {"rental_uris": {"ios": "https://dc.lft.to/lastmile_qr_scan", "android": "https://dc.lft.to/lastmile_qr_scan"}, "lon": -77.04498133333334, "type": "electric_scooter", "fusion_lat": 0.0, "lat": 38.91286433333333, "name": "34a8535d8f57776b07b0762029d72805", "fusion_lon": 0.0, "bike_id": "34a8535d8f57776b07b0762029d72805", "is_disabled": 0, "is_reserved": 0}, {"rental_uris": {"ios": "https://dc.lft.to/lastmile_qr_scan", "android": "https://dc.lft.to/lastmile_qr_scan"}, "lon": -77.01531916666667, "type": "electric_scooter", "fusion_lat": 0.0, "lat": 38.88739183333333, "name": "8790bad626e2d3c6b0a8ad6b9ae4b0be", "fusion_lon": 0.0, "bike_id": "8790bad626e2d3c6b0a8ad6b9ae4b0be", "is_disabled": 0, "is_reserved": 0}, {"rental_uris": {"ios": "https://dc.lft.to/lastmile_qr_scan", "android": "https://dc.lft.to/lastmile_qr_scan"}, "lon": -77.02740733333333, "type": "electric_scooter", "fusion_lat": 0.0, "lat": 38.927700333333334, "name": "b81dc13f7e33d86fb50bfa26d62e6187", "fusion_lon": 0.0, "bike_id": "b81dc13f7e33d86fb50bfa26d62e6187", "is_disabled": 0, "is_reserved": 0}, {"rental_uris": {"ios": "https://dc.lft.to/lastmile_qr_scan", "android": "https://dc.lft.to/lastmile_qr_scan"}, "lon": -77.04127733333333, "type": "electric_scooter", "fusion_lat": 0.0, "lat": 38.92435966666667, "name": "11a83e33e185123bdae9714e947abb28", "fusion_lon": 0.0, "bike_id": "11a83e33e185123bdae9714e947abb28", "is_disabled": 0, "is_reserved": 0}, {"rental_uris": {"ios": "https://dc.lft.to/lastmile_qr_scan", "android": "https://dc.lft.to/lastmile_qr_scan"}, "lon": -77.05372083333333, "type": "electric_scooter", "fusion_lat": 0.0, "lat": 38.92716333333333, "name": "b129718f64dd24476b19c58c835c3c3c", "fusion_lon": 0.0, "bike_id": "b129718f64dd24476b19c58c835c3c3c", "is_disabled": 0, "is_reserved": 0}, {"rental_uris": {"ios": "https://dc.lft.to/lastmile_qr_scan", "android": "https://dc.lft.to/lastmile_qr_scan"}, "lon": -77.0307115, "type": "electric_scooter", "fusion_lat": 0.0, "lat": 38.8945925, "name": "2be1bd8f8dce2583ae0eb0d8074608a5", "fusion_lon": 0.0, "bike_id": "2be1bd8f8dce2583ae0eb0d8074608a5", "is_disabled": 0, "is_reserved": 0}, {"rental_uris": {"ios": "https://dc.lft.to/lastmile_qr_scan", "android": "https://dc.lft.to/lastmile_qr_scan"}, "lon": -77.030728, "type": "electric_scooter", "fusion_lat": 0.0, "lat": 38.923858833333334, "name": "49a419f097fbaea2627aa9a6d3c212d1", "fusion_lon": 0.0, "bike_id": "49a419f097fbaea2627aa9a6d3c212d1", "is_disabled": 0, "is_reserved": 0}, {"rental_uris": {"ios": "https://dc.lft.to/lastmile_qr_scan", "android": "https://dc.lft.to/lastmile_qr_scan"}, "lon": -77.07374666666666, "type": "electric_bike", "fusion_lat": 0.0, "lat": 38.96164133333333, "name": "6a7865a207fbc640e66c01a5db514424", "fusion_lon": 0.0, "bike_id": "6a7865a207fbc640e66c01a5db514424", "is_disabled": 0, "is_reserved": 0}, {"rental_uris": {"ios": "https://dc.lft.to/lastmile_qr_scan", "android": "https://dc.lft.to/lastmile_qr_scan"}, "lon": -77.00720816666667, "type": "electric_scooter", "fusion_lat": 0.0, "lat": 38.90590816666667, "name": "7c9398b902ac397334ec65c2d994740f", "fusion_lon": 0.0, "bike_id": "7c9398b902ac397334ec65c2d994740f", "is_disabled": 0, "is_reserved": 0}, {"rental_uris": {"ios": "https://dc.lft.to/lastmile_qr_scan", "android": "https://dc.lft.to/lastmile_qr_scan"}, "lon": -77.023974, "type": "electric_scooter", "fusion_lat": 0.0, "lat": 38.917444833333334, "name": "0f13e4f097c2f079255db865d07b0121", "fusion_lon": 0.0, "bike_id": "0f13e4f097c2f079255db865d07b0121", "is_disabled": 0, "is_reserved": 0}, {"rental_uris": {"ios": "https://dc.lft.to/lastmile_qr_scan", "android": "https://dc.lft.to/lastmile_qr_scan"}, "lon": -77.10510666666667, "type": "electric_bike", "fusion_lat": 0.0, "lat": 38.928450833333336, "name": "59b208506d0f5a3bffe11a44d5ae8e78", "fusion_lon": 0.0, "bike_id": "59b208506d0f5a3bffe11a44d5ae8e78", "is_disabled": 0, "is_reserved": 0}, {"rental_uris": {"ios": "https://dc.lft.to/lastmile_qr_scan", "android": "https://dc.lft.to/lastmile_qr_scan"}, "lon": -77.02834983333334, "type": "electric_scooter", "fusion_lat": 0.0, "lat": 38.928589, "name": "3a27f7a33e4d28b5e74f373efc635b7d", "fusion_lon": 0.0, "bike_id": "3a27f7a33e4d28b5e74f373efc635b7d", "is_disabled": 0, "is_reserved": 0}, {"rental_uris": {"ios": "https://dc.lft.to/lastmile_qr_scan", "android": "https://dc.lft.to/lastmile_qr_scan"}, "lon": -77.04222733333333, "type": "electric_scooter", "fusion_lat": 0.0, "lat": 38.90729566666667, "name": "02527b65bfa85bbd1d65de86b6199abc", "fusion_lon": 0.0, "bike_id": "02527b65bfa85bbd1d65de86b6199abc", "is_disabled": 0, "is_reserved": 0}, {"rental_uris": {"ios": "https://dc.lft.to/lastmile_qr_scan", "android": "https://dc.lft.to/lastmile_qr_scan"}, "lon": -77.0365005, "type": "electric_scooter", "fusion_lat": 0.0, "lat": 38.90670866666667, "name": "5c49ef77c9465540f1183c7dfb0e6db0", "fusion_lon": 0.0, "bike_id": "5c49ef77c9465540f1183c7dfb0e6db0", "is_disabled": 0, "is_reserved": 0}, {"rental_uris": {"ios": "https://dc.lft.to/lastmile_qr_scan", "android": "https://dc.lft.to/lastmile_qr_scan"}, "lon": -76.969777, "type": "electric_scooter", "fusion_lat": 0.0, "lat": 38.861644166666665, "name": "dd869b5c76af5f342e0fa76be19ec169", "fusion_lon": 0.0, "bike_id": "dd869b5c76af5f342e0fa76be19ec169", "is_disabled": 0, "is_reserved": 0}, {"rental_uris": {"ios": "https://dc.lft.to/lastmile_qr_scan", "android": "https://dc.lft.to/lastmile_qr_scan"}, "lon": -77.029446, "type": "electric_scooter", "fusion_lat": 0.0, "lat": 38.932483833333336, "name": "de7ef493927c0caaeb52d1752744850e", "fusion_lon": 0.0, "bike_id": "de7ef493927c0caaeb52d1752744850e", "is_disabled": 0, "is_reserved": 0}, {"rental_uris": {"ios": "https://dc.lft.to/lastmile_qr_scan", "android": "https://dc.lft.to/lastmile_qr_scan"}, "lon": -77.04706666666667, "type": "electric_scooter", "fusion_lat": 0.0, "lat": 38.905923333333334, "name": "e75cbb5f56cfb606939653bb2d596b93", "fusion_lon": 0.0, "bike_id": "e75cbb5f56cfb606939653bb2d596b93", "is_disabled": 0, "is_reserved": 0}, {"rental_uris": {"ios": "https://dc.lft.to/lastmile_qr_scan", "android": "https://dc.lft.to/lastmile_qr_scan"}, "lon": -77.0320725, "type": "electric_scooter", "fusion_lat": 0.0, "lat": 38.90736166666667, "name": "b002ca055eaea7382f67f1db45d2a719", "fusion_lon": 0.0, "bike_id": "b002ca055eaea7382f67f1db45d2a719", "is_disabled": 0, "is_reserved": 0}, {"rental_uris": {"ios": "https://dc.lft.to/lastmile_qr_scan", "android": "https://dc.lft.to/lastmile_qr_scan"}, "lon": -77.01279333333333, "type": "electric_bike", "fusion_lat": 0.0, "lat": 38.881221, "name": "6850c25800854682a8184ba199714192", "fusion_lon": 0.0, "bike_id": "6850c25800854682a8184ba199714192", "is_disabled": 0, "is_reserved": 0}, {"rental_uris": {"ios": "https://dc.lft.to/lastmile_qr_scan", "android": "https://dc.lft.to/lastmile_qr_scan"}, "lon": -77.02663516666667, "type": "electric_scooter", "fusion_lat": 0.0, "lat": 38.881257166666664, "name": "e201c3b8298ed2b66a7c395043cdb7c6", "fusion_lon": 0.0, "bike_id": "e201c3b8298ed2b66a7c395043cdb7c6", "is_disabled": 0, "is_reserved": 0}, {"rental_uris": {"ios": "https://dc.lft.to/lastmile_qr_scan", "android": "https://dc.lft.to/lastmile_qr_scan"}, "lon": -77.10340183333334, "type": "electric_bike", "fusion_lat": 0.0, "lat": 38.852245, "name": "affc677768938654fb624d2b162853a7", "fusion_lon": 0.0, "bike_id": "affc677768938654fb624d2b162853a7", "is_disabled": 0, "is_reserved": 0}, {"rental_uris": {"ios": "https://dc.lft.to/lastmile_qr_scan", "android": "https://dc.lft.to/lastmile_qr_scan"}, "lon": -77.02975016666667, "type": "electric_scooter", "fusion_lat": 0.0, "lat": 38.96228133333334, "name": "2a979e84a8e446f0e6033ad1f03442e3", "fusion_lon": 0.0, "bike_id": "2a979e84a8e446f0e6033ad1f03442e3", "is_disabled": 0, "is_reserved": 0}, {"rental_uris": {"ios": "https://dc.lft.to/lastmile_qr_scan", "android": "https://dc.lft.to/lastmile_qr_scan"}, "lon": -77.00882033333333, "type": "electric_scooter", "fusion_lat": 0.0, "lat": 38.914001, "name": "4e9dae32d210fdda7aea7b83b7f320a1", "fusion_lon": 0.0, "bike_id": "4e9dae32d210fdda7aea7b83b7f320a1", "is_disabled": 0, "is_reserved": 0}, {"rental_uris": {"ios": "https://dc.lft.to/lastmile_qr_scan", "android": "https://dc.lft.to/lastmile_qr_scan"}, "lon": -76.9272295, "type": "electric_scooter", "fusion_lat": 0.0, "lat": 38.88038133333333, "name": "43aa0ca527276b9a4ef0a01175f49c9e", "fusion_lon": 0.0, "bike_id": "43aa0ca527276b9a4ef0a01175f49c9e", "is_disabled": 0, "is_reserved": 0}, {"rental_uris": {"ios": "https://dc.lft.to/lastmile_qr_scan", "android": "https://dc.lft.to/lastmile_qr_scan"}, "lon": -77.001346, "type": "electric_scooter", "fusion_lat": 0.0, "lat": 38.904097166666666, "name": "87d0e7ee6a92221fb7cedb772a843ca9", "fusion_lon": 0.0, "bike_id": "87d0e7ee6a92221fb7cedb772a843ca9", "is_disabled": 0, "is_reserved": 0}, {"rental_uris": {"ios": "https://dc.lft.to/lastmile_qr_scan", "android": "https://dc.lft.to/lastmile_qr_scan"}, "lon": -76.94665816666667, "type": "electric_scooter", "fusion_lat": 0.0, "lat": 38.8980255, "name": "ed7b768dfe9619b68ea97b9bd57a7dae", "fusion_lon": 0.0, "bike_id": "ed7b768dfe9619b68ea97b9bd57a7dae", "is_disabled": 0, "is_reserved": 0}, {"rental_uris": {"ios": "https://dc.lft.to/lastmile_qr_scan", "android": "https://dc.lft.to/lastmile_qr_scan"}, "lon": -77.00474733333333, "type": "electric_scooter", "fusion_lat": 0.0, "lat": 38.878417166666665, "name": "dd1001cbd16eb24f2750ee45ce36a10d", "fusion_lon": 0.0, "bike_id": "dd1001cbd16eb24f2750ee45ce36a10d", "is_disabled": 0, "is_reserved": 0}, {"rental_uris": {"ios": "https://dc.lft.to/lastmile_qr_scan", "android": "https://dc.lft.to/lastmile_qr_scan"}, "lon": -77.04330716666666, "type": "electric_scooter", "fusion_lat": 0.0, "lat": 38.895844833333335, "name": "327e321c41d3dfa34ebe05ab11995872", "fusion_lon": 0.0, "bike_id": "327e321c41d3dfa34ebe05ab11995872", "is_disabled": 0, "is_reserved": 0}, {"rental_uris": {"ios": "https://dc.lft.to/lastmile_qr_scan", "android": "https://dc.lft.to/lastmile_qr_scan"}, "lon": -77.1068265, "type": "electric_bike", "fusion_lat": 0.0, "lat": 38.935834166666666, "name": "70abd43f3e1e3d3afd50dd6838381b73", "fusion_lon": 0.0, "bike_id": "70abd43f3e1e3d3afd50dd6838381b73", "is_disabled": 0, "is_reserved": 0}, {"rental_uris": {"ios": "https://dc.lft.to/lastmile_qr_scan", "android": "https://dc.lft.to/lastmile_qr_scan"}, "lon": -77.03264816666666, "type": "electric_scooter", "fusion_lat": 0.0, "lat": 38.925389, "name": "92254d945d674825a815e6ee96ad9b0e", "fusion_lon": 0.0, "bike_id": "92254d945d674825a815e6ee96ad9b0e", "is_disabled": 0, "is_reserved": 0}, {"rental_uris": {"ios": "https://dc.lft.to/lastmile_qr_scan", "android": "https://dc.lft.to/lastmile_qr_scan"}, "lon": -77.034594, "type": "electric_scooter", "fusion_lat": 0.0, "lat": 38.9168495, "name": "53182544be4cd1e427b38a7bdab290a8", "fusion_lon": 0.0, "bike_id": "53182544be4cd1e427b38a7bdab290a8", "is_disabled": 0, "is_reserved": 0}, {"rental_uris": {"ios": "https://dc.lft.to/lastmile_qr_scan", "android": "https://dc.lft.to/lastmile_qr_scan"}, "lon": -77.04666883333333, "type": "electric_scooter", "fusion_lat": 0.0, "lat": 38.91479533333333, "name": "742c8d4843645968932f4d12cff456ba", "fusion_lon": 0.0, "bike_id": "742c8d4843645968932f4d12cff456ba", "is_disabled": 0, "is_reserved": 0}, {"rental_uris": {"ios": "https://dc.lft.to/lastmile_qr_scan", "android": "https://dc.lft.to/lastmile_qr_scan"}, "lon": -77.09188983333334, "type": "electric_scooter", "fusion_lat": 0.0, "lat": 38.91363966666667, "name": "ca770961365feb7bef12a02db7a65087", "fusion_lon": 0.0, "bike_id": "ca770961365feb7bef12a02db7a65087", "is_disabled": 0, "is_reserved": 0}, {"rental_uris": {"ios": "https://dc.lft.to/lastmile_qr_scan", "android": "https://dc.lft.to/lastmile_qr_scan"}, "lon": -76.94879933333333, "type": "electric_scooter", "fusion_lat": 0.0, "lat": 38.89503066666666, "name": "f8cc155397c25d9203ecb32b8c2a3034", "fusion_lon": 0.0, "bike_id": "f8cc155397c25d9203ecb32b8c2a3034", "is_disabled": 0, "is_reserved": 0}, {"rental_uris": {"ios": "https://dc.lft.to/lastmile_qr_scan", "android": "https://dc.lft.to/lastmile_qr_scan"}, "lon": -77.0426305, "type": "electric_scooter", "fusion_lat": 0.0, "lat": 38.90269833333333, "name": "aa0a34037ae9ed509db721b26ae83ff8", "fusion_lon": 0.0, "bike_id": "aa0a34037ae9ed509db721b26ae83ff8", "is_disabled": 0, "is_reserved": 0}, {"rental_uris": {"ios": "https://dc.lft.to/lastmile_qr_scan", "android": "https://dc.lft.to/lastmile_qr_scan"}, "lon": -77.02954166666666, "type": "electric_scooter", "fusion_lat": 0.0, "lat": 38.905184, "name": "7a038a0a4c9be9c6d603d372d1780afa", "fusion_lon": 0.0, "bike_id": "7a038a0a4c9be9c6d603d372d1780afa", "is_disabled": 0, "is_reserved": 0}, {"rental_uris": {"ios": "https://dc.lft.to/lastmile_qr_scan", "android": "https://dc.lft.to/lastmile_qr_scan"}, "lon": -77.0065545, "type": "electric_scooter", "fusion_lat": 0.0, "lat": 38.94461883333334, "name": "6a0760fce881306a6253779740ad0d23", "fusion_lon": 0.0, "bike_id": "6a0760fce881306a6253779740ad0d23", "is_disabled": 0, "is_reserved": 0}, {"rental_uris": {"ios": "https://dc.lft.to/lastmile_qr_scan", "android": "https://dc.lft.to/lastmile_qr_scan"}, "lon": -77.03859583333333, "type": "electric_scooter", "fusion_lat": 0.0, "lat": 38.90775383333333, "name": "7501d7547cca43ed80fbf09e053e2bb1", "fusion_lon": 0.0, "bike_id": "7501d7547cca43ed80fbf09e053e2bb1", "is_disabled": 0, "is_reserved": 0}, {"rental_uris": {"ios": "https://dc.lft.to/lastmile_qr_scan", "android": "https://dc.lft.to/lastmile_qr_scan"}, "lon": -77.0316435, "type": "electric_scooter", "fusion_lat": 0.0, "lat": 38.921115666666665, "name": "41cac6834da54aa4942f425d85cf36e7", "fusion_lon": 0.0, "bike_id": "41cac6834da54aa4942f425d85cf36e7", "is_disabled": 0, "is_reserved": 0}, {"rental_uris": {"ios": "https://dc.lft.to/lastmile_qr_scan", "android": "https://dc.lft.to/lastmile_qr_scan"}, "lon": -76.94887033333333, "type": "electric_scooter", "fusion_lat": 0.0, "lat": 38.895352833333334, "name": "bb46da6f5f7028bce055f45f9d1b37e5", "fusion_lon": 0.0, "bike_id": "bb46da6f5f7028bce055f45f9d1b37e5", "is_disabled": 0, "is_reserved": 0}, {"rental_uris": {"ios": "https://dc.lft.to/lastmile_qr_scan", "android": "https://dc.lft.to/lastmile_qr_scan"}, "lon": -77.05010166666666, "type": "electric_scooter", "fusion_lat": 0.0, "lat": 38.92356, "name": "a60a7b92c40d82e19c54393e1da25465", "fusion_lon": 0.0, "bike_id": "a60a7b92c40d82e19c54393e1da25465", "is_disabled": 0, "is_reserved": 0}, {"rental_uris": {"ios": "https://dc.lft.to/lastmile_qr_scan", "android": "https://dc.lft.to/lastmile_qr_scan"}, "lon": -77.02598816666666, "type": "electric_scooter", "fusion_lat": 0.0, "lat": 38.9084165, "name": "aa1ada344f6f59182d074237de396763", "fusion_lon": 0.0, "bike_id": "aa1ada344f6f59182d074237de396763", "is_disabled": 0, "is_reserved": 0}, {"rental_uris": {"ios": "https://dc.lft.to/lastmile_qr_scan", "android": "https://dc.lft.to/lastmile_qr_scan"}, "lon": -77.03760266666667, "type": "electric_scooter", "fusion_lat": 0.0, "lat": 38.9288725, "name": "2054d501a5fb669ca592d5802b2d9d14", "fusion_lon": 0.0, "bike_id": "2054d501a5fb669ca592d5802b2d9d14", "is_disabled": 0, "is_reserved": 0}, {"rental_uris": {"ios": "https://dc.lft.to/lastmile_qr_scan", "android": "https://dc.lft.to/lastmile_qr_scan"}, "lon": -77.02715066666667, "type": "electric_scooter", "fusion_lat": 0.0, "lat": 38.8963285, "name": "0422daf3cc6f05bdbd30b180a232a778", "fusion_lon": 0.0, "bike_id": "0422daf3cc6f05bdbd30b180a232a778", "is_disabled": 0, "is_reserved": 0}, {"rental_uris": {"ios": "https://dc.lft.to/lastmile_qr_scan", "android": "https://dc.lft.to/lastmile_qr_scan"}, "lon": -77.023514, "type": "electric_scooter", "fusion_lat": 0.0, "lat": 38.945197, "name": "232b02f29c1010eaf79d73ebf3ae046b", "fusion_lon": 0.0, "bike_id": "232b02f29c1010eaf79d73ebf3ae046b", "is_disabled": 0, "is_reserved": 0}, {"rental_uris": {"ios": "https://dc.lft.to/lastmile_qr_scan", "android": "https://dc.lft.to/lastmile_qr_scan"}, "lon": -77.03851133333333, "type": "electric_scooter", "fusion_lat": 0.0, "lat": 38.92028633333334, "name": "12bcc50fc4d81109342742282b6fc481", "fusion_lon": 0.0, "bike_id": "12bcc50fc4d81109342742282b6fc481", "is_disabled": 0, "is_reserved": 0}, {"rental_uris": {"ios": "https://dc.lft.to/lastmile_qr_scan", "android": "https://dc.lft.to/lastmile_qr_scan"}, "lon": -76.99519083333334, "type": "electric_scooter", "fusion_lat": 0.0, "lat": 38.8625815, "name": "75b310c7b9570c861274349206733699", "fusion_lon": 0.0, "bike_id": "75b310c7b9570c861274349206733699", "is_disabled": 0, "is_reserved": 0}, {"rental_uris": {"ios": "https://dc.lft.to/lastmile_qr_scan", "android": "https://dc.lft.to/lastmile_qr_scan"}, "lon": -77.069374, "type": "electric_scooter", "fusion_lat": 0.0, "lat": 38.905104666666666, "name": "d054c3c182e91c4f999057822697a41a", "fusion_lon": 0.0, "bike_id": "d054c3c182e91c4f999057822697a41a", "is_disabled": 0, "is_reserved": 0}, {"rental_uris": {"ios": "https://dc.lft.to/lastmile_qr_scan", "android": "https://dc.lft.to/lastmile_qr_scan"}, "lon": -77.03377583333334, "type": "electric_scooter", "fusion_lat": 0.0, "lat": 38.9383935, "name": "a3d2bbe15bd21c384343f1a3dc69fb50", "fusion_lon": 0.0, "bike_id": "a3d2bbe15bd21c384343f1a3dc69fb50", "is_disabled": 0, "is_reserved": 0}, {"rental_uris": {"ios": "https://dc.lft.to/lastmile_qr_scan", "android": "https://dc.lft.to/lastmile_qr_scan"}, "lon": -77.02313833333334, "type": "electric_scooter", "fusion_lat": 0.0, "lat": 38.9178595, "name": "7e5697b294ba80ad53ba65c28f74f958", "fusion_lon": 0.0, "bike_id": "7e5697b294ba80ad53ba65c28f74f958", "is_disabled": 0, "is_reserved": 0}, {"rental_uris": {"ios": "https://dc.lft.to/lastmile_qr_scan", "android": "https://dc.lft.to/lastmile_qr_scan"}, "lon": -77.02681316666667, "type": "electric_scooter", "fusion_lat": 0.0, "lat": 38.901639833333334, "name": "1688ac797925b23d5ce8367c3e169cbd", "fusion_lon": 0.0, "bike_id": "1688ac797925b23d5ce8367c3e169cbd", "is_disabled": 0, "is_reserved": 0}, {"rental_uris": {"ios": "https://dc.lft.to/lastmile_qr_scan", "android": "https://dc.lft.to/lastmile_qr_scan"}, "lon": -77.03463316666667, "type": "electric_scooter", "fusion_lat": 0.0, "lat": 38.9181735, "name": "a6dfa6448766f2505c6f1e6c1c750c9a", "fusion_lon": 0.0, "bike_id": "a6dfa6448766f2505c6f1e6c1c750c9a", "is_disabled": 0, "is_reserved": 0}, {"rental_uris": {"ios": "https://dc.lft.to/lastmile_qr_scan", "android": "https://dc.lft.to/lastmile_qr_scan"}, "lon": -77.09749083333334, "type": "electric_bike", "fusion_lat": 0.0, "lat": 38.858577333333336, "name": "9ebba0f5efebb80b7635ed310b352a27", "fusion_lon": 0.0, "bike_id": "9ebba0f5efebb80b7635ed310b352a27", "is_disabled": 0, "is_reserved": 0}, {"rental_uris": {"ios": "https://dc.lft.to/lastmile_qr_scan", "android": "https://dc.lft.to/lastmile_qr_scan"}, "lon": -77.0405025, "type": "electric_scooter", "fusion_lat": 0.0, "lat": 38.927163, "name": "56b38626d80430811030daf3f1f8050a", "fusion_lon": 0.0, "bike_id": "56b38626d80430811030daf3f1f8050a", "is_disabled": 0, "is_reserved": 0}, {"rental_uris": {"ios": "https://dc.lft.to/lastmile_qr_scan", "android": "https://dc.lft.to/lastmile_qr_scan"}, "lon": -77.0235585, "type": "electric_scooter", "fusion_lat": 0.0, "lat": 38.919932333333335, "name": "358e174d98e51e0c5d70125f687e8363", "fusion_lon": 0.0, "bike_id": "358e174d98e51e0c5d70125f687e8363", "is_disabled": 0, "is_reserved": 0}, {"rental_uris": {"ios": "https://dc.lft.to/lastmile_qr_scan", "android": "https://dc.lft.to/lastmile_qr_scan"}, "lon": -77.027949, "type": "electric_scooter", "fusion_lat": 0.0, "lat": 38.9296985, "name": "992d5e5f160c7448d0cf7945bccde0a9", "fusion_lon": 0.0, "bike_id": "992d5e5f160c7448d0cf7945bccde0a9", "is_disabled": 0, "is_reserved": 0}, {"rental_uris": {"ios": "https://dc.lft.to/lastmile_qr_scan", "android": "https://dc.lft.to/lastmile_qr_scan"}, "lon": -77.0346515, "type": "electric_scooter", "fusion_lat": 0.0, "lat": 38.914458, "name": "d9923e2dcd555908ab480494d25cb936", "fusion_lon": 0.0, "bike_id": "d9923e2dcd555908ab480494d25cb936", "is_disabled": 0, "is_reserved": 0}, {"rental_uris": {"ios": "https://dc.lft.to/lastmile_qr_scan", "android": "https://dc.lft.to/lastmile_qr_scan"}, "lon": -77.04574483333333, "type": "electric_scooter", "fusion_lat": 0.0, "lat": 38.9086875, "name": "a10f8b7aee3fef18f72e914ed7f0e0fc", "fusion_lon": 0.0, "bike_id": "a10f8b7aee3fef18f72e914ed7f0e0fc", "is_disabled": 0, "is_reserved": 0}, {"rental_uris": {"ios": "https://dc.lft.to/lastmile_qr_scan", "android": "https://dc.lft.to/lastmile_qr_scan"}, "lon": -77.00561133333333, "type": "electric_scooter", "fusion_lat": 0.0, "lat": 38.90563683333333, "name": "38e22b2f495cfd4c971820396ebabb22", "fusion_lon": 0.0, "bike_id": "38e22b2f495cfd4c971820396ebabb22", "is_disabled": 0, "is_reserved": 0}, {"rental_uris": {"ios": "https://dc.lft.to/lastmile_qr_scan", "android": "https://dc.lft.to/lastmile_qr_scan"}, "lon": -77.09866916666667, "type": "electric_bike", "fusion_lat": 0.0, "lat": 38.853756833333335, "name": "43383e866cdb378534797b2aeca353d6", "fusion_lon": 0.0, "bike_id": "43383e866cdb378534797b2aeca353d6", "is_disabled": 0, "is_reserved": 0}, {"rental_uris": {"ios": "https://dc.lft.to/lastmile_qr_scan", "android": "https://dc.lft.to/lastmile_qr_scan"}, "lon": -77.036755, "type": "electric_scooter", "fusion_lat": 0.0, "lat": 38.91819366666667, "name": "75bab2a0acf05d9190e9bb0070b3e0ba", "fusion_lon": 0.0, "bike_id": "75bab2a0acf05d9190e9bb0070b3e0ba", "is_disabled": 0, "is_reserved": 0}, {"rental_uris": {"ios": "https://dc.lft.to/lastmile_qr_scan", "android": "https://dc.lft.to/lastmile_qr_scan"}, "lon": -76.98004416666667, "type": "electric_bike", "fusion_lat": 0.0, "lat": 38.86279716666667, "name": "3b2b0242425664a6208df4e2c5344885", "fusion_lon": 0.0, "bike_id": "3b2b0242425664a6208df4e2c5344885", "is_disabled": 0, "is_reserved": 0}, {"rental_uris": {"ios": "https://dc.lft.to/lastmile_qr_scan", "android": "https://dc.lft.to/lastmile_qr_scan"}, "lon": -77.072392, "type": "electric_scooter", "fusion_lat": 0.0, "lat": 38.93398466666667, "name": "9dc0273e8509613604a32863928ce451", "fusion_lon": 0.0, "bike_id": "9dc0273e8509613604a32863928ce451", "is_disabled": 0, "is_reserved": 0}, {"rental_uris": {"ios": "https://dc.lft.to/lastmile_qr_scan", "android": "https://dc.lft.to/lastmile_qr_scan"}, "lon": -76.9310225, "type": "electric_scooter", "fusion_lat": 0.0, "lat": 38.901389333333334, "name": "3d0b55db0cd035448bddf5b701ab6672", "fusion_lon": 0.0, "bike_id": "3d0b55db0cd035448bddf5b701ab6672", "is_disabled": 0, "is_reserved": 0}, {"rental_uris": {"ios": "https://dc.lft.to/lastmile_qr_scan", "android": "https://dc.lft.to/lastmile_qr_scan"}, "lon": -77.0535585, "type": "electric_scooter", "fusion_lat": 0.0, "lat": 38.90274633333333, "name": "1a7dff73fd6a284deb2bc79eb810362f", "fusion_lon": 0.0, "bike_id": "1a7dff73fd6a284deb2bc79eb810362f", "is_disabled": 0, "is_reserved": 0}, {"rental_uris": {"ios": "https://dc.lft.to/lastmile_qr_scan", "android": "https://dc.lft.to/lastmile_qr_scan"}, "lon": -77.022042, "type": "electric_scooter", "fusion_lat": 0.0, "lat": 38.9142335, "name": "5cfcf44014ea07c968fce41007f0198e", "fusion_lon": 0.0, "bike_id": "5cfcf44014ea07c968fce41007f0198e", "is_disabled": 0, "is_reserved": 0}, {"rental_uris": {"ios": "https://dc.lft.to/lastmile_qr_scan", "android": "https://dc.lft.to/lastmile_qr_scan"}, "lon": -76.98554333333334, "type": "electric_scooter", "fusion_lat": 0.0, "lat": 38.897647166666665, "name": "2ee721bbf30cba223f461c71c33c0e9c", "fusion_lon": 0.0, "bike_id": "2ee721bbf30cba223f461c71c33c0e9c", "is_disabled": 0, "is_reserved": 0}, {"rental_uris": {"ios": "https://dc.lft.to/lastmile_qr_scan", "android": "https://dc.lft.to/lastmile_qr_scan"}, "lon": -77.0092915, "type": "electric_scooter", "fusion_lat": 0.0, "lat": 38.87197916666667, "name": "5ad3bec614e3ad2471ff73bee4652e27", "fusion_lon": 0.0, "bike_id": "5ad3bec614e3ad2471ff73bee4652e27", "is_disabled": 0, "is_reserved": 0}, {"rental_uris": {"ios": "https://dc.lft.to/lastmile_qr_scan", "android": "https://dc.lft.to/lastmile_qr_scan"}, "lon": -77.03960933333333, "type": "electric_scooter", "fusion_lat": 0.0, "lat": 38.90247166666666, "name": "551ea7015af8396c8fb0764bdfe263ad", "fusion_lon": 0.0, "bike_id": "551ea7015af8396c8fb0764bdfe263ad", "is_disabled": 0, "is_reserved": 0}, {"rental_uris": {"ios": "https://dc.lft.to/lastmile_qr_scan", "android": "https://dc.lft.to/lastmile_qr_scan"}, "lon": -77.00229383333334, "type": "electric_scooter", "fusion_lat": 0.0, "lat": 38.908437166666666, "name": "614fe9008a779ba7c189a93108ddd885", "fusion_lon": 0.0, "bike_id": "614fe9008a779ba7c189a93108ddd885", "is_disabled": 0, "is_reserved": 0}, {"rental_uris": {"ios": "https://dc.lft.to/lastmile_qr_scan", "android": "https://dc.lft.to/lastmile_qr_scan"}, "lon": -77.02435233333334, "type": "electric_bike", "fusion_lat": 0.0, "lat": 38.994249, "name": "a723cdbcb349511efe849e74e9de30bc", "fusion_lon": 0.0, "bike_id": "a723cdbcb349511efe849e74e9de30bc", "is_disabled": 0, "is_reserved": 0}, {"rental_uris": {"ios": "https://dc.lft.to/lastmile_qr_scan", "android": "https://dc.lft.to/lastmile_qr_scan"}, "lon": -77.06364383333333, "type": "electric_scooter", "fusion_lat": 0.0, "lat": 38.909332166666665, "name": "efbdcbd5f8de7ecea48fab6a817f7199", "fusion_lon": 0.0, "bike_id": "efbdcbd5f8de7ecea48fab6a817f7199", "is_disabled": 0, "is_reserved": 0}, {"rental_uris": {"ios": "https://dc.lft.to/lastmile_qr_scan", "android": "https://dc.lft.to/lastmile_qr_scan"}, "lon": -77.04117966666666, "type": "electric_scooter", "fusion_lat": 0.0, "lat": 38.9219975, "name": "d73e3a9cae1a0c54a80e888971f55c12", "fusion_lon": 0.0, "bike_id": "d73e3a9cae1a0c54a80e888971f55c12", "is_disabled": 0, "is_reserved": 0}, {"rental_uris": {"ios": "https://dc.lft.to/lastmile_qr_scan", "android": "https://dc.lft.to/lastmile_qr_scan"}, "lon": -77.06890216666666, "type": "electric_scooter", "fusion_lat": 0.0, "lat": 38.940249, "name": "8dc5ddf53503fceabccbe9066308f897", "fusion_lon": 0.0, "bike_id": "8dc5ddf53503fceabccbe9066308f897", "is_disabled": 0, "is_reserved": 0}, {"rental_uris": {"ios": "https://dc.lft.to/lastmile_qr_scan", "android": "https://dc.lft.to/lastmile_qr_scan"}, "lon": -77.07042916666667, "type": "electric_bike", "fusion_lat": 0.0, "lat": 38.824457333333335, "name": "345e9c05aa5dab4067436ef36fa3f893", "fusion_lon": 0.0, "bike_id": "345e9c05aa5dab4067436ef36fa3f893", "is_disabled": 0, "is_reserved": 0}, {"rental_uris": {"ios": "https://dc.lft.to/lastmile_qr_scan", "android": "https://dc.lft.to/lastmile_qr_scan"}, "lon": -76.9881985, "type": "electric_scooter", "fusion_lat": 0.0, "lat": 38.8358165, "name": "62e92b14d549bb5be2d3b3a1edfd3b54", "fusion_lon": 0.0, "bike_id": "62e92b14d549bb5be2d3b3a1edfd3b54", "is_disabled": 0, "is_reserved": 0}, {"rental_uris": {"ios": "https://dc.lft.to/lastmile_qr_scan", "android": "https://dc.lft.to/lastmile_qr_scan"}, "lon": -77.01630416666667, "type": "electric_scooter", "fusion_lat": 0.0, "lat": 38.903713333333336, "name": "0d6fd63df18a825434dc4846b123482e", "fusion_lon": 0.0, "bike_id": "0d6fd63df18a825434dc4846b123482e", "is_disabled": 0, "is_reserved": 0}, {"rental_uris": {"ios": "https://dc.lft.to/lastmile_qr_scan", "android": "https://dc.lft.to/lastmile_qr_scan"}, "lon": -76.91600566666666, "type": "electric_bike", "fusion_lat": 0.0, "lat": 38.879800333333336, "name": "8e2c42feaf5bab81eb065bba55986411", "fusion_lon": 0.0, "bike_id": "8e2c42feaf5bab81eb065bba55986411", "is_disabled": 0, "is_reserved": 0}, {"rental_uris": {"ios": "https://dc.lft.to/lastmile_qr_scan", "android": "https://dc.lft.to/lastmile_qr_scan"}, "lon": -77.040568, "type": "electric_scooter", "fusion_lat": 0.0, "lat": 38.92648066666667, "name": "1d8cdafb9274ad7c5cd49c8cfd103587", "fusion_lon": 0.0, "bike_id": "1d8cdafb9274ad7c5cd49c8cfd103587", "is_disabled": 0, "is_reserved": 0}, {"rental_uris": {"ios": "https://dc.lft.to/lastmile_qr_scan", "android": "https://dc.lft.to/lastmile_qr_scan"}, "lon": -76.98506583333334, "type": "electric_scooter", "fusion_lat": 0.0, "lat": 38.900878, "name": "ee1a7022194ddaf6864b9a9d86a43b8d", "fusion_lon": 0.0, "bike_id": "ee1a7022194ddaf6864b9a9d86a43b8d", "is_disabled": 0, "is_reserved": 0}, {"rental_uris": {"ios": "https://dc.lft.to/lastmile_qr_scan", "android": "https://dc.lft.to/lastmile_qr_scan"}, "lon": -77.00766466666667, "type": "electric_scooter", "fusion_lat": 0.0, "lat": 38.91021933333333, "name": "ea968893cb07e3c6d6991fcdbc24218f", "fusion_lon": 0.0, "bike_id": "ea968893cb07e3c6d6991fcdbc24218f", "is_disabled": 0, "is_reserved": 0}, {"rental_uris": {"ios": "https://dc.lft.to/lastmile_qr_scan", "android": "https://dc.lft.to/lastmile_qr_scan"}, "lon": -77.054162, "type": "electric_scooter", "fusion_lat": 0.0, "lat": 38.90400233333333, "name": "c65cd3a81d928ee9fe94de18c0c2bc7e", "fusion_lon": 0.0, "bike_id": "c65cd3a81d928ee9fe94de18c0c2bc7e", "is_disabled": 0, "is_reserved": 0}, {"rental_uris": {"ios": "https://dc.lft.to/lastmile_qr_scan", "android": "https://dc.lft.to/lastmile_qr_scan"}, "lon": -76.99070216666667, "type": "electric_scooter", "fusion_lat": 0.0, "lat": 38.904158, "name": "72d4f154d0cb2c731b6c18adb35c242a", "fusion_lon": 0.0, "bike_id": "72d4f154d0cb2c731b6c18adb35c242a", "is_disabled": 0, "is_reserved": 0}, {"rental_uris": {"ios": "https://dc.lft.to/lastmile_qr_scan", "android": "https://dc.lft.to/lastmile_qr_scan"}, "lon": -77.09159983333333, "type": "electric_bike", "fusion_lat": 0.0, "lat": 38.96760783333333, "name": "bd2642d0a6058cc43934e3b7b17f8129", "fusion_lon": 0.0, "bike_id": "bd2642d0a6058cc43934e3b7b17f8129", "is_disabled": 0, "is_reserved": 0}, {"rental_uris": {"ios": "https://dc.lft.to/lastmile_qr_scan", "android": "https://dc.lft.to/lastmile_qr_scan"}, "lon": -77.025903, "type": "electric_scooter", "fusion_lat": 0.0, "lat": 38.91555266666667, "name": "cd0d39c900f29c233460644d8123f365", "fusion_lon": 0.0, "bike_id": "cd0d39c900f29c233460644d8123f365", "is_disabled": 0, "is_reserved": 0}, {"rental_uris": {"ios": "https://dc.lft.to/lastmile_qr_scan", "android": "https://dc.lft.to/lastmile_qr_scan"}, "lon": -77.01982883333334, "type": "electric_bike", "fusion_lat": 0.0, "lat": 38.956608, "name": "161f5cf4109a3eee862664ff2fd1b8f5", "fusion_lon": 0.0, "bike_id": "161f5cf4109a3eee862664ff2fd1b8f5", "is_disabled": 0, "is_reserved": 0}, {"rental_uris": {"ios": "https://dc.lft.to/lastmile_qr_scan", "android": "https://dc.lft.to/lastmile_qr_scan"}, "lon": -77.043703, "type": "electric_scooter", "fusion_lat": 0.0, "lat": 38.920632, "name": "186f4de9cea61780d1d0574516dc006e", "fusion_lon": 0.0, "bike_id": "186f4de9cea61780d1d0574516dc006e", "is_disabled": 0, "is_reserved": 0}, {"rental_uris": {"ios": "https://dc.lft.to/lastmile_qr_scan", "android": "https://dc.lft.to/lastmile_qr_scan"}, "lon": -77.13090966666667, "type": "electric_bike", "fusion_lat": 0.0, "lat": 38.861592333333334, "name": "15120d100f68f88451f0eaf2a1a517ed", "fusion_lon": 0.0, "bike_id": "15120d100f68f88451f0eaf2a1a517ed", "is_disabled": 0, "is_reserved": 0}, {"rental_uris": {"ios": "https://dc.lft.to/lastmile_qr_scan", "android": "https://dc.lft.to/lastmile_qr_scan"}, "lon": -77.02328683333333, "type": "electric_scooter", "fusion_lat": 0.0, "lat": 38.88338916666667, "name": "971e232779acbedfde425aede0dccfde", "fusion_lon": 0.0, "bike_id": "971e232779acbedfde425aede0dccfde", "is_disabled": 0, "is_reserved": 0}, {"rental_uris": {"ios": "https://dc.lft.to/lastmile_qr_scan", "android": "https://dc.lft.to/lastmile_qr_scan"}, "lon": -77.02511416666667, "type": "electric_bike", "fusion_lat": 0.0, "lat": 38.93415683333333, "name": "a892e1682ee474c6d0b6f8efbe4deea0", "fusion_lon": 0.0, "bike_id": "a892e1682ee474c6d0b6f8efbe4deea0", "is_disabled": 0, "is_reserved": 0}, {"rental_uris": {"ios": "https://dc.lft.to/lastmile_qr_scan", "android": "https://dc.lft.to/lastmile_qr_scan"}, "lon": -77.03447766666666, "type": "electric_scooter", "fusion_lat": 0.0, "lat": 38.91159483333333, "name": "5034047359f67e6182d0629bb34d750d", "fusion_lon": 0.0, "bike_id": "5034047359f67e6182d0629bb34d750d", "is_disabled": 0, "is_reserved": 0}, {"rental_uris": {"ios": "https://dc.lft.to/lastmile_qr_scan", "android": "https://dc.lft.to/lastmile_qr_scan"}, "lon": -77.02224583333333, "type": "electric_scooter", "fusion_lat": 0.0, "lat": 38.91268516666667, "name": "e8a34ce086ada711dddb332747d1ece7", "fusion_lon": 0.0, "bike_id": "e8a34ce086ada711dddb332747d1ece7", "is_disabled": 0, "is_reserved": 0}, {"rental_uris": {"ios": "https://dc.lft.to/lastmile_qr_scan", "android": "https://dc.lft.to/lastmile_qr_scan"}, "lon": -77.04895416666666, "type": "electric_scooter", "fusion_lat": 0.0, "lat": 38.896654, "name": "436f737b7abc7da2926a275ff24de86a", "fusion_lon": 0.0, "bike_id": "436f737b7abc7da2926a275ff24de86a", "is_disabled": 0, "is_reserved": 0}, {"rental_uris": {"ios": "https://dc.lft.to/lastmile_qr_scan", "android": "https://dc.lft.to/lastmile_qr_scan"}, "lon": -77.03516333333333, "type": "electric_scooter", "fusion_lat": 0.0, "lat": 38.9003555, "name": "ddfd1ec91812d91c90681fb66f34e267", "fusion_lon": 0.0, "bike_id": "ddfd1ec91812d91c90681fb66f34e267", "is_disabled": 0, "is_reserved": 0}, {"rental_uris": {"ios": "https://dc.lft.to/lastmile_qr_scan", "android": "https://dc.lft.to/lastmile_qr_scan"}, "lon": -77.03468866666667, "type": "electric_scooter", "fusion_lat": 0.0, "lat": 38.917075833333335, "name": "6c772fb2fb8b7777b197ba716e154199", "fusion_lon": 0.0, "bike_id": "6c772fb2fb8b7777b197ba716e154199", "is_disabled": 0, "is_reserved": 0}, {"rental_uris": {"ios": "https://dc.lft.to/lastmile_qr_scan", "android": "https://dc.lft.to/lastmile_qr_scan"}, "lon": -77.0243, "type": "electric_scooter", "fusion_lat": 0.0, "lat": 38.9071115, "name": "1f28162b46289c293d31dc5e99e36d54", "fusion_lon": 0.0, "bike_id": "1f28162b46289c293d31dc5e99e36d54", "is_disabled": 0, "is_reserved": 0}, {"rental_uris": {"ios": "https://dc.lft.to/lastmile_qr_scan", "android": "https://dc.lft.to/lastmile_qr_scan"}, "lon": -77.032818, "type": "electric_scooter", "fusion_lat": 0.0, "lat": 38.94165533333333, "name": "f930ddc34da6e2e1fa7bdc1212c84b5d", "fusion_lon": 0.0, "bike_id": "f930ddc34da6e2e1fa7bdc1212c84b5d", "is_disabled": 0, "is_reserved": 0}, {"rental_uris": {"ios": "https://dc.lft.to/lastmile_qr_scan", "android": "https://dc.lft.to/lastmile_qr_scan"}, "lon": -76.97698066666666, "type": "electric_scooter", "fusion_lat": 0.0, "lat": 38.89709716666667, "name": "01f9b1d62bc781d8e11519886cffd895", "fusion_lon": 0.0, "bike_id": "01f9b1d62bc781d8e11519886cffd895", "is_disabled": 0, "is_reserved": 0}, {"rental_uris": {"ios": "https://dc.lft.to/lastmile_qr_scan", "android": "https://dc.lft.to/lastmile_qr_scan"}, "lon": -77.00971666666666, "type": "electric_scooter", "fusion_lat": 0.0, "lat": 38.91414783333333, "name": "ce97ead54e3565988b88fce11edf0e3a", "fusion_lon": 0.0, "bike_id": "ce97ead54e3565988b88fce11edf0e3a", "is_disabled": 0, "is_reserved": 0}, {"rental_uris": {"ios": "https://dc.lft.to/lastmile_qr_scan", "android": "https://dc.lft.to/lastmile_qr_scan"}, "lon": -77.12732583333333, "type": "electric_bike", "fusion_lat": 0.0, "lat": 38.895597, "name": "eb5d4bf6297b7f3589fd8f849b1284e9", "fusion_lon": 0.0, "bike_id": "eb5d4bf6297b7f3589fd8f849b1284e9", "is_disabled": 0, "is_reserved": 0}, {"rental_uris": {"ios": "https://dc.lft.to/lastmile_qr_scan", "android": "https://dc.lft.to/lastmile_qr_scan"}, "lon": -76.94857733333333, "type": "electric_scooter", "fusion_lat": 0.0, "lat": 38.895935333333334, "name": "42c4516330fc4f137e610cd2fcc00f46", "fusion_lon": 0.0, "bike_id": "42c4516330fc4f137e610cd2fcc00f46", "is_disabled": 0, "is_reserved": 0}, {"rental_uris": {"ios": "https://dc.lft.to/lastmile_qr_scan", "android": "https://dc.lft.to/lastmile_qr_scan"}, "lon": -77.02807666666666, "type": "electric_scooter", "fusion_lat": 0.0, "lat": 38.9106795, "name": "f0e5383c480490c34cecc80e18faadf0", "fusion_lon": 0.0, "bike_id": "f0e5383c480490c34cecc80e18faadf0", "is_disabled": 0, "is_reserved": 0}, {"rental_uris": {"ios": "https://dc.lft.to/lastmile_qr_scan", "android": "https://dc.lft.to/lastmile_qr_scan"}, "lon": -77.01070133333333, "type": "electric_bike", "fusion_lat": 0.0, "lat": 38.919127, "name": "2afc5d1356369425af66cfcca83147a0", "fusion_lon": 0.0, "bike_id": "2afc5d1356369425af66cfcca83147a0", "is_disabled": 0, "is_reserved": 0}, {"rental_uris": {"ios": "https://dc.lft.to/lastmile_qr_scan", "android": "https://dc.lft.to/lastmile_qr_scan"}, "lon": -77.02716183333334, "type": "electric_scooter", "fusion_lat": 0.0, "lat": 38.9068245, "name": "44891561eb31e3f3344d9c96c8ea5353", "fusion_lon": 0.0, "bike_id": "44891561eb31e3f3344d9c96c8ea5353", "is_disabled": 0, "is_reserved": 0}, {"rental_uris": {"ios": "https://dc.lft.to/lastmile_qr_scan", "android": "https://dc.lft.to/lastmile_qr_scan"}, "lon": -76.916501, "type": "electric_bike", "fusion_lat": 0.0, "lat": 38.868541666666665, "name": "232edde92b077c5653be70912d049b08", "fusion_lon": 0.0, "bike_id": "232edde92b077c5653be70912d049b08", "is_disabled": 0, "is_reserved": 0}, {"rental_uris": {"ios": "https://dc.lft.to/lastmile_qr_scan", "android": "https://dc.lft.to/lastmile_qr_scan"}, "lon": -77.027142, "type": "electric_scooter", "fusion_lat": 0.0, "lat": 38.9090375, "name": "7be4f9b9bfa3b0df28be19db4f36cb2c", "fusion_lon": 0.0, "bike_id": "7be4f9b9bfa3b0df28be19db4f36cb2c", "is_disabled": 0, "is_reserved": 0}, {"rental_uris": {"ios": "https://dc.lft.to/lastmile_qr_scan", "android": "https://dc.lft.to/lastmile_qr_scan"}, "lon": -76.990019, "type": "electric_scooter", "fusion_lat": 0.0, "lat": 38.903911666666666, "name": "d88625074c7489daad8722aaf181657f", "fusion_lon": 0.0, "bike_id": "d88625074c7489daad8722aaf181657f", "is_disabled": 0, "is_reserved": 0}, {"rental_uris": {"ios": "https://dc.lft.to/lastmile_qr_scan", "android": "https://dc.lft.to/lastmile_qr_scan"}, "lon": -77.01064966666667, "type": "electric_scooter", "fusion_lat": 0.0, "lat": 38.874741666666665, "name": "b71df6ce5c493e27d190b38a2c30e8d8", "fusion_lon": 0.0, "bike_id": "b71df6ce5c493e27d190b38a2c30e8d8", "is_disabled": 0, "is_reserved": 0}, {"rental_uris": {"ios": "https://dc.lft.to/lastmile_qr_scan", "android": "https://dc.lft.to/lastmile_qr_scan"}, "lon": -77.03381333333333, "type": "electric_scooter", "fusion_lat": 0.0, "lat": 38.899529, "name": "1e640a9e0be47b6e14b0279373537948", "fusion_lon": 0.0, "bike_id": "1e640a9e0be47b6e14b0279373537948", "is_disabled": 0, "is_reserved": 0}, {"rental_uris": {"ios": "https://dc.lft.to/lastmile_qr_scan", "android": "https://dc.lft.to/lastmile_qr_scan"}, "lon": -76.9798415, "type": "electric_bike", "fusion_lat": 0.0, "lat": 38.877532, "name": "ec8dc89bb8995711dbe1c3c6035a2c62", "fusion_lon": 0.0, "bike_id": "ec8dc89bb8995711dbe1c3c6035a2c62", "is_disabled": 0, "is_reserved": 0}, {"rental_uris": {"ios": "https://dc.lft.to/lastmile_qr_scan", "android": "https://dc.lft.to/lastmile_qr_scan"}, "lon": -77.36099183333333, "type": "electric_bike", "fusion_lat": 0.0, "lat": 38.93955233333333, "name": "ea63f00c6e9be7b23b6664d7e334adda", "fusion_lon": 0.0, "bike_id": "ea63f00c6e9be7b23b6664d7e334adda", "is_disabled": 0, "is_reserved": 0}, {"rental_uris": {"ios": "https://dc.lft.to/lastmile_qr_scan", "android": "https://dc.lft.to/lastmile_qr_scan"}, "lon": -77.0150375, "type": "electric_scooter", "fusion_lat": 0.0, "lat": 38.901904, "name": "734a34363b6331953782d99c9c85291b", "fusion_lon": 0.0, "bike_id": "734a34363b6331953782d99c9c85291b", "is_disabled": 0, "is_reserved": 0}, {"rental_uris": {"ios": "https://dc.lft.to/lastmile_qr_scan", "android": "https://dc.lft.to/lastmile_qr_scan"}, "lon": -77.00199383333333, "type": "electric_bike", "fusion_lat": 0.0, "lat": 38.941496666666666, "name": "3dd52564f5ecb3367939c2ad8e368a07", "fusion_lon": 0.0, "bike_id": "3dd52564f5ecb3367939c2ad8e368a07", "is_disabled": 0, "is_reserved": 0}, {"rental_uris": {"ios": "https://dc.lft.to/lastmile_qr_scan", "android": "https://dc.lft.to/lastmile_qr_scan"}, "lon": -77.027238, "type": "electric_scooter", "fusion_lat": 0.0, "lat": 38.909692, "name": "3132835d32dcc32f4cbd50180493e263", "fusion_lon": 0.0, "bike_id": "3132835d32dcc32f4cbd50180493e263", "is_disabled": 0, "is_reserved": 0}, {"rental_uris": {"ios": "https://dc.lft.to/lastmile_qr_scan", "android": "https://dc.lft.to/lastmile_qr_scan"}, "lon": -77.03199266666667, "type": "electric_scooter", "fusion_lat": 0.0, "lat": 38.914605, "name": "33c390b08aa0483b56499d5ad27e9879", "fusion_lon": 0.0, "bike_id": "33c390b08aa0483b56499d5ad27e9879", "is_disabled": 0, "is_reserved": 0}, {"rental_uris": {"ios": "https://dc.lft.to/lastmile_qr_scan", "android": "https://dc.lft.to/lastmile_qr_scan"}, "lon": -77.0329555, "type": "electric_scooter", "fusion_lat": 0.0, "lat": 38.922118, "name": "8017712901399ce8fbb1f24ec2fd42fc", "fusion_lon": 0.0, "bike_id": "8017712901399ce8fbb1f24ec2fd42fc", "is_disabled": 0, "is_reserved": 0}, {"rental_uris": {"ios": "https://dc.lft.to/lastmile_qr_scan", "android": "https://dc.lft.to/lastmile_qr_scan"}, "lon": -77.04101416666667, "type": "electric_scooter", "fusion_lat": 0.0, "lat": 38.917768833333334, "name": "00f2f0e7c391ca15c6863807bc071592", "fusion_lon": 0.0, "bike_id": "00f2f0e7c391ca15c6863807bc071592", "is_disabled": 0, "is_reserved": 0}, {"rental_uris": {"ios": "https://dc.lft.to/lastmile_qr_scan", "android": "https://dc.lft.to/lastmile_qr_scan"}, "lon": -77.0209095, "type": "electric_scooter", "fusion_lat": 0.0, "lat": 38.91009866666667, "name": "79624e1c68cf116add75e42eb3143137", "fusion_lon": 0.0, "bike_id": "79624e1c68cf116add75e42eb3143137", "is_disabled": 0, "is_reserved": 0}, {"rental_uris": {"ios": "https://dc.lft.to/lastmile_qr_scan", "android": "https://dc.lft.to/lastmile_qr_scan"}, "lon": -77.05341683333333, "type": "electric_scooter", "fusion_lat": 0.0, "lat": 38.900153, "name": "8fbf9dbc37c6c49372fa49b6c3f42487", "fusion_lon": 0.0, "bike_id": "8fbf9dbc37c6c49372fa49b6c3f42487", "is_disabled": 0, "is_reserved": 0}, {"rental_uris": {"ios": "https://dc.lft.to/lastmile_qr_scan", "android": "https://dc.lft.to/lastmile_qr_scan"}, "lon": -77.0295555, "type": "electric_scooter", "fusion_lat": 0.0, "lat": 38.91626933333333, "name": "0e43a113495cde7ef525a88ef15f6921", "fusion_lon": 0.0, "bike_id": "0e43a113495cde7ef525a88ef15f6921", "is_disabled": 0, "is_reserved": 0}, {"rental_uris": {"ios": "https://dc.lft.to/lastmile_qr_scan", "android": "https://dc.lft.to/lastmile_qr_scan"}, "lon": -76.990358, "type": "electric_scooter", "fusion_lat": 0.0, "lat": 38.858722666666665, "name": "5ee7f0190064a57ac3246d2890ee33d6", "fusion_lon": 0.0, "bike_id": "5ee7f0190064a57ac3246d2890ee33d6", "is_disabled": 0, "is_reserved": 0}, {"rental_uris": {"ios": "https://dc.lft.to/lastmile_qr_scan", "android": "https://dc.lft.to/lastmile_qr_scan"}, "lon": -77.0091675, "type": "electric_scooter", "fusion_lat": 0.0, "lat": 38.91236383333333, "name": "92770f6bf7181004567763e2f75ba006", "fusion_lon": 0.0, "bike_id": "92770f6bf7181004567763e2f75ba006", "is_disabled": 0, "is_reserved": 0}, {"rental_uris": {"ios": "https://dc.lft.to/lastmile_qr_scan", "android": "https://dc.lft.to/lastmile_qr_scan"}, "lon": -77.043855, "type": "electric_scooter", "fusion_lat": 0.0, "lat": 38.922735333333335, "name": "be63d9eee0a53c6c9eb5d258b44bf6ec", "fusion_lon": 0.0, "bike_id": "be63d9eee0a53c6c9eb5d258b44bf6ec", "is_disabled": 0, "is_reserved": 0}, {"rental_uris": {"ios": "https://dc.lft.to/lastmile_qr_scan", "android": "https://dc.lft.to/lastmile_qr_scan"}, "lon": -76.97609433333334, "type": "electric_bike", "fusion_lat": 0.0, "lat": 38.9131065, "name": "0c24bf550b794fbc92e7220451586969", "fusion_lon": 0.0, "bike_id": "0c24bf550b794fbc92e7220451586969", "is_disabled": 0, "is_reserved": 0}, {"rental_uris": {"ios": "https://dc.lft.to/lastmile_qr_scan", "android": "https://dc.lft.to/lastmile_qr_scan"}, "lon": -77.0660935, "type": "electric_bike", "fusion_lat": 0.0, "lat": 38.91122816666667, "name": "d2ddb62fbf2f57b71e8303d5c42c5db6", "fusion_lon": 0.0, "bike_id": "d2ddb62fbf2f57b71e8303d5c42c5db6", "is_disabled": 0, "is_reserved": 0}, {"rental_uris": {"ios": "https://dc.lft.to/lastmile_qr_scan", "android": "https://dc.lft.to/lastmile_qr_scan"}, "lon": -77.09356533333333, "type": "electric_bike", "fusion_lat": 0.0, "lat": 38.806524, "name": "25d1c7ab0b1ce1943b8e17a8170c1107", "fusion_lon": 0.0, "bike_id": "25d1c7ab0b1ce1943b8e17a8170c1107", "is_disabled": 0, "is_reserved": 0}, {"rental_uris": {"ios": "https://dc.lft.to/lastmile_qr_scan", "android": "https://dc.lft.to/lastmile_qr_scan"}, "lon": -77.02853233333333, "type": "electric_scooter", "fusion_lat": 0.0, "lat": 38.923706833333334, "name": "df9a4fbefd1bdb70c5704a5f600d69b7", "fusion_lon": 0.0, "bike_id": "df9a4fbefd1bdb70c5704a5f600d69b7", "is_disabled": 0, "is_reserved": 0}, {"rental_uris": {"ios": "https://dc.lft.to/lastmile_qr_scan", "android": "https://dc.lft.to/lastmile_qr_scan"}, "lon": -77.0470685, "type": "electric_scooter", "fusion_lat": 0.0, "lat": 38.908626, "name": "ef9b49cc118fca3b0cd636b6311fbe59", "fusion_lon": 0.0, "bike_id": "ef9b49cc118fca3b0cd636b6311fbe59", "is_disabled": 0, "is_reserved": 0}, {"rental_uris": {"ios": "https://dc.lft.to/lastmile_qr_scan", "android": "https://dc.lft.to/lastmile_qr_scan"}, "lon": -77.06693633333333, "type": "electric_scooter", "fusion_lat": 0.0, "lat": 38.909765, "name": "f4d3cf387a1fdab046674c6d4f2f353d", "fusion_lon": 0.0, "bike_id": "f4d3cf387a1fdab046674c6d4f2f353d", "is_disabled": 0, "is_reserved": 0}, {"rental_uris": {"ios": "https://dc.lft.to/lastmile_qr_scan", "android": "https://dc.lft.to/lastmile_qr_scan"}, "lon": -77.035071, "type": "electric_scooter", "fusion_lat": 0.0, "lat": 38.92343416666667, "name": "f8f7f1ca957978e037cc98ec88c668e4", "fusion_lon": 0.0, "bike_id": "f8f7f1ca957978e037cc98ec88c668e4", "is_disabled": 0, "is_reserved": 0}, {"rental_uris": {"ios": "https://dc.lft.to/lastmile_qr_scan", "android": "https://dc.lft.to/lastmile_qr_scan"}, "lon": -77.03959083333334, "type": "electric_scooter", "fusion_lat": 0.0, "lat": 38.916367, "name": "c7ca78a9cbc08ce1a5df8ce179a1b12e", "fusion_lon": 0.0, "bike_id": "c7ca78a9cbc08ce1a5df8ce179a1b12e", "is_disabled": 0, "is_reserved": 0}, {"rental_uris": {"ios": "https://dc.lft.to/lastmile_qr_scan", "android": "https://dc.lft.to/lastmile_qr_scan"}, "lon": -77.02961083333334, "type": "electric_scooter", "fusion_lat": 0.0, "lat": 38.9051585, "name": "364acdf863ad440179ca1cd040b9fa5f", "fusion_lon": 0.0, "bike_id": "364acdf863ad440179ca1cd040b9fa5f", "is_disabled": 0, "is_reserved": 0}, {"rental_uris": {"ios": "https://dc.lft.to/lastmile_qr_scan", "android": "https://dc.lft.to/lastmile_qr_scan"}, "lon": -77.02751383333333, "type": "electric_scooter", "fusion_lat": 0.0, "lat": 38.9238345, "name": "21d9b17e8d644a06c5eb5ec33646ba5d", "fusion_lon": 0.0, "bike_id": "21d9b17e8d644a06c5eb5ec33646ba5d", "is_disabled": 0, "is_reserved": 0}, {"rental_uris": {"ios": "https://dc.lft.to/lastmile_qr_scan", "android": "https://dc.lft.to/lastmile_qr_scan"}, "lon": -77.0175565, "type": "electric_scooter", "fusion_lat": 0.0, "lat": 38.876884833333335, "name": "25993aca765b9ee9ea39bf91b3c4d8c9", "fusion_lon": 0.0, "bike_id": "25993aca765b9ee9ea39bf91b3c4d8c9", "is_disabled": 0, "is_reserved": 0}, {"rental_uris": {"ios": "https://dc.lft.to/lastmile_qr_scan", "android": "https://dc.lft.to/lastmile_qr_scan"}, "lon": -76.9881835, "type": "electric_scooter", "fusion_lat": 0.0, "lat": 38.90334583333333, "name": "fb31baee9f70f5e3b980a255ce1ceb3c", "fusion_lon": 0.0, "bike_id": "fb31baee9f70f5e3b980a255ce1ceb3c", "is_disabled": 0, "is_reserved": 0}, {"rental_uris": {"ios": "https://dc.lft.to/lastmile_qr_scan", "android": "https://dc.lft.to/lastmile_qr_scan"}, "lon": -77.05324016666667, "type": "electric_scooter", "fusion_lat": 0.0, "lat": 38.93965516666667, "name": "d9dd5a25c3902c7744507b35f29028f3", "fusion_lon": 0.0, "bike_id": "d9dd5a25c3902c7744507b35f29028f3", "is_disabled": 0, "is_reserved": 0}, {"rental_uris": {"ios": "https://dc.lft.to/lastmile_qr_scan", "android": "https://dc.lft.to/lastmile_qr_scan"}, "lon": -77.01179566666667, "type": "electric_scooter", "fusion_lat": 0.0, "lat": 38.9065585, "name": "fc6ec7c0f99274f8eb671e613928dc9a", "fusion_lon": 0.0, "bike_id": "fc6ec7c0f99274f8eb671e613928dc9a", "is_disabled": 0, "is_reserved": 0}, {"rental_uris": {"ios": "https://dc.lft.to/lastmile_qr_scan", "android": "https://dc.lft.to/lastmile_qr_scan"}, "lon": -77.03842416666667, "type": "electric_scooter", "fusion_lat": 0.0, "lat": 38.910503166666665, "name": "c6a88cbef09077285a7916c8708ba33e", "fusion_lon": 0.0, "bike_id": "c6a88cbef09077285a7916c8708ba33e", "is_disabled": 0, "is_reserved": 0}, {"rental_uris": {"ios": "https://dc.lft.to/lastmile_qr_scan", "android": "https://dc.lft.to/lastmile_qr_scan"}, "lon": -76.93301966666667, "type": "electric_scooter", "fusion_lat": 0.0, "lat": 38.898910666666666, "name": "f724f24ab06b3f728fa17bca65815d46", "fusion_lon": 0.0, "bike_id": "f724f24ab06b3f728fa17bca65815d46", "is_disabled": 0, "is_reserved": 0}, {"rental_uris": {"ios": "https://dc.lft.to/lastmile_qr_scan", "android": "https://dc.lft.to/lastmile_qr_scan"}, "lon": -77.09553916666667, "type": "electric_scooter", "fusion_lat": 0.0, "lat": 38.9165765, "name": "d09c08166e3625dba79b85b6a39dac18", "fusion_lon": 0.0, "bike_id": "d09c08166e3625dba79b85b6a39dac18", "is_disabled": 0, "is_reserved": 0}, {"rental_uris": {"ios": "https://dc.lft.to/lastmile_qr_scan", "android": "https://dc.lft.to/lastmile_qr_scan"}, "lon": -77.01223116666667, "type": "electric_scooter", "fusion_lat": 0.0, "lat": 38.909795833333334, "name": "b75caf6a017760644e4cf0d916d8523e", "fusion_lon": 0.0, "bike_id": "b75caf6a017760644e4cf0d916d8523e", "is_disabled": 0, "is_reserved": 0}, {"rental_uris": {"ios": "https://dc.lft.to/lastmile_qr_scan", "android": "https://dc.lft.to/lastmile_qr_scan"}, "lon": -76.9859015, "type": "electric_scooter", "fusion_lat": 0.0, "lat": 38.9065435, "name": "142d2a5fed1b5a54fcb81ddde3988690", "fusion_lon": 0.0, "bike_id": "142d2a5fed1b5a54fcb81ddde3988690", "is_disabled": 0, "is_reserved": 0}, {"rental_uris": {"ios": "https://dc.lft.to/lastmile_qr_scan", "android": "https://dc.lft.to/lastmile_qr_scan"}, "lon": -77.02712766666667, "type": "electric_scooter", "fusion_lat": 0.0, "lat": 38.924674333333336, "name": "c94f2b12bffb2cc157063c8b9e0f3c2e", "fusion_lon": 0.0, "bike_id": "c94f2b12bffb2cc157063c8b9e0f3c2e", "is_disabled": 0, "is_reserved": 0}, {"rental_uris": {"ios": "https://dc.lft.to/lastmile_qr_scan", "android": "https://dc.lft.to/lastmile_qr_scan"}, "lon": -76.9950705, "type": "electric_bike", "fusion_lat": 0.0, "lat": 38.89986183333333, "name": "c1a0d2c4b59f49b7733355e6179e32bd", "fusion_lon": 0.0, "bike_id": "c1a0d2c4b59f49b7733355e6179e32bd", "is_disabled": 0, "is_reserved": 0}, {"rental_uris": {"ios": "https://dc.lft.to/lastmile_qr_scan", "android": "https://dc.lft.to/lastmile_qr_scan"}, "lon": -77.04783916666666, "type": "electric_scooter", "fusion_lat": 0.0, "lat": 38.90849733333334, "name": "c0606350bea61c3e84f453a46b9154d8", "fusion_lon": 0.0, "bike_id": "c0606350bea61c3e84f453a46b9154d8", "is_disabled": 0, "is_reserved": 0}, {"rental_uris": {"ios": "https://dc.lft.to/lastmile_qr_scan", "android": "https://dc.lft.to/lastmile_qr_scan"}, "lon": -77.03115866666667, "type": "electric_scooter", "fusion_lat": 0.0, "lat": 38.913340833333336, "name": "9b9727620e679eed07f2294d8c00cbdc", "fusion_lon": 0.0, "bike_id": "9b9727620e679eed07f2294d8c00cbdc", "is_disabled": 0, "is_reserved": 0}, {"rental_uris": {"ios": "https://dc.lft.to/lastmile_qr_scan", "android": "https://dc.lft.to/lastmile_qr_scan"}, "lon": -76.97628133333333, "type": "electric_scooter", "fusion_lat": 0.0, "lat": 38.90573466666667, "name": "0766207cc3395b0b7f2ccd42d211a1b2", "fusion_lon": 0.0, "bike_id": "0766207cc3395b0b7f2ccd42d211a1b2", "is_disabled": 0, "is_reserved": 0}, {"rental_uris": {"ios": "https://dc.lft.to/lastmile_qr_scan", "android": "https://dc.lft.to/lastmile_qr_scan"}, "lon": -77.06274016666667, "type": "electric_scooter", "fusion_lat": 0.0, "lat": 38.905861333333334, "name": "5e32dd9972feab844ab911c9221bfe16", "fusion_lon": 0.0, "bike_id": "5e32dd9972feab844ab911c9221bfe16", "is_disabled": 0, "is_reserved": 0}, {"rental_uris": {"ios": "https://dc.lft.to/lastmile_qr_scan", "android": "https://dc.lft.to/lastmile_qr_scan"}, "lon": -77.052678, "type": "electric_scooter", "fusion_lat": 0.0, "lat": 38.9240555, "name": "f9227ee0aff71a04a87aaa17cd5d9fa2", "fusion_lon": 0.0, "bike_id": "f9227ee0aff71a04a87aaa17cd5d9fa2", "is_disabled": 0, "is_reserved": 0}, {"rental_uris": {"ios": "https://dc.lft.to/lastmile_qr_scan", "android": "https://dc.lft.to/lastmile_qr_scan"}, "lon": -77.05884216666666, "type": "electric_scooter", "fusion_lat": 0.0, "lat": 38.936315, "name": "b935ea74954de9b8cff42be5910a77f3", "fusion_lon": 0.0, "bike_id": "b935ea74954de9b8cff42be5910a77f3", "is_disabled": 0, "is_reserved": 0}, {"rental_uris": {"ios": "https://dc.lft.to/lastmile_qr_scan", "android": "https://dc.lft.to/lastmile_qr_scan"}, "lon": -77.00219466666667, "type": "electric_scooter", "fusion_lat": 0.0, "lat": 38.911831, "name": "aacd1eac124b173900cf80701335080c", "fusion_lon": 0.0, "bike_id": "aacd1eac124b173900cf80701335080c", "is_disabled": 0, "is_reserved": 0}, {"rental_uris": {"ios": "https://dc.lft.to/lastmile_qr_scan", "android": "https://dc.lft.to/lastmile_qr_scan"}, "lon": -77.0019935, "type": "electric_bike", "fusion_lat": 0.0, "lat": 38.88309116666667, "name": "a5a2247af826b0560a7bebf33916421c", "fusion_lon": 0.0, "bike_id": "a5a2247af826b0560a7bebf33916421c", "is_disabled": 0, "is_reserved": 0}, {"rental_uris": {"ios": "https://dc.lft.to/lastmile_qr_scan", "android": "https://dc.lft.to/lastmile_qr_scan"}, "lon": -76.98308216666666, "type": "electric_scooter", "fusion_lat": 0.0, "lat": 38.86889, "name": "79b85c3da5ebe5411321e0e87c09ea11", "fusion_lon": 0.0, "bike_id": "79b85c3da5ebe5411321e0e87c09ea11", "is_disabled": 0, "is_reserved": 0}, {"rental_uris": {"ios": "https://dc.lft.to/lastmile_qr_scan", "android": "https://dc.lft.to/lastmile_qr_scan"}, "lon": -76.98679566666667, "type": "electric_scooter", "fusion_lat": 0.0, "lat": 38.882174, "name": "a2e08a0af3b82032af164e9d305338aa", "fusion_lon": 0.0, "bike_id": "a2e08a0af3b82032af164e9d305338aa", "is_disabled": 0, "is_reserved": 0}, {"rental_uris": {"ios": "https://dc.lft.to/lastmile_qr_scan", "android": "https://dc.lft.to/lastmile_qr_scan"}, "lon": -77.04225016666666, "type": "electric_scooter", "fusion_lat": 0.0, "lat": 38.921101166666666, "name": "cf6af93a72a7b51f8027bb5a37fc2669", "fusion_lon": 0.0, "bike_id": "cf6af93a72a7b51f8027bb5a37fc2669", "is_disabled": 0, "is_reserved": 0}, {"rental_uris": {"ios": "https://dc.lft.to/lastmile_qr_scan", "android": "https://dc.lft.to/lastmile_qr_scan"}, "lon": -77.02395083333333, "type": "electric_scooter", "fusion_lat": 0.0, "lat": 38.93769066666667, "name": "b94c48facbe7e78c184659c193b88e90", "fusion_lon": 0.0, "bike_id": "b94c48facbe7e78c184659c193b88e90", "is_disabled": 0, "is_reserved": 0}, {"rental_uris": {"ios": "https://dc.lft.to/lastmile_qr_scan", "android": "https://dc.lft.to/lastmile_qr_scan"}, "lon": -77.0487215, "type": "electric_scooter", "fusion_lat": 0.0, "lat": 38.906448166666664, "name": "25f1987bb54e28a1efa9df451b51e11e", "fusion_lon": 0.0, "bike_id": "25f1987bb54e28a1efa9df451b51e11e", "is_disabled": 0, "is_reserved": 0}, {"rental_uris": {"ios": "https://dc.lft.to/lastmile_qr_scan", "android": "https://dc.lft.to/lastmile_qr_scan"}, "lon": -77.0014135, "type": "electric_scooter", "fusion_lat": 0.0, "lat": 38.91915566666667, "name": "a3adaa36ce7e72a6a35b4ff8dc0ccfae", "fusion_lon": 0.0, "bike_id": "a3adaa36ce7e72a6a35b4ff8dc0ccfae", "is_disabled": 0, "is_reserved": 0}, {"rental_uris": {"ios": "https://dc.lft.to/lastmile_qr_scan", "android": "https://dc.lft.to/lastmile_qr_scan"}, "lon": -76.99386683333333, "type": "electric_scooter", "fusion_lat": 0.0, "lat": 38.887447, "name": "4f1f109030aab2483a635c339a84939b", "fusion_lon": 0.0, "bike_id": "4f1f109030aab2483a635c339a84939b", "is_disabled": 0, "is_reserved": 0}, {"rental_uris": {"ios": "https://dc.lft.to/lastmile_qr_scan", "android": "https://dc.lft.to/lastmile_qr_scan"}, "lon": -76.94417866666667, "type": "electric_scooter", "fusion_lat": 0.0, "lat": 38.8979565, "name": "3097458da703b60ee54bf25567e60a10", "fusion_lon": 0.0, "bike_id": "3097458da703b60ee54bf25567e60a10", "is_disabled": 0, "is_reserved": 0}, {"rental_uris": {"ios": "https://dc.lft.to/lastmile_qr_scan", "android": "https://dc.lft.to/lastmile_qr_scan"}, "lon": -76.98352566666667, "type": "electric_scooter", "fusion_lat": 0.0, "lat": 38.915242666666664, "name": "5e85272d3654d549c38ed30c13909702", "fusion_lon": 0.0, "bike_id": "5e85272d3654d549c38ed30c13909702", "is_disabled": 0, "is_reserved": 0}, {"rental_uris": {"ios": "https://dc.lft.to/lastmile_qr_scan", "android": "https://dc.lft.to/lastmile_qr_scan"}, "lon": -77.03444683333333, "type": "electric_scooter", "fusion_lat": 0.0, "lat": 38.918788166666666, "name": "9f3e10dc47da84657e9a914a76a67ae1", "fusion_lon": 0.0, "bike_id": "9f3e10dc47da84657e9a914a76a67ae1", "is_disabled": 0, "is_reserved": 0}, {"rental_uris": {"ios": "https://dc.lft.to/lastmile_qr_scan", "android": "https://dc.lft.to/lastmile_qr_scan"}, "lon": -77.03133, "type": "electric_scooter", "fusion_lat": 0.0, "lat": 38.923798833333336, "name": "d08cf9a8306baa72477f2d6c4c28bf20", "fusion_lon": 0.0, "bike_id": "d08cf9a8306baa72477f2d6c4c28bf20", "is_disabled": 0, "is_reserved": 0}, {"rental_uris": {"ios": "https://dc.lft.to/lastmile_qr_scan", "android": "https://dc.lft.to/lastmile_qr_scan"}, "lon": -77.06491983333333, "type": "electric_bike", "fusion_lat": 0.0, "lat": 38.9649595, "name": "13ea530a571dd0e5da8b0bac8ad67650", "fusion_lon": 0.0, "bike_id": "13ea530a571dd0e5da8b0bac8ad67650", "is_disabled": 0, "is_reserved": 0}, {"rental_uris": {"ios": "https://dc.lft.to/lastmile_qr_scan", "android": "https://dc.lft.to/lastmile_qr_scan"}, "lon": -77.02607883333333, "type": "electric_scooter", "fusion_lat": 0.0, "lat": 38.920354, "name": "28ce802639bb50560217b5c728ad53d9", "fusion_lon": 0.0, "bike_id": "28ce802639bb50560217b5c728ad53d9", "is_disabled": 0, "is_reserved": 0}, {"rental_uris": {"ios": "https://dc.lft.to/lastmile_qr_scan", "android": "https://dc.lft.to/lastmile_qr_scan"}, "lon": -77.041481, "type": "electric_scooter", "fusion_lat": 0.0, "lat": 38.92298483333333, "name": "99faa96f2bf9309f59c4f41490818ffa", "fusion_lon": 0.0, "bike_id": "99faa96f2bf9309f59c4f41490818ffa", "is_disabled": 0, "is_reserved": 0}, {"rental_uris": {"ios": "https://dc.lft.to/lastmile_qr_scan", "android": "https://dc.lft.to/lastmile_qr_scan"}, "lon": -77.03468616666666, "type": "electric_scooter", "fusion_lat": 0.0, "lat": 38.9077675, "name": "da17fc99e8c5519f0a0af9ad692ab0e3", "fusion_lon": 0.0, "bike_id": "da17fc99e8c5519f0a0af9ad692ab0e3", "is_disabled": 0, "is_reserved": 0}, {"rental_uris": {"ios": "https://dc.lft.to/lastmile_qr_scan", "android": "https://dc.lft.to/lastmile_qr_scan"}, "lon": -77.04241733333333, "type": "electric_scooter", "fusion_lat": 0.0, "lat": 38.921527, "name": "643ce55765ff69502789d34f4234c9fc", "fusion_lon": 0.0, "bike_id": "643ce55765ff69502789d34f4234c9fc", "is_disabled": 0, "is_reserved": 0}, {"rental_uris": {"ios": "https://dc.lft.to/lastmile_qr_scan", "android": "https://dc.lft.to/lastmile_qr_scan"}, "lon": -77.002077, "type": "electric_scooter", "fusion_lat": 0.0, "lat": 38.90061866666667, "name": "44e1379c057ccd1a934aa1875d44d48a", "fusion_lon": 0.0, "bike_id": "44e1379c057ccd1a934aa1875d44d48a", "is_disabled": 0, "is_reserved": 0}, {"rental_uris": {"ios": "https://dc.lft.to/lastmile_qr_scan", "android": "https://dc.lft.to/lastmile_qr_scan"}, "lon": -77.03236583333333, "type": "electric_scooter", "fusion_lat": 0.0, "lat": 38.912695, "name": "c1a158f6f697d5c0c6e2cab196c894f2", "fusion_lon": 0.0, "bike_id": "c1a158f6f697d5c0c6e2cab196c894f2", "is_disabled": 0, "is_reserved": 0}, {"rental_uris": {"ios": "https://dc.lft.to/lastmile_qr_scan", "android": "https://dc.lft.to/lastmile_qr_scan"}, "lon": -77.03351483333333, "type": "electric_scooter", "fusion_lat": 0.0, "lat": 38.93507683333333, "name": "c1b31941786ae460a187af843bb17898", "fusion_lon": 0.0, "bike_id": "c1b31941786ae460a187af843bb17898", "is_disabled": 0, "is_reserved": 0}, {"rental_uris": {"ios": "https://dc.lft.to/lastmile_qr_scan", "android": "https://dc.lft.to/lastmile_qr_scan"}, "lon": -76.9900035, "type": "electric_scooter", "fusion_lat": 0.0, "lat": 38.865015666666665, "name": "f4681f2da02b36f1fb6c0c7d79bf7cde", "fusion_lon": 0.0, "bike_id": "f4681f2da02b36f1fb6c0c7d79bf7cde", "is_disabled": 0, "is_reserved": 0}, {"rental_uris": {"ios": "https://dc.lft.to/lastmile_qr_scan", "android": "https://dc.lft.to/lastmile_qr_scan"}, "lon": -77.061136, "type": "electric_scooter", "fusion_lat": 0.0, "lat": 38.912941833333335, "name": "b422d6326a46122cab8a4cf5a8c15e1e", "fusion_lon": 0.0, "bike_id": "b422d6326a46122cab8a4cf5a8c15e1e", "is_disabled": 0, "is_reserved": 0}, {"rental_uris": {"ios": "https://dc.lft.to/lastmile_qr_scan", "android": "https://dc.lft.to/lastmile_qr_scan"}, "lon": -77.026974, "type": "electric_scooter", "fusion_lat": 0.0, "lat": 38.9157675, "name": "e46c2cb23c2a70891db388c38bd4e0d4", "fusion_lon": 0.0, "bike_id": "e46c2cb23c2a70891db388c38bd4e0d4", "is_disabled": 0, "is_reserved": 0}, {"rental_uris": {"ios": "https://dc.lft.to/lastmile_qr_scan", "android": "https://dc.lft.to/lastmile_qr_scan"}, "lon": -77.027089, "type": "electric_scooter", "fusion_lat": 0.0, "lat": 38.899231666666665, "name": "0b4a8706ad34cce70d8f845d64081cde", "fusion_lon": 0.0, "bike_id": "0b4a8706ad34cce70d8f845d64081cde", "is_disabled": 0, "is_reserved": 0}, {"rental_uris": {"ios": "https://dc.lft.to/lastmile_qr_scan", "android": "https://dc.lft.to/lastmile_qr_scan"}, "lon": -77.00223566666666, "type": "electric_bike", "fusion_lat": 0.0, "lat": 38.82378466666667, "name": "6e18e1ca3a7a5ded1a617279e36d7edc", "fusion_lon": 0.0, "bike_id": "6e18e1ca3a7a5ded1a617279e36d7edc", "is_disabled": 0, "is_reserved": 0}, {"rental_uris": {"ios": "https://dc.lft.to/lastmile_qr_scan", "android": "https://dc.lft.to/lastmile_qr_scan"}, "lon": -77.04696383333334, "type": "electric_scooter", "fusion_lat": 0.0, "lat": 38.9178775, "name": "2a740f7f81cb5812dcf81200b2007595", "fusion_lon": 0.0, "bike_id": "2a740f7f81cb5812dcf81200b2007595", "is_disabled": 0, "is_reserved": 0}, {"rental_uris": {"ios": "https://dc.lft.to/lastmile_qr_scan", "android": "https://dc.lft.to/lastmile_qr_scan"}, "lon": -76.97667666666666, "type": "electric_bike", "fusion_lat": 0.0, "lat": 38.966225333333334, "name": "74e2a736d0e979a2a3ac4ab967ce8660", "fusion_lon": 0.0, "bike_id": "74e2a736d0e979a2a3ac4ab967ce8660", "is_disabled": 0, "is_reserved": 0}, {"rental_uris": {"ios": "https://dc.lft.to/lastmile_qr_scan", "android": "https://dc.lft.to/lastmile_qr_scan"}, "lon": -77.08064816666666, "type": "electric_scooter", "fusion_lat": 0.0, "lat": 38.95912416666667, "name": "01803fd6337c591d524432a00aba1929", "fusion_lon": 0.0, "bike_id": "01803fd6337c591d524432a00aba1929", "is_disabled": 0, "is_reserved": 0}, {"rental_uris": {"ios": "https://dc.lft.to/lastmile_qr_scan", "android": "https://dc.lft.to/lastmile_qr_scan"}, "lon": -77.01787366666667, "type": "electric_scooter", "fusion_lat": 0.0, "lat": 38.90825266666667, "name": "7ef690391e553d0abb721391e6e51c46", "fusion_lon": 0.0, "bike_id": "7ef690391e553d0abb721391e6e51c46", "is_disabled": 0, "is_reserved": 0}, {"rental_uris": {"ios": "https://dc.lft.to/lastmile_qr_scan", "android": "https://dc.lft.to/lastmile_qr_scan"}, "lon": -77.0321115, "type": "electric_scooter", "fusion_lat": 0.0, "lat": 38.937577, "name": "21cb54cf579f7c45860b5c6fa90045e2", "fusion_lon": 0.0, "bike_id": "21cb54cf579f7c45860b5c6fa90045e2", "is_disabled": 0, "is_reserved": 0}, {"rental_uris": {"ios": "https://dc.lft.to/lastmile_qr_scan", "android": "https://dc.lft.to/lastmile_qr_scan"}, "lon": -77.01098416666666, "type": "electric_scooter", "fusion_lat": 0.0, "lat": 38.895233, "name": "dd0819156f1581206f2e2253986cb8e0", "fusion_lon": 0.0, "bike_id": "dd0819156f1581206f2e2253986cb8e0", "is_disabled": 0, "is_reserved": 0}, {"rental_uris": {"ios": "https://dc.lft.to/lastmile_qr_scan", "android": "https://dc.lft.to/lastmile_qr_scan"}, "lon": -77.02000416666667, "type": "electric_scooter", "fusion_lat": 0.0, "lat": 38.905516666666664, "name": "05ecadbf8ad3e5e99faeaab5f696db5a", "fusion_lon": 0.0, "bike_id": "05ecadbf8ad3e5e99faeaab5f696db5a", "is_disabled": 0, "is_reserved": 0}, {"rental_uris": {"ios": "https://dc.lft.to/lastmile_qr_scan", "android": "https://dc.lft.to/lastmile_qr_scan"}, "lon": -76.946512, "type": "electric_scooter", "fusion_lat": 0.0, "lat": 38.898248333333335, "name": "b3ad7b128a2e803559a45acdc1eeb76a", "fusion_lon": 0.0, "bike_id": "b3ad7b128a2e803559a45acdc1eeb76a", "is_disabled": 0, "is_reserved": 0}, {"rental_uris": {"ios": "https://dc.lft.to/lastmile_qr_scan", "android": "https://dc.lft.to/lastmile_qr_scan"}, "lon": -77.0340935, "type": "electric_scooter", "fusion_lat": 0.0, "lat": 38.9231605, "name": "729ce3556d9d51ac559a3bfe100bd2fc", "fusion_lon": 0.0, "bike_id": "729ce3556d9d51ac559a3bfe100bd2fc", "is_disabled": 0, "is_reserved": 0}, {"rental_uris": {"ios": "https://dc.lft.to/lastmile_qr_scan", "android": "https://dc.lft.to/lastmile_qr_scan"}, "lon": -77.03376816666666, "type": "electric_scooter", "fusion_lat": 0.0, "lat": 38.906263333333335, "name": "1b153a13c18bfa7fd9b4708bec881c99", "fusion_lon": 0.0, "bike_id": "1b153a13c18bfa7fd9b4708bec881c99", "is_disabled": 0, "is_reserved": 0}, {"rental_uris": {"ios": "https://dc.lft.to/lastmile_qr_scan", "android": "https://dc.lft.to/lastmile_qr_scan"}, "lon": -77.0794115, "type": "electric_bike", "fusion_lat": 0.0, "lat": 38.89366533333333, "name": "1b4e5a78b3891f6b2470294bea90e1c2", "fusion_lon": 0.0, "bike_id": "1b4e5a78b3891f6b2470294bea90e1c2", "is_disabled": 0, "is_reserved": 0}, {"rental_uris": {"ios": "https://dc.lft.to/lastmile_qr_scan", "android": "https://dc.lft.to/lastmile_qr_scan"}, "lon": -77.04449383333333, "type": "electric_scooter", "fusion_lat": 0.0, "lat": 38.91877816666667, "name": "713c3ffa1c7fb02c871839ac5668fdbf", "fusion_lon": 0.0, "bike_id": "713c3ffa1c7fb02c871839ac5668fdbf", "is_disabled": 0, "is_reserved": 0}, {"rental_uris": {"ios": "https://dc.lft.to/lastmile_qr_scan", "android": "https://dc.lft.to/lastmile_qr_scan"}, "lon": -77.03435916666666, "type": "electric_scooter", "fusion_lat": 0.0, "lat": 38.90726216666667, "name": "e607f37f71f8cb26c6a4b336b8119678", "fusion_lon": 0.0, "bike_id": "e607f37f71f8cb26c6a4b336b8119678", "is_disabled": 0, "is_reserved": 0}, {"rental_uris": {"ios": "https://dc.lft.to/lastmile_qr_scan", "android": "https://dc.lft.to/lastmile_qr_scan"}, "lon": -77.0269635, "type": "electric_scooter", "fusion_lat": 0.0, "lat": 38.9497695, "name": "cca059696f07ad023035d92736ca5a64", "fusion_lon": 0.0, "bike_id": "cca059696f07ad023035d92736ca5a64", "is_disabled": 0, "is_reserved": 0}, {"rental_uris": {"ios": "https://dc.lft.to/lastmile_qr_scan", "android": "https://dc.lft.to/lastmile_qr_scan"}, "lon": -77.03963666666667, "type": "electric_scooter", "fusion_lat": 0.0, "lat": 38.91975883333333, "name": "58c57bca840d6875c4838066206350ef", "fusion_lon": 0.0, "bike_id": "58c57bca840d6875c4838066206350ef", "is_disabled": 0, "is_reserved": 0}, {"rental_uris": {"ios": "https://dc.lft.to/lastmile_qr_scan", "android": "https://dc.lft.to/lastmile_qr_scan"}, "lon": -77.03202333333333, "type": "electric_scooter", "fusion_lat": 0.0, "lat": 38.9257205, "name": "c76f6855124aecce08e3fdd7ecea0d98", "fusion_lon": 0.0, "bike_id": "c76f6855124aecce08e3fdd7ecea0d98", "is_disabled": 0, "is_reserved": 0}, {"rental_uris": {"ios": "https://dc.lft.to/lastmile_qr_scan", "android": "https://dc.lft.to/lastmile_qr_scan"},