{"data": {"bikes": [{"name": "4c58828e3350ad66d9ebdb463c945a42", "fusion_lon": 0.0, "lat": 38.91027, "is_reserved": 0, "type": "electric_scooter", "bike_id": "4c58828e3350ad66d9ebdb463c945a42", "is_disabled": 0, "rental_uris": {"android": "https://dc.lft.to/lastmile_qr_scan", "ios": "https://dc.lft.to/lastmile_qr_scan"}, "lon": -77.00756033333333, "fusion_lat": 0.0}, {"name": "562f5904ca0af4ae6977fc75f46f3ba6", "fusion_lon": 0.0, "lat": 38.9016215, "is_reserved": 0, "type": "electric_scooter", "bike_id": "562f5904ca0af4ae6977fc75f46f3ba6", "is_disabled": 0, "rental_uris": {"android": "https://dc.lft.to/lastmile_qr_scan", "ios": "https://dc.lft.to/lastmile_qr_scan"}, "lon": -77.01594233333333, "fusion_lat": 0.0}, {"name": "e477a73c075efc1216d47e5e132bc505", "fusion_lon": 0.0, "lat": 38.920482, "is_reserved": 0, "type": "electric_scooter", "bike_id": "e477a73c075efc1216d47e5e132bc505", "is_disabled": 0, "rental_uris": {"android": "https://dc.lft.to/lastmile_qr_scan", "ios": "https://dc.lft.to/lastmile_qr_scan"}, "lon": -77.034151, "fusion_lat": 0.0}, {"name": "d20482b554fccf3a1ac245b9cf314912", "fusion_lon": 0.0, "lat": 38.91134016666667, "is_reserved": 0, "type": "electric_scooter", "bike_id": "d20482b554fccf3a1ac245b9cf314912", "is_disabled": 0, "rental_uris": {"android": "https://dc.lft.to/lastmile_qr_scan", "ios": "https://dc.lft.to/lastmile_qr_scan"}, "lon": -77.02819416666667, "fusion_lat": 0.0}, {"name": "4e70fac19c07a67be7617472b077b3dc", "fusion_lon": 0.0, "lat": 38.863707833333336, "is_reserved": 0, "type": "electric_bike", "bike_id": "4e70fac19c07a67be7617472b077b3dc", "is_disabled": 0, "rental_uris": {"android": "https://dc.lft.to/lastmile_qr_scan", "ios": "https://dc.lft.to/lastmile_qr_scan"}, "lon": -76.97007816666667, "fusion_lat": 0.0}, {"name": "3d3b6b50cf1e8fe04eadfcce1a4f827f", "fusion_lon": 0.0, "lat": 38.8669495, "is_reserved": 0, "type": "electric_scooter", "bike_id": "3d3b6b50cf1e8fe04eadfcce1a4f827f", "is_disabled": 0, "rental_uris": {"android": "https://dc.lft.to/lastmile_qr_scan", "ios": "https://dc.lft.to/lastmile_qr_scan"}, "lon": -76.987074, "fusion_lat": 0.0}, {"name": "52ceaba67d34e88937e0e814e655bef3", "fusion_lon": 0.0, "lat": 38.908285166666666, "is_reserved": 0, "type": "electric_bike", "bike_id": "52ceaba67d34e88937e0e814e655bef3", "is_disabled": 0, "rental_uris": {"android": "https://dc.lft.to/lastmile_qr_scan", "ios": "https://dc.lft.to/lastmile_qr_scan"}, "lon": -76.9415425, "fusion_lat": 0.0}, {"name": "ca9cd1555471169cfaf0301cb90707f8", "fusion_lon": 0.0, "lat": 38.8806365, "is_reserved": 0, "type": "electric_scooter", "bike_id": "ca9cd1555471169cfaf0301cb90707f8", "is_disabled": 0, "rental_uris": {"android": "https://dc.lft.to/lastmile_qr_scan", "ios": "https://dc.lft.to/lastmile_qr_scan"}, "lon": -77.00565783333333, "fusion_lat": 0.0}, {"name": "b41159ffe4e7397bec108e440691a464", "fusion_lon": 0.0, "lat": 38.922413166666665, "is_reserved": 0, "type": "electric_scooter", "bike_id": "b41159ffe4e7397bec108e440691a464", "is_disabled": 0, "rental_uris": {"android": "https://dc.lft.to/lastmile_qr_scan", "ios": "https://dc.lft.to/lastmile_qr_scan"}, "lon": -77.03892183333333, "fusion_lat": 0.0}, {"name": "65e01758e80bdd24d7f441b3d7ae1f69", "fusion_lon": 0.0, "lat": 38.94157283333333, "is_reserved": 0, "type": "electric_bike", "bike_id": "65e01758e80bdd24d7f441b3d7ae1f69", "is_disabled": 0, "rental_uris": {"android": "https://dc.lft.to/lastmile_qr_scan", "ios": "https://dc.lft.to/lastmile_qr_scan"}, "lon": -77.00199733333334, "fusion_lat": 0.0}, {"name": "f56987e9949e7594521fccf6c435aaa8", "fusion_lon": 0.0, "lat": 38.90259416666667, "is_reserved": 0, "type": "electric_scooter", "bike_id": "f56987e9949e7594521fccf6c435aaa8", "is_disabled": 0, "rental_uris": {"android": "https://dc.lft.to/lastmile_qr_scan", "ios": "https://dc.lft.to/lastmile_qr_scan"}, "lon": -77.03407866666667, "fusion_lat": 0.0}, {"name": "4f4d54ecffb4fc48b27154e05d0c6652", "fusion_lon": 0.0, "lat": 38.91364316666667, "is_reserved": 0, "type": "electric_scooter", "bike_id": "4f4d54ecffb4fc48b27154e05d0c6652", "is_disabled": 0, "rental_uris": {"android": "https://dc.lft.to/lastmile_qr_scan", "ios": "https://dc.lft.to/lastmile_qr_scan"}, "lon": -77.04555283333333, "fusion_lat": 0.0}, {"name": "6e0925d67824d6e11644f52551c4d86c", "fusion_lon": 0.0, "lat": 38.897815333333334, "is_reserved": 0, "type": "electric_scooter", "bike_id": "6e0925d67824d6e11644f52551c4d86c", "is_disabled": 0, "rental_uris": {"android": "https://dc.lft.to/lastmile_qr_scan", "ios": "https://dc.lft.to/lastmile_qr_scan"}, "lon": -77.02700033333333, "fusion_lat": 0.0}, {"name": "124331039bb27583996a79355080f368", "fusion_lon": 0.0, "lat": 38.9210345, "is_reserved": 0, "type": "electric_scooter", "bike_id": "124331039bb27583996a79355080f368", "is_disabled": 0, "rental_uris": {"android": "https://dc.lft.to/lastmile_qr_scan", "ios": "https://dc.lft.to/lastmile_qr_scan"}, "lon": -77.024106, "fusion_lat": 0.0}, {"name": "0428b0abe2a122e3273086d772b295ab", "fusion_lon": 0.0, "lat": 38.904166833333335, "is_reserved": 0, "type": "electric_scooter", "bike_id": "0428b0abe2a122e3273086d772b295ab", "is_disabled": 0, "rental_uris": {"android": "https://dc.lft.to/lastmile_qr_scan", "ios": "https://dc.lft.to/lastmile_qr_scan"}, "lon": -77.03272766666667, "fusion_lat": 0.0}, {"name": "15fd29bebf850c4af635368197d3ce8e", "fusion_lon": 0.0, "lat": 38.91402316666667, "is_reserved": 0, "type": "electric_scooter", "bike_id": "15fd29bebf850c4af635368197d3ce8e", "is_disabled": 0, "rental_uris": {"android": "https://dc.lft.to/lastmile_qr_scan", "ios": "https://dc.lft.to/lastmile_qr_scan"}, "lon": -77.043663, "fusion_lat": 0.0}, {"name": "0bff660af575d89a47bb1d46413ad838", "fusion_lon": 0.0, "lat": 38.892197333333336, "is_reserved": 0, "type": "electric_scooter", "bike_id": "0bff660af575d89a47bb1d46413ad838", "is_disabled": 0, "rental_uris": {"android": "https://dc.lft.to/lastmile_qr_scan", "ios": "https://dc.lft.to/lastmile_qr_scan"}, "lon": -77.02226333333333, "fusion_lat": 0.0}, {"name": "31750d23f490585d8067fcedb9d9ceaf", "fusion_lon": 0.0, "lat": 38.91727433333333, "is_reserved": 0, "type": "electric_scooter", "bike_id": "31750d23f490585d8067fcedb9d9ceaf", "is_disabled": 0, "rental_uris": {"android": "https://dc.lft.to/lastmile_qr_scan", "ios": "https://dc.lft.to/lastmile_qr_scan"}, "lon": -77.03180466666667, "fusion_lat": 0.0}, {"name": "b78456b53599b6d815644a6dca6a9d9f", "fusion_lon": 0.0, "lat": 38.917277, "is_reserved": 0, "type": "electric_scooter", "bike_id": "b78456b53599b6d815644a6dca6a9d9f", "is_disabled": 0, "rental_uris": {"android": "https://dc.lft.to/lastmile_qr_scan", "ios": "https://dc.lft.to/lastmile_qr_scan"}, "lon": -77.02506716666667, "fusion_lat": 0.0}, {"name": "00ffcfcbe3ba1f9d5b82b625b7cac26d", "fusion_lon": 0.0, "lat": 38.92092066666667, "is_reserved": 0, "type": "electric_scooter", "bike_id": "00ffcfcbe3ba1f9d5b82b625b7cac26d", "is_disabled": 0, "rental_uris": {"android": "https://dc.lft.to/lastmile_qr_scan", "ios": "https://dc.lft.to/lastmile_qr_scan"}, "lon": -77.03164016666666, "fusion_lat": 0.0}, {"name": "e70ff1f29b4d56121d4aa5996a88f452", "fusion_lon": 0.0, "lat": 38.895626, "is_reserved": 0, "type": "electric_bike", "bike_id": "e70ff1f29b4d56121d4aa5996a88f452", "is_disabled": 0, "rental_uris": {"android": "https://dc.lft.to/lastmile_qr_scan", "ios": "https://dc.lft.to/lastmile_qr_scan"}, "lon": -77.12729833333333, "fusion_lat": 0.0}, {"name": "75a633b0c3063aecf4cb5e658826ad18", "fusion_lon": 0.0, "lat": 38.90716333333334, "is_reserved": 0, "type": "electric_scooter", "bike_id": "75a633b0c3063aecf4cb5e658826ad18", "is_disabled": 0, "rental_uris": {"android": "https://dc.lft.to/lastmile_qr_scan", "ios": "https://dc.lft.to/lastmile_qr_scan"}, "lon": -77.01480666666667, "fusion_lat": 0.0}, {"name": "ced53447d35c97387cf523d7432d1934", "fusion_lon": 0.0, "lat": 38.90073066666667, "is_reserved": 0, "type": "electric_scooter", "bike_id": "ced53447d35c97387cf523d7432d1934", "is_disabled": 0, "rental_uris": {"android": "https://dc.lft.to/lastmile_qr_scan", "ios": "https://dc.lft.to/lastmile_qr_scan"}, "lon": -77.048495, "fusion_lat": 0.0}, {"name": "8c6e027004c97226aec21c103774a4bd", "fusion_lon": 0.0, "lat": 38.89222216666667, "is_reserved": 0, "type": "electric_scooter", "bike_id": "8c6e027004c97226aec21c103774a4bd", "is_disabled": 0, "rental_uris": {"android": "https://dc.lft.to/lastmile_qr_scan", "ios": "https://dc.lft.to/lastmile_qr_scan"}, "lon": -77.03343033333333, "fusion_lat": 0.0}, {"name": "9b60fdc635f0f163f376889a8ae2f304", "fusion_lon": 0.0, "lat": 38.88501683333333, "is_reserved": 0, "type": "electric_scooter", "bike_id": "9b60fdc635f0f163f376889a8ae2f304", "is_disabled": 0, "rental_uris": {"android": "https://dc.lft.to/lastmile_qr_scan", "ios": "https://dc.lft.to/lastmile_qr_scan"}, "lon": -76.97707566666666, "fusion_lat": 0.0}, {"name": "59c7a8c2877b504ba861c0288d762eca", "fusion_lon": 0.0, "lat": 38.92319483333333, "is_reserved": 0, "type": "electric_scooter", "bike_id": "59c7a8c2877b504ba861c0288d762eca", "is_disabled": 0, "rental_uris": {"android": "https://dc.lft.to/lastmile_qr_scan", "ios": "https://dc.lft.to/lastmile_qr_scan"}, "lon": -77.0356515, "fusion_lat": 0.0}, {"name": "de672ba2fb449455be5b7026a3915c96", "fusion_lon": 0.0, "lat": 38.916412666666666, "is_reserved": 0, "type": "electric_scooter", "bike_id": "de672ba2fb449455be5b7026a3915c96", "is_disabled": 0, "rental_uris": {"android": "https://dc.lft.to/lastmile_qr_scan", "ios": "https://dc.lft.to/lastmile_qr_scan"}, "lon": -77.02283416666667, "fusion_lat": 0.0}, {"name": "55dbbe381cba463d265729d3c7aed395", "fusion_lon": 0.0, "lat": 38.934304166666664, "is_reserved": 0, "type": "electric_scooter", "bike_id": "55dbbe381cba463d265729d3c7aed395", "is_disabled": 0, "rental_uris": {"android": "https://dc.lft.to/lastmile_qr_scan", "ios": "https://dc.lft.to/lastmile_qr_scan"}, "lon": -77.04536916666666, "fusion_lat": 0.0}, {"name": "8e9779d0eb3b62672728b404a6a601ae", "fusion_lon": 0.0, "lat": 38.94203866666667, "is_reserved": 0, "type": "electric_scooter", "bike_id": "8e9779d0eb3b62672728b404a6a601ae", "is_disabled": 0, "rental_uris": {"android": "https://dc.lft.to/lastmile_qr_scan", "ios": "https://dc.lft.to/lastmile_qr_scan"}, "lon": -77.02513516666667, "fusion_lat": 0.0}, {"name": "5ee2867b1f9f1129eebc7560caa8904c", "fusion_lon": 0.0, "lat": 38.90312766666667, "is_reserved": 0, "type": "electric_scooter", "bike_id": "5ee2867b1f9f1129eebc7560caa8904c", "is_disabled": 0, "rental_uris": {"android": "https://dc.lft.to/lastmile_qr_scan", "ios": "https://dc.lft.to/lastmile_qr_scan"}, "lon": -77.022339, "fusion_lat": 0.0}, {"name": "92506527e0df8e726f243922e7341cc4", "fusion_lon": 0.0, "lat": 38.949933333333334, "is_reserved": 0, "type": "electric_scooter", "bike_id": "92506527e0df8e726f243922e7341cc4", "is_disabled": 0, "rental_uris": {"android": "https://dc.lft.to/lastmile_qr_scan", "ios": "https://dc.lft.to/lastmile_qr_scan"}, "lon": -77.03328266666666, "fusion_lat": 0.0}, {"name": "db67323b474f7e1258769ba6b7d18945", "fusion_lon": 0.0, "lat": 38.923811666666666, "is_reserved": 0, "type": "electric_scooter", "bike_id": "db67323b474f7e1258769ba6b7d18945", "is_disabled": 0, "rental_uris": {"android": "https://dc.lft.to/lastmile_qr_scan", "ios": "https://dc.lft.to/lastmile_qr_scan"}, "lon": -77.02061166666667, "fusion_lat": 0.0}, {"name": "380308c03387830de2362f5d8559c35e", "fusion_lon": 0.0, "lat": 38.90184433333334, "is_reserved": 0, "type": "electric_scooter", "bike_id": "380308c03387830de2362f5d8559c35e", "is_disabled": 0, "rental_uris": {"android": "https://dc.lft.to/lastmile_qr_scan", "ios": "https://dc.lft.to/lastmile_qr_scan"}, "lon": -76.98820466666666, "fusion_lat": 0.0}, {"name": "482ed384540ae21e563b870ad1be7a95", "fusion_lon": 0.0, "lat": 38.86639233333333, "is_reserved": 0, "type": "electric_scooter", "bike_id": "482ed384540ae21e563b870ad1be7a95", "is_disabled": 0, "rental_uris": {"android": "https://dc.lft.to/lastmile_qr_scan", "ios": "https://dc.lft.to/lastmile_qr_scan"}, "lon": -76.98262566666666, "fusion_lat": 0.0}, {"name": "4e989106c156892a17659211b0ac5dd3", "fusion_lon": 0.0, "lat": 38.9286675, "is_reserved": 0, "type": "electric_scooter", "bike_id": "4e989106c156892a17659211b0ac5dd3", "is_disabled": 0, "rental_uris": {"android": "https://dc.lft.to/lastmile_qr_scan", "ios": "https://dc.lft.to/lastmile_qr_scan"}, "lon": -77.03291733333333, "fusion_lat": 0.0}, {"name": "14eeabc5fe940c05620da413448c4b7c", "fusion_lon": 0.0, "lat": 38.903859833333335, "is_reserved": 0, "type": "electric_scooter", "bike_id": "14eeabc5fe940c05620da413448c4b7c", "is_disabled": 0, "rental_uris": {"android": "https://dc.lft.to/lastmile_qr_scan", "ios": "https://dc.lft.to/lastmile_qr_scan"}, "lon": -77.043103, "fusion_lat": 0.0}, {"name": "3130bc9e0450362a8084988d33276ea8", "fusion_lon": 0.0, "lat": 38.9059085, "is_reserved": 0, "type": "electric_scooter", "bike_id": "3130bc9e0450362a8084988d33276ea8", "is_disabled": 0, "rental_uris": {"android": "https://dc.lft.to/lastmile_qr_scan", "ios": "https://dc.lft.to/lastmile_qr_scan"}, "lon": -77.04111316666666, "fusion_lat": 0.0}, {"name": "03587395db014076c2586fd821da767e", "fusion_lon": 0.0, "lat": 38.91599183333334, "is_reserved": 0, "type": "electric_scooter", "bike_id": "03587395db014076c2586fd821da767e", "is_disabled": 0, "rental_uris": {"android": "https://dc.lft.to/lastmile_qr_scan", "ios": "https://dc.lft.to/lastmile_qr_scan"}, "lon": -76.98374583333333, "fusion_lat": 0.0}, {"name": "e7288d77b6d3308b2d7a0ef8dff775ee", "fusion_lon": 0.0, "lat": 38.8931985, "is_reserved": 0, "type": "electric_scooter", "bike_id": "e7288d77b6d3308b2d7a0ef8dff775ee", "is_disabled": 0, "rental_uris": {"android": "https://dc.lft.to/lastmile_qr_scan", "ios": "https://dc.lft.to/lastmile_qr_scan"}, "lon": -76.93968733333334, "fusion_lat": 0.0}, {"name": "17853b33f12a5965f6650b036e9eedbc", "fusion_lon": 0.0, "lat": 38.904462, "is_reserved": 0, "type": "electric_scooter", "bike_id": "17853b33f12a5965f6650b036e9eedbc", "is_disabled": 0, "rental_uris": {"android": "https://dc.lft.to/lastmile_qr_scan", "ios": "https://dc.lft.to/lastmile_qr_scan"}, "lon": -77.06289916666667, "fusion_lat": 0.0}, {"name": "b6cd6990941e030aa4a8aa0b73d51472", "fusion_lon": 0.0, "lat": 38.9341905, "is_reserved": 0, "type": "electric_scooter", "bike_id": "b6cd6990941e030aa4a8aa0b73d51472", "is_disabled": 0, "rental_uris": {"android": "https://dc.lft.to/lastmile_qr_scan", "ios": "https://dc.lft.to/lastmile_qr_scan"}, "lon": -77.04250716666667, "fusion_lat": 0.0}, {"name": "9279cd047141118d48f74fb4156fd3a7", "fusion_lon": 0.0, "lat": 38.9288015, "is_reserved": 0, "type": "electric_scooter", "bike_id": "9279cd047141118d48f74fb4156fd3a7", "is_disabled": 0, "rental_uris": {"android": "https://dc.lft.to/lastmile_qr_scan", "ios": "https://dc.lft.to/lastmile_qr_scan"}, "lon": -77.03299216666667, "fusion_lat": 0.0}, {"name": "6744bee4729d35469cc087607a5281a1", "fusion_lon": 0.0, "lat": 38.934131666666666, "is_reserved": 0, "type": "electric_bike", "bike_id": "6744bee4729d35469cc087607a5281a1", "is_disabled": 0, "rental_uris": {"android": "https://dc.lft.to/lastmile_qr_scan", "ios": "https://dc.lft.to/lastmile_qr_scan"}, "lon": -77.02898133333333, "fusion_lat": 0.0}, {"name": "fc4f21256eed45ec2ec18e9b2508fea0", "fusion_lon": 0.0, "lat": 38.9013805, "is_reserved": 0, "type": "electric_scooter", "bike_id": "fc4f21256eed45ec2ec18e9b2508fea0", "is_disabled": 0, "rental_uris": {"android": "https://dc.lft.to/lastmile_qr_scan", "ios": "https://dc.lft.to/lastmile_qr_scan"}, "lon": -77.01317966666667, "fusion_lat": 0.0}, {"name": "6494935469f212667a6a1d3747218126", "fusion_lon": 0.0, "lat": 38.928746, "is_reserved": 0, "type": "electric_scooter", "bike_id": "6494935469f212667a6a1d3747218126", "is_disabled": 0, "rental_uris": {"android": "https://dc.lft.to/lastmile_qr_scan", "ios": "https://dc.lft.to/lastmile_qr_scan"}, "lon": -77.0404325, "fusion_lat": 0.0}, {"name": "853635511032fd199f9fb1b2acc3c9f6", "fusion_lon": 0.0, "lat": 38.928652166666666, "is_reserved": 0, "type": "electric_scooter", "bike_id": "853635511032fd199f9fb1b2acc3c9f6", "is_disabled": 0, "rental_uris": {"android": "https://dc.lft.to/lastmile_qr_scan", "ios": "https://dc.lft.to/lastmile_qr_scan"}, "lon": -77.03192616666666, "fusion_lat": 0.0}, {"name": "3d9e3de0d81b1d69d0b3ec8a303b94ce", "fusion_lon": 0.0, "lat": 38.93450833333333, "is_reserved": 0, "type": "electric_scooter", "bike_id": "3d9e3de0d81b1d69d0b3ec8a303b94ce", "is_disabled": 0, "rental_uris": {"android": "https://dc.lft.to/lastmile_qr_scan", "ios": "https://dc.lft.to/lastmile_qr_scan"}, "lon": -77.02729683333334, "fusion_lat": 0.0}, {"name": "c0b615fa7165dc06ef621dc26d60ce2c", "fusion_lon": 0.0, "lat": 38.85069816666667, "is_reserved": 0, "type": "electric_scooter", "bike_id": "c0b615fa7165dc06ef621dc26d60ce2c", "is_disabled": 0, "rental_uris": {"android": "https://dc.lft.to/lastmile_qr_scan", "ios": "https://dc.lft.to/lastmile_qr_scan"}, "lon": -76.9701465, "fusion_lat": 0.0}, {"name": "1196822b8f7e502f0849e06cc42f7fcb", "fusion_lon": 0.0, "lat": 38.8861415, "is_reserved": 0, "type": "electric_scooter", "bike_id": "1196822b8f7e502f0849e06cc42f7fcb", "is_disabled": 0, "rental_uris": {"android": "https://dc.lft.to/lastmile_qr_scan", "ios": "https://dc.lft.to/lastmile_qr_scan"}, "lon": -76.995119, "fusion_lat": 0.0}, {"name": "99b29bd911858095767424ae855e6d2c", "fusion_lon": 0.0, "lat": 38.90861666666667, "is_reserved": 0, "type": "electric_scooter", "bike_id": "99b29bd911858095767424ae855e6d2c", "is_disabled": 0, "rental_uris": {"android": "https://dc.lft.to/lastmile_qr_scan", "ios": "https://dc.lft.to/lastmile_qr_scan"}, "lon": -77.02419016666667, "fusion_lat": 0.0}, {"name": "cfd2c66936d7c8d6be246c0d5b8c61c4", "fusion_lon": 0.0, "lat": 38.917950166666664, "is_reserved": 0, "type": "electric_scooter", "bike_id": "cfd2c66936d7c8d6be246c0d5b8c61c4", "is_disabled": 0, "rental_uris": {"android": "https://dc.lft.to/lastmile_qr_scan", "ios": "https://dc.lft.to/lastmile_qr_scan"}, "lon": -77.034366, "fusion_lat": 0.0}, {"name": "b4e1a91d51815bc2553ec72a413dc1d7", "fusion_lon": 0.0, "lat": 38.855181333333334, "is_reserved": 0, "type": "electric_bike", "bike_id": "b4e1a91d51815bc2553ec72a413dc1d7", "is_disabled": 0, "rental_uris": {"android": "https://dc.lft.to/lastmile_qr_scan", "ios": "https://dc.lft.to/lastmile_qr_scan"}, "lon": -77.11994083333333, "fusion_lat": 0.0}, {"name": "a20adb63084cd10e4fe0182c3f11fe47", "fusion_lon": 0.0, "lat": 38.9286805, "is_reserved": 0, "type": "electric_scooter", "bike_id": "a20adb63084cd10e4fe0182c3f11fe47", "is_disabled": 0, "rental_uris": {"android": "https://dc.lft.to/lastmile_qr_scan", "ios": "https://dc.lft.to/lastmile_qr_scan"}, "lon": -77.02726283333334, "fusion_lat": 0.0}, {"name": "fff91385aa5573ea7f04dbb032b4cf43", "fusion_lon": 0.0, "lat": 38.91666583333333, "is_reserved": 0, "type": "electric_scooter", "bike_id": "fff91385aa5573ea7f04dbb032b4cf43", "is_disabled": 0, "rental_uris": {"android": "https://dc.lft.to/lastmile_qr_scan", "ios": "https://dc.lft.to/lastmile_qr_scan"}, "lon": -77.029795, "fusion_lat": 0.0}, {"name": "fdd39c6579b011e8f9aada4be36700e2", "fusion_lon": 0.0, "lat": 38.92949183333333, "is_reserved": 0, "type": "electric_scooter", "bike_id": "fdd39c6579b011e8f9aada4be36700e2", "is_disabled": 0, "rental_uris": {"android": "https://dc.lft.to/lastmile_qr_scan", "ios": "https://dc.lft.to/lastmile_qr_scan"}, "lon": -77.03267983333333, "fusion_lat": 0.0}, {"name": "4b60384935b3984b6eacc0133f6750ed", "fusion_lon": 0.0, "lat": 38.905666, "is_reserved": 0, "type": "electric_scooter", "bike_id": "4b60384935b3984b6eacc0133f6750ed", "is_disabled": 0, "rental_uris": {"android": "https://dc.lft.to/lastmile_qr_scan", "ios": "https://dc.lft.to/lastmile_qr_scan"}, "lon": -77.00594083333333, "fusion_lat": 0.0}, {"name": "4e6a830b7a22fdefa4b181ff2dae4bed", "fusion_lon": 0.0, "lat": 38.99326716666667, "is_reserved": 0, "type": "electric_bike", "bike_id": "4e6a830b7a22fdefa4b181ff2dae4bed", "is_disabled": 0, "rental_uris": {"android": "https://dc.lft.to/lastmile_qr_scan", "ios": "https://dc.lft.to/lastmile_qr_scan"}, "lon": -76.9461425, "fusion_lat": 0.0}, {"name": "3d3cf19086a2246483a1465e783d3094", "fusion_lon": 0.0, "lat": 38.919137, "is_reserved": 0, "type": "electric_scooter", "bike_id": "3d3cf19086a2246483a1465e783d3094", "is_disabled": 0, "rental_uris": {"android": "https://dc.lft.to/lastmile_qr_scan", "ios": "https://dc.lft.to/lastmile_qr_scan"}, "lon": -77.04462133333334, "fusion_lat": 0.0}, {"name": "558eccbc18936cabe2715251a8734c45", "fusion_lon": 0.0, "lat": 38.93946833333333, "is_reserved": 0, "type": "electric_scooter", "bike_id": "558eccbc18936cabe2715251a8734c45", "is_disabled": 0, "rental_uris": {"android": "https://dc.lft.to/lastmile_qr_scan", "ios": "https://dc.lft.to/lastmile_qr_scan"}, "lon": -77.02478283333333, "fusion_lat": 0.0}, {"name": "3c14afed1f01982be9b161fd49f444ef", "fusion_lon": 0.0, "lat": 38.90212616666667, "is_reserved": 0, "type": "electric_scooter", "bike_id": "3c14afed1f01982be9b161fd49f444ef", "is_disabled": 0, "rental_uris": {"android": "https://dc.lft.to/lastmile_qr_scan", "ios": "https://dc.lft.to/lastmile_qr_scan"}, "lon": -77.02148733333334, "fusion_lat": 0.0}, {"name": "727498acb81da7f897b085a7f6de419c", "fusion_lon": 0.0, "lat": 38.918153333333336, "is_reserved": 0, "type": "electric_scooter", "bike_id": "727498acb81da7f897b085a7f6de419c", "is_disabled": 0, "rental_uris": {"android": "https://dc.lft.to/lastmile_qr_scan", "ios": "https://dc.lft.to/lastmile_qr_scan"}, "lon": -77.089599, "fusion_lat": 0.0}, {"name": "3d6965998f0770dce6395b61ef2b6129", "fusion_lon": 0.0, "lat": 38.96323316666667, "is_reserved": 0, "type": "electric_bike", "bike_id": "3d6965998f0770dce6395b61ef2b6129", "is_disabled": 0, "rental_uris": {"android": "https://dc.lft.to/lastmile_qr_scan", "ios": "https://dc.lft.to/lastmile_qr_scan"}, "lon": -76.97363933333334, "fusion_lat": 0.0}, {"name": "d9598331a31edad169ed7a42091e00f5", "fusion_lon": 0.0, "lat": 38.896173, "is_reserved": 0, "type": "electric_scooter", "bike_id": "d9598331a31edad169ed7a42091e00f5", "is_disabled": 0, "rental_uris": {"android": "https://dc.lft.to/lastmile_qr_scan", "ios": "https://dc.lft.to/lastmile_qr_scan"}, "lon": -77.02214783333334, "fusion_lat": 0.0}, {"name": "fde75460c62b45208f617ab6668f38c6", "fusion_lon": 0.0, "lat": 38.963037, "is_reserved": 0, "type": "electric_bike", "bike_id": "fde75460c62b45208f617ab6668f38c6", "is_disabled": 0, "rental_uris": {"android": "https://dc.lft.to/lastmile_qr_scan", "ios": "https://dc.lft.to/lastmile_qr_scan"}, "lon": -77.0110565, "fusion_lat": 0.0}, {"name": "3e3dba67522d725549a9d815d92c9932", "fusion_lon": 0.0, "lat": 38.904589666666666, "is_reserved": 0, "type": "electric_scooter", "bike_id": "3e3dba67522d725549a9d815d92c9932", "is_disabled": 0, "rental_uris": {"android": "https://dc.lft.to/lastmile_qr_scan", "ios": "https://dc.lft.to/lastmile_qr_scan"}, "lon": -77.0414835, "fusion_lat": 0.0}, {"name": "6a3371a3e19bdd10720e1fd3b0acb0f3", "fusion_lon": 0.0, "lat": 38.917324, "is_reserved": 0, "type": "electric_scooter", "bike_id": "6a3371a3e19bdd10720e1fd3b0acb0f3", "is_disabled": 0, "rental_uris": {"android": "https://dc.lft.to/lastmile_qr_scan", "ios": "https://dc.lft.to/lastmile_qr_scan"}, "lon": -77.03453466666667, "fusion_lat": 0.0}, {"name": "8e9a6d584b910b215c058e0157bad5df", "fusion_lon": 0.0, "lat": 38.930416666666666, "is_reserved": 0, "type": "electric_scooter", "bike_id": "8e9a6d584b910b215c058e0157bad5df", "is_disabled": 0, "rental_uris": {"android": "https://dc.lft.to/lastmile_qr_scan", "ios": "https://dc.lft.to/lastmile_qr_scan"}, "lon": -77.01228966666666, "fusion_lat": 0.0}, {"name": "4ee9ce70aadbb078ee5985c002c3296e", "fusion_lon": 0.0, "lat": 38.91473116666667, "is_reserved": 0, "type": "electric_scooter", "bike_id": "4ee9ce70aadbb078ee5985c002c3296e", "is_disabled": 0, "rental_uris": {"android": "https://dc.lft.to/lastmile_qr_scan", "ios": "https://dc.lft.to/lastmile_qr_scan"}, "lon": -77.0318565, "fusion_lat": 0.0}, {"name": "d0b24aa46429a3cbc2dfa6a8890fdd66", "fusion_lon": 0.0, "lat": 38.912681, "is_reserved": 0, "type": "electric_scooter", "bike_id": "d0b24aa46429a3cbc2dfa6a8890fdd66", "is_disabled": 0, "rental_uris": {"android": "https://dc.lft.to/lastmile_qr_scan", "ios": "https://dc.lft.to/lastmile_qr_scan"}, "lon": -77.0222675, "fusion_lat": 0.0}, {"name": "233e5f6630fc9734ac243be428af7526", "fusion_lon": 0.0, "lat": 38.923816333333335, "is_reserved": 0, "type": "electric_scooter", "bike_id": "233e5f6630fc9734ac243be428af7526", "is_disabled": 0, "rental_uris": {"android": "https://dc.lft.to/lastmile_qr_scan", "ios": "https://dc.lft.to/lastmile_qr_scan"}, "lon": -77.035468, "fusion_lat": 0.0}, {"name": "cc75114d642433c8159faf92f9bd9b7d", "fusion_lon": 0.0, "lat": 38.919117, "is_reserved": 0, "type": "electric_scooter", "bike_id": "cc75114d642433c8159faf92f9bd9b7d", "is_disabled": 0, "rental_uris": {"android": "https://dc.lft.to/lastmile_qr_scan", "ios": "https://dc.lft.to/lastmile_qr_scan"}, "lon": -77.0154385, "fusion_lat": 0.0}, {"name": "6e1d74c87429affc73e798c23ee2e4f0", "fusion_lon": 0.0, "lat": 38.953576166666664, "is_reserved": 0, "type": "electric_bike", "bike_id": "6e1d74c87429affc73e798c23ee2e4f0", "is_disabled": 0, "rental_uris": {"android": "https://dc.lft.to/lastmile_qr_scan", "ios": "https://dc.lft.to/lastmile_qr_scan"}, "lon": -76.980928, "fusion_lat": 0.0}, {"name": "f1238eea88b62324ba6883ba163f6eff", "fusion_lon": 0.0, "lat": 38.938656, "is_reserved": 0, "type": "electric_scooter", "bike_id": "f1238eea88b62324ba6883ba163f6eff", "is_disabled": 0, "rental_uris": {"android": "https://dc.lft.to/lastmile_qr_scan", "ios": "https://dc.lft.to/lastmile_qr_scan"}, "lon": -77.02594916666666, "fusion_lat": 0.0}, {"name": "e4945f2e30515389e0c4ec7fae427113", "fusion_lon": 0.0, "lat": 38.905065, "is_reserved": 0, "type": "electric_scooter", "bike_id": "e4945f2e30515389e0c4ec7fae427113", "is_disabled": 0, "rental_uris": {"android": "https://dc.lft.to/lastmile_qr_scan", "ios": "https://dc.lft.to/lastmile_qr_scan"}, "lon": -77.070152, "fusion_lat": 0.0}, {"name": "705f147c5b1f6537a6440ecf77c7da12", "fusion_lon": 0.0, "lat": 38.91121316666667, "is_reserved": 0, "type": "electric_scooter", "bike_id": "705f147c5b1f6537a6440ecf77c7da12", "is_disabled": 0, "rental_uris": {"android": "https://dc.lft.to/lastmile_qr_scan", "ios": "https://dc.lft.to/lastmile_qr_scan"}, "lon": -77.03765266666667, "fusion_lat": 0.0}, {"name": "75b4ff5e3a6fbc79f35aba3bc69aa85e", "fusion_lon": 0.0, "lat": 38.915610666666666, "is_reserved": 0, "type": "electric_scooter", "bike_id": "75b4ff5e3a6fbc79f35aba3bc69aa85e", "is_disabled": 0, "rental_uris": {"android": "https://dc.lft.to/lastmile_qr_scan", "ios": "https://dc.lft.to/lastmile_qr_scan"}, "lon": -77.0255465, "fusion_lat": 0.0}, {"name": "b414daa907ecf729f26320b8e6130ead", "fusion_lon": 0.0, "lat": 38.92076983333333, "is_reserved": 0, "type": "electric_scooter", "bike_id": "b414daa907ecf729f26320b8e6130ead", "is_disabled": 0, "rental_uris": {"android": "https://dc.lft.to/lastmile_qr_scan", "ios": "https://dc.lft.to/lastmile_qr_scan"}, "lon": -77.03235533333333, "fusion_lat": 0.0}, {"name": "b740b92edb725c2190551d6d71e7b3d5", "fusion_lon": 0.0, "lat": 38.89625783333334, "is_reserved": 0, "type": "electric_scooter", "bike_id": "b740b92edb725c2190551d6d71e7b3d5", "is_disabled": 0, "rental_uris": {"android": "https://dc.lft.to/lastmile_qr_scan", "ios": "https://dc.lft.to/lastmile_qr_scan"}, "lon": -77.0259815, "fusion_lat": 0.0}, {"name": "3f23584abdf3f1bfdb558230bff11b11", "fusion_lon": 0.0, "lat": 38.91243016666667, "is_reserved": 0, "type": "electric_scooter", "bike_id": "3f23584abdf3f1bfdb558230bff11b11", "is_disabled": 0, "rental_uris": {"android": "https://dc.lft.to/lastmile_qr_scan", "ios": "https://dc.lft.to/lastmile_qr_scan"}, "lon": -77.0341015, "fusion_lat": 0.0}, {"name": "aee85ea3abd788dfdf1c8bec5e8339d1", "fusion_lon": 0.0, "lat": 38.904955, "is_reserved": 0, "type": "electric_scooter", "bike_id": "aee85ea3abd788dfdf1c8bec5e8339d1", "is_disabled": 0, "rental_uris": {"android": "https://dc.lft.to/lastmile_qr_scan", "ios": "https://dc.lft.to/lastmile_qr_scan"}, "lon": -77.03820366666666, "fusion_lat": 0.0}, {"name": "8b02382eee3cc4749b3a0508fb9fa4f5", "fusion_lon": 0.0, "lat": 38.909330833333335, "is_reserved": 0, "type": "electric_scooter", "bike_id": "8b02382eee3cc4749b3a0508fb9fa4f5", "is_disabled": 0, "rental_uris": {"android": "https://dc.lft.to/lastmile_qr_scan", "ios": "https://dc.lft.to/lastmile_qr_scan"}, "lon": -77.03450433333333, "fusion_lat": 0.0}, {"name": "8146c96e24c4074865e2d29db69e6f3b", "fusion_lon": 0.0, "lat": 38.90006833333333, "is_reserved": 0, "type": "electric_scooter", "bike_id": "8146c96e24c4074865e2d29db69e6f3b", "is_disabled": 0, "rental_uris": {"android": "https://dc.lft.to/lastmile_qr_scan", "ios": "https://dc.lft.to/lastmile_qr_scan"}, "lon": -76.99624266666666, "fusion_lat": 0.0}, {"name": "b9f4635993b4287a67d40887c489c7b7", "fusion_lon": 0.0, "lat": 38.917022, "is_reserved": 0, "type": "electric_scooter", "bike_id": "b9f4635993b4287a67d40887c489c7b7", "is_disabled": 0, "rental_uris": {"android": "https://dc.lft.to/lastmile_qr_scan", "ios": "https://dc.lft.to/lastmile_qr_scan"}, "lon": -77.01331383333333, "fusion_lat": 0.0}, {"name": "5e6d21145e32146fa62fa766280cd316", "fusion_lon": 0.0, "lat": 38.89615883333333, "is_reserved": 0, "type": "electric_scooter", "bike_id": "5e6d21145e32146fa62fa766280cd316", "is_disabled": 0, "rental_uris": {"android": "https://dc.lft.to/lastmile_qr_scan", "ios": "https://dc.lft.to/lastmile_qr_scan"}, "lon": -76.98114383333333, "fusion_lat": 0.0}, {"name": "f3c7a27875459e296a0a8a01c7ad2659", "fusion_lon": 0.0, "lat": 38.921818333333334, "is_reserved": 0, "type": "electric_scooter", "bike_id": "f3c7a27875459e296a0a8a01c7ad2659", "is_disabled": 0, "rental_uris": {"android": "https://dc.lft.to/lastmile_qr_scan", "ios": "https://dc.lft.to/lastmile_qr_scan"}, "lon": -77.0469945, "fusion_lat": 0.0}, {"name": "8ba7b7cada5e7b12e9a4361fcf9cecbf", "fusion_lon": 0.0, "lat": 38.934405, "is_reserved": 0, "type": "electric_scooter", "bike_id": "8ba7b7cada5e7b12e9a4361fcf9cecbf", "is_disabled": 0, "rental_uris": {"android": "https://dc.lft.to/lastmile_qr_scan", "ios": "https://dc.lft.to/lastmile_qr_scan"}, "lon": -77.03279033333334, "fusion_lat": 0.0}, {"name": "7398ccf7c57e449d58ab2a03e4c7ad48", "fusion_lon": 0.0, "lat": 38.9128695, "is_reserved": 0, "type": "electric_scooter", "bike_id": "7398ccf7c57e449d58ab2a03e4c7ad48", "is_disabled": 0, "rental_uris": {"android": "https://dc.lft.to/lastmile_qr_scan", "ios": "https://dc.lft.to/lastmile_qr_scan"}, "lon": -77.02378466666667, "fusion_lat": 0.0}, {"name": "7375ff72a46835e4aba0d57270bfbef7", "fusion_lon": 0.0, "lat": 38.896244, "is_reserved": 0, "type": "electric_scooter", "bike_id": "7375ff72a46835e4aba0d57270bfbef7", "is_disabled": 0, "rental_uris": {"android": "https://dc.lft.to/lastmile_qr_scan", "ios": "https://dc.lft.to/lastmile_qr_scan"}, "lon": -77.01599366666666, "fusion_lat": 0.0}, {"name": "1a4abbc8f9f23671d3db3b9bf816610d", "fusion_lon": 0.0, "lat": 38.89623783333333, "is_reserved": 0, "type": "electric_scooter", "bike_id": "1a4abbc8f9f23671d3db3b9bf816610d", "is_disabled": 0, "rental_uris": {"android": "https://dc.lft.to/lastmile_qr_scan", "ios": "https://dc.lft.to/lastmile_qr_scan"}, "lon": -77.02222216666667, "fusion_lat": 0.0}, {"name": "6b45366de5cd692c6f7d3687f732522d", "fusion_lon": 0.0, "lat": 38.92120533333333, "is_reserved": 0, "type": "electric_bike", "bike_id": "6b45366de5cd692c6f7d3687f732522d", "is_disabled": 0, "rental_uris": {"android": "https://dc.lft.to/lastmile_qr_scan", "ios": "https://dc.lft.to/lastmile_qr_scan"}, "lon": -77.01209716666666, "fusion_lat": 0.0}, {"name": "be3e1fa958e9998e2cc8581e26bd6d41", "fusion_lon": 0.0, "lat": 38.91023716666667, "is_reserved": 0, "type": "electric_scooter", "bike_id": "be3e1fa958e9998e2cc8581e26bd6d41", "is_disabled": 0, "rental_uris": {"android": "https://dc.lft.to/lastmile_qr_scan", "ios": "https://dc.lft.to/lastmile_qr_scan"}, "lon": -77.05267283333333, "fusion_lat": 0.0}, {"name": "0c427bd4e45d28d54519b1d99d78ea0e", "fusion_lon": 0.0, "lat": 38.89736883333333, "is_reserved": 0, "type": "electric_scooter", "bike_id": "0c427bd4e45d28d54519b1d99d78ea0e", "is_disabled": 0, "rental_uris": {"android": "https://dc.lft.to/lastmile_qr_scan", "ios": "https://dc.lft.to/lastmile_qr_scan"}, "lon": -77.02166366666667, "fusion_lat": 0.0}, {"name": "26312e066aa1f91bc3b893555b9a592e", "fusion_lon": 0.0, "lat": 38.8744355, "is_reserved": 0, "type": "electric_scooter", "bike_id": "26312e066aa1f91bc3b893555b9a592e", "is_disabled": 0, "rental_uris": {"android": "https://dc.lft.to/lastmile_qr_scan", "ios": "https://dc.lft.to/lastmile_qr_scan"}, "lon": -77.00558283333334, "fusion_lat": 0.0}, {"name": "ec399881ea4703b264265194e8ed49bc", "fusion_lon": 0.0, "lat": 38.94203566666667, "is_reserved": 0, "type": "electric_scooter", "bike_id": "ec399881ea4703b264265194e8ed49bc", "is_disabled": 0, "rental_uris": {"android": "https://dc.lft.to/lastmile_qr_scan", "ios": "https://dc.lft.to/lastmile_qr_scan"}, "lon": -77.025168, "fusion_lat": 0.0}, {"name": "aba19879057d62481c6d69bf7f5792f7", "fusion_lon": 0.0, "lat": 38.90042316666667, "is_reserved": 0, "type": "electric_scooter", "bike_id": "aba19879057d62481c6d69bf7f5792f7", "is_disabled": 0, "rental_uris": {"android": "https://dc.lft.to/lastmile_qr_scan", "ios": "https://dc.lft.to/lastmile_qr_scan"}, "lon": -76.98827916666667, "fusion_lat": 0.0}, {"name": "910bf769ca54dc16fe3586141ac24354", "fusion_lon": 0.0, "lat": 38.928282333333335, "is_reserved": 0, "type": "electric_scooter", "bike_id": "910bf769ca54dc16fe3586141ac24354", "is_disabled": 0, "rental_uris": {"android": "https://dc.lft.to/lastmile_qr_scan", "ios": "https://dc.lft.to/lastmile_qr_scan"}, "lon": -77.02623666666666, "fusion_lat": 0.0}, {"name": "a2a80f754f0aa50feb1940bf8f64e670", "fusion_lon": 0.0, "lat": 38.90350466666666, "is_reserved": 0, "type": "electric_scooter", "bike_id": "a2a80f754f0aa50feb1940bf8f64e670", "is_disabled": 0, "rental_uris": {"android": "https://dc.lft.to/lastmile_qr_scan", "ios": "https://dc.lft.to/lastmile_qr_scan"}, "lon": -76.97479716666666, "fusion_lat": 0.0}, {"name": "b60f08639bcc121305cd579542a82961", "fusion_lon": 0.0, "lat": 38.921197666666664, "is_reserved": 0, "type": "electric_scooter", "bike_id": "b60f08639bcc121305cd579542a82961", "is_disabled": 0, "rental_uris": {"android": "https://dc.lft.to/lastmile_qr_scan", "ios": "https://dc.lft.to/lastmile_qr_scan"}, "lon": -77.04567216666666, "fusion_lat": 0.0}, {"name": "6d36e759f808e07f54d18b7d37e16731", "fusion_lon": 0.0, "lat": 38.92511316666667, "is_reserved": 0, "type": "electric_scooter", "bike_id": "6d36e759f808e07f54d18b7d37e16731", "is_disabled": 0, "rental_uris": {"android": "https://dc.lft.to/lastmile_qr_scan", "ios": "https://dc.lft.to/lastmile_qr_scan"}, "lon": -77.05254216666667, "fusion_lat": 0.0}, {"name": "794a3eb0cfa33f886047d7ac70a88afc", "fusion_lon": 0.0, "lat": 38.900526, "is_reserved": 0, "type": "electric_scooter", "bike_id": "794a3eb0cfa33f886047d7ac70a88afc", "is_disabled": 0, "rental_uris": {"android": "https://dc.lft.to/lastmile_qr_scan", "ios": "https://dc.lft.to/lastmile_qr_scan"}, "lon": -77.02915716666666, "fusion_lat": 0.0}, {"name": "b3795d5146e30a5eb25cebfb8bf2d2e1", "fusion_lon": 0.0, "lat": 38.90713216666666, "is_reserved": 0, "type": "electric_scooter", "bike_id": "b3795d5146e30a5eb25cebfb8bf2d2e1", "is_disabled": 0, "rental_uris": {"android": "https://dc.lft.to/lastmile_qr_scan", "ios": "https://dc.lft.to/lastmile_qr_scan"}, "lon": -77.03450483333333, "fusion_lat": 0.0}, {"name": "39826f59ab3967a2c17f1c6ef7005fdd", "fusion_lon": 0.0, "lat": 38.907148166666666, "is_reserved": 0, "type": "electric_scooter", "bike_id": "39826f59ab3967a2c17f1c6ef7005fdd", "is_disabled": 0, "rental_uris": {"android": "https://dc.lft.to/lastmile_qr_scan", "ios": "https://dc.lft.to/lastmile_qr_scan"}, "lon": -77.0101005, "fusion_lat": 0.0}, {"name": "3a369004855247f2b1815fa2ba018e6e", "fusion_lon": 0.0, "lat": 38.918239666666665, "is_reserved": 0, "type": "electric_scooter", "bike_id": "3a369004855247f2b1815fa2ba018e6e", "is_disabled": 0, "rental_uris": {"android": "https://dc.lft.to/lastmile_qr_scan", "ios": "https://dc.lft.to/lastmile_qr_scan"}, "lon": -77.02505466666666, "fusion_lat": 0.0}, {"name": "8a1a6050127fd821da33975a28a0bbe4", "fusion_lon": 0.0, "lat": 38.91926683333333, "is_reserved": 0, "type": "electric_scooter", "bike_id": "8a1a6050127fd821da33975a28a0bbe4", "is_disabled": 0, "rental_uris": {"android": "https://dc.lft.to/lastmile_qr_scan", "ios": "https://dc.lft.to/lastmile_qr_scan"}, "lon": -77.0251445, "fusion_lat": 0.0}, {"name": "ec8a4c1cce1b67efbab1cd84150ddf64", "fusion_lon": 0.0, "lat": 38.89731416666667, "is_reserved": 0, "type": "electric_scooter", "bike_id": "ec8a4c1cce1b67efbab1cd84150ddf64", "is_disabled": 0, "rental_uris": {"android": "https://dc.lft.to/lastmile_qr_scan", "ios": "https://dc.lft.to/lastmile_qr_scan"}, "lon": -77.05569833333334, "fusion_lat": 0.0}, {"name": "9666b3d8e02b17e5c5b9df8777959622", "fusion_lon": 0.0, "lat": 38.922572333333335, "is_reserved": 0, "type": "electric_bike", "bike_id": "9666b3d8e02b17e5c5b9df8777959622", "is_disabled": 0, "rental_uris": {"android": "https://dc.lft.to/lastmile_qr_scan", "ios": "https://dc.lft.to/lastmile_qr_scan"}, "lon": -77.019498, "fusion_lat": 0.0}, {"name": "54f6bf640a553b5e796c025133a5e527", "fusion_lon": 0.0, "lat": 38.904595666666665, "is_reserved": 0, "type": "electric_scooter", "bike_id": "54f6bf640a553b5e796c025133a5e527", "is_disabled": 0, "rental_uris": {"android": "https://dc.lft.to/lastmile_qr_scan", "ios": "https://dc.lft.to/lastmile_qr_scan"}, "lon": -77.04813683333333, "fusion_lat": 0.0}, {"name": "8f436974dc8723e82984026884b3eb08", "fusion_lon": 0.0, "lat": 38.84425266666667, "is_reserved": 0, "type": "electric_scooter", "bike_id": "8f436974dc8723e82984026884b3eb08", "is_disabled": 0, "rental_uris": {"android": "https://dc.lft.to/lastmile_qr_scan", "ios": "https://dc.lft.to/lastmile_qr_scan"}, "lon": -76.99775883333334, "fusion_lat": 0.0}, {"name": "e34d0155062f3d4eb3c7121bb3d5cdcb", "fusion_lon": 0.0, "lat": 38.91679716666667, "is_reserved": 0, "type": "electric_scooter", "bike_id": "e34d0155062f3d4eb3c7121bb3d5cdcb", "is_disabled": 0, "rental_uris": {"android": "https://dc.lft.to/lastmile_qr_scan", "ios": "https://dc.lft.to/lastmile_qr_scan"}, "lon": -77.034079, "fusion_lat": 0.0}, {"name": "e2656b05fec73cf03d12e222c5e9fac2", "fusion_lon": 0.0, "lat": 38.90829266666667, "is_reserved": 0, "type": "electric_scooter", "bike_id": "e2656b05fec73cf03d12e222c5e9fac2", "is_disabled": 0, "rental_uris": {"android": "https://dc.lft.to/lastmile_qr_scan", "ios": "https://dc.lft.to/lastmile_qr_scan"}, "lon": -77.03313516666667, "fusion_lat": 0.0}, {"name": "e96826604ecc0e6429d629f7f64f9a95", "fusion_lon": 0.0, "lat": 38.89115666666667, "is_reserved": 0, "type": "electric_scooter", "bike_id": "e96826604ecc0e6429d629f7f64f9a95", "is_disabled": 0, "rental_uris": {"android": "https://dc.lft.to/lastmile_qr_scan", "ios": "https://dc.lft.to/lastmile_qr_scan"}, "lon": -76.9915225, "fusion_lat": 0.0}, {"name": "ab7c26111d4da6c2f715b276c0298ac6", "fusion_lon": 0.0, "lat": 38.92282016666667, "is_reserved": 0, "type": "electric_scooter", "bike_id": "ab7c26111d4da6c2f715b276c0298ac6", "is_disabled": 0, "rental_uris": {"android": "https://dc.lft.to/lastmile_qr_scan", "ios": "https://dc.lft.to/lastmile_qr_scan"}, "lon": -77.04461516666667, "fusion_lat": 0.0}, {"name": "4d826729a21b410b66c9cd8f4c7fc7ca", "fusion_lon": 0.0, "lat": 38.887455833333334, "is_reserved": 0, "type": "electric_scooter", "bike_id": "4d826729a21b410b66c9cd8f4c7fc7ca", "is_disabled": 0, "rental_uris": {"android": "https://dc.lft.to/lastmile_qr_scan", "ios": "https://dc.lft.to/lastmile_qr_scan"}, "lon": -77.02573616666666, "fusion_lat": 0.0}, {"name": "dd783720f1971ca6c3577cd7b1dcd003", "fusion_lon": 0.0, "lat": 38.90022466666667, "is_reserved": 0, "type": "electric_scooter", "bike_id": "dd783720f1971ca6c3577cd7b1dcd003", "is_disabled": 0, "rental_uris": {"android": "https://dc.lft.to/lastmile_qr_scan", "ios": "https://dc.lft.to/lastmile_qr_scan"}, "lon": -76.99894183333333, "fusion_lat": 0.0}, {"name": "9bb9320cba3fcc89e485ef64f8320308", "fusion_lon": 0.0, "lat": 38.895383833333334, "is_reserved": 0, "type": "electric_scooter", "bike_id": "9bb9320cba3fcc89e485ef64f8320308", "is_disabled": 0, "rental_uris": {"android": "https://dc.lft.to/lastmile_qr_scan", "ios": "https://dc.lft.to/lastmile_qr_scan"}, "lon": -76.949247, "fusion_lat": 0.0}, {"name": "eced80be4a9e3535aa5579bda6fe7a45", "fusion_lon": 0.0, "lat": 38.836955333333336, "is_reserved": 0, "type": "electric_scooter", "bike_id": "eced80be4a9e3535aa5579bda6fe7a45", "is_disabled": 0, "rental_uris": {"android": "https://dc.lft.to/lastmile_qr_scan", "ios": "https://dc.lft.to/lastmile_qr_scan"}, "lon": -77.00565816666666, "fusion_lat": 0.0}, {"name": "740cf837eb10ff7c5ffdc4ec22090aa3", "fusion_lon": 0.0, "lat": 38.892243, "is_reserved": 0, "type": "electric_scooter", "bike_id": "740cf837eb10ff7c5ffdc4ec22090aa3", "is_disabled": 0, "rental_uris": {"android": "https://dc.lft.to/lastmile_qr_scan", "ios": "https://dc.lft.to/lastmile_qr_scan"}, "lon": -77.0480035, "fusion_lat": 0.0}, {"name": "63b15284914d0c212804e1cf4751970d", "fusion_lon": 0.0, "lat": 38.95848616666667, "is_reserved": 0, "type": "electric_scooter", "bike_id": "63b15284914d0c212804e1cf4751970d", "is_disabled": 0, "rental_uris": {"android": "https://dc.lft.to/lastmile_qr_scan", "ios": "https://dc.lft.to/lastmile_qr_scan"}, "lon": -77.07000183333334, "fusion_lat": 0.0}, {"name": "d23ba77e76382eb92b88fdb9fd767c36", "fusion_lon": 0.0, "lat": 38.925682, "is_reserved": 0, "type": "electric_bike", "bike_id": "d23ba77e76382eb92b88fdb9fd767c36", "is_disabled": 0, "rental_uris": {"android": "https://dc.lft.to/lastmile_qr_scan", "ios": "https://dc.lft.to/lastmile_qr_scan"}, "lon": -77.00170483333333, "fusion_lat": 0.0}, {"name": "c8e8ae14e3d1e4f111722aaab3f9aceb", "fusion_lon": 0.0, "lat": 38.860855666666666, "is_reserved": 0, "type": "electric_scooter", "bike_id": "c8e8ae14e3d1e4f111722aaab3f9aceb", "is_disabled": 0, "rental_uris": {"android": "https://dc.lft.to/lastmile_qr_scan", "ios": "https://dc.lft.to/lastmile_qr_scan"}, "lon": -76.9686315, "fusion_lat": 0.0}, {"name": "fbed42214a3f5dbfc8bc2dce6d1d3c60", "fusion_lon": 0.0, "lat": 38.92237983333333, "is_reserved": 0, "type": "electric_scooter", "bike_id": "fbed42214a3f5dbfc8bc2dce6d1d3c60", "is_disabled": 0, "rental_uris": {"android": "https://dc.lft.to/lastmile_qr_scan", "ios": "https://dc.lft.to/lastmile_qr_scan"}, "lon": -77.03521216666667, "fusion_lat": 0.0}, {"name": "9849edb459001d4341ec09e0414c4682", "fusion_lon": 0.0, "lat": 38.91680933333333, "is_reserved": 0, "type": "electric_scooter", "bike_id": "9849edb459001d4341ec09e0414c4682", "is_disabled": 0, "rental_uris": {"android": "https://dc.lft.to/lastmile_qr_scan", "ios": "https://dc.lft.to/lastmile_qr_scan"}, "lon": -77.03690366666666, "fusion_lat": 0.0}, {"name": "960d3972dcd1707a00288e7249cb0154", "fusion_lon": 0.0, "lat": 38.90056666666667, "is_reserved": 0, "type": "electric_scooter", "bike_id": "960d3972dcd1707a00288e7249cb0154", "is_disabled": 0, "rental_uris": {"android": "https://dc.lft.to/lastmile_qr_scan", "ios": "https://dc.lft.to/lastmile_qr_scan"}, "lon": -77.02171566666667, "fusion_lat": 0.0}, {"name": "9c3a859b3f280a2feaabaa0c14bd5ca5", "fusion_lon": 0.0, "lat": 38.875822666666664, "is_reserved": 0, "type": "electric_scooter", "bike_id": "9c3a859b3f280a2feaabaa0c14bd5ca5", "is_disabled": 0, "rental_uris": {"android": "https://dc.lft.to/lastmile_qr_scan", "ios": "https://dc.lft.to/lastmile_qr_scan"}, "lon": -77.00594933333333, "fusion_lat": 0.0}, {"name": "5a2528d3370d0921b10cfd3e6a7c07f6", "fusion_lon": 0.0, "lat": 38.8746775, "is_reserved": 0, "type": "electric_scooter", "bike_id": "5a2528d3370d0921b10cfd3e6a7c07f6", "is_disabled": 0, "rental_uris": {"android": "https://dc.lft.to/lastmile_qr_scan", "ios": "https://dc.lft.to/lastmile_qr_scan"}, "lon": -77.0158965, "fusion_lat": 0.0}, {"name": "ec340ab7bb939e1293b5ae7bd039418e", "fusion_lon": 0.0, "lat": 38.92382, "is_reserved": 0, "type": "electric_scooter", "bike_id": "ec340ab7bb939e1293b5ae7bd039418e", "is_disabled": 0, "rental_uris": {"android": "https://dc.lft.to/lastmile_qr_scan", "ios": "https://dc.lft.to/lastmile_qr_scan"}, "lon": -77.0518505, "fusion_lat": 0.0}, {"name": "b43dc83298d7f77e3dc7bf3da368d277", "fusion_lon": 0.0, "lat": 38.9337315, "is_reserved": 0, "type": "electric_scooter", "bike_id": "b43dc83298d7f77e3dc7bf3da368d277", "is_disabled": 0, "rental_uris": {"android": "https://dc.lft.to/lastmile_qr_scan", "ios": "https://dc.lft.to/lastmile_qr_scan"}, "lon": -77.0268245, "fusion_lat": 0.0}, {"name": "86ca8998211a021a688c53df4030da5c", "fusion_lon": 0.0, "lat": 38.873438166666666, "is_reserved": 0, "type": "electric_scooter", "bike_id": "86ca8998211a021a688c53df4030da5c", "is_disabled": 0, "rental_uris": {"android": "https://dc.lft.to/lastmile_qr_scan", "ios": "https://dc.lft.to/lastmile_qr_scan"}, "lon": -77.00257483333333, "fusion_lat": 0.0}, {"name": "dc52342460d45e238359677f5668fb6b", "fusion_lon": 0.0, "lat": 38.900856, "is_reserved": 0, "type": "electric_scooter", "bike_id": "dc52342460d45e238359677f5668fb6b", "is_disabled": 0, "rental_uris": {"android": "https://dc.lft.to/lastmile_qr_scan", "ios": "https://dc.lft.to/lastmile_qr_scan"}, "lon": -77.01209483333334, "fusion_lat": 0.0}, {"name": "c103ce7c1e9c19ed943f63f95fa827a8", "fusion_lon": 0.0, "lat": 38.91850916666667, "is_reserved": 0, "type": "electric_scooter", "bike_id": "c103ce7c1e9c19ed943f63f95fa827a8", "is_disabled": 0, "rental_uris": {"android": "https://dc.lft.to/lastmile_qr_scan", "ios": "https://dc.lft.to/lastmile_qr_scan"}, "lon": -77.02321233333333, "fusion_lat": 0.0}, {"name": "a6b3367847c9879a1921bbaccf4c874f", "fusion_lon": 0.0, "lat": 38.94820633333333, "is_reserved": 0, "type": "electric_scooter", "bike_id": "a6b3367847c9879a1921bbaccf4c874f", "is_disabled": 0, "rental_uris": {"android": "https://dc.lft.to/lastmile_qr_scan", "ios": "https://dc.lft.to/lastmile_qr_scan"}, "lon": -77.0788905, "fusion_lat": 0.0}, {"name": "a33b79690a9929c3a0b00377ce5e434c", "fusion_lon": 0.0, "lat": 38.924673166666665, "is_reserved": 0, "type": "electric_scooter", "bike_id": "a33b79690a9929c3a0b00377ce5e434c", "is_disabled": 0, "rental_uris": {"android": "https://dc.lft.to/lastmile_qr_scan", "ios": "https://dc.lft.to/lastmile_qr_scan"}, "lon": -77.02202533333333, "fusion_lat": 0.0}, {"name": "9d6f1ab927fb23425abc9b3cfcd22c6b", "fusion_lon": 0.0, "lat": 38.916398666666666, "is_reserved": 0, "type": "electric_scooter", "bike_id": "9d6f1ab927fb23425abc9b3cfcd22c6b", "is_disabled": 0, "rental_uris": {"android": "https://dc.lft.to/lastmile_qr_scan", "ios": "https://dc.lft.to/lastmile_qr_scan"}, "lon": -77.00196416666667, "fusion_lat": 0.0}, {"name": "62da1b7ffea3b0bd05590b4f03ab4987", "fusion_lon": 0.0, "lat": 38.92209733333333, "is_reserved": 0, "type": "electric_bike", "bike_id": "62da1b7ffea3b0bd05590b4f03ab4987", "is_disabled": 0, "rental_uris": {"android": "https://dc.lft.to/lastmile_qr_scan", "ios": "https://dc.lft.to/lastmile_qr_scan"}, "lon": -76.98794183333334, "fusion_lat": 0.0}, {"name": "b62193294f004981c3e9c48899a9cc09", "fusion_lon": 0.0, "lat": 38.92088283333333, "is_reserved": 0, "type": "electric_scooter", "bike_id": "b62193294f004981c3e9c48899a9cc09", "is_disabled": 0, "rental_uris": {"android": "https://dc.lft.to/lastmile_qr_scan", "ios": "https://dc.lft.to/lastmile_qr_scan"}, "lon": -77.0043425, "fusion_lat": 0.0}, {"name": "969638c5e150136ba1fb4e68eb8137eb", "fusion_lon": 0.0, "lat": 38.90282083333334, "is_reserved": 0, "type": "electric_scooter", "bike_id": "969638c5e150136ba1fb4e68eb8137eb", "is_disabled": 0, "rental_uris": {"android": "https://dc.lft.to/lastmile_qr_scan", "ios": "https://dc.lft.to/lastmile_qr_scan"}, "lon": -77.039328, "fusion_lat": 0.0}, {"name": "878d63c86dac3607052387d5a51f45ab", "fusion_lon": 0.0, "lat": 38.914233, "is_reserved": 0, "type": "electric_scooter", "bike_id": "878d63c86dac3607052387d5a51f45ab", "is_disabled": 0, "rental_uris": {"android": "https://dc.lft.to/lastmile_qr_scan", "ios": "https://dc.lft.to/lastmile_qr_scan"}, "lon": -77.0214795, "fusion_lat": 0.0}, {"name": "aee07d9f478a672cfd2c396deeb9f598", "fusion_lon": 0.0, "lat": 38.92039066666667, "is_reserved": 0, "type": "electric_scooter", "bike_id": "aee07d9f478a672cfd2c396deeb9f598", "is_disabled": 0, "rental_uris": {"android": "https://dc.lft.to/lastmile_qr_scan", "ios": "https://dc.lft.to/lastmile_qr_scan"}, "lon": -77.04191683333333, "fusion_lat": 0.0}, {"name": "9113141912bb9392f4323ef43df32797", "fusion_lon": 0.0, "lat": 38.911962833333334, "is_reserved": 0, "type": "electric_scooter", "bike_id": "9113141912bb9392f4323ef43df32797", "is_disabled": 0, "rental_uris": {"android": "https://dc.lft.to/lastmile_qr_scan", "ios": "https://dc.lft.to/lastmile_qr_scan"}, "lon": -77.03842633333333, "fusion_lat": 0.0}, {"name": "cb25fd8b0288e4eefa7cd284c1e7eef3", "fusion_lon": 0.0, "lat": 38.860867999999996, "is_reserved": 0, "type": "electric_bike", "bike_id": "cb25fd8b0288e4eefa7cd284c1e7eef3", "is_disabled": 0, "rental_uris": {"android": "https://dc.lft.to/lastmile_qr_scan", "ios": "https://dc.lft.to/lastmile_qr_scan"}, "lon": -77.09585183333333, "fusion_lat": 0.0}, {"name": "3f724664ba5ea2ab5cfc16dcf6d16735", "fusion_lon": 0.0, "lat": 38.936775833333336, "is_reserved": 0, "type": "electric_scooter", "bike_id": "3f724664ba5ea2ab5cfc16dcf6d16735", "is_disabled": 0, "rental_uris": {"android": "https://dc.lft.to/lastmile_qr_scan", "ios": "https://dc.lft.to/lastmile_qr_scan"}, "lon": -77.03625683333334, "fusion_lat": 0.0}, {"name": "11c130dea4648255c29691185d5fc56c", "fusion_lon": 0.0, "lat": 38.88109733333334, "is_reserved": 0, "type": "electric_scooter", "bike_id": "11c130dea4648255c29691185d5fc56c", "is_disabled": 0, "rental_uris": {"android": "https://dc.lft.to/lastmile_qr_scan", "ios": "https://dc.lft.to/lastmile_qr_scan"}, "lon": -77.0170315, "fusion_lat": 0.0}, {"name": "16d1bd09a77d0c0e0dcb8ed8aa1a8928", "fusion_lon": 0.0, "lat": 38.918246833333335, "is_reserved": 0, "type": "electric_scooter", "bike_id": "16d1bd09a77d0c0e0dcb8ed8aa1a8928", "is_disabled": 0, "rental_uris": {"android": "https://dc.lft.to/lastmile_qr_scan", "ios": "https://dc.lft.to/lastmile_qr_scan"}, "lon": -77.031768, "fusion_lat": 0.0}, {"name": "cc7c8f992ee4b4ab50cbd3dcbac885c2", "fusion_lon": 0.0, "lat": 38.9171645, "is_reserved": 0, "type": "electric_scooter", "bike_id": "cc7c8f992ee4b4ab50cbd3dcbac885c2", "is_disabled": 0, "rental_uris": {"android": "https://dc.lft.to/lastmile_qr_scan", "ios": "https://dc.lft.to/lastmile_qr_scan"}, "lon": -77.03853566666666, "fusion_lat": 0.0}, {"name": "bae4e1ab64c3b26428aac52d07bb3039", "fusion_lon": 0.0, "lat": 38.888125333333335, "is_reserved": 0, "type": "electric_scooter", "bike_id": "bae4e1ab64c3b26428aac52d07bb3039", "is_disabled": 0, "rental_uris": {"android": "https://dc.lft.to/lastmile_qr_scan", "ios": "https://dc.lft.to/lastmile_qr_scan"}, "lon": -76.93342266666667, "fusion_lat": 0.0}, {"name": "7f19362b67eeea7f7a5e48440548c229", "fusion_lon": 0.0, "lat": 38.9117155, "is_reserved": 0, "type": "electric_scooter", "bike_id": "7f19362b67eeea7f7a5e48440548c229", "is_disabled": 0, "rental_uris": {"android": "https://dc.lft.to/lastmile_qr_scan", "ios": "https://dc.lft.to/lastmile_qr_scan"}, "lon": -77.00445666666667, "fusion_lat": 0.0}, {"name": "326656cf21c145f3f10c8e7845fdfd08", "fusion_lon": 0.0, "lat": 38.923756166666664, "is_reserved": 0, "type": "electric_scooter", "bike_id": "326656cf21c145f3f10c8e7845fdfd08", "is_disabled": 0, "rental_uris": {"android": "https://dc.lft.to/lastmile_qr_scan", "ios": "https://dc.lft.to/lastmile_qr_scan"}, "lon": -77.03094983333334, "fusion_lat": 0.0}, {"name": "ef8c2b17072942d1481bac35f99f395d", "fusion_lon": 0.0, "lat": 38.89926033333333, "is_reserved": 0, "type": "electric_scooter", "bike_id": "ef8c2b17072942d1481bac35f99f395d", "is_disabled": 0, "rental_uris": {"android": "https://dc.lft.to/lastmile_qr_scan", "ios": "https://dc.lft.to/lastmile_qr_scan"}, "lon": -77.070571, "fusion_lat": 0.0}, {"name": "ebfabe6a0067c2bf5bb08e1cfd07f8e2", "fusion_lon": 0.0, "lat": 38.8984405, "is_reserved": 0, "type": "electric_scooter", "bike_id": "ebfabe6a0067c2bf5bb08e1cfd07f8e2", "is_disabled": 0, "rental_uris": {"android": "https://dc.lft.to/lastmile_qr_scan", "ios": "https://dc.lft.to/lastmile_qr_scan"}, "lon": -77.023849, "fusion_lat": 0.0}, {"name": "510a24b5dcaf21deffaeed048f7cb8d7", "fusion_lon": 0.0, "lat": 38.89951766666667, "is_reserved": 0, "type": "electric_bike", "bike_id": "510a24b5dcaf21deffaeed048f7cb8d7", "is_disabled": 0, "rental_uris": {"android": "https://dc.lft.to/lastmile_qr_scan", "ios": "https://dc.lft.to/lastmile_qr_scan"}, "lon": -76.98556283333333, "fusion_lat": 0.0}, {"name": "09a0e982d630e6e88e5688c92c49eb57", "fusion_lon": 0.0, "lat": 38.915624333333334, "is_reserved": 0, "type": "electric_scooter", "bike_id": "09a0e982d630e6e88e5688c92c49eb57", "is_disabled": 0, "rental_uris": {"android": "https://dc.lft.to/lastmile_qr_scan", "ios": "https://dc.lft.to/lastmile_qr_scan"}, "lon": -77.0103675, "fusion_lat": 0.0}, {"name": "3164852bb22f8f1ab7f92bb7c0be77d4", "fusion_lon": 0.0, "lat": 38.866229, "is_reserved": 0, "type": "electric_scooter", "bike_id": "3164852bb22f8f1ab7f92bb7c0be77d4", "is_disabled": 0, "rental_uris": {"android": "https://dc.lft.to/lastmile_qr_scan", "ios": "https://dc.lft.to/lastmile_qr_scan"}, "lon": -76.9890475, "fusion_lat": 0.0}, {"name": "9ae18a0d26b5c6f32392d515f063875f", "fusion_lon": 0.0, "lat": 38.90408866666667, "is_reserved": 0, "type": "electric_scooter", "bike_id": "9ae18a0d26b5c6f32392d515f063875f", "is_disabled": 0, "rental_uris": {"android": "https://dc.lft.to/lastmile_qr_scan", "ios": "https://dc.lft.to/lastmile_qr_scan"}, "lon": -77.04524016666667, "fusion_lat": 0.0}, {"name": "046ee919a35b0ae072a2e7af853f8ad1", "fusion_lon": 0.0, "lat": 38.90833166666667, "is_reserved": 0, "type": "electric_scooter", "bike_id": "046ee919a35b0ae072a2e7af853f8ad1", "is_disabled": 0, "rental_uris": {"android": "https://dc.lft.to/lastmile_qr_scan", "ios": "https://dc.lft.to/lastmile_qr_scan"}, "lon": -77.0023785, "fusion_lat": 0.0}, {"name": "5c1608fa6b02b13109fa1c6cb09353a0", "fusion_lon": 0.0, "lat": 38.922506166666665, "is_reserved": 0, "type": "electric_scooter", "bike_id": "5c1608fa6b02b13109fa1c6cb09353a0", "is_disabled": 0, "rental_uris": {"android": "https://dc.lft.to/lastmile_qr_scan", "ios": "https://dc.lft.to/lastmile_qr_scan"}, "lon": -77.030266, "fusion_lat": 0.0}, {"name": "5c6e708b05ad7095e69acce62342e3a2", "fusion_lon": 0.0, "lat": 38.915540666666665, "is_reserved": 0, "type": "electric_scooter", "bike_id": "5c6e708b05ad7095e69acce62342e3a2", "is_disabled": 0, "rental_uris": {"android": "https://dc.lft.to/lastmile_qr_scan", "ios": "https://dc.lft.to/lastmile_qr_scan"}, "lon": -77.0417995, "fusion_lat": 0.0}, {"name": "0eaab6baf28b4f258bcca3bfa9d7ce9d", "fusion_lon": 0.0, "lat": 38.91998183333333, "is_reserved": 0, "type": "electric_scooter", "bike_id": "0eaab6baf28b4f258bcca3bfa9d7ce9d", "is_disabled": 0, "rental_uris": {"android": "https://dc.lft.to/lastmile_qr_scan", "ios": "https://dc.lft.to/lastmile_qr_scan"}, "lon": -77.03219233333333, "fusion_lat": 0.0}, {"name": "9a79b3b4377d7af903c3b89614bd749f", "fusion_lon": 0.0, "lat": 38.897060333333336, "is_reserved": 0, "type": "electric_scooter", "bike_id": "9a79b3b4377d7af903c3b89614bd749f", "is_disabled": 0, "rental_uris": {"android": "https://dc.lft.to/lastmile_qr_scan", "ios": "https://dc.lft.to/lastmile_qr_scan"}, "lon": -76.930018, "fusion_lat": 0.0}, {"name": "da794a39052e8a2969e28a0e0a765692", "fusion_lon": 0.0, "lat": 38.916424, "is_reserved": 0, "type": "electric_scooter", "bike_id": "da794a39052e8a2969e28a0e0a765692", "is_disabled": 0, "rental_uris": {"android": "https://dc.lft.to/lastmile_qr_scan", "ios": "https://dc.lft.to/lastmile_qr_scan"}, "lon": -77.02399533333333, "fusion_lat": 0.0}, {"name": "01365a5f4dd1b5b30bf51875a0841905", "fusion_lon": 0.0, "lat": 38.927717666666666, "is_reserved": 0, "type": "electric_scooter", "bike_id": "01365a5f4dd1b5b30bf51875a0841905", "is_disabled": 0, "rental_uris": {"android": "https://dc.lft.to/lastmile_qr_scan", "ios": "https://dc.lft.to/lastmile_qr_scan"}, "lon": -77.0306475, "fusion_lat": 0.0}, {"name": "3b5a38cefe6e24d90aae23a9cbac7cf7", "fusion_lon": 0.0, "lat": 38.893420166666665, "is_reserved": 0, "type": "electric_scooter", "bike_id": "3b5a38cefe6e24d90aae23a9cbac7cf7", "is_disabled": 0, "rental_uris": {"android": "https://dc.lft.to/lastmile_qr_scan", "ios": "https://dc.lft.to/lastmile_qr_scan"}, "lon": -77.01714733333333, "fusion_lat": 0.0}, {"name": "4dc21f0c28cf0ca4c4c43ee06f9e2c5c", "fusion_lon": 0.0, "lat": 38.89916566666667, "is_reserved": 0, "type": "electric_scooter", "bike_id": "4dc21f0c28cf0ca4c4c43ee06f9e2c5c", "is_disabled": 0, "rental_uris": {"android": "https://dc.lft.to/lastmile_qr_scan", "ios": "https://dc.lft.to/lastmile_qr_scan"}, "lon": -76.97715333333333, "fusion_lat": 0.0}, {"name": "fc7673533251052ab227a1888ae354f2", "fusion_lon": 0.0, "lat": 38.95530566666667, "is_reserved": 0, "type": "electric_scooter", "bike_id": "fc7673533251052ab227a1888ae354f2", "is_disabled": 0, "rental_uris": {"android": "https://dc.lft.to/lastmile_qr_scan", "ios": "https://dc.lft.to/lastmile_qr_scan"}, "lon": -77.027775, "fusion_lat": 0.0}, {"name": "126bb55824603e830b8e11363fb35329", "fusion_lon": 0.0, "lat": 38.924142333333336, "is_reserved": 0, "type": "electric_scooter", "bike_id": "126bb55824603e830b8e11363fb35329", "is_disabled": 0, "rental_uris": {"android": "https://dc.lft.to/lastmile_qr_scan", "ios": "https://dc.lft.to/lastmile_qr_scan"}, "lon": -77.035463, "fusion_lat": 0.0}, {"name": "31fa5f66e675241b289168ec48b40ea7", "fusion_lon": 0.0, "lat": 38.9301495, "is_reserved": 0, "type": "electric_scooter", "bike_id": "31fa5f66e675241b289168ec48b40ea7", "is_disabled": 0, "rental_uris": {"android": "https://dc.lft.to/lastmile_qr_scan", "ios": "https://dc.lft.to/lastmile_qr_scan"}, "lon": -77.06087766666667, "fusion_lat": 0.0}, {"name": "02166f92d9bee9b8b05ba0c760ee6f0e", "fusion_lon": 0.0, "lat": 38.9079065, "is_reserved": 0, "type": "electric_scooter", "bike_id": "02166f92d9bee9b8b05ba0c760ee6f0e", "is_disabled": 0, "rental_uris": {"android": "https://dc.lft.to/lastmile_qr_scan", "ios": "https://dc.lft.to/lastmile_qr_scan"}, "lon": -77.03616116666667, "fusion_lat": 0.0}, {"name": "bd542914a1137a612c71e839147be638", "fusion_lon": 0.0, "lat": 38.838099, "is_reserved": 0, "type": "electric_bike", "bike_id": "bd542914a1137a612c71e839147be638", "is_disabled": 0, "rental_uris": {"android": "https://dc.lft.to/lastmile_qr_scan", "ios": "https://dc.lft.to/lastmile_qr_scan"}, "lon": -77.095208, "fusion_lat": 0.0}, {"name": "d96672b0cb1e9462bd9ad69b586789d7", "fusion_lon": 0.0, "lat": 38.951764833333336, "is_reserved": 0, "type": "electric_scooter", "bike_id": "d96672b0cb1e9462bd9ad69b586789d7", "is_disabled": 0, "rental_uris": {"android": "https://dc.lft.to/lastmile_qr_scan", "ios": "https://dc.lft.to/lastmile_qr_scan"}, "lon": -77.0272605, "fusion_lat": 0.0}, {"name": "f72834b23d6bfb884c3b6f94a48c2de5", "fusion_lon": 0.0, "lat": 38.919228, "is_reserved": 0, "type": "electric_scooter", "bike_id": "f72834b23d6bfb884c3b6f94a48c2de5", "is_disabled": 0, "rental_uris": {"android": "https://dc.lft.to/lastmile_qr_scan", "ios": "https://dc.lft.to/lastmile_qr_scan"}, "lon": -77.0249715, "fusion_lat": 0.0}, {"name": "2c9c69befd19618bbd60968d10fbc64b", "fusion_lon": 0.0, "lat": 38.857659166666664, "is_reserved": 0, "type": "electric_bike", "bike_id": "2c9c69befd19618bbd60968d10fbc64b", "is_disabled": 0, "rental_uris": {"android": "https://dc.lft.to/lastmile_qr_scan", "ios": "https://dc.lft.to/lastmile_qr_scan"}, "lon": -76.98765816666666, "fusion_lat": 0.0}, {"name": "f3cc4c7297e92675ce450b744bb7b6c0", "fusion_lon": 0.0, "lat": 38.871791, "is_reserved": 0, "type": "electric_scooter", "bike_id": "f3cc4c7297e92675ce450b744bb7b6c0", "is_disabled": 0, "rental_uris": {"android": "https://dc.lft.to/lastmile_qr_scan", "ios": "https://dc.lft.to/lastmile_qr_scan"}, "lon": -77.00615816666667, "fusion_lat": 0.0}, {"name": "2da9a1ccc38417e700ff37d1f25c07c1", "fusion_lon": 0.0, "lat": 38.90607816666667, "is_reserved": 0, "type": "electric_scooter", "bike_id": "2da9a1ccc38417e700ff37d1f25c07c1", "is_disabled": 0, "rental_uris": {"android": "https://dc.lft.to/lastmile_qr_scan", "ios": "https://dc.lft.to/lastmile_qr_scan"}, "lon": -76.98511966666666, "fusion_lat": 0.0}, {"name": "c93a8495a3c47a949c7b1e7aa9a4985f", "fusion_lon": 0.0, "lat": 38.92858283333333, "is_reserved": 0, "type": "electric_scooter", "bike_id": "c93a8495a3c47a949c7b1e7aa9a4985f", "is_disabled": 0, "rental_uris": {"android": "https://dc.lft.to/lastmile_qr_scan", "ios": "https://dc.lft.to/lastmile_qr_scan"}, "lon": -77.0137905, "fusion_lat": 0.0}, {"name": "945189b2c57ab07325040b673e590393", "fusion_lon": 0.0, "lat": 38.909581333333335, "is_reserved": 0, "type": "electric_scooter", "bike_id": "945189b2c57ab07325040b673e590393", "is_disabled": 0, "rental_uris": {"android": "https://dc.lft.to/lastmile_qr_scan", "ios": "https://dc.lft.to/lastmile_qr_scan"}, "lon": -77.02682333333334, "fusion_lat": 0.0}, {"name": "0b49f4b260ab07ceddfc603cdc8c8673", "fusion_lon": 0.0, "lat": 38.90492583333333, "is_reserved": 0, "type": "electric_scooter", "bike_id": "0b49f4b260ab07ceddfc603cdc8c8673", "is_disabled": 0, "rental_uris": {"android": "https://dc.lft.to/lastmile_qr_scan", "ios": "https://dc.lft.to/lastmile_qr_scan"}, "lon": -76.949619, "fusion_lat": 0.0}, {"name": "96d3f5a8f55a7a20065029769f22f1f3", "fusion_lon": 0.0, "lat": 38.918491833333334, "is_reserved": 0, "type": "electric_scooter", "bike_id": "96d3f5a8f55a7a20065029769f22f1f3", "is_disabled": 0, "rental_uris": {"android": "https://dc.lft.to/lastmile_qr_scan", "ios": "https://dc.lft.to/lastmile_qr_scan"}, "lon": -77.02328566666667, "fusion_lat": 0.0}, {"name": "babe6d78a26ff20ee272ef5be81cb5c5", "fusion_lon": 0.0, "lat": 38.96278083333333, "is_reserved": 0, "type": "electric_bike", "bike_id": "babe6d78a26ff20ee272ef5be81cb5c5", "is_disabled": 0, "rental_uris": {"android": "https://dc.lft.to/lastmile_qr_scan", "ios": "https://dc.lft.to/lastmile_qr_scan"}, "lon": -77.01455683333333, "fusion_lat": 0.0}, {"name": "cf07656b41f2da5ed6af02d3928ee8c8", "fusion_lon": 0.0, "lat": 38.9517445, "is_reserved": 0, "type": "electric_bike", "bike_id": "cf07656b41f2da5ed6af02d3928ee8c8", "is_disabled": 0, "rental_uris": {"android": "https://dc.lft.to/lastmile_qr_scan", "ios": "https://dc.lft.to/lastmile_qr_scan"}, "lon": -76.977297, "fusion_lat": 0.0}, {"name": "d61893a407cda38f6803bd348b3315ea", "fusion_lon": 0.0, "lat": 38.95707933333333, "is_reserved": 0, "type": "electric_scooter", "bike_id": "d61893a407cda38f6803bd348b3315ea", "is_disabled": 0, "rental_uris": {"android": "https://dc.lft.to/lastmile_qr_scan", "ios": "https://dc.lft.to/lastmile_qr_scan"}, "lon": -77.0239815, "fusion_lat": 0.0}, {"name": "c18feccc46a563e72a74a9ac4eab1b4b", "fusion_lon": 0.0, "lat": 38.8983455, "is_reserved": 0, "type": "electric_scooter", "bike_id": "c18feccc46a563e72a74a9ac4eab1b4b", "is_disabled": 0, "rental_uris": {"android": "https://dc.lft.to/lastmile_qr_scan", "ios": "https://dc.lft.to/lastmile_qr_scan"}, "lon": -77.033593, "fusion_lat": 0.0}, {"name": "a5e4f16ce90789e53fdafba8315fffbd", "fusion_lon": 0.0, "lat": 38.90419766666667, "is_reserved": 0, "type": "electric_scooter", "bike_id": "a5e4f16ce90789e53fdafba8315fffbd", "is_disabled": 0, "rental_uris": {"android": "https://dc.lft.to/lastmile_qr_scan", "ios": "https://dc.lft.to/lastmile_qr_scan"}, "lon": -77.025159, "fusion_lat": 0.0}, {"name": "b196cab57bdc87862851f95c25cfa5ae", "fusion_lon": 0.0, "lat": 38.90161366666667, "is_reserved": 0, "type": "electric_scooter", "bike_id": "b196cab57bdc87862851f95c25cfa5ae", "is_disabled": 0, "rental_uris": {"android": "https://dc.lft.to/lastmile_qr_scan", "ios": "https://dc.lft.to/lastmile_qr_scan"}, "lon": -77.0507385, "fusion_lat": 0.0}, {"name": "179d8dc508e2b3ea8db68eb2d1fee42d", "fusion_lon": 0.0, "lat": 38.879466, "is_reserved": 0, "type": "electric_scooter", "bike_id": "179d8dc508e2b3ea8db68eb2d1fee42d", "is_disabled": 0, "rental_uris": {"android": "https://dc.lft.to/lastmile_qr_scan", "ios": "https://dc.lft.to/lastmile_qr_scan"}, "lon": -77.00902516666666, "fusion_lat": 0.0}, {"name": "7d4f23d0bedba0699708c7e97b99e99e", "fusion_lon": 0.0, "lat": 38.92249266666666, "is_reserved": 0, "type": "electric_scooter", "bike_id": "7d4f23d0bedba0699708c7e97b99e99e", "is_disabled": 0, "rental_uris": {"android": "https://dc.lft.to/lastmile_qr_scan", "ios": "https://dc.lft.to/lastmile_qr_scan"}, "lon": -77.02978333333333, "fusion_lat": 0.0}, {"name": "fd5b013bc919dc45d61806529568ba93", "fusion_lon": 0.0, "lat": 38.90213933333333, "is_reserved": 0, "type": "electric_scooter", "bike_id": "fd5b013bc919dc45d61806529568ba93", "is_disabled": 0, "rental_uris": {"android": "https://dc.lft.to/lastmile_qr_scan", "ios": "https://dc.lft.to/lastmile_qr_scan"}, "lon": -77.02437333333333, "fusion_lat": 0.0}, {"name": "c618ec8e85b6fa13af1ee69e5873aca7", "fusion_lon": 0.0, "lat": 38.876392333333335, "is_reserved": 0, "type": "electric_scooter", "bike_id": "c618ec8e85b6fa13af1ee69e5873aca7", "is_disabled": 0, "rental_uris": {"android": "https://dc.lft.to/lastmile_qr_scan", "ios": "https://dc.lft.to/lastmile_qr_scan"}, "lon": -77.00563733333334, "fusion_lat": 0.0}, {"name": "98c3ac39e0d57cccaef3c80081063b80", "fusion_lon": 0.0, "lat": 38.9523365, "is_reserved": 0, "type": "electric_scooter", "bike_id": "98c3ac39e0d57cccaef3c80081063b80", "is_disabled": 0, "rental_uris": {"android": "https://dc.lft.to/lastmile_qr_scan", "ios": "https://dc.lft.to/lastmile_qr_scan"}, "lon": -77.01432483333333, "fusion_lat": 0.0}, {"name": "65118b16e20bf9e74fc292c6541008af", "fusion_lon": 0.0, "lat": 38.920736, "is_reserved": 0, "type": "electric_scooter", "bike_id": "65118b16e20bf9e74fc292c6541008af", "is_disabled": 0, "rental_uris": {"android": "https://dc.lft.to/lastmile_qr_scan", "ios": "https://dc.lft.to/lastmile_qr_scan"}, "lon": -77.0241595, "fusion_lat": 0.0}, {"name": "4dad6fed5ac783dec8d5c6be4a83ecc2", "fusion_lon": 0.0, "lat": 38.93072866666667, "is_reserved": 0, "type": "electric_scooter", "bike_id": "4dad6fed5ac783dec8d5c6be4a83ecc2", "is_disabled": 0, "rental_uris": {"android": "https://dc.lft.to/lastmile_qr_scan", "ios": "https://dc.lft.to/lastmile_qr_scan"}, "lon": -77.02169283333333, "fusion_lat": 0.0}, {"name": "f9727ebef88e12947d4e11ad2a84eefc", "fusion_lon": 0.0, "lat": 38.91479433333333, "is_reserved": 0, "type": "electric_scooter", "bike_id": "f9727ebef88e12947d4e11ad2a84eefc", "is_disabled": 0, "rental_uris": {"android": "https://dc.lft.to/lastmile_qr_scan", "ios": "https://dc.lft.to/lastmile_qr_scan"}, "lon": -77.02540866666666, "fusion_lat": 0.0}, {"name": "d64b913376947b775d7274c307efc4cc", "fusion_lon": 0.0, "lat": 38.92667866666667, "is_reserved": 0, "type": "electric_scooter", "bike_id": "d64b913376947b775d7274c307efc4cc", "is_disabled": 0, "rental_uris": {"android": "https://dc.lft.to/lastmile_qr_scan", "ios": "https://dc.lft.to/lastmile_qr_scan"}, "lon": -77.03049716666666, "fusion_lat": 0.0}, {"name": "1e3e810897922551f9b14a9b63dc0e66", "fusion_lon": 0.0, "lat": 38.908397, "is_reserved": 0, "type": "electric_scooter", "bike_id": "1e3e810897922551f9b14a9b63dc0e66", "is_disabled": 0, "rental_uris": {"android": "https://dc.lft.to/lastmile_qr_scan", "ios": "https://dc.lft.to/lastmile_qr_scan"}, "lon": -77.009348, "fusion_lat": 0.0}, {"name": "a7afade6c7b6a3296dd0fe4e92b0876b", "fusion_lon": 0.0, "lat": 38.887177666666666, "is_reserved": 0, "type": "electric_scooter", "bike_id": "a7afade6c7b6a3296dd0fe4e92b0876b", "is_disabled": 0, "rental_uris": {"android": "https://dc.lft.to/lastmile_qr_scan", "ios": "https://dc.lft.to/lastmile_qr_scan"}, "lon": -77.01773733333333, "fusion_lat": 0.0}, {"name": "e1a5d311a374447e123fea755cc40d74", "fusion_lon": 0.0, "lat": 38.919270166666664, "is_reserved": 0, "type": "electric_scooter", "bike_id": "e1a5d311a374447e123fea755cc40d74", "is_disabled": 0, "rental_uris": {"android": "https://dc.lft.to/lastmile_qr_scan", "ios": "https://dc.lft.to/lastmile_qr_scan"}, "lon": -77.025031, "fusion_lat": 0.0}, {"name": "9af949a37becc2a740ec4d39656a11a1", "fusion_lon": 0.0, "lat": 38.90628916666667, "is_reserved": 0, "type": "electric_scooter", "bike_id": "9af949a37becc2a740ec4d39656a11a1", "is_disabled": 0, "rental_uris": {"android": "https://dc.lft.to/lastmile_qr_scan", "ios": "https://dc.lft.to/lastmile_qr_scan"}, "lon": -77.034156, "fusion_lat": 0.0}, {"name": "3fa215b9095508cc92f2af7a3dd46695", "fusion_lon": 0.0, "lat": 38.867007, "is_reserved": 0, "type": "electric_scooter", "bike_id": "3fa215b9095508cc92f2af7a3dd46695", "is_disabled": 0, "rental_uris": {"android": "https://dc.lft.to/lastmile_qr_scan", "ios": "https://dc.lft.to/lastmile_qr_scan"}, "lon": -76.98714316666667, "fusion_lat": 0.0}, {"name": "4ef9294b1fbe70243bbc6c61d4b21c82", "fusion_lon": 0.0, "lat": 38.89629516666667, "is_reserved": 0, "type": "electric_scooter", "bike_id": "4ef9294b1fbe70243bbc6c61d4b21c82", "is_disabled": 0, "rental_uris": {"android": "https://dc.lft.to/lastmile_qr_scan", "ios": "https://dc.lft.to/lastmile_qr_scan"}, "lon": -77.02990983333333, "fusion_lat": 0.0}, {"name": "a7b6ba3ed1798ea8803666a074c2dec0", "fusion_lon": 0.0, "lat": 38.9003175, "is_reserved": 0, "type": "electric_scooter", "bike_id": "a7b6ba3ed1798ea8803666a074c2dec0", "is_disabled": 0, "rental_uris": {"android": "https://dc.lft.to/lastmile_qr_scan", "ios": "https://dc.lft.to/lastmile_qr_scan"}, "lon": -77.01762066666667, "fusion_lat": 0.0}, {"name": "82264b4ba10da341faef17b5077b93d8", "fusion_lon": 0.0, "lat": 38.951829333333336, "is_reserved": 0, "type": "electric_scooter", "bike_id": "82264b4ba10da341faef17b5077b93d8", "is_disabled": 0, "rental_uris": {"android": "https://dc.lft.to/lastmile_qr_scan", "ios": "https://dc.lft.to/lastmile_qr_scan"}, "lon": -77.0272785, "fusion_lat": 0.0}, {"name": "b908df9ee6610ab6a61a2675df917d38", "fusion_lon": 0.0, "lat": 38.91190066666667, "is_reserved": 0, "type": "electric_scooter", "bike_id": "b908df9ee6610ab6a61a2675df917d38", "is_disabled": 0, "rental_uris": {"android": "https://dc.lft.to/lastmile_qr_scan", "ios": "https://dc.lft.to/lastmile_qr_scan"}, "lon": -77.01773133333333, "fusion_lat": 0.0}, {"name": "08f0784d4be40ea6df106393c0a6e353", "fusion_lon": 0.0, "lat": 38.90031283333333, "is_reserved": 0, "type": "electric_scooter", "bike_id": "08f0784d4be40ea6df106393c0a6e353", "is_disabled": 0, "rental_uris": {"android": "https://dc.lft.to/lastmile_qr_scan", "ios": "https://dc.lft.to/lastmile_qr_scan"}, "lon": -76.99692733333333, "fusion_lat": 0.0}, {"name": "af82d8e0c0775a1e24b1f8b3ac0de7cc", "fusion_lon": 0.0, "lat": 38.902729666666666, "is_reserved": 0, "type": "electric_scooter", "bike_id": "af82d8e0c0775a1e24b1f8b3ac0de7cc", "is_disabled": 0, "rental_uris": {"android": "https://dc.lft.to/lastmile_qr_scan", "ios": "https://dc.lft.to/lastmile_qr_scan"}, "lon": -77.0176905, "fusion_lat": 0.0}, {"name": "6fbf5ac298363aa79ee62dfe6c557e0b", "fusion_lon": 0.0, "lat": 38.90018766666667, "is_reserved": 0, "type": "electric_scooter", "bike_id": "6fbf5ac298363aa79ee62dfe6c557e0b", "is_disabled": 0, "rental_uris": {"android": "https://dc.lft.to/lastmile_qr_scan", "ios": "https://dc.lft.to/lastmile_qr_scan"}, "lon": -76.98053116666667, "fusion_lat": 0.0}, {"name": "27ffb9eef97d1dfefc61d180c2d8db69", "fusion_lon": 0.0, "lat": 38.9168335, "is_reserved": 0, "type": "electric_scooter", "bike_id": "27ffb9eef97d1dfefc61d180c2d8db69", "is_disabled": 0, "rental_uris": {"android": "https://dc.lft.to/lastmile_qr_scan", "ios": "https://dc.lft.to/lastmile_qr_scan"}, "lon": -77.02691783333333, "fusion_lat": 0.0}, {"name": "133dcdd372250f1e70e62e8e13d4bd60", "fusion_lon": 0.0, "lat": 38.923824333333336, "is_reserved": 0, "type": "electric_scooter", "bike_id": "133dcdd372250f1e70e62e8e13d4bd60", "is_disabled": 0, "rental_uris": {"android": "https://dc.lft.to/lastmile_qr_scan", "ios": "https://dc.lft.to/lastmile_qr_scan"}, "lon": -77.0256525, "fusion_lat": 0.0}, {"name": "b22b06d0d74ef967cb86a54f0ea0165b", "fusion_lon": 0.0, "lat": 38.927980833333336, "is_reserved": 0, "type": "electric_scooter", "bike_id": "b22b06d0d74ef967cb86a54f0ea0165b", "is_disabled": 0, "rental_uris": {"android": "https://dc.lft.to/lastmile_qr_scan", "ios": "https://dc.lft.to/lastmile_qr_scan"}, "lon": -77.030268, "fusion_lat": 0.0}, {"name": "ba6c80b8d3dd7662d048bd1489ff3047", "fusion_lon": 0.0, "lat": 38.834452166666665, "is_reserved": 0, "type": "electric_scooter", "bike_id": "ba6c80b8d3dd7662d048bd1489ff3047", "is_disabled": 0, "rental_uris": {"android": "https://dc.lft.to/lastmile_qr_scan", "ios": "https://dc.lft.to/lastmile_qr_scan"}, "lon": -76.99069183333333, "fusion_lat": 0.0}, {"name": "2a5fd6ab7acae18bbd65c672a12bb62e", "fusion_lon": 0.0, "lat": 38.9576045, "is_reserved": 0, "type": "electric_scooter", "bike_id": "2a5fd6ab7acae18bbd65c672a12bb62e", "is_disabled": 0, "rental_uris": {"android": "https://dc.lft.to/lastmile_qr_scan", "ios": "https://dc.lft.to/lastmile_qr_scan"}, "lon": -77.02098916666667, "fusion_lat": 0.0}, {"name": "9fca5b095656e6f468a165136350b692", "fusion_lon": 0.0, "lat": 38.90436566666666, "is_reserved": 0, "type": "electric_scooter", "bike_id": "9fca5b095656e6f468a165136350b692", "is_disabled": 0, "rental_uris": {"android": "https://dc.lft.to/lastmile_qr_scan", "ios": "https://dc.lft.to/lastmile_qr_scan"}, "lon": -76.9848605, "fusion_lat": 0.0}, {"name": "a98eecc61ee531c1cc1ca1ae3d93ac29", "fusion_lon": 0.0, "lat": 38.917480833333336, "is_reserved": 0, "type": "electric_bike", "bike_id": "a98eecc61ee531c1cc1ca1ae3d93ac29", "is_disabled": 0, "rental_uris": {"android": "https://dc.lft.to/lastmile_qr_scan", "ios": "https://dc.lft.to/lastmile_qr_scan"}, "lon": -77.0005025, "fusion_lat": 0.0}, {"name": "53b7d1f4ace555f9098d840baaddfe0e", "fusion_lon": 0.0, "lat": 38.921235833333334, "is_reserved": 0, "type": "electric_scooter", "bike_id": "53b7d1f4ace555f9098d840baaddfe0e", "is_disabled": 0, "rental_uris": {"android": "https://dc.lft.to/lastmile_qr_scan", "ios": "https://dc.lft.to/lastmile_qr_scan"}, "lon": -77.03661566666666, "fusion_lat": 0.0}, {"name": "dde5db4779a7c3114f43d8cd74ee67f4", "fusion_lon": 0.0, "lat": 38.9498975, "is_reserved": 0, "type": "electric_scooter", "bike_id": "dde5db4779a7c3114f43d8cd74ee67f4", "is_disabled": 0, "rental_uris": {"android": "https://dc.lft.to/lastmile_qr_scan", "ios": "https://dc.lft.to/lastmile_qr_scan"}, "lon": -77.02707933333333, "fusion_lat": 0.0}, {"name": "f9a2807634d86d687a894f44a0edbe48", "fusion_lon": 0.0, "lat": 38.91121233333333, "is_reserved": 0, "type": "electric_scooter", "bike_id": "f9a2807634d86d687a894f44a0edbe48", "is_disabled": 0, "rental_uris": {"android": "https://dc.lft.to/lastmile_qr_scan", "ios": "https://dc.lft.to/lastmile_qr_scan"}, "lon": -77.022442, "fusion_lat": 0.0}, {"name": "8ef3cdddbdb544297a649b63a0c5080c", "fusion_lon": 0.0, "lat": 38.884002, "is_reserved": 0, "type": "electric_scooter", "bike_id": "8ef3cdddbdb544297a649b63a0c5080c", "is_disabled": 0, "rental_uris": {"android": "https://dc.lft.to/lastmile_qr_scan", "ios": "https://dc.lft.to/lastmile_qr_scan"}, "lon": -77.02599383333333, "fusion_lat": 0.0}, {"name": "1805b73c4b52e0387ad1b3843eb25d4c", "fusion_lon": 0.0, "lat": 38.97176966666667, "is_reserved": 0, "type": "electric_scooter", "bike_id": "1805b73c4b52e0387ad1b3843eb25d4c", "is_disabled": 0, "rental_uris": {"android": "https://dc.lft.to/lastmile_qr_scan", "ios": "https://dc.lft.to/lastmile_qr_scan"}, "lon": -77.0267545, "fusion_lat": 0.0}, {"name": "70cc4f5a9f713b5810815b9cc876505c", "fusion_lon": 0.0, "lat": 38.91837, "is_reserved": 0, "type": "electric_scooter", "bike_id": "70cc4f5a9f713b5810815b9cc876505c", "is_disabled": 0, "rental_uris": {"android": "https://dc.lft.to/lastmile_qr_scan", "ios": "https://dc.lft.to/lastmile_qr_scan"}, "lon": -77.05949266666667, "fusion_lat": 0.0}, {"name": "b4be88a78ca6882496ef104fa3bcee53", "fusion_lon": 0.0, "lat": 38.87823183333333, "is_reserved": 0, "type": "electric_scooter", "bike_id": "b4be88a78ca6882496ef104fa3bcee53", "is_disabled": 0, "rental_uris": {"android": "https://dc.lft.to/lastmile_qr_scan", "ios": "https://dc.lft.to/lastmile_qr_scan"}, "lon": -76.93100266666667, "fusion_lat": 0.0}, {"name": "b8210f4fe8df2f924178629140735c0d", "fusion_lon": 0.0, "lat": 38.90413916666667, "is_reserved": 0, "type": "electric_scooter", "bike_id": "b8210f4fe8df2f924178629140735c0d", "is_disabled": 0, "rental_uris": {"android": "https://dc.lft.to/lastmile_qr_scan", "ios": "https://dc.lft.to/lastmile_qr_scan"}, "lon": -76.97331783333334, "fusion_lat": 0.0}, {"name": "7eefb5d725168ad7927f3c945b4fe27f", "fusion_lon": 0.0, "lat": 38.878580666666664, "is_reserved": 0, "type": "electric_bike", "bike_id": "7eefb5d725168ad7927f3c945b4fe27f", "is_disabled": 0, "rental_uris": {"android": "https://dc.lft.to/lastmile_qr_scan", "ios": "https://dc.lft.to/lastmile_qr_scan"}, "lon": -77.0176, "fusion_lat": 0.0}, {"name": "d52b9a35d5228a780caf1733cc2d83b5", "fusion_lon": 0.0, "lat": 39.00031083333333, "is_reserved": 0, "type": "electric_bike", "bike_id": "d52b9a35d5228a780caf1733cc2d83b5", "is_disabled": 0, "rental_uris": {"android": "https://dc.lft.to/lastmile_qr_scan", "ios": "https://dc.lft.to/lastmile_qr_scan"}, "lon": -77.04741066666666, "fusion_lat": 0.0}, {"name": "6eb8e7c6a1fcad1a7354168d05510df9", "fusion_lon": 0.0, "lat": 38.87295566666667, "is_reserved": 0, "type": "electric_bike", "bike_id": "6eb8e7c6a1fcad1a7354168d05510df9", "is_disabled": 0, "rental_uris": {"android": "https://dc.lft.to/lastmile_qr_scan", "ios": "https://dc.lft.to/lastmile_qr_scan"}, "lon": -76.96977816666667, "fusion_lat": 0.0}, {"name": "c7491b32059cfe210b98a25f9bba86b7", "fusion_lon": 0.0, "lat": 38.91518416666667, "is_reserved": 0, "type": "electric_scooter", "bike_id": "c7491b32059cfe210b98a25f9bba86b7", "is_disabled": 0, "rental_uris": {"android": "https://dc.lft.to/lastmile_qr_scan", "ios": "https://dc.lft.to/lastmile_qr_scan"}, "lon": -77.012278, "fusion_lat": 0.0}, {"name": "d0d27633479de06b2a01263e77c0e468", "fusion_lon": 0.0, "lat": 38.92436, "is_reserved": 0, "type": "electric_scooter", "bike_id": "d0d27633479de06b2a01263e77c0e468", "is_disabled": 0, "rental_uris": {"android": "https://dc.lft.to/lastmile_qr_scan", "ios": "https://dc.lft.to/lastmile_qr_scan"}, "lon": -77.04253716666666, "fusion_lat": 0.0}, {"name": "88a552fd46dd816858ac3ef5599ffcd8", "fusion_lon": 0.0, "lat": 38.924614166666665, "is_reserved": 0, "type": "electric_scooter", "bike_id": "88a552fd46dd816858ac3ef5599ffcd8", "is_disabled": 0, "rental_uris": {"android": "https://dc.lft.to/lastmile_qr_scan", "ios": "https://dc.lft.to/lastmile_qr_scan"}, "lon": -77.08165233333334, "fusion_lat": 0.0}, {"name": "38d84cafc8ff37378e47255da471c79f", "fusion_lon": 0.0, "lat": 38.92537, "is_reserved": 0, "type": "electric_scooter", "bike_id": "38d84cafc8ff37378e47255da471c79f", "is_disabled": 0, "rental_uris": {"android": "https://dc.lft.to/lastmile_qr_scan", "ios": "https://dc.lft.to/lastmile_qr_scan"}, "lon": -76.9721855, "fusion_lat": 0.0}, {"name": "c9981465ccb579c0f5a1ff74ad91aa13", "fusion_lon": 0.0, "lat": 38.875894, "is_reserved": 0, "type": "electric_scooter", "bike_id": "c9981465ccb579c0f5a1ff74ad91aa13", "is_disabled": 0, "rental_uris": {"android": "https://dc.lft.to/lastmile_qr_scan", "ios": "https://dc.lft.to/lastmile_qr_scan"}, "lon": -77.0003015, "fusion_lat": 0.0}, {"name": "4884a3e8b41e0dac14723f5a24369032", "fusion_lon": 0.0, "lat": 38.900109666666665, "is_reserved": 0, "type": "electric_scooter", "bike_id": "4884a3e8b41e0dac14723f5a24369032", "is_disabled": 0, "rental_uris": {"android": "https://dc.lft.to/lastmile_qr_scan", "ios": "https://dc.lft.to/lastmile_qr_scan"}, "lon": -76.9302925, "fusion_lat": 0.0}, {"name": "053d538f0d642f21a8131d98417854e8", "fusion_lon": 0.0, "lat": 38.915545333333334, "is_reserved": 0, "type": "electric_scooter", "bike_id": "053d538f0d642f21a8131d98417854e8", "is_disabled": 0, "rental_uris": {"android": "https://dc.lft.to/lastmile_qr_scan", "ios": "https://dc.lft.to/lastmile_qr_scan"}, "lon": -77.05317033333333, "fusion_lat": 0.0}, {"name": "6f41390bcf34d5e2033d718d5de9d70d", "fusion_lon": 0.0, "lat": 38.926035666666664, "is_reserved": 0, "type": "electric_scooter", "bike_id": "6f41390bcf34d5e2033d718d5de9d70d", "is_disabled": 0, "rental_uris": {"android": "https://dc.lft.to/lastmile_qr_scan", "ios": "https://dc.lft.to/lastmile_qr_scan"}, "lon": -77.02411733333334, "fusion_lat": 0.0}, {"name": "bc4f1eb7a29854b7c64b62b221cd9560", "fusion_lon": 0.0, "lat": 38.92027233333334, "is_reserved": 0, "type": "electric_scooter", "bike_id": "bc4f1eb7a29854b7c64b62b221cd9560", "is_disabled": 0, "rental_uris": {"android": "https://dc.lft.to/lastmile_qr_scan", "ios": "https://dc.lft.to/lastmile_qr_scan"}, "lon": -77.011196, "fusion_lat": 0.0}, {"name": "2d0af6ab907af907a103e102e55d4c02", "fusion_lon": 0.0, "lat": 38.933921833333336, "is_reserved": 0, "type": "electric_scooter", "bike_id": "2d0af6ab907af907a103e102e55d4c02", "is_disabled": 0, "rental_uris": {"android": "https://dc.lft.to/lastmile_qr_scan", "ios": "https://dc.lft.to/lastmile_qr_scan"}, "lon": -77.0233355, "fusion_lat": 0.0}, {"name": "8b4239b489bddc8c71eec05387d1f0cf", "fusion_lon": 0.0, "lat": 38.927706666666666, "is_reserved": 0, "type": "electric_scooter", "bike_id": "8b4239b489bddc8c71eec05387d1f0cf", "is_disabled": 0, "rental_uris": {"android": "https://dc.lft.to/lastmile_qr_scan", "ios": "https://dc.lft.to/lastmile_qr_scan"}, "lon": -77.02785916666667, "fusion_lat": 0.0}, {"name": "75f55ec20c2c0adae2a8c41e166ffd35", "fusion_lon": 0.0, "lat": 38.9047335, "is_reserved": 0, "type": "electric_bike", "bike_id": "75f55ec20c2c0adae2a8c41e166ffd35", "is_disabled": 0, "rental_uris": {"android": "https://dc.lft.to/lastmile_qr_scan", "ios": "https://dc.lft.to/lastmile_qr_scan"}, "lon": -76.9732665, "fusion_lat": 0.0}, {"name": "174d954fdd263ea3900ffa13526a4a25", "fusion_lon": 0.0, "lat": 38.87943083333333, "is_reserved": 0, "type": "electric_scooter", "bike_id": "174d954fdd263ea3900ffa13526a4a25", "is_disabled": 0, "rental_uris": {"android": "https://dc.lft.to/lastmile_qr_scan", "ios": "https://dc.lft.to/lastmile_qr_scan"}, "lon": -77.00539716666667, "fusion_lat": 0.0}, {"name": "22c5f2e9f84bc390d7511af8b4efec9d", "fusion_lon": 0.0, "lat": 38.8929775, "is_reserved": 0, "type": "electric_scooter", "bike_id": "22c5f2e9f84bc390d7511af8b4efec9d", "is_disabled": 0, "rental_uris": {"android": "https://dc.lft.to/lastmile_qr_scan", "ios": "https://dc.lft.to/lastmile_qr_scan"}, "lon": -76.93926416666666, "fusion_lat": 0.0}, {"name": "f29bde1cec2f9cd1707d5ca87e8cf582", "fusion_lon": 0.0, "lat": 38.94564666666667, "is_reserved": 0, "type": "electric_bike", "bike_id": "f29bde1cec2f9cd1707d5ca87e8cf582", "is_disabled": 0, "rental_uris": {"android": "https://dc.lft.to/lastmile_qr_scan", "ios": "https://dc.lft.to/lastmile_qr_scan"}, "lon": -76.96687133333333, "fusion_lat": 0.0}, {"name": "e2b215a4f1f9378819d12655b7c10509", "fusion_lon": 0.0, "lat": 38.923799833333334, "is_reserved": 0, "type": "electric_scooter", "bike_id": "e2b215a4f1f9378819d12655b7c10509", "is_disabled": 0, "rental_uris": {"android": "https://dc.lft.to/lastmile_qr_scan", "ios": "https://dc.lft.to/lastmile_qr_scan"}, "lon": -77.02920766666666, "fusion_lat": 0.0}, {"name": "8a72837196f7aed804392ae43dba8d23", "fusion_lon": 0.0, "lat": 38.90385, "is_reserved": 0, "type": "electric_scooter", "bike_id": "8a72837196f7aed804392ae43dba8d23", "is_disabled": 0, "rental_uris": {"android": "https://dc.lft.to/lastmile_qr_scan", "ios": "https://dc.lft.to/lastmile_qr_scan"}, "lon": -77.02610583333333, "fusion_lat": 0.0}, {"name": "7063f683943eb76b6b046e5953af7ae3", "fusion_lon": 0.0, "lat": 38.92155783333333, "is_reserved": 0, "type": "electric_scooter", "bike_id": "7063f683943eb76b6b046e5953af7ae3", "is_disabled": 0, "rental_uris": {"android": "https://dc.lft.to/lastmile_qr_scan", "ios": "https://dc.lft.to/lastmile_qr_scan"}, "lon": -77.0346565, "fusion_lat": 0.0}, {"name": "405e00c111776c24b00e04af40c9a5ea", "fusion_lon": 0.0, "lat": 38.92881716666667, "is_reserved": 0, "type": "electric_scooter", "bike_id": "405e00c111776c24b00e04af40c9a5ea", "is_disabled": 0, "rental_uris": {"android": "https://dc.lft.to/lastmile_qr_scan", "ios": "https://dc.lft.to/lastmile_qr_scan"}, "lon": -77.04237766666667, "fusion_lat": 0.0}, {"name": "bb85f14ad036fbd000b3a4c8a2647b8d", "fusion_lon": 0.0, "lat": 38.87232066666667, "is_reserved": 0, "type": "electric_scooter", "bike_id": "bb85f14ad036fbd000b3a4c8a2647b8d", "is_disabled": 0, "rental_uris": {"android": "https://dc.lft.to/lastmile_qr_scan", "ios": "https://dc.lft.to/lastmile_qr_scan"}, "lon": -77.01162816666667, "fusion_lat": 0.0}, {"name": "cae02539297124494190073d6b62d08a", "fusion_lon": 0.0, "lat": 38.970787666666666, "is_reserved": 0, "type": "electric_bike", "bike_id": "cae02539297124494190073d6b62d08a", "is_disabled": 0, "rental_uris": {"android": "https://dc.lft.to/lastmile_qr_scan", "ios": "https://dc.lft.to/lastmile_qr_scan"}, "lon": -76.93621816666666, "fusion_lat": 0.0}, {"name": "9c4beca5c998499525d1bbec26e3f1cf", "fusion_lon": 0.0, "lat": 38.900192, "is_reserved": 0, "type": "electric_scooter", "bike_id": "9c4beca5c998499525d1bbec26e3f1cf", "is_disabled": 0, "rental_uris": {"android": "https://dc.lft.to/lastmile_qr_scan", "ios": "https://dc.lft.to/lastmile_qr_scan"}, "lon": -77.00146616666666, "fusion_lat": 0.0}, {"name": "6915bb4aa36527988b843de68f874d11", "fusion_lon": 0.0, "lat": 38.98430333333334, "is_reserved": 0, "type": "electric_scooter", "bike_id": "6915bb4aa36527988b843de68f874d11", "is_disabled": 0, "rental_uris": {"android": "https://dc.lft.to/lastmile_qr_scan", "ios": "https://dc.lft.to/lastmile_qr_scan"}, "lon": -77.02671933333333, "fusion_lat": 0.0}, {"name": "56bb0f63b1bb437d042ba2a2ced98a28", "fusion_lon": 0.0, "lat": 38.918054833333336, "is_reserved": 0, "type": "electric_scooter", "bike_id": "56bb0f63b1bb437d042ba2a2ced98a28", "is_disabled": 0, "rental_uris": {"android": "https://dc.lft.to/lastmile_qr_scan", "ios": "https://dc.lft.to/lastmile_qr_scan"}, "lon": -77.0343725, "fusion_lat": 0.0}, {"name": "dbb33c090425a0ae4b88092bad4bc362", "fusion_lon": 0.0, "lat": 38.911198166666665, "is_reserved": 0, "type": "electric_scooter", "bike_id": "dbb33c090425a0ae4b88092bad4bc362", "is_disabled": 0, "rental_uris": {"android": "https://dc.lft.to/lastmile_qr_scan", "ios": "https://dc.lft.to/lastmile_qr_scan"}, "lon": -77.0223805, "fusion_lat": 0.0}, {"name": "7ac8c9cb165deb03a3a0a4c5eb8c17f0", "fusion_lon": 0.0, "lat": 38.89479, "is_reserved": 0, "type": "electric_scooter", "bike_id": "7ac8c9cb165deb03a3a0a4c5eb8c17f0", "is_disabled": 0, "rental_uris": {"android": "https://dc.lft.to/lastmile_qr_scan", "ios": "https://dc.lft.to/lastmile_qr_scan"}, "lon": -77.04652616666667, "fusion_lat": 0.0}, {"name": "e9999a70e74435aed52d0b2d60393de0", "fusion_lon": 0.0, "lat": 38.92033983333334, "is_reserved": 0, "type": "electric_scooter", "bike_id": "e9999a70e74435aed52d0b2d60393de0", "is_disabled": 0, "rental_uris": {"android": "https://dc.lft.to/lastmile_qr_scan", "ios": "https://dc.lft.to/lastmile_qr_scan"}, "lon": -77.02582683333333, "fusion_lat": 0.0}, {"name": "3e319e9008aea43ec0f295d9110d257f", "fusion_lon": 0.0, "lat": 38.892227166666665, "is_reserved": 0, "type": "electric_scooter", "bike_id": "3e319e9008aea43ec0f295d9110d257f", "is_disabled": 0, "rental_uris": {"android": "https://dc.lft.to/lastmile_qr_scan", "ios": "https://dc.lft.to/lastmile_qr_scan"}, "lon": -77.0486895, "fusion_lat": 0.0}, {"name": "dd7faa7c0b9584facfe5afd85a5e9b4d", "fusion_lon": 0.0, "lat": 38.89244383333333, "is_reserved": 0, "type": "electric_scooter", "bike_id": "dd7faa7c0b9584facfe5afd85a5e9b4d", "is_disabled": 0, "rental_uris": {"android": "https://dc.lft.to/lastmile_qr_scan", "ios": "https://dc.lft.to/lastmile_qr_scan"}, "lon": -77.02412, "fusion_lat": 0.0}, {"name": "5bea81f0578c5d91d9f4c6e3ddbd73b0", "fusion_lon": 0.0, "lat": 38.878338666666664, "is_reserved": 0, "type": "electric_scooter", "bike_id": "5bea81f0578c5d91d9f4c6e3ddbd73b0", "is_disabled": 0, "rental_uris": {"android": "https://dc.lft.to/lastmile_qr_scan", "ios": "https://dc.lft.to/lastmile_qr_scan"}, "lon": -77.015919, "fusion_lat": 0.0}, {"name": "fd40d44bb209c87934ade881ff58eef9", "fusion_lon": 0.0, "lat": 38.900200166666664, "is_reserved": 0, "type": "electric_scooter", "bike_id": "fd40d44bb209c87934ade881ff58eef9", "is_disabled": 0, "rental_uris": {"android": "https://dc.lft.to/lastmile_qr_scan", "ios": "https://dc.lft.to/lastmile_qr_scan"}, "lon": -76.99531033333334, "fusion_lat": 0.0}, {"name": "0e052afd582764b41017e8aa5f906605", "fusion_lon": 0.0, "lat": 38.92455616666667, "is_reserved": 0, "type": "electric_scooter", "bike_id": "0e052afd582764b41017e8aa5f906605", "is_disabled": 0, "rental_uris": {"android": "https://dc.lft.to/lastmile_qr_scan", "ios": "https://dc.lft.to/lastmile_qr_scan"}, "lon": -77.02271583333334, "fusion_lat": 0.0}, {"name": "9bdeb83eb1e4a901130fd94c9986350d", "fusion_lon": 0.0, "lat": 39.03927633333333, "is_reserved": 0, "type": "electric_bike", "bike_id": "9bdeb83eb1e4a901130fd94c9986350d", "is_disabled": 0, "rental_uris": {"android": "https://dc.lft.to/lastmile_qr_scan", "ios": "https://dc.lft.to/lastmile_qr_scan"}, "lon": -77.0285215, "fusion_lat": 0.0}, {"name": "8229b775e2d9de2914b657141da9344e", "fusion_lon": 0.0, "lat": 38.869800833333336, "is_reserved": 0, "type": "electric_scooter", "bike_id": "8229b775e2d9de2914b657141da9344e", "is_disabled": 0, "rental_uris": {"android": "https://dc.lft.to/lastmile_qr_scan", "ios": "https://dc.lft.to/lastmile_qr_scan"}, "lon": -77.01235816666667, "fusion_lat": 0.0}, {"name": "8460c80a42ad4e762e621f67830e9dca", "fusion_lon": 0.0, "lat": 38.927599, "is_reserved": 0, "type": "electric_scooter", "bike_id": "8460c80a42ad4e762e621f67830e9dca", "is_disabled": 0, "rental_uris": {"android": "https://dc.lft.to/lastmile_qr_scan", "ios": "https://dc.lft.to/lastmile_qr_scan"}, "lon": -77.02294666666667, "fusion_lat": 0.0}, {"name": "efe32b68e64d910e7a91fd2c0a2c0579", "fusion_lon": 0.0, "lat": 38.900572833333335, "is_reserved": 0, "type": "electric_scooter", "bike_id": "efe32b68e64d910e7a91fd2c0a2c0579", "is_disabled": 0, "rental_uris": {"android": "https://dc.lft.to/lastmile_qr_scan", "ios": "https://dc.lft.to/lastmile_qr_scan"}, "lon": -76.99013866666667, "fusion_lat": 0.0}, {"name": "1ad0a8eea0608550d3c4e9e61ebb9139", "fusion_lon": 0.0, "lat": 38.95501266666667, "is_reserved": 0, "type": "electric_bike", "bike_id": "1ad0a8eea0608550d3c4e9e61ebb9139", "is_disabled": 0, "rental_uris": {"android": "https://dc.lft.to/lastmile_qr_scan", "ios": "https://dc.lft.to/lastmile_qr_scan"}, "lon": -76.99353133333334, "fusion_lat": 0.0}, {"name": "3cdaf3a66e60071ff7d8b04e5251a863", "fusion_lon": 0.0, "lat": 38.957348833333334, "is_reserved": 0, "type": "electric_scooter", "bike_id": "3cdaf3a66e60071ff7d8b04e5251a863", "is_disabled": 0, "rental_uris": {"android": "https://dc.lft.to/lastmile_qr_scan", "ios": "https://dc.lft.to/lastmile_qr_scan"}, "lon": -77.02425866666667, "fusion_lat": 0.0}, {"name": "33250130140e4ddab6c998579e5b1701", "fusion_lon": 0.0, "lat": 38.9513415, "is_reserved": 0, "type": "electric_scooter", "bike_id": "33250130140e4ddab6c998579e5b1701", "is_disabled": 0, "rental_uris": {"android": "https://dc.lft.to/lastmile_qr_scan", "ios": "https://dc.lft.to/lastmile_qr_scan"}, "lon": -77.02719133333333, "fusion_lat": 0.0}, {"name": "eb856bbd813bc7f6ba39b783da85acb8", "fusion_lon": 0.0, "lat": 38.881046, "is_reserved": 0, "type": "electric_bike", "bike_id": "eb856bbd813bc7f6ba39b783da85acb8", "is_disabled": 0, "rental_uris": {"android": "https://dc.lft.to/lastmile_qr_scan", "ios": "https://dc.lft.to/lastmile_qr_scan"}, "lon": -77.0167105, "fusion_lat": 0.0}, {"name": "cbb7b9fbff4755936f3edefdbf110c40", "fusion_lon": 0.0, "lat": 38.87647416666667, "is_reserved": 0, "type": "electric_scooter", "bike_id": "cbb7b9fbff4755936f3edefdbf110c40", "is_disabled": 0, "rental_uris": {"android": "https://dc.lft.to/lastmile_qr_scan", "ios": "https://dc.lft.to/lastmile_qr_scan"}, "lon": -76.965119, "fusion_lat": 0.0}, {"name": "0e38f8ab0b4cf80c2cc6067b8acce0d7", "fusion_lon": 0.0, "lat": 38.91414416666667, "is_reserved": 0, "type": "electric_scooter", "bike_id": "0e38f8ab0b4cf80c2cc6067b8acce0d7", "is_disabled": 0, "rental_uris": {"android": "https://dc.lft.to/lastmile_qr_scan", "ios": "https://dc.lft.to/lastmile_qr_scan"}, "lon": -77.04180366666667, "fusion_lat": 0.0}, {"name": "6b293d2f6b4bb04fe4841ae20752c3e8", "fusion_lon": 0.0, "lat": 38.9194905, "is_reserved": 0, "type": "electric_scooter", "bike_id": "6b293d2f6b4bb04fe4841ae20752c3e8", "is_disabled": 0, "rental_uris": {"android": "https://dc.lft.to/lastmile_qr_scan", "ios": "https://dc.lft.to/lastmile_qr_scan"}, "lon": -77.0288875, "fusion_lat": 0.0}, {"name": "81e8c71e0d42f18eaaafa2bc9a07b5f8", "fusion_lon": 0.0, "lat": 38.95832933333333, "is_reserved": 0, "type": "electric_scooter", "bike_id": "81e8c71e0d42f18eaaafa2bc9a07b5f8", "is_disabled": 0, "rental_uris": {"android": "https://dc.lft.to/lastmile_qr_scan", "ios": "https://dc.lft.to/lastmile_qr_scan"}, "lon": -77.01511066666667, "fusion_lat": 0.0}, {"name": "42d4d0136abf44ae24cc6ff0cf2ac148", "fusion_lon": 0.0, "lat": 38.892221, "is_reserved": 0, "type": "electric_scooter", "bike_id": "42d4d0136abf44ae24cc6ff0cf2ac148", "is_disabled": 0, "rental_uris": {"android": "https://dc.lft.to/lastmile_qr_scan", "ios": "https://dc.lft.to/lastmile_qr_scan"}, "lon": -77.043068, "fusion_lat": 0.0}, {"name": "1ff239e1f1988a58641d9a93383fa083", "fusion_lon": 0.0, "lat": 38.915510833333336, "is_reserved": 0, "type": "electric_scooter", "bike_id": "1ff239e1f1988a58641d9a93383fa083", "is_disabled": 0, "rental_uris": {"android": "https://dc.lft.to/lastmile_qr_scan", "ios": "https://dc.lft.to/lastmile_qr_scan"}, "lon": -77.038529, "fusion_lat": 0.0}, {"name": "82e10d255cb63ffccb7714e2f164825e", "fusion_lon": 0.0, "lat": 38.879366166666664, "is_reserved": 0, "type": "electric_scooter", "bike_id": "82e10d255cb63ffccb7714e2f164825e", "is_disabled": 0, "rental_uris": {"android": "https://dc.lft.to/lastmile_qr_scan", "ios": "https://dc.lft.to/lastmile_qr_scan"}, "lon": -77.00060833333333, "fusion_lat": 0.0}, {"name": "c655bbf2e93580ea299b770228c2886d", "fusion_lon": 0.0, "lat": 38.901526833333335, "is_reserved": 0, "type": "electric_scooter", "bike_id": "c655bbf2e93580ea299b770228c2886d", "is_disabled": 0, "rental_uris": {"android": "https://dc.lft.to/lastmile_qr_scan", "ios": "https://dc.lft.to/lastmile_qr_scan"}, "lon": -77.04193733333334, "fusion_lat": 0.0}, {"name": "59595ad3b79405710d7757e4683a58e2", "fusion_lon": 0.0, "lat": 38.90602483333333, "is_reserved": 0, "type": "electric_scooter", "bike_id": "59595ad3b79405710d7757e4683a58e2", "is_disabled": 0, "rental_uris": {"android": "https://dc.lft.to/lastmile_qr_scan", "ios": "https://dc.lft.to/lastmile_qr_scan"}, "lon": -77.041135, "fusion_lat": 0.0}, {"name": "b6efd3a3bca598a4e370c8d56b3692c0", "fusion_lon": 0.0, "lat": 38.90961883333333, "is_reserved": 0, "type": "electric_scooter", "bike_id": "b6efd3a3bca598a4e370c8d56b3692c0", "is_disabled": 0, "rental_uris": {"android": "https://dc.lft.to/lastmile_qr_scan", "ios": "https://dc.lft.to/lastmile_qr_scan"}, "lon": -77.02688166666667, "fusion_lat": 0.0}, {"name": "44128acec3bab6d0411c5bab4067b2b5", "fusion_lon": 0.0, "lat": 38.801338333333334, "is_reserved": 0, "type": "electric_bike", "bike_id": "44128acec3bab6d0411c5bab4067b2b5", "is_disabled": 0, "rental_uris": {"android": "https://dc.lft.to/lastmile_qr_scan", "ios": "https://dc.lft.to/lastmile_qr_scan"}, "lon": -77.07040366666666, "fusion_lat": 0.0}, {"name": "ade9e2a76f2d9bc9a82eeea4c543db63", "fusion_lon": 0.0, "lat": 38.863882833333335, "is_reserved": 0, "type": "electric_scooter", "bike_id": "ade9e2a76f2d9bc9a82eeea4c543db63", "is_disabled": 0, "rental_uris": {"android": "https://dc.lft.to/lastmile_qr_scan", "ios": "https://dc.lft.to/lastmile_qr_scan"}, "lon": -76.990443, "fusion_lat": 0.0}, {"name": "11bd1308dfff3935659b6ac14714bb9d", "fusion_lon": 0.0, "lat": 38.903703, "is_reserved": 0, "type": "electric_scooter", "bike_id": "11bd1308dfff3935659b6ac14714bb9d", "is_disabled": 0, "rental_uris": {"android": "https://dc.lft.to/lastmile_qr_scan", "ios": "https://dc.lft.to/lastmile_qr_scan"}, "lon": -77.0365395, "fusion_lat": 0.0}, {"name": "1cf4c87a19ead3aef2d6a56fd3e3f8db", "fusion_lon": 0.0, "lat": 38.91082133333333, "is_reserved": 0, "type": "electric_scooter", "bike_id": "1cf4c87a19ead3aef2d6a56fd3e3f8db", "is_disabled": 0, "rental_uris": {"android": "https://dc.lft.to/lastmile_qr_scan", "ios": "https://dc.lft.to/lastmile_qr_scan"}, "lon": -76.99266266666666, "fusion_lat": 0.0}, {"name": "ee8601deb32a63d7da579f033e4240df", "fusion_lon": 0.0, "lat": 38.9284315, "is_reserved": 0, "type": "electric_bike", "bike_id": "ee8601deb32a63d7da579f033e4240df", "is_disabled": 0, "rental_uris": {"android": "https://dc.lft.to/lastmile_qr_scan", "ios": "https://dc.lft.to/lastmile_qr_scan"}, "lon": -77.05513183333333, "fusion_lat": 0.0}, {"name": "0a28d60282ac3447be6c4a0abf3ccabe", "fusion_lon": 0.0, "lat": 38.883975, "is_reserved": 0, "type": "electric_scooter", "bike_id": "0a28d60282ac3447be6c4a0abf3ccabe", "is_disabled": 0, "rental_uris": {"android": "https://dc.lft.to/lastmile_qr_scan", "ios": "https://dc.lft.to/lastmile_qr_scan"}, "lon": -76.930467, "fusion_lat": 0.0}, {"name": "6db0b057d46c82e951f5d44aaf5eb229", "fusion_lon": 0.0, "lat": 38.936240833333336, "is_reserved": 0, "type": "electric_bike", "bike_id": "6db0b057d46c82e951f5d44aaf5eb229", "is_disabled": 0, "rental_uris": {"android": "https://dc.lft.to/lastmile_qr_scan", "ios": "https://dc.lft.to/lastmile_qr_scan"}, "lon": -77.09015116666667, "fusion_lat": 0.0}, {"name": "b8b978bb6a7fbebd0355b590fb4804e3", "fusion_lon": 0.0, "lat": 38.831368499999996, "is_reserved": 0, "type": "electric_scooter", "bike_id": "b8b978bb6a7fbebd0355b590fb4804e3", "is_disabled": 0, "rental_uris": {"android": "https://dc.lft.to/lastmile_qr_scan", "ios": "https://dc.lft.to/lastmile_qr_scan"}, "lon": -77.05114783333333, "fusion_lat": 0.0}, {"name": "b70cf555f090207ef077dc725a14c59c", "fusion_lon": 0.0, "lat": 38.92895933333333, "is_reserved": 0, "type": "electric_scooter", "bike_id": "b70cf555f090207ef077dc725a14c59c", "is_disabled": 0, "rental_uris": {"android": "https://dc.lft.to/lastmile_qr_scan", "ios": "https://dc.lft.to/lastmile_qr_scan"}, "lon": -77.02617133333334, "fusion_lat": 0.0}, {"name": "90d4dda69be0a7f65a121df73c62275b", "fusion_lon": 0.0, "lat": 38.94506916666667, "is_reserved": 0, "type": "electric_bike", "bike_id": "90d4dda69be0a7f65a121df73c62275b", "is_disabled": 0, "rental_uris": {"android": "https://dc.lft.to/lastmile_qr_scan", "ios": "https://dc.lft.to/lastmile_qr_scan"}, "lon": -77.00670283333334, "fusion_lat": 0.0}, {"name": "1ce5e20f237f57e59ecce5bd9bdf86f5", "fusion_lon": 0.0, "lat": 38.928925, "is_reserved": 0, "type": "electric_scooter", "bike_id": "1ce5e20f237f57e59ecce5bd9bdf86f5", "is_disabled": 0, "rental_uris": {"android": "https://dc.lft.to/lastmile_qr_scan", "ios": "https://dc.lft.to/lastmile_qr_scan"}, "lon": -77.0144345, "fusion_lat": 0.0},