{"data": {"bikes": [{"is_reserved": 0, "type": "electric_scooter", "bike_id": "ec1373f28950a545c890ed9c801f81d3", "lat": 38.93195216666667, "lon": -77.03857533333333, "rental_uris": {"android": "https://dc.lft.to/lastmile_qr_scan", "ios": "https://dc.lft.to/lastmile_qr_scan"}, "is_disabled": 0, "fusion_lat": 0.0, "name": "ec1373f28950a545c890ed9c801f81d3", "fusion_lon": 0.0}, {"is_reserved": 0, "type": "electric_scooter", "bike_id": "9e3406e73d041dabccc2d495b3e6f12f", "lat": 38.9002785, "lon": -76.99598333333333, "rental_uris": {"android": "https://dc.lft.to/lastmile_qr_scan", "ios": "https://dc.lft.to/lastmile_qr_scan"}, "is_disabled": 0, "fusion_lat": 0.0, "name": "9e3406e73d041dabccc2d495b3e6f12f", "fusion_lon": 0.0}, {"is_reserved": 0, "type": "electric_bike", "bike_id": "c2df72a1607ad303489cd997de848351", "lat": 38.803826, "lon": -76.98816616666667, "rental_uris": {"android": "https://dc.lft.to/lastmile_qr_scan", "ios": "https://dc.lft.to/lastmile_qr_scan"}, "is_disabled": 0, "fusion_lat": 0.0, "name": "c2df72a1607ad303489cd997de848351", "fusion_lon": 0.0}, {"is_reserved": 0, "type": "electric_scooter", "bike_id": "485d0648734c3374c7879f8114f662a1", "lat": 38.917847333333334, "lon": -77.02319666666666, "rental_uris": {"android": "https://dc.lft.to/lastmile_qr_scan", "ios": "https://dc.lft.to/lastmile_qr_scan"}, "is_disabled": 0, "fusion_lat": 0.0, "name": "485d0648734c3374c7879f8114f662a1", "fusion_lon": 0.0}, {"is_reserved": 0, "type": "electric_scooter", "bike_id": "bc67cf712883183dcf771a57c73bfe4c", "lat": 38.8481245, "lon": -76.97820533333334, "rental_uris": {"android": "https://dc.lft.to/lastmile_qr_scan", "ios": "https://dc.lft.to/lastmile_qr_scan"}, "is_disabled": 0, "fusion_lat": 0.0, "name": "bc67cf712883183dcf771a57c73bfe4c", "fusion_lon": 0.0}, {"is_reserved": 0, "type": "electric_scooter", "bike_id": "d6fb634e2a006a1ced1295eca9e13eef", "lat": 38.92628416666667, "lon": -77.0378595, "rental_uris": {"android": "https://dc.lft.to/lastmile_qr_scan", "ios": "https://dc.lft.to/lastmile_qr_scan"}, "is_disabled": 0, "fusion_lat": 0.0, "name": "d6fb634e2a006a1ced1295eca9e13eef", "fusion_lon": 0.0}, {"is_reserved": 0, "type": "electric_scooter", "bike_id": "067f28c275c57b9c2c0f1a1dcdb13ab7", "lat": 38.903746166666664, "lon": -77.0417465, "rental_uris": {"android": "https://dc.lft.to/lastmile_qr_scan", "ios": "https://dc.lft.to/lastmile_qr_scan"}, "is_disabled": 0, "fusion_lat": 0.0, "name": "067f28c275c57b9c2c0f1a1dcdb13ab7", "fusion_lon": 0.0}, {"is_reserved": 0, "type": "electric_scooter", "bike_id": "3b3504864205f837d80dd4114bb8207a", "lat": 38.940736666666666, "lon": -77.02903366666666, "rental_uris": {"android": "https://dc.lft.to/lastmile_qr_scan", "ios": "https://dc.lft.to/lastmile_qr_scan"}, "is_disabled": 0, "fusion_lat": 0.0, "name": "3b3504864205f837d80dd4114bb8207a", "fusion_lon": 0.0}, {"is_reserved": 0, "type": "electric_scooter", "bike_id": "4fc5fa98e1cae0ce42531e8dbb253363", "lat": 38.91473533333333, "lon": -77.0182905, "rental_uris": {"android": "https://dc.lft.to/lastmile_qr_scan", "ios": "https://dc.lft.to/lastmile_qr_scan"}, "is_disabled": 0, "fusion_lat": 0.0, "name": "4fc5fa98e1cae0ce42531e8dbb253363", "fusion_lon": 0.0}, {"is_reserved": 0, "type": "electric_bike", "bike_id": "eacc8293a72bf4800de5535dfa239a7f", "lat": 38.838088, "lon": -77.09522433333333, "rental_uris": {"android": "https://dc.lft.to/lastmile_qr_scan", "ios": "https://dc.lft.to/lastmile_qr_scan"}, "is_disabled": 0, "fusion_lat": 0.0, "name": "eacc8293a72bf4800de5535dfa239a7f", "fusion_lon": 0.0}, {"is_reserved": 0, "type": "electric_scooter", "bike_id": "a4f355446eaff456806d2f0050403e77", "lat": 38.913413, "lon": -77.03189033333334, "rental_uris": {"android": "https://dc.lft.to/lastmile_qr_scan", "ios": "https://dc.lft.to/lastmile_qr_scan"}, "is_disabled": 0, "fusion_lat": 0.0, "name": "a4f355446eaff456806d2f0050403e77", "fusion_lon": 0.0}, {"is_reserved": 0, "type": "electric_scooter", "bike_id": "a71bdb42b15a26497003c07607a5cd5e", "lat": 38.876209333333335, "lon": -77.012491, "rental_uris": {"android": "https://dc.lft.to/lastmile_qr_scan", "ios": "https://dc.lft.to/lastmile_qr_scan"}, "is_disabled": 0, "fusion_lat": 0.0, "name": "a71bdb42b15a26497003c07607a5cd5e", "fusion_lon": 0.0}, {"is_reserved": 0, "type": "electric_bike", "bike_id": "13aba256f6adeb97c9532f581d3cbc77", "lat": 38.84563516666667, "lon": -76.97059, "rental_uris": {"android": "https://dc.lft.to/lastmile_qr_scan", "ios": "https://dc.lft.to/lastmile_qr_scan"}, "is_disabled": 0, "fusion_lat": 0.0, "name": "13aba256f6adeb97c9532f581d3cbc77", "fusion_lon": 0.0}, {"is_reserved": 0, "type": "electric_scooter", "bike_id": "7d3290cf4df6edc56214cde37ffdd055", "lat": 38.925790666666664, "lon": -77.0409655, "rental_uris": {"android": "https://dc.lft.to/lastmile_qr_scan", "ios": "https://dc.lft.to/lastmile_qr_scan"}, "is_disabled": 0, "fusion_lat": 0.0, "name": "7d3290cf4df6edc56214cde37ffdd055", "fusion_lon": 0.0}, {"is_reserved": 0, "type": "electric_scooter", "bike_id": "2c614d86c01b986e2d8499cf85c7342e", "lat": 38.924791166666665, "lon": -77.02723033333334, "rental_uris": {"android": "https://dc.lft.to/lastmile_qr_scan", "ios": "https://dc.lft.to/lastmile_qr_scan"}, "is_disabled": 0, "fusion_lat": 0.0, "name": "2c614d86c01b986e2d8499cf85c7342e", "fusion_lon": 0.0}, {"is_reserved": 0, "type": "electric_scooter", "bike_id": "c7fe05bee1c4a0a142e39fa56c2c77aa", "lat": 38.91816, "lon": -77.02556416666667, "rental_uris": {"android": "https://dc.lft.to/lastmile_qr_scan", "ios": "https://dc.lft.to/lastmile_qr_scan"}, "is_disabled": 0, "fusion_lat": 0.0, "name": "c7fe05bee1c4a0a142e39fa56c2c77aa", "fusion_lon": 0.0}, {"is_reserved": 0, "type": "electric_scooter", "bike_id": "be3aec61d89b0f8306b75f43fb57b448", "lat": 38.91552316666667, "lon": -77.03101033333333, "rental_uris": {"android": "https://dc.lft.to/lastmile_qr_scan", "ios": "https://dc.lft.to/lastmile_qr_scan"}, "is_disabled": 0, "fusion_lat": 0.0, "name": "be3aec61d89b0f8306b75f43fb57b448", "fusion_lon": 0.0}, {"is_reserved": 0, "type": "electric_scooter", "bike_id": "6812fc561853354655e58189c452e5ca", "lat": 38.9097245, "lon": -77.04777466666667, "rental_uris": {"android": "https://dc.lft.to/lastmile_qr_scan", "ios": "https://dc.lft.to/lastmile_qr_scan"}, "is_disabled": 0, "fusion_lat": 0.0, "name": "6812fc561853354655e58189c452e5ca", "fusion_lon": 0.0}, {"is_reserved": 0, "type": "electric_scooter", "bike_id": "e752d6070eecd18229148ba5a0ce95d0", "lat": 38.93403833333333, "lon": -77.02041933333334, "rental_uris": {"android": "https://dc.lft.to/lastmile_qr_scan", "ios": "https://dc.lft.to/lastmile_qr_scan"}, "is_disabled": 0, "fusion_lat": 0.0, "name": "e752d6070eecd18229148ba5a0ce95d0", "fusion_lon": 0.0}, {"is_reserved": 0, "type": "electric_scooter", "bike_id": "0ad689859ed4d98c94321f8dc8fd2878", "lat": 38.898974, "lon": -77.0037065, "rental_uris": {"android": "https://dc.lft.to/lastmile_qr_scan", "ios": "https://dc.lft.to/lastmile_qr_scan"}, "is_disabled": 0, "fusion_lat": 0.0, "name": "0ad689859ed4d98c94321f8dc8fd2878", "fusion_lon": 0.0}, {"is_reserved": 0, "type": "electric_scooter", "bike_id": "d53af5eec96e9d220f7a35596039d443", "lat": 38.89898566666667, "lon": -77.01612283333333, "rental_uris": {"android": "https://dc.lft.to/lastmile_qr_scan", "ios": "https://dc.lft.to/lastmile_qr_scan"}, "is_disabled": 0, "fusion_lat": 0.0, "name": "d53af5eec96e9d220f7a35596039d443", "fusion_lon": 0.0}, {"is_reserved": 0, "type": "electric_bike", "bike_id": "138e3b8778a9b863d172ebf9492cdfb6", "lat": 38.905421, "lon": -77.05912333333333, "rental_uris": {"android": "https://dc.lft.to/lastmile_qr_scan", "ios": "https://dc.lft.to/lastmile_qr_scan"}, "is_disabled": 0, "fusion_lat": 0.0, "name": "138e3b8778a9b863d172ebf9492cdfb6", "fusion_lon": 0.0}, {"is_reserved": 0, "type": "electric_scooter", "bike_id": "d2729050a80732d00037d23202074435", "lat": 38.983061166666666, "lon": -77.02646266666666, "rental_uris": {"android": "https://dc.lft.to/lastmile_qr_scan", "ios": "https://dc.lft.to/lastmile_qr_scan"}, "is_disabled": 0, "fusion_lat": 0.0, "name": "d2729050a80732d00037d23202074435", "fusion_lon": 0.0}, {"is_reserved": 0, "type": "electric_scooter", "bike_id": "d21dfc380011957a0ec5ed5750522355", "lat": 38.910535, "lon": -77.04389266666666, "rental_uris": {"android": "https://dc.lft.to/lastmile_qr_scan", "ios": "https://dc.lft.to/lastmile_qr_scan"}, "is_disabled": 0, "fusion_lat": 0.0, "name": "d21dfc380011957a0ec5ed5750522355", "fusion_lon": 0.0}, {"is_reserved": 0, "type": "electric_scooter", "bike_id": "05282289119d462ada4512e9e418541f", "lat": 38.88985733333333, "lon": -77.00076566666667, "rental_uris": {"android": "https://dc.lft.to/lastmile_qr_scan", "ios": "https://dc.lft.to/lastmile_qr_scan"}, "is_disabled": 0, "fusion_lat": 0.0, "name": "05282289119d462ada4512e9e418541f", "fusion_lon": 0.0}, {"is_reserved": 0, "type": "electric_scooter", "bike_id": "e49031c1787e78d04f99fd9fa0120cea", "lat": 38.91263, "lon": -77.03714116666667, "rental_uris": {"android": "https://dc.lft.to/lastmile_qr_scan", "ios": "https://dc.lft.to/lastmile_qr_scan"}, "is_disabled": 0, "fusion_lat": 0.0, "name": "e49031c1787e78d04f99fd9fa0120cea", "fusion_lon": 0.0}, {"is_reserved": 0, "type": "electric_scooter", "bike_id": "0ab7fcca1b49e96c5e6398eae6e787d3", "lat": 38.89363316666667, "lon": -77.01972016666667, "rental_uris": {"android": "https://dc.lft.to/lastmile_qr_scan", "ios": "https://dc.lft.to/lastmile_qr_scan"}, "is_disabled": 0, "fusion_lat": 0.0, "name": "0ab7fcca1b49e96c5e6398eae6e787d3", "fusion_lon": 0.0}, {"is_reserved": 0, "type": "electric_scooter", "bike_id": "ab574a3f363629cc76a87f92b8dbce51", "lat": 38.90401833333333, "lon": -77.06772016666666, "rental_uris": {"android": "https://dc.lft.to/lastmile_qr_scan", "ios": "https://dc.lft.to/lastmile_qr_scan"}, "is_disabled": 0, "fusion_lat": 0.0, "name": "ab574a3f363629cc76a87f92b8dbce51", "fusion_lon": 0.0}, {"is_reserved": 0, "type": "electric_scooter", "bike_id": "1cd43cd5b7a36b500715c6c5530c37b9", "lat": 38.9208505, "lon": -77.01374033333333, "rental_uris": {"android": "https://dc.lft.to/lastmile_qr_scan", "ios": "https://dc.lft.to/lastmile_qr_scan"}, "is_disabled": 0, "fusion_lat": 0.0, "name": "1cd43cd5b7a36b500715c6c5530c37b9", "fusion_lon": 0.0}, {"is_reserved": 0, "type": "electric_bike", "bike_id": "c92d1629ab60cee7dec654b07ada8145", "lat": 38.886864833333334, "lon": -76.99013166666667, "rental_uris": {"android": "https://dc.lft.to/lastmile_qr_scan", "ios": "https://dc.lft.to/lastmile_qr_scan"}, "is_disabled": 0, "fusion_lat": 0.0, "name": "c92d1629ab60cee7dec654b07ada8145", "fusion_lon": 0.0}, {"is_reserved": 0, "type": "electric_scooter", "bike_id": "e80354b7bcd792ee1cfa3496c32ae0d7", "lat": 38.92315933333333, "lon": -77.04128783333333, "rental_uris": {"android": "https://dc.lft.to/lastmile_qr_scan", "ios": "https://dc.lft.to/lastmile_qr_scan"}, "is_disabled": 0, "fusion_lat": 0.0, "name": "e80354b7bcd792ee1cfa3496c32ae0d7", "fusion_lon": 0.0}, {"is_reserved": 0, "type": "electric_scooter", "bike_id": "a3f96d313494fd638229ace88523a869", "lat": 38.925766, "lon": -76.99510083333334, "rental_uris": {"android": "https://dc.lft.to/lastmile_qr_scan", "ios": "https://dc.lft.to/lastmile_qr_scan"}, "is_disabled": 0, "fusion_lat": 0.0, "name": "a3f96d313494fd638229ace88523a869", "fusion_lon": 0.0}, {"is_reserved": 0, "type": "electric_scooter", "bike_id": "5f2d72d4d3dc30271792fab788654b2b", "lat": 38.901798666666664, "lon": -77.02170583333333, "rental_uris": {"android": "https://dc.lft.to/lastmile_qr_scan", "ios": "https://dc.lft.to/lastmile_qr_scan"}, "is_disabled": 0, "fusion_lat": 0.0, "name": "5f2d72d4d3dc30271792fab788654b2b", "fusion_lon": 0.0}, {"is_reserved": 0, "type": "electric_scooter", "bike_id": "49f19d91b6c00ca003ff0a248f1e4bff", "lat": 38.893653666666665, "lon": -77.02809116666667, "rental_uris": {"android": "https://dc.lft.to/lastmile_qr_scan", "ios": "https://dc.lft.to/lastmile_qr_scan"}, "is_disabled": 0, "fusion_lat": 0.0, "name": "49f19d91b6c00ca003ff0a248f1e4bff", "fusion_lon": 0.0}, {"is_reserved": 0, "type": "electric_scooter", "bike_id": "506560f290faf8eea8fea7629c2d4242", "lat": 38.93518266666667, "lon": -77.03264416666667, "rental_uris": {"android": "https://dc.lft.to/lastmile_qr_scan", "ios": "https://dc.lft.to/lastmile_qr_scan"}, "is_disabled": 0, "fusion_lat": 0.0, "name": "506560f290faf8eea8fea7629c2d4242", "fusion_lon": 0.0}, {"is_reserved": 0, "type": "electric_scooter", "bike_id": "002f79ab2ad2b8887951a79d5d749c4a", "lat": 38.905522500000004, "lon": -77.00565133333333, "rental_uris": {"android": "https://dc.lft.to/lastmile_qr_scan", "ios": "https://dc.lft.to/lastmile_qr_scan"}, "is_disabled": 0, "fusion_lat": 0.0, "name": "002f79ab2ad2b8887951a79d5d749c4a", "fusion_lon": 0.0}, {"is_reserved": 0, "type": "electric_scooter", "bike_id": "3b88f68f856e22da6a2ba5550226408f", "lat": 38.911145, "lon": -77.01824233333333, "rental_uris": {"android": "https://dc.lft.to/lastmile_qr_scan", "ios": "https://dc.lft.to/lastmile_qr_scan"}, "is_disabled": 0, "fusion_lat": 0.0, "name": "3b88f68f856e22da6a2ba5550226408f", "fusion_lon": 0.0}, {"is_reserved": 0, "type": "electric_scooter", "bike_id": "af8f58bb4cac9822ca7f41fc96300e0b", "lat": 38.93064183333333, "lon": -77.02840266666666, "rental_uris": {"android": "https://dc.lft.to/lastmile_qr_scan", "ios": "https://dc.lft.to/lastmile_qr_scan"}, "is_disabled": 0, "fusion_lat": 0.0, "name": "af8f58bb4cac9822ca7f41fc96300e0b", "fusion_lon": 0.0}, {"is_reserved": 0, "type": "electric_scooter", "bike_id": "0920f9bd57f867be87650dcaa486c362", "lat": 38.91843266666667, "lon": -77.024438, "rental_uris": {"android": "https://dc.lft.to/lastmile_qr_scan", "ios": "https://dc.lft.to/lastmile_qr_scan"}, "is_disabled": 0, "fusion_lat": 0.0, "name": "0920f9bd57f867be87650dcaa486c362", "fusion_lon": 0.0}, {"is_reserved": 0, "type": "electric_scooter", "bike_id": "5eb2f93e70df60edd342609c0fdbf09b", "lat": 38.9036455, "lon": -77.02572483333333, "rental_uris": {"android": "https://dc.lft.to/lastmile_qr_scan", "ios": "https://dc.lft.to/lastmile_qr_scan"}, "is_disabled": 0, "fusion_lat": 0.0, "name": "5eb2f93e70df60edd342609c0fdbf09b", "fusion_lon": 0.0}, {"is_reserved": 0, "type": "electric_scooter", "bike_id": "0922a4414280f86b1c3a81348c8ca552", "lat": 38.932353, "lon": -77.040905, "rental_uris": {"android": "https://dc.lft.to/lastmile_qr_scan", "ios": "https://dc.lft.to/lastmile_qr_scan"}, "is_disabled": 0, "fusion_lat": 0.0, "name": "0922a4414280f86b1c3a81348c8ca552", "fusion_lon": 0.0}, {"is_reserved": 0, "type": "electric_bike", "bike_id": "f49bad04c39428f8b0368d939d0c7cbb", "lat": 38.97422666666667, "lon": -77.01258766666666, "rental_uris": {"android": "https://dc.lft.to/lastmile_qr_scan", "ios": "https://dc.lft.to/lastmile_qr_scan"}, "is_disabled": 0, "fusion_lat": 0.0, "name": "f49bad04c39428f8b0368d939d0c7cbb", "fusion_lon": 0.0}, {"is_reserved": 0, "type": "electric_scooter", "bike_id": "ac5f2917ccee2d262ace26e8a431757f", "lat": 38.892793, "lon": -77.023648, "rental_uris": {"android": "https://dc.lft.to/lastmile_qr_scan", "ios": "https://dc.lft.to/lastmile_qr_scan"}, "is_disabled": 0, "fusion_lat": 0.0, "name": "ac5f2917ccee2d262ace26e8a431757f", "fusion_lon": 0.0}, {"is_reserved": 0, "type": "electric_scooter", "bike_id": "210cc4e6f9df35e11f14b6eb81fbe96c", "lat": 38.903913, "lon": -77.03031233333333, "rental_uris": {"android": "https://dc.lft.to/lastmile_qr_scan", "ios": "https://dc.lft.to/lastmile_qr_scan"}, "is_disabled": 0, "fusion_lat": 0.0, "name": "210cc4e6f9df35e11f14b6eb81fbe96c", "fusion_lon": 0.0}, {"is_reserved": 0, "type": "electric_bike", "bike_id": "29caeb21ab7ad69f2f006c6bad22aff1", "lat": 39.00003733333333, "lon": -76.91802683333333, "rental_uris": {"android": "https://dc.lft.to/lastmile_qr_scan", "ios": "https://dc.lft.to/lastmile_qr_scan"}, "is_disabled": 0, "fusion_lat": 0.0, "name": "29caeb21ab7ad69f2f006c6bad22aff1", "fusion_lon": 0.0}, {"is_reserved": 0, "type": "electric_bike", "bike_id": "b46ab68f924a74320519240c42f8dfbf", "lat": 39.0109385, "lon": -77.04952116666666, "rental_uris": {"android": "https://dc.lft.to/lastmile_qr_scan", "ios": "https://dc.lft.to/lastmile_qr_scan"}, "is_disabled": 0, "fusion_lat": 0.0, "name": "b46ab68f924a74320519240c42f8dfbf", "fusion_lon": 0.0}, {"is_reserved": 0, "type": "electric_scooter", "bike_id": "f6cec916bae69fb7bc25d1211058dbc4", "lat": 38.91698616666667, "lon": -77.02913033333333, "rental_uris": {"android": "https://dc.lft.to/lastmile_qr_scan", "ios": "https://dc.lft.to/lastmile_qr_scan"}, "is_disabled": 0, "fusion_lat": 0.0, "name": "f6cec916bae69fb7bc25d1211058dbc4", "fusion_lon": 0.0}, {"is_reserved": 0, "type": "electric_bike", "bike_id": "9e27675d36ed972ded324a4dbf0552da", "lat": 38.874245333333334, "lon": -77.08568133333333, "rental_uris": {"android": "https://dc.lft.to/lastmile_qr_scan", "ios": "https://dc.lft.to/lastmile_qr_scan"}, "is_disabled": 0, "fusion_lat": 0.0, "name": "9e27675d36ed972ded324a4dbf0552da", "fusion_lon": 0.0}, {"is_reserved": 0, "type": "electric_scooter", "bike_id": "b404d87aa33f413ba5f2c3704a731c03", "lat": 38.929824333333336, "lon": -77.0379215, "rental_uris": {"android": "https://dc.lft.to/lastmile_qr_scan", "ios": "https://dc.lft.to/lastmile_qr_scan"}, "is_disabled": 0, "fusion_lat": 0.0, "name": "b404d87aa33f413ba5f2c3704a731c03", "fusion_lon": 0.0}, {"is_reserved": 0, "type": "electric_bike", "bike_id": "a31c74a807a2623aeff4543e6e0b2402", "lat": 38.84277616666667, "lon": -76.98842683333334, "rental_uris": {"android": "https://dc.lft.to/lastmile_qr_scan", "ios": "https://dc.lft.to/lastmile_qr_scan"}, "is_disabled": 0, "fusion_lat": 0.0, "name": "a31c74a807a2623aeff4543e6e0b2402", "fusion_lon": 0.0}, {"is_reserved": 0, "type": "electric_scooter", "bike_id": "55aea89b06939b542b47df7b05aaddc4", "lat": 38.90026483333333, "lon": -77.0119235, "rental_uris": {"android": "https://dc.lft.to/lastmile_qr_scan", "ios": "https://dc.lft.to/lastmile_qr_scan"}, "is_disabled": 0, "fusion_lat": 0.0, "name": "55aea89b06939b542b47df7b05aaddc4", "fusion_lon": 0.0}, {"is_reserved": 0, "type": "electric_scooter", "bike_id": "43f03f66bba848ceb9c669295ef29047", "lat": 38.94027966666667, "lon": -77.02644133333334, "rental_uris": {"android": "https://dc.lft.to/lastmile_qr_scan", "ios": "https://dc.lft.to/lastmile_qr_scan"}, "is_disabled": 0, "fusion_lat": 0.0, "name": "43f03f66bba848ceb9c669295ef29047", "fusion_lon": 0.0}, {"is_reserved": 0, "type": "electric_scooter", "bike_id": "16fa2e328dc53c3b6349e3e43441c036", "lat": 38.909731, "lon": -77.04499733333333, "rental_uris": {"android": "https://dc.lft.to/lastmile_qr_scan", "ios": "https://dc.lft.to/lastmile_qr_scan"}, "is_disabled": 0, "fusion_lat": 0.0, "name": "16fa2e328dc53c3b6349e3e43441c036", "fusion_lon": 0.0}, {"is_reserved": 0, "type": "electric_bike", "bike_id": "61cdc90faaecb717a396d3e11d504b1b", "lat": 38.89563233333333, "lon": -77.12738033333333, "rental_uris": {"android": "https://dc.lft.to/lastmile_qr_scan", "ios": "https://dc.lft.to/lastmile_qr_scan"}, "is_disabled": 0, "fusion_lat": 0.0, "name": "61cdc90faaecb717a396d3e11d504b1b", "fusion_lon": 0.0}, {"is_reserved": 0, "type": "electric_scooter", "bike_id": "b963bc6473b48d59825c1b367c1fe5bc", "lat": 38.90350516666667, "lon": -77.01097483333334, "rental_uris": {"android": "https://dc.lft.to/lastmile_qr_scan", "ios": "https://dc.lft.to/lastmile_qr_scan"}, "is_disabled": 0, "fusion_lat": 0.0, "name": "b963bc6473b48d59825c1b367c1fe5bc", "fusion_lon": 0.0}, {"is_reserved": 0, "type": "electric_scooter", "bike_id": "c9da3761ede04664aac087ae6fd895e1", "lat": 38.8964, "lon": -77.0260855, "rental_uris": {"android": "https://dc.lft.to/lastmile_qr_scan", "ios": "https://dc.lft.to/lastmile_qr_scan"}, "is_disabled": 0, "fusion_lat": 0.0, "name": "c9da3761ede04664aac087ae6fd895e1", "fusion_lon": 0.0}, {"is_reserved": 0, "type": "electric_scooter", "bike_id": "e46b559bc493ff90636d4764585cb48f", "lat": 38.917063, "lon": -77.031517, "rental_uris": {"android": "https://dc.lft.to/lastmile_qr_scan", "ios": "https://dc.lft.to/lastmile_qr_scan"}, "is_disabled": 0, "fusion_lat": 0.0, "name": "e46b559bc493ff90636d4764585cb48f", "fusion_lon": 0.0}, {"is_reserved": 0, "type": "electric_scooter", "bike_id": "6f361f597657da7443873635009fea41", "lat": 38.920969666666664, "lon": -77.0177685, "rental_uris": {"android": "https://dc.lft.to/lastmile_qr_scan", "ios": "https://dc.lft.to/lastmile_qr_scan"}, "is_disabled": 0, "fusion_lat": 0.0, "name": "6f361f597657da7443873635009fea41", "fusion_lon": 0.0}, {"is_reserved": 0, "type": "electric_scooter", "bike_id": "bac6a9ef07c7d40ef414a78ba949d3ba", "lat": 38.906257833333335, "lon": -77.05152116666666, "rental_uris": {"android": "https://dc.lft.to/lastmile_qr_scan", "ios": "https://dc.lft.to/lastmile_qr_scan"}, "is_disabled": 0, "fusion_lat": 0.0, "name": "bac6a9ef07c7d40ef414a78ba949d3ba", "fusion_lon": 0.0}, {"is_reserved": 0, "type": "electric_scooter", "bike_id": "06c08755196cdef9065712d941794b6a", "lat": 38.916074, "lon": -77.046187, "rental_uris": {"android": "https://dc.lft.to/lastmile_qr_scan", "ios": "https://dc.lft.to/lastmile_qr_scan"}, "is_disabled": 0, "fusion_lat": 0.0, "name": "06c08755196cdef9065712d941794b6a", "fusion_lon": 0.0}, {"is_reserved": 0, "type": "electric_scooter", "bike_id": "2c1ad9df3ffa2d18088f0cbcf6827180", "lat": 38.90970466666667, "lon": -77.0339775, "rental_uris": {"android": "https://dc.lft.to/lastmile_qr_scan", "ios": "https://dc.lft.to/lastmile_qr_scan"}, "is_disabled": 0, "fusion_lat": 0.0, "name": "2c1ad9df3ffa2d18088f0cbcf6827180", "fusion_lon": 0.0}, {"is_reserved": 0, "type": "electric_scooter", "bike_id": "e9dc10c6607c345280d619b6adc68dea", "lat": 38.90079433333333, "lon": -76.980079, "rental_uris": {"android": "https://dc.lft.to/lastmile_qr_scan", "ios": "https://dc.lft.to/lastmile_qr_scan"}, "is_disabled": 0, "fusion_lat": 0.0, "name": "e9dc10c6607c345280d619b6adc68dea", "fusion_lon": 0.0}, {"is_reserved": 0, "type": "electric_scooter", "bike_id": "ccaad194e8dd46543e38911634a18152", "lat": 38.914135333333334, "lon": -77.02212166666666, "rental_uris": {"android": "https://dc.lft.to/lastmile_qr_scan", "ios": "https://dc.lft.to/lastmile_qr_scan"}, "is_disabled": 0, "fusion_lat": 0.0, "name": "ccaad194e8dd46543e38911634a18152", "fusion_lon": 0.0}, {"is_reserved": 0, "type": "electric_scooter", "bike_id": "a2df955d8d15c531a8530db828710930", "lat": 38.9113365, "lon": -76.98468916666667, "rental_uris": {"android": "https://dc.lft.to/lastmile_qr_scan", "ios": "https://dc.lft.to/lastmile_qr_scan"}, "is_disabled": 0, "fusion_lat": 0.0, "name": "a2df955d8d15c531a8530db828710930", "fusion_lon": 0.0}, {"is_reserved": 0, "type": "electric_bike", "bike_id": "4494bc45fc979cb9ae5a376b945915b3", "lat": 38.97331066666667, "lon": -76.99597916666667, "rental_uris": {"android": "https://dc.lft.to/lastmile_qr_scan", "ios": "https://dc.lft.to/lastmile_qr_scan"}, "is_disabled": 0, "fusion_lat": 0.0, "name": "4494bc45fc979cb9ae5a376b945915b3", "fusion_lon": 0.0}, {"is_reserved": 0, "type": "electric_scooter", "bike_id": "7e7718063fe88511664da05d20433a2c", "lat": 38.895022, "lon": -76.934768, "rental_uris": {"android": "https://dc.lft.to/lastmile_qr_scan", "ios": "https://dc.lft.to/lastmile_qr_scan"}, "is_disabled": 0, "fusion_lat": 0.0, "name": "7e7718063fe88511664da05d20433a2c", "fusion_lon": 0.0}, {"is_reserved": 0, "type": "electric_scooter", "bike_id": "dd8bbe19ab63e9b66144b957054a54e6", "lat": 38.896465166666665, "lon": -77.0260215, "rental_uris": {"android": "https://dc.lft.to/lastmile_qr_scan", "ios": "https://dc.lft.to/lastmile_qr_scan"}, "is_disabled": 0, "fusion_lat": 0.0, "name": "dd8bbe19ab63e9b66144b957054a54e6", "fusion_lon": 0.0}, {"is_reserved": 0, "type": "electric_bike", "bike_id": "5fa6d79159f67d6cf648048419699e1d", "lat": 39.04234966666667, "lon": -76.99741366666666, "rental_uris": {"android": "https://dc.lft.to/lastmile_qr_scan", "ios": "https://dc.lft.to/lastmile_qr_scan"}, "is_disabled": 0, "fusion_lat": 0.0, "name": "5fa6d79159f67d6cf648048419699e1d", "fusion_lon": 0.0}, {"is_reserved": 0, "type": "electric_scooter", "bike_id": "82f2c8d8d1b7c54671c4f6599906d74f", "lat": 38.900378, "lon": -76.99153533333333, "rental_uris": {"android": "https://dc.lft.to/lastmile_qr_scan", "ios": "https://dc.lft.to/lastmile_qr_scan"}, "is_disabled": 0, "fusion_lat": 0.0, "name": "82f2c8d8d1b7c54671c4f6599906d74f", "fusion_lon": 0.0}, {"is_reserved": 0, "type": "electric_scooter", "bike_id": "8aded76854ec52c3adf6238cd9764c80", "lat": 38.9121805, "lon": -77.04590483333334, "rental_uris": {"android": "https://dc.lft.to/lastmile_qr_scan", "ios": "https://dc.lft.to/lastmile_qr_scan"}, "is_disabled": 0, "fusion_lat": 0.0, "name": "8aded76854ec52c3adf6238cd9764c80", "fusion_lon": 0.0}, {"is_reserved": 0, "type": "electric_scooter", "bike_id": "2c71a0a6ca48408859e7361f93a06520", "lat": 38.946581, "lon": -77.03280266666667, "rental_uris": {"android": "https://dc.lft.to/lastmile_qr_scan", "ios": "https://dc.lft.to/lastmile_qr_scan"}, "is_disabled": 0, "fusion_lat": 0.0, "name": "2c71a0a6ca48408859e7361f93a06520", "fusion_lon": 0.0}, {"is_reserved": 0, "type": "electric_scooter", "bike_id": "161303c954872c3c0359af75140803a7", "lat": 38.90291533333333, "lon": -77.00213083333334, "rental_uris": {"android": "https://dc.lft.to/lastmile_qr_scan", "ios": "https://dc.lft.to/lastmile_qr_scan"}, "is_disabled": 0, "fusion_lat": 0.0, "name": "161303c954872c3c0359af75140803a7", "fusion_lon": 0.0}, {"is_reserved": 0, "type": "electric_scooter", "bike_id": "834cad116d72a28e1e5cf3339c1577e1", "lat": 38.917208, "lon": -77.0319335, "rental_uris": {"android": "https://dc.lft.to/lastmile_qr_scan", "ios": "https://dc.lft.to/lastmile_qr_scan"}, "is_disabled": 0, "fusion_lat": 0.0, "name": "834cad116d72a28e1e5cf3339c1577e1", "fusion_lon": 0.0}, {"is_reserved": 0, "type": "electric_scooter", "bike_id": "37ce9bfde710528215238649f83d0285", "lat": 38.915941333333336, "lon": -77.02195266666666, "rental_uris": {"android": "https://dc.lft.to/lastmile_qr_scan", "ios": "https://dc.lft.to/lastmile_qr_scan"}, "is_disabled": 0, "fusion_lat": 0.0, "name": "37ce9bfde710528215238649f83d0285", "fusion_lon": 0.0}, {"is_reserved": 0, "type": "electric_scooter", "bike_id": "e4516c87f4262f2f3d5385325f17c8db", "lat": 38.89904033333333, "lon": -76.933713, "rental_uris": {"android": "https://dc.lft.to/lastmile_qr_scan", "ios": "https://dc.lft.to/lastmile_qr_scan"}, "is_disabled": 0, "fusion_lat": 0.0, "name": "e4516c87f4262f2f3d5385325f17c8db", "fusion_lon": 0.0}, {"is_reserved": 0, "type": "electric_scooter", "bike_id": "4985583df0a5dec48ae68222c30adae7", "lat": 38.92760533333333, "lon": -77.06888366666666, "rental_uris": {"android": "https://dc.lft.to/lastmile_qr_scan", "ios": "https://dc.lft.to/lastmile_qr_scan"}, "is_disabled": 0, "fusion_lat": 0.0, "name": "4985583df0a5dec48ae68222c30adae7", "fusion_lon": 0.0}, {"is_reserved": 0, "type": "electric_scooter", "bike_id": "b62f47c09e3ab41b84c2881f71b9e459", "lat": 38.882992333333334, "lon": -77.02379033333334, "rental_uris": {"android": "https://dc.lft.to/lastmile_qr_scan", "ios": "https://dc.lft.to/lastmile_qr_scan"}, "is_disabled": 0, "fusion_lat": 0.0, "name": "b62f47c09e3ab41b84c2881f71b9e459", "fusion_lon": 0.0}, {"is_reserved": 0, "type": "electric_scooter", "bike_id": "e846bdb4e2943bd13f861d9e713531a3", "lat": 38.9108825, "lon": -77.03846866666666, "rental_uris": {"android": "https://dc.lft.to/lastmile_qr_scan", "ios": "https://dc.lft.to/lastmile_qr_scan"}, "is_disabled": 0, "fusion_lat": 0.0, "name": "e846bdb4e2943bd13f861d9e713531a3", "fusion_lon": 0.0}, {"is_reserved": 0, "type": "electric_scooter", "bike_id": "12ad5f0cb78c6cd70deb1ea1ed196c0e", "lat": 38.891951166666665, "lon": -77.02230733333333, "rental_uris": {"android": "https://dc.lft.to/lastmile_qr_scan", "ios": "https://dc.lft.to/lastmile_qr_scan"}, "is_disabled": 0, "fusion_lat": 0.0, "name": "12ad5f0cb78c6cd70deb1ea1ed196c0e", "fusion_lon": 0.0}, {"is_reserved": 0, "type": "electric_scooter", "bike_id": "c16190e78f198c5527b21b7f011dd5b5", "lat": 38.8922075, "lon": -77.04365266666667, "rental_uris": {"android": "https://dc.lft.to/lastmile_qr_scan", "ios": "https://dc.lft.to/lastmile_qr_scan"}, "is_disabled": 0, "fusion_lat": 0.0, "name": "c16190e78f198c5527b21b7f011dd5b5", "fusion_lon": 0.0}, {"is_reserved": 0, "type": "electric_bike", "bike_id": "d70a5db9d49cf309360aa21f5a822b2e", "lat": 38.92035216666667, "lon": -76.979586, "rental_uris": {"android": "https://dc.lft.to/lastmile_qr_scan", "ios": "https://dc.lft.to/lastmile_qr_scan"}, "is_disabled": 0, "fusion_lat": 0.0, "name": "d70a5db9d49cf309360aa21f5a822b2e", "fusion_lon": 0.0}, {"is_reserved": 0, "type": "electric_scooter", "bike_id": "af8ce2823e46e475787a52e375fe339d", "lat": 38.896861666666666, "lon": -77.043317, "rental_uris": {"android": "https://dc.lft.to/lastmile_qr_scan", "ios": "https://dc.lft.to/lastmile_qr_scan"}, "is_disabled": 0, "fusion_lat": 0.0, "name": "af8ce2823e46e475787a52e375fe339d", "fusion_lon": 0.0}, {"is_reserved": 0, "type": "electric_bike", "bike_id": "62511b875190de7773d628427d78c12b", "lat": 38.9170145, "lon": -77.05720866666667, "rental_uris": {"android": "https://dc.lft.to/lastmile_qr_scan", "ios": "https://dc.lft.to/lastmile_qr_scan"}, "is_disabled": 0, "fusion_lat": 0.0, "name": "62511b875190de7773d628427d78c12b", "fusion_lon": 0.0}, {"is_reserved": 0, "type": "electric_scooter", "bike_id": "7129ce8be758ff94da4061a93a7ac07e", "lat": 38.903222166666666, "lon": -77.010843, "rental_uris": {"android": "https://dc.lft.to/lastmile_qr_scan", "ios": "https://dc.lft.to/lastmile_qr_scan"}, "is_disabled": 0, "fusion_lat": 0.0, "name": "7129ce8be758ff94da4061a93a7ac07e", "fusion_lon": 0.0}, {"is_reserved": 0, "type": "electric_bike", "bike_id": "7cc9998097d8e7717e9ccea530ccebdb", "lat": 38.92065916666667, "lon": -76.99573583333333, "rental_uris": {"android": "https://dc.lft.to/lastmile_qr_scan", "ios": "https://dc.lft.to/lastmile_qr_scan"}, "is_disabled": 0, "fusion_lat": 0.0, "name": "7cc9998097d8e7717e9ccea530ccebdb", "fusion_lon": 0.0}, {"is_reserved": 0, "type": "electric_scooter", "bike_id": "892088561e6f0bb506e43f63abebe718", "lat": 38.9175905, "lon": -77.00458483333334, "rental_uris": {"android": "https://dc.lft.to/lastmile_qr_scan", "ios": "https://dc.lft.to/lastmile_qr_scan"}, "is_disabled": 0, "fusion_lat": 0.0, "name": "892088561e6f0bb506e43f63abebe718", "fusion_lon": 0.0}, {"is_reserved": 0, "type": "electric_scooter", "bike_id": "a2d0fc03b7087b3e3fa50ef3d71f4a96", "lat": 38.910102333333334, "lon": -77.0436945, "rental_uris": {"android": "https://dc.lft.to/lastmile_qr_scan", "ios": "https://dc.lft.to/lastmile_qr_scan"}, "is_disabled": 0, "fusion_lat": 0.0, "name": "a2d0fc03b7087b3e3fa50ef3d71f4a96", "fusion_lon": 0.0}, {"is_reserved": 0, "type": "electric_scooter", "bike_id": "c248a0eca65d17b59eae969eb07be32a", "lat": 38.90039933333333, "lon": -76.98286183333333, "rental_uris": {"android": "https://dc.lft.to/lastmile_qr_scan", "ios": "https://dc.lft.to/lastmile_qr_scan"}, "is_disabled": 0, "fusion_lat": 0.0, "name": "c248a0eca65d17b59eae969eb07be32a", "fusion_lon": 0.0}, {"is_reserved": 0, "type": "electric_scooter", "bike_id": "c052ba69469e78bb645361ab458908f9", "lat": 38.903504166666664, "lon": -77.02591533333333, "rental_uris": {"android": "https://dc.lft.to/lastmile_qr_scan", "ios": "https://dc.lft.to/lastmile_qr_scan"}, "is_disabled": 0, "fusion_lat": 0.0, "name": "c052ba69469e78bb645361ab458908f9", "fusion_lon": 0.0}, {"is_reserved": 0, "type": "electric_scooter", "bike_id": "09e7b3c61948c75660e09920efc1f41e", "lat": 38.923694833333336, "lon": -77.0505545, "rental_uris": {"android": "https://dc.lft.to/lastmile_qr_scan", "ios": "https://dc.lft.to/lastmile_qr_scan"}, "is_disabled": 0, "fusion_lat": 0.0, "name": "09e7b3c61948c75660e09920efc1f41e", "fusion_lon": 0.0}, {"is_reserved": 0, "type": "electric_scooter", "bike_id": "58ba7926c67eb37c64c0bd0bbeaf0804", "lat": 38.90524633333333, "lon": -77.04761383333333, "rental_uris": {"android": "https://dc.lft.to/lastmile_qr_scan", "ios": "https://dc.lft.to/lastmile_qr_scan"}, "is_disabled": 0, "fusion_lat": 0.0, "name": "58ba7926c67eb37c64c0bd0bbeaf0804", "fusion_lon": 0.0}, {"is_reserved": 0, "type": "electric_scooter", "bike_id": "2e1ded1a4b5787d7e49ebb66d758c589", "lat": 38.9001305, "lon": -77.00692516666666, "rental_uris": {"android": "https://dc.lft.to/lastmile_qr_scan", "ios": "https://dc.lft.to/lastmile_qr_scan"}, "is_disabled": 0, "fusion_lat": 0.0, "name": "2e1ded1a4b5787d7e49ebb66d758c589", "fusion_lon": 0.0}, {"is_reserved": 0, "type": "electric_scooter", "bike_id": "c05f7585f342d092095bbacfc7eaa62b", "lat": 38.915546666666664, "lon": -77.03099466666667, "rental_uris": {"android": "https://dc.lft.to/lastmile_qr_scan", "ios": "https://dc.lft.to/lastmile_qr_scan"}, "is_disabled": 0, "fusion_lat": 0.0, "name": "c05f7585f342d092095bbacfc7eaa62b", "fusion_lon": 0.0}, {"is_reserved": 0, "type": "electric_scooter", "bike_id": "832c004abed319c5381db52c9c583c86", "lat": 38.91578166666667, "lon": -77.01228316666666, "rental_uris": {"android": "https://dc.lft.to/lastmile_qr_scan", "ios": "https://dc.lft.to/lastmile_qr_scan"}, "is_disabled": 0, "fusion_lat": 0.0, "name": "832c004abed319c5381db52c9c583c86", "fusion_lon": 0.0}, {"is_reserved": 0, "type": "electric_scooter", "bike_id": "0c8cb0d844edf14c66a014ad81f7603b", "lat": 38.926017333333334, "lon": -77.02153366666667, "rental_uris": {"android": "https://dc.lft.to/lastmile_qr_scan", "ios": "https://dc.lft.to/lastmile_qr_scan"}, "is_disabled": 0, "fusion_lat": 0.0, "name": "0c8cb0d844edf14c66a014ad81f7603b", "fusion_lon": 0.0}, {"is_reserved": 0, "type": "electric_scooter", "bike_id": "51c7b3447b4e31a5e96faecd8a418f0c", "lat": 38.88119316666667, "lon": -77.01738983333334, "rental_uris": {"android": "https://dc.lft.to/lastmile_qr_scan", "ios": "https://dc.lft.to/lastmile_qr_scan"}, "is_disabled": 0, "fusion_lat": 0.0, "name": "51c7b3447b4e31a5e96faecd8a418f0c", "fusion_lon": 0.0}, {"is_reserved": 0, "type": "electric_scooter", "bike_id": "2a150a741f8795a180b222c4bed74cb3", "lat": 38.88636, "lon": -77.01287816666667, "rental_uris": {"android": "https://dc.lft.to/lastmile_qr_scan", "ios": "https://dc.lft.to/lastmile_qr_scan"}, "is_disabled": 0, "fusion_lat": 0.0, "name": "2a150a741f8795a180b222c4bed74cb3", "fusion_lon": 0.0}, {"is_reserved": 0, "type": "electric_scooter", "bike_id": "0605fb99a6d4c436e48449cfc89da72b", "lat": 38.929257, "lon": -77.0200695, "rental_uris": {"android": "https://dc.lft.to/lastmile_qr_scan", "ios": "https://dc.lft.to/lastmile_qr_scan"}, "is_disabled": 0, "fusion_lat": 0.0, "name": "0605fb99a6d4c436e48449cfc89da72b", "fusion_lon": 0.0}, {"is_reserved": 0, "type": "electric_scooter", "bike_id": "4b3c4669bbc179dfbea3328efa6330d3", "lat": 38.923836666666666, "lon": -77.03657716666666, "rental_uris": {"android": "https://dc.lft.to/lastmile_qr_scan", "ios": "https://dc.lft.to/lastmile_qr_scan"}, "is_disabled": 0, "fusion_lat": 0.0, "name": "4b3c4669bbc179dfbea3328efa6330d3", "fusion_lon": 0.0}, {"is_reserved": 0, "type": "electric_scooter", "bike_id": "ff3c7b34320b43aed803cb1a269e6a1c", "lat": 38.88734783333334, "lon": -77.013514, "rental_uris": {"android": "https://dc.lft.to/lastmile_qr_scan", "ios": "https://dc.lft.to/lastmile_qr_scan"}, "is_disabled": 0, "fusion_lat": 0.0, "name": "ff3c7b34320b43aed803cb1a269e6a1c", "fusion_lon": 0.0}, {"is_reserved": 0, "type": "electric_scooter", "bike_id": "2b098e3ac699509ae61eb5149dda5d6c", "lat": 38.94438516666666, "lon": -77.02915283333333, "rental_uris": {"android": "https://dc.lft.to/lastmile_qr_scan", "ios": "https://dc.lft.to/lastmile_qr_scan"}, "is_disabled": 0, "fusion_lat": 0.0, "name": "2b098e3ac699509ae61eb5149dda5d6c", "fusion_lon": 0.0}, {"is_reserved": 0, "type": "electric_scooter", "bike_id": "630484cae7ed218de9ac92ad03fd83b1", "lat": 38.8974365, "lon": -77.02439483333333, "rental_uris": {"android": "https://dc.lft.to/lastmile_qr_scan", "ios": "https://dc.lft.to/lastmile_qr_scan"}, "is_disabled": 0, "fusion_lat": 0.0, "name": "630484cae7ed218de9ac92ad03fd83b1", "fusion_lon": 0.0}, {"is_reserved": 0, "type": "electric_scooter", "bike_id": "e1c98ac513f37d040754151e519dbe83", "lat": 38.90558383333333, "lon": -77.00559066666666, "rental_uris": {"android": "https://dc.lft.to/lastmile_qr_scan", "ios": "https://dc.lft.to/lastmile_qr_scan"}, "is_disabled": 0, "fusion_lat": 0.0, "name": "e1c98ac513f37d040754151e519dbe83", "fusion_lon": 0.0}, {"is_reserved": 0, "type": "electric_scooter", "bike_id": "df9a43093fa9a3b14a416c2810475159", "lat": 38.9179675, "lon": -77.02711083333334, "rental_uris": {"android": "https://dc.lft.to/lastmile_qr_scan", "ios": "https://dc.lft.to/lastmile_qr_scan"}, "is_disabled": 0, "fusion_lat": 0.0, "name": "df9a43093fa9a3b14a416c2810475159", "fusion_lon": 0.0}, {"is_reserved": 0, "type": "electric_scooter", "bike_id": "2105e957de4c4fe6cc0bddc065aaf793", "lat": 38.925484833333336, "lon": -76.99953116666667, "rental_uris": {"android": "https://dc.lft.to/lastmile_qr_scan", "ios": "https://dc.lft.to/lastmile_qr_scan"}, "is_disabled": 0, "fusion_lat": 0.0, "name": "2105e957de4c4fe6cc0bddc065aaf793", "fusion_lon": 0.0}, {"is_reserved": 0, "type": "electric_scooter", "bike_id": "b56e98fbf3ee3ac868ebbe99bda0b777", "lat": 38.887358666666664, "lon": -77.0135295, "rental_uris": {"android": "https://dc.lft.to/lastmile_qr_scan", "ios": "https://dc.lft.to/lastmile_qr_scan"}, "is_disabled": 0, "fusion_lat": 0.0, "name": "b56e98fbf3ee3ac868ebbe99bda0b777", "fusion_lon": 0.0}, {"is_reserved": 0, "type": "electric_scooter", "bike_id": "79134bb3ce8998609e60b087a8262ef1", "lat": 38.915583833333336, "lon": -77.03136516666666, "rental_uris": {"android": "https://dc.lft.to/lastmile_qr_scan", "ios": "https://dc.lft.to/lastmile_qr_scan"}, "is_disabled": 0, "fusion_lat": 0.0, "name": "79134bb3ce8998609e60b087a8262ef1", "fusion_lon": 0.0}, {"is_reserved": 0, "type": "electric_scooter", "bike_id": "7f12cdc446e2ba60678628c250362d2d", "lat": 38.90376883333333, "lon": -77.03139783333333, "rental_uris": {"android": "https://dc.lft.to/lastmile_qr_scan", "ios": "https://dc.lft.to/lastmile_qr_scan"}, "is_disabled": 0, "fusion_lat": 0.0, "name": "7f12cdc446e2ba60678628c250362d2d", "fusion_lon": 0.0}, {"is_reserved": 0, "type": "electric_scooter", "bike_id": "6e25ca142e5263a212e3a1362200622c", "lat": 38.8988735, "lon": -76.9935905, "rental_uris": {"android": "https://dc.lft.to/lastmile_qr_scan", "ios": "https://dc.lft.to/lastmile_qr_scan"}, "is_disabled": 0, "fusion_lat": 0.0, "name": "6e25ca142e5263a212e3a1362200622c", "fusion_lon": 0.0}, {"is_reserved": 0, "type": "electric_bike", "bike_id": "119c30356784a84dfa891566315e54c2", "lat": 38.921977166666665, "lon": -77.04294483333334, "rental_uris": {"android": "https://dc.lft.to/lastmile_qr_scan", "ios": "https://dc.lft.to/lastmile_qr_scan"}, "is_disabled": 0, "fusion_lat": 0.0, "name": "119c30356784a84dfa891566315e54c2", "fusion_lon": 0.0}, {"is_reserved": 0, "type": "electric_scooter", "bike_id": "1c57b0b313b46061f1e0643421c3b11a", "lat": 38.933692, "lon": -77.0346875, "rental_uris": {"android": "https://dc.lft.to/lastmile_qr_scan", "ios": "https://dc.lft.to/lastmile_qr_scan"}, "is_disabled": 0, "fusion_lat": 0.0, "name": "1c57b0b313b46061f1e0643421c3b11a", "fusion_lon": 0.0}, {"is_reserved": 0, "type": "electric_scooter", "bike_id": "7d10f4fd229744f7fff88669234b801a", "lat": 38.910091, "lon": -77.04368516666666, "rental_uris": {"android": "https://dc.lft.to/lastmile_qr_scan", "ios": "https://dc.lft.to/lastmile_qr_scan"}, "is_disabled": 0, "fusion_lat": 0.0, "name": "7d10f4fd229744f7fff88669234b801a", "fusion_lon": 0.0}, {"is_reserved": 0, "type": "electric_bike", "bike_id": "dbc6292f1a5cd127d677eee7038e325e", "lat": 38.87730883333333, "lon": -77.118486, "rental_uris": {"android": "https://dc.lft.to/lastmile_qr_scan", "ios": "https://dc.lft.to/lastmile_qr_scan"}, "is_disabled": 0, "fusion_lat": 0.0, "name": "dbc6292f1a5cd127d677eee7038e325e", "fusion_lon": 0.0}, {"is_reserved": 0, "type": "electric_scooter", "bike_id": "ab33de88792e6d8cb2f90840b47fff19", "lat": 38.884051666666664, "lon": -77.02998033333333, "rental_uris": {"android": "https://dc.lft.to/lastmile_qr_scan", "ios": "https://dc.lft.to/lastmile_qr_scan"}, "is_disabled": 0, "fusion_lat": 0.0, "name": "ab33de88792e6d8cb2f90840b47fff19", "fusion_lon": 0.0}, {"is_reserved": 0, "type": "electric_scooter", "bike_id": "90881aec5054520087966debb259ab9d", "lat": 38.93394966666666, "lon": -77.02836933333333, "rental_uris": {"android": "https://dc.lft.to/lastmile_qr_scan", "ios": "https://dc.lft.to/lastmile_qr_scan"}, "is_disabled": 0, "fusion_lat": 0.0, "name": "90881aec5054520087966debb259ab9d", "fusion_lon": 0.0}, {"is_reserved": 0, "type": "electric_scooter", "bike_id": "e0e5c3103579e950ebcaa2b3599e6748", "lat": 38.8924615, "lon": -77.03348633333333, "rental_uris": {"android": "https://dc.lft.to/lastmile_qr_scan", "ios": "https://dc.lft.to/lastmile_qr_scan"}, "is_disabled": 0, "fusion_lat": 0.0, "name": "e0e5c3103579e950ebcaa2b3599e6748", "fusion_lon": 0.0}, {"is_reserved": 0, "type": "electric_scooter", "bike_id": "b8311c1565e1129bd23fca06f1a3777a", "lat": 38.924136833333336, "lon": -77.02011016666667, "rental_uris": {"android": "https://dc.lft.to/lastmile_qr_scan", "ios": "https://dc.lft.to/lastmile_qr_scan"}, "is_disabled": 0, "fusion_lat": 0.0, "name": "b8311c1565e1129bd23fca06f1a3777a", "fusion_lon": 0.0}, {"is_reserved": 0, "type": "electric_scooter", "bike_id": "457573815087658141702f7c1790f2e4", "lat": 38.915955333333336, "lon": -77.01214933333333, "rental_uris": {"android": "https://dc.lft.to/lastmile_qr_scan", "ios": "https://dc.lft.to/lastmile_qr_scan"}, "is_disabled": 0, "fusion_lat": 0.0, "name": "457573815087658141702f7c1790f2e4", "fusion_lon": 0.0}, {"is_reserved": 0, "type": "electric_bike", "bike_id": "e89507093fdb0f3b805efca9d880657e", "lat": 38.94965366666667, "lon": -76.96094566666666, "rental_uris": {"android": "https://dc.lft.to/lastmile_qr_scan", "ios": "https://dc.lft.to/lastmile_qr_scan"}, "is_disabled": 0, "fusion_lat": 0.0, "name": "e89507093fdb0f3b805efca9d880657e", "fusion_lon": 0.0}, {"is_reserved": 0, "type": "electric_scooter", "bike_id": "9cafa364acd1635d103df9fb933ad4bf", "lat": 38.906780166666664, "lon": -77.062637, "rental_uris": {"android": "https://dc.lft.to/lastmile_qr_scan", "ios": "https://dc.lft.to/lastmile_qr_scan"}, "is_disabled": 0, "fusion_lat": 0.0, "name": "9cafa364acd1635d103df9fb933ad4bf", "fusion_lon": 0.0}, {"is_reserved": 0, "type": "electric_scooter", "bike_id": "14cfba05b9c3719c0ce122e14c1cd50b", "lat": 38.89354616666667, "lon": -77.0282115, "rental_uris": {"android": "https://dc.lft.to/lastmile_qr_scan", "ios": "https://dc.lft.to/lastmile_qr_scan"}, "is_disabled": 0, "fusion_lat": 0.0, "name": "14cfba05b9c3719c0ce122e14c1cd50b", "fusion_lon": 0.0}, {"is_reserved": 0, "type": "electric_scooter", "bike_id": "862d4dc3e65208b3773dfa2947b228c0", "lat": 38.87273, "lon": -77.01708716666667, "rental_uris": {"android": "https://dc.lft.to/lastmile_qr_scan", "ios": "https://dc.lft.to/lastmile_qr_scan"}, "is_disabled": 0, "fusion_lat": 0.0, "name": "862d4dc3e65208b3773dfa2947b228c0", "fusion_lon": 0.0}, {"is_reserved": 0, "type": "electric_bike", "bike_id": "20c42b3c9653bcf0dfcccf98521a950e", "lat": 38.80866266666666, "lon": -77.11256083333333, "rental_uris": {"android": "https://dc.lft.to/lastmile_qr_scan", "ios": "https://dc.lft.to/lastmile_qr_scan"}, "is_disabled": 0, "fusion_lat": 0.0, "name": "20c42b3c9653bcf0dfcccf98521a950e", "fusion_lon": 0.0}, {"is_reserved": 0, "type": "electric_scooter", "bike_id": "f8cfc5475542b919e6bde7493792c762", "lat": 38.9074065, "lon": -77.04157766666667, "rental_uris": {"android": "https://dc.lft.to/lastmile_qr_scan", "ios": "https://dc.lft.to/lastmile_qr_scan"}, "is_disabled": 0, "fusion_lat": 0.0, "name": "f8cfc5475542b919e6bde7493792c762", "fusion_lon": 0.0}, {"is_reserved": 0, "type": "electric_scooter", "bike_id": "1e8cba6dfb35523b7d96b8afc7691111", "lat": 38.905161666666665, "lon": -77.05665516666667, "rental_uris": {"android": "https://dc.lft.to/lastmile_qr_scan", "ios": "https://dc.lft.to/lastmile_qr_scan"}, "is_disabled": 0, "fusion_lat": 0.0, "name": "1e8cba6dfb35523b7d96b8afc7691111", "fusion_lon": 0.0}, {"is_reserved": 0, "type": "electric_scooter", "bike_id": "006b15e33d89df6e00ddf87311ac52fc", "lat": 38.90083, "lon": -77.05737466666666, "rental_uris": {"android": "https://dc.lft.to/lastmile_qr_scan", "ios": "https://dc.lft.to/lastmile_qr_scan"}, "is_disabled": 0, "fusion_lat": 0.0, "name": "006b15e33d89df6e00ddf87311ac52fc", "fusion_lon": 0.0}, {"is_reserved": 0, "type": "electric_scooter", "bike_id": "c4029adc632044ff4a8955b5e9b664da", "lat": 38.90082983333333, "lon": -77.03633133333334, "rental_uris": {"android": "https://dc.lft.to/lastmile_qr_scan", "ios": "https://dc.lft.to/lastmile_qr_scan"}, "is_disabled": 0, "fusion_lat": 0.0, "name": "c4029adc632044ff4a8955b5e9b664da", "fusion_lon": 0.0}, {"is_reserved": 0, "type": "electric_scooter", "bike_id": "1c9702a883b2d877deba1458025de290", "lat": 38.87157366666667, "lon": -77.01316416666667, "rental_uris": {"android": "https://dc.lft.to/lastmile_qr_scan", "ios": "https://dc.lft.to/lastmile_qr_scan"}, "is_disabled": 0, "fusion_lat": 0.0, "name": "1c9702a883b2d877deba1458025de290", "fusion_lon": 0.0}, {"is_reserved": 0, "type": "electric_scooter", "bike_id": "88741cdd3458d51cfa6677a159088c9b", "lat": 38.900774166666665, "lon": -77.049618, "rental_uris": {"android": "https://dc.lft.to/lastmile_qr_scan", "ios": "https://dc.lft.to/lastmile_qr_scan"}, "is_disabled": 0, "fusion_lat": 0.0, "name": "88741cdd3458d51cfa6677a159088c9b", "fusion_lon": 0.0}, {"is_reserved": 0, "type": "electric_scooter", "bike_id": "367cbf778635c04d9dec5ee53f03bcf2", "lat": 38.914183333333334, "lon": -77.0140995, "rental_uris": {"android": "https://dc.lft.to/lastmile_qr_scan", "ios": "https://dc.lft.to/lastmile_qr_scan"}, "is_disabled": 0, "fusion_lat": 0.0, "name": "367cbf778635c04d9dec5ee53f03bcf2", "fusion_lon": 0.0}, {"is_reserved": 0, "type": "electric_scooter", "bike_id": "09690eb83d5521e05d73c35dd43aa99d", "lat": 38.9009315, "lon": -77.0159695, "rental_uris": {"android": "https://dc.lft.to/lastmile_qr_scan", "ios": "https://dc.lft.to/lastmile_qr_scan"}, "is_disabled": 0, "fusion_lat": 0.0, "name": "09690eb83d5521e05d73c35dd43aa99d", "fusion_lon": 0.0}, {"is_reserved": 0, "type": "electric_scooter", "bike_id": "49d2d36b7ba267ec7131474a48a28a05", "lat": 38.9351915, "lon": -77.01952383333334, "rental_uris": {"android": "https://dc.lft.to/lastmile_qr_scan", "ios": "https://dc.lft.to/lastmile_qr_scan"}, "is_disabled": 0, "fusion_lat": 0.0, "name": "49d2d36b7ba267ec7131474a48a28a05", "fusion_lon": 0.0}, {"is_reserved": 0, "type": "electric_scooter", "bike_id": "6f5147b20542c096783233b1e2f9c3d9", "lat": 38.9256975, "lon": -77.031034, "rental_uris": {"android": "https://dc.lft.to/lastmile_qr_scan", "ios": "https://dc.lft.to/lastmile_qr_scan"}, "is_disabled": 0, "fusion_lat": 0.0, "name": "6f5147b20542c096783233b1e2f9c3d9", "fusion_lon": 0.0}, {"is_reserved": 0, "type": "electric_scooter", "bike_id": "151b471af62d81f1f912a1a411b84100", "lat": 38.924304, "lon": -77.02242566666666, "rental_uris": {"android": "https://dc.lft.to/lastmile_qr_scan", "ios": "https://dc.lft.to/lastmile_qr_scan"}, "is_disabled": 0, "fusion_lat": 0.0, "name": "151b471af62d81f1f912a1a411b84100", "fusion_lon": 0.0}, {"is_reserved": 0, "type": "electric_scooter", "bike_id": "5297e902f9d8383969a1fd4e3e191b5a", "lat": 38.90178216666666, "lon": -76.92893116666667, "rental_uris": {"android": "https://dc.lft.to/lastmile_qr_scan", "ios": "https://dc.lft.to/lastmile_qr_scan"}, "is_disabled": 0, "fusion_lat": 0.0, "name": "5297e902f9d8383969a1fd4e3e191b5a", "fusion_lon": 0.0}, {"is_reserved": 0, "type": "electric_scooter", "bike_id": "a68565c67a1ebc6eb31e611d6a020f59", "lat": 38.90673483333333, "lon": -77.06297733333334, "rental_uris": {"android": "https://dc.lft.to/lastmile_qr_scan", "ios": "https://dc.lft.to/lastmile_qr_scan"}, "is_disabled": 0, "fusion_lat": 0.0, "name": "a68565c67a1ebc6eb31e611d6a020f59", "fusion_lon": 0.0}, {"is_reserved": 0, "type": "electric_bike", "bike_id": "acc12b83e8301f2d93069785fbd19571", "lat": 38.80732416666667, "lon": -76.99255366666667, "rental_uris": {"android": "https://dc.lft.to/lastmile_qr_scan", "ios": "https://dc.lft.to/lastmile_qr_scan"}, "is_disabled": 0, "fusion_lat": 0.0, "name": "acc12b83e8301f2d93069785fbd19571", "fusion_lon": 0.0}, {"is_reserved": 0, "type": "electric_scooter", "bike_id": "0728f3de6264734c88bc793d60e23fe9", "lat": 38.9002475, "lon": -76.99601683333333, "rental_uris": {"android": "https://dc.lft.to/lastmile_qr_scan", "ios": "https://dc.lft.to/lastmile_qr_scan"}, "is_disabled": 0, "fusion_lat": 0.0, "name": "0728f3de6264734c88bc793d60e23fe9", "fusion_lon": 0.0}, {"is_reserved": 0, "type": "electric_scooter", "bike_id": "dd53d17eea92c92926787459e05c9628", "lat": 38.901453333333336, "lon": -77.0282495, "rental_uris": {"android": "https://dc.lft.to/lastmile_qr_scan", "ios": "https://dc.lft.to/lastmile_qr_scan"}, "is_disabled": 0, "fusion_lat": 0.0, "name": "dd53d17eea92c92926787459e05c9628", "fusion_lon": 0.0}, {"is_reserved": 0, "type": "electric_scooter", "bike_id": "33c216c072c313b329eb6c17af3f3a60", "lat": 38.90556816666667, "lon": -77.056979, "rental_uris": {"android": "https://dc.lft.to/lastmile_qr_scan", "ios": "https://dc.lft.to/lastmile_qr_scan"}, "is_disabled": 0, "fusion_lat": 0.0, "name": "33c216c072c313b329eb6c17af3f3a60", "fusion_lon": 0.0}, {"is_reserved": 0, "type": "electric_scooter", "bike_id": "291ee69e144a7147fe40a87501f64d35", "lat": 38.89711783333333, "lon": -77.05358916666667, "rental_uris": {"android": "https://dc.lft.to/lastmile_qr_scan", "ios": "https://dc.lft.to/lastmile_qr_scan"}, "is_disabled": 0, "fusion_lat": 0.0, "name": "291ee69e144a7147fe40a87501f64d35", "fusion_lon": 0.0}, {"is_reserved": 0, "type": "electric_scooter", "bike_id": "dbea32a552e4cbb9a71a3ecf1a8f61d9", "lat": 38.922491, "lon": -77.02886583333333, "rental_uris": {"android": "https://dc.lft.to/lastmile_qr_scan", "ios": "https://dc.lft.to/lastmile_qr_scan"}, "is_disabled": 0, "fusion_lat": 0.0, "name": "dbea32a552e4cbb9a71a3ecf1a8f61d9", "fusion_lon": 0.0}, {"is_reserved": 0, "type": "electric_scooter", "bike_id": "78144532faacbe159304f70377798fe6", "lat": 38.89886033333333, "lon": -77.00363366666667, "rental_uris": {"android": "https://dc.lft.to/lastmile_qr_scan", "ios": "https://dc.lft.to/lastmile_qr_scan"}, "is_disabled": 0, "fusion_lat": 0.0, "name": "78144532faacbe159304f70377798fe6", "fusion_lon": 0.0}, {"is_reserved": 0, "type": "electric_scooter", "bike_id": "612759840a9d1ad7a0742cbc3dcd63d2", "lat": 38.872093, "lon": -77.01548916666667, "rental_uris": {"android": "https://dc.lft.to/lastmile_qr_scan", "ios": "https://dc.lft.to/lastmile_qr_scan"}, "is_disabled": 0, "fusion_lat": 0.0, "name": "612759840a9d1ad7a0742cbc3dcd63d2", "fusion_lon": 0.0}, {"is_reserved": 0, "type": "electric_scooter", "bike_id": "efb0d9402cbab09a7c596d4e9c92cb9b", "lat": 38.89716933333333, "lon": -77.00799416666666, "rental_uris": {"android": "https://dc.lft.to/lastmile_qr_scan", "ios": "https://dc.lft.to/lastmile_qr_scan"}, "is_disabled": 0, "fusion_lat": 0.0, "name": "efb0d9402cbab09a7c596d4e9c92cb9b", "fusion_lon": 0.0}, {"is_reserved": 0, "type": "electric_scooter", "bike_id": "a9749c7050b45439f1c9365748470425", "lat": 38.92269733333333, "lon": -77.04016866666667, "rental_uris": {"android": "https://dc.lft.to/lastmile_qr_scan", "ios": "https://dc.lft.to/lastmile_qr_scan"}, "is_disabled": 0, "fusion_lat": 0.0, "name": "a9749c7050b45439f1c9365748470425", "fusion_lon": 0.0}, {"is_reserved": 0, "type": "electric_scooter", "bike_id": "3a61970098ce27e6cb9493033d94ccd9", "lat": 38.940344833333334, "lon": -77.02916166666667, "rental_uris": {"android": "https://dc.lft.to/lastmile_qr_scan", "ios": "https://dc.lft.to/lastmile_qr_scan"}, "is_disabled": 0, "fusion_lat": 0.0, "name": "3a61970098ce27e6cb9493033d94ccd9", "fusion_lon": 0.0}, {"is_reserved": 0, "type": "electric_scooter", "bike_id": "0a63151204544389e613430d63f06485", "lat": 38.9162815, "lon": -77.03216533333334, "rental_uris": {"android": "https://dc.lft.to/lastmile_qr_scan", "ios": "https://dc.lft.to/lastmile_qr_scan"}, "is_disabled": 0, "fusion_lat": 0.0, "name": "0a63151204544389e613430d63f06485", "fusion_lon": 0.0}, {"is_reserved": 0, "type": "electric_scooter", "bike_id": "b91063110d42ef4afca8f6afdb923757", "lat": 38.900089333333334, "lon": -77.04017233333333, "rental_uris": {"android": "https://dc.lft.to/lastmile_qr_scan", "ios": "https://dc.lft.to/lastmile_qr_scan"}, "is_disabled": 0, "fusion_lat": 0.0, "name": "b91063110d42ef4afca8f6afdb923757", "fusion_lon": 0.0}, {"is_reserved": 0, "type": "electric_scooter", "bike_id": "88be6d14dab783a6a40000c65e14c9fd", "lat": 38.903798333333334, "lon": -77.05344433333333, "rental_uris": {"android": "https://dc.lft.to/lastmile_qr_scan", "ios": "https://dc.lft.to/lastmile_qr_scan"}, "is_disabled": 0, "fusion_lat": 0.0, "name": "88be6d14dab783a6a40000c65e14c9fd", "fusion_lon": 0.0}, {"is_reserved": 0, "type": "electric_scooter", "bike_id": "bd85962fed5c2d1ebde5debbbbee97f2", "lat": 38.87660783333333, "lon": -76.996242, "rental_uris": {"android": "https://dc.lft.to/lastmile_qr_scan", "ios": "https://dc.lft.to/lastmile_qr_scan"}, "is_disabled": 0, "fusion_lat": 0.0, "name": "bd85962fed5c2d1ebde5debbbbee97f2", "fusion_lon": 0.0}, {"is_reserved": 0, "type": "electric_scooter", "bike_id": "8c484868f83b22eabf334913353bfaf7", "lat": 38.9296995, "lon": -77.02791133333334, "rental_uris": {"android": "https://dc.lft.to/lastmile_qr_scan", "ios": "https://dc.lft.to/lastmile_qr_scan"}, "is_disabled": 0, "fusion_lat": 0.0, "name": "8c484868f83b22eabf334913353bfaf7", "fusion_lon": 0.0}, {"is_reserved": 0, "type": "electric_scooter", "bike_id": "f5bea974c2a84ad0b73f78b69466fe9e", "lat": 38.902544, "lon": -77.028073, "rental_uris": {"android": "https://dc.lft.to/lastmile_qr_scan", "ios": "https://dc.lft.to/lastmile_qr_scan"}, "is_disabled": 0, "fusion_lat": 0.0, "name": "f5bea974c2a84ad0b73f78b69466fe9e", "fusion_lon": 0.0}, {"is_reserved": 0, "type": "electric_scooter", "bike_id": "b22ce7b8a111494a25f619205aebd64e", "lat": 38.90203, "lon": -77.02173483333333, "rental_uris": {"android": "https://dc.lft.to/lastmile_qr_scan", "ios": "https://dc.lft.to/lastmile_qr_scan"}, "is_disabled": 0, "fusion_lat": 0.0, "name": "b22ce7b8a111494a25f619205aebd64e", "fusion_lon": 0.0}, {"is_reserved": 0, "type": "electric_bike", "bike_id": "5813e4c7bb711b2b9f601830288b2df7", "lat": 38.863329666666665, "lon": -76.98719033333333, "rental_uris": {"android": "https://dc.lft.to/lastmile_qr_scan", "ios": "https://dc.lft.to/lastmile_qr_scan"}, "is_disabled": 0, "fusion_lat": 0.0, "name": "5813e4c7bb711b2b9f601830288b2df7", "fusion_lon": 0.0}, {"is_reserved": 0, "type": "electric_scooter", "bike_id": "15fa00bd20bb21b3478ad96b7a152cf2", "lat": 38.9251675, "lon": -77.05061683333334, "rental_uris": {"android": "https://dc.lft.to/lastmile_qr_scan", "ios": "https://dc.lft.to/lastmile_qr_scan"}, "is_disabled": 0, "fusion_lat": 0.0, "name": "15fa00bd20bb21b3478ad96b7a152cf2", "fusion_lon": 0.0}, {"is_reserved": 0, "type": "electric_scooter", "bike_id": "352fa4ecbb436ea94e982885d5ff79f2", "lat": 38.91818633333333, "lon": -77.0319715, "rental_uris": {"android": "https://dc.lft.to/lastmile_qr_scan", "ios": "https://dc.lft.to/lastmile_qr_scan"}, "is_disabled": 0, "fusion_lat": 0.0, "name": "352fa4ecbb436ea94e982885d5ff79f2", "fusion_lon": 0.0}, {"is_reserved": 0, "type": "electric_scooter", "bike_id": "5f8f3789b882814017e6e22dc025bcd3", "lat": 38.924154333333334, "lon": -77.02011383333334, "rental_uris": {"android": "https://dc.lft.to/lastmile_qr_scan", "ios": "https://dc.lft.to/lastmile_qr_scan"}, "is_disabled": 0, "fusion_lat": 0.0, "name": "5f8f3789b882814017e6e22dc025bcd3", "fusion_lon": 0.0}, {"is_reserved": 0, "type": "electric_bike", "bike_id": "2633a05639653b9aaaafc8f49f856d89", "lat": 38.85415733333333, "lon": -77.08368833333333, "rental_uris": {"android": "https://dc.lft.to/lastmile_qr_scan", "ios": "https://dc.lft.to/lastmile_qr_scan"}, "is_disabled": 0, "fusion_lat": 0.0, "name": "2633a05639653b9aaaafc8f49f856d89", "fusion_lon": 0.0}, {"is_reserved": 0, "type": "electric_scooter", "bike_id": "e2b1e708e8400168df4a8afeaad6cb3f", "lat": 38.909766, "lon": -77.0338295, "rental_uris": {"android": "https://dc.lft.to/lastmile_qr_scan", "ios": "https://dc.lft.to/lastmile_qr_scan"}, "is_disabled": 0, "fusion_lat": 0.0, "name": "e2b1e708e8400168df4a8afeaad6cb3f", "fusion_lon": 0.0}, {"is_reserved": 0, "type": "electric_bike", "bike_id": "64d1a36ffea35bdc3f995b3f2bb6ceb1", "lat": 38.870035, "lon": -77.23002183333334, "rental_uris": {"android": "https://dc.lft.to/lastmile_qr_scan", "ios": "https://dc.lft.to/lastmile_qr_scan"}, "is_disabled": 0, "fusion_lat": 0.0, "name": "64d1a36ffea35bdc3f995b3f2bb6ceb1", "fusion_lon": 0.0}, {"is_reserved": 0, "type": "electric_scooter", "bike_id": "df6f02f2071d862d06ec0c389f154a4d", "lat": 38.935256833333334, "lon": -77.01939483333334, "rental_uris": {"android": "https://dc.lft.to/lastmile_qr_scan", "ios": "https://dc.lft.to/lastmile_qr_scan"}, "is_disabled": 0, "fusion_lat": 0.0, "name": "df6f02f2071d862d06ec0c389f154a4d", "fusion_lon": 0.0}, {"is_reserved": 0, "type": "electric_scooter", "bike_id": "6f2e189d1a4a96052e0d817c34c245f7", "lat": 38.90693683333333, "lon": -76.98349, "rental_uris": {"android": "https://dc.lft.to/lastmile_qr_scan", "ios": "https://dc.lft.to/lastmile_qr_scan"}, "is_disabled": 0, "fusion_lat": 0.0, "name": "6f2e189d1a4a96052e0d817c34c245f7", "fusion_lon": 0.0}, {"is_reserved": 0, "type": "electric_scooter", "bike_id": "8240d5b1f4d144862cbfa386d1a86ab4", "lat": 38.905567166666664, "lon": -77.01590533333334, "rental_uris": {"android": "https://dc.lft.to/lastmile_qr_scan", "ios": "https://dc.lft.to/lastmile_qr_scan"}, "is_disabled": 0, "fusion_lat": 0.0, "name": "8240d5b1f4d144862cbfa386d1a86ab4", "fusion_lon": 0.0}, {"is_reserved": 0, "type": "electric_scooter", "bike_id": "f7f2e4d1eac1dc67b0a7516ef76e32ca", "lat": 38.89944233333333, "lon": -76.979192, "rental_uris": {"android": "https://dc.lft.to/lastmile_qr_scan", "ios": "https://dc.lft.to/lastmile_qr_scan"}, "is_disabled": 0, "fusion_lat": 0.0, "name": "f7f2e4d1eac1dc67b0a7516ef76e32ca", "fusion_lon": 0.0}, {"is_reserved": 0, "type": "electric_scooter", "bike_id": "362f4ef785e4f04a70c9bfca6598f063", "lat": 38.905554333333335, "lon": -77.05701466666666, "rental_uris": {"android": "https://dc.lft.to/lastmile_qr_scan", "ios": "https://dc.lft.to/lastmile_qr_scan"}, "is_disabled": 0, "fusion_lat": 0.0, "name": "362f4ef785e4f04a70c9bfca6598f063", "fusion_lon": 0.0}, {"is_reserved": 0, "type": "electric_scooter", "bike_id": "797b5c5e2cf8b784f44e3240d9391ecf", "lat": 38.908475, "lon": -77.04329616666666, "rental_uris": {"android": "https://dc.lft.to/lastmile_qr_scan", "ios": "https://dc.lft.to/lastmile_qr_scan"}, "is_disabled": 0, "fusion_lat": 0.0, "name": "797b5c5e2cf8b784f44e3240d9391ecf", "fusion_lon": 0.0}, {"is_reserved": 0, "type": "electric_scooter", "bike_id": "6f2894994f1e2512b97443d8c67d15ae", "lat": 38.872073666666665, "lon": -77.01356566666666, "rental_uris": {"android": "https://dc.lft.to/lastmile_qr_scan", "ios": "https://dc.lft.to/lastmile_qr_scan"}, "is_disabled": 0, "fusion_lat": 0.0, "name": "6f2894994f1e2512b97443d8c67d15ae", "fusion_lon": 0.0}, {"is_reserved": 0, "type": "electric_scooter", "bike_id": "7643701e96f100e8d5376a7fb6afe370", "lat": 38.909293166666664, "lon": -76.99631083333334, "rental_uris": {"android": "https://dc.lft.to/lastmile_qr_scan", "ios": "https://dc.lft.to/lastmile_qr_scan"}, "is_disabled": 0, "fusion_lat": 0.0, "name": "7643701e96f100e8d5376a7fb6afe370", "fusion_lon": 0.0}, {"is_reserved": 0, "type": "electric_scooter", "bike_id": "c1e1f0da5075c8ceb7db3c5f40f547c6", "lat": 38.914154, "lon": -77.01410566666667, "rental_uris": {"android": "https://dc.lft.to/lastmile_qr_scan", "ios": "https://dc.lft.to/lastmile_qr_scan"}, "is_disabled": 0, "fusion_lat": 0.0, "name": "c1e1f0da5075c8ceb7db3c5f40f547c6", "fusion_lon": 0.0}, {"is_reserved": 0, "type": "electric_scooter", "bike_id": "c6eee8aa69e0d3adaca9e54933571978", "lat": 38.909028666666664, "lon": -77.03956916666667, "rental_uris": {"android": "https://dc.lft.to/lastmile_qr_scan", "ios": "https://dc.lft.to/lastmile_qr_scan"}, "is_disabled": 0, "fusion_lat": 0.0, "name": "c6eee8aa69e0d3adaca9e54933571978", "fusion_lon": 0.0}, {"is_reserved": 0, "type": "electric_scooter", "bike_id": "883a0e6e27e5bda13011a62bffc6b21b", "lat": 38.874711, "lon": -77.003358, "rental_uris": {"android": "https://dc.lft.to/lastmile_qr_scan", "ios": "https://dc.lft.to/lastmile_qr_scan"}, "is_disabled": 0, "fusion_lat": 0.0, "name": "883a0e6e27e5bda13011a62bffc6b21b", "fusion_lon": 0.0}, {"is_reserved": 0, "type": "electric_scooter", "bike_id": "f95b5bcaed6e95f5de2b7ad6461acaa3", "lat": 38.9100345, "lon": -77.044235, "rental_uris": {"android": "https://dc.lft.to/lastmile_qr_scan", "ios": "https://dc.lft.to/lastmile_qr_scan"}, "is_disabled": 0, "fusion_lat": 0.0, "name": "f95b5bcaed6e95f5de2b7ad6461acaa3", "fusion_lon": 0.0}, {"is_reserved": 0, "type": "electric_scooter", "bike_id": "076e73efec1375d62b10b0a4f6c94b10", "lat": 38.900123, "lon": -77.00041333333333, "rental_uris": {"android": "https://dc.lft.to/lastmile_qr_scan", "ios": "https://dc.lft.to/lastmile_qr_scan"}, "is_disabled": 0, "fusion_lat": 0.0, "name": "076e73efec1375d62b10b0a4f6c94b10", "fusion_lon": 0.0}, {"is_reserved": 0, "type": "electric_scooter", "bike_id": "4e060cee713e4ffa64f04076b8b84e86", "lat": 38.892300666666664, "lon": -77.0220725, "rental_uris": {"android": "https://dc.lft.to/lastmile_qr_scan", "ios": "https://dc.lft.to/lastmile_qr_scan"}, "is_disabled": 0, "fusion_lat": 0.0, "name": "4e060cee713e4ffa64f04076b8b84e86", "fusion_lon": 0.0}, {"is_reserved": 0, "type": "electric_scooter", "bike_id": "f6aaa65d959a881ad9a67c918884d343", "lat": 38.8922115, "lon": -77.02310916666667, "rental_uris": {"android": "https://dc.lft.to/lastmile_qr_scan", "ios": "https://dc.lft.to/lastmile_qr_scan"}, "is_disabled": 0, "fusion_lat": 0.0, "name": "f6aaa65d959a881ad9a67c918884d343", "fusion_lon": 0.0}, {"is_reserved": 0, "type": "electric_scooter", "bike_id": "8e6c810af4679ddc48d036c88226b1db", "lat": 38.92201566666667, "lon": -77.02031116666667, "rental_uris": {"android": "https://dc.lft.to/lastmile_qr_scan", "ios": "https://dc.lft.to/lastmile_qr_scan"}, "is_disabled": 0, "fusion_lat": 0.0, "name": "8e6c810af4679ddc48d036c88226b1db", "fusion_lon": 0.0}, {"is_reserved": 0, "type": "electric_scooter", "bike_id": "736ed81b3adf9e4e3bf61766cd912374", "lat": 38.914176499999996, "lon": -77.03181333333333, "rental_uris": {"android": "https://dc.lft.to/lastmile_qr_scan", "ios": "https://dc.lft.to/lastmile_qr_scan"}, "is_disabled": 0, "fusion_lat": 0.0, "name": "736ed81b3adf9e4e3bf61766cd912374", "fusion_lon": 0.0}, {"is_reserved": 0, "type": "electric_scooter", "bike_id": "29666150496fab8f9c15e16161a1fab9", "lat": 38.897754166666665, "lon": -77.04778866666666, "rental_uris": {"android": "https://dc.lft.to/lastmile_qr_scan", "ios": "https://dc.lft.to/lastmile_qr_scan"}, "is_disabled": 0, "fusion_lat": 0.0, "name": "29666150496fab8f9c15e16161a1fab9", "fusion_lon": 0.0}, {"is_reserved": 0, "type": "electric_scooter", "bike_id": "71a0a8ab0b5862e4448e0fd42b0effd0", "lat": 38.892237333333334, "lon": -77.04367966666666, "rental_uris": {"android": "https://dc.lft.to/lastmile_qr_scan", "ios": "https://dc.lft.to/lastmile_qr_scan"}, "is_disabled": 0, "fusion_lat": 0.0, "name": "71a0a8ab0b5862e4448e0fd42b0effd0", "fusion_lon": 0.0}, {"is_reserved": 0, "type": "electric_scooter", "bike_id": "28bad852ad5f7838cba57fd9af01aaac", "lat": 38.91013383333333, "lon": -76.99370166666667, "rental_uris": {"android": "https://dc.lft.to/lastmile_qr_scan", "ios": "https://dc.lft.to/lastmile_qr_scan"}, "is_disabled": 0, "fusion_lat": 0.0, "name": "28bad852ad5f7838cba57fd9af01aaac", "fusion_lon": 0.0}, {"is_reserved": 0, "type": "electric_bike", "bike_id": "e0dd2f62fb59981fc7efeb2d1c006f23", "lat": 38.870836, "lon": -77.13334033333334, "rental_uris": {"android": "https://dc.lft.to/lastmile_qr_scan", "ios": "https://dc.lft.to/lastmile_qr_scan"}, "is_disabled": 0, "fusion_lat": 0.0, "name": "e0dd2f62fb59981fc7efeb2d1c006f23", "fusion_lon": 0.0}, {"is_reserved": 0, "type": "electric_scooter", "bike_id": "1deee7cd5fc7ab3853e36a97860d097e", "lat": 38.917012166666666, "lon": -77.030345, "rental_uris": {"android": "https://dc.lft.to/lastmile_qr_scan", "ios": "https://dc.lft.to/lastmile_qr_scan"}, "is_disabled": 0, "fusion_lat": 0.0, "name": "1deee7cd5fc7ab3853e36a97860d097e", "fusion_lon": 0.0}, {"is_reserved": 0, "type": "electric_scooter", "bike_id": "8f5eb5848e5d68c1545aac1e1719524b", "lat": 38.93081333333333, "lon": -77.02807983333334, "rental_uris": {"android": "https://dc.lft.to/lastmile_qr_scan", "ios": "https://dc.lft.to/lastmile_qr_scan"}, "is_disabled": 0, "fusion_lat": 0.0, "name": "8f5eb5848e5d68c1545aac1e1719524b", "fusion_lon": 0.0}, {"is_reserved": 0, "type": "electric_scooter", "bike_id": "7f34cf056a3577eea0ee0aeea127b481", "lat": 38.887251, "lon": -76.98376833333333, "rental_uris": {"android": "https://dc.lft.to/lastmile_qr_scan", "ios": "https://dc.lft.to/lastmile_qr_scan"}, "is_disabled": 0, "fusion_lat": 0.0, "name": "7f34cf056a3577eea0ee0aeea127b481", "fusion_lon": 0.0}, {"is_reserved": 0, "type": "electric_scooter", "bike_id": "e7a8dbd749e122c3ea2aca8cabd17663", "lat": 38.92060433333333, "lon": -77.03191983333333, "rental_uris": {"android": "https://dc.lft.to/lastmile_qr_scan", "ios": "https://dc.lft.to/lastmile_qr_scan"}, "is_disabled": 0, "fusion_lat": 0.0, "name": "e7a8dbd749e122c3ea2aca8cabd17663", "fusion_lon": 0.0}, {"is_reserved": 0, "type": "electric_scooter", "bike_id": "4183e0c46713552053045fab0a9f5a3c", "lat": 38.892238166666665, "lon": -77.0322005, "rental_uris": {"android": "https://dc.lft.to/lastmile_qr_scan", "ios": "https://dc.lft.to/lastmile_qr_scan"}, "is_disabled": 0, "fusion_lat": 0.0, "name": "4183e0c46713552053045fab0a9f5a3c", "fusion_lon": 0.0}, {"is_reserved": 0, "type": "electric_scooter", "bike_id": "ce09a7fcab4b32f12976780cd91d85ac", "lat": 38.9168775, "lon": -77.028938, "rental_uris": {"android": "https://dc.lft.to/lastmile_qr_scan", "ios": "https://dc.lft.to/lastmile_qr_scan"}, "is_disabled": 0, "fusion_lat": 0.0, "name": "ce09a7fcab4b32f12976780cd91d85ac", "fusion_lon": 0.0}, {"is_reserved": 0, "type": "electric_scooter", "bike_id": "11f31979c2e61999a8edfc51ecd3675b", "lat": 38.91553583333334, "lon": -77.03101766666667, "rental_uris": {"android": "https://dc.lft.to/lastmile_qr_scan", "ios": "https://dc.lft.to/lastmile_qr_scan"}, "is_disabled": 0, "fusion_lat": 0.0, "name": "11f31979c2e61999a8edfc51ecd3675b", "fusion_lon": 0.0}, {"is_reserved": 0, "type": "electric_scooter", "bike_id": "e20ca0eb2730b823f0bfe1ec0bd83ac5", "lat": 38.93402566666666, "lon": -77.0398965, "rental_uris": {"android": "https://dc.lft.to/lastmile_qr_scan", "ios": "https://dc.lft.to/lastmile_qr_scan"}, "is_disabled": 0, "fusion_lat": 0.0, "name": "e20ca0eb2730b823f0bfe1ec0bd83ac5", "fusion_lon": 0.0}, {"is_reserved": 0, "type": "electric_scooter", "bike_id": "e51eedbe01aedfe6ab998a1bef9ad99a", "lat": 38.91937466666667, "lon": -77.04795, "rental_uris": {"android": "https://dc.lft.to/lastmile_qr_scan", "ios": "https://dc.lft.to/lastmile_qr_scan"}, "is_disabled": 0, "fusion_lat": 0.0, "name": "e51eedbe01aedfe6ab998a1bef9ad99a", "fusion_lon": 0.0}, {"is_reserved": 0, "type": "electric_bike", "bike_id": "7a0a358bff4bcc2aec2dd28d2711edc7", "lat": 38.840493333333335, "lon": -77.05598033333334, "rental_uris": {"android": "https://dc.lft.to/lastmile_qr_scan", "ios": "https://dc.lft.to/lastmile_qr_scan"}, "is_disabled": 0, "fusion_lat": 0.0, "name": "7a0a358bff4bcc2aec2dd28d2711edc7", "fusion_lon": 0.0}, {"is_reserved": 0, "type": "electric_scooter", "bike_id": "c6a9e0b65094b5ebc5b868be5b51e5ad", "lat": 38.923636333333334, "lon": -77.03657366666667, "rental_uris": {"android": "https://dc.lft.to/lastmile_qr_scan", "ios": "https://dc.lft.to/lastmile_qr_scan"}, "is_disabled": 0, "fusion_lat": 0.0, "name": "c6a9e0b65094b5ebc5b868be5b51e5ad", "fusion_lon": 0.0}, {"is_reserved": 0, "type": "electric_scooter", "bike_id": "217fc8f90cb5a001470ba83d6993a698", "lat": 38.92107033333333, "lon": -77.04190116666666, "rental_uris": {"android": "https://dc.lft.to/lastmile_qr_scan", "ios": "https://dc.lft.to/lastmile_qr_scan"}, "is_disabled": 0, "fusion_lat": 0.0, "name": "217fc8f90cb5a001470ba83d6993a698", "fusion_lon": 0.0}, {"is_reserved": 0, "type": "electric_scooter", "bike_id": "0b7e8fcfe1ce8c52fdd4dcbb7f228263", "lat": 38.92147033333333, "lon": -77.03503716666667, "rental_uris": {"android": "https://dc.lft.to/lastmile_qr_scan", "ios": "https://dc.lft.to/lastmile_qr_scan"}, "is_disabled": 0, "fusion_lat": 0.0, "name": "0b7e8fcfe1ce8c52fdd4dcbb7f228263", "fusion_lon": 0.0}, {"is_reserved": 0, "type": "electric_scooter", "bike_id": "c60255caed32ce608b9de8ee3cbd3dbd", "lat": 38.90505616666667, "lon": -77.063774, "rental_uris": {"android": "https://dc.lft.to/lastmile_qr_scan", "ios": "https://dc.lft.to/lastmile_qr_scan"}, "is_disabled": 0, "fusion_lat": 0.0, "name": "c60255caed32ce608b9de8ee3cbd3dbd", "fusion_lon": 0.0}, {"is_reserved": 0, "type": "electric_scooter", "bike_id": "a6841b5c4f521967d597eb1554cbf2c8", "lat": 38.93566333333333, "lon": -77.03261833333333, "rental_uris": {"android": "https://dc.lft.to/lastmile_qr_scan", "ios": "https://dc.lft.to/lastmile_qr_scan"}, "is_disabled": 0, "fusion_lat": 0.0, "name": "a6841b5c4f521967d597eb1554cbf2c8", "fusion_lon": 0.0}, {"is_reserved": 0, "type": "electric_scooter", "bike_id": "3697812e0120ce4562bab9a7d6c8cdfd", "lat": 38.899281333333334, "lon": -77.03227133333333, "rental_uris": {"android": "https://dc.lft.to/lastmile_qr_scan", "ios": "https://dc.lft.to/lastmile_qr_scan"}, "is_disabled": 0, "fusion_lat": 0.0, "name": "3697812e0120ce4562bab9a7d6c8cdfd", "fusion_lon": 0.0}, {"is_reserved": 0, "type": "electric_scooter", "bike_id": "5b1ebb0c7f316d64b8127f5432d10359", "lat": 38.9258585, "lon": -77.012207, "rental_uris": {"android": "https://dc.lft.to/lastmile_qr_scan", "ios": "https://dc.lft.to/lastmile_qr_scan"}, "is_disabled": 0, "fusion_lat": 0.0, "name": "5b1ebb0c7f316d64b8127f5432d10359", "fusion_lon": 0.0}, {"is_reserved": 0, "type": "electric_scooter", "bike_id": "4cb386d08ea2d3f30609e5b25a6985ca", "lat": 38.943194, "lon": -77.075751, "rental_uris": {"android": "https://dc.lft.to/lastmile_qr_scan", "ios": "https://dc.lft.to/lastmile_qr_scan"}, "is_disabled": 0, "fusion_lat": 0.0, "name": "4cb386d08ea2d3f30609e5b25a6985ca", "fusion_lon": 0.0}, {"is_reserved": 0, "type": "electric_scooter", "bike_id": "5b6ff601c9501edb4b9ffdd25b132ec3", "lat": 38.9078385, "lon": -77.009541, "rental_uris": {"android": "https://dc.lft.to/lastmile_qr_scan", "ios": "https://dc.lft.to/lastmile_qr_scan"}, "is_disabled": 0, "fusion_lat": 0.0, "name": "5b6ff601c9501edb4b9ffdd25b132ec3", "fusion_lon": 0.0}, {"is_reserved": 0, "type": "electric_scooter", "bike_id": "d9bed9660fa67f5e2c14e4d27fd75652", "lat": 38.923424, "lon": -77.034995, "rental_uris": {"android": "https://dc.lft.to/lastmile_qr_scan", "ios": "https://dc.lft.to/lastmile_qr_scan"}, "is_disabled": 0, "fusion_lat": 0.0, "name": "d9bed9660fa67f5e2c14e4d27fd75652", "fusion_lon": 0.0}, {"is_reserved": 0, "type": "electric_scooter", "bike_id": "2255840d03039004eda3004b744e1838", "lat": 38.892833833333334, "lon": -77.019889, "rental_uris": {"android": "https://dc.lft.to/lastmile_qr_scan", "ios": "https://dc.lft.to/lastmile_qr_scan"}, "is_disabled": 0, "fusion_lat": 0.0, "name": "2255840d03039004eda3004b744e1838", "fusion_lon": 0.0}, {"is_reserved": 0, "type": "electric_scooter", "bike_id": "4b84b15a03359407270fe7860d4574b7", "lat": 38.91693766666667, "lon": -77.05298083333334, "rental_uris": {"android": "https://dc.lft.to/lastmile_qr_scan", "ios": "https://dc.lft.to/lastmile_qr_scan"}, "is_disabled": 0, "fusion_lat": 0.0, "name": "4b84b15a03359407270fe7860d4574b7", "fusion_lon": 0.0}, {"is_reserved": 0, "type": "electric_scooter", "bike_id": "31ef779294fc4746d3a592b4f9253d9a", "lat": 38.90383283333333, "lon": -77.027327, "rental_uris": {"android": "https://dc.lft.to/lastmile_qr_scan", "ios": "https://dc.lft.to/lastmile_qr_scan"}, "is_disabled": 0, "fusion_lat": 0.0, "name": "31ef779294fc4746d3a592b4f9253d9a", "fusion_lon": 0.0}, {"is_reserved": 0, "type": "electric_scooter", "bike_id": "a6b261ec87d966c05cb0411b8704d830", "lat": 38.951494833333335, "lon": -77.01871083333333, "rental_uris": {"android": "https://dc.lft.to/lastmile_qr_scan", "ios": "https://dc.lft.to/lastmile_qr_scan"}, "is_disabled": 0, "fusion_lat": 0.0, "name": "a6b261ec87d966c05cb0411b8704d830", "fusion_lon": 0.0}, {"is_reserved": 0, "type": "electric_scooter", "bike_id": "3e2a90eb73b2870dd1d7e5f3b5c3520a", "lat": 38.921407333333335, "lon": -77.03509616666666, "rental_uris": {"android": "https://dc.lft.to/lastmile_qr_scan", "ios": "https://dc.lft.to/lastmile_qr_scan"}, "is_disabled": 0, "fusion_lat": 0.0, "name": "3e2a90eb73b2870dd1d7e5f3b5c3520a", "fusion_lon": 0.0}, {"is_reserved": 0, "type": "electric_scooter", "bike_id": "5c51c7b63538e3953a681ff817fe0853", "lat": 38.9003385, "lon": -77.0176465, "rental_uris": {"android": "https://dc.lft.to/lastmile_qr_scan", "ios": "https://dc.lft.to/lastmile_qr_scan"}, "is_disabled": 0, "fusion_lat": 0.0, "name": "5c51c7b63538e3953a681ff817fe0853", "fusion_lon": 0.0}, {"is_reserved": 0, "type": "electric_scooter", "bike_id": "246d1513b141bdfb5a6ca9b36fb92dd4", "lat": 38.892227166666665, "lon": -77.04656516666667, "rental_uris": {"android": "https://dc.lft.to/lastmile_qr_scan", "ios": "https://dc.lft.to/lastmile_qr_scan"}, "is_disabled": 0, "fusion_lat": 0.0, "name": "246d1513b141bdfb5a6ca9b36fb92dd4", "fusion_lon": 0.0}, {"is_reserved": 0, "type": "electric_scooter", "bike_id": "1a299b453072b45777bb2082856ee85e", "lat": 38.899434, "lon": -76.98199866666667, "rental_uris": {"android": "https://dc.lft.to/lastmile_qr_scan", "ios": "https://dc.lft.to/lastmile_qr_scan"}, "is_disabled": 0, "fusion_lat": 0.0, "name": "1a299b453072b45777bb2082856ee85e", "fusion_lon": 0.0}, {"is_reserved": 0, "type": "electric_scooter", "bike_id": "91671add1a668fd1ee2713830ab200e8", "lat": 38.9609705, "lon": -77.03392316666667, "rental_uris": {"android": "https://dc.lft.to/lastmile_qr_scan", "ios": "https://dc.lft.to/lastmile_qr_scan"}, "is_disabled": 0, "fusion_lat": 0.0, "name": "91671add1a668fd1ee2713830ab200e8", "fusion_lon": 0.0}, {"is_reserved": 0, "type": "electric_scooter", "bike_id": "15b457f5d16811fae4da2fbb70d9bd94", "lat": 38.92686633333334, "lon": -77.02302216666666, "rental_uris": {"android": "https://dc.lft.to/lastmile_qr_scan", "ios": "https://dc.lft.to/lastmile_qr_scan"}, "is_disabled": 0, "fusion_lat": 0.0, "name": "15b457f5d16811fae4da2fbb70d9bd94", "fusion_lon": 0.0}, {"is_reserved": 0, "type": "electric_scooter", "bike_id": "8b98fb815e959281cb4fb7feb3724319", "lat": 38.8832605, "lon": -77.00958516666667, "rental_uris": {"android": "https://dc.lft.to/lastmile_qr_scan", "ios": "https://dc.lft.to/lastmile_qr_scan"}, "is_disabled": 0, "fusion_lat": 0.0, "name": "8b98fb815e959281cb4fb7feb3724319", "fusion_lon": 0.0}, {"is_reserved": 0, "type": "electric_scooter", "bike_id": "a8c67d42e3df781acd229f5a941cecbd", "lat": 38.89554283333333, "lon": -77.01093233333333, "rental_uris": {"android": "https://dc.lft.to/lastmile_qr_scan", "ios": "https://dc.lft.to/lastmile_qr_scan"}, "is_disabled": 0, "fusion_lat": 0.0, "name": "a8c67d42e3df781acd229f5a941cecbd", "fusion_lon": 0.0}, {"is_reserved": 0, "type": "electric_scooter", "bike_id": "8948394ab5f56d5506fb68a1e40d1154", "lat": 38.9251115, "lon": -77.023608, "rental_uris": {"android": "https://dc.lft.to/lastmile_qr_scan", "ios": "https://dc.lft.to/lastmile_qr_scan"}, "is_disabled": 0, "fusion_lat": 0.0, "name": "8948394ab5f56d5506fb68a1e40d1154", "fusion_lon": 0.0}, {"is_reserved": 0, "type": "electric_scooter", "bike_id": "30bfd95b9e029586349d9f7b52f680d1", "lat": 38.90961733333333, "lon": -77.03421766666666, "rental_uris": {"android": "https://dc.lft.to/lastmile_qr_scan", "ios": "https://dc.lft.to/lastmile_qr_scan"}, "is_disabled": 0, "fusion_lat": 0.0, "name": "30bfd95b9e029586349d9f7b52f680d1", "fusion_lon": 0.0}, {"is_reserved": 0, "type": "electric_scooter", "bike_id": "565537f505092b048a31812e329259a6", "lat": 38.9383935, "lon": -77.08543033333333, "rental_uris": {"android": "https://dc.lft.to/lastmile_qr_scan", "ios": "https://dc.lft.to/lastmile_qr_scan"}, "is_disabled": 0, "fusion_lat": 0.0, "name": "565537f505092b048a31812e329259a6", "fusion_lon": 0.0}, {"is_reserved": 0, "type": "electric_scooter", "bike_id": "452ca55599d2665c941680948f56c98d", "lat": 38.920863833333335, "lon": -77.0316465, "rental_uris": {"android": "https://dc.lft.to/lastmile_qr_scan", "ios": "https://dc.lft.to/lastmile_qr_scan"}, "is_disabled": 0, "fusion_lat": 0.0, "name": "452ca55599d2665c941680948f56c98d", "fusion_lon": 0.0}, {"is_reserved": 0, "type": "electric_scooter", "bike_id": "7986789ec5d6feca797d88ce99ee3e4b", "lat": 38.8922245, "lon": -77.03982733333333, "rental_uris": {"android": "https://dc.lft.to/lastmile_qr_scan", "ios": "https://dc.lft.to/lastmile_qr_scan"}, "is_disabled": 0, "fusion_lat": 0.0, "name": "7986789ec5d6feca797d88ce99ee3e4b", "fusion_lon": 0.0}, {"is_reserved": 0, "type": "electric_scooter", "bike_id": "c4fceda00c7213b59deb4432c6a0b0ee", "lat": 38.92482616666667, "lon": -77.02263016666667, "rental_uris": {"android": "https://dc.lft.to/lastmile_qr_scan", "ios": "https://dc.lft.to/lastmile_qr_scan"}, "is_disabled": 0, "fusion_lat": 0.0, "name": "c4fceda00c7213b59deb4432c6a0b0ee", "fusion_lon": 0.0}, {"is_reserved": 0, "type": "electric_scooter", "bike_id": "37c41956f5ddc7b84ebf2dd5a0e7e740", "lat": 38.892188, "lon": -77.03219033333333, "rental_uris": {"android": "https://dc.lft.to/lastmile_qr_scan", "ios": "https://dc.lft.to/lastmile_qr_scan"}, "is_disabled": 0, "fusion_lat": 0.0, "name": "37c41956f5ddc7b84ebf2dd5a0e7e740", "fusion_lon": 0.0}, {"is_reserved": 0, "type": "electric_scooter", "bike_id": "78b17d00058d7947e3a53621ecc162a9", "lat": 38.9038655, "lon": -77.03153283333333, "rental_uris": {"android": "https://dc.lft.to/lastmile_qr_scan", "ios": "https://dc.lft.to/lastmile_qr_scan"}, "is_disabled": 0, "fusion_lat": 0.0, "name": "78b17d00058d7947e3a53621ecc162a9", "fusion_lon": 0.0}, {"is_reserved": 0, "type": "electric_scooter", "bike_id": "cdc60cc2d49b46599d6f552732000180", "lat": 38.9036705, "lon": -77.05399716666666, "rental_uris": {"android": "https://dc.lft.to/lastmile_qr_scan", "ios": "https://dc.lft.to/lastmile_qr_scan"}, "is_disabled": 0, "fusion_lat": 0.0, "name": "cdc60cc2d49b46599d6f552732000180", "fusion_lon": 0.0}, {"is_reserved": 0, "type": "electric_bike", "bike_id": "99e6f5a4950f8549137146c7d61d5900", "lat": 38.78398116666666, "lon": -77.12082216666667, "rental_uris": {"android": "https://dc.lft.to/lastmile_qr_scan", "ios": "https://dc.lft.to/lastmile_qr_scan"}, "is_disabled": 0, "fusion_lat": 0.0, "name": "99e6f5a4950f8549137146c7d61d5900", "fusion_lon": 0.0}, {"is_reserved": 0, "type": "electric_scooter", "bike_id": "d450f2fd7e996655222cc0d228beea09", "lat": 38.91331016666667, "lon": -77.024418, "rental_uris": {"android": "https://dc.lft.to/lastmile_qr_scan", "ios": "https://dc.lft.to/lastmile_qr_scan"}, "is_disabled": 0, "fusion_lat": 0.0, "name": "d450f2fd7e996655222cc0d228beea09", "fusion_lon": 0.0}, {"is_reserved": 0, "type": "electric_scooter", "bike_id": "be9a4bba7e65194ab6b5c347d4f0442d", "lat": 38.90362183333333, "lon": -77.02571, "rental_uris": {"android": "https://dc.lft.to/lastmile_qr_scan", "ios": "https://dc.lft.to/lastmile_qr_scan"}, "is_disabled": 0, "fusion_lat": 0.0, "name": "be9a4bba7e65194ab6b5c347d4f0442d", "fusion_lon": 0.0}, {"is_reserved": 0, "type": "electric_scooter", "bike_id": "2270f57b2f9149609d14c5ac67bccc9c", "lat": 38.89267133333333, "lon": -76.93003483333334, "rental_uris": {"android": "https://dc.lft.to/lastmile_qr_scan", "ios": "https://dc.lft.to/lastmile_qr_scan"}, "is_disabled": 0, "fusion_lat": 0.0, "name": "2270f57b2f9149609d14c5ac67bccc9c", "fusion_lon": 0.0}, {"is_reserved": 0, "type": "electric_scooter", "bike_id": "7fc004d7af9047020e65ab1ef8d3725e", "lat": 38.90087583333333, "lon": -77.05735416666667, "rental_uris": {"android": "https://dc.lft.to/lastmile_qr_scan", "ios": "https://dc.lft.to/lastmile_qr_scan"}, "is_disabled": 0, "fusion_lat": 0.0, "name": "7fc004d7af9047020e65ab1ef8d3725e", "fusion_lon": 0.0}, {"is_reserved": 0, "type": "electric_scooter", "bike_id": "b33c0b01aabc627ff10a61faa026e76a", "lat": 38.883781, "lon": -76.93062066666667, "rental_uris": {"android": "https://dc.lft.to/lastmile_qr_scan", "ios": "https://dc.lft.to/lastmile_qr_scan"}, "is_disabled": 0, "fusion_lat": 0.0, "name": "b33c0b01aabc627ff10a61faa026e76a", "fusion_lon": 0.0}, {"is_reserved": 0, "type": "electric_scooter", "bike_id": "5fd3117863047a3c7396333f0dac15fe", "lat": 38.901098833333336, "lon": -77.03171383333333, "rental_uris": {"android": "https://dc.lft.to/lastmile_qr_scan", "ios": "https://dc.lft.to/lastmile_qr_scan"}, "is_disabled": 0, "fusion_lat": 0.0, "name": "5fd3117863047a3c7396333f0dac15fe", "fusion_lon": 0.0}, {"is_reserved": 0, "type": "electric_scooter", "bike_id": "b6252e9530dc157b05088f659eb69ce7", "lat": 38.89680283333333, "lon": -76.93531083333333, "rental_uris": {"android": "https://dc.lft.to/lastmile_qr_scan", "ios": "https://dc.lft.to/lastmile_qr_scan"}, "is_disabled": 0, "fusion_lat": 0.0, "name": "b6252e9530dc157b05088f659eb69ce7", "fusion_lon": 0.0}, {"is_reserved": 0, "type": "electric_scooter", "bike_id": "605b4ea19da992e56e4a48be2f74724c", "lat": 38.90024583333334, "lon": -77.00224483333334, "rental_uris": {"android": "https://dc.lft.to/lastmile_qr_scan", "ios": "https://dc.lft.to/lastmile_qr_scan"}, "is_disabled": 0, "fusion_lat": 0.0, "name": "605b4ea19da992e56e4a48be2f74724c", "fusion_lon": 0.0}, {"is_reserved": 0, "type": "electric_scooter", "bike_id": "c827577c4d0525ba44ac47ce07544541", "lat": 38.89616133333333, "lon": -76.976829, "rental_uris": {"android": "https://dc.lft.to/lastmile_qr_scan", "ios": "https://dc.lft.to/lastmile_qr_scan"}, "is_disabled": 0, "fusion_lat": 0.0, "name": "c827577c4d0525ba44ac47ce07544541", "fusion_lon": 0.0}, {"is_reserved": 0, "type": "electric_scooter", "bike_id": "03ccd2a14c1359fe3308539f21a8fa58", "lat": 38.8873605, "lon": -77.01527633333333, "rental_uris": {"android": "https://dc.lft.to/lastmile_qr_scan", "ios": "https://dc.lft.to/lastmile_qr_scan"}, "is_disabled": 0, "fusion_lat": 0.0, "name": "03ccd2a14c1359fe3308539f21a8fa58", "fusion_lon": 0.0}, {"is_reserved": 0, "type": "electric_scooter", "bike_id": "8152165f41f54f91ec17d5f514f6fbdb", "lat": 38.928150333333335, "lon": -77.02850866666667, "rental_uris": {"android": "https://dc.lft.to/lastmile_qr_scan", "ios": "https://dc.lft.to/lastmile_qr_scan"}, "is_disabled": 0, "fusion_lat": 0.0, "name": "8152165f41f54f91ec17d5f514f6fbdb", "fusion_lon": 0.0}, {"is_reserved": 0, "type": "electric_bike", "bike_id": "8d30a74a69927835ebf265ba336363c5", "lat": 38.959517166666664, "lon": -77.0198505, "rental_uris": {"android": "https://dc.lft.to/lastmile_qr_scan", "ios": "https://dc.lft.to/lastmile_qr_scan"}, "is_disabled": 0, "fusion_lat": 0.0, "name": "8d30a74a69927835ebf265ba336363c5", "fusion_lon": 0.0}, {"is_reserved": 0, "type": "electric_scooter", "bike_id": "beac9e12a580a831f09a145bbe7c64f7", "lat": 38.911114166666664, "lon": -77.04505933333333, "rental_uris": {"android": "https://dc.lft.to/lastmile_qr_scan", "ios": "https://dc.lft.to/lastmile_qr_scan"}, "is_disabled": 0, "fusion_lat": 0.0, "name": "beac9e12a580a831f09a145bbe7c64f7", "fusion_lon": 0.0}, {"is_reserved": 0, "type": "electric_scooter", "bike_id": "cf7404d63fa9c681fcd606c3731340f6", "lat": 38.9283175, "lon": -77.00601733333333, "rental_uris": {"android": "https://dc.lft.to/lastmile_qr_scan", "ios": "https://dc.lft.to/lastmile_qr_scan"}, "is_disabled": 0, "fusion_lat": 0.0, "name": "cf7404d63fa9c681fcd606c3731340f6", "fusion_lon": 0.0}, {"is_reserved": 0, "type": "electric_scooter", "bike_id": "035e35d929e7492ec6a8e84b9909b786", "lat": 38.90168, "lon": -77.02485116666666, "rental_uris": {"android": "https://dc.lft.to/lastmile_qr_scan", "ios": "https://dc.lft.to/lastmile_qr_scan"}, "is_disabled": 0, "fusion_lat": 0.0, "name": "035e35d929e7492ec6a8e84b9909b786", "fusion_lon": 0.0}, {"is_reserved": 0, "type": "electric_bike", "bike_id": "9fea68daccd6d55f6f224b0cf8a8bd62", "lat": 38.832948333333334, "lon": -77.08413516666667, "rental_uris": {"android": "https://dc.lft.to/lastmile_qr_scan", "ios": "https://dc.lft.to/lastmile_qr_scan"}, "is_disabled": 0, "fusion_lat": 0.0, "name": "9fea68daccd6d55f6f224b0cf8a8bd62", "fusion_lon": 0.0}, {"is_reserved": 0, "type": "electric_scooter", "bike_id": "245af7a08cd49a7cdc80fe6fb859751c", "lat": 38.93523533333333, "lon": -77.01930333333334, "rental_uris": {"android": "https://dc.lft.to/lastmile_qr_scan", "ios": "https://dc.lft.to/lastmile_qr_scan"}, "is_disabled": 0, "fusion_lat": 0.0, "name": "245af7a08cd49a7cdc80fe6fb859751c", "fusion_lon": 0.0}, {"is_reserved": 0, "type": "electric_scooter", "bike_id": "65cddcc2c086ddb1786af8310a177a96", "lat": 38.929236, "lon": -77.02012283333333, "rental_uris": {"android": "https://dc.lft.to/lastmile_qr_scan", "ios": "https://dc.lft.to/lastmile_qr_scan"}, "is_disabled": 0, "fusion_lat": 0.0, "name": "65cddcc2c086ddb1786af8310a177a96", "fusion_lon": 0.0}, {"is_reserved": 0, "type": "electric_scooter", "bike_id": "074ad5b4c8ae6fb400184bb41bf272ea", "lat": 38.884375, "lon": -76.95765983333334, "rental_uris": {"android": "https://dc.lft.to/lastmile_qr_scan", "ios": "https://dc.lft.to/lastmile_qr_scan"}, "is_disabled": 0, "fusion_lat": 0.0, "name": "074ad5b4c8ae6fb400184bb41bf272ea", "fusion_lon": 0.0}, {"is_reserved": 0, "type": "electric_scooter", "bike_id": "c29e03aecc7ba476c47d7d31e3b141e3", "lat": 38.92160716666667, "lon": -77.03382316666666, "rental_uris": {"android": "https://dc.lft.to/lastmile_qr_scan", "ios": "https://dc.lft.to/lastmile_qr_scan"}, "is_disabled": 0, "fusion_lat": 0.0, "name": "c29e03aecc7ba476c47d7d31e3b141e3", "fusion_lon": 0.0}, {"is_reserved": 0, "type": "electric_scooter", "bike_id": "e6886abd19823c7ae85e0bf05d1fb9d6", "lat": 38.89369766666667, "lon": -77.01971933333333, "rental_uris": {"android": "https://dc.lft.to/lastmile_qr_scan", "ios": "https://dc.lft.to/lastmile_qr_scan"}, "is_disabled": 0, "fusion_lat": 0.0, "name": "e6886abd19823c7ae85e0bf05d1fb9d6", "fusion_lon": 0.0}, {"is_reserved": 0, "type": "electric_scooter", "bike_id": "acdd07ac0bc925da2da88dd3c4d08c5e", "lat": 38.9002235, "lon": -77.040287, "rental_uris": {"android": "https://dc.lft.to/lastmile_qr_scan", "ios": "https://dc.lft.to/lastmile_qr_scan"}, "is_disabled": 0, "fusion_lat": 0.0, "name": "acdd07ac0bc925da2da88dd3c4d08c5e", "fusion_lon": 0.0}, {"is_reserved": 0, "type": "electric_scooter", "bike_id": "8d9b11b03f9b386cd9c290a3b5e5f0f9", "lat": 38.914139166666665, "lon": -77.02210233333334, "rental_uris": {"android": "https://dc.lft.to/lastmile_qr_scan", "ios": "https://dc.lft.to/lastmile_qr_scan"}, "is_disabled": 0, "fusion_lat": 0.0, "name": "8d9b11b03f9b386cd9c290a3b5e5f0f9", "fusion_lon": 0.0}, {"is_reserved": 0, "type": "electric_scooter", "bike_id": "53f62b05fa6349605cadfa212906e615", "lat": 38.93525616666667, "lon": -77.02848733333333, "rental_uris": {"android": "https://dc.lft.to/lastmile_qr_scan", "ios": "https://dc.lft.to/lastmile_qr_scan"}, "is_disabled": 0, "fusion_lat": 0.0, "name": "53f62b05fa6349605cadfa212906e615", "fusion_lon": 0.0}, {"is_reserved": 0, "type": "electric_scooter", "bike_id": "6847ecc0c4a97b8581df75dae665814e", "lat": 38.900470166666665, "lon": -76.99835966666667, "rental_uris": {"android": "https://dc.lft.to/lastmile_qr_scan", "ios": "https://dc.lft.to/lastmile_qr_scan"}, "is_disabled": 0, "fusion_lat": 0.0, "name": "6847ecc0c4a97b8581df75dae665814e", "fusion_lon": 0.0}, {"is_reserved": 0, "type": "electric_scooter", "bike_id": "87d13e2eed373fa3ec81153d7891071c", "lat": 38.91040183333333, "lon": -77.03691333333333, "rental_uris": {"android": "https://dc.lft.to/lastmile_qr_scan", "ios": "https://dc.lft.to/lastmile_qr_scan"}, "is_disabled": 0, "fusion_lat": 0.0, "name": "87d13e2eed373fa3ec81153d7891071c", "fusion_lon": 0.0}, {"is_reserved": 0, "type": "electric_scooter", "bike_id": "6e7fab4884608d9121e6fef4a08988ca", "lat": 38.90745616666667, "lon": -77.00763933333333, "rental_uris": {"android": "https://dc.lft.to/lastmile_qr_scan", "ios": "https://dc.lft.to/lastmile_qr_scan"}, "is_disabled": 0, "fusion_lat": 0.0, "name": "6e7fab4884608d9121e6fef4a08988ca", "fusion_lon": 0.0}, {"is_reserved": 0, "type": "electric_scooter", "bike_id": "3d0a6aed488c788b115c9e688dacd504", "lat": 38.89915933333333, "lon": -77.03378516666666, "rental_uris": {"android": "https://dc.lft.to/lastmile_qr_scan", "ios": "https://dc.lft.to/lastmile_qr_scan"}, "is_disabled": 0, "fusion_lat": 0.0, "name": "3d0a6aed488c788b115c9e688dacd504", "fusion_lon": 0.0}, {"is_reserved": 0, "type": "electric_scooter", "bike_id": "1d983cda0d2dea6f90d9b9e934368c38", "lat": 38.92347216666667, "lon": -77.03512033333334, "rental_uris": {"android": "https://dc.lft.to/lastmile_qr_scan", "ios": "https://dc.lft.to/lastmile_qr_scan"}, "is_disabled": 0, "fusion_lat": 0.0, "name": "1d983cda0d2dea6f90d9b9e934368c38", "fusion_lon": 0.0}, {"is_reserved": 0, "type": "electric_scooter", "bike_id": "4d7d511bb87bff90d3fc1a8d04318723", "lat": 38.9215185, "lon": -77.038679, "rental_uris": {"android": "https://dc.lft.to/lastmile_qr_scan", "ios": "https://dc.lft.to/lastmile_qr_scan"}, "is_disabled": 0, "fusion_lat": 0.0, "name": "4d7d511bb87bff90d3fc1a8d04318723", "fusion_lon": 0.0}, {"is_reserved": 0, "type": "electric_scooter", "bike_id": "a6b4e97d1925738f21b597a89c67617c", "lat": 38.917041166666664, "lon": -77.02407533333333, "rental_uris": {"android": "https://dc.lft.to/lastmile_qr_scan", "ios": "https://dc.lft.to/lastmile_qr_scan"}, "is_disabled": 0, "fusion_lat": 0.0, "name": "a6b4e97d1925738f21b597a89c67617c", "fusion_lon": 0.0}, {"is_reserved": 0, "type": "electric_scooter", "bike_id": "f4d2d348f4c2ef81ee0085b6f7c62dfc", "lat": 38.927456666666664, "lon": -77.05374866666666, "rental_uris": {"android": "https://dc.lft.to/lastmile_qr_scan", "ios": "https://dc.lft.to/lastmile_qr_scan"}, "is_disabled": 0, "fusion_lat": 0.0, "name": "f4d2d348f4c2ef81ee0085b6f7c62dfc", "fusion_lon": 0.0}, {"is_reserved": 0, "type": "electric_scooter", "bike_id": "baf3c09b90939b7e1eefd092fa2edeb6", "lat": 38.8749775, "lon": -77.00325666666667, "rental_uris": {"android": "https://dc.lft.to/lastmile_qr_scan", "ios": "https://dc.lft.to/lastmile_qr_scan"}, "is_disabled": 0, "fusion_lat": 0.0, "name": "baf3c09b90939b7e1eefd092fa2edeb6", "fusion_lon": 0.0}, {"is_reserved": 0, "type": "electric_scooter", "bike_id": "8bec32a07766700a77a95e7e4f892818", "lat": 38.884391666666666, "lon": -77.02530933333334, "rental_uris": {"android": "https://dc.lft.to/lastmile_qr_scan", "ios": "https://dc.lft.to/lastmile_qr_scan"}, "is_disabled": 0, "fusion_lat": 0.0, "name": "8bec32a07766700a77a95e7e4f892818", "fusion_lon": 0.0}, {"is_reserved": 0, "type": "electric_scooter", "bike_id": "46f3a640fae5e78282ddc50e64b00ab7", "lat": 38.902764166666664, "lon": -77.03626416666667, "rental_uris": {"android": "https://dc.lft.to/lastmile_qr_scan", "ios": "https://dc.lft.to/lastmile_qr_scan"}, "is_disabled": 0, "fusion_lat": 0.0, "name": "46f3a640fae5e78282ddc50e64b00ab7", "fusion_lon": 0.0}, {"is_reserved": 0, "type": "electric_scooter", "bike_id": "672f3ba6e0bc155f5bde31b26ca5d0da", "lat": 38.885296833333335, "lon": -77.02171666666666, "rental_uris": {"android": "https://dc.lft.to/lastmile_qr_scan", "ios": "https://dc.lft.to/lastmile_qr_scan"}, "is_disabled": 0, "fusion_lat": 0.0, "name": "672f3ba6e0bc155f5bde31b26ca5d0da", "fusion_lon": 0.0}, {"is_reserved": 0, "type": "electric_scooter", "bike_id": "04a86432dcf7000412550ff2c9ac222f", "lat": 38.925828333333335, "lon": -77.029432, "rental_uris": {"android": "https://dc.lft.to/lastmile_qr_scan", "ios": "https://dc.lft.to/lastmile_qr_scan"}, "is_disabled": 0, "fusion_lat": 0.0, "name": "04a86432dcf7000412550ff2c9ac222f", "fusion_lon": 0.0}, {"is_reserved": 0, "type": "electric_scooter", "bike_id": "d05da68ed54bb0d9bb4d3f43bbfc23c2", "lat": 38.892296333333334, "lon": -77.03207616666667, "rental_uris": {"android": "https://dc.lft.to/lastmile_qr_scan", "ios": "https://dc.lft.to/lastmile_qr_scan"}, "is_disabled": 0, "fusion_lat": 0.0, "name": "d05da68ed54bb0d9bb4d3f43bbfc23c2", "fusion_lon": 0.0}, {"is_reserved": 0, "type": "electric_scooter", "bike_id": "869455771ee49178f1de43451ca57769", "lat": 38.916216, "lon": -77.00764233333334, "rental_uris": {"android": "https://dc.lft.to/lastmile_qr_scan", "ios": "https://dc.lft.to/lastmile_qr_scan"}, "is_disabled": 0, "fusion_lat": 0.0, "name": "869455771ee49178f1de43451ca57769", "fusion_lon": 0.0}, {"is_reserved": 0, "type": "electric_scooter", "bike_id": "b02f37c65fd09048423c33c6d39672ee", "lat": 38.893891833333335, "lon": -77.0225495, "rental_uris": {"android": "https://dc.lft.to/lastmile_qr_scan", "ios": "https://dc.lft.to/lastmile_qr_scan"}, "is_disabled": 0, "fusion_lat": 0.0, "name": "b02f37c65fd09048423c33c6d39672ee", "fusion_lon": 0.0}, {"is_reserved": 0, "type": "electric_scooter", "bike_id": "f247196a9f9543fc6e0be73941be7f65", "lat": 38.91659666666666, "lon": -77.0384975, "rental_uris": {"android": "https://dc.lft.to/lastmile_qr_scan", "ios": "https://dc.lft.to/lastmile_qr_scan"}, "is_disabled": 0, "fusion_lat": 0.0, "name": "f247196a9f9543fc6e0be73941be7f65", "fusion_lon": 0.0}, {"is_reserved": 0, "type": "electric_scooter", "bike_id": "5b2ce33ce345c50454bd78beda34d451", "lat": 38.922693, "lon": -77.03667316666667, "rental_uris": {"android": "https://dc.lft.to/lastmile_qr_scan", "ios": "https://dc.lft.to/lastmile_qr_scan"}, "is_disabled": 0, "fusion_lat": 0.0, "name": "5b2ce33ce345c50454bd78beda34d451", "fusion_lon": 0.0}, {"is_reserved": 0, "type": "electric_scooter", "bike_id": "a49113e3f08262daa4a4552c0c6ca3bc", "lat": 38.90026916666667, "lon": -76.98858566666667, "rental_uris": {"android": "https://dc.lft.to/lastmile_qr_scan", "ios": "https://dc.lft.to/lastmile_qr_scan"}, "is_disabled": 0, "fusion_lat": 0.0, "name": "a49113e3f08262daa4a4552c0c6ca3bc", "fusion_lon": 0.0}, {"is_reserved": 0, "type": "electric_scooter", "bike_id": "a56daffc6ba866b14ec1da025496de64", "lat": 38.89477133333333, "lon": -77.049992, "rental_uris": {"android": "https://dc.lft.to/lastmile_qr_scan", "ios": "https://dc.lft.to/lastmile_qr_scan"}, "is_disabled": 0, "fusion_lat": 0.0, "name": "a56daffc6ba866b14ec1da025496de64", "fusion_lon": 0.0}, {"is_reserved": 0, "type": "electric_bike", "bike_id": "bfde829eb3eaf6690b5e3eea1e7f5b2e", "lat": 38.923425, "lon": -77.03648133333333, "rental_uris": {"android": "https://dc.lft.to/lastmile_qr_scan", "ios": "https://dc.lft.to/lastmile_qr_scan"}, "is_disabled": 0, "fusion_lat": 0.0, "name": "bfde829eb3eaf6690b5e3eea1e7f5b2e", "fusion_lon": 0.0}, {"is_reserved": 0, "type": "electric_scooter", "bike_id": "72ad5929cbcdc89821fb42b418236aa9", "lat": 38.90067533333333, "lon": -77.04431583333333, "rental_uris": {"android": "https://dc.lft.to/lastmile_qr_scan", "ios": "https://dc.lft.to/lastmile_qr_scan"}, "is_disabled": 0, "fusion_lat": 0.0, "name": "72ad5929cbcdc89821fb42b418236aa9", "fusion_lon": 0.0}, {"is_reserved": 0, "type": "electric_scooter", "bike_id": "20066d5a562a66b2bb5072c17c565781", "lat": 38.91001416666667, "lon": -77.04009616666667, "rental_uris": {"android": "https://dc.lft.to/lastmile_qr_scan", "ios": "https://dc.lft.to/lastmile_qr_scan"}, "is_disabled": 0, "fusion_lat": 0.0, "name": "20066d5a562a66b2bb5072c17c565781", "fusion_lon": 0.0}, {"is_reserved": 0, "type": "electric_bike", "bike_id": "ff64672bc28d4738323b177850d1ab22", "lat": 38.898015, "lon": -77.0295055, "rental_uris": {"android": "https://dc.lft.to/lastmile_qr_scan", "ios": "https://dc.lft.to/lastmile_qr_scan"}, "is_disabled": 0, "fusion_lat": 0.0, "name": "ff64672bc28d4738323b177850d1ab22", "fusion_lon": 0.0}, {"is_reserved": 0, "type": "electric_scooter", "bike_id": "44dc81c6c8d493565744a07153d4d094", "lat": 38.89755916666667, "lon": -77.00197216666666, "rental_uris": {"android": "https://dc.lft.to/lastmile_qr_scan", "ios": "https://dc.lft.to/lastmile_qr_scan"}, "is_disabled": 0, "fusion_lat": 0.0, "name": "44dc81c6c8d493565744a07153d4d094", "fusion_lon": 0.0}, {"is_reserved": 0, "type": "electric_scooter", "bike_id": "ed66c75a8a3c7043ee7733949b734ffb", "lat": 38.880643166666665, "lon": -77.025509, "rental_uris": {"android": "https://dc.lft.to/lastmile_qr_scan", "ios": "https://dc.lft.to/lastmile_qr_scan"}, "is_disabled": 0, "fusion_lat": 0.0, "name": "ed66c75a8a3c7043ee7733949b734ffb", "fusion_lon": 0.0}, {"is_reserved": 0, "type": "electric_scooter", "bike_id": "cc23c5e998971e460aa721b880bdb190", "lat": 38.894730833333334, "lon": -76.99577233333333, "rental_uris": {"android": "https://dc.lft.to/lastmile_qr_scan", "ios": "https://dc.lft.to/lastmile_qr_scan"}, "is_disabled": 0, "fusion_lat": 0.0, "name": "cc23c5e998971e460aa721b880bdb190", "fusion_lon": 0.0}, {"is_reserved": 0, "type": "electric_scooter", "bike_id": "a32829526043d92dd71c2be368ca1c26", "lat": 38.90354766666667, "lon": -77.02802766666667, "rental_uris": {"android": "https://dc.lft.to/lastmile_qr_scan", "ios": "https://dc.lft.to/lastmile_qr_scan"}, "is_disabled": 0, "fusion_lat": 0.0, "name": "a32829526043d92dd71c2be368ca1c26", "fusion_lon": 0.0}, {"is_reserved": 0, "type": "electric_scooter", "bike_id": "62b8033c039e71eb64d526e6ddf96325", "lat": 38.90132666666667, "lon": -77.03854166666666, "rental_uris": {"android": "https://dc.lft.to/lastmile_qr_scan", "ios": "https://dc.lft.to/lastmile_qr_scan"}, "is_disabled": 0, "fusion_lat": 0.0, "name": "62b8033c039e71eb64d526e6ddf96325", "fusion_lon": 0.0}, {"is_reserved": 0, "type": "electric_scooter", "bike_id": "7a67c37d832334273cedb2d32bd372ce", "lat": 38.8984045, "lon": -77.028196, "rental_uris": {"android": "https://dc.lft.to/lastmile_qr_scan", "ios": "https://dc.lft.to/lastmile_qr_scan"}, "is_disabled": 0, "fusion_lat": 0.0, "name": "7a67c37d832334273cedb2d32bd372ce", "fusion_lon": 0.0}, {"is_reserved": 0, "type": "electric_bike", "bike_id": "04ecb8a2640763f7630ffde9cc8aa815", "lat": 38.89893433333334, "lon": -76.933708, "rental_uris": {"android": "https://dc.lft.to/lastmile_qr_scan", "ios": "https://dc.lft.to/lastmile_qr_scan"}, "is_disabled": 0, "fusion_lat": 0.0, "name": "04ecb8a2640763f7630ffde9cc8aa815", "fusion_lon": 0.0}, {"is_reserved": 0, "type": "electric_scooter", "bike_id": "fef01603c34b3ae4eac2d4f97e20e451", "lat": 38.904153666666666, "lon": -77.02659133333333, "rental_uris": {"android": "https://dc.lft.to/lastmile_qr_scan", "ios": "https://dc.lft.to/lastmile_qr_scan"}, "is_disabled": 0, "fusion_lat": 0.0, "name": "fef01603c34b3ae4eac2d4f97e20e451", "fusion_lon": 0.0}, {"is_reserved": 0, "type": "electric_bike", "bike_id": "af7af8f0922c9ce6403602bdab47194a", "lat": 38.832373, "lon": -76.9461675, "rental_uris": {"android": "https://dc.lft.to/lastmile_qr_scan", "ios": "https://dc.lft.to/lastmile_qr_scan"}, "is_disabled": 0, "fusion_lat": 0.0, "name": "af7af8f0922c9ce6403602bdab47194a", "fusion_lon": 0.0}, {"is_reserved": 0, "type": "electric_scooter", "bike_id": "d25bcde2f650716c15f58105f638adc4", "lat": 38.90719566666667, "lon": -77.00416116666666, "rental_uris": {"android": "https://dc.lft.to/lastmile_qr_scan", "ios": "https://dc.lft.to/lastmile_qr_scan"}, "is_disabled": 0, "fusion_lat": 0.0, "name": "d25bcde2f650716c15f58105f638adc4", "fusion_lon": 0.0},