{"data": {"bikes": [{"is_disabled": 0, "fusion_lon": 0.0, "fusion_lat": 0.0, "lat": 38.91173083333334, "type": "electric_scooter", "lon": -77.02697233333333, "bike_id": "9b2c38519ea6326dec612fe3f908d57e", "rental_uris": {"android": "https://dc.lft.to/lastmile_qr_scan", "ios": "https://dc.lft.to/lastmile_qr_scan"}, "name": "9b2c38519ea6326dec612fe3f908d57e", "is_reserved": 0}, {"is_disabled": 0, "fusion_lon": 0.0, "fusion_lat": 0.0, "lat": 38.90373866666667, "type": "electric_scooter", "lon": -76.98966383333334, "bike_id": "6ffdbff0c661c6e3fd56e19c3aecccfb", "rental_uris": {"android": "https://dc.lft.to/lastmile_qr_scan", "ios": "https://dc.lft.to/lastmile_qr_scan"}, "name": "6ffdbff0c661c6e3fd56e19c3aecccfb", "is_reserved": 0}, {"is_disabled": 0, "fusion_lon": 0.0, "fusion_lat": 0.0, "lat": 38.90664316666667, "type": "electric_scooter", "lon": -77.00911383333333, "bike_id": "31efe5ef78c0a5b978d9c3610204c87f", "rental_uris": {"android": "https://dc.lft.to/lastmile_qr_scan", "ios": "https://dc.lft.to/lastmile_qr_scan"}, "name": "31efe5ef78c0a5b978d9c3610204c87f", "is_reserved": 0}, {"is_disabled": 0, "fusion_lon": 0.0, "fusion_lat": 0.0, "lat": 38.90870283333334, "type": "electric_scooter", "lon": -77.02691583333333, "bike_id": "20fb154a9d3abfd2de33d3c354241333", "rental_uris": {"android": "https://dc.lft.to/lastmile_qr_scan", "ios": "https://dc.lft.to/lastmile_qr_scan"}, "name": "20fb154a9d3abfd2de33d3c354241333", "is_reserved": 0}, {"is_disabled": 0, "fusion_lon": 0.0, "fusion_lat": 0.0, "lat": 38.923619333333335, "type": "electric_bike", "lon": -77.0513115, "bike_id": "ad3fc70f24e3d092a9c0bebdab8f79e1", "rental_uris": {"android": "https://dc.lft.to/lastmile_qr_scan", "ios": "https://dc.lft.to/lastmile_qr_scan"}, "name": "ad3fc70f24e3d092a9c0bebdab8f79e1", "is_reserved": 0}, {"is_disabled": 0, "fusion_lon": 0.0, "fusion_lat": 0.0, "lat": 38.941997666666666, "type": "electric_scooter", "lon": -77.01829533333333, "bike_id": "8e8e79f7d6837e74126a2679093b1b1f", "rental_uris": {"android": "https://dc.lft.to/lastmile_qr_scan", "ios": "https://dc.lft.to/lastmile_qr_scan"}, "name": "8e8e79f7d6837e74126a2679093b1b1f", "is_reserved": 0}, {"is_disabled": 0, "fusion_lon": 0.0, "fusion_lat": 0.0, "lat": 38.89501283333333, "type": "electric_scooter", "lon": -76.94875116666667, "bike_id": "dc19fc0c07f674396f9828731cd9613f", "rental_uris": {"android": "https://dc.lft.to/lastmile_qr_scan", "ios": "https://dc.lft.to/lastmile_qr_scan"}, "name": "dc19fc0c07f674396f9828731cd9613f", "is_reserved": 0}, {"is_disabled": 0, "fusion_lon": 0.0, "fusion_lat": 0.0, "lat": 38.90268366666667, "type": "electric_scooter", "lon": -77.02008, "bike_id": "61b8d3ce016f50316fb8a108b3103ee9", "rental_uris": {"android": "https://dc.lft.to/lastmile_qr_scan", "ios": "https://dc.lft.to/lastmile_qr_scan"}, "name": "61b8d3ce016f50316fb8a108b3103ee9", "is_reserved": 0}, {"is_disabled": 0, "fusion_lon": 0.0, "fusion_lat": 0.0, "lat": 38.9146825, "type": "electric_scooter", "lon": -77.01984233333333, "bike_id": "62ff17965c8720a2f6bcf3476a7b1e59", "rental_uris": {"android": "https://dc.lft.to/lastmile_qr_scan", "ios": "https://dc.lft.to/lastmile_qr_scan"}, "name": "62ff17965c8720a2f6bcf3476a7b1e59", "is_reserved": 0}, {"is_disabled": 0, "fusion_lon": 0.0, "fusion_lat": 0.0, "lat": 38.92307516666666, "type": "electric_scooter", "lon": -77.03918733333333, "bike_id": "1acdabbc7b94937d5cbd0784599fec84", "rental_uris": {"android": "https://dc.lft.to/lastmile_qr_scan", "ios": "https://dc.lft.to/lastmile_qr_scan"}, "name": "1acdabbc7b94937d5cbd0784599fec84", "is_reserved": 0}, {"is_disabled": 0, "fusion_lon": 0.0, "fusion_lat": 0.0, "lat": 38.93063433333333, "type": "electric_scooter", "lon": -77.02981916666667, "bike_id": "e377d1c19818e2a601388de959801fb1", "rental_uris": {"android": "https://dc.lft.to/lastmile_qr_scan", "ios": "https://dc.lft.to/lastmile_qr_scan"}, "name": "e377d1c19818e2a601388de959801fb1", "is_reserved": 0}, {"is_disabled": 0, "fusion_lon": 0.0, "fusion_lat": 0.0, "lat": 38.911911833333335, "type": "electric_scooter", "lon": -77.03635833333334, "bike_id": "d875e0b207337dc2674caa9c74fb0341", "rental_uris": {"android": "https://dc.lft.to/lastmile_qr_scan", "ios": "https://dc.lft.to/lastmile_qr_scan"}, "name": "d875e0b207337dc2674caa9c74fb0341", "is_reserved": 0}, {"is_disabled": 0, "fusion_lon": 0.0, "fusion_lat": 0.0, "lat": 38.894732833333336, "type": "electric_scooter", "lon": -76.995178, "bike_id": "3bd7d603ddf6421893de47223f932f7b", "rental_uris": {"android": "https://dc.lft.to/lastmile_qr_scan", "ios": "https://dc.lft.to/lastmile_qr_scan"}, "name": "3bd7d603ddf6421893de47223f932f7b", "is_reserved": 0}, {"is_disabled": 0, "fusion_lon": 0.0, "fusion_lat": 0.0, "lat": 38.921313833333336, "type": "electric_scooter", "lon": -77.02520116666666, "bike_id": "0ec128cbbf807aacf5bc494cd7a12e8a", "rental_uris": {"android": "https://dc.lft.to/lastmile_qr_scan", "ios": "https://dc.lft.to/lastmile_qr_scan"}, "name": "0ec128cbbf807aacf5bc494cd7a12e8a", "is_reserved": 0}, {"is_disabled": 0, "fusion_lon": 0.0, "fusion_lat": 0.0, "lat": 38.87933483333333, "type": "electric_scooter", "lon": -77.00999716666666, "bike_id": "2a6b78a2c71aa49163a5ac69cd54a331", "rental_uris": {"android": "https://dc.lft.to/lastmile_qr_scan", "ios": "https://dc.lft.to/lastmile_qr_scan"}, "name": "2a6b78a2c71aa49163a5ac69cd54a331", "is_reserved": 0}, {"is_disabled": 0, "fusion_lon": 0.0, "fusion_lat": 0.0, "lat": 38.95608383333333, "type": "electric_scooter", "lon": -77.02760533333333, "bike_id": "7ac0e40ac27602bbf0e2a76f4e35044c", "rental_uris": {"android": "https://dc.lft.to/lastmile_qr_scan", "ios": "https://dc.lft.to/lastmile_qr_scan"}, "name": "7ac0e40ac27602bbf0e2a76f4e35044c", "is_reserved": 0}, {"is_disabled": 0, "fusion_lon": 0.0, "fusion_lat": 0.0, "lat": 38.96215683333333, "type": "electric_scooter", "lon": -77.028057, "bike_id": "41178d1024a82abf5fb02b725c6be806", "rental_uris": {"android": "https://dc.lft.to/lastmile_qr_scan", "ios": "https://dc.lft.to/lastmile_qr_scan"}, "name": "41178d1024a82abf5fb02b725c6be806", "is_reserved": 0}, {"is_disabled": 0, "fusion_lon": 0.0, "fusion_lat": 0.0, "lat": 38.94230183333333, "type": "electric_scooter", "lon": -77.02161416666667, "bike_id": "a1d030fac594dd0a2b29965cf48daf47", "rental_uris": {"android": "https://dc.lft.to/lastmile_qr_scan", "ios": "https://dc.lft.to/lastmile_qr_scan"}, "name": "a1d030fac594dd0a2b29965cf48daf47", "is_reserved": 0}, {"is_disabled": 0, "fusion_lon": 0.0, "fusion_lat": 0.0, "lat": 38.8581045, "type": "electric_scooter", "lon": -76.98962283333333, "bike_id": "36c3994cc73803fe16b033af13e780ea", "rental_uris": {"android": "https://dc.lft.to/lastmile_qr_scan", "ios": "https://dc.lft.to/lastmile_qr_scan"}, "name": "36c3994cc73803fe16b033af13e780ea", "is_reserved": 0}, {"is_disabled": 0, "fusion_lon": 0.0, "fusion_lat": 0.0, "lat": 38.93752416666667, "type": "electric_scooter", "lon": -77.024815, "bike_id": "25eae3b13ffd3fa78890a583d4ccee59", "rental_uris": {"android": "https://dc.lft.to/lastmile_qr_scan", "ios": "https://dc.lft.to/lastmile_qr_scan"}, "name": "25eae3b13ffd3fa78890a583d4ccee59", "is_reserved": 0}, {"is_disabled": 0, "fusion_lon": 0.0, "fusion_lat": 0.0, "lat": 38.89323783333333, "type": "electric_scooter", "lon": -77.0211695, "bike_id": "375bfc4f685f35cbce246baaaa2e700d", "rental_uris": {"android": "https://dc.lft.to/lastmile_qr_scan", "ios": "https://dc.lft.to/lastmile_qr_scan"}, "name": "375bfc4f685f35cbce246baaaa2e700d", "is_reserved": 0}, {"is_disabled": 0, "fusion_lon": 0.0, "fusion_lat": 0.0, "lat": 38.86654683333333, "type": "electric_scooter", "lon": -76.98888483333333, "bike_id": "16ff94f58c0cb9374d5f88b798040e94", "rental_uris": {"android": "https://dc.lft.to/lastmile_qr_scan", "ios": "https://dc.lft.to/lastmile_qr_scan"}, "name": "16ff94f58c0cb9374d5f88b798040e94", "is_reserved": 0}, {"is_disabled": 0, "fusion_lon": 0.0, "fusion_lat": 0.0, "lat": 38.94283016666667, "type": "electric_scooter", "lon": -77.03630916666667, "bike_id": "1d6a1d4133977790be83b4a7c0fec62a", "rental_uris": {"android": "https://dc.lft.to/lastmile_qr_scan", "ios": "https://dc.lft.to/lastmile_qr_scan"}, "name": "1d6a1d4133977790be83b4a7c0fec62a", "is_reserved": 0}, {"is_disabled": 0, "fusion_lon": 0.0, "fusion_lat": 0.0, "lat": 38.8652475, "type": "electric_scooter", "lon": -76.97342033333334, "bike_id": "d2c2945e80a46980d7037ccd4484db9b", "rental_uris": {"android": "https://dc.lft.to/lastmile_qr_scan", "ios": "https://dc.lft.to/lastmile_qr_scan"}, "name": "d2c2945e80a46980d7037ccd4484db9b", "is_reserved": 0}, {"is_disabled": 0, "fusion_lon": 0.0, "fusion_lat": 0.0, "lat": 38.949853166666664, "type": "electric_scooter", "lon": -77.02705583333334, "bike_id": "fd80fa76f678ad68a3dfbae62cdcc6ab", "rental_uris": {"android": "https://dc.lft.to/lastmile_qr_scan", "ios": "https://dc.lft.to/lastmile_qr_scan"}, "name": "fd80fa76f678ad68a3dfbae62cdcc6ab", "is_reserved": 0}, {"is_disabled": 0, "fusion_lon": 0.0, "fusion_lat": 0.0, "lat": 38.90514666666667, "type": "electric_scooter", "lon": -77.02515633333333, "bike_id": "f91e500ceceae8c809cca062facfe99a", "rental_uris": {"android": "https://dc.lft.to/lastmile_qr_scan", "ios": "https://dc.lft.to/lastmile_qr_scan"}, "name": "f91e500ceceae8c809cca062facfe99a", "is_reserved": 0}, {"is_disabled": 0, "fusion_lon": 0.0, "fusion_lat": 0.0, "lat": 38.90929933333334, "type": "electric_scooter", "lon": -77.023183, "bike_id": "008406b95aed327145e32c173c4adca5", "rental_uris": {"android": "https://dc.lft.to/lastmile_qr_scan", "ios": "https://dc.lft.to/lastmile_qr_scan"}, "name": "008406b95aed327145e32c173c4adca5", "is_reserved": 0}, {"is_disabled": 0, "fusion_lon": 0.0, "fusion_lat": 0.0, "lat": 38.900004333333335, "type": "electric_scooter", "lon": -77.02963066666666, "bike_id": "37e23d9aabdd0a657ab8b6ca6df07adc", "rental_uris": {"android": "https://dc.lft.to/lastmile_qr_scan", "ios": "https://dc.lft.to/lastmile_qr_scan"}, "name": "37e23d9aabdd0a657ab8b6ca6df07adc", "is_reserved": 0}, {"is_disabled": 0, "fusion_lon": 0.0, "fusion_lat": 0.0, "lat": 38.984998166666664, "type": "electric_bike", "lon": -76.98201533333334, "bike_id": "8182e64840b4621faef7b0fecb4a1a89", "rental_uris": {"android": "https://dc.lft.to/lastmile_qr_scan", "ios": "https://dc.lft.to/lastmile_qr_scan"}, "name": "8182e64840b4621faef7b0fecb4a1a89", "is_reserved": 0}, {"is_disabled": 0, "fusion_lon": 0.0, "fusion_lat": 0.0, "lat": 38.905401499999996, "type": "electric_scooter", "lon": -77.05708933333334, "bike_id": "1b0dc57c80bc3b4fe92b6cbcfc256f8b", "rental_uris": {"android": "https://dc.lft.to/lastmile_qr_scan", "ios": "https://dc.lft.to/lastmile_qr_scan"}, "name": "1b0dc57c80bc3b4fe92b6cbcfc256f8b", "is_reserved": 0}, {"is_disabled": 0, "fusion_lon": 0.0, "fusion_lat": 0.0, "lat": 38.93250066666667, "type": "electric_scooter", "lon": -77.03275316666667, "bike_id": "966bc601ece2cd6e8430262e11152bad", "rental_uris": {"android": "https://dc.lft.to/lastmile_qr_scan", "ios": "https://dc.lft.to/lastmile_qr_scan"}, "name": "966bc601ece2cd6e8430262e11152bad", "is_reserved": 0}, {"is_disabled": 0, "fusion_lon": 0.0, "fusion_lat": 0.0, "lat": 38.902577666666666, "type": "electric_scooter", "lon": -77.01766416666666, "bike_id": "14eeea450665b312a16d99462c6e74ac", "rental_uris": {"android": "https://dc.lft.to/lastmile_qr_scan", "ios": "https://dc.lft.to/lastmile_qr_scan"}, "name": "14eeea450665b312a16d99462c6e74ac", "is_reserved": 0}, {"is_disabled": 0, "fusion_lon": 0.0, "fusion_lat": 0.0, "lat": 38.919528166666666, "type": "electric_scooter", "lon": -77.00079116666667, "bike_id": "92fad5414df2c8f757e721ce9a1bf35f", "rental_uris": {"android": "https://dc.lft.to/lastmile_qr_scan", "ios": "https://dc.lft.to/lastmile_qr_scan"}, "name": "92fad5414df2c8f757e721ce9a1bf35f", "is_reserved": 0}, {"is_disabled": 0, "fusion_lon": 0.0, "fusion_lat": 0.0, "lat": 38.91628033333333, "type": "electric_scooter", "lon": -77.03184216666666, "bike_id": "498155a851926c133441091e764b5274", "rental_uris": {"android": "https://dc.lft.to/lastmile_qr_scan", "ios": "https://dc.lft.to/lastmile_qr_scan"}, "name": "498155a851926c133441091e764b5274", "is_reserved": 0}, {"is_disabled": 0, "fusion_lon": 0.0, "fusion_lat": 0.0, "lat": 38.8801975, "type": "electric_bike", "lon": -76.960767, "bike_id": "5865679326bf2ac2cb00a0dbb9b49824", "rental_uris": {"android": "https://dc.lft.to/lastmile_qr_scan", "ios": "https://dc.lft.to/lastmile_qr_scan"}, "name": "5865679326bf2ac2cb00a0dbb9b49824", "is_reserved": 0}, {"is_disabled": 0, "fusion_lon": 0.0, "fusion_lat": 0.0, "lat": 38.90872533333334, "type": "electric_scooter", "lon": -77.02691333333334, "bike_id": "2e25dfa336cce3172651cb5ad195ab67", "rental_uris": {"android": "https://dc.lft.to/lastmile_qr_scan", "ios": "https://dc.lft.to/lastmile_qr_scan"}, "name": "2e25dfa336cce3172651cb5ad195ab67", "is_reserved": 0}, {"is_disabled": 0, "fusion_lon": 0.0, "fusion_lat": 0.0, "lat": 38.917107, "type": "electric_scooter", "lon": -77.03471216666667, "bike_id": "5daaff77c4a55d6f4c967e9c3a2135e1", "rental_uris": {"android": "https://dc.lft.to/lastmile_qr_scan", "ios": "https://dc.lft.to/lastmile_qr_scan"}, "name": "5daaff77c4a55d6f4c967e9c3a2135e1", "is_reserved": 0}, {"is_disabled": 0, "fusion_lon": 0.0, "fusion_lat": 0.0, "lat": 38.91952883333333, "type": "electric_scooter", "lon": -77.01654116666667, "bike_id": "ed0560755c79ca485132014ab90cc04d", "rental_uris": {"android": "https://dc.lft.to/lastmile_qr_scan", "ios": "https://dc.lft.to/lastmile_qr_scan"}, "name": "ed0560755c79ca485132014ab90cc04d", "is_reserved": 0}, {"is_disabled": 0, "fusion_lon": 0.0, "fusion_lat": 0.0, "lat": 38.900481166666665, "type": "electric_scooter", "lon": -77.01289916666667, "bike_id": "66142766d5b1f824aa7be12c7e5b8063", "rental_uris": {"android": "https://dc.lft.to/lastmile_qr_scan", "ios": "https://dc.lft.to/lastmile_qr_scan"}, "name": "66142766d5b1f824aa7be12c7e5b8063", "is_reserved": 0}, {"is_disabled": 0, "fusion_lon": 0.0, "fusion_lat": 0.0, "lat": 38.93755516666667, "type": "electric_scooter", "lon": -77.02499466666667, "bike_id": "21f5a6a498bfad23b2569c5b08ab82cf", "rental_uris": {"android": "https://dc.lft.to/lastmile_qr_scan", "ios": "https://dc.lft.to/lastmile_qr_scan"}, "name": "21f5a6a498bfad23b2569c5b08ab82cf", "is_reserved": 0}, {"is_disabled": 0, "fusion_lon": 0.0, "fusion_lat": 0.0, "lat": 38.89366666666667, "type": "electric_scooter", "lon": -76.94022333333334, "bike_id": "aedad49eece9ff28065973f063e56786", "rental_uris": {"android": "https://dc.lft.to/lastmile_qr_scan", "ios": "https://dc.lft.to/lastmile_qr_scan"}, "name": "aedad49eece9ff28065973f063e56786", "is_reserved": 0}, {"is_disabled": 0, "fusion_lon": 0.0, "fusion_lat": 0.0, "lat": 38.901368833333336, "type": "electric_scooter", "lon": -77.0318025, "bike_id": "6fbc62df421190b4e87e27be3a6926a1", "rental_uris": {"android": "https://dc.lft.to/lastmile_qr_scan", "ios": "https://dc.lft.to/lastmile_qr_scan"}, "name": "6fbc62df421190b4e87e27be3a6926a1", "is_reserved": 0}, {"is_disabled": 0, "fusion_lon": 0.0, "fusion_lat": 0.0, "lat": 38.90688466666667, "type": "electric_bike", "lon": -76.95195716666667, "bike_id": "c90b781d942845d4485f5c851e75806d", "rental_uris": {"android": "https://dc.lft.to/lastmile_qr_scan", "ios": "https://dc.lft.to/lastmile_qr_scan"}, "name": "c90b781d942845d4485f5c851e75806d", "is_reserved": 0}, {"is_disabled": 0, "fusion_lon": 0.0, "fusion_lat": 0.0, "lat": 38.9577715, "type": "electric_bike", "lon": -76.94095766666666, "bike_id": "22e89561ceb3b747c1caf950972acb94", "rental_uris": {"android": "https://dc.lft.to/lastmile_qr_scan", "ios": "https://dc.lft.to/lastmile_qr_scan"}, "name": "22e89561ceb3b747c1caf950972acb94", "is_reserved": 0}, {"is_disabled": 0, "fusion_lon": 0.0, "fusion_lat": 0.0, "lat": 38.92301366666667, "type": "electric_scooter", "lon": -76.993897, "bike_id": "cbd48d9220ed575934435145f60e79c6", "rental_uris": {"android": "https://dc.lft.to/lastmile_qr_scan", "ios": "https://dc.lft.to/lastmile_qr_scan"}, "name": "cbd48d9220ed575934435145f60e79c6", "is_reserved": 0}, {"is_disabled": 0, "fusion_lon": 0.0, "fusion_lat": 0.0, "lat": 38.91674783333333, "type": "electric_scooter", "lon": -77.02689616666666, "bike_id": "cb95af2fd56b02261b6bfb6ae2e99b40", "rental_uris": {"android": "https://dc.lft.to/lastmile_qr_scan", "ios": "https://dc.lft.to/lastmile_qr_scan"}, "name": "cb95af2fd56b02261b6bfb6ae2e99b40", "is_reserved": 0}, {"is_disabled": 0, "fusion_lon": 0.0, "fusion_lat": 0.0, "lat": 38.842920666666664, "type": "electric_scooter", "lon": -76.999457, "bike_id": "453a776d44279f123f8ba4a88744e196", "rental_uris": {"android": "https://dc.lft.to/lastmile_qr_scan", "ios": "https://dc.lft.to/lastmile_qr_scan"}, "name": "453a776d44279f123f8ba4a88744e196", "is_reserved": 0}, {"is_disabled": 0, "fusion_lon": 0.0, "fusion_lat": 0.0, "lat": 38.902381, "type": "electric_scooter", "lon": -77.0521615, "bike_id": "a3ec7f2bec5c614b54333e90d24f3de6", "rental_uris": {"android": "https://dc.lft.to/lastmile_qr_scan", "ios": "https://dc.lft.to/lastmile_qr_scan"}, "name": "a3ec7f2bec5c614b54333e90d24f3de6", "is_reserved": 0}, {"is_disabled": 0, "fusion_lon": 0.0, "fusion_lat": 0.0, "lat": 38.9001105, "type": "electric_scooter", "lon": -77.00672633333333, "bike_id": "c3e245e7177152d7a33f21450914243c", "rental_uris": {"android": "https://dc.lft.to/lastmile_qr_scan", "ios": "https://dc.lft.to/lastmile_qr_scan"}, "name": "c3e245e7177152d7a33f21450914243c", "is_reserved": 0}, {"is_disabled": 0, "fusion_lon": 0.0, "fusion_lat": 0.0, "lat": 38.88698083333333, "type": "electric_scooter", "lon": -76.9536585, "bike_id": "9675d80b176caee1c711d1f7f598d97c", "rental_uris": {"android": "https://dc.lft.to/lastmile_qr_scan", "ios": "https://dc.lft.to/lastmile_qr_scan"}, "name": "9675d80b176caee1c711d1f7f598d97c", "is_reserved": 0}, {"is_disabled": 0, "fusion_lon": 0.0, "fusion_lat": 0.0, "lat": 38.917465666666665, "type": "electric_scooter", "lon": -77.03661766666667, "bike_id": "822c4bd437cc39cf5a78ab571f2cce35", "rental_uris": {"android": "https://dc.lft.to/lastmile_qr_scan", "ios": "https://dc.lft.to/lastmile_qr_scan"}, "name": "822c4bd437cc39cf5a78ab571f2cce35", "is_reserved": 0}, {"is_disabled": 0, "fusion_lon": 0.0, "fusion_lat": 0.0, "lat": 38.9069925, "type": "electric_scooter", "lon": -77.06305433333333, "bike_id": "9379a044d6d9d1945dabe2f38f6c4873", "rental_uris": {"android": "https://dc.lft.to/lastmile_qr_scan", "ios": "https://dc.lft.to/lastmile_qr_scan"}, "name": "9379a044d6d9d1945dabe2f38f6c4873", "is_reserved": 0}, {"is_disabled": 0, "fusion_lon": 0.0, "fusion_lat": 0.0, "lat": 38.91962133333333, "type": "electric_scooter", "lon": -77.041783, "bike_id": "916d555454d47d4bdd973dc7ac524b52", "rental_uris": {"android": "https://dc.lft.to/lastmile_qr_scan", "ios": "https://dc.lft.to/lastmile_qr_scan"}, "name": "916d555454d47d4bdd973dc7ac524b52", "is_reserved": 0}, {"is_disabled": 0, "fusion_lon": 0.0, "fusion_lat": 0.0, "lat": 38.9287185, "type": "electric_scooter", "lon": -77.02736, "bike_id": "1e212d6d55a94a4d42cb5c2264519d90", "rental_uris": {"android": "https://dc.lft.to/lastmile_qr_scan", "ios": "https://dc.lft.to/lastmile_qr_scan"}, "name": "1e212d6d55a94a4d42cb5c2264519d90", "is_reserved": 0}, {"is_disabled": 0, "fusion_lon": 0.0, "fusion_lat": 0.0, "lat": 38.9179815, "type": "electric_scooter", "lon": -77.032019, "bike_id": "3abb24ebc8e4d2828aa3195086b4ff7a", "rental_uris": {"android": "https://dc.lft.to/lastmile_qr_scan", "ios": "https://dc.lft.to/lastmile_qr_scan"}, "name": "3abb24ebc8e4d2828aa3195086b4ff7a", "is_reserved": 0}, {"is_disabled": 0, "fusion_lon": 0.0, "fusion_lat": 0.0, "lat": 38.9143985, "type": "electric_scooter", "lon": -77.00896933333334, "bike_id": "e14124b776bbe1c3e9b4b06388e9d5af", "rental_uris": {"android": "https://dc.lft.to/lastmile_qr_scan", "ios": "https://dc.lft.to/lastmile_qr_scan"}, "name": "e14124b776bbe1c3e9b4b06388e9d5af", "is_reserved": 0}, {"is_disabled": 0, "fusion_lon": 0.0, "fusion_lat": 0.0, "lat": 38.919824, "type": "electric_scooter", "lon": -77.04159333333334, "bike_id": "87b4fca9566d0d8591baa1c8af145ae0", "rental_uris": {"android": "https://dc.lft.to/lastmile_qr_scan", "ios": "https://dc.lft.to/lastmile_qr_scan"}, "name": "87b4fca9566d0d8591baa1c8af145ae0", "is_reserved": 0}, {"is_disabled": 0, "fusion_lon": 0.0, "fusion_lat": 0.0, "lat": 38.95612933333334, "type": "electric_scooter", "lon": -77.02761583333333, "bike_id": "bb5157291614f4d75f7aa4f09410aff4", "rental_uris": {"android": "https://dc.lft.to/lastmile_qr_scan", "ios": "https://dc.lft.to/lastmile_qr_scan"}, "name": "bb5157291614f4d75f7aa4f09410aff4", "is_reserved": 0}, {"is_disabled": 0, "fusion_lon": 0.0, "fusion_lat": 0.0, "lat": 38.924375, "type": "electric_bike", "lon": -76.90759366666667, "bike_id": "8bb5df2c9ea47ee6d4c82ba96b0fec90", "rental_uris": {"android": "https://dc.lft.to/lastmile_qr_scan", "ios": "https://dc.lft.to/lastmile_qr_scan"}, "name": "8bb5df2c9ea47ee6d4c82ba96b0fec90", "is_reserved": 0}, {"is_disabled": 0, "fusion_lon": 0.0, "fusion_lat": 0.0, "lat": 38.91709483333333, "type": "electric_scooter", "lon": -77.0262295, "bike_id": "a26f40feb50ea47392931b51de2c0e29", "rental_uris": {"android": "https://dc.lft.to/lastmile_qr_scan", "ios": "https://dc.lft.to/lastmile_qr_scan"}, "name": "a26f40feb50ea47392931b51de2c0e29", "is_reserved": 0}, {"is_disabled": 0, "fusion_lon": 0.0, "fusion_lat": 0.0, "lat": 38.91270133333333, "type": "electric_scooter", "lon": -77.022262, "bike_id": "c4ff35e72e82af9850419039c63d3a70", "rental_uris": {"android": "https://dc.lft.to/lastmile_qr_scan", "ios": "https://dc.lft.to/lastmile_qr_scan"}, "name": "c4ff35e72e82af9850419039c63d3a70", "is_reserved": 0}, {"is_disabled": 0, "fusion_lon": 0.0, "fusion_lat": 0.0, "lat": 38.89825966666667, "type": "electric_scooter", "lon": -77.03352333333333, "bike_id": "cce5a3d912e3917ce42f9a0bf79f7120", "rental_uris": {"android": "https://dc.lft.to/lastmile_qr_scan", "ios": "https://dc.lft.to/lastmile_qr_scan"}, "name": "cce5a3d912e3917ce42f9a0bf79f7120", "is_reserved": 0}, {"is_disabled": 0, "fusion_lon": 0.0, "fusion_lat": 0.0, "lat": 38.89821883333333, "type": "electric_scooter", "lon": -77.002012, "bike_id": "ab94a281a6c6fd411a7c7e6f1d418c5e", "rental_uris": {"android": "https://dc.lft.to/lastmile_qr_scan", "ios": "https://dc.lft.to/lastmile_qr_scan"}, "name": "ab94a281a6c6fd411a7c7e6f1d418c5e", "is_reserved": 0}, {"is_disabled": 0, "fusion_lon": 0.0, "fusion_lat": 0.0, "lat": 38.9170975, "type": "electric_scooter", "lon": -77.02617116666667, "bike_id": "470b967f4d30841769b82753c0e78364", "rental_uris": {"android": "https://dc.lft.to/lastmile_qr_scan", "ios": "https://dc.lft.to/lastmile_qr_scan"}, "name": "470b967f4d30841769b82753c0e78364", "is_reserved": 0}, {"is_disabled": 0, "fusion_lon": 0.0, "fusion_lat": 0.0, "lat": 38.93142366666667, "type": "electric_bike", "lon": -77.03554416666667, "bike_id": "3d24bb91357f2bdbd3dfe64c0db8465d", "rental_uris": {"android": "https://dc.lft.to/lastmile_qr_scan", "ios": "https://dc.lft.to/lastmile_qr_scan"}, "name": "3d24bb91357f2bdbd3dfe64c0db8465d", "is_reserved": 0}, {"is_disabled": 0, "fusion_lon": 0.0, "fusion_lat": 0.0, "lat": 38.90243733333333, "type": "electric_scooter", "lon": -77.030971, "bike_id": "c29077c3a810d274f1bc790d6054ee7b", "rental_uris": {"android": "https://dc.lft.to/lastmile_qr_scan", "ios": "https://dc.lft.to/lastmile_qr_scan"}, "name": "c29077c3a810d274f1bc790d6054ee7b", "is_reserved": 0}, {"is_disabled": 0, "fusion_lon": 0.0, "fusion_lat": 0.0, "lat": 38.918221333333335, "type": "electric_scooter", "lon": -77.03170416666667, "bike_id": "3bf8031f5b8ea96e87e8108a0d0d1c79", "rental_uris": {"android": "https://dc.lft.to/lastmile_qr_scan", "ios": "https://dc.lft.to/lastmile_qr_scan"}, "name": "3bf8031f5b8ea96e87e8108a0d0d1c79", "is_reserved": 0}, {"is_disabled": 0, "fusion_lon": 0.0, "fusion_lat": 0.0, "lat": 38.95597583333333, "type": "electric_scooter", "lon": -77.02785333333334, "bike_id": "e9b0f282fc3d0e6fdc887630b2c3b7a0", "rental_uris": {"android": "https://dc.lft.to/lastmile_qr_scan", "ios": "https://dc.lft.to/lastmile_qr_scan"}, "name": "e9b0f282fc3d0e6fdc887630b2c3b7a0", "is_reserved": 0}, {"is_disabled": 0, "fusion_lon": 0.0, "fusion_lat": 0.0, "lat": 38.9168625, "type": "electric_scooter", "lon": -77.04138416666666, "bike_id": "4a086cd8696249445eb6c3ff0fe6df3d", "rental_uris": {"android": "https://dc.lft.to/lastmile_qr_scan", "ios": "https://dc.lft.to/lastmile_qr_scan"}, "name": "4a086cd8696249445eb6c3ff0fe6df3d", "is_reserved": 0}, {"is_disabled": 0, "fusion_lon": 0.0, "fusion_lat": 0.0, "lat": 39.003777, "type": "electric_bike", "lon": -77.013011, "bike_id": "a093d816407c17a84fca7c9a7f552f58", "rental_uris": {"android": "https://dc.lft.to/lastmile_qr_scan", "ios": "https://dc.lft.to/lastmile_qr_scan"}, "name": "a093d816407c17a84fca7c9a7f552f58", "is_reserved": 0}, {"is_disabled": 0, "fusion_lon": 0.0, "fusion_lat": 0.0, "lat": 38.96556066666667, "type": "electric_bike", "lon": -77.02300016666666, "bike_id": "ee8886a127cdaf12c88f9356ecc14a73", "rental_uris": {"android": "https://dc.lft.to/lastmile_qr_scan", "ios": "https://dc.lft.to/lastmile_qr_scan"}, "name": "ee8886a127cdaf12c88f9356ecc14a73", "is_reserved": 0}, {"is_disabled": 0, "fusion_lon": 0.0, "fusion_lat": 0.0, "lat": 38.9100675, "type": "electric_scooter", "lon": -77.0219035, "bike_id": "73167572195adca6623d8e9af5ac10cc", "rental_uris": {"android": "https://dc.lft.to/lastmile_qr_scan", "ios": "https://dc.lft.to/lastmile_qr_scan"}, "name": "73167572195adca6623d8e9af5ac10cc", "is_reserved": 0}, {"is_disabled": 0, "fusion_lon": 0.0, "fusion_lat": 0.0, "lat": 38.90149533333334, "type": "electric_scooter", "lon": -77.01526983333333, "bike_id": "b446a7b72c875aca428afc8f04815d21", "rental_uris": {"android": "https://dc.lft.to/lastmile_qr_scan", "ios": "https://dc.lft.to/lastmile_qr_scan"}, "name": "b446a7b72c875aca428afc8f04815d21", "is_reserved": 0}, {"is_disabled": 0, "fusion_lon": 0.0, "fusion_lat": 0.0, "lat": 38.9245645, "type": "electric_scooter", "lon": -76.99903883333333, "bike_id": "d59ab8991b5585bee120a061805fd9cd", "rental_uris": {"android": "https://dc.lft.to/lastmile_qr_scan", "ios": "https://dc.lft.to/lastmile_qr_scan"}, "name": "d59ab8991b5585bee120a061805fd9cd", "is_reserved": 0}, {"is_disabled": 0, "fusion_lon": 0.0, "fusion_lat": 0.0, "lat": 38.939183666666665, "type": "electric_scooter", "lon": -77.024738, "bike_id": "4a6d7970faa69ead2ade4cd4c97b144f", "rental_uris": {"android": "https://dc.lft.to/lastmile_qr_scan", "ios": "https://dc.lft.to/lastmile_qr_scan"}, "name": "4a6d7970faa69ead2ade4cd4c97b144f", "is_reserved": 0}, {"is_disabled": 0, "fusion_lon": 0.0, "fusion_lat": 0.0, "lat": 38.898976833333336, "type": "electric_scooter", "lon": -77.041646, "bike_id": "83768d66e813f5e9c4428a6ee1f9e001", "rental_uris": {"android": "https://dc.lft.to/lastmile_qr_scan", "ios": "https://dc.lft.to/lastmile_qr_scan"}, "name": "83768d66e813f5e9c4428a6ee1f9e001", "is_reserved": 0}, {"is_disabled": 0, "fusion_lon": 0.0, "fusion_lat": 0.0, "lat": 38.925927333333334, "type": "electric_bike", "lon": -76.8890525, "bike_id": "28d787c93a2854dd96c12f29af0d796d", "rental_uris": {"android": "https://dc.lft.to/lastmile_qr_scan", "ios": "https://dc.lft.to/lastmile_qr_scan"}, "name": "28d787c93a2854dd96c12f29af0d796d", "is_reserved": 0}, {"is_disabled": 0, "fusion_lon": 0.0, "fusion_lat": 0.0, "lat": 38.91416683333333, "type": "electric_scooter", "lon": -77.03223466666667, "bike_id": "95eed052cf448fcadf0cd689c82aaf04", "rental_uris": {"android": "https://dc.lft.to/lastmile_qr_scan", "ios": "https://dc.lft.to/lastmile_qr_scan"}, "name": "95eed052cf448fcadf0cd689c82aaf04", "is_reserved": 0}, {"is_disabled": 0, "fusion_lon": 0.0, "fusion_lat": 0.0, "lat": 38.917039333333335, "type": "electric_scooter", "lon": -77.01073516666666, "bike_id": "f8f4168ab12525101f6361e7f27515ef", "rental_uris": {"android": "https://dc.lft.to/lastmile_qr_scan", "ios": "https://dc.lft.to/lastmile_qr_scan"}, "name": "f8f4168ab12525101f6361e7f27515ef", "is_reserved": 0}, {"is_disabled": 0, "fusion_lon": 0.0, "fusion_lat": 0.0, "lat": 38.97678666666667, "type": "electric_bike", "lon": -76.97167433333334, "bike_id": "7c6a13bd35306018778eedeea19cc2d9", "rental_uris": {"android": "https://dc.lft.to/lastmile_qr_scan", "ios": "https://dc.lft.to/lastmile_qr_scan"}, "name": "7c6a13bd35306018778eedeea19cc2d9", "is_reserved": 0}, {"is_disabled": 0, "fusion_lon": 0.0, "fusion_lat": 0.0, "lat": 38.896014666666666, "type": "electric_scooter", "lon": -77.009222, "bike_id": "d5c635a74f84f96b4ea64986d1b59255", "rental_uris": {"android": "https://dc.lft.to/lastmile_qr_scan", "ios": "https://dc.lft.to/lastmile_qr_scan"}, "name": "d5c635a74f84f96b4ea64986d1b59255", "is_reserved": 0}, {"is_disabled": 0, "fusion_lon": 0.0, "fusion_lat": 0.0, "lat": 38.8923685, "type": "electric_bike", "lon": -76.9522215, "bike_id": "1f7eaee146864009b617876405b96a65", "rental_uris": {"android": "https://dc.lft.to/lastmile_qr_scan", "ios": "https://dc.lft.to/lastmile_qr_scan"}, "name": "1f7eaee146864009b617876405b96a65", "is_reserved": 0}, {"is_disabled": 0, "fusion_lon": 0.0, "fusion_lat": 0.0, "lat": 38.905539, "type": "electric_scooter", "lon": -77.04655866666667, "bike_id": "64b36cc70bc1a5ffeed5d614ea503bac", "rental_uris": {"android": "https://dc.lft.to/lastmile_qr_scan", "ios": "https://dc.lft.to/lastmile_qr_scan"}, "name": "64b36cc70bc1a5ffeed5d614ea503bac", "is_reserved": 0}, {"is_disabled": 0, "fusion_lon": 0.0, "fusion_lat": 0.0, "lat": 38.954146, "type": "electric_scooter", "lon": -77.028451, "bike_id": "b2e390538888aa49096db15748d7ade3", "rental_uris": {"android": "https://dc.lft.to/lastmile_qr_scan", "ios": "https://dc.lft.to/lastmile_qr_scan"}, "name": "b2e390538888aa49096db15748d7ade3", "is_reserved": 0}, {"is_disabled": 0, "fusion_lon": 0.0, "fusion_lat": 0.0, "lat": 38.8945795, "type": "electric_scooter", "lon": -76.94822933333333, "bike_id": "36d2867048bfeef15ab2d6ed435f21ee", "rental_uris": {"android": "https://dc.lft.to/lastmile_qr_scan", "ios": "https://dc.lft.to/lastmile_qr_scan"}, "name": "36d2867048bfeef15ab2d6ed435f21ee", "is_reserved": 0}, {"is_disabled": 0, "fusion_lon": 0.0, "fusion_lat": 0.0, "lat": 38.917080166666665, "type": "electric_scooter", "lon": -77.04127733333333, "bike_id": "19bcbef34bdca18d9daec25f2eb0297b", "rental_uris": {"android": "https://dc.lft.to/lastmile_qr_scan", "ios": "https://dc.lft.to/lastmile_qr_scan"}, "name": "19bcbef34bdca18d9daec25f2eb0297b", "is_reserved": 0}, {"is_disabled": 0, "fusion_lon": 0.0, "fusion_lat": 0.0, "lat": 38.937018, "type": "electric_scooter", "lon": -77.05599966666666, "bike_id": "a94d4395bc2145120b00f635f3c7916f", "rental_uris": {"android": "https://dc.lft.to/lastmile_qr_scan", "ios": "https://dc.lft.to/lastmile_qr_scan"}, "name": "a94d4395bc2145120b00f635f3c7916f", "is_reserved": 0}, {"is_disabled": 0, "fusion_lon": 0.0, "fusion_lat": 0.0, "lat": 38.86614516666667, "type": "electric_scooter", "lon": -77.0107295, "bike_id": "f1906dfd3d224dec28a213b46ab58e85", "rental_uris": {"android": "https://dc.lft.to/lastmile_qr_scan", "ios": "https://dc.lft.to/lastmile_qr_scan"}, "name": "f1906dfd3d224dec28a213b46ab58e85", "is_reserved": 0}, {"is_disabled": 0, "fusion_lon": 0.0, "fusion_lat": 0.0, "lat": 38.91234583333333, "type": "electric_scooter", "lon": -77.04481966666667, "bike_id": "cb9bae66d432b5220656fd62d1a08191", "rental_uris": {"android": "https://dc.lft.to/lastmile_qr_scan", "ios": "https://dc.lft.to/lastmile_qr_scan"}, "name": "cb9bae66d432b5220656fd62d1a08191", "is_reserved": 0}, {"is_disabled": 0, "fusion_lon": 0.0, "fusion_lat": 0.0, "lat": 38.911941166666665, "type": "electric_scooter", "lon": -77.041637, "bike_id": "57d7791b870abd2c4e40cfec637720a1", "rental_uris": {"android": "https://dc.lft.to/lastmile_qr_scan", "ios": "https://dc.lft.to/lastmile_qr_scan"}, "name": "57d7791b870abd2c4e40cfec637720a1", "is_reserved": 0}, {"is_disabled": 0, "fusion_lon": 0.0, "fusion_lat": 0.0, "lat": 38.8492935, "type": "electric_bike", "lon": -77.10014683333333, "bike_id": "4099d61f9a3e1542d903b85e5e5a3090", "rental_uris": {"android": "https://dc.lft.to/lastmile_qr_scan", "ios": "https://dc.lft.to/lastmile_qr_scan"}, "name": "4099d61f9a3e1542d903b85e5e5a3090", "is_reserved": 0}, {"is_disabled": 0, "fusion_lon": 0.0, "fusion_lat": 0.0, "lat": 38.8564815, "type": "electric_bike", "lon": -77.08522283333333, "bike_id": "73e0dae0b12cf0d72d8f5a7867705954", "rental_uris": {"android": "https://dc.lft.to/lastmile_qr_scan", "ios": "https://dc.lft.to/lastmile_qr_scan"}, "name": "73e0dae0b12cf0d72d8f5a7867705954", "is_reserved": 0}, {"is_disabled": 0, "fusion_lon": 0.0, "fusion_lat": 0.0, "lat": 38.88613733333333, "type": "electric_scooter", "lon": -77.00584516666666, "bike_id": "bff6fc0f8716a75cb2722f897e425ac3", "rental_uris": {"android": "https://dc.lft.to/lastmile_qr_scan", "ios": "https://dc.lft.to/lastmile_qr_scan"}, "name": "bff6fc0f8716a75cb2722f897e425ac3", "is_reserved": 0}, {"is_disabled": 0, "fusion_lon": 0.0, "fusion_lat": 0.0, "lat": 38.956373166666665, "type": "electric_scooter", "lon": -77.0909915, "bike_id": "7b61cd975fd0f7af0d2ebcc5ff1aeda9", "rental_uris": {"android": "https://dc.lft.to/lastmile_qr_scan", "ios": "https://dc.lft.to/lastmile_qr_scan"}, "name": "7b61cd975fd0f7af0d2ebcc5ff1aeda9", "is_reserved": 0}, {"is_disabled": 0, "fusion_lon": 0.0, "fusion_lat": 0.0, "lat": 38.89612266666666, "type": "electric_scooter", "lon": -77.0266095, "bike_id": "7579886bc82bbb967fac0e5e0d506a31", "rental_uris": {"android": "https://dc.lft.to/lastmile_qr_scan", "ios": "https://dc.lft.to/lastmile_qr_scan"}, "name": "7579886bc82bbb967fac0e5e0d506a31", "is_reserved": 0}, {"is_disabled": 0, "fusion_lon": 0.0, "fusion_lat": 0.0, "lat": 38.889819333333335, "type": "electric_scooter", "lon": -77.0034285, "bike_id": "1bed84282c77a023b4f4e22e86b54c6c", "rental_uris": {"android": "https://dc.lft.to/lastmile_qr_scan", "ios": "https://dc.lft.to/lastmile_qr_scan"}, "name": "1bed84282c77a023b4f4e22e86b54c6c", "is_reserved": 0}, {"is_disabled": 0, "fusion_lon": 0.0, "fusion_lat": 0.0, "lat": 38.864668, "type": "electric_scooter", "lon": -76.996134, "bike_id": "2484c9b6c51eb8c3e9a518380c1e459a", "rental_uris": {"android": "https://dc.lft.to/lastmile_qr_scan", "ios": "https://dc.lft.to/lastmile_qr_scan"}, "name": "2484c9b6c51eb8c3e9a518380c1e459a", "is_reserved": 0}, {"is_disabled": 0, "fusion_lon": 0.0, "fusion_lat": 0.0, "lat": 38.90471683333333, "type": "electric_scooter", "lon": -77.00604183333333, "bike_id": "25821c16694d6b54973b9526eb8f338e", "rental_uris": {"android": "https://dc.lft.to/lastmile_qr_scan", "ios": "https://dc.lft.to/lastmile_qr_scan"}, "name": "25821c16694d6b54973b9526eb8f338e", "is_reserved": 0}, {"is_disabled": 0, "fusion_lon": 0.0, "fusion_lat": 0.0, "lat": 38.918063833333335, "type": "electric_scooter", "lon": -77.03563583333333, "bike_id": "31019da1da70470b28831fce2373bde5", "rental_uris": {"android": "https://dc.lft.to/lastmile_qr_scan", "ios": "https://dc.lft.to/lastmile_qr_scan"}, "name": "31019da1da70470b28831fce2373bde5", "is_reserved": 0}, {"is_disabled": 0, "fusion_lon": 0.0, "fusion_lat": 0.0, "lat": 38.911214333333334, "type": "electric_scooter", "lon": -77.038698, "bike_id": "2010c6384c5ae656132b2724a7b6a175", "rental_uris": {"android": "https://dc.lft.to/lastmile_qr_scan", "ios": "https://dc.lft.to/lastmile_qr_scan"}, "name": "2010c6384c5ae656132b2724a7b6a175", "is_reserved": 0}, {"is_disabled": 0, "fusion_lon": 0.0, "fusion_lat": 0.0, "lat": 38.885842, "type": "electric_scooter", "lon": -77.01226016666666, "bike_id": "6c9dd86720acf01641d9fd9db23a55c0", "rental_uris": {"android": "https://dc.lft.to/lastmile_qr_scan", "ios": "https://dc.lft.to/lastmile_qr_scan"}, "name": "6c9dd86720acf01641d9fd9db23a55c0", "is_reserved": 0}, {"is_disabled": 0, "fusion_lon": 0.0, "fusion_lat": 0.0, "lat": 38.940859333333336, "type": "electric_scooter", "lon": -77.06142833333334, "bike_id": "016c44173636c84e39eac16bc06f07a7", "rental_uris": {"android": "https://dc.lft.to/lastmile_qr_scan", "ios": "https://dc.lft.to/lastmile_qr_scan"}, "name": "016c44173636c84e39eac16bc06f07a7", "is_reserved": 0}, {"is_disabled": 0, "fusion_lon": 0.0, "fusion_lat": 0.0, "lat": 38.92316833333334, "type": "electric_scooter", "lon": -77.04210683333334, "bike_id": "10eb89ec6bdc9e26f70104e0fabf3a98", "rental_uris": {"android": "https://dc.lft.to/lastmile_qr_scan", "ios": "https://dc.lft.to/lastmile_qr_scan"}, "name": "10eb89ec6bdc9e26f70104e0fabf3a98", "is_reserved": 0}, {"is_disabled": 0, "fusion_lon": 0.0, "fusion_lat": 0.0, "lat": 38.8981595, "type": "electric_scooter", "lon": -77.03168016666666, "bike_id": "c7af0859b0ce304f61cd23db15ccc264", "rental_uris": {"android": "https://dc.lft.to/lastmile_qr_scan", "ios": "https://dc.lft.to/lastmile_qr_scan"}, "name": "c7af0859b0ce304f61cd23db15ccc264", "is_reserved": 0}, {"is_disabled": 0, "fusion_lon": 0.0, "fusion_lat": 0.0, "lat": 38.884868166666664, "type": "electric_scooter", "lon": -77.02075033333334, "bike_id": "8082d8483e56bad40f08b84c24e8006c", "rental_uris": {"android": "https://dc.lft.to/lastmile_qr_scan", "ios": "https://dc.lft.to/lastmile_qr_scan"}, "name": "8082d8483e56bad40f08b84c24e8006c", "is_reserved": 0}, {"is_disabled": 0, "fusion_lon": 0.0, "fusion_lat": 0.0, "lat": 38.9076695, "type": "electric_scooter", "lon": -77.038533, "bike_id": "eecb18973b959afb2c3695236b58cb8e", "rental_uris": {"android": "https://dc.lft.to/lastmile_qr_scan", "ios": "https://dc.lft.to/lastmile_qr_scan"}, "name": "eecb18973b959afb2c3695236b58cb8e", "is_reserved": 0}, {"is_disabled": 0, "fusion_lon": 0.0, "fusion_lat": 0.0, "lat": 38.9475385, "type": "electric_scooter", "lon": -77.02976266666667, "bike_id": "ec2d4aea7e86fd962f78531e9e0563ea", "rental_uris": {"android": "https://dc.lft.to/lastmile_qr_scan", "ios": "https://dc.lft.to/lastmile_qr_scan"}, "name": "ec2d4aea7e86fd962f78531e9e0563ea", "is_reserved": 0}, {"is_disabled": 0, "fusion_lon": 0.0, "fusion_lat": 0.0, "lat": 38.92748266666667, "type": "electric_scooter", "lon": -77.02482216666667, "bike_id": "708730c8a260ca1c44bba6bec7c16bdd", "rental_uris": {"android": "https://dc.lft.to/lastmile_qr_scan", "ios": "https://dc.lft.to/lastmile_qr_scan"}, "name": "708730c8a260ca1c44bba6bec7c16bdd", "is_reserved": 0}, {"is_disabled": 0, "fusion_lon": 0.0, "fusion_lat": 0.0, "lat": 38.90973066666667, "type": "electric_scooter", "lon": -77.040576, "bike_id": "469336776295c72fce45ec72fb03565a", "rental_uris": {"android": "https://dc.lft.to/lastmile_qr_scan", "ios": "https://dc.lft.to/lastmile_qr_scan"}, "name": "469336776295c72fce45ec72fb03565a", "is_reserved": 0}, {"is_disabled": 0, "fusion_lon": 0.0, "fusion_lat": 0.0, "lat": 38.93109416666667, "type": "electric_scooter", "lon": -77.01247316666667, "bike_id": "e1bf69127cd0f9756d510748b0c106d4", "rental_uris": {"android": "https://dc.lft.to/lastmile_qr_scan", "ios": "https://dc.lft.to/lastmile_qr_scan"}, "name": "e1bf69127cd0f9756d510748b0c106d4", "is_reserved": 0}, {"is_disabled": 0, "fusion_lon": 0.0, "fusion_lat": 0.0, "lat": 38.863617, "type": "electric_scooter", "lon": -76.9906, "bike_id": "9a2238093a1a215933e6bdd64233cfb3", "rental_uris": {"android": "https://dc.lft.to/lastmile_qr_scan", "ios": "https://dc.lft.to/lastmile_qr_scan"}, "name": "9a2238093a1a215933e6bdd64233cfb3", "is_reserved": 0}, {"is_disabled": 0, "fusion_lon": 0.0, "fusion_lat": 0.0, "lat": 38.89851133333333, "type": "electric_scooter", "lon": -77.0318765, "bike_id": "19f0286d873eb14cea73aa3d21444a34", "rental_uris": {"android": "https://dc.lft.to/lastmile_qr_scan", "ios": "https://dc.lft.to/lastmile_qr_scan"}, "name": "19f0286d873eb14cea73aa3d21444a34", "is_reserved": 0}, {"is_disabled": 0, "fusion_lon": 0.0, "fusion_lat": 0.0, "lat": 38.92145933333333, "type": "electric_scooter", "lon": -77.03861316666666, "bike_id": "de849baa61dca0d679eb94b9b090e7fa", "rental_uris": {"android": "https://dc.lft.to/lastmile_qr_scan", "ios": "https://dc.lft.to/lastmile_qr_scan"}, "name": "de849baa61dca0d679eb94b9b090e7fa", "is_reserved": 0}, {"is_disabled": 0, "fusion_lon": 0.0, "fusion_lat": 0.0, "lat": 38.901576666666664, "type": "electric_scooter", "lon": -77.01872833333333, "bike_id": "fab2d4de884535bdc1c448061ec07604", "rental_uris": {"android": "https://dc.lft.to/lastmile_qr_scan", "ios": "https://dc.lft.to/lastmile_qr_scan"}, "name": "fab2d4de884535bdc1c448061ec07604", "is_reserved": 0}, {"is_disabled": 0, "fusion_lon": 0.0, "fusion_lat": 0.0, "lat": 38.90651883333334, "type": "electric_scooter", "lon": -77.027079, "bike_id": "67ff10a86c4bbaa408ad1e775ba0cd60", "rental_uris": {"android": "https://dc.lft.to/lastmile_qr_scan", "ios": "https://dc.lft.to/lastmile_qr_scan"}, "name": "67ff10a86c4bbaa408ad1e775ba0cd60", "is_reserved": 0}, {"is_disabled": 0, "fusion_lon": 0.0, "fusion_lat": 0.0, "lat": 38.91813483333333, "type": "electric_scooter", "lon": -77.02692733333333, "bike_id": "9a0228a43df1b34e99eb6f929c36d0dd", "rental_uris": {"android": "https://dc.lft.to/lastmile_qr_scan", "ios": "https://dc.lft.to/lastmile_qr_scan"}, "name": "9a0228a43df1b34e99eb6f929c36d0dd", "is_reserved": 0}, {"is_disabled": 0, "fusion_lon": 0.0, "fusion_lat": 0.0, "lat": 38.943303, "type": "electric_bike", "lon": -77.014696, "bike_id": "75df0870cfaaef50d265f2be2b313d03", "rental_uris": {"android": "https://dc.lft.to/lastmile_qr_scan", "ios": "https://dc.lft.to/lastmile_qr_scan"}, "name": "75df0870cfaaef50d265f2be2b313d03", "is_reserved": 0}, {"is_disabled": 0, "fusion_lon": 0.0, "fusion_lat": 0.0, "lat": 38.92371383333333, "type": "electric_scooter", "lon": -77.030186, "bike_id": "f44a36080edf833bb8e1a3d2812b6683", "rental_uris": {"android": "https://dc.lft.to/lastmile_qr_scan", "ios": "https://dc.lft.to/lastmile_qr_scan"}, "name": "f44a36080edf833bb8e1a3d2812b6683", "is_reserved": 0}, {"is_disabled": 0, "fusion_lon": 0.0, "fusion_lat": 0.0, "lat": 38.884332666666666, "type": "electric_scooter", "lon": -77.02531116666667, "bike_id": "c4616558f50ecb61c383b7210c1fb07d", "rental_uris": {"android": "https://dc.lft.to/lastmile_qr_scan", "ios": "https://dc.lft.to/lastmile_qr_scan"}, "name": "c4616558f50ecb61c383b7210c1fb07d", "is_reserved": 0}, {"is_disabled": 0, "fusion_lon": 0.0, "fusion_lat": 0.0, "lat": 38.85283616666667, "type": "electric_bike", "lon": -76.98156633333333, "bike_id": "4470e1f037efc0880f236bae1953387a", "rental_uris": {"android": "https://dc.lft.to/lastmile_qr_scan", "ios": "https://dc.lft.to/lastmile_qr_scan"}, "name": "4470e1f037efc0880f236bae1953387a", "is_reserved": 0}, {"is_disabled": 0, "fusion_lon": 0.0, "fusion_lat": 0.0, "lat": 38.857857, "type": "electric_bike", "lon": -76.98753683333334, "bike_id": "743704d10950135181de7ac99612430e", "rental_uris": {"android": "https://dc.lft.to/lastmile_qr_scan", "ios": "https://dc.lft.to/lastmile_qr_scan"}, "name": "743704d10950135181de7ac99612430e", "is_reserved": 0}, {"is_disabled": 0, "fusion_lon": 0.0, "fusion_lat": 0.0, "lat": 38.89549016666667, "type": "electric_scooter", "lon": -77.015456, "bike_id": "6f988c65a0ea5d64015415730aa715eb", "rental_uris": {"android": "https://dc.lft.to/lastmile_qr_scan", "ios": "https://dc.lft.to/lastmile_qr_scan"}, "name": "6f988c65a0ea5d64015415730aa715eb", "is_reserved": 0}, {"is_disabled": 0, "fusion_lon": 0.0, "fusion_lat": 0.0, "lat": 38.877066666666664, "type": "electric_scooter", "lon": -77.0050565, "bike_id": "43354d156ae8a82f65bfba8b0ccf404b", "rental_uris": {"android": "https://dc.lft.to/lastmile_qr_scan", "ios": "https://dc.lft.to/lastmile_qr_scan"}, "name": "43354d156ae8a82f65bfba8b0ccf404b", "is_reserved": 0}, {"is_disabled": 0, "fusion_lon": 0.0, "fusion_lat": 0.0, "lat": 38.97405033333333, "type": "electric_bike", "lon": -77.024943, "bike_id": "d83c5aa3063003fb9c45005b4cbae95d", "rental_uris": {"android": "https://dc.lft.to/lastmile_qr_scan", "ios": "https://dc.lft.to/lastmile_qr_scan"}, "name": "d83c5aa3063003fb9c45005b4cbae95d", "is_reserved": 0}, {"is_disabled": 0, "fusion_lon": 0.0, "fusion_lat": 0.0, "lat": 38.90065083333333, "type": "electric_scooter", "lon": -76.93386966666667, "bike_id": "7c5170faad10ce11e1c1b60267672540", "rental_uris": {"android": "https://dc.lft.to/lastmile_qr_scan", "ios": "https://dc.lft.to/lastmile_qr_scan"}, "name": "7c5170faad10ce11e1c1b60267672540", "is_reserved": 0}, {"is_disabled": 0, "fusion_lon": 0.0, "fusion_lat": 0.0, "lat": 38.90772716666667, "type": "electric_scooter", "lon": -77.02703583333333, "bike_id": "0ee33b44c351e749ce52e26d804d0c3e", "rental_uris": {"android": "https://dc.lft.to/lastmile_qr_scan", "ios": "https://dc.lft.to/lastmile_qr_scan"}, "name": "0ee33b44c351e749ce52e26d804d0c3e", "is_reserved": 0}, {"is_disabled": 0, "fusion_lon": 0.0, "fusion_lat": 0.0, "lat": 38.931353, "type": "electric_scooter", "lon": -77.05728716666667, "bike_id": "f240adf6efdaad49e6b35b51a514e48f", "rental_uris": {"android": "https://dc.lft.to/lastmile_qr_scan", "ios": "https://dc.lft.to/lastmile_qr_scan"}, "name": "f240adf6efdaad49e6b35b51a514e48f", "is_reserved": 0}, {"is_disabled": 0, "fusion_lon": 0.0, "fusion_lat": 0.0, "lat": 38.8935815, "type": "electric_scooter", "lon": -77.03966166666666, "bike_id": "6b910ece225660cca630408c4d2b021d", "rental_uris": {"android": "https://dc.lft.to/lastmile_qr_scan", "ios": "https://dc.lft.to/lastmile_qr_scan"}, "name": "6b910ece225660cca630408c4d2b021d", "is_reserved": 0}, {"is_disabled": 0, "fusion_lon": 0.0, "fusion_lat": 0.0, "lat": 38.87897666666667, "type": "electric_scooter", "lon": -76.93523633333334, "bike_id": "cbe6915fadf842942f07a220b5763658", "rental_uris": {"android": "https://dc.lft.to/lastmile_qr_scan", "ios": "https://dc.lft.to/lastmile_qr_scan"}, "name": "cbe6915fadf842942f07a220b5763658", "is_reserved": 0}, {"is_disabled": 0, "fusion_lon": 0.0, "fusion_lat": 0.0, "lat": 38.91742766666667, "type": "electric_scooter", "lon": -77.036631, "bike_id": "b6b476bc51336f9852cd6bbb37445784", "rental_uris": {"android": "https://dc.lft.to/lastmile_qr_scan", "ios": "https://dc.lft.to/lastmile_qr_scan"}, "name": "b6b476bc51336f9852cd6bbb37445784", "is_reserved": 0}, {"is_disabled": 0, "fusion_lon": 0.0, "fusion_lat": 0.0, "lat": 38.892214333333335, "type": "electric_scooter", "lon": -77.022632, "bike_id": "df8a1d0989acee8916628b2ce57ae4be", "rental_uris": {"android": "https://dc.lft.to/lastmile_qr_scan", "ios": "https://dc.lft.to/lastmile_qr_scan"}, "name": "df8a1d0989acee8916628b2ce57ae4be", "is_reserved": 0}, {"is_disabled": 0, "fusion_lon": 0.0, "fusion_lat": 0.0, "lat": 38.8997225, "type": "electric_scooter", "lon": -77.02050333333334, "bike_id": "00f5fb3ac91fbc2ebe49b8547448a527", "rental_uris": {"android": "https://dc.lft.to/lastmile_qr_scan", "ios": "https://dc.lft.to/lastmile_qr_scan"}, "name": "00f5fb3ac91fbc2ebe49b8547448a527", "is_reserved": 0}, {"is_disabled": 0, "fusion_lon": 0.0, "fusion_lat": 0.0, "lat": 38.899538666666665, "type": "electric_scooter", "lon": -77.04797883333333, "bike_id": "5ef876998eb9d3f180f03a7180ff2554", "rental_uris": {"android": "https://dc.lft.to/lastmile_qr_scan", "ios": "https://dc.lft.to/lastmile_qr_scan"}, "name": "5ef876998eb9d3f180f03a7180ff2554", "is_reserved": 0}, {"is_disabled": 0, "fusion_lon": 0.0, "fusion_lat": 0.0, "lat": 38.910299, "type": "electric_scooter", "lon": -77.03371833333334, "bike_id": "dbf9b1f953edb1990fdb21f697754d46", "rental_uris": {"android": "https://dc.lft.to/lastmile_qr_scan", "ios": "https://dc.lft.to/lastmile_qr_scan"}, "name": "dbf9b1f953edb1990fdb21f697754d46", "is_reserved": 0}, {"is_disabled": 0, "fusion_lon": 0.0, "fusion_lat": 0.0, "lat": 38.928630166666665, "type": "electric_scooter", "lon": -77.0142475, "bike_id": "c9a78b7f061167cc8a4c77577a362229", "rental_uris": {"android": "https://dc.lft.to/lastmile_qr_scan", "ios": "https://dc.lft.to/lastmile_qr_scan"}, "name": "c9a78b7f061167cc8a4c77577a362229", "is_reserved": 0}, {"is_disabled": 0, "fusion_lon": 0.0, "fusion_lat": 0.0, "lat": 38.906996, "type": "electric_scooter", "lon": -76.98694166666667, "bike_id": "39c4946993170903a07982d2531a9591", "rental_uris": {"android": "https://dc.lft.to/lastmile_qr_scan", "ios": "https://dc.lft.to/lastmile_qr_scan"}, "name": "39c4946993170903a07982d2531a9591", "is_reserved": 0}, {"is_disabled": 0, "fusion_lon": 0.0, "fusion_lat": 0.0, "lat": 38.925293333333336, "type": "electric_scooter", "lon": -77.0766, "bike_id": "645045c769b0537bb30f8b03d1ef5311", "rental_uris": {"android": "https://dc.lft.to/lastmile_qr_scan", "ios": "https://dc.lft.to/lastmile_qr_scan"}, "name": "645045c769b0537bb30f8b03d1ef5311", "is_reserved": 0}, {"is_disabled": 0, "fusion_lon": 0.0, "fusion_lat": 0.0, "lat": 38.894692, "type": "electric_scooter", "lon": -76.99415483333334, "bike_id": "890d498ec59c5e77e511f23132da50e6", "rental_uris": {"android": "https://dc.lft.to/lastmile_qr_scan", "ios": "https://dc.lft.to/lastmile_qr_scan"}, "name": "890d498ec59c5e77e511f23132da50e6", "is_reserved": 0}, {"is_disabled": 0, "fusion_lon": 0.0, "fusion_lat": 0.0, "lat": 38.91430183333333, "type": "electric_scooter", "lon": -77.03182566666666, "bike_id": "24a54157ee4b1ccbb800cde37024eb57", "rental_uris": {"android": "https://dc.lft.to/lastmile_qr_scan", "ios": "https://dc.lft.to/lastmile_qr_scan"}, "name": "24a54157ee4b1ccbb800cde37024eb57", "is_reserved": 0}, {"is_disabled": 0, "fusion_lon": 0.0, "fusion_lat": 0.0, "lat": 38.925253833333336, "type": "electric_scooter", "lon": -77.04418466666667, "bike_id": "06c11ad281dfb3ac6ec42951b6ac2d70", "rental_uris": {"android": "https://dc.lft.to/lastmile_qr_scan", "ios": "https://dc.lft.to/lastmile_qr_scan"}, "name": "06c11ad281dfb3ac6ec42951b6ac2d70", "is_reserved": 0}, {"is_disabled": 0, "fusion_lon": 0.0, "fusion_lat": 0.0, "lat": 38.9054195, "type": "electric_scooter", "lon": -77.0509155, "bike_id": "368cde7d6a687eff50852d5e3473f498", "rental_uris": {"android": "https://dc.lft.to/lastmile_qr_scan", "ios": "https://dc.lft.to/lastmile_qr_scan"}, "name": "368cde7d6a687eff50852d5e3473f498", "is_reserved": 0}, {"is_disabled": 0, "fusion_lon": 0.0, "fusion_lat": 0.0, "lat": 38.900241, "type": "electric_scooter", "lon": -76.99876483333334, "bike_id": "7d8543949ae0d7b4cf6d99bf41a16bf4", "rental_uris": {"android": "https://dc.lft.to/lastmile_qr_scan", "ios": "https://dc.lft.to/lastmile_qr_scan"}, "name": "7d8543949ae0d7b4cf6d99bf41a16bf4", "is_reserved": 0}, {"is_disabled": 0, "fusion_lon": 0.0, "fusion_lat": 0.0, "lat": 38.916251333333335, "type": "electric_scooter", "lon": -77.04028166666667, "bike_id": "ba4bc3ee73054e03ec4880cda7b32cb4", "rental_uris": {"android": "https://dc.lft.to/lastmile_qr_scan", "ios": "https://dc.lft.to/lastmile_qr_scan"}, "name": "ba4bc3ee73054e03ec4880cda7b32cb4", "is_reserved": 0}, {"is_disabled": 0, "fusion_lon": 0.0, "fusion_lat": 0.0, "lat": 38.9112755, "type": "electric_scooter", "lon": -77.05936233333334, "bike_id": "1519ee7a643877386c2ef5b939e9623b", "rental_uris": {"android": "https://dc.lft.to/lastmile_qr_scan", "ios": "https://dc.lft.to/lastmile_qr_scan"}, "name": "1519ee7a643877386c2ef5b939e9623b", "is_reserved": 0}, {"is_disabled": 0, "fusion_lon": 0.0, "fusion_lat": 0.0, "lat": 38.915612833333334, "type": "electric_scooter", "lon": -77.03151016666666, "bike_id": "e2999526f4876dcf720930166074e886", "rental_uris": {"android": "https://dc.lft.to/lastmile_qr_scan", "ios": "https://dc.lft.to/lastmile_qr_scan"}, "name": "e2999526f4876dcf720930166074e886", "is_reserved": 0}, {"is_disabled": 0, "fusion_lon": 0.0, "fusion_lat": 0.0, "lat": 38.895394333333336, "type": "electric_scooter", "lon": -77.04125366666666, "bike_id": "3245fe3482da247580b3e715dbc5bf89", "rental_uris": {"android": "https://dc.lft.to/lastmile_qr_scan", "ios": "https://dc.lft.to/lastmile_qr_scan"}, "name": "3245fe3482da247580b3e715dbc5bf89", "is_reserved": 0}, {"is_disabled": 0, "fusion_lon": 0.0, "fusion_lat": 0.0, "lat": 38.89834033333333, "type": "electric_scooter", "lon": -76.94633583333334, "bike_id": "e7d9ddcca5a1b8b12a45bb17921584c5", "rental_uris": {"android": "https://dc.lft.to/lastmile_qr_scan", "ios": "https://dc.lft.to/lastmile_qr_scan"}, "name": "e7d9ddcca5a1b8b12a45bb17921584c5", "is_reserved": 0}, {"is_disabled": 0, "fusion_lon": 0.0, "fusion_lat": 0.0, "lat": 38.91919083333333, "type": "electric_scooter", "lon": -77.04169816666666, "bike_id": "6430240a26caeb8c4a8f265750dbef16", "rental_uris": {"android": "https://dc.lft.to/lastmile_qr_scan", "ios": "https://dc.lft.to/lastmile_qr_scan"}, "name": "6430240a26caeb8c4a8f265750dbef16", "is_reserved": 0}, {"is_disabled": 0, "fusion_lon": 0.0, "fusion_lat": 0.0, "lat": 38.896053333333334, "type": "electric_scooter", "lon": -77.00925416666666, "bike_id": "6b64b271b067b7a4038f796507ee2308", "rental_uris": {"android": "https://dc.lft.to/lastmile_qr_scan", "ios": "https://dc.lft.to/lastmile_qr_scan"}, "name": "6b64b271b067b7a4038f796507ee2308", "is_reserved": 0}, {"is_disabled": 0, "fusion_lon": 0.0, "fusion_lat": 0.0, "lat": 38.88482066666667, "type": "electric_scooter", "lon": -76.92961883333334, "bike_id": "4f04063d2c889978037e6383e9ac944a", "rental_uris": {"android": "https://dc.lft.to/lastmile_qr_scan", "ios": "https://dc.lft.to/lastmile_qr_scan"}, "name": "4f04063d2c889978037e6383e9ac944a", "is_reserved": 0}, {"is_disabled": 0, "fusion_lon": 0.0, "fusion_lat": 0.0, "lat": 38.918626833333335, "type": "electric_scooter", "lon": -77.04167666666666, "bike_id": "1d41f4377438aa8afea77c52aec18236", "rental_uris": {"android": "https://dc.lft.to/lastmile_qr_scan", "ios": "https://dc.lft.to/lastmile_qr_scan"}, "name": "1d41f4377438aa8afea77c52aec18236", "is_reserved": 0}, {"is_disabled": 0, "fusion_lon": 0.0, "fusion_lat": 0.0, "lat": 38.84518666666666, "type": "electric_bike", "lon": -77.07803, "bike_id": "b700bcddad4d7514f0eccb426331050a", "rental_uris": {"android": "https://dc.lft.to/lastmile_qr_scan", "ios": "https://dc.lft.to/lastmile_qr_scan"}, "name": "b700bcddad4d7514f0eccb426331050a", "is_reserved": 0}, {"is_disabled": 0, "fusion_lon": 0.0, "fusion_lat": 0.0, "lat": 38.901415166666666, "type": "electric_scooter", "lon": -77.01785616666666, "bike_id": "9fc0ef7722514c87b0cf1835842cc558", "rental_uris": {"android": "https://dc.lft.to/lastmile_qr_scan", "ios": "https://dc.lft.to/lastmile_qr_scan"}, "name": "9fc0ef7722514c87b0cf1835842cc558", "is_reserved": 0}, {"is_disabled": 0, "fusion_lon": 0.0, "fusion_lat": 0.0, "lat": 38.91819616666667, "type": "electric_scooter", "lon": -77.01211483333333, "bike_id": "d20522c750680e7ba603286767b563f8", "rental_uris": {"android": "https://dc.lft.to/lastmile_qr_scan", "ios": "https://dc.lft.to/lastmile_qr_scan"}, "name": "d20522c750680e7ba603286767b563f8", "is_reserved": 0}, {"is_disabled": 0, "fusion_lon": 0.0, "fusion_lat": 0.0, "lat": 38.9247155, "type": "electric_scooter", "lon": -77.02984366666666, "bike_id": "80bd31e7e5eaf01436ec08a2c1291857", "rental_uris": {"android": "https://dc.lft.to/lastmile_qr_scan", "ios": "https://dc.lft.to/lastmile_qr_scan"}, "name": "80bd31e7e5eaf01436ec08a2c1291857", "is_reserved": 0}, {"is_disabled": 0, "fusion_lon": 0.0, "fusion_lat": 0.0, "lat": 38.920523333333335, "type": "electric_scooter", "lon": -77.026086, "bike_id": "eaa9618fb1011111094b7a9dcd2bd5bd", "rental_uris": {"android": "https://dc.lft.to/lastmile_qr_scan", "ios": "https://dc.lft.to/lastmile_qr_scan"}, "name": "eaa9618fb1011111094b7a9dcd2bd5bd", "is_reserved": 0}, {"is_disabled": 0, "fusion_lon": 0.0, "fusion_lat": 0.0, "lat": 38.90835966666667, "type": "electric_scooter", "lon": -76.99692866666666, "bike_id": "25ec4283ed42e5014d9b22ef04d2427e", "rental_uris": {"android": "https://dc.lft.to/lastmile_qr_scan", "ios": "https://dc.lft.to/lastmile_qr_scan"}, "name": "25ec4283ed42e5014d9b22ef04d2427e", "is_reserved": 0}, {"is_disabled": 0, "fusion_lon": 0.0, "fusion_lat": 0.0, "lat": 38.90212916666667, "type": "electric_scooter", "lon": -77.02375766666667, "bike_id": "850b9a5221b2bff3fa2a2f254caf6c4f", "rental_uris": {"android": "https://dc.lft.to/lastmile_qr_scan", "ios": "https://dc.lft.to/lastmile_qr_scan"}, "name": "850b9a5221b2bff3fa2a2f254caf6c4f", "is_reserved": 0}, {"is_disabled": 0, "fusion_lon": 0.0, "fusion_lat": 0.0, "lat": 38.90572133333333, "type": "electric_scooter", "lon": -77.0335635, "bike_id": "50b453ce1ddb4b48899d6318ab99bb2d", "rental_uris": {"android": "https://dc.lft.to/lastmile_qr_scan", "ios": "https://dc.lft.to/lastmile_qr_scan"}, "name": "50b453ce1ddb4b48899d6318ab99bb2d", "is_reserved": 0}, {"is_disabled": 0, "fusion_lon": 0.0, "fusion_lat": 0.0, "lat": 38.91705433333333, "type": "electric_scooter", "lon": -77.02429033333334, "bike_id": "992119ea9f3bf5585c8e804800be4e0b", "rental_uris": {"android": "https://dc.lft.to/lastmile_qr_scan", "ios": "https://dc.lft.to/lastmile_qr_scan"}, "name": "992119ea9f3bf5585c8e804800be4e0b", "is_reserved": 0}, {"is_disabled": 0, "fusion_lon": 0.0, "fusion_lat": 0.0, "lat": 38.918855666666666, "type": "electric_scooter", "lon": -77.04175533333333, "bike_id": "7c331f4834c1a5177c059ad198121b1c", "rental_uris": {"android": "https://dc.lft.to/lastmile_qr_scan", "ios": "https://dc.lft.to/lastmile_qr_scan"}, "name": "7c331f4834c1a5177c059ad198121b1c", "is_reserved": 0}, {"is_disabled": 0, "fusion_lon": 0.0, "fusion_lat": 0.0, "lat": 38.90729966666667, "type": "electric_scooter", "lon": -77.0424725, "bike_id": "b978f5e9535e407594324011d04b2768", "rental_uris": {"android": "https://dc.lft.to/lastmile_qr_scan", "ios": "https://dc.lft.to/lastmile_qr_scan"}, "name": "b978f5e9535e407594324011d04b2768", "is_reserved": 0}, {"is_disabled": 0, "fusion_lon": 0.0, "fusion_lat": 0.0, "lat": 38.831898333333335, "type": "electric_bike", "lon": -77.07681966666667, "bike_id": "d9db68a42ec7955ec8c7e36a94bca90b", "rental_uris": {"android": "https://dc.lft.to/lastmile_qr_scan", "ios": "https://dc.lft.to/lastmile_qr_scan"}, "name": "d9db68a42ec7955ec8c7e36a94bca90b", "is_reserved": 0}, {"is_disabled": 0, "fusion_lon": 0.0, "fusion_lat": 0.0, "lat": 38.955473, "type": "electric_bike", "lon": -76.93532766666667, "bike_id": "ba84237afe2b6770c11d104d73814ef4", "rental_uris": {"android": "https://dc.lft.to/lastmile_qr_scan", "ios": "https://dc.lft.to/lastmile_qr_scan"}, "name": "ba84237afe2b6770c11d104d73814ef4", "is_reserved": 0}, {"is_disabled": 0, "fusion_lon": 0.0, "fusion_lat": 0.0, "lat": 38.902722833333335, "type": "electric_scooter", "lon": -77.0345335, "bike_id": "33a8ac57303400459edceff26e50551f", "rental_uris": {"android": "https://dc.lft.to/lastmile_qr_scan", "ios": "https://dc.lft.to/lastmile_qr_scan"}, "name": "33a8ac57303400459edceff26e50551f", "is_reserved": 0}, {"is_disabled": 0, "fusion_lon": 0.0, "fusion_lat": 0.0, "lat": 38.913410999999996, "type": "electric_scooter", "lon": -77.0485855, "bike_id": "f9794550e43751e02bc533fd8ac5c4bc", "rental_uris": {"android": "https://dc.lft.to/lastmile_qr_scan", "ios": "https://dc.lft.to/lastmile_qr_scan"}, "name": "f9794550e43751e02bc533fd8ac5c4bc", "is_reserved": 0}, {"is_disabled": 0, "fusion_lon": 0.0, "fusion_lat": 0.0, "lat": 38.8332275, "type": "electric_scooter", "lon": -77.00002716666667, "bike_id": "8adbae54d2d87a48716d55a591014678", "rental_uris": {"android": "https://dc.lft.to/lastmile_qr_scan", "ios": "https://dc.lft.to/lastmile_qr_scan"}, "name": "8adbae54d2d87a48716d55a591014678", "is_reserved": 0}, {"is_disabled": 0, "fusion_lon": 0.0, "fusion_lat": 0.0, "lat": 38.9517585, "type": "electric_scooter", "lon": -77.05656266666666, "bike_id": "fd9bf2ef565f64c4f3202fb24cb7811b", "rental_uris": {"android": "https://dc.lft.to/lastmile_qr_scan", "ios": "https://dc.lft.to/lastmile_qr_scan"}, "name": "fd9bf2ef565f64c4f3202fb24cb7811b", "is_reserved": 0}, {"is_disabled": 0, "fusion_lon": 0.0, "fusion_lat": 0.0, "lat": 38.928251333333336, "type": "electric_scooter", "lon": -77.03717283333333, "bike_id": "9b632168d10d57b16956d9909f1ee47f", "rental_uris": {"android": "https://dc.lft.to/lastmile_qr_scan", "ios": "https://dc.lft.to/lastmile_qr_scan"}, "name": "9b632168d10d57b16956d9909f1ee47f", "is_reserved": 0}, {"is_disabled": 0, "fusion_lon": 0.0, "fusion_lat": 0.0, "lat": 38.876596666666664, "type": "electric_scooter", "lon": -77.0039885, "bike_id": "33abe7552c84af11367344bd0f0f5245", "rental_uris": {"android": "https://dc.lft.to/lastmile_qr_scan", "ios": "https://dc.lft.to/lastmile_qr_scan"}, "name": "33abe7552c84af11367344bd0f0f5245", "is_reserved": 0}, {"is_disabled": 0, "fusion_lon": 0.0, "fusion_lat": 0.0, "lat": 38.92589183333333, "type": "electric_scooter", "lon": -77.05537233333334, "bike_id": "0511a5fc54051af531f9c3daf2945252", "rental_uris": {"android": "https://dc.lft.to/lastmile_qr_scan", "ios": "https://dc.lft.to/lastmile_qr_scan"}, "name": "0511a5fc54051af531f9c3daf2945252", "is_reserved": 0}, {"is_disabled": 0, "fusion_lon": 0.0, "fusion_lat": 0.0, "lat": 38.82874533333333, "type": "electric_bike", "lon": -77.1122265, "bike_id": "2860f4fb17c74682ee04aec20138397d", "rental_uris": {"android": "https://dc.lft.to/lastmile_qr_scan", "ios": "https://dc.lft.to/lastmile_qr_scan"}, "name": "2860f4fb17c74682ee04aec20138397d", "is_reserved": 0}, {"is_disabled": 0, "fusion_lon": 0.0, "fusion_lat": 0.0, "lat": 38.92865233333333, "type": "electric_scooter", "lon": -77.0140305, "bike_id": "c11b03379131e0a1bf6e1c41ed6d7290", "rental_uris": {"android": "https://dc.lft.to/lastmile_qr_scan", "ios": "https://dc.lft.to/lastmile_qr_scan"}, "name": "c11b03379131e0a1bf6e1c41ed6d7290", "is_reserved": 0}, {"is_disabled": 0, "fusion_lon": 0.0, "fusion_lat": 0.0, "lat": 38.84198116666666, "type": "electric_bike", "lon": -77.10685383333333, "bike_id": "d8c44c3352601f243bb0fdf95687160d", "rental_uris": {"android": "https://dc.lft.to/lastmile_qr_scan", "ios": "https://dc.lft.to/lastmile_qr_scan"}, "name": "d8c44c3352601f243bb0fdf95687160d", "is_reserved": 0}, {"is_disabled": 0, "fusion_lon": 0.0, "fusion_lat": 0.0, "lat": 38.892278833333336, "type": "electric_scooter", "lon": -77.04659533333333, "bike_id": "cff6e0ef1f2faadf192529bdc696c025", "rental_uris": {"android": "https://dc.lft.to/lastmile_qr_scan", "ios": "https://dc.lft.to/lastmile_qr_scan"}, "name": "cff6e0ef1f2faadf192529bdc696c025", "is_reserved": 0}, {"is_disabled": 0, "fusion_lon": 0.0, "fusion_lat": 0.0, "lat": 38.9125975, "type": "electric_scooter", "lon": -77.047874, "bike_id": "a434f8aa363511ccb4d819d7623c49c1", "rental_uris": {"android": "https://dc.lft.to/lastmile_qr_scan", "ios": "https://dc.lft.to/lastmile_qr_scan"}, "name": "a434f8aa363511ccb4d819d7623c49c1", "is_reserved": 0}, {"is_disabled": 0, "fusion_lon": 0.0, "fusion_lat": 0.0, "lat": 38.89730216666667, "type": "electric_scooter", "lon": -77.02606683333333, "bike_id": "584923b38bfa9a0f74f5e3a2d77c4de4", "rental_uris": {"android": "https://dc.lft.to/lastmile_qr_scan", "ios": "https://dc.lft.to/lastmile_qr_scan"}, "name": "584923b38bfa9a0f74f5e3a2d77c4de4", "is_reserved": 0}, {"is_disabled": 0, "fusion_lon": 0.0, "fusion_lat": 0.0, "lat": 38.85808566666667, "type": "electric_scooter", "lon": -76.98654933333333, "bike_id": "b914f0e7b4225a70839ad353d8e92a41", "rental_uris": {"android": "https://dc.lft.to/lastmile_qr_scan", "ios": "https://dc.lft.to/lastmile_qr_scan"}, "name": "b914f0e7b4225a70839ad353d8e92a41", "is_reserved": 0}, {"is_disabled": 0, "fusion_lon": 0.0, "fusion_lat": 0.0, "lat": 38.91305033333333, "type": "electric_bike", "lon": -77.02177166666667, "bike_id": "2cbfb58b7bcac0954b6c6fb7d2f923f1", "rental_uris": {"android": "https://dc.lft.to/lastmile_qr_scan", "ios": "https://dc.lft.to/lastmile_qr_scan"}, "name": "2cbfb58b7bcac0954b6c6fb7d2f923f1", "is_reserved": 0}, {"is_disabled": 0, "fusion_lon": 0.0, "fusion_lat": 0.0, "lat": 38.90123416666667, "type": "electric_scooter", "lon": -77.01192783333333, "bike_id": "4966fb63bf0596421fb40e0257461805", "rental_uris": {"android": "https://dc.lft.to/lastmile_qr_scan", "ios": "https://dc.lft.to/lastmile_qr_scan"}, "name": "4966fb63bf0596421fb40e0257461805", "is_reserved": 0}, {"is_disabled": 0, "fusion_lon": 0.0, "fusion_lat": 0.0, "lat": 38.912562, "type": "electric_scooter", "lon": -77.01695583333333, "bike_id": "050991914a97260d413d5d3cd3311d72", "rental_uris": {"android": "https://dc.lft.to/lastmile_qr_scan", "ios": "https://dc.lft.to/lastmile_qr_scan"}, "name": "050991914a97260d413d5d3cd3311d72", "is_reserved": 0}, {"is_disabled": 0, "fusion_lon": 0.0, "fusion_lat": 0.0, "lat": 38.89519583333333, "type": "electric_scooter", "lon": -77.0293775, "bike_id": "bdc0888a833468396275d8584e470f16", "rental_uris": {"android": "https://dc.lft.to/lastmile_qr_scan", "ios": "https://dc.lft.to/lastmile_qr_scan"}, "name": "bdc0888a833468396275d8584e470f16", "is_reserved": 0}, {"is_disabled": 0, "fusion_lon": 0.0, "fusion_lat": 0.0, "lat": 38.96761683333333, "type": "electric_bike", "lon": -77.09157383333333, "bike_id": "57d0109dcf2c3c90dd3a136a17e27618", "rental_uris": {"android": "https://dc.lft.to/lastmile_qr_scan", "ios": "https://dc.lft.to/lastmile_qr_scan"}, "name": "57d0109dcf2c3c90dd3a136a17e27618", "is_reserved": 0}, {"is_disabled": 0, "fusion_lon": 0.0, "fusion_lat": 0.0, "lat": 38.90726033333333, "type": "electric_scooter", "lon": -77.04673216666667, "bike_id": "262aedc62f3facd9a0a2a52db290c97c", "rental_uris": {"android": "https://dc.lft.to/lastmile_qr_scan", "ios": "https://dc.lft.to/lastmile_qr_scan"}, "name": "262aedc62f3facd9a0a2a52db290c97c", "is_reserved": 0}, {"is_disabled": 0, "fusion_lon": 0.0, "fusion_lat": 0.0, "lat": 38.999141333333334, "type": "electric_bike", "lon": -77.02863933333333, "bike_id": "bb5cdda1a66bd0141d8991e18c071712", "rental_uris": {"android": "https://dc.lft.to/lastmile_qr_scan", "ios": "https://dc.lft.to/lastmile_qr_scan"}, "name": "bb5cdda1a66bd0141d8991e18c071712", "is_reserved": 0}, {"is_disabled": 0, "fusion_lon": 0.0, "fusion_lat": 0.0, "lat": 38.9313035, "type": "electric_scooter", "lon": -77.0280215, "bike_id": "aea88db6da1badc9475023844df7982e", "rental_uris": {"android": "https://dc.lft.to/lastmile_qr_scan", "ios": "https://dc.lft.to/lastmile_qr_scan"}, "name": "aea88db6da1badc9475023844df7982e", "is_reserved": 0}, {"is_disabled": 0, "fusion_lon": 0.0, "fusion_lat": 0.0, "lat": 38.88890116666666, "type": "electric_scooter", "lon": -77.01552483333333, "bike_id": "4adf07ad33bba41f3a61a73ad5859841", "rental_uris": {"android": "https://dc.lft.to/lastmile_qr_scan", "ios": "https://dc.lft.to/lastmile_qr_scan"}, "name": "4adf07ad33bba41f3a61a73ad5859841", "is_reserved": 0}, {"is_disabled": 0, "fusion_lon": 0.0, "fusion_lat": 0.0, "lat": 38.8979935, "type": "electric_scooter", "lon": -76.9305545, "bike_id": "9293a66d3a301361780819cbdacbd0fd", "rental_uris": {"android": "https://dc.lft.to/lastmile_qr_scan", "ios": "https://dc.lft.to/lastmile_qr_scan"}, "name": "9293a66d3a301361780819cbdacbd0fd", "is_reserved": 0}, {"is_disabled": 0, "fusion_lon": 0.0, "fusion_lat": 0.0, "lat": 38.952710833333335, "type": "electric_bike", "lon": -77.069829, "bike_id": "d911cb6db2a460c24febb0f819af0445", "rental_uris": {"android": "https://dc.lft.to/lastmile_qr_scan", "ios": "https://dc.lft.to/lastmile_qr_scan"}, "name": "d911cb6db2a460c24febb0f819af0445", "is_reserved": 0}, {"is_disabled": 0, "fusion_lon": 0.0, "fusion_lat": 0.0, "lat": 38.9241575, "type": "electric_scooter", "lon": -77.03551933333334, "bike_id": "7201c3bf2065daba07932eb53d7b4976", "rental_uris": {"android": "https://dc.lft.to/lastmile_qr_scan", "ios": "https://dc.lft.to/lastmile_qr_scan"}, "name": "7201c3bf2065daba07932eb53d7b4976", "is_reserved": 0}, {"is_disabled": 0, "fusion_lon": 0.0, "fusion_lat": 0.0, "lat": 38.89245583333334, "type": "electric_scooter", "lon": -77.046628, "bike_id": "07bc9aeae7db46af2298009a7cd4014f", "rental_uris": {"android": "https://dc.lft.to/lastmile_qr_scan", "ios": "https://dc.lft.to/lastmile_qr_scan"}, "name": "07bc9aeae7db46af2298009a7cd4014f", "is_reserved": 0}, {"is_disabled": 0, "fusion_lon": 0.0, "fusion_lat": 0.0, "lat": 38.9874935, "type": "electric_bike", "lon": -77.027195, "bike_id": "24c19734a6e661f9933f438a97d9c9d6", "rental_uris": {"android": "https://dc.lft.to/lastmile_qr_scan", "ios": "https://dc.lft.to/lastmile_qr_scan"}, "name": "24c19734a6e661f9933f438a97d9c9d6", "is_reserved": 0}, {"is_disabled": 0, "fusion_lon": 0.0, "fusion_lat": 0.0, "lat": 38.924838, "type": "electric_scooter", "lon": -77.02726016666666, "bike_id": "63d5e5fc88fad15c34deb9f83f400920", "rental_uris": {"android": "https://dc.lft.to/lastmile_qr_scan", "ios": "https://dc.lft.to/lastmile_qr_scan"}, "name": "63d5e5fc88fad15c34deb9f83f400920", "is_reserved": 0}, {"is_disabled": 0, "fusion_lon": 0.0, "fusion_lat": 0.0, "lat": 38.831555333333334, "type": "electric_bike", "lon": -76.99693916666666, "bike_id": "90405c835ee7c99e03e37f90a5199b39", "rental_uris": {"android": "https://dc.lft.to/lastmile_qr_scan", "ios": "https://dc.lft.to/lastmile_qr_scan"}, "name": "90405c835ee7c99e03e37f90a5199b39", "is_reserved": 0}, {"is_disabled": 0, "fusion_lon": 0.0, "fusion_lat": 0.0, "lat": 38.953123833333336, "type": "electric_scooter", "lon": -77.03602533333333, "bike_id": "dfa21dce56b82234583b33834adf3675", "rental_uris": {"android": "https://dc.lft.to/lastmile_qr_scan", "ios": "https://dc.lft.to/lastmile_qr_scan"}, "name": "dfa21dce56b82234583b33834adf3675", "is_reserved": 0}, {"is_disabled": 0, "fusion_lon": 0.0, "fusion_lat": 0.0, "lat": 38.95756166666666, "type": "electric_bike", "lon": -77.02054533333333, "bike_id": "c3c05860dbab39fdd775006de0a0d943", "rental_uris": {"android": "https://dc.lft.to/lastmile_qr_scan", "ios": "https://dc.lft.to/lastmile_qr_scan"}, "name": "c3c05860dbab39fdd775006de0a0d943", "is_reserved": 0}, {"is_disabled": 0, "fusion_lon": 0.0, "fusion_lat": 0.0, "lat": 38.899762833333334, "type": "electric_scooter", "lon": -77.01608066666667, "bike_id": "a02c40a0cca3613deda136b87d7e467c", "rental_uris": {"android": "https://dc.lft.to/lastmile_qr_scan", "ios": "https://dc.lft.to/lastmile_qr_scan"}, "name": "a02c40a0cca3613deda136b87d7e467c", "is_reserved": 0}, {"is_disabled": 0, "fusion_lon": 0.0, "fusion_lat": 0.0, "lat": 38.949815666666666, "type": "electric_scooter", "lon": -77.02703933333333, "bike_id": "a46d8e02d48991fdeec46152aa9e83ad", "rental_uris": {"android": "https://dc.lft.to/lastmile_qr_scan", "ios": "https://dc.lft.to/lastmile_qr_scan"}, "name": "a46d8e02d48991fdeec46152aa9e83ad", "is_reserved": 0}, {"is_disabled": 0, "fusion_lon": 0.0, "fusion_lat": 0.0, "lat": 38.896026166666665, "type": "electric_scooter", "lon": -77.01115933333334, "bike_id": "30af29fa80bab271431fb1dcd574566a", "rental_uris": {"android": "https://dc.lft.to/lastmile_qr_scan", "ios": "https://dc.lft.to/lastmile_qr_scan"}, "name": "30af29fa80bab271431fb1dcd574566a", "is_reserved": 0}, {"is_disabled": 0, "fusion_lon": 0.0, "fusion_lat": 0.0, "lat": 38.906010333333334, "type": "electric_scooter", "lon": -77.00747766666667, "bike_id": "3206d9591361dc810c088d63d18f9bae", "rental_uris": {"android": "https://dc.lft.to/lastmile_qr_scan", "ios": "https://dc.lft.to/lastmile_qr_scan"}, "name": "3206d9591361dc810c088d63d18f9bae", "is_reserved": 0}, {"is_disabled": 0, "fusion_lon": 0.0, "fusion_lat": 0.0, "lat": 38.9563115, "type": "electric_scooter", "lon": -77.02981783333334, "bike_id": "4ae7177c30423645c4dfb3e6096480d6", "rental_uris": {"android": "https://dc.lft.to/lastmile_qr_scan", "ios": "https://dc.lft.to/lastmile_qr_scan"}, "name": "4ae7177c30423645c4dfb3e6096480d6", "is_reserved": 0}, {"is_disabled": 0, "fusion_lon": 0.0, "fusion_lat": 0.0, "lat": 38.91606866666667, "type": "electric_scooter", "lon": -77.0248405, "bike_id": "9acfba303ec783d04aed944f1794b580", "rental_uris": {"android": "https://dc.lft.to/lastmile_qr_scan", "ios": "https://dc.lft.to/lastmile_qr_scan"}, "name": "9acfba303ec783d04aed944f1794b580", "is_reserved": 0}, {"is_disabled": 0, "fusion_lon": 0.0, "fusion_lat": 0.0, "lat": 38.880785833333334, "type": "electric_scooter", "lon": -77.0065805, "bike_id": "8bb5d3435daa2f562994c16ba208c0bb", "rental_uris": {"android": "https://dc.lft.to/lastmile_qr_scan", "ios": "https://dc.lft.to/lastmile_qr_scan"}, "name": "8bb5d3435daa2f562994c16ba208c0bb", "is_reserved": 0}, {"is_disabled": 0, "fusion_lon": 0.0, "fusion_lat": 0.0, "lat": 38.906533333333336, "type": "electric_scooter", "lon": -77.0271125, "bike_id": "2b26d57fb0b33eae1ef3c23e20807b8a", "rental_uris": {"android": "https://dc.lft.to/lastmile_qr_scan", "ios": "https://dc.lft.to/lastmile_qr_scan"}, "name": "2b26d57fb0b33eae1ef3c23e20807b8a", "is_reserved": 0}, {"is_disabled": 0, "fusion_lon": 0.0, "fusion_lat": 0.0, "lat": 38.850665666666664, "type": "electric_bike", "lon": -76.97328883333333, "bike_id": "a54c21f1346794ce69c20e0e28144a7b", "rental_uris": {"android": "https://dc.lft.to/lastmile_qr_scan", "ios": "https://dc.lft.to/lastmile_qr_scan"}, "name": "a54c21f1346794ce69c20e0e28144a7b", "is_reserved": 0}, {"is_disabled": 0, "fusion_lon": 0.0, "fusion_lat": 0.0, "lat": 38.952025, "type": "electric_bike", "lon": -77.02370316666666, "bike_id": "951e56f9f0f017c63628122d1cc53ed9", "rental_uris": {"android": "https://dc.lft.to/lastmile_qr_scan", "ios": "https://dc.lft.to/lastmile_qr_scan"}, "name": "951e56f9f0f017c63628122d1cc53ed9", "is_reserved": 0}, {"is_disabled": 0, "fusion_lon": 0.0, "fusion_lat": 0.0, "lat": 38.928396166666666, "type": "electric_bike", "lon": -77.02065516666667, "bike_id": "5c33c0fa2db524c790438c1734ad40af", "rental_uris": {"android": "https://dc.lft.to/lastmile_qr_scan", "ios": "https://dc.lft.to/lastmile_qr_scan"}, "name": "5c33c0fa2db524c790438c1734ad40af", "is_reserved": 0}, {"is_disabled": 0, "fusion_lon": 0.0, "fusion_lat": 0.0, "lat": 38.91383966666667, "type": "electric_scooter", "lon": -77.03851116666667, "bike_id": "2185cdb5ff1da745fa67a885a39f3d7d", "rental_uris": {"android": "https://dc.lft.to/lastmile_qr_scan", "ios": "https://dc.lft.to/lastmile_qr_scan"}, "name": "2185cdb5ff1da745fa67a885a39f3d7d", "is_reserved": 0}, {"is_disabled": 0, "fusion_lon": 0.0, "fusion_lat": 0.0, "lat": 38.90537033333333, "type": "electric_scooter", "lon": -77.05119633333334, "bike_id": "99c23f3ba30c2d5b3b922b1281f617a1", "rental_uris": {"android": "https://dc.lft.to/lastmile_qr_scan", "ios": "https://dc.lft.to/lastmile_qr_scan"}, "name": "99c23f3ba30c2d5b3b922b1281f617a1", "is_reserved": 0}, {"is_disabled": 0, "fusion_lon": 0.0, "fusion_lat": 0.0, "lat": 38.90941483333334, "type": "electric_bike", "lon": -76.99760283333333, "bike_id": "057cf35f06d8f7e909b4f1ed033d9f66", "rental_uris": {"android": "https://dc.lft.to/lastmile_qr_scan", "ios": "https://dc.lft.to/lastmile_qr_scan"}, "name": "057cf35f06d8f7e909b4f1ed033d9f66", "is_reserved": 0}, {"is_disabled": 0, "fusion_lon": 0.0, "fusion_lat": 0.0, "lat": 38.881205, "type": "electric_scooter", "lon": -76.9959965, "bike_id": "2378709c19ed2a0a2d7f56780d0e2235", "rental_uris": {"android": "https://dc.lft.to/lastmile_qr_scan", "ios": "https://dc.lft.to/lastmile_qr_scan"}, "name": "2378709c19ed2a0a2d7f56780d0e2235", "is_reserved": 0}, {"is_disabled": 0, "fusion_lon": 0.0, "fusion_lat": 0.0, "lat": 38.860430666666666, "type": "electric_bike", "lon": -77.05632116666666, "bike_id": "849b3a7e338526aa572def8213eda165", "rental_uris": {"android": "https://dc.lft.to/lastmile_qr_scan", "ios": "https://dc.lft.to/lastmile_qr_scan"}, "name": "849b3a7e338526aa572def8213eda165", "is_reserved": 0}, {"is_disabled": 0, "fusion_lon": 0.0, "fusion_lat": 0.0, "lat": 38.934918333333336, "type": "electric_scooter", "lon": -77.0241015, "bike_id": "139d153291f33fd2e9b8fd0b4d56a47b", "rental_uris": {"android": "https://dc.lft.to/lastmile_qr_scan", "ios": "https://dc.lft.to/lastmile_qr_scan"}, "name": "139d153291f33fd2e9b8fd0b4d56a47b", "is_reserved": 0}, {"is_disabled": 0, "fusion_lon": 0.0, "fusion_lat": 0.0, "lat": 38.901376, "type": "electric_scooter", "lon": -77.04158133333334, "bike_id": "91124d7ecc92c0bdec0f90012cfa284b", "rental_uris": {"android": "https://dc.lft.to/lastmile_qr_scan", "ios": "https://dc.lft.to/lastmile_qr_scan"}, "name": "91124d7ecc92c0bdec0f90012cfa284b", "is_reserved": 0}, {"is_disabled": 0, "fusion_lon": 0.0, "fusion_lat": 0.0, "lat": 38.936395, "type": "electric_bike", "lon": -77.0369665, "bike_id": "10a2b0b9ec587e06808b6e85555b441b", "rental_uris": {"android": "https://dc.lft.to/lastmile_qr_scan", "ios": "https://dc.lft.to/lastmile_qr_scan"}, "name": "10a2b0b9ec587e06808b6e85555b441b", "is_reserved": 0}, {"is_disabled": 0, "fusion_lon": 0.0, "fusion_lat": 0.0, "lat": 38.9133015, "type": "electric_scooter", "lon": -77.032463, "bike_id": "3ce964f230abfc5764fe46711decbe46", "rental_uris": {"android": "https://dc.lft.to/lastmile_qr_scan", "ios": "https://dc.lft.to/lastmile_qr_scan"}, "name": "3ce964f230abfc5764fe46711decbe46", "is_reserved": 0}, {"is_disabled": 0, "fusion_lon": 0.0, "fusion_lat": 0.0, "lat": 38.8919185, "type": "electric_scooter", "lon": -76.98833733333333, "bike_id": "6b74ef5795afce1b396e1ae7dc241fe9", "rental_uris": {"android": "https://dc.lft.to/lastmile_qr_scan", "ios": "https://dc.lft.to/lastmile_qr_scan"}, "name": "6b74ef5795afce1b396e1ae7dc241fe9", "is_reserved": 0}, {"is_disabled": 0, "fusion_lon": 0.0, "fusion_lat": 0.0, "lat": 38.901999333333336, "type": "electric_scooter", "lon": -77.06115233333334, "bike_id": "1ac83d1eff020b23e9cf77dc264019b1", "rental_uris": {"android": "https://dc.lft.to/lastmile_qr_scan", "ios": "https://dc.lft.to/lastmile_qr_scan"}, "name": "1ac83d1eff020b23e9cf77dc264019b1", "is_reserved": 0}, {"is_disabled": 0, "fusion_lon": 0.0, "fusion_lat": 0.0, "lat": 38.902179833333335, "type": "electric_scooter", "lon": -77.023712, "bike_id": "cab1f3b9f58f9b8171e8f004706fb2f6", "rental_uris": {"android": "https://dc.lft.to/lastmile_qr_scan", "ios": "https://dc.lft.to/lastmile_qr_scan"}, "name": "cab1f3b9f58f9b8171e8f004706fb2f6", "is_reserved": 0}, {"is_disabled": 0, "fusion_lon": 0.0, "fusion_lat": 0.0, "lat": 38.88852116666666, "type": "electric_bike", "lon": -76.9770285, "bike_id": "a6ba0145131dc5ae04506ce73e0bd063", "rental_uris": {"android": "https://dc.lft.to/lastmile_qr_scan", "ios": "https://dc.lft.to/lastmile_qr_scan"}, "name": "a6ba0145131dc5ae04506ce73e0bd063", "is_reserved": 0}, {"is_disabled": 0, "fusion_lon": 0.0, "fusion_lat": 0.0, "lat": 38.887449833333335, "type": "electric_scooter", "lon": -77.0143115, "bike_id": "3e342925d4efcaca84d43cb076bd33af", "rental_uris": {"android": "https://dc.lft.to/lastmile_qr_scan", "ios": "https://dc.lft.to/lastmile_qr_scan"}, "name": "3e342925d4efcaca84d43cb076bd33af", "is_reserved": 0}, {"is_disabled": 0, "fusion_lon": 0.0, "fusion_lat": 0.0, "lat": 39.05457083333334, "type": "electric_bike", "lon": -77.1432745, "bike_id": "53f8331155e23aca16b697298c31401b", "rental_uris": {"android": "https://dc.lft.to/lastmile_qr_scan", "ios": "https://dc.lft.to/lastmile_qr_scan"}, "name": "53f8331155e23aca16b697298c31401b", "is_reserved": 0}, {"is_disabled": 0, "fusion_lon": 0.0, "fusion_lat": 0.0, "lat": 38.8895955, "type": "electric_scooter", "lon": -76.99145816666666, "bike_id": "23cc2f827696d6b6aeec54f2ba2657bc", "rental_uris": {"android": "https://dc.lft.to/lastmile_qr_scan", "ios": "https://dc.lft.to/lastmile_qr_scan"}, "name": "23cc2f827696d6b6aeec54f2ba2657bc", "is_reserved": 0}, {"is_disabled": 0, "fusion_lon": 0.0, "fusion_lat": 0.0, "lat": 38.8938875, "type": "electric_scooter", "lon": -76.94996316666666, "bike_id": "f949798a7290314c40de926d25f90a92", "rental_uris": {"android": "https://dc.lft.to/lastmile_qr_scan", "ios": "https://dc.lft.to/lastmile_qr_scan"}, "name": "f949798a7290314c40de926d25f90a92", "is_reserved": 0}, {"is_disabled": 0, "fusion_lon": 0.0, "fusion_lat": 0.0, "lat": 38.94588733333333, "type": "electric_bike", "lon": -77.344075, "bike_id": "ad9959c2c95e1b420a252727ed9ec24b", "rental_uris": {"android": "https://dc.lft.to/lastmile_qr_scan", "ios": "https://dc.lft.to/lastmile_qr_scan"}, "name": "ad9959c2c95e1b420a252727ed9ec24b", "is_reserved": 0}, {"is_disabled": 0, "fusion_lon": 0.0, "fusion_lat": 0.0, "lat": 38.77619083333333, "type": "electric_bike", "lon": -77.0835435, "bike_id": "9c4775ba630fed7629d361b17f7708cd", "rental_uris": {"android": "https://dc.lft.to/lastmile_qr_scan", "ios": "https://dc.lft.to/lastmile_qr_scan"}, "name": "9c4775ba630fed7629d361b17f7708cd", "is_reserved": 0}, {"is_disabled": 0, "fusion_lon": 0.0, "fusion_lat": 0.0, "lat": 38.928368, "type": "electric_scooter", "lon": -77.055445, "bike_id": "2fa96f7e2ecd0eacdf23426a348d0ff2", "rental_uris": {"android": "https://dc.lft.to/lastmile_qr_scan", "ios": "https://dc.lft.to/lastmile_qr_scan"}, "name": "2fa96f7e2ecd0eacdf23426a348d0ff2", "is_reserved": 0}, {"is_disabled": 0, "fusion_lon": 0.0, "fusion_lat": 0.0, "lat": 38.86816533333333, "type": "electric_scooter", "lon": -77.01172016666666, "bike_id": "dd3245537c140bb9d3de37bd40d5354f", "rental_uris": {"android": "https://dc.lft.to/lastmile_qr_scan", "ios": "https://dc.lft.to/lastmile_qr_scan"}, "name": "dd3245537c140bb9d3de37bd40d5354f", "is_reserved": 0}, {"is_disabled": 0, "fusion_lon": 0.0, "fusion_lat": 0.0, "lat": 38.91034166666667, "type": "electric_scooter", "lon": -77.03799633333334, "bike_id": "447ebaf241d996b072fd8b52ea32d046", "rental_uris": {"android": "https://dc.lft.to/lastmile_qr_scan", "ios": "https://dc.lft.to/lastmile_qr_scan"}, "name": "447ebaf241d996b072fd8b52ea32d046", "is_reserved": 0}, {"is_disabled": 0, "fusion_lon": 0.0, "fusion_lat": 0.0, "lat": 38.897443333333335, "type": "electric_scooter", "lon": -77.04720216666666, "bike_id": "3b2221858a80d4835293515b55420a1f", "rental_uris": {"android": "https://dc.lft.to/lastmile_qr_scan", "ios": "https://dc.lft.to/lastmile_qr_scan"}, "name": "3b2221858a80d4835293515b55420a1f", "is_reserved": 0}, {"is_disabled": 0, "fusion_lon": 0.0, "fusion_lat": 0.0, "lat": 38.9176395, "type": "electric_scooter", "lon": -77.03187, "bike_id": "9ca66d68e0513f6b9ad7be6eb01451df", "rental_uris": {"android": "https://dc.lft.to/lastmile_qr_scan", "ios": "https://dc.lft.to/lastmile_qr_scan"}, "name": "9ca66d68e0513f6b9ad7be6eb01451df", "is_reserved": 0}, {"is_disabled": 0, "fusion_lon": 0.0, "fusion_lat": 0.0, "lat": 38.9084965, "type": "electric_scooter", "lon": -77.055078, "bike_id": "7ee7a3427ac8cfd738133057c7ccf6f0", "rental_uris": {"android": "https://dc.lft.to/lastmile_qr_scan", "ios": "https://dc.lft.to/lastmile_qr_scan"}, "name": "7ee7a3427ac8cfd738133057c7ccf6f0", "is_reserved": 0}, {"is_disabled": 0, "fusion_lon": 0.0, "fusion_lat": 0.0, "lat": 38.8982395, "type": "electric_scooter", "lon": -77.02962683333334, "bike_id": "e83834111888764e3b8a2b51bde27506", "rental_uris": {"android": "https://dc.lft.to/lastmile_qr_scan", "ios": "https://dc.lft.to/lastmile_qr_scan"}, "name": "e83834111888764e3b8a2b51bde27506", "is_reserved": 0}, {"is_disabled": 0, "fusion_lon": 0.0, "fusion_lat": 0.0, "lat": 38.91992716666667, "type": "electric_scooter", "lon": -76.98399716666667, "bike_id": "ac65be271e52022fa91205ded79f6c63", "rental_uris": {"android": "https://dc.lft.to/lastmile_qr_scan", "ios": "https://dc.lft.to/lastmile_qr_scan"}, "name": "ac65be271e52022fa91205ded79f6c63", "is_reserved": 0}, {"is_disabled": 0, "fusion_lon": 0.0, "fusion_lat": 0.0, "lat": 38.91774133333333, "type": "electric_scooter", "lon": -77.03185066666667, "bike_id": "6eb6308b57bf58fff317b7a70170c331", "rental_uris": {"android": "https://dc.lft.to/lastmile_qr_scan", "ios": "https://dc.lft.to/lastmile_qr_scan"}, "name": "6eb6308b57bf58fff317b7a70170c331", "is_reserved": 0}, {"is_disabled": 0, "fusion_lon": 0.0, "fusion_lat": 0.0, "lat": 38.865961, "type": "electric_bike", "lon": -76.93230716666666, "bike_id": "0ae1ebca63baa76d88b9cfe4850ec77e", "rental_uris": {"android": "https://dc.lft.to/lastmile_qr_scan", "ios": "https://dc.lft.to/lastmile_qr_scan"}, "name": "0ae1ebca63baa76d88b9cfe4850ec77e", "is_reserved": 0}, {"is_disabled": 0, "fusion_lon": 0.0, "fusion_lat": 0.0, "lat": 38.91557516666667, "type": "electric_scooter", "lon": -77.03873816666666, "bike_id": "58861b7eb88b8456b6805143906c82b8", "rental_uris": {"android": "https://dc.lft.to/lastmile_qr_scan", "ios": "https://dc.lft.to/lastmile_qr_scan"}, "name": "58861b7eb88b8456b6805143906c82b8", "is_reserved": 0}, {"is_disabled": 0, "fusion_lon": 0.0, "fusion_lat": 0.0, "lat": 38.89748216666667, "type": "electric_scooter", "lon": -77.05144616666666, "bike_id": "31611031630bab5bcece3e9e90ca730d", "rental_uris": {"android": "https://dc.lft.to/lastmile_qr_scan", "ios": "https://dc.lft.to/lastmile_qr_scan"}, "name": "31611031630bab5bcece3e9e90ca730d", "is_reserved": 0}, {"is_disabled": 0, "fusion_lon": 0.0, "fusion_lat": 0.0, "lat": 38.852106166666665, "type": "electric_bike", "lon": -77.12748016666667, "bike_id": "8bb320e643e84ff66cdddd89d8b1da06", "rental_uris": {"android": "https://dc.lft.to/lastmile_qr_scan", "ios": "https://dc.lft.to/lastmile_qr_scan"}, "name": "8bb320e643e84ff66cdddd89d8b1da06", "is_reserved": 0}, {"is_disabled": 0, "fusion_lon": 0.0, "fusion_lat": 0.0, "lat": 38.92160533333333, "type": "electric_scooter", "lon": -77.03206533333334, "bike_id": "8c496a41343712ef408051df5b37e69d", "rental_uris": {"android": "https://dc.lft.to/lastmile_qr_scan", "ios": "https://dc.lft.to/lastmile_qr_scan"}, "name": "8c496a41343712ef408051df5b37e69d", "is_reserved": 0}, {"is_disabled": 0, "fusion_lon": 0.0, "fusion_lat": 0.0, "lat": 38.944925166666664, "type": "electric_bike", "lon": -77.00684183333334, "bike_id": "c47e1f7d308b98c612da7ea7954372cd", "rental_uris": {"android": "https://dc.lft.to/lastmile_qr_scan", "ios": "https://dc.lft.to/lastmile_qr_scan"}, "name": "c47e1f7d308b98c612da7ea7954372cd", "is_reserved": 0}, {"is_disabled": 0, "fusion_lon": 0.0, "fusion_lat": 0.0, "lat": 38.897398333333335, "type": "electric_scooter", "lon": -77.04724933333334, "bike_id": "203b93ee7eb0d21a39bfdbbc4657938c", "rental_uris": {"android": "https://dc.lft.to/lastmile_qr_scan", "ios": "https://dc.lft.to/lastmile_qr_scan"}, "name": "203b93ee7eb0d21a39bfdbbc4657938c", "is_reserved": 0}, {"is_disabled": 0, "fusion_lon": 0.0, "fusion_lat": 0.0, "lat": 38.89249983333333, "type": "electric_scooter", "lon": -76.99850083333334, "bike_id": "9d8e8d7d97568717b956462ba424a0b8", "rental_uris": {"android": "https://dc.lft.to/lastmile_qr_scan", "ios": "https://dc.lft.to/lastmile_qr_scan"}, "name": "9d8e8d7d97568717b956462ba424a0b8", "is_reserved": 0}, {"is_disabled": 0, "fusion_lon": 0.0, "fusion_lat": 0.0, "lat": 38.91806583333333, "type": "electric_scooter", "lon": -77.03562233333334, "bike_id": "b458b2884ab0502d23512c6bfb5bc403", "rental_uris": {"android": "https://dc.lft.to/lastmile_qr_scan", "ios": "https://dc.lft.to/lastmile_qr_scan"}, "name": "b458b2884ab0502d23512c6bfb5bc403", "is_reserved": 0}, {"is_disabled": 0, "fusion_lon": 0.0, "fusion_lat": 0.0, "lat": 38.914031666666666, "type": "electric_scooter", "lon": -77.0130745, "bike_id": "8f7c52fc2aebff00cca5c2f88492b61f", "rental_uris": {"android": "https://dc.lft.to/lastmile_qr_scan", "ios": "https://dc.lft.to/lastmile_qr_scan"}, "name": "8f7c52fc2aebff00cca5c2f88492b61f", "is_reserved": 0}, {"is_disabled": 0, "fusion_lon": 0.0, "fusion_lat": 0.0, "lat": 38.919261666666664, "type": "electric_scooter", "lon": -77.03428966666667, "bike_id": "b8437a27a77e9e7a54fa2bc86220b225", "rental_uris": {"android": "https://dc.lft.to/lastmile_qr_scan", "ios": "https://dc.lft.to/lastmile_qr_scan"}, "name": "b8437a27a77e9e7a54fa2bc86220b225", "is_reserved": 0}, {"is_disabled": 0, "fusion_lon": 0.0, "fusion_lat": 0.0, "lat": 38.9155055, "type": "electric_scooter", "lon": -77.02368033333333, "bike_id": "5a4f14b65d3b2ba8bb4dabb5dc1aab84", "rental_uris": {"android": "https://dc.lft.to/lastmile_qr_scan", "ios": "https://dc.lft.to/lastmile_qr_scan"}, "name": "5a4f14b65d3b2ba8bb4dabb5dc1aab84", "is_reserved": 0}, {"is_disabled": 0, "fusion_lon": 0.0, "fusion_lat": 0.0, "lat": 38.89966733333333, "type": "electric_scooter", "lon": -76.987153, "bike_id": "f770a63abece2172cc6c93a110f7f224", "rental_uris": {"android": "https://dc.lft.to/lastmile_qr_scan", "ios": "https://dc.lft.to/lastmile_qr_scan"}, "name": "f770a63abece2172cc6c93a110f7f224", "is_reserved": 0}, {"is_disabled": 0, "fusion_lon": 0.0, "fusion_lat": 0.0, "lat": 38.898447, "type": "electric_scooter", "lon": -77.0292975, "bike_id": "c425f4a134e12816f54ab3ddddc2dc1e", "rental_uris": {"android": "https://dc.lft.to/lastmile_qr_scan", "ios": "https://dc.lft.to/lastmile_qr_scan"}, "name": "c425f4a134e12816f54ab3ddddc2dc1e", "is_reserved": 0}, {"is_disabled": 0, "fusion_lon": 0.0, "fusion_lat": 0.0, "lat": 38.9069595, "type": "electric_bike", "lon": -77.03583133333333, "bike_id": "f3edd5d3900df35f44877b4bed7f113e", "rental_uris": {"android": "https://dc.lft.to/lastmile_qr_scan", "ios": "https://dc.lft.to/lastmile_qr_scan"}, "name": "f3edd5d3900df35f44877b4bed7f113e", "is_reserved": 0}, {"is_disabled": 0, "fusion_lon": 0.0, "fusion_lat": 0.0, "lat": 38.914005, "type": "electric_scooter", "lon": -77.03758633333334, "bike_id": "bc84749096550b6f848a35c2ecc0fbac", "rental_uris": {"android": "https://dc.lft.to/lastmile_qr_scan", "ios": "https://dc.lft.to/lastmile_qr_scan"}, "name": "bc84749096550b6f848a35c2ecc0fbac", "is_reserved": 0}, {"is_disabled": 0, "fusion_lon": 0.0, "fusion_lat": 0.0, "lat": 38.912178, "type": "electric_scooter", "lon": -77.03840333333333, "bike_id": "618c36efc63ea497616aefb4da2fa7bc", "rental_uris": {"android": "https://dc.lft.to/lastmile_qr_scan", "ios": "https://dc.lft.to/lastmile_qr_scan"}, "name": "618c36efc63ea497616aefb4da2fa7bc", "is_reserved": 0}, {"is_disabled": 0, "fusion_lon": 0.0, "fusion_lat": 0.0, "lat": 38.89689, "type": "electric_scooter", "lon": -77.00492783333333, "bike_id": "66272bc619684605090101d06bebabf5", "rental_uris": {"android": "https://dc.lft.to/lastmile_qr_scan", "ios": "https://dc.lft.to/lastmile_qr_scan"}, "name": "66272bc619684605090101d06bebabf5", "is_reserved": 0}, {"is_disabled": 0, "fusion_lon": 0.0, "fusion_lat": 0.0, "lat": 38.8767495, "type": "electric_bike", "lon": -77.01448416666666, "bike_id": "6ee3b69ddc495356eb6c045a51064776", "rental_uris": {"android": "https://dc.lft.to/lastmile_qr_scan", "ios": "https://dc.lft.to/lastmile_qr_scan"}, "name": "6ee3b69ddc495356eb6c045a51064776", "is_reserved": 0}, {"is_disabled": 0, "fusion_lon": 0.0, "fusion_lat": 0.0, "lat": 39.0581085, "type": "electric_bike", "lon": -77.12625783333333, "bike_id": "00c27698cd836e965c29183cb64374f9", "rental_uris": {"android": "https://dc.lft.to/lastmile_qr_scan", "ios": "https://dc.lft.to/lastmile_qr_scan"}, "name": "00c27698cd836e965c29183cb64374f9", "is_reserved": 0}, {"is_disabled": 0, "fusion_lon": 0.0, "fusion_lat": 0.0, "lat": 38.94155766666667, "type": "electric_bike", "lon": -77.00189816666666, "bike_id": "e638c5497f8a3aca3f201be9df014920", "rental_uris": {"android": "https://dc.lft.to/lastmile_qr_scan", "ios": "https://dc.lft.to/lastmile_qr_scan"}, "name": "e638c5497f8a3aca3f201be9df014920", "is_reserved": 0}, {"is_disabled": 0, "fusion_lon": 0.0, "fusion_lat": 0.0, "lat": 38.92812883333333, "type": "electric_scooter", "lon": -77.02346833333333, "bike_id": "3964a2a53d8db850e4f7d7c95611444c", "rental_uris": {"android": "https://dc.lft.to/lastmile_qr_scan", "ios": "https://dc.lft.to/lastmile_qr_scan"}, "name": "3964a2a53d8db850e4f7d7c95611444c", "is_reserved": 0}, {"is_disabled": 0, "fusion_lon": 0.0, "fusion_lat": 0.0, "lat": 38.92967516666667, "type": "electric_scooter", "lon": -77.00539183333333, "bike_id": "cd3d64dd401340e7658fb37a9028193b", "rental_uris": {"android": "https://dc.lft.to/lastmile_qr_scan", "ios": "https://dc.lft.to/lastmile_qr_scan"}, "name": "cd3d64dd401340e7658fb37a9028193b", "is_reserved": 0}, {"is_disabled": 0, "fusion_lon": 0.0, "fusion_lat": 0.0, "lat": 38.91743133333333, "type": "electric_scooter", "lon": -77.01713266666667, "bike_id": "4ba128d2d6d007ade728731599c00d23", "rental_uris": {"android": "https://dc.lft.to/lastmile_qr_scan", "ios": "https://dc.lft.to/lastmile_qr_scan"}, "name": "4ba128d2d6d007ade728731599c00d23", "is_reserved": 0}, {"is_disabled": 0, "fusion_lon": 0.0, "fusion_lat": 0.0, "lat": 38.9021425, "type": "electric_scooter", "lon": -76.9821485, "bike_id": "578958fbe0177875f13c52ad7996dedc", "rental_uris": {"android": "https://dc.lft.to/lastmile_qr_scan", "ios": "https://dc.lft.to/lastmile_qr_scan"}, "name": "578958fbe0177875f13c52ad7996dedc", "is_reserved": 0}, {"is_disabled": 0, "fusion_lon": 0.0, "fusion_lat": 0.0, "lat": 38.8922285, "type": "electric_scooter", "lon": -77.0318515, "bike_id": "429df2be7400d45433bd1077d0379332", "rental_uris": {"android": "https://dc.lft.to/lastmile_qr_scan", "ios": "https://dc.lft.to/lastmile_qr_scan"}, "name": "429df2be7400d45433bd1077d0379332", "is_reserved": 0}, {"is_disabled": 0, "fusion_lon": 0.0, "fusion_lat": 0.0, "lat": 38.97061683333333, "type": "electric_bike", "lon": -76.96059333333334, "bike_id": "cd7587361a3d11315162c6ebe177ac56", "rental_uris": {"android": "https://dc.lft.to/lastmile_qr_scan", "ios": "https://dc.lft.to/lastmile_qr_scan"}, "name": "cd7587361a3d11315162c6ebe177ac56", "is_reserved": 0}, {"is_disabled": 0, "fusion_lon": 0.0, "fusion_lat": 0.0, "lat": 38.885704, "type": "electric_scooter", "lon": -77.0006595, "bike_id": "ab6d5aeb4c0ed9e99760b83382137b20", "rental_uris": {"android": "https://dc.lft.to/lastmile_qr_scan", "ios": "https://dc.lft.to/lastmile_qr_scan"}, "name": "ab6d5aeb4c0ed9e99760b83382137b20", "is_reserved": 0}, {"is_disabled": 0, "fusion_lon": 0.0, "fusion_lat": 0.0, "lat": 38.948267666666666, "type": "electric_scooter", "lon": -77.0282805, "bike_id": "f14036d179ee38357f71dc0a4d682525", "rental_uris": {"android": "https://dc.lft.to/lastmile_qr_scan", "ios": "https://dc.lft.to/lastmile_qr_scan"}, "name": "f14036d179ee38357f71dc0a4d682525", "is_reserved": 0}, {"is_disabled": 0, "fusion_lon": 0.0, "fusion_lat": 0.0, "lat": 38.917310666666665, "type": "electric_scooter", "lon": -76.991798, "bike_id": "688454d9164bc1b42124c354cad755fe", "rental_uris": {"android": "https://dc.lft.to/lastmile_qr_scan", "ios": "https://dc.lft.to/lastmile_qr_scan"}, "name": "688454d9164bc1b42124c354cad755fe", "is_reserved": 0}, {"is_disabled": 0, "fusion_lon": 0.0, "fusion_lat": 0.0, "lat": 38.901712333333336, "type": "electric_scooter", "lon": -76.99377266666667, "bike_id": "e3200275ee37bb2b86ebd6108c124932", "rental_uris": {"android": "https://dc.lft.to/lastmile_qr_scan", "ios": "https://dc.lft.to/lastmile_qr_scan"}, "name": "e3200275ee37bb2b86ebd6108c124932", "is_reserved": 0}, {"is_disabled": 0, "fusion_lon": 0.0, "fusion_lat": 0.0, "lat": 38.91188533333333, "type": "electric_scooter", "lon": -77.03835216666667, "bike_id": "c46d5ca4625c6d1f713aa33d4f880fdd", "rental_uris": {"android": "https://dc.lft.to/lastmile_qr_scan", "ios": "https://dc.lft.to/lastmile_qr_scan"}, "name": "c46d5ca4625c6d1f713aa33d4f880fdd", "is_reserved": 0}, {"is_disabled": 0, "fusion_lon": 0.0, "fusion_lat": 0.0, "lat": 38.8720815, "type": "electric_bike", "lon": -76.95485766666667, "bike_id": "08e492edc35298c6a3715521c7c23ce1", "rental_uris": {"android": "https://dc.lft.to/lastmile_qr_scan", "ios": "https://dc.lft.to/lastmile_qr_scan"}, "name": "08e492edc35298c6a3715521c7c23ce1", "is_reserved": 0}, {"is_disabled": 0, "fusion_lon": 0.0, "fusion_lat": 0.0, "lat": 38.912034, "type": "electric_scooter", "lon": -76.984909, "bike_id": "36ec39a8d5e10418eb3a79b9ae67ac08", "rental_uris": {"android": "https://dc.lft.to/lastmile_qr_scan", "ios": "https://dc.lft.to/lastmile_qr_scan"}, "name": "36ec39a8d5e10418eb3a79b9ae67ac08", "is_reserved": 0}, {"is_disabled": 0, "fusion_lon": 0.0, "fusion_lat": 0.0, "lat": 38.94805183333333, "type": "electric_bike", "lon": -76.97215333333334, "bike_id": "c8b989d74c79eb7890dcd50bd417eea4", "rental_uris": {"android": "https://dc.lft.to/lastmile_qr_scan", "ios": "https://dc.lft.to/lastmile_qr_scan"}, "name": "c8b989d74c79eb7890dcd50bd417eea4", "is_reserved": 0}, {"is_disabled": 0, "fusion_lon": 0.0, "fusion_lat": 0.0, "lat": 38.92172566666667, "type": "electric_scooter", "lon": -77.043489, "bike_id": "21a1dcb273456f6b5e609c2b8d07c9df", "rental_uris": {"android": "https://dc.lft.to/lastmile_qr_scan", "ios": "https://dc.lft.to/lastmile_qr_scan"}, "name": "21a1dcb273456f6b5e609c2b8d07c9df", "is_reserved": 0}, {"is_disabled": 0, "fusion_lon": 0.0, "fusion_lat": 0.0, "lat": 38.90335133333333, "type": "electric_bike", "lon": -76.97528083333333, "bike_id": "bed56dc45482e39b17f81ba4ce896e86", "rental_uris": {"android": "https://dc.lft.to/lastmile_qr_scan", "ios": "https://dc.lft.to/lastmile_qr_scan"}, "name": "bed56dc45482e39b17f81ba4ce896e86", "is_reserved": 0}, {"is_disabled": 0, "fusion_lon": 0.0, "fusion_lat": 0.0, "lat": 38.934939166666666, "type": "electric_scooter", "lon": -77.0272095, "bike_id": "e86d7a0bba126891d7ef364dd0a03628", "rental_uris": {"android": "https://dc.lft.to/lastmile_qr_scan", "ios": "https://dc.lft.to/lastmile_qr_scan"}, "name": "e86d7a0bba126891d7ef364dd0a03628", "is_reserved": 0}, {"is_disabled": 0, "fusion_lon": 0.0, "fusion_lat": 0.0, "lat": 38.9280395, "type": "electric_scooter", "lon": -77.05428116666667, "bike_id": "61ebc6a15f6ac13835c667cb0e156ffe", "rental_uris": {"android": "https://dc.lft.to/lastmile_qr_scan", "ios": "https://dc.lft.to/lastmile_qr_scan"}, "name": "61ebc6a15f6ac13835c667cb0e156ffe", "is_reserved": 0}, {"is_disabled": 0, "fusion_lon": 0.0, "fusion_lat": 0.0, "lat": 38.91605716666667, "type": "electric_scooter", "lon": -77.02342016666667, "bike_id": "78d729c3a946256d97c59128ffd6b4de", "rental_uris": {"android": "https://dc.lft.to/lastmile_qr_scan", "ios": "https://dc.lft.to/lastmile_qr_scan"}, "name": "78d729c3a946256d97c59128ffd6b4de", "is_reserved": 0}, {"is_disabled": 0, "fusion_lon": 0.0, "fusion_lat": 0.0, "lat": 38.88580783333333, "type": "electric_scooter", "lon": -77.01225883333333, "bike_id": "312f378478780fe1ce2d418ee0a5615e", "rental_uris": {"android": "https://dc.lft.to/lastmile_qr_scan", "ios": "https://dc.lft.to/lastmile_qr_scan"}, "name": "312f378478780fe1ce2d418ee0a5615e", "is_reserved": 0}, {"is_disabled": 0, "fusion_lon": 0.0, "fusion_lat": 0.0, "lat": 38.932547, "type": "electric_scooter", "lon": -77.02982816666666, "bike_id": "4834de7bda04830dcd9f88234fae8f14", "rental_uris": {"android": "https://dc.lft.to/lastmile_qr_scan", "ios": "https://dc.lft.to/lastmile_qr_scan"}, "name": "4834de7bda04830dcd9f88234fae8f14", "is_reserved": 0}, {"is_disabled": 0, "fusion_lon": 0.0, "fusion_lat": 0.0, "lat": 38.915605166666666, "type": "electric_scooter", "lon": -77.04101066666666, "bike_id": "c5b87b734b13f692773909515b1505ee", "rental_uris": {"android": "https://dc.lft.to/lastmile_qr_scan", "ios": "https://dc.lft.to/lastmile_qr_scan"}, "name": "c5b87b734b13f692773909515b1505ee", "is_reserved": 0}, {"is_disabled": 0, "fusion_lon": 0.0, "fusion_lat": 0.0, "lat": 38.90061933333333, "type": "electric_scooter", "lon": -77.04888116666666, "bike_id": "ad27d82021ea4ab072d2ec4ef3493d0b", "rental_uris": {"android": "https://dc.lft.to/lastmile_qr_scan", "ios": "https://dc.lft.to/lastmile_qr_scan"}, "name": "ad27d82021ea4ab072d2ec4ef3493d0b", "is_reserved": 0}, {"is_disabled": 0, "fusion_lon": 0.0, "fusion_lat": 0.0, "lat": 38.920551833333334, "type": "electric_scooter", "lon": -76.99886166666667, "bike_id": "c6f78819bd4c3ea370538ab7d83a29ff", "rental_uris": {"android": "https://dc.lft.to/lastmile_qr_scan", "ios": "https://dc.lft.to/lastmile_qr_scan"}, "name": "c6f78819bd4c3ea370538ab7d83a29ff", "is_reserved": 0}, {"is_disabled": 0, "fusion_lon": 0.0, "fusion_lat": 0.0, "lat": 38.9168955, "type": "electric_scooter", "lon": -77.029022, "bike_id": "789861153bfdfb1e0561904aab813b75", "rental_uris": {"android": "https://dc.lft.to/lastmile_qr_scan", "ios": "https://dc.lft.to/lastmile_qr_scan"}, "name": "789861153bfdfb1e0561904aab813b75", "is_reserved": 0}, {"is_disabled": 0, "fusion_lon": 0.0, "fusion_lat": 0.0, "lat": 38.99670716666667, "type": "electric_bike", "lon": -76.99145683333333, "bike_id": "e87b9c2b944363d120a487c15a083e6c", "rental_uris": {"android": "https://dc.lft.to/lastmile_qr_scan", "ios": "https://dc.lft.to/lastmile_qr_scan"}, "name": "e87b9c2b944363d120a487c15a083e6c", "is_reserved": 0},