{"data": {"bikes": [{"name": "088f3218880ac6005547993659a214cb", "is_reserved": 0, "type": "electric_scooter", "rental_uris": {"ios": "https://dc.lft.to/lastmile_qr_scan", "android": "https://dc.lft.to/lastmile_qr_scan"}, "lat": 38.890417166666666, "lon": -76.95147083333333, "bike_id": "088f3218880ac6005547993659a214cb", "fusion_lat": 0.0, "is_disabled": 0, "fusion_lon": 0.0}, {"name": "87898d601a8990a5b419b79450a8f95c", "is_reserved": 0, "type": "electric_bike", "rental_uris": {"ios": "https://dc.lft.to/lastmile_qr_scan", "android": "https://dc.lft.to/lastmile_qr_scan"}, "lat": 38.9492065, "lon": -76.97700916666666, "bike_id": "87898d601a8990a5b419b79450a8f95c", "fusion_lat": 0.0, "is_disabled": 0, "fusion_lon": 0.0}, {"name": "fd90cc7c0ce428a1db1312af0511d20b", "is_reserved": 0, "type": "electric_bike", "rental_uris": {"ios": "https://dc.lft.to/lastmile_qr_scan", "android": "https://dc.lft.to/lastmile_qr_scan"}, "lat": 38.93972266666667, "lon": -77.36089, "bike_id": "fd90cc7c0ce428a1db1312af0511d20b", "fusion_lat": 0.0, "is_disabled": 0, "fusion_lon": 0.0}, {"name": "d6cac9bd0a4892a8e71970068502708b", "is_reserved": 0, "type": "electric_scooter", "rental_uris": {"ios": "https://dc.lft.to/lastmile_qr_scan", "android": "https://dc.lft.to/lastmile_qr_scan"}, "lat": 38.92128, "lon": -76.993856, "bike_id": "d6cac9bd0a4892a8e71970068502708b", "fusion_lat": 0.0, "is_disabled": 0, "fusion_lon": 0.0}, {"name": "341968320ece1d923565a232701c149a", "is_reserved": 0, "type": "electric_scooter", "rental_uris": {"ios": "https://dc.lft.to/lastmile_qr_scan", "android": "https://dc.lft.to/lastmile_qr_scan"}, "lat": 38.899967333333336, "lon": -77.02894733333333, "bike_id": "341968320ece1d923565a232701c149a", "fusion_lat": 0.0, "is_disabled": 0, "fusion_lon": 0.0}, {"name": "1f53b78554984d1c072bb4a5cf8eafb5", "is_reserved": 0, "type": "electric_scooter", "rental_uris": {"ios": "https://dc.lft.to/lastmile_qr_scan", "android": "https://dc.lft.to/lastmile_qr_scan"}, "lat": 38.932012666666665, "lon": -77.03857366666666, "bike_id": "1f53b78554984d1c072bb4a5cf8eafb5", "fusion_lat": 0.0, "is_disabled": 0, "fusion_lon": 0.0}, {"name": "bf6d9d41550b660222504b35e7647850", "is_reserved": 0, "type": "electric_scooter", "rental_uris": {"ios": "https://dc.lft.to/lastmile_qr_scan", "android": "https://dc.lft.to/lastmile_qr_scan"}, "lat": 38.91196266666667, "lon": -77.0397375, "bike_id": "bf6d9d41550b660222504b35e7647850", "fusion_lat": 0.0, "is_disabled": 0, "fusion_lon": 0.0}, {"name": "48b8cf6b8550f8d3e32631e6894f8755", "is_reserved": 0, "type": "electric_bike", "rental_uris": {"ios": "https://dc.lft.to/lastmile_qr_scan", "android": "https://dc.lft.to/lastmile_qr_scan"}, "lat": 38.998363833333336, "lon": -76.8836925, "bike_id": "48b8cf6b8550f8d3e32631e6894f8755", "fusion_lat": 0.0, "is_disabled": 0, "fusion_lon": 0.0}, {"name": "7d51683497b75e858f816a45ebe51d55", "is_reserved": 0, "type": "electric_scooter", "rental_uris": {"ios": "https://dc.lft.to/lastmile_qr_scan", "android": "https://dc.lft.to/lastmile_qr_scan"}, "lat": 38.923109833333335, "lon": -77.03527733333334, "bike_id": "7d51683497b75e858f816a45ebe51d55", "fusion_lat": 0.0, "is_disabled": 0, "fusion_lon": 0.0}, {"name": "023bb2a907b926365260e5532c7ed193", "is_reserved": 0, "type": "electric_bike", "rental_uris": {"ios": "https://dc.lft.to/lastmile_qr_scan", "android": "https://dc.lft.to/lastmile_qr_scan"}, "lat": 38.962303666666664, "lon": -77.0262185, "bike_id": "023bb2a907b926365260e5532c7ed193", "fusion_lat": 0.0, "is_disabled": 0, "fusion_lon": 0.0}, {"name": "9bfd50bdb39eaaa9721018fd6f8317af", "is_reserved": 0, "type": "electric_scooter", "rental_uris": {"ios": "https://dc.lft.to/lastmile_qr_scan", "android": "https://dc.lft.to/lastmile_qr_scan"}, "lat": 38.9267985, "lon": -77.0074385, "bike_id": "9bfd50bdb39eaaa9721018fd6f8317af", "fusion_lat": 0.0, "is_disabled": 0, "fusion_lon": 0.0}, {"name": "d2d5428632680d793c7f6d2a6f7cf287", "is_reserved": 0, "type": "electric_scooter", "rental_uris": {"ios": "https://dc.lft.to/lastmile_qr_scan", "android": "https://dc.lft.to/lastmile_qr_scan"}, "lat": 38.966408333333334, "lon": -77.02000633333333, "bike_id": "d2d5428632680d793c7f6d2a6f7cf287", "fusion_lat": 0.0, "is_disabled": 0, "fusion_lon": 0.0}, {"name": "603ba41f7a21fd8bd4b8e4bb3f4efd88", "is_reserved": 0, "type": "electric_scooter", "rental_uris": {"ios": "https://dc.lft.to/lastmile_qr_scan", "android": "https://dc.lft.to/lastmile_qr_scan"}, "lat": 38.88331616666667, "lon": -77.0175225, "bike_id": "603ba41f7a21fd8bd4b8e4bb3f4efd88", "fusion_lat": 0.0, "is_disabled": 0, "fusion_lon": 0.0}, {"name": "49d69a6f5f5a83ec4dbd5b3caa41ff81", "is_reserved": 0, "type": "electric_scooter", "rental_uris": {"ios": "https://dc.lft.to/lastmile_qr_scan", "android": "https://dc.lft.to/lastmile_qr_scan"}, "lat": 38.920253333333335, "lon": -77.0397775, "bike_id": "49d69a6f5f5a83ec4dbd5b3caa41ff81", "fusion_lat": 0.0, "is_disabled": 0, "fusion_lon": 0.0}, {"name": "bce523f35e5a8913a0f522800b071c91", "is_reserved": 0, "type": "electric_scooter", "rental_uris": {"ios": "https://dc.lft.to/lastmile_qr_scan", "android": "https://dc.lft.to/lastmile_qr_scan"}, "lat": 38.917061333333336, "lon": -77.04187933333333, "bike_id": "bce523f35e5a8913a0f522800b071c91", "fusion_lat": 0.0, "is_disabled": 0, "fusion_lon": 0.0}, {"name": "383c6dce813f485ccc8baaccf0552ed6", "is_reserved": 0, "type": "electric_scooter", "rental_uris": {"ios": "https://dc.lft.to/lastmile_qr_scan", "android": "https://dc.lft.to/lastmile_qr_scan"}, "lat": 38.900197666666664, "lon": -77.03247816666666, "bike_id": "383c6dce813f485ccc8baaccf0552ed6", "fusion_lat": 0.0, "is_disabled": 0, "fusion_lon": 0.0}, {"name": "046c86c7af072d0492d31550971c0b08", "is_reserved": 0, "type": "electric_scooter", "rental_uris": {"ios": "https://dc.lft.to/lastmile_qr_scan", "android": "https://dc.lft.to/lastmile_qr_scan"}, "lat": 38.917956833333335, "lon": -77.0363565, "bike_id": "046c86c7af072d0492d31550971c0b08", "fusion_lat": 0.0, "is_disabled": 0, "fusion_lon": 0.0}, {"name": "6af1efb1453c09cf76e48f457980952b", "is_reserved": 0, "type": "electric_scooter", "rental_uris": {"ios": "https://dc.lft.to/lastmile_qr_scan", "android": "https://dc.lft.to/lastmile_qr_scan"}, "lat": 38.89082533333333, "lon": -76.98824, "bike_id": "6af1efb1453c09cf76e48f457980952b", "fusion_lat": 0.0, "is_disabled": 0, "fusion_lon": 0.0}, {"name": "84235863a62fbda74f2070b7611376a7", "is_reserved": 0, "type": "electric_bike", "rental_uris": {"ios": "https://dc.lft.to/lastmile_qr_scan", "android": "https://dc.lft.to/lastmile_qr_scan"}, "lat": 39.0550635, "lon": -77.0464895, "bike_id": "84235863a62fbda74f2070b7611376a7", "fusion_lat": 0.0, "is_disabled": 0, "fusion_lon": 0.0}, {"name": "6589afef630223ae18a2c045aa54fedf", "is_reserved": 0, "type": "electric_scooter", "rental_uris": {"ios": "https://dc.lft.to/lastmile_qr_scan", "android": "https://dc.lft.to/lastmile_qr_scan"}, "lat": 38.91803216666667, "lon": -77.03439216666666, "bike_id": "6589afef630223ae18a2c045aa54fedf", "fusion_lat": 0.0, "is_disabled": 0, "fusion_lon": 0.0}, {"name": "9fc3b839f43e1f5f009aaae66b245699", "is_reserved": 0, "type": "electric_scooter", "rental_uris": {"ios": "https://dc.lft.to/lastmile_qr_scan", "android": "https://dc.lft.to/lastmile_qr_scan"}, "lat": 38.87687566666666, "lon": -77.01756866666666, "bike_id": "9fc3b839f43e1f5f009aaae66b245699", "fusion_lat": 0.0, "is_disabled": 0, "fusion_lon": 0.0}, {"name": "3ea1f454db9a3e7f0642db6cac4e4038", "is_reserved": 0, "type": "electric_scooter", "rental_uris": {"ios": "https://dc.lft.to/lastmile_qr_scan", "android": "https://dc.lft.to/lastmile_qr_scan"}, "lat": 38.89617483333333, "lon": -76.9565985, "bike_id": "3ea1f454db9a3e7f0642db6cac4e4038", "fusion_lat": 0.0, "is_disabled": 0, "fusion_lon": 0.0}, {"name": "40f70cca6da317b384fd69e8dd877449", "is_reserved": 0, "type": "electric_bike", "rental_uris": {"ios": "https://dc.lft.to/lastmile_qr_scan", "android": "https://dc.lft.to/lastmile_qr_scan"}, "lat": 38.9316845, "lon": -76.884027, "bike_id": "40f70cca6da317b384fd69e8dd877449", "fusion_lat": 0.0, "is_disabled": 0, "fusion_lon": 0.0}, {"name": "859f201667c35f875b8425a49206e8e8", "is_reserved": 0, "type": "electric_scooter", "rental_uris": {"ios": "https://dc.lft.to/lastmile_qr_scan", "android": "https://dc.lft.to/lastmile_qr_scan"}, "lat": 38.919902, "lon": -77.01787183333333, "bike_id": "859f201667c35f875b8425a49206e8e8", "fusion_lat": 0.0, "is_disabled": 0, "fusion_lon": 0.0}, {"name": "094d9dad0af5c89fb9be49d75e679ba1", "is_reserved": 0, "type": "electric_bike", "rental_uris": {"ios": "https://dc.lft.to/lastmile_qr_scan", "android": "https://dc.lft.to/lastmile_qr_scan"}, "lat": 38.936373, "lon": -77.05884016666667, "bike_id": "094d9dad0af5c89fb9be49d75e679ba1", "fusion_lat": 0.0, "is_disabled": 0, "fusion_lon": 0.0}, {"name": "10c87355345203822f1fde9b1a74c59c", "is_reserved": 0, "type": "electric_scooter", "rental_uris": {"ios": "https://dc.lft.to/lastmile_qr_scan", "android": "https://dc.lft.to/lastmile_qr_scan"}, "lat": 38.974974, "lon": -77.01690916666666, "bike_id": "10c87355345203822f1fde9b1a74c59c", "fusion_lat": 0.0, "is_disabled": 0, "fusion_lon": 0.0}, {"name": "4eee94d3434e33612acde95ffd4eb040", "is_reserved": 0, "type": "electric_bike", "rental_uris": {"ios": "https://dc.lft.to/lastmile_qr_scan", "android": "https://dc.lft.to/lastmile_qr_scan"}, "lat": 38.943256, "lon": -76.96840833333333, "bike_id": "4eee94d3434e33612acde95ffd4eb040", "fusion_lat": 0.0, "is_disabled": 0, "fusion_lon": 0.0}, {"name": "535b70b8e6f2e1067b1043e3acf20464", "is_reserved": 0, "type": "electric_scooter", "rental_uris": {"ios": "https://dc.lft.to/lastmile_qr_scan", "android": "https://dc.lft.to/lastmile_qr_scan"}, "lat": 38.9038215, "lon": -77.04665283333334, "bike_id": "535b70b8e6f2e1067b1043e3acf20464", "fusion_lat": 0.0, "is_disabled": 0, "fusion_lon": 0.0}, {"name": "a6b8c6a76f00a02ca29a95aa5010d8b5", "is_reserved": 0, "type": "electric_scooter", "rental_uris": {"ios": "https://dc.lft.to/lastmile_qr_scan", "android": "https://dc.lft.to/lastmile_qr_scan"}, "lat": 38.849708666666665, "lon": -76.97347566666667, "bike_id": "a6b8c6a76f00a02ca29a95aa5010d8b5", "fusion_lat": 0.0, "is_disabled": 0, "fusion_lon": 0.0}, {"name": "d7d8cda9132f611171b32740079d6b5f", "is_reserved": 0, "type": "electric_scooter", "rental_uris": {"ios": "https://dc.lft.to/lastmile_qr_scan", "android": "https://dc.lft.to/lastmile_qr_scan"}, "lat": 38.872115, "lon": -77.016879, "bike_id": "d7d8cda9132f611171b32740079d6b5f", "fusion_lat": 0.0, "is_disabled": 0, "fusion_lon": 0.0}, {"name": "0d0a3e89e61da88f9f78040cd3aeade9", "is_reserved": 0, "type": "electric_scooter", "rental_uris": {"ios": "https://dc.lft.to/lastmile_qr_scan", "android": "https://dc.lft.to/lastmile_qr_scan"}, "lat": 38.9133915, "lon": -77.04734033333334, "bike_id": "0d0a3e89e61da88f9f78040cd3aeade9", "fusion_lat": 0.0, "is_disabled": 0, "fusion_lon": 0.0}, {"name": "fac3f0ff81956c929ee0f6cdf92ef560", "is_reserved": 0, "type": "electric_scooter", "rental_uris": {"ios": "https://dc.lft.to/lastmile_qr_scan", "android": "https://dc.lft.to/lastmile_qr_scan"}, "lat": 38.876900166666665, "lon": -77.01760133333333, "bike_id": "fac3f0ff81956c929ee0f6cdf92ef560", "fusion_lat": 0.0, "is_disabled": 0, "fusion_lon": 0.0}, {"name": "270545c768213e205ffe194d09c024ca", "is_reserved": 0, "type": "electric_scooter", "rental_uris": {"ios": "https://dc.lft.to/lastmile_qr_scan", "android": "https://dc.lft.to/lastmile_qr_scan"}, "lat": 38.90765783333333, "lon": -77.05953766666667, "bike_id": "270545c768213e205ffe194d09c024ca", "fusion_lat": 0.0, "is_disabled": 0, "fusion_lon": 0.0}, {"name": "c3d785e911f9e62bee9d463d23773713", "is_reserved": 0, "type": "electric_scooter", "rental_uris": {"ios": "https://dc.lft.to/lastmile_qr_scan", "android": "https://dc.lft.to/lastmile_qr_scan"}, "lat": 38.90972633333333, "lon": -77.02156333333333, "bike_id": "c3d785e911f9e62bee9d463d23773713", "fusion_lat": 0.0, "is_disabled": 0, "fusion_lon": 0.0}, {"name": "7663c1751e4ad09acc5114aff64d9954", "is_reserved": 0, "type": "electric_scooter", "rental_uris": {"ios": "https://dc.lft.to/lastmile_qr_scan", "android": "https://dc.lft.to/lastmile_qr_scan"}, "lat": 38.918764, "lon": -77.04478116666667, "bike_id": "7663c1751e4ad09acc5114aff64d9954", "fusion_lat": 0.0, "is_disabled": 0, "fusion_lon": 0.0}, {"name": "4de73df8846678d2d2a3e0389eb12831", "is_reserved": 0, "type": "electric_scooter", "rental_uris": {"ios": "https://dc.lft.to/lastmile_qr_scan", "android": "https://dc.lft.to/lastmile_qr_scan"}, "lat": 38.893773, "lon": -77.028157, "bike_id": "4de73df8846678d2d2a3e0389eb12831", "fusion_lat": 0.0, "is_disabled": 0, "fusion_lon": 0.0}, {"name": "c8e842c5c230fce27d8c28e90af18856", "is_reserved": 0, "type": "electric_scooter", "rental_uris": {"ios": "https://dc.lft.to/lastmile_qr_scan", "android": "https://dc.lft.to/lastmile_qr_scan"}, "lat": 38.89683866666667, "lon": -76.93610233333334, "bike_id": "c8e842c5c230fce27d8c28e90af18856", "fusion_lat": 0.0, "is_disabled": 0, "fusion_lon": 0.0}, {"name": "5aec9d5278cc62c9a0442315c96503c5", "is_reserved": 0, "type": "electric_scooter", "rental_uris": {"ios": "https://dc.lft.to/lastmile_qr_scan", "android": "https://dc.lft.to/lastmile_qr_scan"}, "lat": 38.896744166666664, "lon": -77.00509733333334, "bike_id": "5aec9d5278cc62c9a0442315c96503c5", "fusion_lat": 0.0, "is_disabled": 0, "fusion_lon": 0.0}, {"name": "ebb36c15fdd4b49eeb7363a0821516e9", "is_reserved": 0, "type": "electric_scooter", "rental_uris": {"ios": "https://dc.lft.to/lastmile_qr_scan", "android": "https://dc.lft.to/lastmile_qr_scan"}, "lat": 38.900538, "lon": -77.00225516666667, "bike_id": "ebb36c15fdd4b49eeb7363a0821516e9", "fusion_lat": 0.0, "is_disabled": 0, "fusion_lon": 0.0}, {"name": "11131fc5f3fcada1766b155fa0281dcc", "is_reserved": 0, "type": "electric_bike", "rental_uris": {"ios": "https://dc.lft.to/lastmile_qr_scan", "android": "https://dc.lft.to/lastmile_qr_scan"}, "lat": 38.855069666666665, "lon": -77.12029583333333, "bike_id": "11131fc5f3fcada1766b155fa0281dcc", "fusion_lat": 0.0, "is_disabled": 0, "fusion_lon": 0.0}, {"name": "e26fc962a52f7d62a6205ac3b7e883a3", "is_reserved": 0, "type": "electric_scooter", "rental_uris": {"ios": "https://dc.lft.to/lastmile_qr_scan", "android": "https://dc.lft.to/lastmile_qr_scan"}, "lat": 38.8967435, "lon": -77.033436, "bike_id": "e26fc962a52f7d62a6205ac3b7e883a3", "fusion_lat": 0.0, "is_disabled": 0, "fusion_lon": 0.0}, {"name": "2c3561225e6d653abd2aec6db6eeb9b9", "is_reserved": 0, "type": "electric_scooter", "rental_uris": {"ios": "https://dc.lft.to/lastmile_qr_scan", "android": "https://dc.lft.to/lastmile_qr_scan"}, "lat": 38.900329666666664, "lon": -76.9944645, "bike_id": "2c3561225e6d653abd2aec6db6eeb9b9", "fusion_lat": 0.0, "is_disabled": 0, "fusion_lon": 0.0}, {"name": "9fe05b829fa224e7d94cf9e8c6ba0eea", "is_reserved": 0, "type": "electric_scooter", "rental_uris": {"ios": "https://dc.lft.to/lastmile_qr_scan", "android": "https://dc.lft.to/lastmile_qr_scan"}, "lat": 38.9017365, "lon": -77.02292666666666, "bike_id": "9fe05b829fa224e7d94cf9e8c6ba0eea", "fusion_lat": 0.0, "is_disabled": 0, "fusion_lon": 0.0}, {"name": "51b4a4c36533accf21cda8db208f505e", "is_reserved": 0, "type": "electric_scooter", "rental_uris": {"ios": "https://dc.lft.to/lastmile_qr_scan", "android": "https://dc.lft.to/lastmile_qr_scan"}, "lat": 38.90191133333333, "lon": -76.97941483333334, "bike_id": "51b4a4c36533accf21cda8db208f505e", "fusion_lat": 0.0, "is_disabled": 0, "fusion_lon": 0.0}, {"name": "0577a73cdcb85316211f518bc39e4bf5", "is_reserved": 0, "type": "electric_scooter", "rental_uris": {"ios": "https://dc.lft.to/lastmile_qr_scan", "android": "https://dc.lft.to/lastmile_qr_scan"}, "lat": 38.93081466666667, "lon": -77.02561366666667, "bike_id": "0577a73cdcb85316211f518bc39e4bf5", "fusion_lat": 0.0, "is_disabled": 0, "fusion_lon": 0.0}, {"name": "d9c1f385567d434013747b3a0cf6668a", "is_reserved": 0, "type": "electric_scooter", "rental_uris": {"ios": "https://dc.lft.to/lastmile_qr_scan", "android": "https://dc.lft.to/lastmile_qr_scan"}, "lat": 38.918042666666665, "lon": -77.03202433333334, "bike_id": "d9c1f385567d434013747b3a0cf6668a", "fusion_lat": 0.0, "is_disabled": 0, "fusion_lon": 0.0}, {"name": "472e4d13b481eace9cf3eae79b2c5b1d", "is_reserved": 0, "type": "electric_scooter", "rental_uris": {"ios": "https://dc.lft.to/lastmile_qr_scan", "android": "https://dc.lft.to/lastmile_qr_scan"}, "lat": 38.89734516666667, "lon": -76.99388683333333, "bike_id": "472e4d13b481eace9cf3eae79b2c5b1d", "fusion_lat": 0.0, "is_disabled": 0, "fusion_lon": 0.0}, {"name": "13916e062f1f6658a4df0f01f231b461", "is_reserved": 0, "type": "electric_scooter", "rental_uris": {"ios": "https://dc.lft.to/lastmile_qr_scan", "android": "https://dc.lft.to/lastmile_qr_scan"}, "lat": 38.890176333333336, "lon": -76.93731533333333, "bike_id": "13916e062f1f6658a4df0f01f231b461", "fusion_lat": 0.0, "is_disabled": 0, "fusion_lon": 0.0}, {"name": "e171ced05d1ce52edf5dc8a119ea551e", "is_reserved": 0, "type": "electric_bike", "rental_uris": {"ios": "https://dc.lft.to/lastmile_qr_scan", "android": "https://dc.lft.to/lastmile_qr_scan"}, "lat": 38.87418616666667, "lon": -77.10329183333333, "bike_id": "e171ced05d1ce52edf5dc8a119ea551e", "fusion_lat": 0.0, "is_disabled": 0, "fusion_lon": 0.0}, {"name": "dd22701990b55aac3e3d015efbc50e4e", "is_reserved": 0, "type": "electric_scooter", "rental_uris": {"ios": "https://dc.lft.to/lastmile_qr_scan", "android": "https://dc.lft.to/lastmile_qr_scan"}, "lat": 38.844704666666665, "lon": -76.98778866666666, "bike_id": "dd22701990b55aac3e3d015efbc50e4e", "fusion_lat": 0.0, "is_disabled": 0, "fusion_lon": 0.0}, {"name": "66284a80d150b1032a4e96603c993568", "is_reserved": 0, "type": "electric_scooter", "rental_uris": {"ios": "https://dc.lft.to/lastmile_qr_scan", "android": "https://dc.lft.to/lastmile_qr_scan"}, "lat": 38.909623333333336, "lon": -77.02003116666667, "bike_id": "66284a80d150b1032a4e96603c993568", "fusion_lat": 0.0, "is_disabled": 0, "fusion_lon": 0.0}, {"name": "c79730fbb536e1e9464161ae9eafe261", "is_reserved": 0, "type": "electric_scooter", "rental_uris": {"ios": "https://dc.lft.to/lastmile_qr_scan", "android": "https://dc.lft.to/lastmile_qr_scan"}, "lat": 38.900855, "lon": -77.02512716666666, "bike_id": "c79730fbb536e1e9464161ae9eafe261", "fusion_lat": 0.0, "is_disabled": 0, "fusion_lon": 0.0}, {"name": "35a5df8f76bb60de59ac7ad5d7556154", "is_reserved": 0, "type": "electric_scooter", "rental_uris": {"ios": "https://dc.lft.to/lastmile_qr_scan", "android": "https://dc.lft.to/lastmile_qr_scan"}, "lat": 38.95712483333333, "lon": -77.024041, "bike_id": "35a5df8f76bb60de59ac7ad5d7556154", "fusion_lat": 0.0, "is_disabled": 0, "fusion_lon": 0.0}, {"name": "b070ef190af05109eec2c0a607dacc21", "is_reserved": 0, "type": "electric_scooter", "rental_uris": {"ios": "https://dc.lft.to/lastmile_qr_scan", "android": "https://dc.lft.to/lastmile_qr_scan"}, "lat": 38.9176235, "lon": -77.03078216666667, "bike_id": "b070ef190af05109eec2c0a607dacc21", "fusion_lat": 0.0, "is_disabled": 0, "fusion_lon": 0.0}, {"name": "4bb501b11c308528606c9fd5983ab0a0", "is_reserved": 0, "type": "electric_scooter", "rental_uris": {"ios": "https://dc.lft.to/lastmile_qr_scan", "android": "https://dc.lft.to/lastmile_qr_scan"}, "lat": 38.92192383333333, "lon": -76.99755566666667, "bike_id": "4bb501b11c308528606c9fd5983ab0a0", "fusion_lat": 0.0, "is_disabled": 0, "fusion_lon": 0.0}, {"name": "6e5d6f029fb0758a9d9b50cd350a77ec", "is_reserved": 0, "type": "electric_scooter", "rental_uris": {"ios": "https://dc.lft.to/lastmile_qr_scan", "android": "https://dc.lft.to/lastmile_qr_scan"}, "lat": 38.91695766666667, "lon": -77.03763916666666, "bike_id": "6e5d6f029fb0758a9d9b50cd350a77ec", "fusion_lat": 0.0, "is_disabled": 0, "fusion_lon": 0.0}, {"name": "d7a3b9bcc4938943a32ebf4dde0d02db", "is_reserved": 0, "type": "electric_scooter", "rental_uris": {"ios": "https://dc.lft.to/lastmile_qr_scan", "android": "https://dc.lft.to/lastmile_qr_scan"}, "lat": 38.92314116666667, "lon": -77.03414666666667, "bike_id": "d7a3b9bcc4938943a32ebf4dde0d02db", "fusion_lat": 0.0, "is_disabled": 0, "fusion_lon": 0.0}, {"name": "0e8e149330bd3d5418fbd606f869f42c", "is_reserved": 0, "type": "electric_scooter", "rental_uris": {"ios": "https://dc.lft.to/lastmile_qr_scan", "android": "https://dc.lft.to/lastmile_qr_scan"}, "lat": 38.926547, "lon": -77.05323966666667, "bike_id": "0e8e149330bd3d5418fbd606f869f42c", "fusion_lat": 0.0, "is_disabled": 0, "fusion_lon": 0.0}, {"name": "74b572a7434fcf05705037e9fe38ddc0", "is_reserved": 0, "type": "electric_scooter", "rental_uris": {"ios": "https://dc.lft.to/lastmile_qr_scan", "android": "https://dc.lft.to/lastmile_qr_scan"}, "lat": 38.895101333333336, "lon": -77.01615116666666, "bike_id": "74b572a7434fcf05705037e9fe38ddc0", "fusion_lat": 0.0, "is_disabled": 0, "fusion_lon": 0.0}, {"name": "2ad5b95d7d81c6e7cb8b99f93422a527", "is_reserved": 0, "type": "electric_scooter", "rental_uris": {"ios": "https://dc.lft.to/lastmile_qr_scan", "android": "https://dc.lft.to/lastmile_qr_scan"}, "lat": 38.91063833333333, "lon": -77.03086666666667, "bike_id": "2ad5b95d7d81c6e7cb8b99f93422a527", "fusion_lat": 0.0, "is_disabled": 0, "fusion_lon": 0.0}, {"name": "eb8ec82b0488a9192b4f752006a7dc1c", "is_reserved": 0, "type": "electric_bike", "rental_uris": {"ios": "https://dc.lft.to/lastmile_qr_scan", "android": "https://dc.lft.to/lastmile_qr_scan"}, "lat": 38.812603833333334, "lon": -77.112333, "bike_id": "eb8ec82b0488a9192b4f752006a7dc1c", "fusion_lat": 0.0, "is_disabled": 0, "fusion_lon": 0.0}, {"name": "0c3e27fba9137203d5f5d7d96abe69c3", "is_reserved": 0, "type": "electric_scooter", "rental_uris": {"ios": "https://dc.lft.to/lastmile_qr_scan", "android": "https://dc.lft.to/lastmile_qr_scan"}, "lat": 38.89983333333333, "lon": -77.02216316666667, "bike_id": "0c3e27fba9137203d5f5d7d96abe69c3", "fusion_lat": 0.0, "is_disabled": 0, "fusion_lon": 0.0}, {"name": "e6cd029061c785dd2af76a64a2884a61", "is_reserved": 0, "type": "electric_scooter", "rental_uris": {"ios": "https://dc.lft.to/lastmile_qr_scan", "android": "https://dc.lft.to/lastmile_qr_scan"}, "lat": 38.927574166666666, "lon": -77.03303533333333, "bike_id": "e6cd029061c785dd2af76a64a2884a61", "fusion_lat": 0.0, "is_disabled": 0, "fusion_lon": 0.0}, {"name": "dfb98a74336b7fb224bbac393f172d1d", "is_reserved": 0, "type": "electric_scooter", "rental_uris": {"ios": "https://dc.lft.to/lastmile_qr_scan", "android": "https://dc.lft.to/lastmile_qr_scan"}, "lat": 38.8937815, "lon": -76.941971, "bike_id": "dfb98a74336b7fb224bbac393f172d1d", "fusion_lat": 0.0, "is_disabled": 0, "fusion_lon": 0.0}, {"name": "edc532cd5493c305b67c5c8ef1e79e1c", "is_reserved": 0, "type": "electric_scooter", "rental_uris": {"ios": "https://dc.lft.to/lastmile_qr_scan", "android": "https://dc.lft.to/lastmile_qr_scan"}, "lat": 38.92791666666667, "lon": -77.031519, "bike_id": "edc532cd5493c305b67c5c8ef1e79e1c", "fusion_lat": 0.0, "is_disabled": 0, "fusion_lon": 0.0}, {"name": "f1af522a2cffd28064bcef4a6e97b638", "is_reserved": 0, "type": "electric_scooter", "rental_uris": {"ios": "https://dc.lft.to/lastmile_qr_scan", "android": "https://dc.lft.to/lastmile_qr_scan"}, "lat": 38.9156905, "lon": -77.03245683333333, "bike_id": "f1af522a2cffd28064bcef4a6e97b638", "fusion_lat": 0.0, "is_disabled": 0, "fusion_lon": 0.0}, {"name": "1773c58a11c35c3cec591753879c0e87", "is_reserved": 0, "type": "electric_scooter", "rental_uris": {"ios": "https://dc.lft.to/lastmile_qr_scan", "android": "https://dc.lft.to/lastmile_qr_scan"}, "lat": 38.9051965, "lon": -77.0415965, "bike_id": "1773c58a11c35c3cec591753879c0e87", "fusion_lat": 0.0, "is_disabled": 0, "fusion_lon": 0.0}, {"name": "14169744f278137cfdf0d422be490cee", "is_reserved": 0, "type": "electric_scooter", "rental_uris": {"ios": "https://dc.lft.to/lastmile_qr_scan", "android": "https://dc.lft.to/lastmile_qr_scan"}, "lat": 38.90944533333333, "lon": -77.04739133333334, "bike_id": "14169744f278137cfdf0d422be490cee", "fusion_lat": 0.0, "is_disabled": 0, "fusion_lon": 0.0}, {"name": "76abc77645c9aa4baedc7b9eb4c3f31d", "is_reserved": 0, "type": "electric_scooter", "rental_uris": {"ios": "https://dc.lft.to/lastmile_qr_scan", "android": "https://dc.lft.to/lastmile_qr_scan"}, "lat": 38.891888, "lon": -77.04187133333333, "bike_id": "76abc77645c9aa4baedc7b9eb4c3f31d", "fusion_lat": 0.0, "is_disabled": 0, "fusion_lon": 0.0}, {"name": "bae27a5a6c0ad14a1235b89baf7d1156", "is_reserved": 0, "type": "electric_scooter", "rental_uris": {"ios": "https://dc.lft.to/lastmile_qr_scan", "android": "https://dc.lft.to/lastmile_qr_scan"}, "lat": 38.91709516666667, "lon": -77.02897283333333, "bike_id": "bae27a5a6c0ad14a1235b89baf7d1156", "fusion_lat": 0.0, "is_disabled": 0, "fusion_lon": 0.0}, {"name": "14fc5af7cd992ae08da0aeb86ce35858", "is_reserved": 0, "type": "electric_scooter", "rental_uris": {"ios": "https://dc.lft.to/lastmile_qr_scan", "android": "https://dc.lft.to/lastmile_qr_scan"}, "lat": 38.8871905, "lon": -77.00269583333333, "bike_id": "14fc5af7cd992ae08da0aeb86ce35858", "fusion_lat": 0.0, "is_disabled": 0, "fusion_lon": 0.0}, {"name": "b2f5587ba67bce41e8f9f17942820ef1", "is_reserved": 0, "type": "electric_scooter", "rental_uris": {"ios": "https://dc.lft.to/lastmile_qr_scan", "android": "https://dc.lft.to/lastmile_qr_scan"}, "lat": 38.87665533333333, "lon": -77.00464766666667, "bike_id": "b2f5587ba67bce41e8f9f17942820ef1", "fusion_lat": 0.0, "is_disabled": 0, "fusion_lon": 0.0}, {"name": "52b057927b98905a0aabf5d86c9e1e74", "is_reserved": 0, "type": "electric_scooter", "rental_uris": {"ios": "https://dc.lft.to/lastmile_qr_scan", "android": "https://dc.lft.to/lastmile_qr_scan"}, "lat": 38.963853, "lon": -77.03499733333334, "bike_id": "52b057927b98905a0aabf5d86c9e1e74", "fusion_lat": 0.0, "is_disabled": 0, "fusion_lon": 0.0}, {"name": "a0767dcbf5ccfa154a307c14c5648ba8", "is_reserved": 0, "type": "electric_scooter", "rental_uris": {"ios": "https://dc.lft.to/lastmile_qr_scan", "android": "https://dc.lft.to/lastmile_qr_scan"}, "lat": 38.8863225, "lon": -76.9468495, "bike_id": "a0767dcbf5ccfa154a307c14c5648ba8", "fusion_lat": 0.0, "is_disabled": 0, "fusion_lon": 0.0}, {"name": "324221ba8f726e63f554fd2d3e8dc1e2", "is_reserved": 0, "type": "electric_scooter", "rental_uris": {"ios": "https://dc.lft.to/lastmile_qr_scan", "android": "https://dc.lft.to/lastmile_qr_scan"}, "lat": 38.91780583333333, "lon": -77.04099566666666, "bike_id": "324221ba8f726e63f554fd2d3e8dc1e2", "fusion_lat": 0.0, "is_disabled": 0, "fusion_lon": 0.0}, {"name": "93e97483580be975a284d45614ae3769", "is_reserved": 0, "type": "electric_scooter", "rental_uris": {"ios": "https://dc.lft.to/lastmile_qr_scan", "android": "https://dc.lft.to/lastmile_qr_scan"}, "lat": 38.924767833333334, "lon": -77.0282915, "bike_id": "93e97483580be975a284d45614ae3769", "fusion_lat": 0.0, "is_disabled": 0, "fusion_lon": 0.0}, {"name": "1e645e9d90f130764aaa6d6bd373af29", "is_reserved": 0, "type": "electric_scooter", "rental_uris": {"ios": "https://dc.lft.to/lastmile_qr_scan", "android": "https://dc.lft.to/lastmile_qr_scan"}, "lat": 38.88770616666667, "lon": -76.99762666666666, "bike_id": "1e645e9d90f130764aaa6d6bd373af29", "fusion_lat": 0.0, "is_disabled": 0, "fusion_lon": 0.0}, {"name": "5f007db98008829b4a93ed487a6bf5cb", "is_reserved": 0, "type": "electric_scooter", "rental_uris": {"ios": "https://dc.lft.to/lastmile_qr_scan", "android": "https://dc.lft.to/lastmile_qr_scan"}, "lat": 38.9269515, "lon": -77.0209965, "bike_id": "5f007db98008829b4a93ed487a6bf5cb", "fusion_lat": 0.0, "is_disabled": 0, "fusion_lon": 0.0}, {"name": "58c2f94c0693bed32bdc331214a3cd9b", "is_reserved": 0, "type": "electric_scooter", "rental_uris": {"ios": "https://dc.lft.to/lastmile_qr_scan", "android": "https://dc.lft.to/lastmile_qr_scan"}, "lat": 38.95405183333333, "lon": -77.027935, "bike_id": "58c2f94c0693bed32bdc331214a3cd9b", "fusion_lat": 0.0, "is_disabled": 0, "fusion_lon": 0.0}, {"name": "0337265713c72d3646d4b9aa00f34603", "is_reserved": 0, "type": "electric_scooter", "rental_uris": {"ios": "https://dc.lft.to/lastmile_qr_scan", "android": "https://dc.lft.to/lastmile_qr_scan"}, "lat": 38.9082655, "lon": -77.04352166666666, "bike_id": "0337265713c72d3646d4b9aa00f34603", "fusion_lat": 0.0, "is_disabled": 0, "fusion_lon": 0.0}, {"name": "0fa09f5338ef5575913eb016df277f37", "is_reserved": 0, "type": "electric_scooter", "rental_uris": {"ios": "https://dc.lft.to/lastmile_qr_scan", "android": "https://dc.lft.to/lastmile_qr_scan"}, "lat": 38.922253833333336, "lon": -77.042465, "bike_id": "0fa09f5338ef5575913eb016df277f37", "fusion_lat": 0.0, "is_disabled": 0, "fusion_lon": 0.0}, {"name": "033ed0c2cc1fa7004d7236ac83f3b7c6", "is_reserved": 0, "type": "electric_scooter", "rental_uris": {"ios": "https://dc.lft.to/lastmile_qr_scan", "android": "https://dc.lft.to/lastmile_qr_scan"}, "lat": 38.90426983333333, "lon": -77.04343683333333, "bike_id": "033ed0c2cc1fa7004d7236ac83f3b7c6", "fusion_lat": 0.0, "is_disabled": 0, "fusion_lon": 0.0}, {"name": "9880e0d961ad07a8684b5569bee81a51", "is_reserved": 0, "type": "electric_scooter", "rental_uris": {"ios": "https://dc.lft.to/lastmile_qr_scan", "android": "https://dc.lft.to/lastmile_qr_scan"}, "lat": 38.90408016666667, "lon": -76.981109, "bike_id": "9880e0d961ad07a8684b5569bee81a51", "fusion_lat": 0.0, "is_disabled": 0, "fusion_lon": 0.0}, {"name": "4db54940bc8c166f3e5eb806817f37f8", "is_reserved": 0, "type": "electric_scooter", "rental_uris": {"ios": "https://dc.lft.to/lastmile_qr_scan", "android": "https://dc.lft.to/lastmile_qr_scan"}, "lat": 38.915508333333335, "lon": -76.98353883333333, "bike_id": "4db54940bc8c166f3e5eb806817f37f8", "fusion_lat": 0.0, "is_disabled": 0, "fusion_lon": 0.0}, {"name": "7c0af6de92a07703ab9f7dcf397987aa", "is_reserved": 0, "type": "electric_scooter", "rental_uris": {"ios": "https://dc.lft.to/lastmile_qr_scan", "android": "https://dc.lft.to/lastmile_qr_scan"}, "lat": 38.92466483333333, "lon": -77.02716166666667, "bike_id": "7c0af6de92a07703ab9f7dcf397987aa", "fusion_lat": 0.0, "is_disabled": 0, "fusion_lon": 0.0}, {"name": "aacf4fa12da3f8b6bd40b7e3e7cbe7a4", "is_reserved": 0, "type": "electric_scooter", "rental_uris": {"ios": "https://dc.lft.to/lastmile_qr_scan", "android": "https://dc.lft.to/lastmile_qr_scan"}, "lat": 38.9109995, "lon": -77.031871, "bike_id": "aacf4fa12da3f8b6bd40b7e3e7cbe7a4", "fusion_lat": 0.0, "is_disabled": 0, "fusion_lon": 0.0}, {"name": "59eb8738bf824a74448c5a27efd23463", "is_reserved": 0, "type": "electric_scooter", "rental_uris": {"ios": "https://dc.lft.to/lastmile_qr_scan", "android": "https://dc.lft.to/lastmile_qr_scan"}, "lat": 38.9002205, "lon": -77.04646216666667, "bike_id": "59eb8738bf824a74448c5a27efd23463", "fusion_lat": 0.0, "is_disabled": 0, "fusion_lon": 0.0}, {"name": "3e5f2532f02224bece2ef034c32acb89", "is_reserved": 0, "type": "electric_scooter", "rental_uris": {"ios": "https://dc.lft.to/lastmile_qr_scan", "android": "https://dc.lft.to/lastmile_qr_scan"}, "lat": 38.91812616666667, "lon": -77.04002616666666, "bike_id": "3e5f2532f02224bece2ef034c32acb89", "fusion_lat": 0.0, "is_disabled": 0, "fusion_lon": 0.0}, {"name": "b257250696243895f896dbc69b694cd7", "is_reserved": 0, "type": "electric_scooter", "rental_uris": {"ios": "https://dc.lft.to/lastmile_qr_scan", "android": "https://dc.lft.to/lastmile_qr_scan"}, "lat": 38.903691333333335, "lon": -77.0110295, "bike_id": "b257250696243895f896dbc69b694cd7", "fusion_lat": 0.0, "is_disabled": 0, "fusion_lon": 0.0}, {"name": "e8618b2b866b509017929f73a5f63eb7", "is_reserved": 0, "type": "electric_scooter", "rental_uris": {"ios": "https://dc.lft.to/lastmile_qr_scan", "android": "https://dc.lft.to/lastmile_qr_scan"}, "lat": 38.905196333333336, "lon": -77.0599585, "bike_id": "e8618b2b866b509017929f73a5f63eb7", "fusion_lat": 0.0, "is_disabled": 0, "fusion_lon": 0.0}, {"name": "12deeb8f35a55b4ed8fbef4561381242", "is_reserved": 0, "type": "electric_scooter", "rental_uris": {"ios": "https://dc.lft.to/lastmile_qr_scan", "android": "https://dc.lft.to/lastmile_qr_scan"}, "lat": 38.9024145, "lon": -77.046002, "bike_id": "12deeb8f35a55b4ed8fbef4561381242", "fusion_lat": 0.0, "is_disabled": 0, "fusion_lon": 0.0}, {"name": "d5572d7e55a25f224cf9a876c084db55", "is_reserved": 0, "type": "electric_scooter", "rental_uris": {"ios": "https://dc.lft.to/lastmile_qr_scan", "android": "https://dc.lft.to/lastmile_qr_scan"}, "lat": 38.92466433333333, "lon": -77.02156633333334, "bike_id": "d5572d7e55a25f224cf9a876c084db55", "fusion_lat": 0.0, "is_disabled": 0, "fusion_lon": 0.0}, {"name": "6347e971d8243b1e9947f5812d5c4505", "is_reserved": 0, "type": "electric_scooter", "rental_uris": {"ios": "https://dc.lft.to/lastmile_qr_scan", "android": "https://dc.lft.to/lastmile_qr_scan"}, "lat": 38.91692033333333, "lon": -77.0050525, "bike_id": "6347e971d8243b1e9947f5812d5c4505", "fusion_lat": 0.0, "is_disabled": 0, "fusion_lon": 0.0}, {"name": "2fff119e9973b85a903c0536741e39ea", "is_reserved": 0, "type": "electric_scooter", "rental_uris": {"ios": "https://dc.lft.to/lastmile_qr_scan", "android": "https://dc.lft.to/lastmile_qr_scan"}, "lat": 38.916909833333335, "lon": -77.04606616666666, "bike_id": "2fff119e9973b85a903c0536741e39ea", "fusion_lat": 0.0, "is_disabled": 0, "fusion_lon": 0.0}, {"name": "a1ec1df0f1a4b0e46dd0b0baa2c4bab4", "is_reserved": 0, "type": "electric_scooter", "rental_uris": {"ios": "https://dc.lft.to/lastmile_qr_scan", "android": "https://dc.lft.to/lastmile_qr_scan"}, "lat": 38.916709833333336, "lon": -77.0345955, "bike_id": "a1ec1df0f1a4b0e46dd0b0baa2c4bab4", "fusion_lat": 0.0, "is_disabled": 0, "fusion_lon": 0.0}, {"name": "b9fcdd254acaf7ab7a7c4ce73f28d2a6", "is_reserved": 0, "type": "electric_scooter", "rental_uris": {"ios": "https://dc.lft.to/lastmile_qr_scan", "android": "https://dc.lft.to/lastmile_qr_scan"}, "lat": 38.9365495, "lon": -77.03686266666666, "bike_id": "b9fcdd254acaf7ab7a7c4ce73f28d2a6", "fusion_lat": 0.0, "is_disabled": 0, "fusion_lon": 0.0}, {"name": "d0dba53a5a1a12a8a6e07955e6997e1d", "is_reserved": 0, "type": "electric_scooter", "rental_uris": {"ios": "https://dc.lft.to/lastmile_qr_scan", "android": "https://dc.lft.to/lastmile_qr_scan"}, "lat": 38.9246905, "lon": -77.00230583333334, "bike_id": "d0dba53a5a1a12a8a6e07955e6997e1d", "fusion_lat": 0.0, "is_disabled": 0, "fusion_lon": 0.0}, {"name": "7b0ff55aa7dce5f2721fe19a06370863", "is_reserved": 0, "type": "electric_scooter", "rental_uris": {"ios": "https://dc.lft.to/lastmile_qr_scan", "android": "https://dc.lft.to/lastmile_qr_scan"}, "lat": 38.892412666666665, "lon": -77.012681, "bike_id": "7b0ff55aa7dce5f2721fe19a06370863", "fusion_lat": 0.0, "is_disabled": 0, "fusion_lon": 0.0}, {"name": "56a1ed85d84f007207e7d8373d0d9239", "is_reserved": 0, "type": "electric_scooter", "rental_uris": {"ios": "https://dc.lft.to/lastmile_qr_scan", "android": "https://dc.lft.to/lastmile_qr_scan"}, "lat": 38.8532195, "lon": -76.98009716666667, "bike_id": "56a1ed85d84f007207e7d8373d0d9239", "fusion_lat": 0.0, "is_disabled": 0, "fusion_lon": 0.0}, {"name": "3b93624cd92d1b68f046d5c7d46b9d46", "is_reserved": 0, "type": "electric_scooter", "rental_uris": {"ios": "https://dc.lft.to/lastmile_qr_scan", "android": "https://dc.lft.to/lastmile_qr_scan"}, "lat": 38.89098633333333, "lon": -76.91869283333334, "bike_id": "3b93624cd92d1b68f046d5c7d46b9d46", "fusion_lat": 0.0, "is_disabled": 0, "fusion_lon": 0.0}, {"name": "b28147b1408a691250ebec60f6b4ef00", "is_reserved": 0, "type": "electric_scooter", "rental_uris": {"ios": "https://dc.lft.to/lastmile_qr_scan", "android": "https://dc.lft.to/lastmile_qr_scan"}, "lat": 38.900133, "lon": -77.00676416666667, "bike_id": "b28147b1408a691250ebec60f6b4ef00", "fusion_lat": 0.0, "is_disabled": 0, "fusion_lon": 0.0}, {"name": "8e66e6945e71f663509a881da1e21b25", "is_reserved": 0, "type": "electric_scooter", "rental_uris": {"ios": "https://dc.lft.to/lastmile_qr_scan", "android": "https://dc.lft.to/lastmile_qr_scan"}, "lat": 38.94955783333333, "lon": -77.08024816666666, "bike_id": "8e66e6945e71f663509a881da1e21b25", "fusion_lat": 0.0, "is_disabled": 0, "fusion_lon": 0.0}, {"name": "4afa443a982c9782f0df69e81d84fa03", "is_reserved": 0, "type": "electric_scooter", "rental_uris": {"ios": "https://dc.lft.to/lastmile_qr_scan", "android": "https://dc.lft.to/lastmile_qr_scan"}, "lat": 38.921253666666665, "lon": -77.02546333333333, "bike_id": "4afa443a982c9782f0df69e81d84fa03", "fusion_lat": 0.0, "is_disabled": 0, "fusion_lon": 0.0}, {"name": "8da24be5387f06e470b511235d3a518e", "is_reserved": 0, "type": "electric_scooter", "rental_uris": {"ios": "https://dc.lft.to/lastmile_qr_scan", "android": "https://dc.lft.to/lastmile_qr_scan"}, "lat": 38.90402533333334, "lon": -77.01717783333334, "bike_id": "8da24be5387f06e470b511235d3a518e", "fusion_lat": 0.0, "is_disabled": 0, "fusion_lon": 0.0}, {"name": "7d537883be99ce5ad851e3ca8721e29b", "is_reserved": 0, "type": "electric_scooter", "rental_uris": {"ios": "https://dc.lft.to/lastmile_qr_scan", "android": "https://dc.lft.to/lastmile_qr_scan"}, "lat": 38.92482283333333, "lon": -77.03499, "bike_id": "7d537883be99ce5ad851e3ca8721e29b", "fusion_lat": 0.0, "is_disabled": 0, "fusion_lon": 0.0}, {"name": "231190c27b19b136a42e7e075eb193da", "is_reserved": 0, "type": "electric_bike", "rental_uris": {"ios": "https://dc.lft.to/lastmile_qr_scan", "android": "https://dc.lft.to/lastmile_qr_scan"}, "lat": 38.937446666666666, "lon": -76.94577033333333, "bike_id": "231190c27b19b136a42e7e075eb193da", "fusion_lat": 0.0, "is_disabled": 0, "fusion_lon": 0.0}, {"name": "e0b9d3dbaade1bf957b48124f369cf58", "is_reserved": 0, "type": "electric_scooter", "rental_uris": {"ios": "https://dc.lft.to/lastmile_qr_scan", "android": "https://dc.lft.to/lastmile_qr_scan"}, "lat": 38.8868585, "lon": -77.02391816666666, "bike_id": "e0b9d3dbaade1bf957b48124f369cf58", "fusion_lat": 0.0, "is_disabled": 0, "fusion_lon": 0.0}, {"name": "741c28848c004b7b5bd862520996fe38", "is_reserved": 0, "type": "electric_scooter", "rental_uris": {"ios": "https://dc.lft.to/lastmile_qr_scan", "android": "https://dc.lft.to/lastmile_qr_scan"}, "lat": 38.933589, "lon": -77.07365366666667, "bike_id": "741c28848c004b7b5bd862520996fe38", "fusion_lat": 0.0, "is_disabled": 0, "fusion_lon": 0.0}, {"name": "c07ecfad81d1f88632c02b51a04a340c", "is_reserved": 0, "type": "electric_scooter", "rental_uris": {"ios": "https://dc.lft.to/lastmile_qr_scan", "android": "https://dc.lft.to/lastmile_qr_scan"}, "lat": 38.92894583333333, "lon": -77.023333, "bike_id": "c07ecfad81d1f88632c02b51a04a340c", "fusion_lat": 0.0, "is_disabled": 0, "fusion_lon": 0.0}, {"name": "b21fa0b0d362797e978b2bd83b002f92", "is_reserved": 0, "type": "electric_scooter", "rental_uris": {"ios": "https://dc.lft.to/lastmile_qr_scan", "android": "https://dc.lft.to/lastmile_qr_scan"}, "lat": 38.916057333333335, "lon": -77.0230775, "bike_id": "b21fa0b0d362797e978b2bd83b002f92", "fusion_lat": 0.0, "is_disabled": 0, "fusion_lon": 0.0}, {"name": "a166b3cef70dbf9e0d937b989e6d4746", "is_reserved": 0, "type": "electric_scooter", "rental_uris": {"ios": "https://dc.lft.to/lastmile_qr_scan", "android": "https://dc.lft.to/lastmile_qr_scan"}, "lat": 38.900519333333335, "lon": -76.98291983333333, "bike_id": "a166b3cef70dbf9e0d937b989e6d4746", "fusion_lat": 0.0, "is_disabled": 0, "fusion_lon": 0.0}, {"name": "e63af31124997754f0ce322e8cf7e3f7", "is_reserved": 0, "type": "electric_scooter", "rental_uris": {"ios": "https://dc.lft.to/lastmile_qr_scan", "android": "https://dc.lft.to/lastmile_qr_scan"}, "lat": 38.89732516666667, "lon": -77.04763766666666, "bike_id": "e63af31124997754f0ce322e8cf7e3f7", "fusion_lat": 0.0, "is_disabled": 0, "fusion_lon": 0.0}, {"name": "891d6a9320df3135271e9afb60891c95", "is_reserved": 0, "type": "electric_bike", "rental_uris": {"ios": "https://dc.lft.to/lastmile_qr_scan", "android": "https://dc.lft.to/lastmile_qr_scan"}, "lat": 38.92421983333333, "lon": -77.01953433333334, "bike_id": "891d6a9320df3135271e9afb60891c95", "fusion_lat": 0.0, "is_disabled": 0, "fusion_lon": 0.0}, {"name": "71396c3e7408abd72c0648918d290554", "is_reserved": 0, "type": "electric_scooter", "rental_uris": {"ios": "https://dc.lft.to/lastmile_qr_scan", "android": "https://dc.lft.to/lastmile_qr_scan"}, "lat": 38.90654583333333, "lon": -77.00890133333333, "bike_id": "71396c3e7408abd72c0648918d290554", "fusion_lat": 0.0, "is_disabled": 0, "fusion_lon": 0.0}, {"name": "4c0ebed2913316ce90bbbe1d13948d62", "is_reserved": 0, "type": "electric_scooter", "rental_uris": {"ios": "https://dc.lft.to/lastmile_qr_scan", "android": "https://dc.lft.to/lastmile_qr_scan"}, "lat": 38.9470605, "lon": -77.01938716666666, "bike_id": "4c0ebed2913316ce90bbbe1d13948d62", "fusion_lat": 0.0, "is_disabled": 0, "fusion_lon": 0.0}, {"name": "288f7027806b0707b9628eb2c0e30ec5", "is_reserved": 0, "type": "electric_scooter", "rental_uris": {"ios": "https://dc.lft.to/lastmile_qr_scan", "android": "https://dc.lft.to/lastmile_qr_scan"}, "lat": 38.88966833333333, "lon": -76.927369, "bike_id": "288f7027806b0707b9628eb2c0e30ec5", "fusion_lat": 0.0, "is_disabled": 0, "fusion_lon": 0.0}, {"name": "d6731d69f7365c7aafc0523c13adc214", "is_reserved": 0, "type": "electric_scooter", "rental_uris": {"ios": "https://dc.lft.to/lastmile_qr_scan", "android": "https://dc.lft.to/lastmile_qr_scan"}, "lat": 38.906671833333334, "lon": -77.02190666666667, "bike_id": "d6731d69f7365c7aafc0523c13adc214", "fusion_lat": 0.0, "is_disabled": 0, "fusion_lon": 0.0}, {"name": "cb8488033b9b65262c7b99ffee9c53bc", "is_reserved": 0, "type": "electric_scooter", "rental_uris": {"ios": "https://dc.lft.to/lastmile_qr_scan", "android": "https://dc.lft.to/lastmile_qr_scan"}, "lat": 38.898830333333336, "lon": -76.93156766666667, "bike_id": "cb8488033b9b65262c7b99ffee9c53bc", "fusion_lat": 0.0, "is_disabled": 0, "fusion_lon": 0.0}, {"name": "4d50db04742e2620a5af96254246d5cc", "is_reserved": 0, "type": "electric_scooter", "rental_uris": {"ios": "https://dc.lft.to/lastmile_qr_scan", "android": "https://dc.lft.to/lastmile_qr_scan"}, "lat": 38.923595, "lon": -77.05036833333334, "bike_id": "4d50db04742e2620a5af96254246d5cc", "fusion_lat": 0.0, "is_disabled": 0, "fusion_lon": 0.0}, {"name": "761173bfb207952826df8e926f857e89", "is_reserved": 0, "type": "electric_scooter", "rental_uris": {"ios": "https://dc.lft.to/lastmile_qr_scan", "android": "https://dc.lft.to/lastmile_qr_scan"}, "lat": 38.9036475, "lon": -77.04205066666667, "bike_id": "761173bfb207952826df8e926f857e89", "fusion_lat": 0.0, "is_disabled": 0, "fusion_lon": 0.0}, {"name": "87dfce83b997f8233a4c2d970126ed8c", "is_reserved": 0, "type": "electric_scooter", "rental_uris": {"ios": "https://dc.lft.to/lastmile_qr_scan", "android": "https://dc.lft.to/lastmile_qr_scan"}, "lat": 38.88284916666667, "lon": -76.995088, "bike_id": "87dfce83b997f8233a4c2d970126ed8c", "fusion_lat": 0.0, "is_disabled": 0, "fusion_lon": 0.0}, {"name": "52460a15a45e508fe1e3be3cafb45bc3", "is_reserved": 0, "type": "electric_scooter", "rental_uris": {"ios": "https://dc.lft.to/lastmile_qr_scan", "android": "https://dc.lft.to/lastmile_qr_scan"}, "lat": 38.92046416666667, "lon": -77.02366166666667, "bike_id": "52460a15a45e508fe1e3be3cafb45bc3", "fusion_lat": 0.0, "is_disabled": 0, "fusion_lon": 0.0}, {"name": "7b1cdb9d335339edd3762f8c6c28c0a1", "is_reserved": 0, "type": "electric_bike", "rental_uris": {"ios": "https://dc.lft.to/lastmile_qr_scan", "android": "https://dc.lft.to/lastmile_qr_scan"}, "lat": 38.895646, "lon": -77.12731583333333, "bike_id": "7b1cdb9d335339edd3762f8c6c28c0a1", "fusion_lat": 0.0, "is_disabled": 0, "fusion_lon": 0.0}, {"name": "eb03fdafe8e95c7081b384388d1db6f3", "is_reserved": 0, "type": "electric_scooter", "rental_uris": {"ios": "https://dc.lft.to/lastmile_qr_scan", "android": "https://dc.lft.to/lastmile_qr_scan"}, "lat": 38.92745816666667, "lon": -77.03639883333334, "bike_id": "eb03fdafe8e95c7081b384388d1db6f3", "fusion_lat": 0.0, "is_disabled": 0, "fusion_lon": 0.0}, {"name": "7cf40ef40289531b37efe2f3d102385a", "is_reserved": 0, "type": "electric_scooter", "rental_uris": {"ios": "https://dc.lft.to/lastmile_qr_scan", "android": "https://dc.lft.to/lastmile_qr_scan"}, "lat": 38.90556183333333, "lon": -77.02179066666666, "bike_id": "7cf40ef40289531b37efe2f3d102385a", "fusion_lat": 0.0, "is_disabled": 0, "fusion_lon": 0.0}, {"name": "748ed7d11f4db4a73275b405de004d02", "is_reserved": 0, "type": "electric_scooter", "rental_uris": {"ios": "https://dc.lft.to/lastmile_qr_scan", "android": "https://dc.lft.to/lastmile_qr_scan"}, "lat": 38.906408166666665, "lon": -77.07024066666666, "bike_id": "748ed7d11f4db4a73275b405de004d02", "fusion_lat": 0.0, "is_disabled": 0, "fusion_lon": 0.0}, {"name": "af7cdcf52ecd7fa438bfc6bdf725ad2a", "is_reserved": 0, "type": "electric_scooter", "rental_uris": {"ios": "https://dc.lft.to/lastmile_qr_scan", "android": "https://dc.lft.to/lastmile_qr_scan"}, "lat": 38.87895016666667, "lon": -77.02202366666667, "bike_id": "af7cdcf52ecd7fa438bfc6bdf725ad2a", "fusion_lat": 0.0, "is_disabled": 0, "fusion_lon": 0.0}, {"name": "0d824aa6a6f551aec7824ba637c48b9d", "is_reserved": 0, "type": "electric_scooter", "rental_uris": {"ios": "https://dc.lft.to/lastmile_qr_scan", "android": "https://dc.lft.to/lastmile_qr_scan"}, "lat": 38.91694833333333, "lon": -77.03723766666667, "bike_id": "0d824aa6a6f551aec7824ba637c48b9d", "fusion_lat": 0.0, "is_disabled": 0, "fusion_lon": 0.0}, {"name": "1f3761f8cfe2082fda635df491570144", "is_reserved": 0, "type": "electric_scooter", "rental_uris": {"ios": "https://dc.lft.to/lastmile_qr_scan", "android": "https://dc.lft.to/lastmile_qr_scan"}, "lat": 38.90027633333333, "lon": -76.9887525, "bike_id": "1f3761f8cfe2082fda635df491570144", "fusion_lat": 0.0, "is_disabled": 0, "fusion_lon": 0.0}, {"name": "338786d050417985184b3186c4106306", "is_reserved": 0, "type": "electric_bike", "rental_uris": {"ios": "https://dc.lft.to/lastmile_qr_scan", "android": "https://dc.lft.to/lastmile_qr_scan"}, "lat": 38.873086666666666, "lon": -77.13929916666666, "bike_id": "338786d050417985184b3186c4106306", "fusion_lat": 0.0, "is_disabled": 0, "fusion_lon": 0.0}, {"name": "b3066b2ad5d4cf68afe4996dd6199aa6", "is_reserved": 0, "type": "electric_scooter", "rental_uris": {"ios": "https://dc.lft.to/lastmile_qr_scan", "android": "https://dc.lft.to/lastmile_qr_scan"}, "lat": 38.94817233333333, "lon": -76.99900666666667, "bike_id": "b3066b2ad5d4cf68afe4996dd6199aa6", "fusion_lat": 0.0, "is_disabled": 0, "fusion_lon": 0.0}, {"name": "3014c38d514cc2ba0be270eb411b396d", "is_reserved": 0, "type": "electric_scooter", "rental_uris": {"ios": "https://dc.lft.to/lastmile_qr_scan", "android": "https://dc.lft.to/lastmile_qr_scan"}, "lat": 38.930601333333335, "lon": -77.031657, "bike_id": "3014c38d514cc2ba0be270eb411b396d", "fusion_lat": 0.0, "is_disabled": 0, "fusion_lon": 0.0}, {"name": "6f05f74693790835e1273752f9925990", "is_reserved": 0, "type": "electric_scooter", "rental_uris": {"ios": "https://dc.lft.to/lastmile_qr_scan", "android": "https://dc.lft.to/lastmile_qr_scan"}, "lat": 38.90170066666667, "lon": -76.93079166666666, "bike_id": "6f05f74693790835e1273752f9925990", "fusion_lat": 0.0, "is_disabled": 0, "fusion_lon": 0.0}, {"name": "18120d2cbade28faada4516d5f2a985d", "is_reserved": 0, "type": "electric_scooter", "rental_uris": {"ios": "https://dc.lft.to/lastmile_qr_scan", "android": "https://dc.lft.to/lastmile_qr_scan"}, "lat": 38.91677466666667, "lon": -77.02715583333334, "bike_id": "18120d2cbade28faada4516d5f2a985d", "fusion_lat": 0.0, "is_disabled": 0, "fusion_lon": 0.0}, {"name": "0d338a4d211290ebfa84e85ac29f31ee", "is_reserved": 0, "type": "electric_scooter", "rental_uris": {"ios": "https://dc.lft.to/lastmile_qr_scan", "android": "https://dc.lft.to/lastmile_qr_scan"}, "lat": 38.9176445, "lon": -77.03992133333334, "bike_id": "0d338a4d211290ebfa84e85ac29f31ee", "fusion_lat": 0.0, "is_disabled": 0, "fusion_lon": 0.0}, {"name": "ab791c934100c120693465a43e9e84aa", "is_reserved": 0, "type": "electric_scooter", "rental_uris": {"ios": "https://dc.lft.to/lastmile_qr_scan", "android": "https://dc.lft.to/lastmile_qr_scan"}, "lat": 38.91693716666666, "lon": -77.02598766666667, "bike_id": "ab791c934100c120693465a43e9e84aa", "fusion_lat": 0.0, "is_disabled": 0, "fusion_lon": 0.0}, {"name": "894162216a3777c2beb4adb815991e31", "is_reserved": 0, "type": "electric_scooter", "rental_uris": {"ios": "https://dc.lft.to/lastmile_qr_scan", "android": "https://dc.lft.to/lastmile_qr_scan"}, "lat": 38.876783333333336, "lon": -77.0005755, "bike_id": "894162216a3777c2beb4adb815991e31", "fusion_lat": 0.0, "is_disabled": 0, "fusion_lon": 0.0}, {"name": "b90f50dff6a4006c9a796fb7c7ce3efe", "is_reserved": 0, "type": "electric_scooter", "rental_uris": {"ios": "https://dc.lft.to/lastmile_qr_scan", "android": "https://dc.lft.to/lastmile_qr_scan"}, "lat": 38.911295333333335, "lon": -77.04354716666667, "bike_id": "b90f50dff6a4006c9a796fb7c7ce3efe", "fusion_lat": 0.0, "is_disabled": 0, "fusion_lon": 0.0}, {"name": "d9668c6d74050c36acd62395ac58c37f", "is_reserved": 0, "type": "electric_scooter", "rental_uris": {"ios": "https://dc.lft.to/lastmile_qr_scan", "android": "https://dc.lft.to/lastmile_qr_scan"}, "lat": 38.90421116666667, "lon": -77.00614333333333, "bike_id": "d9668c6d74050c36acd62395ac58c37f", "fusion_lat": 0.0, "is_disabled": 0, "fusion_lon": 0.0}, {"name": "452689d98e27e728f701ce33ac9073dc", "is_reserved": 0, "type": "electric_scooter", "rental_uris": {"ios": "https://dc.lft.to/lastmile_qr_scan", "android": "https://dc.lft.to/lastmile_qr_scan"}, "lat": 38.89245483333333, "lon": -77.03350566666667, "bike_id": "452689d98e27e728f701ce33ac9073dc", "fusion_lat": 0.0, "is_disabled": 0, "fusion_lon": 0.0}, {"name": "832fbe36106259865d0668da657c27e6", "is_reserved": 0, "type": "electric_bike", "rental_uris": {"ios": "https://dc.lft.to/lastmile_qr_scan", "android": "https://dc.lft.to/lastmile_qr_scan"}, "lat": 38.85349983333333, "lon": -77.13478666666667, "bike_id": "832fbe36106259865d0668da657c27e6", "fusion_lat": 0.0, "is_disabled": 0, "fusion_lon": 0.0}, {"name": "be9e0013dcede7eb35b417856f35f149", "is_reserved": 0, "type": "electric_scooter", "rental_uris": {"ios": "https://dc.lft.to/lastmile_qr_scan", "android": "https://dc.lft.to/lastmile_qr_scan"}, "lat": 38.896283833333335, "lon": -77.03129266666667, "bike_id": "be9e0013dcede7eb35b417856f35f149", "fusion_lat": 0.0, "is_disabled": 0, "fusion_lon": 0.0}, {"name": "766d85b57a1130f487573da6bf625bde", "is_reserved": 0, "type": "electric_scooter", "rental_uris": {"ios": "https://dc.lft.to/lastmile_qr_scan", "android": "https://dc.lft.to/lastmile_qr_scan"}, "lat": 38.911272833333335, "lon": -77.021997, "bike_id": "766d85b57a1130f487573da6bf625bde", "fusion_lat": 0.0, "is_disabled": 0, "fusion_lon": 0.0}, {"name": "4dfe20fa586f6694b6a54c89ad19d521", "is_reserved": 0, "type": "electric_bike", "rental_uris": {"ios": "https://dc.lft.to/lastmile_qr_scan", "android": "https://dc.lft.to/lastmile_qr_scan"}, "lat": 38.956376166666665, "lon": -76.93884683333333, "bike_id": "4dfe20fa586f6694b6a54c89ad19d521", "fusion_lat": 0.0, "is_disabled": 0, "fusion_lon": 0.0}, {"name": "1d68143bc57b0c027d4fa0134555b3a3", "is_reserved": 0, "type": "electric_scooter", "rental_uris": {"ios": "https://dc.lft.to/lastmile_qr_scan", "android": "https://dc.lft.to/lastmile_qr_scan"}, "lat": 38.89736666666667, "lon": -77.0037405, "bike_id": "1d68143bc57b0c027d4fa0134555b3a3", "fusion_lat": 0.0, "is_disabled": 0, "fusion_lon": 0.0}, {"name": "fe0840121e217595de064856ae3e7c99", "is_reserved": 0, "type": "electric_scooter", "rental_uris": {"ios": "https://dc.lft.to/lastmile_qr_scan", "android": "https://dc.lft.to/lastmile_qr_scan"}, "lat": 38.950552333333334, "lon": -76.9942395, "bike_id": "fe0840121e217595de064856ae3e7c99", "fusion_lat": 0.0, "is_disabled": 0, "fusion_lon": 0.0}, {"name": "362f7ece567046c9c4858b6666defeda", "is_reserved": 0, "type": "electric_scooter", "rental_uris": {"ios": "https://dc.lft.to/lastmile_qr_scan", "android": "https://dc.lft.to/lastmile_qr_scan"}, "lat": 38.9212605, "lon": -77.01209933333334, "bike_id": "362f7ece567046c9c4858b6666defeda", "fusion_lat": 0.0, "is_disabled": 0, "fusion_lon": 0.0}, {"name": "d01e7bc801f479d86275f27102943a66", "is_reserved": 0, "type": "electric_scooter", "rental_uris": {"ios": "https://dc.lft.to/lastmile_qr_scan", "android": "https://dc.lft.to/lastmile_qr_scan"}, "lat": 38.89410433333333, "lon": -77.02147266666667, "bike_id": "d01e7bc801f479d86275f27102943a66", "fusion_lat": 0.0, "is_disabled": 0, "fusion_lon": 0.0}, {"name": "4423c904cd8153dd3b1587ff04c0e9ac", "is_reserved": 0, "type": "electric_scooter", "rental_uris": {"ios": "https://dc.lft.to/lastmile_qr_scan", "android": "https://dc.lft.to/lastmile_qr_scan"}, "lat": 38.880404666666664, "lon": -77.011341, "bike_id": "4423c904cd8153dd3b1587ff04c0e9ac", "fusion_lat": 0.0, "is_disabled": 0, "fusion_lon": 0.0}, {"name": "9f9b36d27306b60df8cbd7f05d4aa1d0", "is_reserved": 0, "type": "electric_scooter", "rental_uris": {"ios": "https://dc.lft.to/lastmile_qr_scan", "android": "https://dc.lft.to/lastmile_qr_scan"}, "lat": 38.916945166666665, "lon": -77.02673583333333, "bike_id": "9f9b36d27306b60df8cbd7f05d4aa1d0", "fusion_lat": 0.0, "is_disabled": 0, "fusion_lon": 0.0}, {"name": "448b9b4ec57442321ee9bf126dcae3b8", "is_reserved": 0, "type": "electric_scooter", "rental_uris": {"ios": "https://dc.lft.to/lastmile_qr_scan", "android": "https://dc.lft.to/lastmile_qr_scan"}, "lat": 38.91914666666667, "lon": -77.0481705, "bike_id": "448b9b4ec57442321ee9bf126dcae3b8", "fusion_lat": 0.0, "is_disabled": 0, "fusion_lon": 0.0}, {"name": "aa69b141d7fe9058b7318d37cc87ff26", "is_reserved": 0, "type": "electric_scooter", "rental_uris": {"ios": "https://dc.lft.to/lastmile_qr_scan", "android": "https://dc.lft.to/lastmile_qr_scan"}, "lat": 38.911342833333336, "lon": -77.044136, "bike_id": "aa69b141d7fe9058b7318d37cc87ff26", "fusion_lat": 0.0, "is_disabled": 0, "fusion_lon": 0.0}, {"name": "590060d5adeb582426d8354cd83436e6", "is_reserved": 0, "type": "electric_scooter", "rental_uris": {"ios": "https://dc.lft.to/lastmile_qr_scan", "android": "https://dc.lft.to/lastmile_qr_scan"}, "lat": 38.915801333333334, "lon": -77.0317845, "bike_id": "590060d5adeb582426d8354cd83436e6", "fusion_lat": 0.0, "is_disabled": 0, "fusion_lon": 0.0}, {"name": "c5a56c6e9d672214a034473b2603a43e", "is_reserved": 0, "type": "electric_scooter", "rental_uris": {"ios": "https://dc.lft.to/lastmile_qr_scan", "android": "https://dc.lft.to/lastmile_qr_scan"}, "lat": 38.9279135, "lon": -77.05417983333334, "bike_id": "c5a56c6e9d672214a034473b2603a43e", "fusion_lat": 0.0, "is_disabled": 0, "fusion_lon": 0.0}, {"name": "0e46a6797b6feac06ae001a244e4b945", "is_reserved": 0, "type": "electric_scooter", "rental_uris": {"ios": "https://dc.lft.to/lastmile_qr_scan", "android": "https://dc.lft.to/lastmile_qr_scan"}, "lat": 38.94308183333333, "lon": -77.0593685, "bike_id": "0e46a6797b6feac06ae001a244e4b945", "fusion_lat": 0.0, "is_disabled": 0, "fusion_lon": 0.0}, {"name": "dfdd4f915ba7b97cfe5ff53d96d3748f", "is_reserved": 0, "type": "electric_scooter", "rental_uris": {"ios": "https://dc.lft.to/lastmile_qr_scan", "android": "https://dc.lft.to/lastmile_qr_scan"}, "lat": 38.936741833333336, "lon": -77.035921, "bike_id": "dfdd4f915ba7b97cfe5ff53d96d3748f", "fusion_lat": 0.0, "is_disabled": 0, "fusion_lon": 0.0}, {"name": "d963d71774b0a4d5051d2a0c41ccd0fd", "is_reserved": 0, "type": "electric_scooter", "rental_uris": {"ios": "https://dc.lft.to/lastmile_qr_scan", "android": "https://dc.lft.to/lastmile_qr_scan"}, "lat": 38.9169485, "lon": -77.03439366666667, "bike_id": "d963d71774b0a4d5051d2a0c41ccd0fd", "fusion_lat": 0.0, "is_disabled": 0, "fusion_lon": 0.0}, {"name": "71b1b8f55bec9da9515760d639044f3b", "is_reserved": 0, "type": "electric_scooter", "rental_uris": {"ios": "https://dc.lft.to/lastmile_qr_scan", "android": "https://dc.lft.to/lastmile_qr_scan"}, "lat": 38.887277166666664, "lon": -77.019816, "bike_id": "71b1b8f55bec9da9515760d639044f3b", "fusion_lat": 0.0, "is_disabled": 0, "fusion_lon": 0.0}, {"name": "cd34ef8f7403ba7232c4067aeccd1f5b", "is_reserved": 0, "type": "electric_scooter", "rental_uris": {"ios": "https://dc.lft.to/lastmile_qr_scan", "android": "https://dc.lft.to/lastmile_qr_scan"}, "lat": 38.886588, "lon": -77.0153505, "bike_id": "cd34ef8f7403ba7232c4067aeccd1f5b", "fusion_lat": 0.0, "is_disabled": 0, "fusion_lon": 0.0}, {"name": "3d041907fd621dd9b8b6316999c1ca36", "is_reserved": 0, "type": "electric_scooter", "rental_uris": {"ios": "https://dc.lft.to/lastmile_qr_scan", "android": "https://dc.lft.to/lastmile_qr_scan"}, "lat": 38.89727633333333, "lon": -77.02441983333334, "bike_id": "3d041907fd621dd9b8b6316999c1ca36", "fusion_lat": 0.0, "is_disabled": 0, "fusion_lon": 0.0}, {"name": "36900f01ebd59acc8479b67e0a94f35f", "is_reserved": 0, "type": "electric_scooter", "rental_uris": {"ios": "https://dc.lft.to/lastmile_qr_scan", "android": "https://dc.lft.to/lastmile_qr_scan"}, "lat": 38.8633085, "lon": -76.99147316666667, "bike_id": "36900f01ebd59acc8479b67e0a94f35f", "fusion_lat": 0.0, "is_disabled": 0, "fusion_lon": 0.0}, {"name": "6a5240b7e3219022bf9515d2e0d2db68", "is_reserved": 0, "type": "electric_scooter", "rental_uris": {"ios": "https://dc.lft.to/lastmile_qr_scan", "android": "https://dc.lft.to/lastmile_qr_scan"}, "lat": 38.92406733333333, "lon": -77.04445783333334, "bike_id": "6a5240b7e3219022bf9515d2e0d2db68", "fusion_lat": 0.0, "is_disabled": 0, "fusion_lon": 0.0}, {"name": "d7de9b43ee997c0bc6069b0dbf1eeadc", "is_reserved": 0, "type": "electric_scooter", "rental_uris": {"ios": "https://dc.lft.to/lastmile_qr_scan", "android": "https://dc.lft.to/lastmile_qr_scan"}, "lat": 38.9110435, "lon": -77.02725416666667, "bike_id": "d7de9b43ee997c0bc6069b0dbf1eeadc", "fusion_lat": 0.0, "is_disabled": 0, "fusion_lon": 0.0}, {"name": "d07bc41a9f21d2e48285714d047e2264", "is_reserved": 0, "type": "electric_scooter", "rental_uris": {"ios": "https://dc.lft.to/lastmile_qr_scan", "android": "https://dc.lft.to/lastmile_qr_scan"}, "lat": 38.9232915, "lon": -77.04625066666667, "bike_id": "d07bc41a9f21d2e48285714d047e2264", "fusion_lat": 0.0, "is_disabled": 0, "fusion_lon": 0.0}, {"name": "a075a2da6d72c4feac1523ca9bc20a4a", "is_reserved": 0, "type": "electric_scooter", "rental_uris": {"ios": "https://dc.lft.to/lastmile_qr_scan", "android": "https://dc.lft.to/lastmile_qr_scan"}, "lat": 38.9000275, "lon": -77.03331866666667, "bike_id": "a075a2da6d72c4feac1523ca9bc20a4a", "fusion_lat": 0.0, "is_disabled": 0, "fusion_lon": 0.0}, {"name": "a4d712701283c36f48be53cee7072dd5", "is_reserved": 0, "type": "electric_scooter", "rental_uris": {"ios": "https://dc.lft.to/lastmile_qr_scan", "android": "https://dc.lft.to/lastmile_qr_scan"}, "lat": 38.913137166666665, "lon": -77.03336616666667, "bike_id": "a4d712701283c36f48be53cee7072dd5", "fusion_lat": 0.0, "is_disabled": 0, "fusion_lon": 0.0}, {"name": "9a747e6eb0dcab3936bb7a5c312f8bb5", "is_reserved": 0, "type": "electric_scooter", "rental_uris": {"ios": "https://dc.lft.to/lastmile_qr_scan", "android": "https://dc.lft.to/lastmile_qr_scan"}, "lat": 38.886423, "lon": -76.9547595, "bike_id": "9a747e6eb0dcab3936bb7a5c312f8bb5", "fusion_lat": 0.0, "is_disabled": 0, "fusion_lon": 0.0}, {"name": "7ef365c0bb749d536ab97d0e2354d6e4", "is_reserved": 0, "type": "electric_scooter", "rental_uris": {"ios": "https://dc.lft.to/lastmile_qr_scan", "android": "https://dc.lft.to/lastmile_qr_scan"}, "lat": 38.91568516666667, "lon": -77.0117135, "bike_id": "7ef365c0bb749d536ab97d0e2354d6e4", "fusion_lat": 0.0, "is_disabled": 0, "fusion_lon": 0.0}, {"name": "e0e970bc23875a44a27c68818642c4c8", "is_reserved": 0, "type": "electric_scooter", "rental_uris": {"ios": "https://dc.lft.to/lastmile_qr_scan", "android": "https://dc.lft.to/lastmile_qr_scan"}, "lat": 38.89982933333334, "lon": -76.939873, "bike_id": "e0e970bc23875a44a27c68818642c4c8", "fusion_lat": 0.0, "is_disabled": 0, "fusion_lon": 0.0}, {"name": "593831d273a9d498b30c3b5375555b46", "is_reserved": 0, "type": "electric_scooter", "rental_uris": {"ios": "https://dc.lft.to/lastmile_qr_scan", "android": "https://dc.lft.to/lastmile_qr_scan"}, "lat": 38.90237033333333, "lon": -77.0020115, "bike_id": "593831d273a9d498b30c3b5375555b46", "fusion_lat": 0.0, "is_disabled": 0, "fusion_lon": 0.0}, {"name": "aa3f859a15e91eec1a56e2d1ea082536", "is_reserved": 0, "type": "electric_scooter", "rental_uris": {"ios": "https://dc.lft.to/lastmile_qr_scan", "android": "https://dc.lft.to/lastmile_qr_scan"}, "lat": 38.86730083333333, "lon": -76.98660716666667, "bike_id": "aa3f859a15e91eec1a56e2d1ea082536", "fusion_lat": 0.0, "is_disabled": 0, "fusion_lon": 0.0}, {"name": "7b9e9d632d7c56910b62a834871f5399", "is_reserved": 0, "type": "electric_scooter", "rental_uris": {"ios": "https://dc.lft.to/lastmile_qr_scan", "android": "https://dc.lft.to/lastmile_qr_scan"}, "lat": 38.923141666666666, "lon": -77.03916483333333, "bike_id": "7b9e9d632d7c56910b62a834871f5399", "fusion_lat": 0.0, "is_disabled": 0, "fusion_lon": 0.0}, {"name": "ddd0993b3097c22bdf8c69e613dd14be", "is_reserved": 0, "type": "electric_scooter", "rental_uris": {"ios": "https://dc.lft.to/lastmile_qr_scan", "android": "https://dc.lft.to/lastmile_qr_scan"}, "lat": 38.887195166666665, "lon": -76.99649933333333, "bike_id": "ddd0993b3097c22bdf8c69e613dd14be", "fusion_lat": 0.0, "is_disabled": 0, "fusion_lon": 0.0}, {"name": "c8cfd32316edd67c2117aefca6c13d58", "is_reserved": 0, "type": "electric_scooter", "rental_uris": {"ios": "https://dc.lft.to/lastmile_qr_scan", "android": "https://dc.lft.to/lastmile_qr_scan"}, "lat": 38.91794016666667, "lon": -77.03179516666667, "bike_id": "c8cfd32316edd67c2117aefca6c13d58", "fusion_lat": 0.0, "is_disabled": 0, "fusion_lon": 0.0}, {"name": "dd4ac92c42a92912f64e743ff8d957aa", "is_reserved": 0, "type": "electric_scooter", "rental_uris": {"ios": "https://dc.lft.to/lastmile_qr_scan", "android": "https://dc.lft.to/lastmile_qr_scan"}, "lat": 38.91420383333333, "lon": -77.01943966666667, "bike_id": "dd4ac92c42a92912f64e743ff8d957aa", "fusion_lat": 0.0, "is_disabled": 0, "fusion_lon": 0.0}, {"name": "c9cb2a71ed347f2899d986f2dc70b569", "is_reserved": 0, "type": "electric_scooter", "rental_uris": {"ios": "https://dc.lft.to/lastmile_qr_scan", "android": "https://dc.lft.to/lastmile_qr_scan"}, "lat": 38.923245, "lon": -77.0366365, "bike_id": "c9cb2a71ed347f2899d986f2dc70b569", "fusion_lat": 0.0, "is_disabled": 0, "fusion_lon": 0.0}, {"name": "d869e448cf3ba260dc8396b8811fd6e0", "is_reserved": 0, "type": "electric_scooter", "rental_uris": {"ios": "https://dc.lft.to/lastmile_qr_scan", "android": "https://dc.lft.to/lastmile_qr_scan"}, "lat": 38.91919583333333, "lon": -77.03150366666667, "bike_id": "d869e448cf3ba260dc8396b8811fd6e0", "fusion_lat": 0.0, "is_disabled": 0, "fusion_lon": 0.0}, {"name": "b22d2e726e182406983ad6f9d73b77e1", "is_reserved": 0, "type": "electric_scooter", "rental_uris": {"ios": "https://dc.lft.to/lastmile_qr_scan", "android": "https://dc.lft.to/lastmile_qr_scan"}, "lat": 38.89783166666667, "lon": -77.02413083333333, "bike_id": "b22d2e726e182406983ad6f9d73b77e1", "fusion_lat": 0.0, "is_disabled": 0, "fusion_lon": 0.0}, {"name": "304d1a6f8367fb156a0dad20b6a0323e", "is_reserved": 0, "type": "electric_bike", "rental_uris": {"ios": "https://dc.lft.to/lastmile_qr_scan", "android": "https://dc.lft.to/lastmile_qr_scan"}, "lat": 38.890879166666664, "lon": -77.18307516666667, "bike_id": "304d1a6f8367fb156a0dad20b6a0323e", "fusion_lat": 0.0, "is_disabled": 0, "fusion_lon": 0.0}, {"name": "f2545ef19181ef9409e59c53111ff8a1", "is_reserved": 0, "type": "electric_scooter", "rental_uris": {"ios": "https://dc.lft.to/lastmile_qr_scan", "android": "https://dc.lft.to/lastmile_qr_scan"}, "lat": 38.9024235, "lon": -77.0020015, "bike_id": "f2545ef19181ef9409e59c53111ff8a1", "fusion_lat": 0.0, "is_disabled": 0, "fusion_lon": 0.0}, {"name": "01dd66ea5fc014b3a2ca52c09ac4de40", "is_reserved": 0, "type": "electric_scooter", "rental_uris": {"ios": "https://dc.lft.to/lastmile_qr_scan", "android": "https://dc.lft.to/lastmile_qr_scan"}, "lat": 38.91844616666667, "lon": -77.023149, "bike_id": "01dd66ea5fc014b3a2ca52c09ac4de40", "fusion_lat": 0.0, "is_disabled": 0, "fusion_lon": 0.0}, {"name": "fc9c45c06a191b9712dd5b6915838267", "is_reserved": 0, "type": "electric_bike", "rental_uris": {"ios": "https://dc.lft.to/lastmile_qr_scan", "android": "https://dc.lft.to/lastmile_qr_scan"}, "lat": 38.966231666666665, "lon": -76.944238, "bike_id": "fc9c45c06a191b9712dd5b6915838267", "fusion_lat": 0.0, "is_disabled": 0, "fusion_lon": 0.0}, {"name": "72d40fa15615fa27cf57a44a3498020a", "is_reserved": 0, "type": "electric_scooter", "rental_uris": {"ios": "https://dc.lft.to/lastmile_qr_scan", "android": "https://dc.lft.to/lastmile_qr_scan"}, "lat": 38.928883166666665, "lon": -77.0336845, "bike_id": "72d40fa15615fa27cf57a44a3498020a", "fusion_lat": 0.0, "is_disabled": 0, "fusion_lon": 0.0}, {"name": "2db0ac40178d1625e586d5746d11e7d5", "is_reserved": 0, "type": "electric_scooter", "rental_uris": {"ios": "https://dc.lft.to/lastmile_qr_scan", "android": "https://dc.lft.to/lastmile_qr_scan"}, "lat": 38.92612066666667, "lon": -77.0216455, "bike_id": "2db0ac40178d1625e586d5746d11e7d5", "fusion_lat": 0.0, "is_disabled": 0, "fusion_lon": 0.0}, {"name": "7ff70225bbf5ed381230c79f718a3bc1", "is_reserved": 0, "type": "electric_scooter", "rental_uris": {"ios": "https://dc.lft.to/lastmile_qr_scan", "android": "https://dc.lft.to/lastmile_qr_scan"}, "lat": 38.9071705, "lon": -77.051385, "bike_id": "7ff70225bbf5ed381230c79f718a3bc1", "fusion_lat": 0.0, "is_disabled": 0, "fusion_lon": 0.0}, {"name": "2f64bd2e73d02cc6aeafece90c753011", "is_reserved": 0, "type": "electric_bike", "rental_uris": {"ios": "https://dc.lft.to/lastmile_qr_scan", "android": "https://dc.lft.to/lastmile_qr_scan"}, "lat": 38.901231, "lon": -77.057948, "bike_id": "2f64bd2e73d02cc6aeafece90c753011", "fusion_lat": 0.0, "is_disabled": 0, "fusion_lon": 0.0}, {"name": "0674b158ace8f8eb9556d61152b059f4", "is_reserved": 0, "type": "electric_scooter", "rental_uris": {"ios": "https://dc.lft.to/lastmile_qr_scan", "android": "https://dc.lft.to/lastmile_qr_scan"}, "lat": 38.895795666666665, "lon": -77.03211183333333, "bike_id": "0674b158ace8f8eb9556d61152b059f4", "fusion_lat": 0.0, "is_disabled": 0, "fusion_lon": 0.0}, {"name": "7b5b82845f55055d33d2cae693d52b49", "is_reserved": 0, "type": "electric_scooter", "rental_uris": {"ios": "https://dc.lft.to/lastmile_qr_scan", "android": "https://dc.lft.to/lastmile_qr_scan"}, "lat": 38.925485, "lon": -77.03796816666667, "bike_id": "7b5b82845f55055d33d2cae693d52b49", "fusion_lat": 0.0, "is_disabled": 0, "fusion_lon": 0.0}, {"name": "9ddb24a3f78ceb61a823b1cddd46395a", "is_reserved": 0, "type": "electric_scooter", "rental_uris": {"ios": "https://dc.lft.to/lastmile_qr_scan", "android": "https://dc.lft.to/lastmile_qr_scan"}, "lat": 38.92673383333333, "lon": -77.00772866666667, "bike_id": "9ddb24a3f78ceb61a823b1cddd46395a", "fusion_lat": 0.0, "is_disabled": 0, "fusion_lon": 0.0}, {"name": "922fddee2d3710ab59d23e82167df115", "is_reserved": 0, "type": "electric_scooter", "rental_uris": {"ios": "https://dc.lft.to/lastmile_qr_scan", "android": "https://dc.lft.to/lastmile_qr_scan"}, "lat": 38.9418845, "lon": -77.02495033333334, "bike_id": "922fddee2d3710ab59d23e82167df115", "fusion_lat": 0.0, "is_disabled": 0, "fusion_lon": 0.0}, {"name": "ac912abad5ea638c3da2f871e018765b", "is_reserved": 0, "type": "electric_scooter", "rental_uris": {"ios": "https://dc.lft.to/lastmile_qr_scan", "android": "https://dc.lft.to/lastmile_qr_scan"}, "lat": 38.933111333333336, "lon": -77.0279775, "bike_id": "ac912abad5ea638c3da2f871e018765b", "fusion_lat": 0.0, "is_disabled": 0, "fusion_lon": 0.0}, {"name": "c9861413bc5a4c31d90021b58732d54d", "is_reserved": 0, "type": "electric_scooter", "rental_uris": {"ios": "https://dc.lft.to/lastmile_qr_scan", "android": "https://dc.lft.to/lastmile_qr_scan"}, "lat": 38.84791533333333, "lon": -76.96712316666667, "bike_id": "c9861413bc5a4c31d90021b58732d54d", "fusion_lat": 0.0, "is_disabled": 0, "fusion_lon": 0.0}, {"name": "a25f44a087b1617ca83720928f358735", "is_reserved": 0, "type": "electric_scooter", "rental_uris": {"ios": "https://dc.lft.to/lastmile_qr_scan", "android": "https://dc.lft.to/lastmile_qr_scan"}, "lat": 38.887497833333335, "lon": -76.99849133333333, "bike_id": "a25f44a087b1617ca83720928f358735", "fusion_lat": 0.0, "is_disabled": 0, "fusion_lon": 0.0}, {"name": "f2faf4d66b02959c2ca715aa3894e717", "is_reserved": 0, "type": "electric_scooter", "rental_uris": {"ios": "https://dc.lft.to/lastmile_qr_scan", "android": "https://dc.lft.to/lastmile_qr_scan"}, "lat": 38.901771333333336, "lon": -76.97822233333333, "bike_id": "f2faf4d66b02959c2ca715aa3894e717", "fusion_lat": 0.0, "is_disabled": 0, "fusion_lon": 0.0}, {"name": "db5da0536deb3d15781a183a2a421194", "is_reserved": 0, "type": "electric_scooter", "rental_uris": {"ios": "https://dc.lft.to/lastmile_qr_scan", "android": "https://dc.lft.to/lastmile_qr_scan"}, "lat": 38.9025025, "lon": -77.05420766666667, "bike_id": "db5da0536deb3d15781a183a2a421194", "fusion_lat": 0.0, "is_disabled": 0, "fusion_lon": 0.0}, {"name": "f3650be77ae420364bfe53a6bc25ce58", "is_reserved": 0, "type": "electric_scooter", "rental_uris": {"ios": "https://dc.lft.to/lastmile_qr_scan", "android": "https://dc.lft.to/lastmile_qr_scan"}, "lat": 38.88344016666667, "lon": -76.99373533333333, "bike_id": "f3650be77ae420364bfe53a6bc25ce58", "fusion_lat": 0.0, "is_disabled": 0, "fusion_lon": 0.0}, {"name": "d5e83a0a2332d2197e7ca6d9d0d25a40", "is_reserved": 0, "type": "electric_bike", "rental_uris": {"ios": "https://dc.lft.to/lastmile_qr_scan", "android": "https://dc.lft.to/lastmile_qr_scan"}, "lat": 38.88136766666667, "lon": -76.98092516666667, "bike_id": "d5e83a0a2332d2197e7ca6d9d0d25a40", "fusion_lat": 0.0, "is_disabled": 0, "fusion_lon": 0.0}, {"name": "cfd72a6653a518259a5585e366343dd8", "is_reserved": 0, "type": "electric_scooter", "rental_uris": {"ios": "https://dc.lft.to/lastmile_qr_scan", "android": "https://dc.lft.to/lastmile_qr_scan"}, "lat": 38.892537833333336, "lon": -76.98839433333333, "bike_id": "cfd72a6653a518259a5585e366343dd8", "fusion_lat": 0.0, "is_disabled": 0, "fusion_lon": 0.0}, {"name": "894217c54a886f2269dabe14558afbdd", "is_reserved": 0, "type": "electric_scooter", "rental_uris": {"ios": "https://dc.lft.to/lastmile_qr_scan", "android": "https://dc.lft.to/lastmile_qr_scan"}, "lat": 38.89912533333333, "lon": -76.9336985, "bike_id": "894217c54a886f2269dabe14558afbdd", "fusion_lat": 0.0, "is_disabled": 0, "fusion_lon": 0.0}, {"name": "591ab677b0b812094732fa20385543a9", "is_reserved": 0, "type": "electric_scooter", "rental_uris": {"ios": "https://dc.lft.to/lastmile_qr_scan", "android": "https://dc.lft.to/lastmile_qr_scan"}, "lat": 38.917072, "lon": -77.0320825, "bike_id": "591ab677b0b812094732fa20385543a9", "fusion_lat": 0.0, "is_disabled": 0, "fusion_lon": 0.0}, {"name": "ae10ba0499fffa925a4fe9c1f0b86f87", "is_reserved": 0, "type": "electric_scooter", "rental_uris": {"ios": "https://dc.lft.to/lastmile_qr_scan", "android": "https://dc.lft.to/lastmile_qr_scan"}, "lat": 38.926239, "lon": -77.04194216666667, "bike_id": "ae10ba0499fffa925a4fe9c1f0b86f87", "fusion_lat": 0.0, "is_disabled": 0, "fusion_lon": 0.0}, {"name": "79e59d1dd76dece97bcfe4bf972d762a", "is_reserved": 0, "type": "electric_scooter", "rental_uris": {"ios": "https://dc.lft.to/lastmile_qr_scan", "android": "https://dc.lft.to/lastmile_qr_scan"}, "lat": 38.89849866666667, "lon": -76.94633483333334, "bike_id": "79e59d1dd76dece97bcfe4bf972d762a", "fusion_lat": 0.0, "is_disabled": 0, "fusion_lon": 0.0}, {"name": "7675d12cb25ec10fca00767811f167f8", "is_reserved": 0, "type": "electric_scooter", "rental_uris": {"ios": "https://dc.lft.to/lastmile_qr_scan", "android": "https://dc.lft.to/lastmile_qr_scan"}, "lat": 38.90809933333333, "lon": -77.03659916666666, "bike_id": "7675d12cb25ec10fca00767811f167f8", "fusion_lat": 0.0, "is_disabled": 0, "fusion_lon": 0.0}, {"name": "ce62260aca9ceb813107c597eed51f9f", "is_reserved": 0, "type": "electric_scooter", "rental_uris": {"ios": "https://dc.lft.to/lastmile_qr_scan", "android": "https://dc.lft.to/lastmile_qr_scan"}, "lat": 38.894103333333334, "lon": -76.91166616666666, "bike_id": "ce62260aca9ceb813107c597eed51f9f", "fusion_lat": 0.0, "is_disabled": 0, "fusion_lon": 0.0}, {"name": "c9b2218868111d3448e618545a6f1123", "is_reserved": 0, "type": "electric_scooter", "rental_uris": {"ios": "https://dc.lft.to/lastmile_qr_scan", "android": "https://dc.lft.to/lastmile_qr_scan"}, "lat": 38.922706166666664, "lon": -77.02184916666667, "bike_id": "c9b2218868111d3448e618545a6f1123", "fusion_lat": 0.0, "is_disabled": 0, "fusion_lon": 0.0}, {"name": "f8f0abffe3b11fa1696a5c1b450f55e8", "is_reserved": 0, "type": "electric_scooter", "rental_uris": {"ios": "https://dc.lft.to/lastmile_qr_scan", "android": "https://dc.lft.to/lastmile_qr_scan"}, "lat": 38.906894, "lon": -77.06352966666667, "bike_id": "f8f0abffe3b11fa1696a5c1b450f55e8", "fusion_lat": 0.0, "is_disabled": 0, "fusion_lon": 0.0}, {"name": "de32f4eceba53e0ee0284fd5a43a6dac", "is_reserved": 0, "type": "electric_scooter", "rental_uris": {"ios": "https://dc.lft.to/lastmile_qr_scan", "android": "https://dc.lft.to/lastmile_qr_scan"}, "lat": 38.93404783333333, "lon": -77.037752, "bike_id": "de32f4eceba53e0ee0284fd5a43a6dac", "fusion_lat": 0.0, "is_disabled": 0, "fusion_lon": 0.0}, {"name": "ba2020bb11343b13b799f9a8a5476967", "is_reserved": 0, "type": "electric_scooter", "rental_uris": {"ios": "https://dc.lft.to/lastmile_qr_scan", "android": "https://dc.lft.to/lastmile_qr_scan"}, "lat": 38.90981816666667, "lon": -77.03184066666667, "bike_id": "ba2020bb11343b13b799f9a8a5476967", "fusion_lat": 0.0, "is_disabled": 0, "fusion_lon": 0.0}, {"name": "723b83b3e5a9ce81211e91b06d591901", "is_reserved": 0, "type": "electric_scooter", "rental_uris": {"ios": "https://dc.lft.to/lastmile_qr_scan", "android": "https://dc.lft.to/lastmile_qr_scan"}, "lat": 38.91824733333333, "lon": -77.0255895, "bike_id": "723b83b3e5a9ce81211e91b06d591901", "fusion_lat": 0.0, "is_disabled": 0, "fusion_lon": 0.0}, {"name": "0b236f0741ecc5629fa75e44525fda9c", "is_reserved": 0, "type": "electric_bike", "rental_uris": {"ios": "https://dc.lft.to/lastmile_qr_scan", "android": "https://dc.lft.to/lastmile_qr_scan"}, "lat": 38.945589, "lon": -76.895372, "bike_id": "0b236f0741ecc5629fa75e44525fda9c", "fusion_lat": 0.0, "is_disabled": 0, "fusion_lon": 0.0}, {"name": "2dfb1136cc49435d995979318cce22a0", "is_reserved": 0, "type": "electric_scooter", "rental_uris": {"ios": "https://dc.lft.to/lastmile_qr_scan", "android": "https://dc.lft.to/lastmile_qr_scan"}, "lat": 38.91741183333333, "lon": -77.03449216666667, "bike_id": "2dfb1136cc49435d995979318cce22a0", "fusion_lat": 0.0, "is_disabled": 0, "fusion_lon": 0.0}, {"name": "faad97dd6bf4b4dc2468335baa8d1376", "is_reserved": 0, "type": "electric_scooter", "rental_uris": {"ios": "https://dc.lft.to/lastmile_qr_scan", "android": "https://dc.lft.to/lastmile_qr_scan"}, "lat": 38.892292833333336, "lon": -77.015295, "bike_id": "faad97dd6bf4b4dc2468335baa8d1376", "fusion_lat": 0.0, "is_disabled": 0, "fusion_lon": 0.0}, {"name": "6a5eadc1499a6eb520dbf3c7c45aad47", "is_reserved": 0, "type": "electric_scooter", "rental_uris": {"ios": "https://dc.lft.to/lastmile_qr_scan", "android": "https://dc.lft.to/lastmile_qr_scan"}, "lat": 38.903968, "lon": -77.04572683333333, "bike_id": "6a5eadc1499a6eb520dbf3c7c45aad47", "fusion_lat": 0.0, "is_disabled": 0, "fusion_lon": 0.0}, {"name": "28f3b456a777d4856c000c3f2a7745b3", "is_reserved": 0, "type": "electric_scooter", "rental_uris": {"ios": "https://dc.lft.to/lastmile_qr_scan", "android": "https://dc.lft.to/lastmile_qr_scan"}, "lat": 38.944161666666666, "lon": -77.06336783333333, "bike_id": "28f3b456a777d4856c000c3f2a7745b3", "fusion_lat": 0.0, "is_disabled": 0, "fusion_lon": 0.0}, {"name": "0c84e9a39cf82ce9fc37957650bab389", "is_reserved": 0, "type": "electric_scooter", "rental_uris": {"ios": "https://dc.lft.to/lastmile_qr_scan", "android": "https://dc.lft.to/lastmile_qr_scan"}, "lat": 38.897832, "lon": -77.01095716666667, "bike_id": "0c84e9a39cf82ce9fc37957650bab389", "fusion_lat": 0.0, "is_disabled": 0, "fusion_lon": 0.0}, {"name": "fafecc9221da36e55c83cd258fdc9c46", "is_reserved": 0, "type": "electric_scooter", "rental_uris": {"ios": "https://dc.lft.to/lastmile_qr_scan", "android": "https://dc.lft.to/lastmile_qr_scan"}, "lat": 38.939718166666665, "lon": -77.03264916666667, "bike_id": "fafecc9221da36e55c83cd258fdc9c46", "fusion_lat": 0.0, "is_disabled": 0, "fusion_lon": 0.0}, {"name": "029b2d87fdba5812222ee8b15f219030", "is_reserved": 0, "type": "electric_scooter", "rental_uris": {"ios": "https://dc.lft.to/lastmile_qr_scan", "android": "https://dc.lft.to/lastmile_qr_scan"}, "lat": 38.91580483333333, "lon": -77.03184333333333, "bike_id": "029b2d87fdba5812222ee8b15f219030", "fusion_lat": 0.0, "is_disabled": 0, "fusion_lon": 0.0}, {"name": "094adcdb549044361f770dde17f9dba2", "is_reserved": 0, "type": "electric_scooter", "rental_uris": {"ios": "https://dc.lft.to/lastmile_qr_scan", "android": "https://dc.lft.to/lastmile_qr_scan"}, "lat": 38.89347866666667, "lon": -76.99150983333334, "bike_id": "094adcdb549044361f770dde17f9dba2", "fusion_lat": 0.0, "is_disabled": 0, "fusion_lon": 0.0}, {"name": "5a34d07fa5a9cc1fe115758ab2695f9d", "is_reserved": 0, "type": "electric_scooter", "rental_uris": {"ios": "https://dc.lft.to/lastmile_qr_scan", "android": "https://dc.lft.to/lastmile_qr_scan"}, "lat": 38.9027895, "lon": -77.04510933333333, "bike_id": "5a34d07fa5a9cc1fe115758ab2695f9d", "fusion_lat": 0.0, "is_disabled": 0, "fusion_lon": 0.0}, {"name": "08da184eb5394bfc1d0c2d809818bd64", "is_reserved": 0, "type": "electric_bike", "rental_uris": {"ios": "https://dc.lft.to/lastmile_qr_scan", "android": "https://dc.lft.to/lastmile_qr_scan"}, "lat": 38.80580583333333, "lon": -77.06864483333334, "bike_id": "08da184eb5394bfc1d0c2d809818bd64", "fusion_lat": 0.0, "is_disabled": 0, "fusion_lon": 0.0}, {"name": "b3798d23e41dec4555f1a298ca9d1555", "is_reserved": 0, "type": "electric_bike", "rental_uris": {"ios": "https://dc.lft.to/lastmile_qr_scan", "android": "https://dc.lft.to/lastmile_qr_scan"}, "lat": 38.848655, "lon": -77.1175435, "bike_id": "b3798d23e41dec4555f1a298ca9d1555", "fusion_lat": 0.0, "is_disabled": 0, "fusion_lon": 0.0}, {"name": "6d908ac5c387e7c7d1f26a4f9e82781e", "is_reserved": 0, "type": "electric_scooter", "rental_uris": {"ios": "https://dc.lft.to/lastmile_qr_scan", "android": "https://dc.lft.to/lastmile_qr_scan"}, "lat": 38.89017283333333, "lon": -76.93732583333333, "bike_id": "6d908ac5c387e7c7d1f26a4f9e82781e", "fusion_lat": 0.0, "is_disabled": 0, "fusion_lon": 0.0}, {"name": "290844f6543af7415a9224bdc14fb809", "is_reserved": 0, "type": "electric_scooter", "rental_uris": {"ios": "https://dc.lft.to/lastmile_qr_scan", "android": "https://dc.lft.to/lastmile_qr_scan"}, "lat": 38.940932, "lon": -77.02730516666666, "bike_id": "290844f6543af7415a9224bdc14fb809", "fusion_lat": 0.0, "is_disabled": 0, "fusion_lon": 0.0}, {"name": "88e8bb60202a5e4153de7a86199f496e", "is_reserved": 0, "type": "electric_scooter", "rental_uris": {"ios": "https://dc.lft.to/lastmile_qr_scan", "android": "https://dc.lft.to/lastmile_qr_scan"}, "lat": 38.909757, "lon": -77.0462065, "bike_id": "88e8bb60202a5e4153de7a86199f496e", "fusion_lat": 0.0, "is_disabled": 0, "fusion_lon": 0.0}, {"name": "bafc5173869120484db389adb9baf6f5", "is_reserved": 0, "type": "electric_scooter", "rental_uris": {"ios": "https://dc.lft.to/lastmile_qr_scan", "android": "https://dc.lft.to/lastmile_qr_scan"}, "lat": 38.952496833333335, "lon": -77.06979033333333, "bike_id": "bafc5173869120484db389adb9baf6f5", "fusion_lat": 0.0, "is_disabled": 0, "fusion_lon": 0.0}, {"name": "deffdf68da5f6372078d29250e829819", "is_reserved": 0, "type": "electric_scooter", "rental_uris": {"ios": "https://dc.lft.to/lastmile_qr_scan", "android": "https://dc.lft.to/lastmile_qr_scan"}, "lat": 38.899906333333334, "lon": -77.030972, "bike_id": "deffdf68da5f6372078d29250e829819", "fusion_lat": 0.0, "is_disabled": 0, "fusion_lon": 0.0}, {"name": "2a3669fcb717df0531be95507984c63c", "is_reserved": 0, "type": "electric_scooter", "rental_uris": {"ios": "https://dc.lft.to/lastmile_qr_scan", "android": "https://dc.lft.to/lastmile_qr_scan"}, "lat": 38.9242815, "lon": -77.038996, "bike_id": "2a3669fcb717df0531be95507984c63c", "fusion_lat": 0.0, "is_disabled": 0, "fusion_lon": 0.0}, {"name": "d1d47f7712844e68f6a4dca66b4b620e", "is_reserved": 0, "type": "electric_scooter", "rental_uris": {"ios": "https://dc.lft.to/lastmile_qr_scan", "android": "https://dc.lft.to/lastmile_qr_scan"}, "lat": 38.832735, "lon": -77.0062775, "bike_id": "d1d47f7712844e68f6a4dca66b4b620e", "fusion_lat": 0.0, "is_disabled": 0, "fusion_lon": 0.0}, {"name": "1083a779d75c306e1c36d65f2e30277d", "is_reserved": 0, "type": "electric_scooter", "rental_uris": {"ios": "https://dc.lft.to/lastmile_qr_scan", "android": "https://dc.lft.to/lastmile_qr_scan"}, "lat": 38.9242275, "lon": -77.04553766666666, "bike_id": "1083a779d75c306e1c36d65f2e30277d", "fusion_lat": 0.0, "is_disabled": 0, "fusion_lon": 0.0}, {"name": "c456713314c84d9640bc093af7aad121", "is_reserved": 0, "type": "electric_scooter", "rental_uris": {"ios": "https://dc.lft.to/lastmile_qr_scan", "android": "https://dc.lft.to/lastmile_qr_scan"}, "lat": 38.900510833333335, "lon": -77.046637, "bike_id": "c456713314c84d9640bc093af7aad121", "fusion_lat": 0.0, "is_disabled": 0, "fusion_lon": 0.0}, {"name": "4072bd8522eb97d948a02624ba101663", "is_reserved": 0, "type": "electric_scooter", "rental_uris": {"ios": "https://dc.lft.to/lastmile_qr_scan", "android": "https://dc.lft.to/lastmile_qr_scan"}, "lat": 38.90915483333333, "lon": -77.022881, "bike_id": "4072bd8522eb97d948a02624ba101663", "fusion_lat": 0.0, "is_disabled": 0, "fusion_lon": 0.0}, {"name": "b7814bfd64d4acb196144e025cbb46ca", "is_reserved": 0, "type": "electric_scooter", "rental_uris": {"ios": "https://dc.lft.to/lastmile_qr_scan", "android": "https://dc.lft.to/lastmile_qr_scan"}, "lat": 38.901558666666666, "lon": -76.93060866666667, "bike_id": "b7814bfd64d4acb196144e025cbb46ca", "fusion_lat": 0.0, "is_disabled": 0, "fusion_lon": 0.0}, {"name": "907c77d305a8d9d05f45dd7471a68cc4", "is_reserved": 0, "type": "electric_scooter", "rental_uris": {"ios": "https://dc.lft.to/lastmile_qr_scan", "android": "https://dc.lft.to/lastmile_qr_scan"}, "lat": 38.9035655, "lon": -77.03707866666667, "bike_id": "907c77d305a8d9d05f45dd7471a68cc4", "fusion_lat": 0.0, "is_disabled": 0, "fusion_lon": 0.0}, {"name": "d9ba8cf83b01741f3d91bcb700b95127", "is_reserved": 0, "type": "electric_scooter", "rental_uris": {"ios": "https://dc.lft.to/lastmile_qr_scan", "android": "https://dc.lft.to/lastmile_qr_scan"}, "lat": 38.90660166666667, "lon": -77.034714, "bike_id": "d9ba8cf83b01741f3d91bcb700b95127", "fusion_lat": 0.0, "is_disabled": 0, "fusion_lon": 0.0}, {"name": "a7ff46e3d41f70e0cdcfd2b1aa731784", "is_reserved": 0, "type": "electric_scooter", "rental_uris": {"ios": "https://dc.lft.to/lastmile_qr_scan", "android": "https://dc.lft.to/lastmile_qr_scan"}, "lat": 38.902187833333336, "lon": -77.043143, "bike_id": "a7ff46e3d41f70e0cdcfd2b1aa731784", "fusion_lat": 0.0, "is_disabled": 0, "fusion_lon": 0.0}, {"name": "4d9bdba191cb9a478fff20ef9f5e7136", "is_reserved": 0, "type": "electric_scooter", "rental_uris": {"ios": "https://dc.lft.to/lastmile_qr_scan", "android": "https://dc.lft.to/lastmile_qr_scan"}, "lat": 38.8670135, "lon": -76.98401533333333, "bike_id": "4d9bdba191cb9a478fff20ef9f5e7136", "fusion_lat": 0.0, "is_disabled": 0, "fusion_lon": 0.0}, {"name": "771b14d0215e042b8287dbb8f873a797", "is_reserved": 0, "type": "electric_scooter", "rental_uris": {"ios": "https://dc.lft.to/lastmile_qr_scan", "android": "https://dc.lft.to/lastmile_qr_scan"}, "lat": 38.89496883333333, "lon": -77.00293183333334, "bike_id": "771b14d0215e042b8287dbb8f873a797", "fusion_lat": 0.0, "is_disabled": 0, "fusion_lon": 0.0}, {"name": "ba178fcd3396ac731916e67a80c509f0", "is_reserved": 0, "type": "electric_scooter", "rental_uris": {"ios": "https://dc.lft.to/lastmile_qr_scan", "android": "https://dc.lft.to/lastmile_qr_scan"}, "lat": 38.892947166666666, "lon": -76.92917816666667, "bike_id": "ba178fcd3396ac731916e67a80c509f0", "fusion_lat": 0.0, "is_disabled": 0, "fusion_lon": 0.0}, {"name": "32ab4580fc3e69b5cf51104bafa88c13", "is_reserved": 0, "type": "electric_scooter", "rental_uris": {"ios": "https://dc.lft.to/lastmile_qr_scan", "android": "https://dc.lft.to/lastmile_qr_scan"}, "lat": 38.912552833333336, "lon": -77.03124866666667, "bike_id": "32ab4580fc3e69b5cf51104bafa88c13", "fusion_lat": 0.0, "is_disabled": 0, "fusion_lon": 0.0}, {"name": "11ebf5bb26bf666f6678528973177f0d", "is_reserved": 0, "type": "electric_scooter", "rental_uris": {"ios": "https://dc.lft.to/lastmile_qr_scan", "android": "https://dc.lft.to/lastmile_qr_scan"}, "lat": 38.91990083333334, "lon": -77.02392, "bike_id": "11ebf5bb26bf666f6678528973177f0d", "fusion_lat": 0.0, "is_disabled": 0, "fusion_lon": 0.0}, {"name": "a763efdf2664f327d1cfaf30a73c29d5", "is_reserved": 0, "type": "electric_scooter", "rental_uris": {"ios": "https://dc.lft.to/lastmile_qr_scan", "android": "https://dc.lft.to/lastmile_qr_scan"}, "lat": 38.906694333333334, "lon": -77.02722583333333, "bike_id": "a763efdf2664f327d1cfaf30a73c29d5", "fusion_lat": 0.0, "is_disabled": 0, "fusion_lon": 0.0}, {"name": "5b9fd1f4f6c268ca041d9b9b185add5f", "is_reserved": 0, "type": "electric_scooter", "rental_uris": {"ios": "https://dc.lft.to/lastmile_qr_scan", "android": "https://dc.lft.to/lastmile_qr_scan"}, "lat": 38.8904305, "lon": -76.93747916666666, "bike_id": "5b9fd1f4f6c268ca041d9b9b185add5f", "fusion_lat": 0.0, "is_disabled": 0, "fusion_lon": 0.0}, {"name": "44144aaa3b9d404208e72c7ad3faaf9d", "is_reserved": 0, "type": "electric_scooter", "rental_uris": {"ios": "https://dc.lft.to/lastmile_qr_scan", "android": "https://dc.lft.to/lastmile_qr_scan"}, "lat": 38.91805883333333, "lon": -77.024959, "bike_id": "44144aaa3b9d404208e72c7ad3faaf9d", "fusion_lat": 0.0, "is_disabled": 0, "fusion_lon": 0.0}, {"name": "dfd91b908559717bb866047d45f6ed45", "is_reserved": 0, "type": "electric_scooter", "rental_uris": {"ios": "https://dc.lft.to/lastmile_qr_scan", "android": "https://dc.lft.to/lastmile_qr_scan"}, "lat": 38.914187, "lon": -77.0097365, "bike_id": "dfd91b908559717bb866047d45f6ed45", "fusion_lat": 0.0, "is_disabled": 0, "fusion_lon": 0.0}, {"name": "3501bfeb7cd5ad703fa133ff5e371345", "is_reserved": 0, "type": "electric_scooter", "rental_uris": {"ios": "https://dc.lft.to/lastmile_qr_scan", "android": "https://dc.lft.to/lastmile_qr_scan"}, "lat": 38.93174616666667, "lon": -77.07075416666666, "bike_id": "3501bfeb7cd5ad703fa133ff5e371345", "fusion_lat": 0.0, "is_disabled": 0, "fusion_lon": 0.0}, {"name": "6d52b32b8bd38bdfdc84d3730c8246b3", "is_reserved": 0, "type": "electric_scooter", "rental_uris": {"ios": "https://dc.lft.to/lastmile_qr_scan", "android": "https://dc.lft.to/lastmile_qr_scan"}, "lat": 38.87631283333333, "lon": -77.014783, "bike_id": "6d52b32b8bd38bdfdc84d3730c8246b3", "fusion_lat": 0.0, "is_disabled": 0, "fusion_lon": 0.0}, {"name": "83bc35aed984d33a632e8a3e7d4d4a67", "is_reserved": 0, "type": "electric_scooter", "rental_uris": {"ios": "https://dc.lft.to/lastmile_qr_scan", "android": "https://dc.lft.to/lastmile_qr_scan"}, "lat": 38.918140666666666, "lon": -77.0346895, "bike_id": "83bc35aed984d33a632e8a3e7d4d4a67", "fusion_lat": 0.0, "is_disabled": 0, "fusion_lon": 0.0}, {"name": "81bc8651db0136c44efeed264b610de9", "is_reserved": 0, "type": "electric_bike", "rental_uris": {"ios": "https://dc.lft.to/lastmile_qr_scan", "android": "https://dc.lft.to/lastmile_qr_scan"}, "lat": 38.958785666666664, "lon": -77.00141033333334, "bike_id": "81bc8651db0136c44efeed264b610de9", "fusion_lat": 0.0, "is_disabled": 0, "fusion_lon": 0.0}, {"name": "bc67aeefb4ca800c35a391a056f7c5ba", "is_reserved": 0, "type": "electric_scooter", "rental_uris": {"ios": "https://dc.lft.to/lastmile_qr_scan", "android": "https://dc.lft.to/lastmile_qr_scan"}, "lat": 38.86535466666667, "lon": -76.98969633333333, "bike_id": "bc67aeefb4ca800c35a391a056f7c5ba", "fusion_lat": 0.0, "is_disabled": 0, "fusion_lon": 0.0}, {"name": "89755d8d1fe0bb6f53536cc3ce38f2c8", "is_reserved": 0, "type": "electric_scooter", "rental_uris": {"ios": "https://dc.lft.to/lastmile_qr_scan", "android": "https://dc.lft.to/lastmile_qr_scan"}, "lat": 38.900808166666664, "lon": -77.01606583333333, "bike_id": "89755d8d1fe0bb6f53536cc3ce38f2c8", "fusion_lat": 0.0, "is_disabled": 0, "fusion_lon": 0.0}, {"name": "c5a5e92fe047b793ad689e4de7ad50be", "is_reserved": 0, "type": "electric_scooter", "rental_uris": {"ios": "https://dc.lft.to/lastmile_qr_scan", "android": "https://dc.lft.to/lastmile_qr_scan"}, "lat": 38.87091933333333, "lon": -76.9686895, "bike_id": "c5a5e92fe047b793ad689e4de7ad50be", "fusion_lat": 0.0, "is_disabled": 0, "fusion_lon": 0.0}, {"name": "2c5df9c3bebb50704020b1f7b46613f6", "is_reserved": 0, "type": "electric_scooter", "rental_uris": {"ios": "https://dc.lft.to/lastmile_qr_scan", "android": "https://dc.lft.to/lastmile_qr_scan"}, "lat": 38.904113, "lon": -77.06596933333333, "bike_id": "2c5df9c3bebb50704020b1f7b46613f6", "fusion_lat": 0.0, "is_disabled": 0, "fusion_lon": 0.0}, {"name": "1a163a36ea1e63b90b7afd2431de55c1", "is_reserved": 0, "type": "electric_scooter", "rental_uris": {"ios": "https://dc.lft.to/lastmile_qr_scan", "android": "https://dc.lft.to/lastmile_qr_scan"}, "lat": 38.9001245, "lon": -77.00040583333333, "bike_id": "1a163a36ea1e63b90b7afd2431de55c1", "fusion_lat": 0.0, "is_disabled": 0, "fusion_lon": 0.0}, {"name": "085dc2d721c2011d045740599828c749", "is_reserved": 0, "type": "electric_scooter", "rental_uris": {"ios": "https://dc.lft.to/lastmile_qr_scan", "android": "https://dc.lft.to/lastmile_qr_scan"}, "lat": 38.907321, "lon": -77.011338, "bike_id": "085dc2d721c2011d045740599828c749", "fusion_lat": 0.0, "is_disabled": 0, "fusion_lon": 0.0}, {"name": "4dc04313758d69899930b1d2efafc77b", "is_reserved": 0, "type": "electric_scooter", "rental_uris": {"ios": "https://dc.lft.to/lastmile_qr_scan", "android": "https://dc.lft.to/lastmile_qr_scan"}, "lat": 38.9187765, "lon": -77.0389815, "bike_id": "4dc04313758d69899930b1d2efafc77b", "fusion_lat": 0.0, "is_disabled": 0, "fusion_lon": 0.0}, {"name": "a54f9771c870d44bf7117f34a41f0558", "is_reserved": 0, "type": "electric_scooter", "rental_uris": {"ios": "https://dc.lft.to/lastmile_qr_scan", "android": "https://dc.lft.to/lastmile_qr_scan"}, "lat": 38.90732666666667, "lon": -77.0634765, "bike_id": "a54f9771c870d44bf7117f34a41f0558", "fusion_lat": 0.0, "is_disabled": 0, "fusion_lon": 0.0}, {"name": "b71f2784bb22f7c7031b4ca1bb1ce0f1", "is_reserved": 0, "type": "electric_scooter", "rental_uris": {"ios": "https://dc.lft.to/lastmile_qr_scan", "android": "https://dc.lft.to/lastmile_qr_scan"}, "lat": 38.92237733333333, "lon": -77.02198283333334, "bike_id": "b71f2784bb22f7c7031b4ca1bb1ce0f1", "fusion_lat": 0.0, "is_disabled": 0, "fusion_lon": 0.0}, {"name": "850a87ea27c567748afcbdcc51def666", "is_reserved": 0, "type": "electric_scooter", "rental_uris": {"ios": "https://dc.lft.to/lastmile_qr_scan", "android": "https://dc.lft.to/lastmile_qr_scan"}, "lat": 38.8642615, "lon": -76.99003633333334, "bike_id": "850a87ea27c567748afcbdcc51def666", "fusion_lat": 0.0, "is_disabled": 0, "fusion_lon": 0.0}, {"name": "1e7f26c8437326a128270697ae521f1f", "is_reserved": 0, "type": "electric_scooter", "rental_uris": {"ios": "https://dc.lft.to/lastmile_qr_scan", "android": "https://dc.lft.to/lastmile_qr_scan"}, "lat": 38.915267666666665, "lon": -77.01955066666666, "bike_id": "1e7f26c8437326a128270697ae521f1f", "fusion_lat": 0.0, "is_disabled": 0, "fusion_lon": 0.0}, {"name": "ebecff5ed61c68e26a8148783b445f1d", "is_reserved": 0, "type": "electric_scooter", "rental_uris": {"ios": "https://dc.lft.to/lastmile_qr_scan", "android": "https://dc.lft.to/lastmile_qr_scan"}, "lat": 38.89999366666667, "lon": -77.03382583333334, "bike_id": "ebecff5ed61c68e26a8148783b445f1d", "fusion_lat": 0.0, "is_disabled": 0, "fusion_lon": 0.0}, {"name": "06f8a2a8ac95ded165396c2a4c632663", "is_reserved": 0, "type": "electric_scooter", "rental_uris": {"ios": "https://dc.lft.to/lastmile_qr_scan", "android": "https://dc.lft.to/lastmile_qr_scan"}, "lat": 38.913365666666664, "lon": -77.01977633333334, "bike_id": "06f8a2a8ac95ded165396c2a4c632663", "fusion_lat": 0.0, "is_disabled": 0, "fusion_lon": 0.0}, {"name": "de9ea6bb406bd5965d39218ec7dceb5d", "is_reserved": 0, "type": "electric_scooter", "rental_uris": {"ios": "https://dc.lft.to/lastmile_qr_scan", "android": "https://dc.lft.to/lastmile_qr_scan"}, "lat": 38.905544, "lon": -76.9348415, "bike_id": "de9ea6bb406bd5965d39218ec7dceb5d", "fusion_lat": 0.0, "is_disabled": 0, "fusion_lon": 0.0}, {"name": "0d3b3781995d306122ad065e18428b75", "is_reserved": 0, "type": "electric_scooter", "rental_uris": {"ios": "https://dc.lft.to/lastmile_qr_scan", "android": "https://dc.lft.to/lastmile_qr_scan"}, "lat": 38.92168316666667, "lon": -77.04700116666666, "bike_id": "0d3b3781995d306122ad065e18428b75", "fusion_lat": 0.0, "is_disabled": 0, "fusion_lon": 0.0}, {"name": "e8ad04901c60ead181694af04bda84c6", "is_reserved": 0, "type": "electric_scooter", "rental_uris": {"ios": "https://dc.lft.to/lastmile_qr_scan", "android": "https://dc.lft.to/lastmile_qr_scan"}, "lat": 38.90449916666667, "lon": -77.0610975, "bike_id": "e8ad04901c60ead181694af04bda84c6", "fusion_lat": 0.0, "is_disabled": 0, "fusion_lon": 0.0}, {"name": "24e8b728622ae2ccd1011413ab3149a7", "is_reserved": 0, "type": "electric_scooter", "rental_uris": {"ios": "https://dc.lft.to/lastmile_qr_scan", "android": "https://dc.lft.to/lastmile_qr_scan"}, "lat": 38.90102783333333, "lon": -77.05912616666667, "bike_id": "24e8b728622ae2ccd1011413ab3149a7", "fusion_lat": 0.0, "is_disabled": 0, "fusion_lon": 0.0}, {"name": "0f5dd9f3ed85abea62f469217651c876", "is_reserved": 0, "type": "electric_scooter", "rental_uris": {"ios": "https://dc.lft.to/lastmile_qr_scan", "android": "https://dc.lft.to/lastmile_qr_scan"}, "lat": 38.901504, "lon": -76.94602016666667, "bike_id": "0f5dd9f3ed85abea62f469217651c876", "fusion_lat": 0.0, "is_disabled": 0, "fusion_lon": 0.0}, {"name": "777f380b3b9d4c9899079ad7e9e5265f", "is_reserved": 0, "type": "electric_scooter", "rental_uris": {"ios": "https://dc.lft.to/lastmile_qr_scan", "android": "https://dc.lft.to/lastmile_qr_scan"}, "lat": 38.924704, "lon": -77.02717, "bike_id": "777f380b3b9d4c9899079ad7e9e5265f", "fusion_lat": 0.0, "is_disabled": 0, "fusion_lon": 0.0}, {"name": "b07229ba15c22e60027c68440efe8009", "is_reserved": 0, "type": "electric_scooter", "rental_uris": {"ios": "https://dc.lft.to/lastmile_qr_scan", "android": "https://dc.lft.to/lastmile_qr_scan"}, "lat": 38.930458, "lon": -77.018165, "bike_id": "b07229ba15c22e60027c68440efe8009", "fusion_lat": 0.0, "is_disabled": 0, "fusion_lon": 0.0}, {"name": "bf589062b33a2c8e0740360a2f22e12d", "is_reserved": 0, "type": "electric_scooter", "rental_uris": {"ios": "https://dc.lft.to/lastmile_qr_scan", "android": "https://dc.lft.to/lastmile_qr_scan"}, "lat": 38.930595333333336, "lon": -77.03792866666667, "bike_id": "bf589062b33a2c8e0740360a2f22e12d", "fusion_lat": 0.0, "is_disabled": 0, "fusion_lon": 0.0}, {"name": "cc29fa605294d29f4aeb297e4f231823", "is_reserved": 0, "type": "electric_scooter", "rental_uris": {"ios": "https://dc.lft.to/lastmile_qr_scan", "android": "https://dc.lft.to/lastmile_qr_scan"}, "lat": 38.912592, "lon": -77.03215416666667, "bike_id": "cc29fa605294d29f4aeb297e4f231823", "fusion_lat": 0.0, "is_disabled": 0, "fusion_lon": 0.0}, {"name": "1cef87fce9258770f70d60427787e56f", "is_reserved": 0, "type": "electric_scooter", "rental_uris": {"ios": "https://dc.lft.to/lastmile_qr_scan", "android": "https://dc.lft.to/lastmile_qr_scan"}, "lat": 38.8957675, "lon": -77.021723, "bike_id": "1cef87fce9258770f70d60427787e56f", "fusion_lat": 0.0, "is_disabled": 0, "fusion_lon": 0.0}, {"name": "ee9833f04a3f57aedc1b4625fac173a9", "is_reserved": 0, "type": "electric_scooter", "rental_uris": {"ios": "https://dc.lft.to/lastmile_qr_scan", "android": "https://dc.lft.to/lastmile_qr_scan"}, "lat": 38.87939033333333, "lon": -77.0170365, "bike_id": "ee9833f04a3f57aedc1b4625fac173a9", "fusion_lat": 0.0, "is_disabled": 0, "fusion_lon": 0.0}, {"name": "503529690ffcf87b438f216f72204212", "is_reserved": 0, "type": "electric_bike", "rental_uris": {"ios": "https://dc.lft.to/lastmile_qr_scan", "android": "https://dc.lft.to/lastmile_qr_scan"}, "lat": 38.842958333333335, "lon": -77.08956483333333, "bike_id": "503529690ffcf87b438f216f72204212", "fusion_lat": 0.0, "is_disabled": 0, "fusion_lon": 0.0}, {"name": "4b3457e9d947652c099c57d52e3a08cb", "is_reserved": 0, "type": "electric_scooter", "rental_uris": {"ios": "https://dc.lft.to/lastmile_qr_scan", "android": "https://dc.lft.to/lastmile_qr_scan"}, "lat": 38.90498433333333, "lon": -76.9496255, "bike_id": "4b3457e9d947652c099c57d52e3a08cb", "fusion_lat": 0.0, "is_disabled": 0, "fusion_lon": 0.0}, {"name": "225dbdcbca43c0c88f0599c4e500d169", "is_reserved": 0, "type": "electric_scooter", "rental_uris": {"ios": "https://dc.lft.to/lastmile_qr_scan", "android": "https://dc.lft.to/lastmile_qr_scan"}, "lat": 38.92419366666667, "lon": -77.05062033333333, "bike_id": "225dbdcbca43c0c88f0599c4e500d169", "fusion_lat": 0.0, "is_disabled": 0, "fusion_lon": 0.0}, {"name": "e23a2c2e9431b0f36dd15bf6c22d255b", "is_reserved": 0, "type": "electric_scooter", "rental_uris": {"ios": "https://dc.lft.to/lastmile_qr_scan", "android": "https://dc.lft.to/lastmile_qr_scan"}, "lat": 38.9149655, "lon": -77.031405, "bike_id": "e23a2c2e9431b0f36dd15bf6c22d255b", "fusion_lat": 0.0, "is_disabled": 0, "fusion_lon": 0.0}, {"name": "1d00692ef92811f62afc293d9706f126", "is_reserved": 0, "type": "electric_scooter", "rental_uris": {"ios": "https://dc.lft.to/lastmile_qr_scan", "android": "https://dc.lft.to/lastmile_qr_scan"}, "lat": 38.90038916666666, "lon": -76.9916025, "bike_id": "1d00692ef92811f62afc293d9706f126", "fusion_lat": 0.0, "is_disabled": 0, "fusion_lon": 0.0}, {"name": "a7c112cdd66578e6ebe8ca9cd6b6a0b3", "is_reserved": 0, "type": "electric_scooter", "rental_uris": {"ios": "https://dc.lft.to/lastmile_qr_scan", "android": "https://dc.lft.to/lastmile_qr_scan"}, "lat": 38.890328833333335, "lon": -76.95128483333333, "bike_id": "a7c112cdd66578e6ebe8ca9cd6b6a0b3", "fusion_lat": 0.0, "is_disabled": 0, "fusion_lon": 0.0}, {"name": "d774daf5988a7489911702ec4754484b", "is_reserved": 0, "type": "electric_scooter", "rental_uris": {"ios": "https://dc.lft.to/lastmile_qr_scan", "android": "https://dc.lft.to/lastmile_qr_scan"}, "lat": 38.903345, "lon": -77.05061866666667, "bike_id": "d774daf5988a7489911702ec4754484b", "fusion_lat": 0.0, "is_disabled": 0, "fusion_lon": 0.0}, {"name": "b8f6b39eaea9f869c502372f35f1fe2a", "is_reserved": 0, "type": "electric_scooter", "rental_uris": {"ios": "https://dc.lft.to/lastmile_qr_scan", "android": "https://dc.lft.to/lastmile_qr_scan"}, "lat": 38.91701966666667, "lon": -77.04287133333334, "bike_id": "b8f6b39eaea9f869c502372f35f1fe2a", "fusion_lat": 0.0, "is_disabled": 0, "fusion_lon": 0.0}, {"name": "956020a2617abda0e9886d7504ede26d", "is_reserved": 0, "type": "electric_bike", "rental_uris": {"ios": "https://dc.lft.to/lastmile_qr_scan", "android": "https://dc.lft.to/lastmile_qr_scan"}, "lat": 38.88811183333333, "lon": -77.042782, "bike_id": "956020a2617abda0e9886d7504ede26d", "fusion_lat": 0.0, "is_disabled": 0, "fusion_lon": 0.0}, {"name": "28ec4a9f923f1678f7ee6f67d643ebf1", "is_reserved": 0, "type": "electric_scooter", "rental_uris": {"ios": "https://dc.lft.to/lastmile_qr_scan", "android": "https://dc.lft.to/lastmile_qr_scan"}, "lat": 38.9026405, "lon": -77.0022925, "bike_id": "28ec4a9f923f1678f7ee6f67d643ebf1", "fusion_lat": 0.0, "is_disabled": 0, "fusion_lon": 0.0},