{"data": {"bikes": [{"lat": 38.89218916666667, "lon": -77.026543, "is_disabled": 0, "fusion_lon": 0.0, "is_reserved": 0, "name": "3a29b01c917c253ab73a80c154e166e0", "type": "electric_scooter", "bike_id": "3a29b01c917c253ab73a80c154e166e0", "rental_uris": {"ios": "https://dc.lft.to/lastmile_qr_scan", "android": "https://dc.lft.to/lastmile_qr_scan"}, "fusion_lat": 0.0}, {"lat": 38.924381833333335, "lon": -77.0202085, "is_disabled": 0, "fusion_lon": 0.0, "is_reserved": 0, "name": "1b45d2c9020ceceb5d3262e005fa0606", "type": "electric_scooter", "bike_id": "1b45d2c9020ceceb5d3262e005fa0606", "rental_uris": {"ios": "https://dc.lft.to/lastmile_qr_scan", "android": "https://dc.lft.to/lastmile_qr_scan"}, "fusion_lat": 0.0}, {"lat": 38.938534833333335, "lon": -77.02552233333333, "is_disabled": 0, "fusion_lon": 0.0, "is_reserved": 0, "name": "bb39654c24f14aa0e31e371bad96daac", "type": "electric_scooter", "bike_id": "bb39654c24f14aa0e31e371bad96daac", "rental_uris": {"ios": "https://dc.lft.to/lastmile_qr_scan", "android": "https://dc.lft.to/lastmile_qr_scan"}, "fusion_lat": 0.0}, {"lat": 38.880830333333336, "lon": -76.9853385, "is_disabled": 0, "fusion_lon": 0.0, "is_reserved": 0, "name": "eee2262912ee0a89c947f118191f6aaa", "type": "electric_scooter", "bike_id": "eee2262912ee0a89c947f118191f6aaa", "rental_uris": {"ios": "https://dc.lft.to/lastmile_qr_scan", "android": "https://dc.lft.to/lastmile_qr_scan"}, "fusion_lat": 0.0}, {"lat": 38.914715, "lon": -77.024602, "is_disabled": 0, "fusion_lon": 0.0, "is_reserved": 0, "name": "c34b664f64606043d249509b98b28f77", "type": "electric_scooter", "bike_id": "c34b664f64606043d249509b98b28f77", "rental_uris": {"ios": "https://dc.lft.to/lastmile_qr_scan", "android": "https://dc.lft.to/lastmile_qr_scan"}, "fusion_lat": 0.0}, {"lat": 38.89885116666667, "lon": -76.997037, "is_disabled": 0, "fusion_lon": 0.0, "is_reserved": 0, "name": "3613922291698bd9b419defca9c0cef0", "type": "electric_scooter", "bike_id": "3613922291698bd9b419defca9c0cef0", "rental_uris": {"ios": "https://dc.lft.to/lastmile_qr_scan", "android": "https://dc.lft.to/lastmile_qr_scan"}, "fusion_lat": 0.0}, {"lat": 38.9250015, "lon": -77.02454133333333, "is_disabled": 0, "fusion_lon": 0.0, "is_reserved": 0, "name": "b2207929261d10be989d02415328b4b5", "type": "electric_scooter", "bike_id": "b2207929261d10be989d02415328b4b5", "rental_uris": {"ios": "https://dc.lft.to/lastmile_qr_scan", "android": "https://dc.lft.to/lastmile_qr_scan"}, "fusion_lat": 0.0}, {"lat": 38.90551083333333, "lon": -76.9946885, "is_disabled": 0, "fusion_lon": 0.0, "is_reserved": 0, "name": "f41919e07e07c90b1a8c3cae602061e5", "type": "electric_scooter", "bike_id": "f41919e07e07c90b1a8c3cae602061e5", "rental_uris": {"ios": "https://dc.lft.to/lastmile_qr_scan", "android": "https://dc.lft.to/lastmile_qr_scan"}, "fusion_lat": 0.0}, {"lat": 38.92865, "lon": -77.0276935, "is_disabled": 0, "fusion_lon": 0.0, "is_reserved": 0, "name": "fff2fc76e95d97e84a2e07607d043f4a", "type": "electric_scooter", "bike_id": "fff2fc76e95d97e84a2e07607d043f4a", "rental_uris": {"ios": "https://dc.lft.to/lastmile_qr_scan", "android": "https://dc.lft.to/lastmile_qr_scan"}, "fusion_lat": 0.0}, {"lat": 38.92031466666667, "lon": -77.03857083333334, "is_disabled": 0, "fusion_lon": 0.0, "is_reserved": 0, "name": "1e3140648e400f5d0af9690da4bc743f", "type": "electric_scooter", "bike_id": "1e3140648e400f5d0af9690da4bc743f", "rental_uris": {"ios": "https://dc.lft.to/lastmile_qr_scan", "android": "https://dc.lft.to/lastmile_qr_scan"}, "fusion_lat": 0.0}, {"lat": 38.91915766666666, "lon": -77.01198083333334, "is_disabled": 0, "fusion_lon": 0.0, "is_reserved": 0, "name": "afd0caca55f894603e7d5d9ad38a192c", "type": "electric_scooter", "bike_id": "afd0caca55f894603e7d5d9ad38a192c", "rental_uris": {"ios": "https://dc.lft.to/lastmile_qr_scan", "android": "https://dc.lft.to/lastmile_qr_scan"}, "fusion_lat": 0.0}, {"lat": 38.92088433333333, "lon": -77.07553366666667, "is_disabled": 0, "fusion_lon": 0.0, "is_reserved": 0, "name": "3fef9308649184d9c5628794b8b608c4", "type": "electric_scooter", "bike_id": "3fef9308649184d9c5628794b8b608c4", "rental_uris": {"ios": "https://dc.lft.to/lastmile_qr_scan", "android": "https://dc.lft.to/lastmile_qr_scan"}, "fusion_lat": 0.0}, {"lat": 38.91481016666667, "lon": -77.01278166666667, "is_disabled": 0, "fusion_lon": 0.0, "is_reserved": 0, "name": "d7fc6154748b4ddded9c1529a7a6ac35", "type": "electric_scooter", "bike_id": "d7fc6154748b4ddded9c1529a7a6ac35", "rental_uris": {"ios": "https://dc.lft.to/lastmile_qr_scan", "android": "https://dc.lft.to/lastmile_qr_scan"}, "fusion_lat": 0.0}, {"lat": 38.92365383333333, "lon": -77.05133616666667, "is_disabled": 0, "fusion_lon": 0.0, "is_reserved": 0, "name": "532b7dbb2fd9a7a87373133a8d616bcc", "type": "electric_scooter", "bike_id": "532b7dbb2fd9a7a87373133a8d616bcc", "rental_uris": {"ios": "https://dc.lft.to/lastmile_qr_scan", "android": "https://dc.lft.to/lastmile_qr_scan"}, "fusion_lat": 0.0}, {"lat": 38.8754775, "lon": -77.00599216666667, "is_disabled": 0, "fusion_lon": 0.0, "is_reserved": 0, "name": "1bea3c3ea306d9d78c493760c6878f5d", "type": "electric_scooter", "bike_id": "1bea3c3ea306d9d78c493760c6878f5d", "rental_uris": {"ios": "https://dc.lft.to/lastmile_qr_scan", "android": "https://dc.lft.to/lastmile_qr_scan"}, "fusion_lat": 0.0}, {"lat": 38.902694, "lon": -77.02790716666667, "is_disabled": 0, "fusion_lon": 0.0, "is_reserved": 0, "name": "ef702b997cef86fe30ea29ac399c140a", "type": "electric_scooter", "bike_id": "ef702b997cef86fe30ea29ac399c140a", "rental_uris": {"ios": "https://dc.lft.to/lastmile_qr_scan", "android": "https://dc.lft.to/lastmile_qr_scan"}, "fusion_lat": 0.0}, {"lat": 38.90894316666667, "lon": -77.03213633333333, "is_disabled": 0, "fusion_lon": 0.0, "is_reserved": 0, "name": "1addd2f2a932b787fd4a2492c69a024b", "type": "electric_bike", "bike_id": "1addd2f2a932b787fd4a2492c69a024b", "rental_uris": {"ios": "https://dc.lft.to/lastmile_qr_scan", "android": "https://dc.lft.to/lastmile_qr_scan"}, "fusion_lat": 0.0}, {"lat": 38.92348966666667, "lon": -77.0517065, "is_disabled": 0, "fusion_lon": 0.0, "is_reserved": 0, "name": "8e4bac6ab5ff9d1895d6b5227d91fb27", "type": "electric_scooter", "bike_id": "8e4bac6ab5ff9d1895d6b5227d91fb27", "rental_uris": {"ios": "https://dc.lft.to/lastmile_qr_scan", "android": "https://dc.lft.to/lastmile_qr_scan"}, "fusion_lat": 0.0}, {"lat": 38.8841065, "lon": -76.942125, "is_disabled": 0, "fusion_lon": 0.0, "is_reserved": 0, "name": "46d780d5199e8f55100ee52026fc544c", "type": "electric_scooter", "bike_id": "46d780d5199e8f55100ee52026fc544c", "rental_uris": {"ios": "https://dc.lft.to/lastmile_qr_scan", "android": "https://dc.lft.to/lastmile_qr_scan"}, "fusion_lat": 0.0}, {"lat": 38.895258, "lon": -77.0447945, "is_disabled": 0, "fusion_lon": 0.0, "is_reserved": 0, "name": "a367989b778d398c756baaf045d5b715", "type": "electric_scooter", "bike_id": "a367989b778d398c756baaf045d5b715", "rental_uris": {"ios": "https://dc.lft.to/lastmile_qr_scan", "android": "https://dc.lft.to/lastmile_qr_scan"}, "fusion_lat": 0.0}, {"lat": 38.93329133333334, "lon": -77.03263766666667, "is_disabled": 0, "fusion_lon": 0.0, "is_reserved": 0, "name": "3732653196d56ca55057a06ecbff1d9b", "type": "electric_scooter", "bike_id": "3732653196d56ca55057a06ecbff1d9b", "rental_uris": {"ios": "https://dc.lft.to/lastmile_qr_scan", "android": "https://dc.lft.to/lastmile_qr_scan"}, "fusion_lat": 0.0}, {"lat": 38.91865266666667, "lon": -77.03659116666667, "is_disabled": 0, "fusion_lon": 0.0, "is_reserved": 0, "name": "67c2b5b7b7f55a628a5558f254886fa2", "type": "electric_scooter", "bike_id": "67c2b5b7b7f55a628a5558f254886fa2", "rental_uris": {"ios": "https://dc.lft.to/lastmile_qr_scan", "android": "https://dc.lft.to/lastmile_qr_scan"}, "fusion_lat": 0.0}, {"lat": 38.9260495, "lon": -77.0215995, "is_disabled": 0, "fusion_lon": 0.0, "is_reserved": 0, "name": "2dad173b256915496a7d58c3fd59dbe7", "type": "electric_scooter", "bike_id": "2dad173b256915496a7d58c3fd59dbe7", "rental_uris": {"ios": "https://dc.lft.to/lastmile_qr_scan", "android": "https://dc.lft.to/lastmile_qr_scan"}, "fusion_lat": 0.0}, {"lat": 38.90824533333333, "lon": -76.9996165, "is_disabled": 0, "fusion_lon": 0.0, "is_reserved": 0, "name": "47c1568976d202109bb2d08307e02f9c", "type": "electric_scooter", "bike_id": "47c1568976d202109bb2d08307e02f9c", "rental_uris": {"ios": "https://dc.lft.to/lastmile_qr_scan", "android": "https://dc.lft.to/lastmile_qr_scan"}, "fusion_lat": 0.0}, {"lat": 38.92333383333333, "lon": -77.0351465, "is_disabled": 0, "fusion_lon": 0.0, "is_reserved": 0, "name": "a82f7c8584eaf43d74940d62b0db4bcc", "type": "electric_scooter", "bike_id": "a82f7c8584eaf43d74940d62b0db4bcc", "rental_uris": {"ios": "https://dc.lft.to/lastmile_qr_scan", "android": "https://dc.lft.to/lastmile_qr_scan"}, "fusion_lat": 0.0}, {"lat": 38.97498866666667, "lon": -77.01680816666666, "is_disabled": 0, "fusion_lon": 0.0, "is_reserved": 0, "name": "102e2eaedc2d2564f5659201baa390a7", "type": "electric_scooter", "bike_id": "102e2eaedc2d2564f5659201baa390a7", "rental_uris": {"ios": "https://dc.lft.to/lastmile_qr_scan", "android": "https://dc.lft.to/lastmile_qr_scan"}, "fusion_lat": 0.0}, {"lat": 38.887271, "lon": -76.98356, "is_disabled": 0, "fusion_lon": 0.0, "is_reserved": 0, "name": "294e7474edb16637a3b460377aa12847", "type": "electric_scooter", "bike_id": "294e7474edb16637a3b460377aa12847", "rental_uris": {"ios": "https://dc.lft.to/lastmile_qr_scan", "android": "https://dc.lft.to/lastmile_qr_scan"}, "fusion_lat": 0.0}, {"lat": 38.91504483333333, "lon": -77.01565633333334, "is_disabled": 0, "fusion_lon": 0.0, "is_reserved": 0, "name": "ff0fe154b4b19c3e67c6d1bb0aed4acf", "type": "electric_scooter", "bike_id": "ff0fe154b4b19c3e67c6d1bb0aed4acf", "rental_uris": {"ios": "https://dc.lft.to/lastmile_qr_scan", "android": "https://dc.lft.to/lastmile_qr_scan"}, "fusion_lat": 0.0}, {"lat": 38.937392333333335, "lon": -77.0361595, "is_disabled": 0, "fusion_lon": 0.0, "is_reserved": 0, "name": "eb702e302a4d5fcb30dd86bdb326ab18", "type": "electric_scooter", "bike_id": "eb702e302a4d5fcb30dd86bdb326ab18", "rental_uris": {"ios": "https://dc.lft.to/lastmile_qr_scan", "android": "https://dc.lft.to/lastmile_qr_scan"}, "fusion_lat": 0.0}, {"lat": 38.917491, "lon": -77.022781, "is_disabled": 0, "fusion_lon": 0.0, "is_reserved": 0, "name": "d986139e219835285bff1af10c22292a", "type": "electric_scooter", "bike_id": "d986139e219835285bff1af10c22292a", "rental_uris": {"ios": "https://dc.lft.to/lastmile_qr_scan", "android": "https://dc.lft.to/lastmile_qr_scan"}, "fusion_lat": 0.0}, {"lat": 38.8746085, "lon": -77.014543, "is_disabled": 0, "fusion_lon": 0.0, "is_reserved": 0, "name": "b56b63632f23b69adfff991d7ad5b170", "type": "electric_scooter", "bike_id": "b56b63632f23b69adfff991d7ad5b170", "rental_uris": {"ios": "https://dc.lft.to/lastmile_qr_scan", "android": "https://dc.lft.to/lastmile_qr_scan"}, "fusion_lat": 0.0}, {"lat": 38.93194916666667, "lon": -77.043035, "is_disabled": 0, "fusion_lon": 0.0, "is_reserved": 0, "name": "6255dd026c78437ca43bc2cdde33d2e5", "type": "electric_scooter", "bike_id": "6255dd026c78437ca43bc2cdde33d2e5", "rental_uris": {"ios": "https://dc.lft.to/lastmile_qr_scan", "android": "https://dc.lft.to/lastmile_qr_scan"}, "fusion_lat": 0.0}, {"lat": 38.82788, "lon": -77.12492116666667, "is_disabled": 0, "fusion_lon": 0.0, "is_reserved": 0, "name": "4b2269b7bbba5795f28cfd63b47418e0", "type": "electric_bike", "bike_id": "4b2269b7bbba5795f28cfd63b47418e0", "rental_uris": {"ios": "https://dc.lft.to/lastmile_qr_scan", "android": "https://dc.lft.to/lastmile_qr_scan"}, "fusion_lat": 0.0}, {"lat": 38.887651, "lon": -77.01304533333334, "is_disabled": 0, "fusion_lon": 0.0, "is_reserved": 0, "name": "164dfa956a5da8f59faeea7f1e4d2910", "type": "electric_scooter", "bike_id": "164dfa956a5da8f59faeea7f1e4d2910", "rental_uris": {"ios": "https://dc.lft.to/lastmile_qr_scan", "android": "https://dc.lft.to/lastmile_qr_scan"}, "fusion_lat": 0.0}, {"lat": 38.911066166666664, "lon": -77.04542633333334, "is_disabled": 0, "fusion_lon": 0.0, "is_reserved": 0, "name": "a4314e28c29c4e9e08de0a1701c4a118", "type": "electric_scooter", "bike_id": "a4314e28c29c4e9e08de0a1701c4a118", "rental_uris": {"ios": "https://dc.lft.to/lastmile_qr_scan", "android": "https://dc.lft.to/lastmile_qr_scan"}, "fusion_lat": 0.0}, {"lat": 38.91704633333333, "lon": -77.04174916666666, "is_disabled": 0, "fusion_lon": 0.0, "is_reserved": 0, "name": "f76d69b52faf3e4837ff2884e5dd8ee5", "type": "electric_scooter", "bike_id": "f76d69b52faf3e4837ff2884e5dd8ee5", "rental_uris": {"ios": "https://dc.lft.to/lastmile_qr_scan", "android": "https://dc.lft.to/lastmile_qr_scan"}, "fusion_lat": 0.0}, {"lat": 38.9085625, "lon": -77.02718566666667, "is_disabled": 0, "fusion_lon": 0.0, "is_reserved": 0, "name": "15714351d46dec033d7f1aefd1898b86", "type": "electric_scooter", "bike_id": "15714351d46dec033d7f1aefd1898b86", "rental_uris": {"ios": "https://dc.lft.to/lastmile_qr_scan", "android": "https://dc.lft.to/lastmile_qr_scan"}, "fusion_lat": 0.0}, {"lat": 38.91590516666667, "lon": -77.01717216666667, "is_disabled": 0, "fusion_lon": 0.0, "is_reserved": 0, "name": "118e67bdb7e0b0eda0df9a7b34119fb8", "type": "electric_scooter", "bike_id": "118e67bdb7e0b0eda0df9a7b34119fb8", "rental_uris": {"ios": "https://dc.lft.to/lastmile_qr_scan", "android": "https://dc.lft.to/lastmile_qr_scan"}, "fusion_lat": 0.0}, {"lat": 38.906296166666664, "lon": -77.0249975, "is_disabled": 0, "fusion_lon": 0.0, "is_reserved": 0, "name": "3cab88cdfd09dc6dc40749b46fd07be6", "type": "electric_scooter", "bike_id": "3cab88cdfd09dc6dc40749b46fd07be6", "rental_uris": {"ios": "https://dc.lft.to/lastmile_qr_scan", "android": "https://dc.lft.to/lastmile_qr_scan"}, "fusion_lat": 0.0}, {"lat": 38.95423916666667, "lon": -77.02767483333334, "is_disabled": 0, "fusion_lon": 0.0, "is_reserved": 0, "name": "bb6183f2bc4052d8454575a686489dff", "type": "electric_scooter", "bike_id": "bb6183f2bc4052d8454575a686489dff", "rental_uris": {"ios": "https://dc.lft.to/lastmile_qr_scan", "android": "https://dc.lft.to/lastmile_qr_scan"}, "fusion_lat": 0.0}, {"lat": 38.900496833333335, "lon": -77.0419585, "is_disabled": 0, "fusion_lon": 0.0, "is_reserved": 0, "name": "091594c33a26aafbfb58e1629bcb0de4", "type": "electric_scooter", "bike_id": "091594c33a26aafbfb58e1629bcb0de4", "rental_uris": {"ios": "https://dc.lft.to/lastmile_qr_scan", "android": "https://dc.lft.to/lastmile_qr_scan"}, "fusion_lat": 0.0}, {"lat": 38.8852215, "lon": -76.98215183333333, "is_disabled": 0, "fusion_lon": 0.0, "is_reserved": 0, "name": "b10104360ae1dff38035ede26df63e58", "type": "electric_scooter", "bike_id": "b10104360ae1dff38035ede26df63e58", "rental_uris": {"ios": "https://dc.lft.to/lastmile_qr_scan", "android": "https://dc.lft.to/lastmile_qr_scan"}, "fusion_lat": 0.0}, {"lat": 38.84308266666667, "lon": -76.9953905, "is_disabled": 0, "fusion_lon": 0.0, "is_reserved": 0, "name": "3b897e79ff3889343d8f3be1711ce64b", "type": "electric_scooter", "bike_id": "3b897e79ff3889343d8f3be1711ce64b", "rental_uris": {"ios": "https://dc.lft.to/lastmile_qr_scan", "android": "https://dc.lft.to/lastmile_qr_scan"}, "fusion_lat": 0.0}, {"lat": 38.8921795, "lon": -77.02661233333333, "is_disabled": 0, "fusion_lon": 0.0, "is_reserved": 0, "name": "29e70414d0e70b9e949c11abd46442b0", "type": "electric_scooter", "bike_id": "29e70414d0e70b9e949c11abd46442b0", "rental_uris": {"ios": "https://dc.lft.to/lastmile_qr_scan", "android": "https://dc.lft.to/lastmile_qr_scan"}, "fusion_lat": 0.0}, {"lat": 38.90746583333333, "lon": -77.04148366666666, "is_disabled": 0, "fusion_lon": 0.0, "is_reserved": 0, "name": "41e27598d94fe581c83c6310729771f3", "type": "electric_scooter", "bike_id": "41e27598d94fe581c83c6310729771f3", "rental_uris": {"ios": "https://dc.lft.to/lastmile_qr_scan", "android": "https://dc.lft.to/lastmile_qr_scan"}, "fusion_lat": 0.0}, {"lat": 38.92329483333333, "lon": -77.05684933333333, "is_disabled": 0, "fusion_lon": 0.0, "is_reserved": 0, "name": "22439ee150d0cea31a1d5e3326b05636", "type": "electric_scooter", "bike_id": "22439ee150d0cea31a1d5e3326b05636", "rental_uris": {"ios": "https://dc.lft.to/lastmile_qr_scan", "android": "https://dc.lft.to/lastmile_qr_scan"}, "fusion_lat": 0.0}, {"lat": 38.92589566666667, "lon": -77.21008416666666, "is_disabled": 0, "fusion_lon": 0.0, "is_reserved": 0, "name": "3f0bad0ea19a7ee02b0455da5ecda6db", "type": "electric_bike", "bike_id": "3f0bad0ea19a7ee02b0455da5ecda6db", "rental_uris": {"ios": "https://dc.lft.to/lastmile_qr_scan", "android": "https://dc.lft.to/lastmile_qr_scan"}, "fusion_lat": 0.0}, {"lat": 38.90013, "lon": -76.99975066666667, "is_disabled": 0, "fusion_lon": 0.0, "is_reserved": 0, "name": "a509b85d53f93e96cb087ad4787e3c43", "type": "electric_scooter", "bike_id": "a509b85d53f93e96cb087ad4787e3c43", "rental_uris": {"ios": "https://dc.lft.to/lastmile_qr_scan", "android": "https://dc.lft.to/lastmile_qr_scan"}, "fusion_lat": 0.0}, {"lat": 38.93247816666667, "lon": -77.03282816666666, "is_disabled": 0, "fusion_lon": 0.0, "is_reserved": 0, "name": "cdf4c27b72f7c4af669daeeb8c2e2ae4", "type": "electric_scooter", "bike_id": "cdf4c27b72f7c4af669daeeb8c2e2ae4", "rental_uris": {"ios": "https://dc.lft.to/lastmile_qr_scan", "android": "https://dc.lft.to/lastmile_qr_scan"}, "fusion_lat": 0.0}, {"lat": 38.930990333333334, "lon": -77.02661433333333, "is_disabled": 0, "fusion_lon": 0.0, "is_reserved": 0, "name": "644fbed9d5341c5a117405aabcdc838a", "type": "electric_scooter", "bike_id": "644fbed9d5341c5a117405aabcdc838a", "rental_uris": {"ios": "https://dc.lft.to/lastmile_qr_scan", "android": "https://dc.lft.to/lastmile_qr_scan"}, "fusion_lat": 0.0}, {"lat": 38.930957, "lon": -77.034753, "is_disabled": 0, "fusion_lon": 0.0, "is_reserved": 0, "name": "acd60bda6c6b4cc3d230a5af7e677e18", "type": "electric_bike", "bike_id": "acd60bda6c6b4cc3d230a5af7e677e18", "rental_uris": {"ios": "https://dc.lft.to/lastmile_qr_scan", "android": "https://dc.lft.to/lastmile_qr_scan"}, "fusion_lat": 0.0}, {"lat": 38.8846175, "lon": -76.952309, "is_disabled": 0, "fusion_lon": 0.0, "is_reserved": 0, "name": "e4de6bb6fa7719b19017074038507f1a", "type": "electric_bike", "bike_id": "e4de6bb6fa7719b19017074038507f1a", "rental_uris": {"ios": "https://dc.lft.to/lastmile_qr_scan", "android": "https://dc.lft.to/lastmile_qr_scan"}, "fusion_lat": 0.0}, {"lat": 38.94920533333333, "lon": -77.007993, "is_disabled": 0, "fusion_lon": 0.0, "is_reserved": 0, "name": "539fb4123db8f0c43497ba62eb7519e6", "type": "electric_bike", "bike_id": "539fb4123db8f0c43497ba62eb7519e6", "rental_uris": {"ios": "https://dc.lft.to/lastmile_qr_scan", "android": "https://dc.lft.to/lastmile_qr_scan"}, "fusion_lat": 0.0}, {"lat": 38.924798, "lon": -77.03528633333333, "is_disabled": 0, "fusion_lon": 0.0, "is_reserved": 0, "name": "9302a1414b116c9b06894bf9b21123a7", "type": "electric_scooter", "bike_id": "9302a1414b116c9b06894bf9b21123a7", "rental_uris": {"ios": "https://dc.lft.to/lastmile_qr_scan", "android": "https://dc.lft.to/lastmile_qr_scan"}, "fusion_lat": 0.0}, {"lat": 38.914951, "lon": -77.0346345, "is_disabled": 0, "fusion_lon": 0.0, "is_reserved": 0, "name": "fe1c2b90ba5270145ced75e975399c81", "type": "electric_scooter", "bike_id": "fe1c2b90ba5270145ced75e975399c81", "rental_uris": {"ios": "https://dc.lft.to/lastmile_qr_scan", "android": "https://dc.lft.to/lastmile_qr_scan"}, "fusion_lat": 0.0}, {"lat": 38.896131833333335, "lon": -77.02146766666667, "is_disabled": 0, "fusion_lon": 0.0, "is_reserved": 0, "name": "a718175b2e012168364cb255f78641cc", "type": "electric_scooter", "bike_id": "a718175b2e012168364cb255f78641cc", "rental_uris": {"ios": "https://dc.lft.to/lastmile_qr_scan", "android": "https://dc.lft.to/lastmile_qr_scan"}, "fusion_lat": 0.0}, {"lat": 38.93199466666667, "lon": -77.02821, "is_disabled": 0, "fusion_lon": 0.0, "is_reserved": 0, "name": "11a885059cbc2b169456ecdbb6197b29", "type": "electric_scooter", "bike_id": "11a885059cbc2b169456ecdbb6197b29", "rental_uris": {"ios": "https://dc.lft.to/lastmile_qr_scan", "android": "https://dc.lft.to/lastmile_qr_scan"}, "fusion_lat": 0.0}, {"lat": 38.9141355, "lon": -77.02184066666666, "is_disabled": 0, "fusion_lon": 0.0, "is_reserved": 0, "name": "d9fc4e004c1e4c706e8f5b7d1ac0c41d", "type": "electric_scooter", "bike_id": "d9fc4e004c1e4c706e8f5b7d1ac0c41d", "rental_uris": {"ios": "https://dc.lft.to/lastmile_qr_scan", "android": "https://dc.lft.to/lastmile_qr_scan"}, "fusion_lat": 0.0}, {"lat": 38.8980205, "lon": -76.99070416666666, "is_disabled": 0, "fusion_lon": 0.0, "is_reserved": 0, "name": "96295f219a6c856746a51145aed5471e", "type": "electric_bike", "bike_id": "96295f219a6c856746a51145aed5471e", "rental_uris": {"ios": "https://dc.lft.to/lastmile_qr_scan", "android": "https://dc.lft.to/lastmile_qr_scan"}, "fusion_lat": 0.0}, {"lat": 38.91890566666667, "lon": -77.02943966666666, "is_disabled": 0, "fusion_lon": 0.0, "is_reserved": 0, "name": "41847c89fa7d994ca8679ac1ba168e61", "type": "electric_scooter", "bike_id": "41847c89fa7d994ca8679ac1ba168e61", "rental_uris": {"ios": "https://dc.lft.to/lastmile_qr_scan", "android": "https://dc.lft.to/lastmile_qr_scan"}, "fusion_lat": 0.0}, {"lat": 38.99387266666667, "lon": -76.92883933333333, "is_disabled": 0, "fusion_lon": 0.0, "is_reserved": 0, "name": "8bdaf0d7ab5dffac57acb249e3a791c6", "type": "electric_bike", "bike_id": "8bdaf0d7ab5dffac57acb249e3a791c6", "rental_uris": {"ios": "https://dc.lft.to/lastmile_qr_scan", "android": "https://dc.lft.to/lastmile_qr_scan"}, "fusion_lat": 0.0}, {"lat": 38.91711466666667, "lon": -77.0262725, "is_disabled": 0, "fusion_lon": 0.0, "is_reserved": 0, "name": "d3762b613ad1a7b699c2abe03fb4559b", "type": "electric_scooter", "bike_id": "d3762b613ad1a7b699c2abe03fb4559b", "rental_uris": {"ios": "https://dc.lft.to/lastmile_qr_scan", "android": "https://dc.lft.to/lastmile_qr_scan"}, "fusion_lat": 0.0}, {"lat": 38.903269333333334, "lon": -77.02442183333334, "is_disabled": 0, "fusion_lon": 0.0, "is_reserved": 0, "name": "4159167bd07c5654bf29c56a55370063", "type": "electric_scooter", "bike_id": "4159167bd07c5654bf29c56a55370063", "rental_uris": {"ios": "https://dc.lft.to/lastmile_qr_scan", "android": "https://dc.lft.to/lastmile_qr_scan"}, "fusion_lat": 0.0}, {"lat": 38.90014883333333, "lon": -77.0375525, "is_disabled": 0, "fusion_lon": 0.0, "is_reserved": 0, "name": "50d3d17840d8f1657c2979d7ea16aa1e", "type": "electric_scooter", "bike_id": "50d3d17840d8f1657c2979d7ea16aa1e", "rental_uris": {"ios": "https://dc.lft.to/lastmile_qr_scan", "android": "https://dc.lft.to/lastmile_qr_scan"}, "fusion_lat": 0.0}, {"lat": 38.921406, "lon": -77.0436075, "is_disabled": 0, "fusion_lon": 0.0, "is_reserved": 0, "name": "262d62ded32e4e4706fcec24fdc69608", "type": "electric_scooter", "bike_id": "262d62ded32e4e4706fcec24fdc69608", "rental_uris": {"ios": "https://dc.lft.to/lastmile_qr_scan", "android": "https://dc.lft.to/lastmile_qr_scan"}, "fusion_lat": 0.0}, {"lat": 38.906601, "lon": -77.009659, "is_disabled": 0, "fusion_lon": 0.0, "is_reserved": 0, "name": "c3822d39729e623b4cc55329aaabd1b6", "type": "electric_scooter", "bike_id": "c3822d39729e623b4cc55329aaabd1b6", "rental_uris": {"ios": "https://dc.lft.to/lastmile_qr_scan", "android": "https://dc.lft.to/lastmile_qr_scan"}, "fusion_lat": 0.0}, {"lat": 38.9156955, "lon": -77.02290866666667, "is_disabled": 0, "fusion_lon": 0.0, "is_reserved": 0, "name": "90480cdd30a3666c57e6c0cdb477c002", "type": "electric_scooter", "bike_id": "90480cdd30a3666c57e6c0cdb477c002", "rental_uris": {"ios": "https://dc.lft.to/lastmile_qr_scan", "android": "https://dc.lft.to/lastmile_qr_scan"}, "fusion_lat": 0.0}, {"lat": 38.937197833333336, "lon": -77.0325895, "is_disabled": 0, "fusion_lon": 0.0, "is_reserved": 0, "name": "fb1f1e2223449d943ea1467f794c0af6", "type": "electric_scooter", "bike_id": "fb1f1e2223449d943ea1467f794c0af6", "rental_uris": {"ios": "https://dc.lft.to/lastmile_qr_scan", "android": "https://dc.lft.to/lastmile_qr_scan"}, "fusion_lat": 0.0}, {"lat": 38.93485233333333, "lon": -77.07272683333333, "is_disabled": 0, "fusion_lon": 0.0, "is_reserved": 0, "name": "9c82e40fe8e0787d9ee7eed1e445c06c", "type": "electric_scooter", "bike_id": "9c82e40fe8e0787d9ee7eed1e445c06c", "rental_uris": {"ios": "https://dc.lft.to/lastmile_qr_scan", "android": "https://dc.lft.to/lastmile_qr_scan"}, "fusion_lat": 0.0}, {"lat": 38.8874565, "lon": -77.02569566666666, "is_disabled": 0, "fusion_lon": 0.0, "is_reserved": 0, "name": "ac0418d31cd747a5d181d99758459ba7", "type": "electric_scooter", "bike_id": "ac0418d31cd747a5d181d99758459ba7", "rental_uris": {"ios": "https://dc.lft.to/lastmile_qr_scan", "android": "https://dc.lft.to/lastmile_qr_scan"}, "fusion_lat": 0.0}, {"lat": 38.94975766666667, "lon": -77.02445666666667, "is_disabled": 0, "fusion_lon": 0.0, "is_reserved": 0, "name": "8eadc63a3ab44d9644e01400dadd5e46", "type": "electric_scooter", "bike_id": "8eadc63a3ab44d9644e01400dadd5e46", "rental_uris": {"ios": "https://dc.lft.to/lastmile_qr_scan", "android": "https://dc.lft.to/lastmile_qr_scan"}, "fusion_lat": 0.0}, {"lat": 38.90824883333333, "lon": -76.93433116666667, "is_disabled": 0, "fusion_lon": 0.0, "is_reserved": 0, "name": "0805462964c1312aec4a398159be23e3", "type": "electric_scooter", "bike_id": "0805462964c1312aec4a398159be23e3", "rental_uris": {"ios": "https://dc.lft.to/lastmile_qr_scan", "android": "https://dc.lft.to/lastmile_qr_scan"}, "fusion_lat": 0.0}, {"lat": 38.91857816666667, "lon": -76.960876, "is_disabled": 0, "fusion_lon": 0.0, "is_reserved": 0, "name": "4c3dfd1cd9a8288e247c948e4ce4eece", "type": "electric_bike", "bike_id": "4c3dfd1cd9a8288e247c948e4ce4eece", "rental_uris": {"ios": "https://dc.lft.to/lastmile_qr_scan", "android": "https://dc.lft.to/lastmile_qr_scan"}, "fusion_lat": 0.0}, {"lat": 38.89921733333333, "lon": -77.01273366666666, "is_disabled": 0, "fusion_lon": 0.0, "is_reserved": 0, "name": "99555639e1c857c0da418303c70f0c4b", "type": "electric_scooter", "bike_id": "99555639e1c857c0da418303c70f0c4b", "rental_uris": {"ios": "https://dc.lft.to/lastmile_qr_scan", "android": "https://dc.lft.to/lastmile_qr_scan"}, "fusion_lat": 0.0}, {"lat": 38.92879416666667, "lon": -77.041198, "is_disabled": 0, "fusion_lon": 0.0, "is_reserved": 0, "name": "d974e97834c718cc57d2a4cb8e5074b1", "type": "electric_scooter", "bike_id": "d974e97834c718cc57d2a4cb8e5074b1", "rental_uris": {"ios": "https://dc.lft.to/lastmile_qr_scan", "android": "https://dc.lft.to/lastmile_qr_scan"}, "fusion_lat": 0.0}, {"lat": 38.91277783333334, "lon": -77.04508916666667, "is_disabled": 0, "fusion_lon": 0.0, "is_reserved": 0, "name": "3b13ae30056142e8fe17b2af0b655046", "type": "electric_scooter", "bike_id": "3b13ae30056142e8fe17b2af0b655046", "rental_uris": {"ios": "https://dc.lft.to/lastmile_qr_scan", "android": "https://dc.lft.to/lastmile_qr_scan"}, "fusion_lat": 0.0}, {"lat": 38.9158025, "lon": -77.0318925, "is_disabled": 0, "fusion_lon": 0.0, "is_reserved": 0, "name": "1c1ed5309710a02141f228775b792cd2", "type": "electric_scooter", "bike_id": "1c1ed5309710a02141f228775b792cd2", "rental_uris": {"ios": "https://dc.lft.to/lastmile_qr_scan", "android": "https://dc.lft.to/lastmile_qr_scan"}, "fusion_lat": 0.0}, {"lat": 38.890717, "lon": -76.988368, "is_disabled": 0, "fusion_lon": 0.0, "is_reserved": 0, "name": "97e8ca5d401b5da0fff523deb74e20ea", "type": "electric_scooter", "bike_id": "97e8ca5d401b5da0fff523deb74e20ea", "rental_uris": {"ios": "https://dc.lft.to/lastmile_qr_scan", "android": "https://dc.lft.to/lastmile_qr_scan"}, "fusion_lat": 0.0}, {"lat": 38.876558833333334, "lon": -77.01478633333333, "is_disabled": 0, "fusion_lon": 0.0, "is_reserved": 0, "name": "1125b2b1377e0a790977ed89c4fe24cb", "type": "electric_scooter", "bike_id": "1125b2b1377e0a790977ed89c4fe24cb", "rental_uris": {"ios": "https://dc.lft.to/lastmile_qr_scan", "android": "https://dc.lft.to/lastmile_qr_scan"}, "fusion_lat": 0.0}, {"lat": 38.83628566666667, "lon": -77.069514, "is_disabled": 0, "fusion_lon": 0.0, "is_reserved": 0, "name": "0eb051fc51cee57016454aca20298680", "type": "electric_bike", "bike_id": "0eb051fc51cee57016454aca20298680", "rental_uris": {"ios": "https://dc.lft.to/lastmile_qr_scan", "android": "https://dc.lft.to/lastmile_qr_scan"}, "fusion_lat": 0.0}, {"lat": 38.961508, "lon": -77.027739, "is_disabled": 0, "fusion_lon": 0.0, "is_reserved": 0, "name": "a470aad7c135c8f6a9e2a2f94a4726b9", "type": "electric_scooter", "bike_id": "a470aad7c135c8f6a9e2a2f94a4726b9", "rental_uris": {"ios": "https://dc.lft.to/lastmile_qr_scan", "android": "https://dc.lft.to/lastmile_qr_scan"}, "fusion_lat": 0.0}, {"lat": 38.9072075, "lon": -77.01663283333333, "is_disabled": 0, "fusion_lon": 0.0, "is_reserved": 0, "name": "e035e1012f9b2ccd7cb1142e0c0ccbe0", "type": "electric_scooter", "bike_id": "e035e1012f9b2ccd7cb1142e0c0ccbe0", "rental_uris": {"ios": "https://dc.lft.to/lastmile_qr_scan", "android": "https://dc.lft.to/lastmile_qr_scan"}, "fusion_lat": 0.0}, {"lat": 38.92055466666667, "lon": -77.04622183333333, "is_disabled": 0, "fusion_lon": 0.0, "is_reserved": 0, "name": "6c43267d3177cfba7b12c912397c11fc", "type": "electric_scooter", "bike_id": "6c43267d3177cfba7b12c912397c11fc", "rental_uris": {"ios": "https://dc.lft.to/lastmile_qr_scan", "android": "https://dc.lft.to/lastmile_qr_scan"}, "fusion_lat": 0.0}, {"lat": 38.905718, "lon": -77.034623, "is_disabled": 0, "fusion_lon": 0.0, "is_reserved": 0, "name": "7adc30d218b02bbb1875fffc1e3ceb3c", "type": "electric_scooter", "bike_id": "7adc30d218b02bbb1875fffc1e3ceb3c", "rental_uris": {"ios": "https://dc.lft.to/lastmile_qr_scan", "android": "https://dc.lft.to/lastmile_qr_scan"}, "fusion_lat": 0.0}, {"lat": 38.93052766666667, "lon": -77.03225283333333, "is_disabled": 0, "fusion_lon": 0.0, "is_reserved": 0, "name": "965c351817e4d51c719e1de6fc46328c", "type": "electric_scooter", "bike_id": "965c351817e4d51c719e1de6fc46328c", "rental_uris": {"ios": "https://dc.lft.to/lastmile_qr_scan", "android": "https://dc.lft.to/lastmile_qr_scan"}, "fusion_lat": 0.0}, {"lat": 38.93243016666667, "lon": -77.03279116666667, "is_disabled": 0, "fusion_lon": 0.0, "is_reserved": 0, "name": "75d7afe541e1913993ed80e2ff7a718b", "type": "electric_scooter", "bike_id": "75d7afe541e1913993ed80e2ff7a718b", "rental_uris": {"ios": "https://dc.lft.to/lastmile_qr_scan", "android": "https://dc.lft.to/lastmile_qr_scan"}, "fusion_lat": 0.0}, {"lat": 38.9079005, "lon": -77.04505366666666, "is_disabled": 0, "fusion_lon": 0.0, "is_reserved": 0, "name": "92d63cd24fc1ac960a774b979f520095", "type": "electric_scooter", "bike_id": "92d63cd24fc1ac960a774b979f520095", "rental_uris": {"ios": "https://dc.lft.to/lastmile_qr_scan", "android": "https://dc.lft.to/lastmile_qr_scan"}, "fusion_lat": 0.0}, {"lat": 38.8993045, "lon": -77.0497715, "is_disabled": 0, "fusion_lon": 0.0, "is_reserved": 0, "name": "d339d1c64e7699593623c8b6ecd9f9ee", "type": "electric_scooter", "bike_id": "d339d1c64e7699593623c8b6ecd9f9ee", "rental_uris": {"ios": "https://dc.lft.to/lastmile_qr_scan", "android": "https://dc.lft.to/lastmile_qr_scan"}, "fusion_lat": 0.0}, {"lat": 38.89613883333333, "lon": -76.98565916666666, "is_disabled": 0, "fusion_lon": 0.0, "is_reserved": 0, "name": "4e068a59201ac826340bb4d0c44ad3ef", "type": "electric_scooter", "bike_id": "4e068a59201ac826340bb4d0c44ad3ef", "rental_uris": {"ios": "https://dc.lft.to/lastmile_qr_scan", "android": "https://dc.lft.to/lastmile_qr_scan"}, "fusion_lat": 0.0}, {"lat": 38.92101816666667, "lon": -77.025235, "is_disabled": 0, "fusion_lon": 0.0, "is_reserved": 0, "name": "f88267a720ef9c4639e27f307338c0f7", "type": "electric_scooter", "bike_id": "f88267a720ef9c4639e27f307338c0f7", "rental_uris": {"ios": "https://dc.lft.to/lastmile_qr_scan", "android": "https://dc.lft.to/lastmile_qr_scan"}, "fusion_lat": 0.0}, {"lat": 38.956557, "lon": -77.009895, "is_disabled": 0, "fusion_lon": 0.0, "is_reserved": 0, "name": "dbb5a1fde2145833eba4a8b8aadf19b2", "type": "electric_scooter", "bike_id": "dbb5a1fde2145833eba4a8b8aadf19b2", "rental_uris": {"ios": "https://dc.lft.to/lastmile_qr_scan", "android": "https://dc.lft.to/lastmile_qr_scan"}, "fusion_lat": 0.0}, {"lat": 38.926030833333336, "lon": -77.0238625, "is_disabled": 0, "fusion_lon": 0.0, "is_reserved": 0, "name": "3cf204e0fdb91f2a15e35ba33d262b77", "type": "electric_scooter", "bike_id": "3cf204e0fdb91f2a15e35ba33d262b77", "rental_uris": {"ios": "https://dc.lft.to/lastmile_qr_scan", "android": "https://dc.lft.to/lastmile_qr_scan"}, "fusion_lat": 0.0}, {"lat": 38.87842716666667, "lon": -77.00637483333334, "is_disabled": 0, "fusion_lon": 0.0, "is_reserved": 0, "name": "5510c6de30c88b58d38b8094547e42ae", "type": "electric_scooter", "bike_id": "5510c6de30c88b58d38b8094547e42ae", "rental_uris": {"ios": "https://dc.lft.to/lastmile_qr_scan", "android": "https://dc.lft.to/lastmile_qr_scan"}, "fusion_lat": 0.0}, {"lat": 38.900853166666664, "lon": -77.05882966666667, "is_disabled": 0, "fusion_lon": 0.0, "is_reserved": 0, "name": "1f2e24e3460d65adc1daeb35baeb2665", "type": "electric_bike", "bike_id": "1f2e24e3460d65adc1daeb35baeb2665", "rental_uris": {"ios": "https://dc.lft.to/lastmile_qr_scan", "android": "https://dc.lft.to/lastmile_qr_scan"}, "fusion_lat": 0.0}, {"lat": 38.92158116666667, "lon": -77.03384433333333, "is_disabled": 0, "fusion_lon": 0.0, "is_reserved": 0, "name": "be51157f81731de43e7b95de38a52aa2", "type": "electric_scooter", "bike_id": "be51157f81731de43e7b95de38a52aa2", "rental_uris": {"ios": "https://dc.lft.to/lastmile_qr_scan", "android": "https://dc.lft.to/lastmile_qr_scan"}, "fusion_lat": 0.0}, {"lat": 38.919059, "lon": -77.02406533333334, "is_disabled": 0, "fusion_lon": 0.0, "is_reserved": 0, "name": "b95a320f1410a46fc98247fb392af6b4", "type": "electric_scooter", "bike_id": "b95a320f1410a46fc98247fb392af6b4", "rental_uris": {"ios": "https://dc.lft.to/lastmile_qr_scan", "android": "https://dc.lft.to/lastmile_qr_scan"}, "fusion_lat": 0.0}, {"lat": 38.8873005, "lon": -77.02578083333333, "is_disabled": 0, "fusion_lon": 0.0, "is_reserved": 0, "name": "0e44d569bbb3bcfd8a3c6dbe3528b5bd", "type": "electric_scooter", "bike_id": "0e44d569bbb3bcfd8a3c6dbe3528b5bd", "rental_uris": {"ios": "https://dc.lft.to/lastmile_qr_scan", "android": "https://dc.lft.to/lastmile_qr_scan"}, "fusion_lat": 0.0}, {"lat": 38.87374283333333, "lon": -77.00165933333334, "is_disabled": 0, "fusion_lon": 0.0, "is_reserved": 0, "name": "ba6e915ebd1346586468763b196885c9", "type": "electric_scooter", "bike_id": "ba6e915ebd1346586468763b196885c9", "rental_uris": {"ios": "https://dc.lft.to/lastmile_qr_scan", "android": "https://dc.lft.to/lastmile_qr_scan"}, "fusion_lat": 0.0}, {"lat": 38.93122183333333, "lon": -77.03038616666667, "is_disabled": 0, "fusion_lon": 0.0, "is_reserved": 0, "name": "9a74a8a4790b46337d57b3505958892b", "type": "electric_scooter", "bike_id": "9a74a8a4790b46337d57b3505958892b", "rental_uris": {"ios": "https://dc.lft.to/lastmile_qr_scan", "android": "https://dc.lft.to/lastmile_qr_scan"}, "fusion_lat": 0.0}, {"lat": 38.85090483333333, "lon": -76.95707683333333, "is_disabled": 0, "fusion_lon": 0.0, "is_reserved": 0, "name": "45c0ea02f97880edef64c259f0d82d1f", "type": "electric_bike", "bike_id": "45c0ea02f97880edef64c259f0d82d1f", "rental_uris": {"ios": "https://dc.lft.to/lastmile_qr_scan", "android": "https://dc.lft.to/lastmile_qr_scan"}, "fusion_lat": 0.0}, {"lat": 38.926204166666665, "lon": -77.04192016666667, "is_disabled": 0, "fusion_lon": 0.0, "is_reserved": 0, "name": "c7cfbf2dcf11c4b773ff106c7c54068c", "type": "electric_scooter", "bike_id": "c7cfbf2dcf11c4b773ff106c7c54068c", "rental_uris": {"ios": "https://dc.lft.to/lastmile_qr_scan", "android": "https://dc.lft.to/lastmile_qr_scan"}, "fusion_lat": 0.0}, {"lat": 38.9191435, "lon": -77.02367766666667, "is_disabled": 0, "fusion_lon": 0.0, "is_reserved": 0, "name": "18efdba263d9c8ae616d3bab230bf4f5", "type": "electric_scooter", "bike_id": "18efdba263d9c8ae616d3bab230bf4f5", "rental_uris": {"ios": "https://dc.lft.to/lastmile_qr_scan", "android": "https://dc.lft.to/lastmile_qr_scan"}, "fusion_lat": 0.0}, {"lat": 38.975020666666666, "lon": -77.016681, "is_disabled": 0, "fusion_lon": 0.0, "is_reserved": 0, "name": "23f3b5d079d1395542782d2140c35b76", "type": "electric_scooter", "bike_id": "23f3b5d079d1395542782d2140c35b76", "rental_uris": {"ios": "https://dc.lft.to/lastmile_qr_scan", "android": "https://dc.lft.to/lastmile_qr_scan"}, "fusion_lat": 0.0}, {"lat": 38.91199533333333, "lon": -77.04157633333334, "is_disabled": 0, "fusion_lon": 0.0, "is_reserved": 0, "name": "c237d78a65fcae1b9d588a43bbe3fa8e", "type": "electric_scooter", "bike_id": "c237d78a65fcae1b9d588a43bbe3fa8e", "rental_uris": {"ios": "https://dc.lft.to/lastmile_qr_scan", "android": "https://dc.lft.to/lastmile_qr_scan"}, "fusion_lat": 0.0}, {"lat": 38.93068433333333, "lon": -77.02159233333333, "is_disabled": 0, "fusion_lon": 0.0, "is_reserved": 0, "name": "088524649ff9e8c2a482279054e6a486", "type": "electric_scooter", "bike_id": "088524649ff9e8c2a482279054e6a486", "rental_uris": {"ios": "https://dc.lft.to/lastmile_qr_scan", "android": "https://dc.lft.to/lastmile_qr_scan"}, "fusion_lat": 0.0}, {"lat": 38.91472816666667, "lon": -77.038506, "is_disabled": 0, "fusion_lon": 0.0, "is_reserved": 0, "name": "e43e95e7ab34da7bceecb9c718a787ad", "type": "electric_scooter", "bike_id": "e43e95e7ab34da7bceecb9c718a787ad", "rental_uris": {"ios": "https://dc.lft.to/lastmile_qr_scan", "android": "https://dc.lft.to/lastmile_qr_scan"}, "fusion_lat": 0.0}, {"lat": 38.902403166666666, "lon": -77.04713816666667, "is_disabled": 0, "fusion_lon": 0.0, "is_reserved": 0, "name": "af2c29e4a61bc6b541159810853faf6c", "type": "electric_scooter", "bike_id": "af2c29e4a61bc6b541159810853faf6c", "rental_uris": {"ios": "https://dc.lft.to/lastmile_qr_scan", "android": "https://dc.lft.to/lastmile_qr_scan"}, "fusion_lat": 0.0}, {"lat": 38.88447383333333, "lon": -77.0176235, "is_disabled": 0, "fusion_lon": 0.0, "is_reserved": 0, "name": "5f56a42972de4330aa24e243b8610e94", "type": "electric_scooter", "bike_id": "5f56a42972de4330aa24e243b8610e94", "rental_uris": {"ios": "https://dc.lft.to/lastmile_qr_scan", "android": "https://dc.lft.to/lastmile_qr_scan"}, "fusion_lat": 0.0}, {"lat": 38.923378, "lon": -77.01909966666666, "is_disabled": 0, "fusion_lon": 0.0, "is_reserved": 0, "name": "9ad3b471012ccaf0d0a1bdfa785affcf", "type": "electric_scooter", "bike_id": "9ad3b471012ccaf0d0a1bdfa785affcf", "rental_uris": {"ios": "https://dc.lft.to/lastmile_qr_scan", "android": "https://dc.lft.to/lastmile_qr_scan"}, "fusion_lat": 0.0}, {"lat": 38.95933483333334, "lon": -76.9283815, "is_disabled": 0, "fusion_lon": 0.0, "is_reserved": 0, "name": "003dcc220844cd7e7917c8c03ef018e3", "type": "electric_bike", "bike_id": "003dcc220844cd7e7917c8c03ef018e3", "rental_uris": {"ios": "https://dc.lft.to/lastmile_qr_scan", "android": "https://dc.lft.to/lastmile_qr_scan"}, "fusion_lat": 0.0}, {"lat": 38.907349833333335, "lon": -77.02984216666667, "is_disabled": 0, "fusion_lon": 0.0, "is_reserved": 0, "name": "5fa0690dddcde8e3842bcf94c42b738b", "type": "electric_scooter", "bike_id": "5fa0690dddcde8e3842bcf94c42b738b", "rental_uris": {"ios": "https://dc.lft.to/lastmile_qr_scan", "android": "https://dc.lft.to/lastmile_qr_scan"}, "fusion_lat": 0.0}, {"lat": 38.922612666666666, "lon": -77.03687783333334, "is_disabled": 0, "fusion_lon": 0.0, "is_reserved": 0, "name": "e3a942ec4e697f14c464e944d857acb5", "type": "electric_scooter", "bike_id": "e3a942ec4e697f14c464e944d857acb5", "rental_uris": {"ios": "https://dc.lft.to/lastmile_qr_scan", "android": "https://dc.lft.to/lastmile_qr_scan"}, "fusion_lat": 0.0}, {"lat": 38.895684333333335, "lon": -76.98316733333333, "is_disabled": 0, "fusion_lon": 0.0, "is_reserved": 0, "name": "f093e02962011ec943760ed76c4fab8d", "type": "electric_scooter", "bike_id": "f093e02962011ec943760ed76c4fab8d", "rental_uris": {"ios": "https://dc.lft.to/lastmile_qr_scan", "android": "https://dc.lft.to/lastmile_qr_scan"}, "fusion_lat": 0.0}, {"lat": 38.934663, "lon": -77.04133966666667, "is_disabled": 0, "fusion_lon": 0.0, "is_reserved": 0, "name": "82bbf8ca4a5afdd7a7fe9d7d302cc1d7", "type": "electric_scooter", "bike_id": "82bbf8ca4a5afdd7a7fe9d7d302cc1d7", "rental_uris": {"ios": "https://dc.lft.to/lastmile_qr_scan", "android": "https://dc.lft.to/lastmile_qr_scan"}, "fusion_lat": 0.0}, {"lat": 38.90971483333333, "lon": -77.048039, "is_disabled": 0, "fusion_lon": 0.0, "is_reserved": 0, "name": "fe56fb2b490934189a91c9ddc3f04295", "type": "electric_scooter", "bike_id": "fe56fb2b490934189a91c9ddc3f04295", "rental_uris": {"ios": "https://dc.lft.to/lastmile_qr_scan", "android": "https://dc.lft.to/lastmile_qr_scan"}, "fusion_lat": 0.0}, {"lat": 38.935878333333335, "lon": -77.03527716666666, "is_disabled": 0, "fusion_lon": 0.0, "is_reserved": 0, "name": "bdae43c425b9194a30bc3eee25c51a45", "type": "electric_scooter", "bike_id": "bdae43c425b9194a30bc3eee25c51a45", "rental_uris": {"ios": "https://dc.lft.to/lastmile_qr_scan", "android": "https://dc.lft.to/lastmile_qr_scan"}, "fusion_lat": 0.0}, {"lat": 38.887028, "lon": -76.99383116666667, "is_disabled": 0, "fusion_lon": 0.0, "is_reserved": 0, "name": "24ab79f57e4554ac86b928f88c55efeb", "type": "electric_scooter", "bike_id": "24ab79f57e4554ac86b928f88c55efeb", "rental_uris": {"ios": "https://dc.lft.to/lastmile_qr_scan", "android": "https://dc.lft.to/lastmile_qr_scan"}, "fusion_lat": 0.0}, {"lat": 38.922861, "lon": -77.03660666666667, "is_disabled": 0, "fusion_lon": 0.0, "is_reserved": 0, "name": "2fee884ac2e0fd6a07a9d66271eb86b3", "type": "electric_scooter", "bike_id": "2fee884ac2e0fd6a07a9d66271eb86b3", "rental_uris": {"ios": "https://dc.lft.to/lastmile_qr_scan", "android": "https://dc.lft.to/lastmile_qr_scan"}, "fusion_lat": 0.0}, {"lat": 38.916080666666666, "lon": -77.045103, "is_disabled": 0, "fusion_lon": 0.0, "is_reserved": 0, "name": "25cce0d8eafd5c7204b9e2ed258bcd76", "type": "electric_scooter", "bike_id": "25cce0d8eafd5c7204b9e2ed258bcd76", "rental_uris": {"ios": "https://dc.lft.to/lastmile_qr_scan", "android": "https://dc.lft.to/lastmile_qr_scan"}, "fusion_lat": 0.0}, {"lat": 38.925546833333335, "lon": -77.05265833333333, "is_disabled": 0, "fusion_lon": 0.0, "is_reserved": 0, "name": "8421db17ce8308231c271ca81f1dab2f", "type": "electric_scooter", "bike_id": "8421db17ce8308231c271ca81f1dab2f", "rental_uris": {"ios": "https://dc.lft.to/lastmile_qr_scan", "android": "https://dc.lft.to/lastmile_qr_scan"}, "fusion_lat": 0.0}, {"lat": 38.937082833333335, "lon": -77.0351985, "is_disabled": 0, "fusion_lon": 0.0, "is_reserved": 0, "name": "f6c438d1d22c0e4e463a2fc924f42e63", "type": "electric_scooter", "bike_id": "f6c438d1d22c0e4e463a2fc924f42e63", "rental_uris": {"ios": "https://dc.lft.to/lastmile_qr_scan", "android": "https://dc.lft.to/lastmile_qr_scan"}, "fusion_lat": 0.0}, {"lat": 38.9162405, "lon": -77.04012433333334, "is_disabled": 0, "fusion_lon": 0.0, "is_reserved": 0, "name": "fe8da863c1776ec67a9b9132862daf3e", "type": "electric_scooter", "bike_id": "fe8da863c1776ec67a9b9132862daf3e", "rental_uris": {"ios": "https://dc.lft.to/lastmile_qr_scan", "android": "https://dc.lft.to/lastmile_qr_scan"}, "fusion_lat": 0.0}, {"lat": 38.93869333333333, "lon": -77.02458816666666, "is_disabled": 0, "fusion_lon": 0.0, "is_reserved": 0, "name": "5a309af4b4372275653b8f4c158a9b1b", "type": "electric_scooter", "bike_id": "5a309af4b4372275653b8f4c158a9b1b", "rental_uris": {"ios": "https://dc.lft.to/lastmile_qr_scan", "android": "https://dc.lft.to/lastmile_qr_scan"}, "fusion_lat": 0.0}, {"lat": 38.92061483333333, "lon": -77.0318745, "is_disabled": 0, "fusion_lon": 0.0, "is_reserved": 0, "name": "dcd1da4e1e26457b8d837cb6ecfbbb31", "type": "electric_scooter", "bike_id": "dcd1da4e1e26457b8d837cb6ecfbbb31", "rental_uris": {"ios": "https://dc.lft.to/lastmile_qr_scan", "android": "https://dc.lft.to/lastmile_qr_scan"}, "fusion_lat": 0.0}, {"lat": 38.914157333333335, "lon": -77.0209205, "is_disabled": 0, "fusion_lon": 0.0, "is_reserved": 0, "name": "de1a69abf3cd681b7bfe2c72581ac6ca", "type": "electric_scooter", "bike_id": "de1a69abf3cd681b7bfe2c72581ac6ca", "rental_uris": {"ios": "https://dc.lft.to/lastmile_qr_scan", "android": "https://dc.lft.to/lastmile_qr_scan"}, "fusion_lat": 0.0}, {"lat": 38.90252666666667, "lon": -77.02789333333334, "is_disabled": 0, "fusion_lon": 0.0, "is_reserved": 0, "name": "6ce4db1336d3904a9077c8c4bdc9f0c1", "type": "electric_scooter", "bike_id": "6ce4db1336d3904a9077c8c4bdc9f0c1", "rental_uris": {"ios": "https://dc.lft.to/lastmile_qr_scan", "android": "https://dc.lft.to/lastmile_qr_scan"}, "fusion_lat": 0.0}, {"lat": 38.91943, "lon": -77.04532533333334, "is_disabled": 0, "fusion_lon": 0.0, "is_reserved": 0, "name": "74c35e21af678a560f60bd9cf9563cca", "type": "electric_scooter", "bike_id": "74c35e21af678a560f60bd9cf9563cca", "rental_uris": {"ios": "https://dc.lft.to/lastmile_qr_scan", "android": "https://dc.lft.to/lastmile_qr_scan"}, "fusion_lat": 0.0}, {"lat": 38.927358, "lon": -77.027024, "is_disabled": 0, "fusion_lon": 0.0, "is_reserved": 0, "name": "26c26710639ecb49b46ca4d360c8b92b", "type": "electric_scooter", "bike_id": "26c26710639ecb49b46ca4d360c8b92b", "rental_uris": {"ios": "https://dc.lft.to/lastmile_qr_scan", "android": "https://dc.lft.to/lastmile_qr_scan"}, "fusion_lat": 0.0}, {"lat": 38.8811875, "lon": -76.998664, "is_disabled": 0, "fusion_lon": 0.0, "is_reserved": 0, "name": "cb1d25d49cb681fda31d107e93458e24", "type": "electric_scooter", "bike_id": "cb1d25d49cb681fda31d107e93458e24", "rental_uris": {"ios": "https://dc.lft.to/lastmile_qr_scan", "android": "https://dc.lft.to/lastmile_qr_scan"}, "fusion_lat": 0.0}, {"lat": 38.9096845, "lon": -77.04847616666666, "is_disabled": 0, "fusion_lon": 0.0, "is_reserved": 0, "name": "56fe428ed001591d0cd660f2e4fecc84", "type": "electric_scooter", "bike_id": "56fe428ed001591d0cd660f2e4fecc84", "rental_uris": {"ios": "https://dc.lft.to/lastmile_qr_scan", "android": "https://dc.lft.to/lastmile_qr_scan"}, "fusion_lat": 0.0}, {"lat": 38.91555866666667, "lon": -77.00586733333333, "is_disabled": 0, "fusion_lon": 0.0, "is_reserved": 0, "name": "027d4ee03f8bb7e028ed74df330ff990", "type": "electric_scooter", "bike_id": "027d4ee03f8bb7e028ed74df330ff990", "rental_uris": {"ios": "https://dc.lft.to/lastmile_qr_scan", "android": "https://dc.lft.to/lastmile_qr_scan"}, "fusion_lat": 0.0}, {"lat": 38.92098283333333, "lon": -76.99493383333333, "is_disabled": 0, "fusion_lon": 0.0, "is_reserved": 0, "name": "4ddbfb8b4c8951be1e98cd640a0776d1", "type": "electric_scooter", "bike_id": "4ddbfb8b4c8951be1e98cd640a0776d1", "rental_uris": {"ios": "https://dc.lft.to/lastmile_qr_scan", "android": "https://dc.lft.to/lastmile_qr_scan"}, "fusion_lat": 0.0}, {"lat": 38.910732, "lon": -77.004534, "is_disabled": 0, "fusion_lon": 0.0, "is_reserved": 0, "name": "f169b1f25dba2854d7efde2fbaf922bb", "type": "electric_scooter", "bike_id": "f169b1f25dba2854d7efde2fbaf922bb", "rental_uris": {"ios": "https://dc.lft.to/lastmile_qr_scan", "android": "https://dc.lft.to/lastmile_qr_scan"}, "fusion_lat": 0.0}, {"lat": 38.964400166666664, "lon": -77.03152933333334, "is_disabled": 0, "fusion_lon": 0.0, "is_reserved": 0, "name": "cde749214ecf130eb837d1fc325f26c0", "type": "electric_bike", "bike_id": "cde749214ecf130eb837d1fc325f26c0", "rental_uris": {"ios": "https://dc.lft.to/lastmile_qr_scan", "android": "https://dc.lft.to/lastmile_qr_scan"}, "fusion_lat": 0.0}, {"lat": 38.92217216666667, "lon": -77.02128116666667, "is_disabled": 0, "fusion_lon": 0.0, "is_reserved": 0, "name": "11fb424d1f0264b9e040c4f97f6fc9f3", "type": "electric_scooter", "bike_id": "11fb424d1f0264b9e040c4f97f6fc9f3", "rental_uris": {"ios": "https://dc.lft.to/lastmile_qr_scan", "android": "https://dc.lft.to/lastmile_qr_scan"}, "fusion_lat": 0.0}, {"lat": 38.889583333333334, "lon": -76.93681283333333, "is_disabled": 0, "fusion_lon": 0.0, "is_reserved": 0, "name": "a89fe387a5584aef20a0889d87460fb0", "type": "electric_scooter", "bike_id": "a89fe387a5584aef20a0889d87460fb0", "rental_uris": {"ios": "https://dc.lft.to/lastmile_qr_scan", "android": "https://dc.lft.to/lastmile_qr_scan"}, "fusion_lat": 0.0}, {"lat": 38.90330983333333, "lon": -77.06284916666667, "is_disabled": 0, "fusion_lon": 0.0, "is_reserved": 0, "name": "9c169ab801ec41b78b3b5732bfb53fc6", "type": "electric_scooter", "bike_id": "9c169ab801ec41b78b3b5732bfb53fc6", "rental_uris": {"ios": "https://dc.lft.to/lastmile_qr_scan", "android": "https://dc.lft.to/lastmile_qr_scan"}, "fusion_lat": 0.0}, {"lat": 38.90439333333333, "lon": -76.99826783333333, "is_disabled": 0, "fusion_lon": 0.0, "is_reserved": 0, "name": "4da0a65663bd80ba86f28b9299af7571", "type": "electric_scooter", "bike_id": "4da0a65663bd80ba86f28b9299af7571", "rental_uris": {"ios": "https://dc.lft.to/lastmile_qr_scan", "android": "https://dc.lft.to/lastmile_qr_scan"}, "fusion_lat": 0.0}, {"lat": 38.91570333333333, "lon": -77.019109, "is_disabled": 0, "fusion_lon": 0.0, "is_reserved": 0, "name": "6eea603df2f4254c143f1fea93295086", "type": "electric_scooter", "bike_id": "6eea603df2f4254c143f1fea93295086", "rental_uris": {"ios": "https://dc.lft.to/lastmile_qr_scan", "android": "https://dc.lft.to/lastmile_qr_scan"}, "fusion_lat": 0.0}, {"lat": 38.90742866666667, "lon": -77.04153766666667, "is_disabled": 0, "fusion_lon": 0.0, "is_reserved": 0, "name": "a1545e2ce11bdde0f4fc9eb35ffd4c0e", "type": "electric_scooter", "bike_id": "a1545e2ce11bdde0f4fc9eb35ffd4c0e", "rental_uris": {"ios": "https://dc.lft.to/lastmile_qr_scan", "android": "https://dc.lft.to/lastmile_qr_scan"}, "fusion_lat": 0.0}, {"lat": 38.9090975, "lon": -77.02718616666667, "is_disabled": 0, "fusion_lon": 0.0, "is_reserved": 0, "name": "f2e54bfcf3b3ef6a86f27739a4441afa", "type": "electric_scooter", "bike_id": "f2e54bfcf3b3ef6a86f27739a4441afa", "rental_uris": {"ios": "https://dc.lft.to/lastmile_qr_scan", "android": "https://dc.lft.to/lastmile_qr_scan"}, "fusion_lat": 0.0}, {"lat": 38.923413333333336, "lon": -77.05172766666666, "is_disabled": 0, "fusion_lon": 0.0, "is_reserved": 0, "name": "0e3a5df56db600d3f2c6b8946d996cc0", "type": "electric_scooter", "bike_id": "0e3a5df56db600d3f2c6b8946d996cc0", "rental_uris": {"ios": "https://dc.lft.to/lastmile_qr_scan", "android": "https://dc.lft.to/lastmile_qr_scan"}, "fusion_lat": 0.0}, {"lat": 38.87719716666667, "lon": -77.01707216666667, "is_disabled": 0, "fusion_lon": 0.0, "is_reserved": 0, "name": "20ce2fa1b891745206db1ae27772cd5b", "type": "electric_scooter", "bike_id": "20ce2fa1b891745206db1ae27772cd5b", "rental_uris": {"ios": "https://dc.lft.to/lastmile_qr_scan", "android": "https://dc.lft.to/lastmile_qr_scan"}, "fusion_lat": 0.0}, {"lat": 38.910056, "lon": -77.04910983333333, "is_disabled": 0, "fusion_lon": 0.0, "is_reserved": 0, "name": "8c81db6d7509c46cac641b7777195a69", "type": "electric_scooter", "bike_id": "8c81db6d7509c46cac641b7777195a69", "rental_uris": {"ios": "https://dc.lft.to/lastmile_qr_scan", "android": "https://dc.lft.to/lastmile_qr_scan"}, "fusion_lat": 0.0}, {"lat": 38.868912333333334, "lon": -76.98520183333333, "is_disabled": 0, "fusion_lon": 0.0, "is_reserved": 0, "name": "25eceda803df8797de5291091c7ae0ff", "type": "electric_bike", "bike_id": "25eceda803df8797de5291091c7ae0ff", "rental_uris": {"ios": "https://dc.lft.to/lastmile_qr_scan", "android": "https://dc.lft.to/lastmile_qr_scan"}, "fusion_lat": 0.0}, {"lat": 38.91522716666667, "lon": -77.03859133333333, "is_disabled": 0, "fusion_lon": 0.0, "is_reserved": 0, "name": "34892b6819169bdb967c7ca5582313ef", "type": "electric_scooter", "bike_id": "34892b6819169bdb967c7ca5582313ef", "rental_uris": {"ios": "https://dc.lft.to/lastmile_qr_scan", "android": "https://dc.lft.to/lastmile_qr_scan"}, "fusion_lat": 0.0}, {"lat": 38.9051525, "lon": -77.04823, "is_disabled": 0, "fusion_lon": 0.0, "is_reserved": 0, "name": "a2a4b10d153f234e857ac1c1f8f74b8c", "type": "electric_scooter", "bike_id": "a2a4b10d153f234e857ac1c1f8f74b8c", "rental_uris": {"ios": "https://dc.lft.to/lastmile_qr_scan", "android": "https://dc.lft.to/lastmile_qr_scan"}, "fusion_lat": 0.0}, {"lat": 38.921532666666664, "lon": -77.03357083333333, "is_disabled": 0, "fusion_lon": 0.0, "is_reserved": 0, "name": "bd17952a7194fd5dd304b0f6ae3a35fe", "type": "electric_scooter", "bike_id": "bd17952a7194fd5dd304b0f6ae3a35fe", "rental_uris": {"ios": "https://dc.lft.to/lastmile_qr_scan", "android": "https://dc.lft.to/lastmile_qr_scan"}, "fusion_lat": 0.0}, {"lat": 38.94993566666667, "lon": -77.080189, "is_disabled": 0, "fusion_lon": 0.0, "is_reserved": 0, "name": "bc75267f0d8ac7fb613094ce87db6030", "type": "electric_scooter", "bike_id": "bc75267f0d8ac7fb613094ce87db6030", "rental_uris": {"ios": "https://dc.lft.to/lastmile_qr_scan", "android": "https://dc.lft.to/lastmile_qr_scan"}, "fusion_lat": 0.0}, {"lat": 39.052520666666666, "lon": -77.08067583333333, "is_disabled": 0, "fusion_lon": 0.0, "is_reserved": 0, "name": "61d097a4ca9bf89f26c94218d95862f3", "type": "electric_bike", "bike_id": "61d097a4ca9bf89f26c94218d95862f3", "rental_uris": {"ios": "https://dc.lft.to/lastmile_qr_scan", "android": "https://dc.lft.to/lastmile_qr_scan"}, "fusion_lat": 0.0}, {"lat": 38.8997945, "lon": -76.98537083333333, "is_disabled": 0, "fusion_lon": 0.0, "is_reserved": 0, "name": "c6546db05b384cd4e535ac90164625f1", "type": "electric_scooter", "bike_id": "c6546db05b384cd4e535ac90164625f1", "rental_uris": {"ios": "https://dc.lft.to/lastmile_qr_scan", "android": "https://dc.lft.to/lastmile_qr_scan"}, "fusion_lat": 0.0}, {"lat": 38.847545333333336, "lon": -76.99497366666667, "is_disabled": 0, "fusion_lon": 0.0, "is_reserved": 0, "name": "6252e7258befdfdd45ead5a5a36ba858", "type": "electric_scooter", "bike_id": "6252e7258befdfdd45ead5a5a36ba858", "rental_uris": {"ios": "https://dc.lft.to/lastmile_qr_scan", "android": "https://dc.lft.to/lastmile_qr_scan"}, "fusion_lat": 0.0}, {"lat": 38.89778333333334, "lon": -77.0270845, "is_disabled": 0, "fusion_lon": 0.0, "is_reserved": 0, "name": "f12d6fa3eeb952f6c1fab519006049c2", "type": "electric_scooter", "bike_id": "f12d6fa3eeb952f6c1fab519006049c2", "rental_uris": {"ios": "https://dc.lft.to/lastmile_qr_scan", "android": "https://dc.lft.to/lastmile_qr_scan"}, "fusion_lat": 0.0}, {"lat": 38.89242383333333, "lon": -77.048771, "is_disabled": 0, "fusion_lon": 0.0, "is_reserved": 0, "name": "4c0090d88bda9eeaa477214fd04d0479", "type": "electric_scooter", "bike_id": "4c0090d88bda9eeaa477214fd04d0479", "rental_uris": {"ios": "https://dc.lft.to/lastmile_qr_scan", "android": "https://dc.lft.to/lastmile_qr_scan"}, "fusion_lat": 0.0}, {"lat": 38.8825585, "lon": -77.00550533333333, "is_disabled": 0, "fusion_lon": 0.0, "is_reserved": 0, "name": "b8ceb61582f223b9536b6bb6c01f97e6", "type": "electric_scooter", "bike_id": "b8ceb61582f223b9536b6bb6c01f97e6", "rental_uris": {"ios": "https://dc.lft.to/lastmile_qr_scan", "android": "https://dc.lft.to/lastmile_qr_scan"}, "fusion_lat": 0.0}, {"lat": 38.935986166666666, "lon": -77.02116066666666, "is_disabled": 0, "fusion_lon": 0.0, "is_reserved": 0, "name": "319cee0cfffc14e42bfabe68cee7ae7b", "type": "electric_bike", "bike_id": "319cee0cfffc14e42bfabe68cee7ae7b", "rental_uris": {"ios": "https://dc.lft.to/lastmile_qr_scan", "android": "https://dc.lft.to/lastmile_qr_scan"}, "fusion_lat": 0.0}, {"lat": 38.89878233333334, "lon": -77.05004116666667, "is_disabled": 0, "fusion_lon": 0.0, "is_reserved": 0, "name": "5780bacf67463671a78b8c96fac4a04f", "type": "electric_scooter", "bike_id": "5780bacf67463671a78b8c96fac4a04f", "rental_uris": {"ios": "https://dc.lft.to/lastmile_qr_scan", "android": "https://dc.lft.to/lastmile_qr_scan"}, "fusion_lat": 0.0}, {"lat": 38.87268666666667, "lon": -77.01356466666667, "is_disabled": 0, "fusion_lon": 0.0, "is_reserved": 0, "name": "3157c5ce4398dae3b82d2276115ca7f4", "type": "electric_scooter", "bike_id": "3157c5ce4398dae3b82d2276115ca7f4", "rental_uris": {"ios": "https://dc.lft.to/lastmile_qr_scan", "android": "https://dc.lft.to/lastmile_qr_scan"}, "fusion_lat": 0.0}, {"lat": 38.9425105, "lon": -77.03627883333333, "is_disabled": 0, "fusion_lon": 0.0, "is_reserved": 0, "name": "2bc3b79b9f3bd1ab427efae56fae7065", "type": "electric_scooter", "bike_id": "2bc3b79b9f3bd1ab427efae56fae7065", "rental_uris": {"ios": "https://dc.lft.to/lastmile_qr_scan", "android": "https://dc.lft.to/lastmile_qr_scan"}, "fusion_lat": 0.0}, {"lat": 38.8696275, "lon": -76.97857883333333, "is_disabled": 0, "fusion_lon": 0.0, "is_reserved": 0, "name": "6d055170c75c9286812d86946a49db01", "type": "electric_scooter", "bike_id": "6d055170c75c9286812d86946a49db01", "rental_uris": {"ios": "https://dc.lft.to/lastmile_qr_scan", "android": "https://dc.lft.to/lastmile_qr_scan"}, "fusion_lat": 0.0}, {"lat": 38.8737285, "lon": -77.00091433333333, "is_disabled": 0, "fusion_lon": 0.0, "is_reserved": 0, "name": "624cee64ee13d7a6aa873fa98c09a439", "type": "electric_scooter", "bike_id": "624cee64ee13d7a6aa873fa98c09a439", "rental_uris": {"ios": "https://dc.lft.to/lastmile_qr_scan", "android": "https://dc.lft.to/lastmile_qr_scan"}, "fusion_lat": 0.0}, {"lat": 38.894950333333334, "lon": -77.003556, "is_disabled": 0, "fusion_lon": 0.0, "is_reserved": 0, "name": "5703ffae9bb40044a68658de04a3d9b1", "type": "electric_scooter", "bike_id": "5703ffae9bb40044a68658de04a3d9b1", "rental_uris": {"ios": "https://dc.lft.to/lastmile_qr_scan", "android": "https://dc.lft.to/lastmile_qr_scan"}, "fusion_lat": 0.0}, {"lat": 38.91714666666667, "lon": -77.02401116666667, "is_disabled": 0, "fusion_lon": 0.0, "is_reserved": 0, "name": "5f798adbaaea3f6af8273986b2f61232", "type": "electric_scooter", "bike_id": "5f798adbaaea3f6af8273986b2f61232", "rental_uris": {"ios": "https://dc.lft.to/lastmile_qr_scan", "android": "https://dc.lft.to/lastmile_qr_scan"}, "fusion_lat": 0.0}, {"lat": 38.90088566666667, "lon": -77.0492185, "is_disabled": 0, "fusion_lon": 0.0, "is_reserved": 0, "name": "5dc47dbab5558d2d1b4909db22ed54de", "type": "electric_scooter", "bike_id": "5dc47dbab5558d2d1b4909db22ed54de", "rental_uris": {"ios": "https://dc.lft.to/lastmile_qr_scan", "android": "https://dc.lft.to/lastmile_qr_scan"}, "fusion_lat": 0.0}, {"lat": 38.91661083333334, "lon": -77.03853016666666, "is_disabled": 0, "fusion_lon": 0.0, "is_reserved": 0, "name": "226bc680b8478cc381548815c5a5beca", "type": "electric_scooter", "bike_id": "226bc680b8478cc381548815c5a5beca", "rental_uris": {"ios": "https://dc.lft.to/lastmile_qr_scan", "android": "https://dc.lft.to/lastmile_qr_scan"}, "fusion_lat": 0.0}, {"lat": 38.920684, "lon": -77.0231805, "is_disabled": 0, "fusion_lon": 0.0, "is_reserved": 0, "name": "c67eccd4c90268266dc1c0c57598e68d", "type": "electric_scooter", "bike_id": "c67eccd4c90268266dc1c0c57598e68d", "rental_uris": {"ios": "https://dc.lft.to/lastmile_qr_scan", "android": "https://dc.lft.to/lastmile_qr_scan"}, "fusion_lat": 0.0}, {"lat": 38.8782555, "lon": -76.99607133333333, "is_disabled": 0, "fusion_lon": 0.0, "is_reserved": 0, "name": "d2a776b464499299d78f807376d29736", "type": "electric_scooter", "bike_id": "d2a776b464499299d78f807376d29736", "rental_uris": {"ios": "https://dc.lft.to/lastmile_qr_scan", "android": "https://dc.lft.to/lastmile_qr_scan"}, "fusion_lat": 0.0}, {"lat": 38.92024966666666, "lon": -77.071639, "is_disabled": 0, "fusion_lon": 0.0, "is_reserved": 0, "name": "788e4628d3683ac693e02673f67b0df9", "type": "electric_scooter", "bike_id": "788e4628d3683ac693e02673f67b0df9", "rental_uris": {"ios": "https://dc.lft.to/lastmile_qr_scan", "android": "https://dc.lft.to/lastmile_qr_scan"}, "fusion_lat": 0.0}, {"lat": 38.88733, "lon": -77.023845, "is_disabled": 0, "fusion_lon": 0.0, "is_reserved": 0, "name": "f0a9ce8105f376c7e3971c2ab2ab5ac7", "type": "electric_scooter", "bike_id": "f0a9ce8105f376c7e3971c2ab2ab5ac7", "rental_uris": {"ios": "https://dc.lft.to/lastmile_qr_scan", "android": "https://dc.lft.to/lastmile_qr_scan"}, "fusion_lat": 0.0}, {"lat": 38.831591333333336, "lon": -76.9957485, "is_disabled": 0, "fusion_lon": 0.0, "is_reserved": 0, "name": "d0fad2786b49a41303fcd4bee158a6c5", "type": "electric_bike", "bike_id": "d0fad2786b49a41303fcd4bee158a6c5", "rental_uris": {"ios": "https://dc.lft.to/lastmile_qr_scan", "android": "https://dc.lft.to/lastmile_qr_scan"}, "fusion_lat": 0.0}, {"lat": 38.911216333333336, "lon": -77.0382545, "is_disabled": 0, "fusion_lon": 0.0, "is_reserved": 0, "name": "cb850a1e57fa2bc4605704054273c222", "type": "electric_scooter", "bike_id": "cb850a1e57fa2bc4605704054273c222", "rental_uris": {"ios": "https://dc.lft.to/lastmile_qr_scan", "android": "https://dc.lft.to/lastmile_qr_scan"}, "fusion_lat": 0.0}, {"lat": 38.918202, "lon": -77.01213516666667, "is_disabled": 0, "fusion_lon": 0.0, "is_reserved": 0, "name": "1ac72c735d35e4867f7f59a149b8a745", "type": "electric_scooter", "bike_id": "1ac72c735d35e4867f7f59a149b8a745", "rental_uris": {"ios": "https://dc.lft.to/lastmile_qr_scan", "android": "https://dc.lft.to/lastmile_qr_scan"}, "fusion_lat": 0.0}, {"lat": 38.87407833333333, "lon": -77.00199383333333, "is_disabled": 0, "fusion_lon": 0.0, "is_reserved": 0, "name": "b4b0b9bea03083249b5625f62ce75332", "type": "electric_scooter", "bike_id": "b4b0b9bea03083249b5625f62ce75332", "rental_uris": {"ios": "https://dc.lft.to/lastmile_qr_scan", "android": "https://dc.lft.to/lastmile_qr_scan"}, "fusion_lat": 0.0}, {"lat": 38.90733383333333, "lon": -77.02983983333333, "is_disabled": 0, "fusion_lon": 0.0, "is_reserved": 0, "name": "738afa46e216a73d9f841aa3b8399150", "type": "electric_scooter", "bike_id": "738afa46e216a73d9f841aa3b8399150", "rental_uris": {"ios": "https://dc.lft.to/lastmile_qr_scan", "android": "https://dc.lft.to/lastmile_qr_scan"}, "fusion_lat": 0.0}, {"lat": 38.91600733333333, "lon": -77.04906533333333, "is_disabled": 0, "fusion_lon": 0.0, "is_reserved": 0, "name": "afb1b9b9bfd691a4e141701d222bb4b4", "type": "electric_scooter", "bike_id": "afb1b9b9bfd691a4e141701d222bb4b4", "rental_uris": {"ios": "https://dc.lft.to/lastmile_qr_scan", "android": "https://dc.lft.to/lastmile_qr_scan"}, "fusion_lat": 0.0}, {"lat": 38.9283935, "lon": -77.054182, "is_disabled": 0, "fusion_lon": 0.0, "is_reserved": 0, "name": "2370be914ce6e30cc55d0390e89d4ff8", "type": "electric_scooter", "bike_id": "2370be914ce6e30cc55d0390e89d4ff8", "rental_uris": {"ios": "https://dc.lft.to/lastmile_qr_scan", "android": "https://dc.lft.to/lastmile_qr_scan"}, "fusion_lat": 0.0}, {"lat": 38.9184665, "lon": -76.965392, "is_disabled": 0, "fusion_lon": 0.0, "is_reserved": 0, "name": "214405bbb8833f8f5e8139aa18299787", "type": "electric_scooter", "bike_id": "214405bbb8833f8f5e8139aa18299787", "rental_uris": {"ios": "https://dc.lft.to/lastmile_qr_scan", "android": "https://dc.lft.to/lastmile_qr_scan"}, "fusion_lat": 0.0}, {"lat": 38.906808833333336, "lon": -77.00586916666667, "is_disabled": 0, "fusion_lon": 0.0, "is_reserved": 0, "name": "678ca984c47135669dc9587b5f54406c", "type": "electric_scooter", "bike_id": "678ca984c47135669dc9587b5f54406c", "rental_uris": {"ios": "https://dc.lft.to/lastmile_qr_scan", "android": "https://dc.lft.to/lastmile_qr_scan"}, "fusion_lat": 0.0}, {"lat": 38.877112, "lon": -77.01720583333334, "is_disabled": 0, "fusion_lon": 0.0, "is_reserved": 0, "name": "69bfdaf7fd55135c925b1f04ca915ce6", "type": "electric_scooter", "bike_id": "69bfdaf7fd55135c925b1f04ca915ce6", "rental_uris": {"ios": "https://dc.lft.to/lastmile_qr_scan", "android": "https://dc.lft.to/lastmile_qr_scan"}, "fusion_lat": 0.0}, {"lat": 38.957317333333336, "lon": -77.02409383333334, "is_disabled": 0, "fusion_lon": 0.0, "is_reserved": 0, "name": "cce9389076cb8f0f16e9a478eb237a79", "type": "electric_scooter", "bike_id": "cce9389076cb8f0f16e9a478eb237a79", "rental_uris": {"ios": "https://dc.lft.to/lastmile_qr_scan", "android": "https://dc.lft.to/lastmile_qr_scan"}, "fusion_lat": 0.0}, {"lat": 38.91873833333333, "lon": -77.03491033333333, "is_disabled": 0, "fusion_lon": 0.0, "is_reserved": 0, "name": "cdb09cd88b981a864f2e7616ac5d3c8b", "type": "electric_scooter", "bike_id": "cdb09cd88b981a864f2e7616ac5d3c8b", "rental_uris": {"ios": "https://dc.lft.to/lastmile_qr_scan", "android": "https://dc.lft.to/lastmile_qr_scan"}, "fusion_lat": 0.0}, {"lat": 38.89667566666667, "lon": -76.93215316666667, "is_disabled": 0, "fusion_lon": 0.0, "is_reserved": 0, "name": "6d896441149e1dd9b63ee18f6d53ef00", "type": "electric_scooter", "bike_id": "6d896441149e1dd9b63ee18f6d53ef00", "rental_uris": {"ios": "https://dc.lft.to/lastmile_qr_scan", "android": "https://dc.lft.to/lastmile_qr_scan"}, "fusion_lat": 0.0}, {"lat": 38.910377833333335, "lon": -77.042581, "is_disabled": 0, "fusion_lon": 0.0, "is_reserved": 0, "name": "33a8815c5be57cda4ebf8f3d2233e507", "type": "electric_scooter", "bike_id": "33a8815c5be57cda4ebf8f3d2233e507", "rental_uris": {"ios": "https://dc.lft.to/lastmile_qr_scan", "android": "https://dc.lft.to/lastmile_qr_scan"}, "fusion_lat": 0.0}, {"lat": 38.927848, "lon": -77.03152333333334, "is_disabled": 0, "fusion_lon": 0.0, "is_reserved": 0, "name": "0a96d908872dc557da1783ede265e6d7", "type": "electric_scooter", "bike_id": "0a96d908872dc557da1783ede265e6d7", "rental_uris": {"ios": "https://dc.lft.to/lastmile_qr_scan", "android": "https://dc.lft.to/lastmile_qr_scan"}, "fusion_lat": 0.0}, {"lat": 38.90721083333333, "lon": -77.0354345, "is_disabled": 0, "fusion_lon": 0.0, "is_reserved": 0, "name": "cd738211b17353b2e8dca997a5bf2558", "type": "electric_scooter", "bike_id": "cd738211b17353b2e8dca997a5bf2558", "rental_uris": {"ios": "https://dc.lft.to/lastmile_qr_scan", "android": "https://dc.lft.to/lastmile_qr_scan"}, "fusion_lat": 0.0}, {"lat": 38.92709683333333, "lon": -77.04048116666667, "is_disabled": 0, "fusion_lon": 0.0, "is_reserved": 0, "name": "24557e5f862e7dd7a99a1e9315032b96", "type": "electric_scooter", "bike_id": "24557e5f862e7dd7a99a1e9315032b96", "rental_uris": {"ios": "https://dc.lft.to/lastmile_qr_scan", "android": "https://dc.lft.to/lastmile_qr_scan"}, "fusion_lat": 0.0}, {"lat": 38.90160566666667, "lon": -77.02694933333333, "is_disabled": 0, "fusion_lon": 0.0, "is_reserved": 0, "name": "526d7b8d75a7b3f68aff5a4e7248d19d", "type": "electric_scooter", "bike_id": "526d7b8d75a7b3f68aff5a4e7248d19d", "rental_uris": {"ios": "https://dc.lft.to/lastmile_qr_scan", "android": "https://dc.lft.to/lastmile_qr_scan"}, "fusion_lat": 0.0}, {"lat": 38.909579, "lon": -77.0460805, "is_disabled": 0, "fusion_lon": 0.0, "is_reserved": 0, "name": "f36bb438329d5242dcf04af2d8916c4a", "type": "electric_scooter", "bike_id": "f36bb438329d5242dcf04af2d8916c4a", "rental_uris": {"ios": "https://dc.lft.to/lastmile_qr_scan", "android": "https://dc.lft.to/lastmile_qr_scan"}, "fusion_lat": 0.0}, {"lat": 38.90000766666667, "lon": -77.006432, "is_disabled": 0, "fusion_lon": 0.0, "is_reserved": 0, "name": "dc75a5a38c53422b0d63c160b1f9b9bd", "type": "electric_scooter", "bike_id": "dc75a5a38c53422b0d63c160b1f9b9bd", "rental_uris": {"ios": "https://dc.lft.to/lastmile_qr_scan", "android": "https://dc.lft.to/lastmile_qr_scan"}, "fusion_lat": 0.0}, {"lat": 38.924436, "lon": -77.02040783333334, "is_disabled": 0, "fusion_lon": 0.0, "is_reserved": 0, "name": "039976c83551444bb2532f12e8c05262", "type": "electric_scooter", "bike_id": "039976c83551444bb2532f12e8c05262", "rental_uris": {"ios": "https://dc.lft.to/lastmile_qr_scan", "android": "https://dc.lft.to/lastmile_qr_scan"}, "fusion_lat": 0.0}, {"lat": 38.92226866666667, "lon": -77.0201795, "is_disabled": 0, "fusion_lon": 0.0, "is_reserved": 0, "name": "493ccd8bf98c3e1d778db2275e6b4cac", "type": "electric_scooter", "bike_id": "493ccd8bf98c3e1d778db2275e6b4cac", "rental_uris": {"ios": "https://dc.lft.to/lastmile_qr_scan", "android": "https://dc.lft.to/lastmile_qr_scan"}, "fusion_lat": 0.0}, {"lat": 38.9066575, "lon": -77.0270695, "is_disabled": 0, "fusion_lon": 0.0, "is_reserved": 0, "name": "f6c51776c0c90e98f15634063b3f234d", "type": "electric_scooter", "bike_id": "f6c51776c0c90e98f15634063b3f234d", "rental_uris": {"ios": "https://dc.lft.to/lastmile_qr_scan", "android": "https://dc.lft.to/lastmile_qr_scan"}, "fusion_lat": 0.0}, {"lat": 38.90861483333333, "lon": -77.028553, "is_disabled": 0, "fusion_lon": 0.0, "is_reserved": 0, "name": "afbe85812a760aa198ee1c90dfbfd789", "type": "electric_scooter", "bike_id": "afbe85812a760aa198ee1c90dfbfd789", "rental_uris": {"ios": "https://dc.lft.to/lastmile_qr_scan", "android": "https://dc.lft.to/lastmile_qr_scan"}, "fusion_lat": 0.0}, {"lat": 38.915676833333336, "lon": -77.02009833333334, "is_disabled": 0, "fusion_lon": 0.0, "is_reserved": 0, "name": "54568def701a8b7e199f94b8cfe11eb3", "type": "electric_scooter", "bike_id": "54568def701a8b7e199f94b8cfe11eb3", "rental_uris": {"ios": "https://dc.lft.to/lastmile_qr_scan", "android": "https://dc.lft.to/lastmile_qr_scan"}, "fusion_lat": 0.0}, {"lat": 38.9079095, "lon": -77.03864166666666, "is_disabled": 0, "fusion_lon": 0.0, "is_reserved": 0, "name": "4628ef6121e6003c666da1d93004be39", "type": "electric_scooter", "bike_id": "4628ef6121e6003c666da1d93004be39", "rental_uris": {"ios": "https://dc.lft.to/lastmile_qr_scan", "android": "https://dc.lft.to/lastmile_qr_scan"}, "fusion_lat": 0.0}, {"lat": 38.924876833333336, "lon": -77.02139883333334, "is_disabled": 0, "fusion_lon": 0.0, "is_reserved": 0, "name": "e7c1c19c0e6f1baade48e6f8a0bcd0ac", "type": "electric_scooter", "bike_id": "e7c1c19c0e6f1baade48e6f8a0bcd0ac", "rental_uris": {"ios": "https://dc.lft.to/lastmile_qr_scan", "android": "https://dc.lft.to/lastmile_qr_scan"}, "fusion_lat": 0.0}, {"lat": 38.884206, "lon": -77.00810616666666, "is_disabled": 0, "fusion_lon": 0.0, "is_reserved": 0, "name": "3fae8203732daf2bbcd5588f28af210e", "type": "electric_scooter", "bike_id": "3fae8203732daf2bbcd5588f28af210e", "rental_uris": {"ios": "https://dc.lft.to/lastmile_qr_scan", "android": "https://dc.lft.to/lastmile_qr_scan"}, "fusion_lat": 0.0}, {"lat": 38.887659166666666, "lon": -76.98698433333334, "is_disabled": 0, "fusion_lon": 0.0, "is_reserved": 0, "name": "93703a498c62f5cf528043322e84232d", "type": "electric_scooter", "bike_id": "93703a498c62f5cf528043322e84232d", "rental_uris": {"ios": "https://dc.lft.to/lastmile_qr_scan", "android": "https://dc.lft.to/lastmile_qr_scan"}, "fusion_lat": 0.0}, {"lat": 38.915667666666664, "lon": -77.02006633333333, "is_disabled": 0, "fusion_lon": 0.0, "is_reserved": 0, "name": "32167501f15ac842af7a515b3cdcf6c5", "type": "electric_scooter", "bike_id": "32167501f15ac842af7a515b3cdcf6c5", "rental_uris": {"ios": "https://dc.lft.to/lastmile_qr_scan", "android": "https://dc.lft.to/lastmile_qr_scan"}, "fusion_lat": 0.0}, {"lat": 38.92700266666667, "lon": -77.0207705, "is_disabled": 0, "fusion_lon": 0.0, "is_reserved": 0, "name": "ac9a07adb964e6b0ea4ffcf633eeac1b", "type": "electric_scooter", "bike_id": "ac9a07adb964e6b0ea4ffcf633eeac1b", "rental_uris": {"ios": "https://dc.lft.to/lastmile_qr_scan", "android": "https://dc.lft.to/lastmile_qr_scan"}, "fusion_lat": 0.0}, {"lat": 38.95590083333333, "lon": -77.01006616666666, "is_disabled": 0, "fusion_lon": 0.0, "is_reserved": 0, "name": "3f6d168bf2fad52ea1ae2eb6efffae8c", "type": "electric_bike", "bike_id": "3f6d168bf2fad52ea1ae2eb6efffae8c", "rental_uris": {"ios": "https://dc.lft.to/lastmile_qr_scan", "android": "https://dc.lft.to/lastmile_qr_scan"}, "fusion_lat": 0.0}, {"lat": 38.918219666666666, "lon": -77.02422216666666, "is_disabled": 0, "fusion_lon": 0.0, "is_reserved": 0, "name": "b31830cb33abe60fbddc6c56fb8c49bc", "type": "electric_scooter", "bike_id": "b31830cb33abe60fbddc6c56fb8c49bc", "rental_uris": {"ios": "https://dc.lft.to/lastmile_qr_scan", "android": "https://dc.lft.to/lastmile_qr_scan"}, "fusion_lat": 0.0}, {"lat": 38.916755333333334, "lon": -77.02281283333333, "is_disabled": 0, "fusion_lon": 0.0, "is_reserved": 0, "name": "650cc4bc2bc70c85a89b2283e319f97f", "type": "electric_scooter", "bike_id": "650cc4bc2bc70c85a89b2283e319f97f", "rental_uris": {"ios": "https://dc.lft.to/lastmile_qr_scan", "android": "https://dc.lft.to/lastmile_qr_scan"}, "fusion_lat": 0.0}, {"lat": 38.8954425, "lon": -76.98337633333334, "is_disabled": 0, "fusion_lon": 0.0, "is_reserved": 0, "name": "371d16c06b816907a3882d51af2fa23a", "type": "electric_scooter", "bike_id": "371d16c06b816907a3882d51af2fa23a", "rental_uris": {"ios": "https://dc.lft.to/lastmile_qr_scan", "android": "https://dc.lft.to/lastmile_qr_scan"}, "fusion_lat": 0.0}, {"lat": 38.911039, "lon": -77.00210983333334, "is_disabled": 0, "fusion_lon": 0.0, "is_reserved": 0, "name": "a587db93f3a3fd3a1d42ab6ed3343508", "type": "electric_scooter", "bike_id": "a587db93f3a3fd3a1d42ab6ed3343508", "rental_uris": {"ios": "https://dc.lft.to/lastmile_qr_scan", "android": "https://dc.lft.to/lastmile_qr_scan"}, "fusion_lat": 0.0}, {"lat": 38.905401, "lon": -77.05036483333333, "is_disabled": 0, "fusion_lon": 0.0, "is_reserved": 0, "name": "910eaf40c7448003fcc5bdeb9bd1903d", "type": "electric_scooter", "bike_id": "910eaf40c7448003fcc5bdeb9bd1903d", "rental_uris": {"ios": "https://dc.lft.to/lastmile_qr_scan", "android": "https://dc.lft.to/lastmile_qr_scan"}, "fusion_lat": 0.0}, {"lat": 38.926268, "lon": -77.03705466666666, "is_disabled": 0, "fusion_lon": 0.0, "is_reserved": 0, "name": "38e92884bc7e379866c563df478c3f68", "type": "electric_scooter", "bike_id": "38e92884bc7e379866c563df478c3f68", "rental_uris": {"ios": "https://dc.lft.to/lastmile_qr_scan", "android": "https://dc.lft.to/lastmile_qr_scan"}, "fusion_lat": 0.0}, {"lat": 38.894437333333336, "lon": -76.97821116666667, "is_disabled": 0, "fusion_lon": 0.0, "is_reserved": 0, "name": "4c9f45554ff25d1edec540cb2bef0f18", "type": "electric_scooter", "bike_id": "4c9f45554ff25d1edec540cb2bef0f18", "rental_uris": {"ios": "https://dc.lft.to/lastmile_qr_scan", "android": "https://dc.lft.to/lastmile_qr_scan"}, "fusion_lat": 0.0}, {"lat": 38.9159635, "lon": -77.01209333333334, "is_disabled": 0, "fusion_lon": 0.0, "is_reserved": 0, "name": "46729e3785003db86724cd0c789f7592", "type": "electric_scooter", "bike_id": "46729e3785003db86724cd0c789f7592", "rental_uris": {"ios": "https://dc.lft.to/lastmile_qr_scan", "android": "https://dc.lft.to/lastmile_qr_scan"}, "fusion_lat": 0.0}, {"lat": 38.96129083333334, "lon": -77.0327435, "is_disabled": 0, "fusion_lon": 0.0, "is_reserved": 0, "name": "390bef6c98814490d38ada771d003686", "type": "electric_bike", "bike_id": "390bef6c98814490d38ada771d003686", "rental_uris": {"ios": "https://dc.lft.to/lastmile_qr_scan", "android": "https://dc.lft.to/lastmile_qr_scan"}, "fusion_lat": 0.0}, {"lat": 38.93476916666667, "lon": -77.07208066666666, "is_disabled": 0, "fusion_lon": 0.0, "is_reserved": 0, "name": "42dcea87cccfa72698aa22a6c3b10b73", "type": "electric_scooter", "bike_id": "42dcea87cccfa72698aa22a6c3b10b73", "rental_uris": {"ios": "https://dc.lft.to/lastmile_qr_scan", "android": "https://dc.lft.to/lastmile_qr_scan"}, "fusion_lat": 0.0}, {"lat": 38.917247833333334, "lon": -77.06825, "is_disabled": 0, "fusion_lon": 0.0, "is_reserved": 0, "name": "377f930fc826f9ec716680d7d9e4e487", "type": "electric_scooter", "bike_id": "377f930fc826f9ec716680d7d9e4e487", "rental_uris": {"ios": "https://dc.lft.to/lastmile_qr_scan", "android": "https://dc.lft.to/lastmile_qr_scan"}, "fusion_lat": 0.0}, {"lat": 38.92312716666667, "lon": -77.03047983333333, "is_disabled": 0, "fusion_lon": 0.0, "is_reserved": 0, "name": "7e4dc7c1d0e4514484135566a1cf9980", "type": "electric_scooter", "bike_id": "7e4dc7c1d0e4514484135566a1cf9980", "rental_uris": {"ios": "https://dc.lft.to/lastmile_qr_scan", "android": "https://dc.lft.to/lastmile_qr_scan"}, "fusion_lat": 0.0}, {"lat": 38.888212333333335, "lon": -76.977189, "is_disabled": 0, "fusion_lon": 0.0, "is_reserved": 0, "name": "17563ec4c51eba055417de96627b78d1", "type": "electric_scooter", "bike_id": "17563ec4c51eba055417de96627b78d1", "rental_uris": {"ios": "https://dc.lft.to/lastmile_qr_scan", "android": "https://dc.lft.to/lastmile_qr_scan"}, "fusion_lat": 0.0}, {"lat": 38.919844, "lon": -77.023871, "is_disabled": 0, "fusion_lon": 0.0, "is_reserved": 0, "name": "5e2ab0a6e3a5134be22a453d7fe63bd7", "type": "electric_scooter", "bike_id": "5e2ab0a6e3a5134be22a453d7fe63bd7", "rental_uris": {"ios": "https://dc.lft.to/lastmile_qr_scan", "android": "https://dc.lft.to/lastmile_qr_scan"}, "fusion_lat": 0.0}, {"lat": 38.9083405, "lon": -77.03944766666666, "is_disabled": 0, "fusion_lon": 0.0, "is_reserved": 0, "name": "c0b2634731c7a4fc175b3ae2c7da7fc0", "type": "electric_scooter", "bike_id": "c0b2634731c7a4fc175b3ae2c7da7fc0", "rental_uris": {"ios": "https://dc.lft.to/lastmile_qr_scan", "android": "https://dc.lft.to/lastmile_qr_scan"}, "fusion_lat": 0.0}, {"lat": 38.925175833333334, "lon": -77.07710683333333, "is_disabled": 0, "fusion_lon": 0.0, "is_reserved": 0, "name": "014cdacd7483207d8eaa2151f09fbe20", "type": "electric_scooter", "bike_id": "014cdacd7483207d8eaa2151f09fbe20", "rental_uris": {"ios": "https://dc.lft.to/lastmile_qr_scan", "android": "https://dc.lft.to/lastmile_qr_scan"}, "fusion_lat": 0.0}, {"lat": 38.877355333333334, "lon": -77.01737233333333, "is_disabled": 0, "fusion_lon": 0.0, "is_reserved": 0, "name": "4fd74c111c98dec7656c554a3a8c2a1b", "type": "electric_scooter", "bike_id": "4fd74c111c98dec7656c554a3a8c2a1b", "rental_uris": {"ios": "https://dc.lft.to/lastmile_qr_scan", "android": "https://dc.lft.to/lastmile_qr_scan"}, "fusion_lat": 0.0}, {"lat": 38.9236775, "lon": -77.03524033333333, "is_disabled": 0, "fusion_lon": 0.0, "is_reserved": 0, "name": "2f30909dd19795062ac90330205a3812", "type": "electric_scooter", "bike_id": "2f30909dd19795062ac90330205a3812", "rental_uris": {"ios": "https://dc.lft.to/lastmile_qr_scan", "android": "https://dc.lft.to/lastmile_qr_scan"}, "fusion_lat": 0.0}, {"lat": 38.94261366666667, "lon": -76.99070183333333, "is_disabled": 0, "fusion_lon": 0.0, "is_reserved": 0, "name": "88fbe4c456e9f9ff55a8b5011f2819b0", "type": "electric_bike", "bike_id": "88fbe4c456e9f9ff55a8b5011f2819b0", "rental_uris": {"ios": "https://dc.lft.to/lastmile_qr_scan", "android": "https://dc.lft.to/lastmile_qr_scan"}, "fusion_lat": 0.0}, {"lat": 38.9182435, "lon": -77.012087, "is_disabled": 0, "fusion_lon": 0.0, "is_reserved": 0, "name": "03586096b20bad76f4eb335349603ba9", "type": "electric_scooter", "bike_id": "03586096b20bad76f4eb335349603ba9", "rental_uris": {"ios": "https://dc.lft.to/lastmile_qr_scan", "android": "https://dc.lft.to/lastmile_qr_scan"}, "fusion_lat": 0.0}, {"lat": 38.921963166666664, "lon": -77.040062, "is_disabled": 0, "fusion_lon": 0.0, "is_reserved": 0, "name": "683f8363767a5c54b3a9054a88df03dd", "type": "electric_scooter", "bike_id": "683f8363767a5c54b3a9054a88df03dd", "rental_uris": {"ios": "https://dc.lft.to/lastmile_qr_scan", "android": "https://dc.lft.to/lastmile_qr_scan"}, "fusion_lat": 0.0}, {"lat": 38.91629183333333, "lon": -77.04232016666667, "is_disabled": 0, "fusion_lon": 0.0, "is_reserved": 0, "name": "4681100d4ef08bce9588b84daf9ed1d6", "type": "electric_scooter", "bike_id": "4681100d4ef08bce9588b84daf9ed1d6", "rental_uris": {"ios": "https://dc.lft.to/lastmile_qr_scan", "android": "https://dc.lft.to/lastmile_qr_scan"}, "fusion_lat": 0.0}, {"lat": 38.902695, "lon": -77.05325783333333, "is_disabled": 0, "fusion_lon": 0.0, "is_reserved": 0, "name": "fac2f969aadd2143c204fa6329a77817", "type": "electric_scooter", "bike_id": "fac2f969aadd2143c204fa6329a77817", "rental_uris": {"ios": "https://dc.lft.to/lastmile_qr_scan", "android": "https://dc.lft.to/lastmile_qr_scan"}, "fusion_lat": 0.0}, {"lat": 38.91756783333334, "lon": -77.03994633333333, "is_disabled": 0, "fusion_lon": 0.0, "is_reserved": 0, "name": "34db5404d8a9f6d16d3003c4484da970", "type": "electric_scooter", "bike_id": "34db5404d8a9f6d16d3003c4484da970", "rental_uris": {"ios": "https://dc.lft.to/lastmile_qr_scan", "android": "https://dc.lft.to/lastmile_qr_scan"}, "fusion_lat": 0.0}, {"lat": 38.938949, "lon": -76.98607633333333, "is_disabled": 0, "fusion_lon": 0.0, "is_reserved": 0, "name": "d571a6c20ae3d0302d5eb7b1a545932d", "type": "electric_scooter", "bike_id": "d571a6c20ae3d0302d5eb7b1a545932d", "rental_uris": {"ios": "https://dc.lft.to/lastmile_qr_scan", "android": "https://dc.lft.to/lastmile_qr_scan"}, "fusion_lat": 0.0}, {"lat": 38.89723633333333, "lon": -77.04967116666667, "is_disabled": 0, "fusion_lon": 0.0, "is_reserved": 0, "name": "d2c9b589a6380e74a346e398b39b02ce", "type": "electric_scooter", "bike_id": "d2c9b589a6380e74a346e398b39b02ce", "rental_uris": {"ios": "https://dc.lft.to/lastmile_qr_scan", "android": "https://dc.lft.to/lastmile_qr_scan"}, "fusion_lat": 0.0}, {"lat": 38.9168985, "lon": -77.03042016666667, "is_disabled": 0, "fusion_lon": 0.0, "is_reserved": 0, "name": "2b644ec4281a58749841e94ba9f186d4", "type": "electric_scooter", "bike_id": "2b644ec4281a58749841e94ba9f186d4", "rental_uris": {"ios": "https://dc.lft.to/lastmile_qr_scan", "android": "https://dc.lft.to/lastmile_qr_scan"}, "fusion_lat": 0.0}, {"lat": 38.905062, "lon": -77.059085, "is_disabled": 0, "fusion_lon": 0.0, "is_reserved": 0, "name": "713889faf7cb1231d93276dafff9504b", "type": "electric_scooter", "bike_id": "713889faf7cb1231d93276dafff9504b", "rental_uris": {"ios": "https://dc.lft.to/lastmile_qr_scan", "android": "https://dc.lft.to/lastmile_qr_scan"}, "fusion_lat": 0.0}, {"lat": 38.921460333333336, "lon": -77.033831, "is_disabled": 0, "fusion_lon": 0.0, "is_reserved": 0, "name": "e023fcc4ef4d73adcb8fe37df8ee5c8b", "type": "electric_scooter", "bike_id": "e023fcc4ef4d73adcb8fe37df8ee5c8b", "rental_uris": {"ios": "https://dc.lft.to/lastmile_qr_scan", "android": "https://dc.lft.to/lastmile_qr_scan"}, "fusion_lat": 0.0}, {"lat": 38.91626016666667, "lon": -77.02691733333333, "is_disabled": 0, "fusion_lon": 0.0, "is_reserved": 0, "name": "67e306741152f4bf7771449e0b2a8525", "type": "electric_scooter", "bike_id": "67e306741152f4bf7771449e0b2a8525", "rental_uris": {"ios": "https://dc.lft.to/lastmile_qr_scan", "android": "https://dc.lft.to/lastmile_qr_scan"}, "fusion_lat": 0.0}, {"lat": 38.8984955, "lon": -76.94256533333333, "is_disabled": 0, "fusion_lon": 0.0, "is_reserved": 0, "name": "1a6c2dbafcd66d82bf6f988d66a5aedb", "type": "electric_scooter", "bike_id": "1a6c2dbafcd66d82bf6f988d66a5aedb", "rental_uris": {"ios": "https://dc.lft.to/lastmile_qr_scan", "android": "https://dc.lft.to/lastmile_qr_scan"}, "fusion_lat": 0.0}, {"lat": 38.92274366666667, "lon": -76.99775433333333, "is_disabled": 0, "fusion_lon": 0.0, "is_reserved": 0, "name": "c70889d1eb33255c466d9f62a534406d", "type": "electric_scooter", "bike_id": "c70889d1eb33255c466d9f62a534406d", "rental_uris": {"ios": "https://dc.lft.to/lastmile_qr_scan", "android": "https://dc.lft.to/lastmile_qr_scan"}, "fusion_lat": 0.0}, {"lat": 38.874561, "lon": -77.00546, "is_disabled": 0, "fusion_lon": 0.0, "is_reserved": 0, "name": "54ae82dab907b640db2e078baee58ba4", "type": "electric_scooter", "bike_id": "54ae82dab907b640db2e078baee58ba4", "rental_uris": {"ios": "https://dc.lft.to/lastmile_qr_scan", "android": "https://dc.lft.to/lastmile_qr_scan"}, "fusion_lat": 0.0}, {"lat": 38.881175, "lon": -77.01662983333334, "is_disabled": 0, "fusion_lon": 0.0, "is_reserved": 0, "name": "f7d64d7297568dc9841eb0b291dfdd5e", "type": "electric_scooter", "bike_id": "f7d64d7297568dc9841eb0b291dfdd5e", "rental_uris": {"ios": "https://dc.lft.to/lastmile_qr_scan", "android": "https://dc.lft.to/lastmile_qr_scan"}, "fusion_lat": 0.0}, {"lat": 38.94133633333333, "lon": -77.02045566666666, "is_disabled": 0, "fusion_lon": 0.0, "is_reserved": 0, "name": "7aa71d03fd62d264e1073ec2a81a9900", "type": "electric_bike", "bike_id": "7aa71d03fd62d264e1073ec2a81a9900", "rental_uris": {"ios": "https://dc.lft.to/lastmile_qr_scan", "android": "https://dc.lft.to/lastmile_qr_scan"}, "fusion_lat": 0.0}, {"lat": 38.88385666666667, "lon": -77.01965483333333, "is_disabled": 0, "fusion_lon": 0.0, "is_reserved": 0, "name": "03d336e5f4ba4f3da753a8dc8a6fc256", "type": "electric_scooter", "bike_id": "03d336e5f4ba4f3da753a8dc8a6fc256", "rental_uris": {"ios": "https://dc.lft.to/lastmile_qr_scan", "android": "https://dc.lft.to/lastmile_qr_scan"}, "fusion_lat": 0.0}, {"lat": 38.91706933333333, "lon": -77.04021366666667, "is_disabled": 0, "fusion_lon": 0.0, "is_reserved": 0, "name": "cc05c16977db47c243161ca4a279bfbd", "type": "electric_scooter", "bike_id": "cc05c16977db47c243161ca4a279bfbd", "rental_uris": {"ios": "https://dc.lft.to/lastmile_qr_scan", "android": "https://dc.lft.to/lastmile_qr_scan"}, "fusion_lat": 0.0}, {"lat": 38.90782433333333, "lon": -77.04508516666667, "is_disabled": 0, "fusion_lon": 0.0, "is_reserved": 0, "name": "986ed6c43d80b3749d50ae8f7008e788", "type": "electric_scooter", "bike_id": "986ed6c43d80b3749d50ae8f7008e788", "rental_uris": {"ios": "https://dc.lft.to/lastmile_qr_scan", "android": "https://dc.lft.to/lastmile_qr_scan"}, "fusion_lat": 0.0}, {"lat": 38.877932, "lon": -76.999408, "is_disabled": 0, "fusion_lon": 0.0, "is_reserved": 0, "name": "e2d7acfdf192c02ef0fe1324bf769f01", "type": "electric_scooter", "bike_id": "e2d7acfdf192c02ef0fe1324bf769f01", "rental_uris": {"ios": "https://dc.lft.to/lastmile_qr_scan", "android": "https://dc.lft.to/lastmile_qr_scan"}, "fusion_lat": 0.0}, {"lat": 38.8375655, "lon": -77.0929775, "is_disabled": 0, "fusion_lon": 0.0, "is_reserved": 0, "name": "2bf9eab2b72cd2027fea04f43e0946bc", "type": "electric_bike", "bike_id": "2bf9eab2b72cd2027fea04f43e0946bc", "rental_uris": {"ios": "https://dc.lft.to/lastmile_qr_scan", "android": "https://dc.lft.to/lastmile_qr_scan"}, "fusion_lat": 0.0}, {"lat": 38.901874, "lon": -77.05059716666666, "is_disabled": 0, "fusion_lon": 0.0, "is_reserved": 0, "name": "b850a1e33d2f796aac77412ddc177795", "type": "electric_scooter", "bike_id": "b850a1e33d2f796aac77412ddc177795", "rental_uris": {"ios": "https://dc.lft.to/lastmile_qr_scan", "android": "https://dc.lft.to/lastmile_qr_scan"}, "fusion_lat": 0.0}, {"lat": 38.9192175, "lon": -77.0342065, "is_disabled": 0, "fusion_lon": 0.0, "is_reserved": 0, "name": "a95e5b2bb04d467a045808e028eb2446", "type": "electric_scooter", "bike_id": "a95e5b2bb04d467a045808e028eb2446", "rental_uris": {"ios": "https://dc.lft.to/lastmile_qr_scan", "android": "https://dc.lft.to/lastmile_qr_scan"}, "fusion_lat": 0.0}, {"lat": 38.97879783333333, "lon": -77.06028633333334, "is_disabled": 0, "fusion_lon": 0.0, "is_reserved": 0, "name": "2f0b225b80d90233c87acbd3f39bfca0", "type": "electric_bike", "bike_id": "2f0b225b80d90233c87acbd3f39bfca0", "rental_uris": {"ios": "https://dc.lft.to/lastmile_qr_scan", "android": "https://dc.lft.to/lastmile_qr_scan"}, "fusion_lat": 0.0}, {"lat": 38.930814166666664, "lon": -77.02793466666667, "is_disabled": 0, "fusion_lon": 0.0, "is_reserved": 0, "name": "905bb7d995a4c8d25f9337a034759edb", "type": "electric_scooter", "bike_id": "905bb7d995a4c8d25f9337a034759edb", "rental_uris": {"ios": "https://dc.lft.to/lastmile_qr_scan", "android": "https://dc.lft.to/lastmile_qr_scan"}, "fusion_lat": 0.0}, {"lat": 38.92039966666667, "lon": -77.02572216666667, "is_disabled": 0, "fusion_lon": 0.0, "is_reserved": 0, "name": "7aa9751949150ac3d5747409cc9e01ad", "type": "electric_scooter", "bike_id": "7aa9751949150ac3d5747409cc9e01ad", "rental_uris": {"ios": "https://dc.lft.to/lastmile_qr_scan", "android": "https://dc.lft.to/lastmile_qr_scan"}, "fusion_lat": 0.0}, {"lat": 38.92345316666667, "lon": -77.05169916666667, "is_disabled": 0, "fusion_lon": 0.0, "is_reserved": 0, "name": "681225aacc57f0f7de68aba8543a0e44", "type": "electric_scooter", "bike_id": "681225aacc57f0f7de68aba8543a0e44", "rental_uris": {"ios": "https://dc.lft.to/lastmile_qr_scan", "android": "https://dc.lft.to/lastmile_qr_scan"}, "fusion_lat": 0.0}, {"lat": 38.916998666666665, "lon": -77.02871966666666, "is_disabled": 0, "fusion_lon": 0.0, "is_reserved": 0, "name": "a990700080609f4d742bdf8472c64140", "type": "electric_scooter", "bike_id": "a990700080609f4d742bdf8472c64140", "rental_uris": {"ios": "https://dc.lft.to/lastmile_qr_scan", "android": "https://dc.lft.to/lastmile_qr_scan"}, "fusion_lat": 0.0}, {"lat": 38.9133535, "lon": -77.03983916666667, "is_disabled": 0, "fusion_lon": 0.0, "is_reserved": 0, "name": "d485c96498b99bdfa6a9a62e9770ac34", "type": "electric_scooter", "bike_id": "d485c96498b99bdfa6a9a62e9770ac34", "rental_uris": {"ios": "https://dc.lft.to/lastmile_qr_scan", "android": "https://dc.lft.to/lastmile_qr_scan"}, "fusion_lat": 0.0}, {"lat": 38.906768666666665, "lon": -77.03638166666667, "is_disabled": 0, "fusion_lon": 0.0, "is_reserved": 0, "name": "e9f47eec39694897f327abc120e308bb", "type": "electric_scooter", "bike_id": "e9f47eec39694897f327abc120e308bb", "rental_uris": {"ios": "https://dc.lft.to/lastmile_qr_scan", "android": "https://dc.lft.to/lastmile_qr_scan"}, "fusion_lat": 0.0}, {"lat": 38.923853333333334, "lon": -77.02653733333334, "is_disabled": 0, "fusion_lon": 0.0, "is_reserved": 0, "name": "bbc549f3dcc27aa46142c5231c89d4dd", "type": "electric_scooter", "bike_id": "bbc549f3dcc27aa46142c5231c89d4dd", "rental_uris": {"ios": "https://dc.lft.to/lastmile_qr_scan", "android": "https://dc.lft.to/lastmile_qr_scan"}, "fusion_lat": 0.0}, {"lat": 38.912663333333334, "lon": -77.04705883333334, "is_disabled": 0, "fusion_lon": 0.0, "is_reserved": 0, "name": "7873a203827a073240bd18c1a7df242c", "type": "electric_scooter", "bike_id": "7873a203827a073240bd18c1a7df242c", "rental_uris": {"ios": "https://dc.lft.to/lastmile_qr_scan", "android": "https://dc.lft.to/lastmile_qr_scan"}, "fusion_lat": 0.0}, {"lat": 38.92588666666666, "lon": -77.032231, "is_disabled": 0, "fusion_lon": 0.0, "is_reserved": 0, "name": "9da9a1b38da605e4f10a2bcfe8fd0932", "type": "electric_scooter", "bike_id": "9da9a1b38da605e4f10a2bcfe8fd0932", "rental_uris": {"ios": "https://dc.lft.to/lastmile_qr_scan", "android": "https://dc.lft.to/lastmile_qr_scan"}, "fusion_lat": 0.0}, {"lat": 38.912414166666665, "lon": -77.0384285, "is_disabled": 0, "fusion_lon": 0.0, "is_reserved": 0, "name": "353727f1431ce1ddee038d9ae6bec728", "type": "electric_scooter", "bike_id": "353727f1431ce1ddee038d9ae6bec728", "rental_uris": {"ios": "https://dc.lft.to/lastmile_qr_scan", "android": "https://dc.lft.to/lastmile_qr_scan"}, "fusion_lat": 0.0}, {"lat": 38.90468, "lon": -77.01887266666667, "is_disabled": 0, "fusion_lon": 0.0, "is_reserved": 0, "name": "5305ffaaa7f73ac6e35ee841b38082cd", "type": "electric_scooter", "bike_id": "5305ffaaa7f73ac6e35ee841b38082cd", "rental_uris": {"ios": "https://dc.lft.to/lastmile_qr_scan", "android": "https://dc.lft.to/lastmile_qr_scan"}, "fusion_lat": 0.0}, {"lat": 38.87764466666667, "lon": -77.01046466666666, "is_disabled": 0, "fusion_lon": 0.0, "is_reserved": 0, "name": "906efe0d49e581f5acd2889e1cf3c7b9", "type": "electric_bike", "bike_id": "906efe0d49e581f5acd2889e1cf3c7b9", "rental_uris": {"ios": "https://dc.lft.to/lastmile_qr_scan", "android": "https://dc.lft.to/lastmile_qr_scan"}, "fusion_lat": 0.0}, {"lat": 38.921425666666664, "lon": -77.01809966666667, "is_disabled": 0, "fusion_lon": 0.0, "is_reserved": 0, "name": "44d8692ecca7ee13d48ba1a8763bd08d", "type": "electric_scooter", "bike_id": "44d8692ecca7ee13d48ba1a8763bd08d", "rental_uris": {"ios": "https://dc.lft.to/lastmile_qr_scan", "android": "https://dc.lft.to/lastmile_qr_scan"}, "fusion_lat": 0.0}, {"lat": 38.8731, "lon": -77.00146483333333, "is_disabled": 0, "fusion_lon": 0.0, "is_reserved": 0, "name": "9f9a28b7abc46a2353a5c3312385d3cc", "type": "electric_scooter", "bike_id": "9f9a28b7abc46a2353a5c3312385d3cc", "rental_uris": {"ios": "https://dc.lft.to/lastmile_qr_scan", "android": "https://dc.lft.to/lastmile_qr_scan"}, "fusion_lat": 0.0}, {"lat": 38.91045533333333, "lon": -77.03438116666666, "is_disabled": 0, "fusion_lon": 0.0, "is_reserved": 0, "name": "9f0238314f900ac1eff151ff8c7cb820", "type": "electric_scooter", "bike_id": "9f0238314f900ac1eff151ff8c7cb820", "rental_uris": {"ios": "https://dc.lft.to/lastmile_qr_scan", "android": "https://dc.lft.to/lastmile_qr_scan"}, "fusion_lat": 0.0}, {"lat": 38.91674066666667, "lon": -77.02412883333334, "is_disabled": 0, "fusion_lon": 0.0, "is_reserved": 0, "name": "7b1c5e1d09591d4f33d80c9155317341", "type": "electric_scooter", "bike_id": "7b1c5e1d09591d4f33d80c9155317341", "rental_uris": {"ios": "https://dc.lft.to/lastmile_qr_scan", "android": "https://dc.lft.to/lastmile_qr_scan"}, "fusion_lat": 0.0}, {"lat": 38.93346916666667, "lon": -77.06195516666666, "is_disabled": 0, "fusion_lon": 0.0, "is_reserved": 0, "name": "59a1e5ac94c1e625558f48631cbc9b19", "type": "electric_scooter", "bike_id": "59a1e5ac94c1e625558f48631cbc9b19", "rental_uris": {"ios": "https://dc.lft.to/lastmile_qr_scan", "android": "https://dc.lft.to/lastmile_qr_scan"}, "fusion_lat": 0.0}, {"lat": 38.9248005, "lon": -77.03559866666667, "is_disabled": 0, "fusion_lon": 0.0, "is_reserved": 0, "name": "974c4f3d44339cdc7b7233212f2c6f2c", "type": "electric_scooter", "bike_id": "974c4f3d44339cdc7b7233212f2c6f2c", "rental_uris": {"ios": "https://dc.lft.to/lastmile_qr_scan", "android": "https://dc.lft.to/lastmile_qr_scan"}, "fusion_lat": 0.0}, {"lat": 38.925958333333334, "lon": -77.035467, "is_disabled": 0, "fusion_lon": 0.0, "is_reserved": 0, "name": "126552030f7832df62ac8dcec20eae47", "type": "electric_scooter", "bike_id": "126552030f7832df62ac8dcec20eae47", "rental_uris": {"ios": "https://dc.lft.to/lastmile_qr_scan", "android": "https://dc.lft.to/lastmile_qr_scan"}, "fusion_lat": 0.0}, {"lat": 38.89734416666667, "lon": -76.99216416666667, "is_disabled": 0, "fusion_lon": 0.0, "is_reserved": 0, "name": "403527f9dcc22c53827d6255bca57f41", "type": "electric_bike", "bike_id": "403527f9dcc22c53827d6255bca57f41", "rental_uris": {"ios": "https://dc.lft.to/lastmile_qr_scan", "android": "https://dc.lft.to/lastmile_qr_scan"}, "fusion_lat": 0.0}, {"lat": 38.900244666666666, "lon": -76.99758783333333, "is_disabled": 0, "fusion_lon": 0.0, "is_reserved": 0, "name": "89bcc70fd025bc4e9c5b583f74b08822", "type": "electric_scooter", "bike_id": "89bcc70fd025bc4e9c5b583f74b08822", "rental_uris": {"ios": "https://dc.lft.to/lastmile_qr_scan", "android": "https://dc.lft.to/lastmile_qr_scan"}, "fusion_lat": 0.0}, {"lat": 38.91712366666667, "lon": -77.01218933333334, "is_disabled": 0, "fusion_lon": 0.0, "is_reserved": 0, "name": "756eb66561a3ff878ece5fd0f028d939", "type": "electric_scooter", "bike_id": "756eb66561a3ff878ece5fd0f028d939", "rental_uris": {"ios": "https://dc.lft.to/lastmile_qr_scan", "android": "https://dc.lft.to/lastmile_qr_scan"}, "fusion_lat": 0.0}, {"lat": 38.914145, "lon": -77.02099083333333, "is_disabled": 0, "fusion_lon": 0.0, "is_reserved": 0, "name": "c2f016c7afe5c89d0bdad5e05c91380d", "type": "electric_scooter", "bike_id": "c2f016c7afe5c89d0bdad5e05c91380d", "rental_uris": {"ios": "https://dc.lft.to/lastmile_qr_scan", "android": "https://dc.lft.to/lastmile_qr_scan"}, "fusion_lat": 0.0}, {"lat": 38.91481016666667, "lon": -77.04611683333333, "is_disabled": 0, "fusion_lon": 0.0, "is_reserved": 0, "name": "5193d6e1fb5b2dd7de9c833e5a98fe97", "type": "electric_scooter", "bike_id": "5193d6e1fb5b2dd7de9c833e5a98fe97", "rental_uris": {"ios": "https://dc.lft.to/lastmile_qr_scan", "android": "https://dc.lft.to/lastmile_qr_scan"}, "fusion_lat": 0.0}, {"lat": 38.92671216666667, "lon": -77.02122733333333, "is_disabled": 0, "fusion_lon": 0.0, "is_reserved": 0, "name": "66486710b2412d09001ae4b5ddef8d13", "type": "electric_scooter", "bike_id": "66486710b2412d09001ae4b5ddef8d13", "rental_uris": {"ios": "https://dc.lft.to/lastmile_qr_scan", "android": "https://dc.lft.to/lastmile_qr_scan"}, "fusion_lat": 0.0}, {"lat": 38.91547083333333, "lon": -77.03849933333333, "is_disabled": 0, "fusion_lon": 0.0, "is_reserved": 0, "name": "1253dbfe9453c36d60d6539604e597a4", "type": "electric_scooter", "bike_id": "1253dbfe9453c36d60d6539604e597a4", "rental_uris": {"ios": "https://dc.lft.to/lastmile_qr_scan", "android": "https://dc.lft.to/lastmile_qr_scan"}, "fusion_lat": 0.0}, {"lat": 38.930788666666665, "lon": -77.02807416666667, "is_disabled": 0, "fusion_lon": 0.0, "is_reserved": 0, "name": "2a4f19188244425c4788f5b961e2dfda", "type": "electric_scooter", "bike_id": "2a4f19188244425c4788f5b961e2dfda", "rental_uris": {"ios": "https://dc.lft.to/lastmile_qr_scan", "android": "https://dc.lft.to/lastmile_qr_scan"}, "fusion_lat": 0.0}, {"lat": 38.93609033333333, "lon": -77.035465, "is_disabled": 0, "fusion_lon": 0.0, "is_reserved": 0, "name": "3823b6c9cf9cacc00659908ab2b6b378", "type": "electric_bike", "bike_id": "3823b6c9cf9cacc00659908ab2b6b378", "rental_uris": {"ios": "https://dc.lft.to/lastmile_qr_scan", "android": "https://dc.lft.to/lastmile_qr_scan"}, "fusion_lat": 0.0}, {"lat": 38.922047, "lon": -77.041929, "is_disabled": 0, "fusion_lon": 0.0, "is_reserved": 0, "name": "b78afed9d219de503660e7c14a7b2c29", "type": "electric_scooter", "bike_id": "b78afed9d219de503660e7c14a7b2c29", "rental_uris": {"ios": "https://dc.lft.to/lastmile_qr_scan", "android": "https://dc.lft.to/lastmile_qr_scan"}, "fusion_lat": 0.0}, {"lat": 38.891612333333335, "lon": -76.99491533333334, "is_disabled": 0, "fusion_lon": 0.0, "is_reserved": 0, "name": "77c23abeff8f0b8f419942a1d9380202", "type": "electric_scooter", "bike_id": "77c23abeff8f0b8f419942a1d9380202", "rental_uris": {"ios": "https://dc.lft.to/lastmile_qr_scan", "android": "https://dc.lft.to/lastmile_qr_scan"}, "fusion_lat": 0.0}, {"lat": 38.923063166666665, "lon": -77.042963, "is_disabled": 0, "fusion_lon": 0.0, "is_reserved": 0, "name": "b28381c9abbbde912fa19c680a564a96", "type": "electric_scooter", "bike_id": "b28381c9abbbde912fa19c680a564a96", "rental_uris": {"ios": "https://dc.lft.to/lastmile_qr_scan", "android": "https://dc.lft.to/lastmile_qr_scan"}, "fusion_lat": 0.0}, {"lat": 38.881085166666665, "lon": -77.01657783333333, "is_disabled": 0, "fusion_lon": 0.0, "is_reserved": 0, "name": "ae28d37500bea8d1fdc91fc43462c330", "type": "electric_scooter", "bike_id": "ae28d37500bea8d1fdc91fc43462c330", "rental_uris": {"ios": "https://dc.lft.to/lastmile_qr_scan", "android": "https://dc.lft.to/lastmile_qr_scan"}, "fusion_lat": 0.0}, {"lat": 38.91110966666667, "lon": -77.0375655, "is_disabled": 0, "fusion_lon": 0.0, "is_reserved": 0, "name": "6a02b666e8834e2519cb94dc50013f6f", "type": "electric_scooter", "bike_id": "6a02b666e8834e2519cb94dc50013f6f", "rental_uris": {"ios": "https://dc.lft.to/lastmile_qr_scan", "android": "https://dc.lft.to/lastmile_qr_scan"}, "fusion_lat": 0.0}, {"lat": 38.923008833333334, "lon": -77.023283, "is_disabled": 0, "fusion_lon": 0.0, "is_reserved": 0, "name": "0a5281510aef37eda49c90bd7a7ee353", "type": "electric_scooter", "bike_id": "0a5281510aef37eda49c90bd7a7ee353", "rental_uris": {"ios": "https://dc.lft.to/lastmile_qr_scan", "android": "https://dc.lft.to/lastmile_qr_scan"}, "fusion_lat": 0.0}, {"lat": 38.90262, "lon": -77.0345625, "is_disabled": 0, "fusion_lon": 0.0, "is_reserved": 0, "name": "dec8998b063894a5969e3c6ad6c87528", "type": "electric_scooter", "bike_id": "dec8998b063894a5969e3c6ad6c87528", "rental_uris": {"ios": "https://dc.lft.to/lastmile_qr_scan", "android": "https://dc.lft.to/lastmile_qr_scan"}, "fusion_lat": 0.0}, {"lat": 38.9037145, "lon": -77.02909166666667, "is_disabled": 0, "fusion_lon": 0.0, "is_reserved": 0, "name": "0203246f12895d5d8dc59ac5e1f40654", "type": "electric_scooter", "bike_id": "0203246f12895d5d8dc59ac5e1f40654", "rental_uris": {"ios": "https://dc.lft.to/lastmile_qr_scan", "android": "https://dc.lft.to/lastmile_qr_scan"}, "fusion_lat": 0.0}, {"lat": 38.90810066666667, "lon": -77.034489, "is_disabled": 0, "fusion_lon": 0.0, "is_reserved": 0, "name": "841435df474c4a7aeecbda989e595d14", "type": "electric_scooter", "bike_id": "841435df474c4a7aeecbda989e595d14", "rental_uris": {"ios": "https://dc.lft.to/lastmile_qr_scan", "android": "https://dc.lft.to/lastmile_qr_scan"}, "fusion_lat": 0.0}, {"lat": 38.926841, "lon": -77.022663, "is_disabled": 0, "fusion_lon": 0.0, "is_reserved": 0, "name": "f32de2ea3043a1a66cea09005905cab6", "type": "electric_scooter", "bike_id": "f32de2ea3043a1a66cea09005905cab6", "rental_uris": {"ios": "https://dc.lft.to/lastmile_qr_scan", "android": "https://dc.lft.to/lastmile_qr_scan"}, "fusion_lat": 0.0},