{"data": {"bikes": [{"type": "electric_scooter", "rental_uris": {"android": "https://dc.lft.to/lastmile_qr_scan", "ios": "https://dc.lft.to/lastmile_qr_scan"}, "name": "4dd70f74236c866f8ebe71e361e34c91", "lat": 38.88511233333333, "is_reserved": 0, "fusion_lon": 0.0, "fusion_lat": 0.0, "is_disabled": 0, "bike_id": "4dd70f74236c866f8ebe71e361e34c91", "lon": -77.01115566666667}, {"type": "electric_scooter", "rental_uris": {"android": "https://dc.lft.to/lastmile_qr_scan", "ios": "https://dc.lft.to/lastmile_qr_scan"}, "name": "5310b04a7cdf7e7839613a160cf0893d", "lat": 38.886053833333335, "is_reserved": 0, "fusion_lon": 0.0, "fusion_lat": 0.0, "is_disabled": 0, "bike_id": "5310b04a7cdf7e7839613a160cf0893d", "lon": -77.01517566666666}, {"type": "electric_scooter", "rental_uris": {"android": "https://dc.lft.to/lastmile_qr_scan", "ios": "https://dc.lft.to/lastmile_qr_scan"}, "name": "a772dab573209b5db7c911977bcf8187", "lat": 38.909235333333335, "is_reserved": 0, "fusion_lon": 0.0, "fusion_lat": 0.0, "is_disabled": 0, "bike_id": "a772dab573209b5db7c911977bcf8187", "lon": -77.07278733333334}, {"type": "electric_scooter", "rental_uris": {"android": "https://dc.lft.to/lastmile_qr_scan", "ios": "https://dc.lft.to/lastmile_qr_scan"}, "name": "fe989a44da47734f1a5d6525cbeae64f", "lat": 38.920941666666664, "is_reserved": 0, "fusion_lon": 0.0, "fusion_lat": 0.0, "is_disabled": 0, "bike_id": "fe989a44da47734f1a5d6525cbeae64f", "lon": -77.023019}, {"type": "electric_scooter", "rental_uris": {"android": "https://dc.lft.to/lastmile_qr_scan", "ios": "https://dc.lft.to/lastmile_qr_scan"}, "name": "9b6c86dc13a8106bcabe397e29185efc", "lat": 38.904375333333334, "is_reserved": 0, "fusion_lon": 0.0, "fusion_lat": 0.0, "is_disabled": 0, "bike_id": "9b6c86dc13a8106bcabe397e29185efc", "lon": -77.05152333333334}, {"type": "electric_scooter", "rental_uris": {"android": "https://dc.lft.to/lastmile_qr_scan", "ios": "https://dc.lft.to/lastmile_qr_scan"}, "name": "a61e959c4f7f0e48de648798c8c226ba", "lat": 38.9209195, "is_reserved": 0, "fusion_lon": 0.0, "fusion_lat": 0.0, "is_disabled": 0, "bike_id": "a61e959c4f7f0e48de648798c8c226ba", "lon": -77.023039}, {"type": "electric_scooter", "rental_uris": {"android": "https://dc.lft.to/lastmile_qr_scan", "ios": "https://dc.lft.to/lastmile_qr_scan"}, "name": "c91d876dc3d461df788ee1cc17107156", "lat": 38.90376916666666, "is_reserved": 0, "fusion_lon": 0.0, "fusion_lat": 0.0, "is_disabled": 0, "bike_id": "c91d876dc3d461df788ee1cc17107156", "lon": -77.03860033333333}, {"type": "electric_scooter", "rental_uris": {"android": "https://dc.lft.to/lastmile_qr_scan", "ios": "https://dc.lft.to/lastmile_qr_scan"}, "name": "9480a8d3d73ccaf771e8fd7ba70aef17", "lat": 38.91825933333333, "is_reserved": 0, "fusion_lon": 0.0, "fusion_lat": 0.0, "is_disabled": 0, "bike_id": "9480a8d3d73ccaf771e8fd7ba70aef17", "lon": -77.0344615}, {"type": "electric_scooter", "rental_uris": {"android": "https://dc.lft.to/lastmile_qr_scan", "ios": "https://dc.lft.to/lastmile_qr_scan"}, "name": "72f14536420d1e42329fccc4e3b85a44", "lat": 38.90361433333333, "is_reserved": 0, "fusion_lon": 0.0, "fusion_lat": 0.0, "is_disabled": 0, "bike_id": "72f14536420d1e42329fccc4e3b85a44", "lon": -77.02613233333334}, {"type": "electric_scooter", "rental_uris": {"android": "https://dc.lft.to/lastmile_qr_scan", "ios": "https://dc.lft.to/lastmile_qr_scan"}, "name": "f5060244dc507763a1dc7dd41b379215", "lat": 38.938996, "is_reserved": 0, "fusion_lon": 0.0, "fusion_lat": 0.0, "is_disabled": 0, "bike_id": "f5060244dc507763a1dc7dd41b379215", "lon": -77.03313583333333}, {"type": "electric_scooter", "rental_uris": {"android": "https://dc.lft.to/lastmile_qr_scan", "ios": "https://dc.lft.to/lastmile_qr_scan"}, "name": "eddbf46f2be9650b618acddd3b5a9611", "lat": 38.919244666666664, "is_reserved": 0, "fusion_lon": 0.0, "fusion_lat": 0.0, "is_disabled": 0, "bike_id": "eddbf46f2be9650b618acddd3b5a9611", "lon": -77.00973183333333}, {"type": "electric_scooter", "rental_uris": {"android": "https://dc.lft.to/lastmile_qr_scan", "ios": "https://dc.lft.to/lastmile_qr_scan"}, "name": "40bf424cd00f703ada3e689fb562c553", "lat": 38.893897333333335, "is_reserved": 0, "fusion_lon": 0.0, "fusion_lat": 0.0, "is_disabled": 0, "bike_id": "40bf424cd00f703ada3e689fb562c553", "lon": -77.00205716666666}, {"type": "electric_scooter", "rental_uris": {"android": "https://dc.lft.to/lastmile_qr_scan", "ios": "https://dc.lft.to/lastmile_qr_scan"}, "name": "ba9e54a5766b3178f9a2988fdfc5aa0f", "lat": 38.90618966666667, "is_reserved": 0, "fusion_lon": 0.0, "fusion_lat": 0.0, "is_disabled": 0, "bike_id": "ba9e54a5766b3178f9a2988fdfc5aa0f", "lon": -76.95012366666667}, {"type": "electric_scooter", "rental_uris": {"android": "https://dc.lft.to/lastmile_qr_scan", "ios": "https://dc.lft.to/lastmile_qr_scan"}, "name": "fca43712a5761d354d7e7c8d2d8a07b4", "lat": 38.9001255, "is_reserved": 0, "fusion_lon": 0.0, "fusion_lat": 0.0, "is_disabled": 0, "bike_id": "fca43712a5761d354d7e7c8d2d8a07b4", "lon": -76.930263}, {"type": "electric_scooter", "rental_uris": {"android": "https://dc.lft.to/lastmile_qr_scan", "ios": "https://dc.lft.to/lastmile_qr_scan"}, "name": "61608dec9cd1fe6749ee1a42be82726e", "lat": 38.8930385, "is_reserved": 0, "fusion_lon": 0.0, "fusion_lat": 0.0, "is_disabled": 0, "bike_id": "61608dec9cd1fe6749ee1a42be82726e", "lon": -76.92983316666667}, {"type": "electric_scooter", "rental_uris": {"android": "https://dc.lft.to/lastmile_qr_scan", "ios": "https://dc.lft.to/lastmile_qr_scan"}, "name": "409040ee526f48e6a1e3a7686b1774be", "lat": 38.9006035, "is_reserved": 0, "fusion_lon": 0.0, "fusion_lat": 0.0, "is_disabled": 0, "bike_id": "409040ee526f48e6a1e3a7686b1774be", "lon": -77.002032}, {"type": "electric_scooter", "rental_uris": {"android": "https://dc.lft.to/lastmile_qr_scan", "ios": "https://dc.lft.to/lastmile_qr_scan"}, "name": "8f6b519a7d2dccaf61cb1af91bc50f37", "lat": 38.926488166666665, "is_reserved": 0, "fusion_lon": 0.0, "fusion_lat": 0.0, "is_disabled": 0, "bike_id": "8f6b519a7d2dccaf61cb1af91bc50f37", "lon": -77.04055083333333}, {"type": "electric_scooter", "rental_uris": {"android": "https://dc.lft.to/lastmile_qr_scan", "ios": "https://dc.lft.to/lastmile_qr_scan"}, "name": "542cc568553df57cccc6264859845d81", "lat": 38.916273333333336, "is_reserved": 0, "fusion_lon": 0.0, "fusion_lat": 0.0, "is_disabled": 0, "bike_id": "542cc568553df57cccc6264859845d81", "lon": -77.00187116666666}, {"type": "electric_scooter", "rental_uris": {"android": "https://dc.lft.to/lastmile_qr_scan", "ios": "https://dc.lft.to/lastmile_qr_scan"}, "name": "0e8b7e528415eab330ffa4b649fb5e57", "lat": 38.926008333333336, "is_reserved": 0, "fusion_lon": 0.0, "fusion_lat": 0.0, "is_disabled": 0, "bike_id": "0e8b7e528415eab330ffa4b649fb5e57", "lon": -77.02154}, {"type": "electric_scooter", "rental_uris": {"android": "https://dc.lft.to/lastmile_qr_scan", "ios": "https://dc.lft.to/lastmile_qr_scan"}, "name": "69816838136d4b1609bc184ac278ec2a", "lat": 38.890140333333335, "is_reserved": 0, "fusion_lon": 0.0, "fusion_lat": 0.0, "is_disabled": 0, "bike_id": "69816838136d4b1609bc184ac278ec2a", "lon": -76.93713566666666}, {"type": "electric_scooter", "rental_uris": {"android": "https://dc.lft.to/lastmile_qr_scan", "ios": "https://dc.lft.to/lastmile_qr_scan"}, "name": "255478746651c40168689a7a81bfd6be", "lat": 38.90554216666666, "is_reserved": 0, "fusion_lon": 0.0, "fusion_lat": 0.0, "is_disabled": 0, "bike_id": "255478746651c40168689a7a81bfd6be", "lon": -77.00552016666667}, {"type": "electric_scooter", "rental_uris": {"android": "https://dc.lft.to/lastmile_qr_scan", "ios": "https://dc.lft.to/lastmile_qr_scan"}, "name": "3c29c3397947db8aec3677df0946b911", "lat": 38.875945, "is_reserved": 0, "fusion_lon": 0.0, "fusion_lat": 0.0, "is_disabled": 0, "bike_id": "3c29c3397947db8aec3677df0946b911", "lon": -77.0057805}, {"type": "electric_scooter", "rental_uris": {"android": "https://dc.lft.to/lastmile_qr_scan", "ios": "https://dc.lft.to/lastmile_qr_scan"}, "name": "b47f9c4023e4ec5048431e4c8ac96c3f", "lat": 38.873919666666666, "is_reserved": 0, "fusion_lon": 0.0, "fusion_lat": 0.0, "is_disabled": 0, "bike_id": "b47f9c4023e4ec5048431e4c8ac96c3f", "lon": -77.0002515}, {"type": "electric_scooter", "rental_uris": {"android": "https://dc.lft.to/lastmile_qr_scan", "ios": "https://dc.lft.to/lastmile_qr_scan"}, "name": "cb560417a1a9479ed6ff9f8151e4e0c9", "lat": 38.9059295, "is_reserved": 0, "fusion_lon": 0.0, "fusion_lat": 0.0, "is_disabled": 0, "bike_id": "cb560417a1a9479ed6ff9f8151e4e0c9", "lon": -76.99310983333334}, {"type": "electric_scooter", "rental_uris": {"android": "https://dc.lft.to/lastmile_qr_scan", "ios": "https://dc.lft.to/lastmile_qr_scan"}, "name": "4642cd6b0d24698dd414985978527f42", "lat": 38.8881785, "is_reserved": 0, "fusion_lon": 0.0, "fusion_lat": 0.0, "is_disabled": 0, "bike_id": "4642cd6b0d24698dd414985978527f42", "lon": -76.97701766666667}, {"type": "electric_scooter", "rental_uris": {"android": "https://dc.lft.to/lastmile_qr_scan", "ios": "https://dc.lft.to/lastmile_qr_scan"}, "name": "68d7cd1bcb5a848ac2c1459d5507308c", "lat": 38.926746333333334, "is_reserved": 0, "fusion_lon": 0.0, "fusion_lat": 0.0, "is_disabled": 0, "bike_id": "68d7cd1bcb5a848ac2c1459d5507308c", "lon": -77.0302755}, {"type": "electric_scooter", "rental_uris": {"android": "https://dc.lft.to/lastmile_qr_scan", "ios": "https://dc.lft.to/lastmile_qr_scan"}, "name": "9f9ee221612072b606b8a47dbf81cac0", "lat": 38.92610666666667, "is_reserved": 0, "fusion_lon": 0.0, "fusion_lat": 0.0, "is_disabled": 0, "bike_id": "9f9ee221612072b606b8a47dbf81cac0", "lon": -77.021631}, {"type": "electric_scooter", "rental_uris": {"android": "https://dc.lft.to/lastmile_qr_scan", "ios": "https://dc.lft.to/lastmile_qr_scan"}, "name": "0e7b704ee82029023940353c17d84b01", "lat": 38.908327, "is_reserved": 0, "fusion_lon": 0.0, "fusion_lat": 0.0, "is_disabled": 0, "bike_id": "0e7b704ee82029023940353c17d84b01", "lon": -76.99696133333333}, {"type": "electric_scooter", "rental_uris": {"android": "https://dc.lft.to/lastmile_qr_scan", "ios": "https://dc.lft.to/lastmile_qr_scan"}, "name": "aef9a38a6b6e2f6fa9dbc79f8e598bbb", "lat": 38.91706716666667, "is_reserved": 0, "fusion_lon": 0.0, "fusion_lat": 0.0, "is_disabled": 0, "bike_id": "aef9a38a6b6e2f6fa9dbc79f8e598bbb", "lon": -77.03109883333333}, {"type": "electric_scooter", "rental_uris": {"android": "https://dc.lft.to/lastmile_qr_scan", "ios": "https://dc.lft.to/lastmile_qr_scan"}, "name": "a8880aaf65f416b269f7599ea77c0389", "lat": 38.901636833333335, "is_reserved": 0, "fusion_lon": 0.0, "fusion_lat": 0.0, "is_disabled": 0, "bike_id": "a8880aaf65f416b269f7599ea77c0389", "lon": -77.03443066666667}, {"type": "electric_scooter", "rental_uris": {"android": "https://dc.lft.to/lastmile_qr_scan", "ios": "https://dc.lft.to/lastmile_qr_scan"}, "name": "fd0e2121c7c63823c1ae8d0016347e51", "lat": 38.89828133333334, "is_reserved": 0, "fusion_lon": 0.0, "fusion_lat": 0.0, "is_disabled": 0, "bike_id": "fd0e2121c7c63823c1ae8d0016347e51", "lon": -77.00751766666667}, {"type": "electric_scooter", "rental_uris": {"android": "https://dc.lft.to/lastmile_qr_scan", "ios": "https://dc.lft.to/lastmile_qr_scan"}, "name": "9b288a3f643f3d1713c7ac9271f37e85", "lat": 38.89197566666667, "is_reserved": 0, "fusion_lon": 0.0, "fusion_lat": 0.0, "is_disabled": 0, "bike_id": "9b288a3f643f3d1713c7ac9271f37e85", "lon": -77.00291783333333}, {"type": "electric_scooter", "rental_uris": {"android": "https://dc.lft.to/lastmile_qr_scan", "ios": "https://dc.lft.to/lastmile_qr_scan"}, "name": "65117239817108fcca4de7618bc121ae", "lat": 38.892485666666666, "is_reserved": 0, "fusion_lon": 0.0, "fusion_lat": 0.0, "is_disabled": 0, "bike_id": "65117239817108fcca4de7618bc121ae", "lon": -77.04661033333333}, {"type": "electric_scooter", "rental_uris": {"android": "https://dc.lft.to/lastmile_qr_scan", "ios": "https://dc.lft.to/lastmile_qr_scan"}, "name": "eafe43efa1f321b4fa0bf9e0a18253d8", "lat": 38.885966333333336, "is_reserved": 0, "fusion_lon": 0.0, "fusion_lat": 0.0, "is_disabled": 0, "bike_id": "eafe43efa1f321b4fa0bf9e0a18253d8", "lon": -77.00579466666667}, {"type": "electric_scooter", "rental_uris": {"android": "https://dc.lft.to/lastmile_qr_scan", "ios": "https://dc.lft.to/lastmile_qr_scan"}, "name": "27b7caf75740a86c1fbe994b8b8951d1", "lat": 38.89259783333333, "is_reserved": 0, "fusion_lon": 0.0, "fusion_lat": 0.0, "is_disabled": 0, "bike_id": "27b7caf75740a86c1fbe994b8b8951d1", "lon": -77.0021745}, {"type": "electric_scooter", "rental_uris": {"android": "https://dc.lft.to/lastmile_qr_scan", "ios": "https://dc.lft.to/lastmile_qr_scan"}, "name": "0c22c9ab31112b2becbe37a783cc06bc", "lat": 38.905752, "is_reserved": 0, "fusion_lon": 0.0, "fusion_lat": 0.0, "is_disabled": 0, "bike_id": "0c22c9ab31112b2becbe37a783cc06bc", "lon": -77.04532966666666}, {"type": "electric_scooter", "rental_uris": {"android": "https://dc.lft.to/lastmile_qr_scan", "ios": "https://dc.lft.to/lastmile_qr_scan"}, "name": "1e92277186af6dc184627999ae722976", "lat": 38.9278675, "is_reserved": 0, "fusion_lon": 0.0, "fusion_lat": 0.0, "is_disabled": 0, "bike_id": "1e92277186af6dc184627999ae722976", "lon": -77.0231365}, {"type": "electric_scooter", "rental_uris": {"android": "https://dc.lft.to/lastmile_qr_scan", "ios": "https://dc.lft.to/lastmile_qr_scan"}, "name": "193841d0d86ca0cfbef78fc404d7539e", "lat": 38.87975433333333, "is_reserved": 0, "fusion_lon": 0.0, "fusion_lat": 0.0, "is_disabled": 0, "bike_id": "193841d0d86ca0cfbef78fc404d7539e", "lon": -77.02412066666666}, {"type": "electric_scooter", "rental_uris": {"android": "https://dc.lft.to/lastmile_qr_scan", "ios": "https://dc.lft.to/lastmile_qr_scan"}, "name": "dfa732a2b029c128e2f3e3081eefa72c", "lat": 38.86871566666667, "is_reserved": 0, "fusion_lon": 0.0, "fusion_lat": 0.0, "is_disabled": 0, "bike_id": "dfa732a2b029c128e2f3e3081eefa72c", "lon": -76.98655983333333}, {"type": "electric_scooter", "rental_uris": {"android": "https://dc.lft.to/lastmile_qr_scan", "ios": "https://dc.lft.to/lastmile_qr_scan"}, "name": "e90f77af6b6b58ef46c475b4ee6b4fb2", "lat": 38.91267216666667, "is_reserved": 0, "fusion_lon": 0.0, "fusion_lat": 0.0, "is_disabled": 0, "bike_id": "e90f77af6b6b58ef46c475b4ee6b4fb2", "lon": -77.0222495}, {"type": "electric_scooter", "rental_uris": {"android": "https://dc.lft.to/lastmile_qr_scan", "ios": "https://dc.lft.to/lastmile_qr_scan"}, "name": "f11c8202dc25d6c9eff7b1a596a1ea4f", "lat": 38.90559716666667, "is_reserved": 0, "fusion_lon": 0.0, "fusion_lat": 0.0, "is_disabled": 0, "bike_id": "f11c8202dc25d6c9eff7b1a596a1ea4f", "lon": -77.03459466666666}, {"type": "electric_scooter", "rental_uris": {"android": "https://dc.lft.to/lastmile_qr_scan", "ios": "https://dc.lft.to/lastmile_qr_scan"}, "name": "1805f54072690111cd63548252c102c1", "lat": 38.924617833333336, "is_reserved": 0, "fusion_lon": 0.0, "fusion_lat": 0.0, "is_disabled": 0, "bike_id": "1805f54072690111cd63548252c102c1", "lon": -77.02696816666666}, {"type": "electric_scooter", "rental_uris": {"android": "https://dc.lft.to/lastmile_qr_scan", "ios": "https://dc.lft.to/lastmile_qr_scan"}, "name": "742ba695e4182cceb66321f01354c928", "lat": 38.8962175, "is_reserved": 0, "fusion_lon": 0.0, "fusion_lat": 0.0, "is_disabled": 0, "bike_id": "742ba695e4182cceb66321f01354c928", "lon": -76.99850033333334}, {"type": "electric_scooter", "rental_uris": {"android": "https://dc.lft.to/lastmile_qr_scan", "ios": "https://dc.lft.to/lastmile_qr_scan"}, "name": "a1418d3d264af276874dd1b2d41c9270", "lat": 38.903965166666666, "is_reserved": 0, "fusion_lon": 0.0, "fusion_lat": 0.0, "is_disabled": 0, "bike_id": "a1418d3d264af276874dd1b2d41c9270", "lon": -77.00424416666667}, {"type": "electric_scooter", "rental_uris": {"android": "https://dc.lft.to/lastmile_qr_scan", "ios": "https://dc.lft.to/lastmile_qr_scan"}, "name": "30f382e54ca03a136c08ad96ce01e286", "lat": 38.95076016666667, "is_reserved": 0, "fusion_lon": 0.0, "fusion_lat": 0.0, "is_disabled": 0, "bike_id": "30f382e54ca03a136c08ad96ce01e286", "lon": -77.02986333333334}, {"type": "electric_bike", "rental_uris": {"android": "https://dc.lft.to/lastmile_qr_scan", "ios": "https://dc.lft.to/lastmile_qr_scan"}, "name": "cae3bbd5f5a7c80bb1735b125d3d4a80", "lat": 38.984635, "is_reserved": 0, "fusion_lon": 0.0, "fusion_lat": 0.0, "is_disabled": 0, "bike_id": "cae3bbd5f5a7c80bb1735b125d3d4a80", "lon": -77.02680616666666}, {"type": "electric_scooter", "rental_uris": {"android": "https://dc.lft.to/lastmile_qr_scan", "ios": "https://dc.lft.to/lastmile_qr_scan"}, "name": "4b060af07c7dcd3d7e0efeb143750228", "lat": 38.922409333333334, "is_reserved": 0, "fusion_lon": 0.0, "fusion_lat": 0.0, "is_disabled": 0, "bike_id": "4b060af07c7dcd3d7e0efeb143750228", "lon": -77.03663466666667}, {"type": "electric_scooter", "rental_uris": {"android": "https://dc.lft.to/lastmile_qr_scan", "ios": "https://dc.lft.to/lastmile_qr_scan"}, "name": "fb1da504a42134ce66834401d2605ff6", "lat": 38.914155666666666, "is_reserved": 0, "fusion_lon": 0.0, "fusion_lat": 0.0, "is_disabled": 0, "bike_id": "fb1da504a42134ce66834401d2605ff6", "lon": -77.03171066666667}, {"type": "electric_bike", "rental_uris": {"android": "https://dc.lft.to/lastmile_qr_scan", "ios": "https://dc.lft.to/lastmile_qr_scan"}, "name": "828460f443e5008858375799ae8a711b", "lat": 38.87033916666667, "is_reserved": 0, "fusion_lon": 0.0, "fusion_lat": 0.0, "is_disabled": 0, "bike_id": "828460f443e5008858375799ae8a711b", "lon": -77.22905966666667}, {"type": "electric_bike", "rental_uris": {"android": "https://dc.lft.to/lastmile_qr_scan", "ios": "https://dc.lft.to/lastmile_qr_scan"}, "name": "1387e8e761e6ad2d27e07d62cebadd5e", "lat": 38.94677866666667, "is_reserved": 0, "fusion_lon": 0.0, "fusion_lat": 0.0, "is_disabled": 0, "bike_id": "1387e8e761e6ad2d27e07d62cebadd5e", "lon": -76.99325366666666}, {"type": "electric_scooter", "rental_uris": {"android": "https://dc.lft.to/lastmile_qr_scan", "ios": "https://dc.lft.to/lastmile_qr_scan"}, "name": "91b69a28eeecac4a8710ef3a5075b091", "lat": 38.912642166666664, "is_reserved": 0, "fusion_lon": 0.0, "fusion_lat": 0.0, "is_disabled": 0, "bike_id": "91b69a28eeecac4a8710ef3a5075b091", "lon": -77.0393225}, {"type": "electric_bike", "rental_uris": {"android": "https://dc.lft.to/lastmile_qr_scan", "ios": "https://dc.lft.to/lastmile_qr_scan"}, "name": "59b8a3c3e5942f3a07b2fb8699a620f8", "lat": 38.8543345, "is_reserved": 0, "fusion_lon": 0.0, "fusion_lat": 0.0, "is_disabled": 0, "bike_id": "59b8a3c3e5942f3a07b2fb8699a620f8", "lon": -77.08320716666667}, {"type": "electric_scooter", "rental_uris": {"android": "https://dc.lft.to/lastmile_qr_scan", "ios": "https://dc.lft.to/lastmile_qr_scan"}, "name": "c7978a98dfa3a0909e8a0b31c5533ceb", "lat": 38.90639183333333, "is_reserved": 0, "fusion_lon": 0.0, "fusion_lat": 0.0, "is_disabled": 0, "bike_id": "c7978a98dfa3a0909e8a0b31c5533ceb", "lon": -77.00591616666667}, {"type": "electric_scooter", "rental_uris": {"android": "https://dc.lft.to/lastmile_qr_scan", "ios": "https://dc.lft.to/lastmile_qr_scan"}, "name": "a14dcf6b895f760290735009ac37fd35", "lat": 38.92684066666666, "is_reserved": 0, "fusion_lon": 0.0, "fusion_lat": 0.0, "is_disabled": 0, "bike_id": "a14dcf6b895f760290735009ac37fd35", "lon": -76.99553383333334}, {"type": "electric_scooter", "rental_uris": {"android": "https://dc.lft.to/lastmile_qr_scan", "ios": "https://dc.lft.to/lastmile_qr_scan"}, "name": "2831eb977077324f6354385637ec4415", "lat": 38.92611733333333, "is_reserved": 0, "fusion_lon": 0.0, "fusion_lat": 0.0, "is_disabled": 0, "bike_id": "2831eb977077324f6354385637ec4415", "lon": -77.02159483333334}, {"type": "electric_scooter", "rental_uris": {"android": "https://dc.lft.to/lastmile_qr_scan", "ios": "https://dc.lft.to/lastmile_qr_scan"}, "name": "90afac5df862de11f708ec03e60b30e9", "lat": 38.924429833333335, "is_reserved": 0, "fusion_lon": 0.0, "fusion_lat": 0.0, "is_disabled": 0, "bike_id": "90afac5df862de11f708ec03e60b30e9", "lon": -77.02026183333334}, {"type": "electric_scooter", "rental_uris": {"android": "https://dc.lft.to/lastmile_qr_scan", "ios": "https://dc.lft.to/lastmile_qr_scan"}, "name": "8ee74f56c6f3a60d09411d1a63f477f9", "lat": 38.89710066666667, "is_reserved": 0, "fusion_lon": 0.0, "fusion_lat": 0.0, "is_disabled": 0, "bike_id": "8ee74f56c6f3a60d09411d1a63f477f9", "lon": -76.99118333333334}, {"type": "electric_scooter", "rental_uris": {"android": "https://dc.lft.to/lastmile_qr_scan", "ios": "https://dc.lft.to/lastmile_qr_scan"}, "name": "b406548d410038f684ad53b1fd3ad343", "lat": 38.923276666666666, "is_reserved": 0, "fusion_lon": 0.0, "fusion_lat": 0.0, "is_disabled": 0, "bike_id": "b406548d410038f684ad53b1fd3ad343", "lon": -77.01954166666667}, {"type": "electric_scooter", "rental_uris": {"android": "https://dc.lft.to/lastmile_qr_scan", "ios": "https://dc.lft.to/lastmile_qr_scan"}, "name": "1c489dde45d35de403e4e3e5a8bf8ccd", "lat": 38.90331533333333, "is_reserved": 0, "fusion_lon": 0.0, "fusion_lat": 0.0, "is_disabled": 0, "bike_id": "1c489dde45d35de403e4e3e5a8bf8ccd", "lon": -76.975929}, {"type": "electric_scooter", "rental_uris": {"android": "https://dc.lft.to/lastmile_qr_scan", "ios": "https://dc.lft.to/lastmile_qr_scan"}, "name": "2def4004d4e954a2894014d63dc56fe5", "lat": 38.88074366666667, "is_reserved": 0, "fusion_lon": 0.0, "fusion_lat": 0.0, "is_disabled": 0, "bike_id": "2def4004d4e954a2894014d63dc56fe5", "lon": -77.03721033333333}, {"type": "electric_bike", "rental_uris": {"android": "https://dc.lft.to/lastmile_qr_scan", "ios": "https://dc.lft.to/lastmile_qr_scan"}, "name": "20e4a952b82b8468afcbe6703985d502", "lat": 38.89568283333333, "is_reserved": 0, "fusion_lon": 0.0, "fusion_lat": 0.0, "is_disabled": 0, "bike_id": "20e4a952b82b8468afcbe6703985d502", "lon": -77.12718933333333}, {"type": "electric_scooter", "rental_uris": {"android": "https://dc.lft.to/lastmile_qr_scan", "ios": "https://dc.lft.to/lastmile_qr_scan"}, "name": "b03c0e127abaeccf41275ec3fa3d25f2", "lat": 38.893662, "is_reserved": 0, "fusion_lon": 0.0, "fusion_lat": 0.0, "is_disabled": 0, "bike_id": "b03c0e127abaeccf41275ec3fa3d25f2", "lon": -76.98458583333333}, {"type": "electric_scooter", "rental_uris": {"android": "https://dc.lft.to/lastmile_qr_scan", "ios": "https://dc.lft.to/lastmile_qr_scan"}, "name": "31c1e8e13284d3aa583046dcae6a4bc8", "lat": 38.8731475, "is_reserved": 0, "fusion_lon": 0.0, "fusion_lat": 0.0, "is_disabled": 0, "bike_id": "31c1e8e13284d3aa583046dcae6a4bc8", "lon": -77.01390483333333}, {"type": "electric_scooter", "rental_uris": {"android": "https://dc.lft.to/lastmile_qr_scan", "ios": "https://dc.lft.to/lastmile_qr_scan"}, "name": "43fbe405e6528c46bdf3a1f591d39736", "lat": 38.902739833333335, "is_reserved": 0, "fusion_lon": 0.0, "fusion_lat": 0.0, "is_disabled": 0, "bike_id": "43fbe405e6528c46bdf3a1f591d39736", "lon": -77.030672}, {"type": "electric_scooter", "rental_uris": {"android": "https://dc.lft.to/lastmile_qr_scan", "ios": "https://dc.lft.to/lastmile_qr_scan"}, "name": "1dba229402cf67e02cf952ab2cd6700c", "lat": 38.90044416666667, "is_reserved": 0, "fusion_lon": 0.0, "fusion_lat": 0.0, "is_disabled": 0, "bike_id": "1dba229402cf67e02cf952ab2cd6700c", "lon": -77.04335133333333}, {"type": "electric_scooter", "rental_uris": {"android": "https://dc.lft.to/lastmile_qr_scan", "ios": "https://dc.lft.to/lastmile_qr_scan"}, "name": "07cf0ffedecb5c36d64076281e346567", "lat": 38.896170833333336, "is_reserved": 0, "fusion_lon": 0.0, "fusion_lat": 0.0, "is_disabled": 0, "bike_id": "07cf0ffedecb5c36d64076281e346567", "lon": -76.92975616666666}, {"type": "electric_scooter", "rental_uris": {"android": "https://dc.lft.to/lastmile_qr_scan", "ios": "https://dc.lft.to/lastmile_qr_scan"}, "name": "143fdb8d4313ea132314a9bcab1ea7ec", "lat": 38.915264, "is_reserved": 0, "fusion_lon": 0.0, "fusion_lat": 0.0, "is_disabled": 0, "bike_id": "143fdb8d4313ea132314a9bcab1ea7ec", "lon": -77.032035}, {"type": "electric_bike", "rental_uris": {"android": "https://dc.lft.to/lastmile_qr_scan", "ios": "https://dc.lft.to/lastmile_qr_scan"}, "name": "4bba0066c863e9310b3d65e624dee3ad", "lat": 38.949268000000004, "is_reserved": 0, "fusion_lon": 0.0, "fusion_lat": 0.0, "is_disabled": 0, "bike_id": "4bba0066c863e9310b3d65e624dee3ad", "lon": -76.95915116666667}, {"type": "electric_bike", "rental_uris": {"android": "https://dc.lft.to/lastmile_qr_scan", "ios": "https://dc.lft.to/lastmile_qr_scan"}, "name": "fb969bf90b09da12d4857f5b1500ecc7", "lat": 38.941513, "is_reserved": 0, "fusion_lon": 0.0, "fusion_lat": 0.0, "is_disabled": 0, "bike_id": "fb969bf90b09da12d4857f5b1500ecc7", "lon": -77.00197683333333}, {"type": "electric_scooter", "rental_uris": {"android": "https://dc.lft.to/lastmile_qr_scan", "ios": "https://dc.lft.to/lastmile_qr_scan"}, "name": "a11663de2df2f11e9285e397c234fc1b", "lat": 38.8923765, "is_reserved": 0, "fusion_lon": 0.0, "fusion_lat": 0.0, "is_disabled": 0, "bike_id": "a11663de2df2f11e9285e397c234fc1b", "lon": -77.032061}, {"type": "electric_scooter", "rental_uris": {"android": "https://dc.lft.to/lastmile_qr_scan", "ios": "https://dc.lft.to/lastmile_qr_scan"}, "name": "55cb7e1e5fdf3fc434d652127a03fa9d", "lat": 38.91561516666667, "is_reserved": 0, "fusion_lon": 0.0, "fusion_lat": 0.0, "is_disabled": 0, "bike_id": "55cb7e1e5fdf3fc434d652127a03fa9d", "lon": -77.03659633333334}, {"type": "electric_scooter", "rental_uris": {"android": "https://dc.lft.to/lastmile_qr_scan", "ios": "https://dc.lft.to/lastmile_qr_scan"}, "name": "4cd73848f473609a66b8992a08786dad", "lat": 38.91596766666667, "is_reserved": 0, "fusion_lon": 0.0, "fusion_lat": 0.0, "is_disabled": 0, "bike_id": "4cd73848f473609a66b8992a08786dad", "lon": -77.03183733333333}, {"type": "electric_bike", "rental_uris": {"android": "https://dc.lft.to/lastmile_qr_scan", "ios": "https://dc.lft.to/lastmile_qr_scan"}, "name": "b59b0f233474fea89319294cac062e61", "lat": 38.92623316666667, "is_reserved": 0, "fusion_lon": 0.0, "fusion_lat": 0.0, "is_disabled": 0, "bike_id": "b59b0f233474fea89319294cac062e61", "lon": -77.00589633333334}, {"type": "electric_scooter", "rental_uris": {"android": "https://dc.lft.to/lastmile_qr_scan", "ios": "https://dc.lft.to/lastmile_qr_scan"}, "name": "14b2bec38296126dd6a0e776be1220fc", "lat": 38.956311166666666, "is_reserved": 0, "fusion_lon": 0.0, "fusion_lat": 0.0, "is_disabled": 0, "bike_id": "14b2bec38296126dd6a0e776be1220fc", "lon": -77.02956066666667}, {"type": "electric_bike", "rental_uris": {"android": "https://dc.lft.to/lastmile_qr_scan", "ios": "https://dc.lft.to/lastmile_qr_scan"}, "name": "de858104be28229e5bfc67174aaafd73", "lat": 38.9026895, "is_reserved": 0, "fusion_lon": 0.0, "fusion_lat": 0.0, "is_disabled": 0, "bike_id": "de858104be28229e5bfc67174aaafd73", "lon": -77.04299366666666}, {"type": "electric_scooter", "rental_uris": {"android": "https://dc.lft.to/lastmile_qr_scan", "ios": "https://dc.lft.to/lastmile_qr_scan"}, "name": "f628c8f39f2a4061830e22428abf941c", "lat": 38.936403166666665, "is_reserved": 0, "fusion_lon": 0.0, "fusion_lat": 0.0, "is_disabled": 0, "bike_id": "f628c8f39f2a4061830e22428abf941c", "lon": -77.0600855}, {"type": "electric_scooter", "rental_uris": {"android": "https://dc.lft.to/lastmile_qr_scan", "ios": "https://dc.lft.to/lastmile_qr_scan"}, "name": "4f3e6c6aefc943f8410c44b95749ac33", "lat": 38.9290145, "is_reserved": 0, "fusion_lon": 0.0, "fusion_lat": 0.0, "is_disabled": 0, "bike_id": "4f3e6c6aefc943f8410c44b95749ac33", "lon": -77.01635683333333}, {"type": "electric_scooter", "rental_uris": {"android": "https://dc.lft.to/lastmile_qr_scan", "ios": "https://dc.lft.to/lastmile_qr_scan"}, "name": "8940d6a0b5d75857731d546dfd20e997", "lat": 38.9002495, "is_reserved": 0, "fusion_lon": 0.0, "fusion_lat": 0.0, "is_disabled": 0, "bike_id": "8940d6a0b5d75857731d546dfd20e997", "lon": -76.98688266666667}, {"type": "electric_scooter", "rental_uris": {"android": "https://dc.lft.to/lastmile_qr_scan", "ios": "https://dc.lft.to/lastmile_qr_scan"}, "name": "eb1aa5210d79307e8a2a03fba6dd6693", "lat": 38.905232833333336, "is_reserved": 0, "fusion_lon": 0.0, "fusion_lat": 0.0, "is_disabled": 0, "bike_id": "eb1aa5210d79307e8a2a03fba6dd6693", "lon": -77.029508}, {"type": "electric_scooter", "rental_uris": {"android": "https://dc.lft.to/lastmile_qr_scan", "ios": "https://dc.lft.to/lastmile_qr_scan"}, "name": "220a0dde4bb83e1834098712715b8e31", "lat": 38.901342666666665, "is_reserved": 0, "fusion_lon": 0.0, "fusion_lat": 0.0, "is_disabled": 0, "bike_id": "220a0dde4bb83e1834098712715b8e31", "lon": -77.04229216666667}, {"type": "electric_scooter", "rental_uris": {"android": "https://dc.lft.to/lastmile_qr_scan", "ios": "https://dc.lft.to/lastmile_qr_scan"}, "name": "64d82ebae1420c4e93bfba1c0811a33b", "lat": 38.91680433333333, "is_reserved": 0, "fusion_lon": 0.0, "fusion_lat": 0.0, "is_disabled": 0, "bike_id": "64d82ebae1420c4e93bfba1c0811a33b", "lon": -77.03193583333334}, {"type": "electric_scooter", "rental_uris": {"android": "https://dc.lft.to/lastmile_qr_scan", "ios": "https://dc.lft.to/lastmile_qr_scan"}, "name": "a893dd51de0db5a7dd0c2eadb994a0ce", "lat": 38.901170666666665, "is_reserved": 0, "fusion_lon": 0.0, "fusion_lat": 0.0, "is_disabled": 0, "bike_id": "a893dd51de0db5a7dd0c2eadb994a0ce", "lon": -77.04980433333333}, {"type": "electric_scooter", "rental_uris": {"android": "https://dc.lft.to/lastmile_qr_scan", "ios": "https://dc.lft.to/lastmile_qr_scan"}, "name": "f92ba76d76f607d4a486046cd5afd668", "lat": 38.931344333333335, "is_reserved": 0, "fusion_lon": 0.0, "fusion_lat": 0.0, "is_disabled": 0, "bike_id": "f92ba76d76f607d4a486046cd5afd668", "lon": -77.03881733333333}, {"type": "electric_scooter", "rental_uris": {"android": "https://dc.lft.to/lastmile_qr_scan", "ios": "https://dc.lft.to/lastmile_qr_scan"}, "name": "38728242bb81f7ead527e4cfbfbd383b", "lat": 38.897089333333334, "is_reserved": 0, "fusion_lon": 0.0, "fusion_lat": 0.0, "is_disabled": 0, "bike_id": "38728242bb81f7ead527e4cfbfbd383b", "lon": -76.99118816666666}, {"type": "electric_bike", "rental_uris": {"android": "https://dc.lft.to/lastmile_qr_scan", "ios": "https://dc.lft.to/lastmile_qr_scan"}, "name": "e2594d37400e9861308e7e50e190058d", "lat": 39.094344666666665, "is_reserved": 0, "fusion_lon": 0.0, "fusion_lat": 0.0, "is_disabled": 0, "bike_id": "e2594d37400e9861308e7e50e190058d", "lon": -77.134617}, {"type": "electric_scooter", "rental_uris": {"android": "https://dc.lft.to/lastmile_qr_scan", "ios": "https://dc.lft.to/lastmile_qr_scan"}, "name": "dace802deb9dcf1c93c905e39fee6ae1", "lat": 38.898151666666664, "is_reserved": 0, "fusion_lon": 0.0, "fusion_lat": 0.0, "is_disabled": 0, "bike_id": "dace802deb9dcf1c93c905e39fee6ae1", "lon": -77.028093}, {"type": "electric_scooter", "rental_uris": {"android": "https://dc.lft.to/lastmile_qr_scan", "ios": "https://dc.lft.to/lastmile_qr_scan"}, "name": "b9f92fcb88d8a5f27f409896b1c22fca", "lat": 38.923791333333334, "is_reserved": 0, "fusion_lon": 0.0, "fusion_lat": 0.0, "is_disabled": 0, "bike_id": "b9f92fcb88d8a5f27f409896b1c22fca", "lon": -77.021227}, {"type": "electric_scooter", "rental_uris": {"android": "https://dc.lft.to/lastmile_qr_scan", "ios": "https://dc.lft.to/lastmile_qr_scan"}, "name": "b09a14b421007079b8d96c832f9876b8", "lat": 38.900822833333336, "is_reserved": 0, "fusion_lon": 0.0, "fusion_lat": 0.0, "is_disabled": 0, "bike_id": "b09a14b421007079b8d96c832f9876b8", "lon": -77.0229675}, {"type": "electric_scooter", "rental_uris": {"android": "https://dc.lft.to/lastmile_qr_scan", "ios": "https://dc.lft.to/lastmile_qr_scan"}, "name": "ca3e60583654457e5f646623a9120881", "lat": 38.89541, "is_reserved": 0, "fusion_lon": 0.0, "fusion_lat": 0.0, "is_disabled": 0, "bike_id": "ca3e60583654457e5f646623a9120881", "lon": -77.03105116666667}, {"type": "electric_scooter", "rental_uris": {"android": "https://dc.lft.to/lastmile_qr_scan", "ios": "https://dc.lft.to/lastmile_qr_scan"}, "name": "e431012c8a65f64b508a406f1247c5b2", "lat": 38.901293833333334, "is_reserved": 0, "fusion_lon": 0.0, "fusion_lat": 0.0, "is_disabled": 0, "bike_id": "e431012c8a65f64b508a406f1247c5b2", "lon": -77.03043966666667}, {"type": "electric_scooter", "rental_uris": {"android": "https://dc.lft.to/lastmile_qr_scan", "ios": "https://dc.lft.to/lastmile_qr_scan"}, "name": "10cdcaaa19a29d3c7144e5b4fbf1e393", "lat": 38.90635733333333, "is_reserved": 0, "fusion_lon": 0.0, "fusion_lat": 0.0, "is_disabled": 0, "bike_id": "10cdcaaa19a29d3c7144e5b4fbf1e393", "lon": -77.033955}, {"type": "electric_scooter", "rental_uris": {"android": "https://dc.lft.to/lastmile_qr_scan", "ios": "https://dc.lft.to/lastmile_qr_scan"}, "name": "934628813fb40412b3e68499ef3a99c6", "lat": 38.92680383333333, "is_reserved": 0, "fusion_lon": 0.0, "fusion_lat": 0.0, "is_disabled": 0, "bike_id": "934628813fb40412b3e68499ef3a99c6", "lon": -77.01510383333333}, {"type": "electric_scooter", "rental_uris": {"android": "https://dc.lft.to/lastmile_qr_scan", "ios": "https://dc.lft.to/lastmile_qr_scan"}, "name": "389fd17a2973878ac0f740af3d2ec229", "lat": 38.900207, "is_reserved": 0, "fusion_lon": 0.0, "fusion_lat": 0.0, "is_disabled": 0, "bike_id": "389fd17a2973878ac0f740af3d2ec229", "lon": -77.027312}, {"type": "electric_scooter", "rental_uris": {"android": "https://dc.lft.to/lastmile_qr_scan", "ios": "https://dc.lft.to/lastmile_qr_scan"}, "name": "6b881c1f15ec97c9fe25f86a731e80a3", "lat": 38.9311505, "is_reserved": 0, "fusion_lon": 0.0, "fusion_lat": 0.0, "is_disabled": 0, "bike_id": "6b881c1f15ec97c9fe25f86a731e80a3", "lon": -77.03811616666667}, {"type": "electric_scooter", "rental_uris": {"android": "https://dc.lft.to/lastmile_qr_scan", "ios": "https://dc.lft.to/lastmile_qr_scan"}, "name": "f4531a4436c278c0cb01267e7f031aa5", "lat": 38.9067795, "is_reserved": 0, "fusion_lon": 0.0, "fusion_lat": 0.0, "is_disabled": 0, "bike_id": "f4531a4436c278c0cb01267e7f031aa5", "lon": -77.02695683333333}, {"type": "electric_scooter", "rental_uris": {"android": "https://dc.lft.to/lastmile_qr_scan", "ios": "https://dc.lft.to/lastmile_qr_scan"}, "name": "c7a2d522ab90f05c9f34e8f67145170d", "lat": 38.9126065, "is_reserved": 0, "fusion_lon": 0.0, "fusion_lat": 0.0, "is_disabled": 0, "bike_id": "c7a2d522ab90f05c9f34e8f67145170d", "lon": -77.0393285}, {"type": "electric_bike", "rental_uris": {"android": "https://dc.lft.to/lastmile_qr_scan", "ios": "https://dc.lft.to/lastmile_qr_scan"}, "name": "830646d400f5dd3bf5e6599ae47706c1", "lat": 38.8985095, "is_reserved": 0, "fusion_lon": 0.0, "fusion_lat": 0.0, "is_disabled": 0, "bike_id": "830646d400f5dd3bf5e6599ae47706c1", "lon": -76.931838}, {"type": "electric_scooter", "rental_uris": {"android": "https://dc.lft.to/lastmile_qr_scan", "ios": "https://dc.lft.to/lastmile_qr_scan"}, "name": "4610375c6191caaaed50f4c6d699f797", "lat": 38.906840333333335, "is_reserved": 0, "fusion_lon": 0.0, "fusion_lat": 0.0, "is_disabled": 0, "bike_id": "4610375c6191caaaed50f4c6d699f797", "lon": -77.06760766666666}, {"type": "electric_scooter", "rental_uris": {"android": "https://dc.lft.to/lastmile_qr_scan", "ios": "https://dc.lft.to/lastmile_qr_scan"}, "name": "3da4d2f0edb1a50d91891e7c533143aa", "lat": 38.969350166666665, "is_reserved": 0, "fusion_lon": 0.0, "fusion_lat": 0.0, "is_disabled": 0, "bike_id": "3da4d2f0edb1a50d91891e7c533143aa", "lon": -77.02708566666666}, {"type": "electric_scooter", "rental_uris": {"android": "https://dc.lft.to/lastmile_qr_scan", "ios": "https://dc.lft.to/lastmile_qr_scan"}, "name": "7f84abdd0a74dee49b5d6ab41d8b702c", "lat": 38.92672233333333, "is_reserved": 0, "fusion_lon": 0.0, "fusion_lat": 0.0, "is_disabled": 0, "bike_id": "7f84abdd0a74dee49b5d6ab41d8b702c", "lon": -77.01506883333333}, {"type": "electric_scooter", "rental_uris": {"android": "https://dc.lft.to/lastmile_qr_scan", "ios": "https://dc.lft.to/lastmile_qr_scan"}, "name": "bcae9a5179d6aaea1f9031fec8f03bf1", "lat": 38.90708583333333, "is_reserved": 0, "fusion_lon": 0.0, "fusion_lat": 0.0, "is_disabled": 0, "bike_id": "bcae9a5179d6aaea1f9031fec8f03bf1", "lon": -77.02388016666667}, {"type": "electric_scooter", "rental_uris": {"android": "https://dc.lft.to/lastmile_qr_scan", "ios": "https://dc.lft.to/lastmile_qr_scan"}, "name": "75698bb582f6c1362b190a22a0ff8a36", "lat": 38.8717585, "is_reserved": 0, "fusion_lon": 0.0, "fusion_lat": 0.0, "is_disabled": 0, "bike_id": "75698bb582f6c1362b190a22a0ff8a36", "lon": -77.00624283333333}, {"type": "electric_scooter", "rental_uris": {"android": "https://dc.lft.to/lastmile_qr_scan", "ios": "https://dc.lft.to/lastmile_qr_scan"}, "name": "6945e6e3cc72edd1f6146d366e062f5a", "lat": 38.90598933333333, "is_reserved": 0, "fusion_lon": 0.0, "fusion_lat": 0.0, "is_disabled": 0, "bike_id": "6945e6e3cc72edd1f6146d366e062f5a", "lon": -77.02598583333334}, {"type": "electric_scooter", "rental_uris": {"android": "https://dc.lft.to/lastmile_qr_scan", "ios": "https://dc.lft.to/lastmile_qr_scan"}, "name": "1f846bac9809a37198d2ca4ef717d989", "lat": 38.906221, "is_reserved": 0, "fusion_lon": 0.0, "fusion_lat": 0.0, "is_disabled": 0, "bike_id": "1f846bac9809a37198d2ca4ef717d989", "lon": -77.02383683333333}, {"type": "electric_bike", "rental_uris": {"android": "https://dc.lft.to/lastmile_qr_scan", "ios": "https://dc.lft.to/lastmile_qr_scan"}, "name": "aaa1e85f2fd661f57d19e3c2036558df", "lat": 38.923255833333336, "is_reserved": 0, "fusion_lon": 0.0, "fusion_lat": 0.0, "is_disabled": 0, "bike_id": "aaa1e85f2fd661f57d19e3c2036558df", "lon": -77.073066}, {"type": "electric_scooter", "rental_uris": {"android": "https://dc.lft.to/lastmile_qr_scan", "ios": "https://dc.lft.to/lastmile_qr_scan"}, "name": "bf18b85190398c3b08a3b3af19347799", "lat": 38.90145833333333, "is_reserved": 0, "fusion_lon": 0.0, "fusion_lat": 0.0, "is_disabled": 0, "bike_id": "bf18b85190398c3b08a3b3af19347799", "lon": -77.02489}, {"type": "electric_scooter", "rental_uris": {"android": "https://dc.lft.to/lastmile_qr_scan", "ios": "https://dc.lft.to/lastmile_qr_scan"}, "name": "31d9342fcaa24a5908e1efb94ad9b9d3", "lat": 38.90978583333333, "is_reserved": 0, "fusion_lon": 0.0, "fusion_lat": 0.0, "is_disabled": 0, "bike_id": "31d9342fcaa24a5908e1efb94ad9b9d3", "lon": -77.0271375}, {"type": "electric_scooter", "rental_uris": {"android": "https://dc.lft.to/lastmile_qr_scan", "ios": "https://dc.lft.to/lastmile_qr_scan"}, "name": "423a306c48d80ed3300c11571ec068ba", "lat": 38.90156283333334, "is_reserved": 0, "fusion_lon": 0.0, "fusion_lat": 0.0, "is_disabled": 0, "bike_id": "423a306c48d80ed3300c11571ec068ba", "lon": -77.02186733333333}, {"type": "electric_scooter", "rental_uris": {"android": "https://dc.lft.to/lastmile_qr_scan", "ios": "https://dc.lft.to/lastmile_qr_scan"}, "name": "d5f810ec88b4b36a0ec7b8d160c0964d", "lat": 38.8964755, "is_reserved": 0, "fusion_lon": 0.0, "fusion_lat": 0.0, "is_disabled": 0, "bike_id": "d5f810ec88b4b36a0ec7b8d160c0964d", "lon": -77.033016}, {"type": "electric_scooter", "rental_uris": {"android": "https://dc.lft.to/lastmile_qr_scan", "ios": "https://dc.lft.to/lastmile_qr_scan"}, "name": "d792e09e00b6e80ab6dc469ede56b0d5", "lat": 38.903375833333335, "is_reserved": 0, "fusion_lon": 0.0, "fusion_lat": 0.0, "is_disabled": 0, "bike_id": "d792e09e00b6e80ab6dc469ede56b0d5", "lon": -77.03226516666666}, {"type": "electric_scooter", "rental_uris": {"android": "https://dc.lft.to/lastmile_qr_scan", "ios": "https://dc.lft.to/lastmile_qr_scan"}, "name": "12fcd46fd5299bf8ababf772aaddf3ba", "lat": 38.8936035, "is_reserved": 0, "fusion_lon": 0.0, "fusion_lat": 0.0, "is_disabled": 0, "bike_id": "12fcd46fd5299bf8ababf772aaddf3ba", "lon": -77.00073666666667}, {"type": "electric_scooter", "rental_uris": {"android": "https://dc.lft.to/lastmile_qr_scan", "ios": "https://dc.lft.to/lastmile_qr_scan"}, "name": "673e52945c57d838c8d7803161dd5596", "lat": 38.94978366666667, "is_reserved": 0, "fusion_lon": 0.0, "fusion_lat": 0.0, "is_disabled": 0, "bike_id": "673e52945c57d838c8d7803161dd5596", "lon": -77.02018933333333}, {"type": "electric_scooter", "rental_uris": {"android": "https://dc.lft.to/lastmile_qr_scan", "ios": "https://dc.lft.to/lastmile_qr_scan"}, "name": "505f51666d902a9bc6f3245bfcd4ecb6", "lat": 38.923683833333335, "is_reserved": 0, "fusion_lon": 0.0, "fusion_lat": 0.0, "is_disabled": 0, "bike_id": "505f51666d902a9bc6f3245bfcd4ecb6", "lon": -77.01913466666667}, {"type": "electric_scooter", "rental_uris": {"android": "https://dc.lft.to/lastmile_qr_scan", "ios": "https://dc.lft.to/lastmile_qr_scan"}, "name": "33b9714063510e6f1fe26c91b96e014f", "lat": 38.90346666666667, "is_reserved": 0, "fusion_lon": 0.0, "fusion_lat": 0.0, "is_disabled": 0, "bike_id": "33b9714063510e6f1fe26c91b96e014f", "lon": -77.02606066666667}, {"type": "electric_scooter", "rental_uris": {"android": "https://dc.lft.to/lastmile_qr_scan", "ios": "https://dc.lft.to/lastmile_qr_scan"}, "name": "1eeecbc4967cc801b1ae1c4b8d4bcd68", "lat": 38.93423816666667, "is_reserved": 0, "fusion_lon": 0.0, "fusion_lat": 0.0, "is_disabled": 0, "bike_id": "1eeecbc4967cc801b1ae1c4b8d4bcd68", "lon": -77.04002483333333}, {"type": "electric_scooter", "rental_uris": {"android": "https://dc.lft.to/lastmile_qr_scan", "ios": "https://dc.lft.to/lastmile_qr_scan"}, "name": "32e66d7b5f4778adc6d31ebc2a868681", "lat": 38.9052495, "is_reserved": 0, "fusion_lon": 0.0, "fusion_lat": 0.0, "is_disabled": 0, "bike_id": "32e66d7b5f4778adc6d31ebc2a868681", "lon": -76.98402266666666}, {"type": "electric_scooter", "rental_uris": {"android": "https://dc.lft.to/lastmile_qr_scan", "ios": "https://dc.lft.to/lastmile_qr_scan"}, "name": "e1dd7bf7cdcdeef4257a665c210bc3aa", "lat": 38.910444, "is_reserved": 0, "fusion_lon": 0.0, "fusion_lat": 0.0, "is_disabled": 0, "bike_id": "e1dd7bf7cdcdeef4257a665c210bc3aa", "lon": -77.01098833333333}, {"type": "electric_scooter", "rental_uris": {"android": "https://dc.lft.to/lastmile_qr_scan", "ios": "https://dc.lft.to/lastmile_qr_scan"}, "name": "1a63bc49b5dbc92ee3d875d95abcf400", "lat": 38.92600016666667, "is_reserved": 0, "fusion_lon": 0.0, "fusion_lat": 0.0, "is_disabled": 0, "bike_id": "1a63bc49b5dbc92ee3d875d95abcf400", "lon": -77.0215455}, {"type": "electric_scooter", "rental_uris": {"android": "https://dc.lft.to/lastmile_qr_scan", "ios": "https://dc.lft.to/lastmile_qr_scan"}, "name": "384ed0e5bbcd88bb1e13acd83bc10f30", "lat": 38.93463366666667, "is_reserved": 0, "fusion_lon": 0.0, "fusion_lat": 0.0, "is_disabled": 0, "bike_id": "384ed0e5bbcd88bb1e13acd83bc10f30", "lon": -77.0580835}, {"type": "electric_scooter", "rental_uris": {"android": "https://dc.lft.to/lastmile_qr_scan", "ios": "https://dc.lft.to/lastmile_qr_scan"}, "name": "07725abed52e93cef3465c4682c0f71b", "lat": 38.9097235, "is_reserved": 0, "fusion_lon": 0.0, "fusion_lat": 0.0, "is_disabled": 0, "bike_id": "07725abed52e93cef3465c4682c0f71b", "lon": -77.0322015}, {"type": "electric_bike", "rental_uris": {"android": "https://dc.lft.to/lastmile_qr_scan", "ios": "https://dc.lft.to/lastmile_qr_scan"}, "name": "e47f1e565ab4d738776dd8ed2f4328a6", "lat": 38.950872833333335, "is_reserved": 0, "fusion_lon": 0.0, "fusion_lat": 0.0, "is_disabled": 0, "bike_id": "e47f1e565ab4d738776dd8ed2f4328a6", "lon": -76.99792066666667}, {"type": "electric_scooter", "rental_uris": {"android": "https://dc.lft.to/lastmile_qr_scan", "ios": "https://dc.lft.to/lastmile_qr_scan"}, "name": "c26d4999faadf6adcad59456af1bc0cd", "lat": 38.89835883333333, "is_reserved": 0, "fusion_lon": 0.0, "fusion_lat": 0.0, "is_disabled": 0, "bike_id": "c26d4999faadf6adcad59456af1bc0cd", "lon": -77.04365216666666}, {"type": "electric_scooter", "rental_uris": {"android": "https://dc.lft.to/lastmile_qr_scan", "ios": "https://dc.lft.to/lastmile_qr_scan"}, "name": "08c13aba562511a1921f34271ad9c2dc", "lat": 38.89887016666667, "is_reserved": 0, "fusion_lon": 0.0, "fusion_lat": 0.0, "is_disabled": 0, "bike_id": "08c13aba562511a1921f34271ad9c2dc", "lon": -77.03280883333333}, {"type": "electric_scooter", "rental_uris": {"android": "https://dc.lft.to/lastmile_qr_scan", "ios": "https://dc.lft.to/lastmile_qr_scan"}, "name": "e74c0f55700986a3ea059d58234dc00a", "lat": 38.92364283333333, "is_reserved": 0, "fusion_lon": 0.0, "fusion_lat": 0.0, "is_disabled": 0, "bike_id": "e74c0f55700986a3ea059d58234dc00a", "lon": -77.05052166666667}, {"type": "electric_scooter", "rental_uris": {"android": "https://dc.lft.to/lastmile_qr_scan", "ios": "https://dc.lft.to/lastmile_qr_scan"}, "name": "e95c083ce06f1a326205c1428368629b", "lat": 38.92422466666667, "is_reserved": 0, "fusion_lon": 0.0, "fusion_lat": 0.0, "is_disabled": 0, "bike_id": "e95c083ce06f1a326205c1428368629b", "lon": -77.01947016666666}, {"type": "electric_scooter", "rental_uris": {"android": "https://dc.lft.to/lastmile_qr_scan", "ios": "https://dc.lft.to/lastmile_qr_scan"}, "name": "463d4afda69c4658d4f9c53be2c23cf9", "lat": 38.898717833333336, "is_reserved": 0, "fusion_lon": 0.0, "fusion_lat": 0.0, "is_disabled": 0, "bike_id": "463d4afda69c4658d4f9c53be2c23cf9", "lon": -76.94664866666666}, {"type": "electric_scooter", "rental_uris": {"android": "https://dc.lft.to/lastmile_qr_scan", "ios": "https://dc.lft.to/lastmile_qr_scan"}, "name": "38f3e3f8cd0586220ae942b1d3ebabed", "lat": 38.9190655, "is_reserved": 0, "fusion_lon": 0.0, "fusion_lat": 0.0, "is_disabled": 0, "bike_id": "38f3e3f8cd0586220ae942b1d3ebabed", "lon": -77.020528}, {"type": "electric_scooter", "rental_uris": {"android": "https://dc.lft.to/lastmile_qr_scan", "ios": "https://dc.lft.to/lastmile_qr_scan"}, "name": "82f4b4a68b45e95a65e70b20fe8c5c09", "lat": 38.92790166666666, "is_reserved": 0, "fusion_lon": 0.0, "fusion_lat": 0.0, "is_disabled": 0, "bike_id": "82f4b4a68b45e95a65e70b20fe8c5c09", "lon": -77.03617433333334}, {"type": "electric_scooter", "rental_uris": {"android": "https://dc.lft.to/lastmile_qr_scan", "ios": "https://dc.lft.to/lastmile_qr_scan"}, "name": "3f02671317f3a38db588f0fac3ef002a", "lat": 38.9234255, "is_reserved": 0, "fusion_lon": 0.0, "fusion_lat": 0.0, "is_disabled": 0, "bike_id": "3f02671317f3a38db588f0fac3ef002a", "lon": -77.01905033333334}, {"type": "electric_scooter", "rental_uris": {"android": "https://dc.lft.to/lastmile_qr_scan", "ios": "https://dc.lft.to/lastmile_qr_scan"}, "name": "f776cc228905abdd5a2b5b3b9e52d5cd", "lat": 38.883721, "is_reserved": 0, "fusion_lon": 0.0, "fusion_lat": 0.0, "is_disabled": 0, "bike_id": "f776cc228905abdd5a2b5b3b9e52d5cd", "lon": -76.92420633333333}, {"type": "electric_scooter", "rental_uris": {"android": "https://dc.lft.to/lastmile_qr_scan", "ios": "https://dc.lft.to/lastmile_qr_scan"}, "name": "2ecf0cc314c29ae8285a8aa4a3923bff", "lat": 38.905037666666665, "is_reserved": 0, "fusion_lon": 0.0, "fusion_lat": 0.0, "is_disabled": 0, "bike_id": "2ecf0cc314c29ae8285a8aa4a3923bff", "lon": -77.02947766666666}, {"type": "electric_scooter", "rental_uris": {"android": "https://dc.lft.to/lastmile_qr_scan", "ios": "https://dc.lft.to/lastmile_qr_scan"}, "name": "6940ad75ad1605848d7c4159da478fa2", "lat": 38.914899166666665, "is_reserved": 0, "fusion_lon": 0.0, "fusion_lat": 0.0, "is_disabled": 0, "bike_id": "6940ad75ad1605848d7c4159da478fa2", "lon": -77.0217985}, {"type": "electric_scooter", "rental_uris": {"android": "https://dc.lft.to/lastmile_qr_scan", "ios": "https://dc.lft.to/lastmile_qr_scan"}, "name": "c6bde9e708969a14bbad0aebb76b6c83", "lat": 38.90009083333333, "is_reserved": 0, "fusion_lon": 0.0, "fusion_lat": 0.0, "is_disabled": 0, "bike_id": "c6bde9e708969a14bbad0aebb76b6c83", "lon": -77.04645733333334}, {"type": "electric_scooter", "rental_uris": {"android": "https://dc.lft.to/lastmile_qr_scan", "ios": "https://dc.lft.to/lastmile_qr_scan"}, "name": "eb77dc730a6478bb47c68dcfa8fd6ebc", "lat": 38.91979633333333, "is_reserved": 0, "fusion_lon": 0.0, "fusion_lat": 0.0, "is_disabled": 0, "bike_id": "eb77dc730a6478bb47c68dcfa8fd6ebc", "lon": -77.02177566666667}, {"type": "electric_scooter", "rental_uris": {"android": "https://dc.lft.to/lastmile_qr_scan", "ios": "https://dc.lft.to/lastmile_qr_scan"}, "name": "094d3f4935ac160e2dbbfe2e5873b68b", "lat": 38.91118933333333, "is_reserved": 0, "fusion_lon": 0.0, "fusion_lat": 0.0, "is_disabled": 0, "bike_id": "094d3f4935ac160e2dbbfe2e5873b68b", "lon": -77.04236983333334}, {"type": "electric_scooter", "rental_uris": {"android": "https://dc.lft.to/lastmile_qr_scan", "ios": "https://dc.lft.to/lastmile_qr_scan"}, "name": "c98254e76a20ddd570244c14886f135a", "lat": 38.89554, "is_reserved": 0, "fusion_lon": 0.0, "fusion_lat": 0.0, "is_disabled": 0, "bike_id": "c98254e76a20ddd570244c14886f135a", "lon": -77.01626316666666}, {"type": "electric_scooter", "rental_uris": {"android": "https://dc.lft.to/lastmile_qr_scan", "ios": "https://dc.lft.to/lastmile_qr_scan"}, "name": "aad547ec90b2a164a0919d9753624b53", "lat": 38.905688833333336, "is_reserved": 0, "fusion_lon": 0.0, "fusion_lat": 0.0, "is_disabled": 0, "bike_id": "aad547ec90b2a164a0919d9753624b53", "lon": -77.04224483333333}, {"type": "electric_scooter", "rental_uris": {"android": "https://dc.lft.to/lastmile_qr_scan", "ios": "https://dc.lft.to/lastmile_qr_scan"}, "name": "8d0bc6da2616aa2fe9cd4bd96c148ae5", "lat": 38.92662216666667, "is_reserved": 0, "fusion_lon": 0.0, "fusion_lat": 0.0, "is_disabled": 0, "bike_id": "8d0bc6da2616aa2fe9cd4bd96c148ae5", "lon": -77.03732933333333}, {"type": "electric_scooter", "rental_uris": {"android": "https://dc.lft.to/lastmile_qr_scan", "ios": "https://dc.lft.to/lastmile_qr_scan"}, "name": "3840e2eec5bebe4004ce30d1275c562a", "lat": 38.9088295, "is_reserved": 0, "fusion_lon": 0.0, "fusion_lat": 0.0, "is_disabled": 0, "bike_id": "3840e2eec5bebe4004ce30d1275c562a", "lon": -77.00302233333333}, {"type": "electric_scooter", "rental_uris": {"android": "https://dc.lft.to/lastmile_qr_scan", "ios": "https://dc.lft.to/lastmile_qr_scan"}, "name": "b59e12c8f01550fd6851389829d74ac3", "lat": 38.891994833333335, "is_reserved": 0, "fusion_lon": 0.0, "fusion_lat": 0.0, "is_disabled": 0, "bike_id": "b59e12c8f01550fd6851389829d74ac3", "lon": -77.0019445}, {"type": "electric_scooter", "rental_uris": {"android": "https://dc.lft.to/lastmile_qr_scan", "ios": "https://dc.lft.to/lastmile_qr_scan"}, "name": "369b530629cc5bd2e17103b5d05c6cab", "lat": 38.9157345, "is_reserved": 0, "fusion_lon": 0.0, "fusion_lat": 0.0, "is_disabled": 0, "bike_id": "369b530629cc5bd2e17103b5d05c6cab", "lon": -77.01260283333333}, {"type": "electric_scooter", "rental_uris": {"android": "https://dc.lft.to/lastmile_qr_scan", "ios": "https://dc.lft.to/lastmile_qr_scan"}, "name": "447392c8e8eb8002b77e485169db4ccd", "lat": 38.9244405, "is_reserved": 0, "fusion_lon": 0.0, "fusion_lat": 0.0, "is_disabled": 0, "bike_id": "447392c8e8eb8002b77e485169db4ccd", "lon": -77.03403316666666}, {"type": "electric_scooter", "rental_uris": {"android": "https://dc.lft.to/lastmile_qr_scan", "ios": "https://dc.lft.to/lastmile_qr_scan"}, "name": "f11d2bb9821473c4c4ff3ff50a559828", "lat": 38.91576333333333, "is_reserved": 0, "fusion_lon": 0.0, "fusion_lat": 0.0, "is_disabled": 0, "bike_id": "f11d2bb9821473c4c4ff3ff50a559828", "lon": -77.03185483333333}, {"type": "electric_scooter", "rental_uris": {"android": "https://dc.lft.to/lastmile_qr_scan", "ios": "https://dc.lft.to/lastmile_qr_scan"}, "name": "c5892f017d6b19004ace36c9e900ad2a", "lat": 38.923618, "is_reserved": 0, "fusion_lon": 0.0, "fusion_lat": 0.0, "is_disabled": 0, "bike_id": "c5892f017d6b19004ace36c9e900ad2a", "lon": -77.05025716666667}, {"type": "electric_bike", "rental_uris": {"android": "https://dc.lft.to/lastmile_qr_scan", "ios": "https://dc.lft.to/lastmile_qr_scan"}, "name": "473abc017e802f8f9655122ac5bdb751", "lat": 38.7933095, "is_reserved": 0, "fusion_lon": 0.0, "fusion_lat": 0.0, "is_disabled": 0, "bike_id": "473abc017e802f8f9655122ac5bdb751", "lon": -77.000489}, {"type": "electric_scooter", "rental_uris": {"android": "https://dc.lft.to/lastmile_qr_scan", "ios": "https://dc.lft.to/lastmile_qr_scan"}, "name": "3de8f639ff3df17ab14996733205db43", "lat": 38.9019865, "is_reserved": 0, "fusion_lon": 0.0, "fusion_lat": 0.0, "is_disabled": 0, "bike_id": "3de8f639ff3df17ab14996733205db43", "lon": -77.033997}, {"type": "electric_scooter", "rental_uris": {"android": "https://dc.lft.to/lastmile_qr_scan", "ios": "https://dc.lft.to/lastmile_qr_scan"}, "name": "e08d4d32feb302571cd48be597529a53", "lat": 38.890251666666664, "is_reserved": 0, "fusion_lon": 0.0, "fusion_lat": 0.0, "is_disabled": 0, "bike_id": "e08d4d32feb302571cd48be597529a53", "lon": -76.9371335}, {"type": "electric_scooter", "rental_uris": {"android": "https://dc.lft.to/lastmile_qr_scan", "ios": "https://dc.lft.to/lastmile_qr_scan"}, "name": "1fa69d94b022956ff95dc520d0a230db", "lat": 38.903652, "is_reserved": 0, "fusion_lon": 0.0, "fusion_lat": 0.0, "is_disabled": 0, "bike_id": "1fa69d94b022956ff95dc520d0a230db", "lon": -77.0434115}, {"type": "electric_bike", "rental_uris": {"android": "https://dc.lft.to/lastmile_qr_scan", "ios": "https://dc.lft.to/lastmile_qr_scan"}, "name": "88d98e4c77d4f65afbeea1d21fb82983", "lat": 38.90333666666667, "is_reserved": 0, "fusion_lon": 0.0, "fusion_lat": 0.0, "is_disabled": 0, "bike_id": "88d98e4c77d4f65afbeea1d21fb82983", "lon": -76.93368866666667}, {"type": "electric_scooter", "rental_uris": {"android": "https://dc.lft.to/lastmile_qr_scan", "ios": "https://dc.lft.to/lastmile_qr_scan"}, "name": "59f9f070880db2e426da8074dcb2524a", "lat": 38.90552566666667, "is_reserved": 0, "fusion_lon": 0.0, "fusion_lat": 0.0, "is_disabled": 0, "bike_id": "59f9f070880db2e426da8074dcb2524a", "lon": -77.00560583333333}, {"type": "electric_scooter", "rental_uris": {"android": "https://dc.lft.to/lastmile_qr_scan", "ios": "https://dc.lft.to/lastmile_qr_scan"}, "name": "e10f50ad073c1dea14a9cebf1869df9f", "lat": 38.8950655, "is_reserved": 0, "fusion_lon": 0.0, "fusion_lat": 0.0, "is_disabled": 0, "bike_id": "e10f50ad073c1dea14a9cebf1869df9f", "lon": -77.02288816666666}, {"type": "electric_scooter", "rental_uris": {"android": "https://dc.lft.to/lastmile_qr_scan", "ios": "https://dc.lft.to/lastmile_qr_scan"}, "name": "0db9c7b6709a5c770c182e2072bb421c", "lat": 38.91864866666667, "is_reserved": 0, "fusion_lon": 0.0, "fusion_lat": 0.0, "is_disabled": 0, "bike_id": "0db9c7b6709a5c770c182e2072bb421c", "lon": -77.04834183333334}, {"type": "electric_scooter", "rental_uris": {"android": "https://dc.lft.to/lastmile_qr_scan", "ios": "https://dc.lft.to/lastmile_qr_scan"}, "name": "f99c1cec642d0e8e0b13f53619a4aa16", "lat": 38.925732833333335, "is_reserved": 0, "fusion_lon": 0.0, "fusion_lat": 0.0, "is_disabled": 0, "bike_id": "f99c1cec642d0e8e0b13f53619a4aa16", "lon": -77.0373985}, {"type": "electric_scooter", "rental_uris": {"android": "https://dc.lft.to/lastmile_qr_scan", "ios": "https://dc.lft.to/lastmile_qr_scan"}, "name": "b7b4b0446e96e596f245137bc4f473ef", "lat": 38.942457166666664, "is_reserved": 0, "fusion_lon": 0.0, "fusion_lat": 0.0, "is_disabled": 0, "bike_id": "b7b4b0446e96e596f245137bc4f473ef", "lon": -77.02168783333333}, {"type": "electric_scooter", "rental_uris": {"android": "https://dc.lft.to/lastmile_qr_scan", "ios": "https://dc.lft.to/lastmile_qr_scan"}, "name": "ec7e14e3722f6886845f5ff42cf3bf86", "lat": 38.90573833333333, "is_reserved": 0, "fusion_lon": 0.0, "fusion_lat": 0.0, "is_disabled": 0, "bike_id": "ec7e14e3722f6886845f5ff42cf3bf86", "lon": -77.04231233333333}, {"type": "electric_scooter", "rental_uris": {"android": "https://dc.lft.to/lastmile_qr_scan", "ios": "https://dc.lft.to/lastmile_qr_scan"}, "name": "b0dfb61ab5ee428b3df95342ea7399ce", "lat": 38.92922816666667, "is_reserved": 0, "fusion_lon": 0.0, "fusion_lat": 0.0, "is_disabled": 0, "bike_id": "b0dfb61ab5ee428b3df95342ea7399ce", "lon": -77.03249733333334}, {"type": "electric_scooter", "rental_uris": {"android": "https://dc.lft.to/lastmile_qr_scan", "ios": "https://dc.lft.to/lastmile_qr_scan"}, "name": "de71dc82356789f9064bd273df70096f", "lat": 38.905377666666666, "is_reserved": 0, "fusion_lon": 0.0, "fusion_lat": 0.0, "is_disabled": 0, "bike_id": "de71dc82356789f9064bd273df70096f", "lon": -77.0591035}, {"type": "electric_scooter", "rental_uris": {"android": "https://dc.lft.to/lastmile_qr_scan", "ios": "https://dc.lft.to/lastmile_qr_scan"}, "name": "96788f140b5235fa56ab7ab71e39dc3f", "lat": 38.92242783333333, "is_reserved": 0, "fusion_lon": 0.0, "fusion_lat": 0.0, "is_disabled": 0, "bike_id": "96788f140b5235fa56ab7ab71e39dc3f", "lon": -77.0366445}, {"type": "electric_scooter", "rental_uris": {"android": "https://dc.lft.to/lastmile_qr_scan", "ios": "https://dc.lft.to/lastmile_qr_scan"}, "name": "fb37b37d102d46227b4e93e4115768db", "lat": 38.899213, "is_reserved": 0, "fusion_lon": 0.0, "fusion_lat": 0.0, "is_disabled": 0, "bike_id": "fb37b37d102d46227b4e93e4115768db", "lon": -77.03919933333333}, {"type": "electric_scooter", "rental_uris": {"android": "https://dc.lft.to/lastmile_qr_scan", "ios": "https://dc.lft.to/lastmile_qr_scan"}, "name": "c6ca85bc9d8b997335bbea66069e4b8c", "lat": 38.884829333333336, "is_reserved": 0, "fusion_lon": 0.0, "fusion_lat": 0.0, "is_disabled": 0, "bike_id": "c6ca85bc9d8b997335bbea66069e4b8c", "lon": -77.02196583333334}, {"type": "electric_scooter", "rental_uris": {"android": "https://dc.lft.to/lastmile_qr_scan", "ios": "https://dc.lft.to/lastmile_qr_scan"}, "name": "630ecc966f2d95f0b8502f139769e1a8", "lat": 38.898403333333334, "is_reserved": 0, "fusion_lon": 0.0, "fusion_lat": 0.0, "is_disabled": 0, "bike_id": "630ecc966f2d95f0b8502f139769e1a8", "lon": -77.04368}, {"type": "electric_scooter", "rental_uris": {"android": "https://dc.lft.to/lastmile_qr_scan", "ios": "https://dc.lft.to/lastmile_qr_scan"}, "name": "61f2cab78449528fa20796b331c1054d", "lat": 38.941633, "is_reserved": 0, "fusion_lon": 0.0, "fusion_lat": 0.0, "is_disabled": 0, "bike_id": "61f2cab78449528fa20796b331c1054d", "lon": -77.02557466666667}, {"type": "electric_scooter", "rental_uris": {"android": "https://dc.lft.to/lastmile_qr_scan", "ios": "https://dc.lft.to/lastmile_qr_scan"}, "name": "2f9c3660e80ea58c3dfa2dba2150293e", "lat": 38.92063783333333, "is_reserved": 0, "fusion_lon": 0.0, "fusion_lat": 0.0, "is_disabled": 0, "bike_id": "2f9c3660e80ea58c3dfa2dba2150293e", "lon": -77.03460166666666}, {"type": "electric_scooter", "rental_uris": {"android": "https://dc.lft.to/lastmile_qr_scan", "ios": "https://dc.lft.to/lastmile_qr_scan"}, "name": "bbb5523b43edf016e0de73e0827e5367", "lat": 38.907250833333336, "is_reserved": 0, "fusion_lon": 0.0, "fusion_lat": 0.0, "is_disabled": 0, "bike_id": "bbb5523b43edf016e0de73e0827e5367", "lon": -77.025581}, {"type": "electric_scooter", "rental_uris": {"android": "https://dc.lft.to/lastmile_qr_scan", "ios": "https://dc.lft.to/lastmile_qr_scan"}, "name": "441f84211e5c095f4f74e9fa9dbbfa51", "lat": 38.94614033333333, "is_reserved": 0, "fusion_lon": 0.0, "fusion_lat": 0.0, "is_disabled": 0, "bike_id": "441f84211e5c095f4f74e9fa9dbbfa51", "lon": -77.080257}, {"type": "electric_scooter", "rental_uris": {"android": "https://dc.lft.to/lastmile_qr_scan", "ios": "https://dc.lft.to/lastmile_qr_scan"}, "name": "5ed723b086aaf10066dcdfdd522a5a4d", "lat": 38.8962185, "is_reserved": 0, "fusion_lon": 0.0, "fusion_lat": 0.0, "is_disabled": 0, "bike_id": "5ed723b086aaf10066dcdfdd522a5a4d", "lon": -77.01627016666667}, {"type": "electric_scooter", "rental_uris": {"android": "https://dc.lft.to/lastmile_qr_scan", "ios": "https://dc.lft.to/lastmile_qr_scan"}, "name": "d4bdeb1873e84f2f94c5e5b13b9b1d7f", "lat": 38.920563666666666, "is_reserved": 0, "fusion_lon": 0.0, "fusion_lat": 0.0, "is_disabled": 0, "bike_id": "d4bdeb1873e84f2f94c5e5b13b9b1d7f", "lon": -76.98430716666667}, {"type": "electric_scooter", "rental_uris": {"android": "https://dc.lft.to/lastmile_qr_scan", "ios": "https://dc.lft.to/lastmile_qr_scan"}, "name": "d20ecfd492c7fb13682293e693e8350b", "lat": 38.90475983333333, "is_reserved": 0, "fusion_lon": 0.0, "fusion_lat": 0.0, "is_disabled": 0, "bike_id": "d20ecfd492c7fb13682293e693e8350b", "lon": -77.03549083333333}, {"type": "electric_scooter", "rental_uris": {"android": "https://dc.lft.to/lastmile_qr_scan", "ios": "https://dc.lft.to/lastmile_qr_scan"}, "name": "f9fbf40da532099734574b9e2807bb61", "lat": 38.8980815, "is_reserved": 0, "fusion_lon": 0.0, "fusion_lat": 0.0, "is_disabled": 0, "bike_id": "f9fbf40da532099734574b9e2807bb61", "lon": -77.024858}, {"type": "electric_bike", "rental_uris": {"android": "https://dc.lft.to/lastmile_qr_scan", "ios": "https://dc.lft.to/lastmile_qr_scan"}, "name": "d95fc28aa46c21edb72a829adc461e51", "lat": 39.04236366666667, "is_reserved": 0, "fusion_lon": 0.0, "fusion_lat": 0.0, "is_disabled": 0, "bike_id": "d95fc28aa46c21edb72a829adc461e51", "lon": -76.99735033333333}, {"type": "electric_scooter", "rental_uris": {"android": "https://dc.lft.to/lastmile_qr_scan", "ios": "https://dc.lft.to/lastmile_qr_scan"}, "name": "7b7a9d56817af7a84487cbcd4ab8cfe3", "lat": 38.90109316666667, "is_reserved": 0, "fusion_lon": 0.0, "fusion_lat": 0.0, "is_disabled": 0, "bike_id": "7b7a9d56817af7a84487cbcd4ab8cfe3", "lon": -77.04684633333333}, {"type": "electric_scooter", "rental_uris": {"android": "https://dc.lft.to/lastmile_qr_scan", "ios": "https://dc.lft.to/lastmile_qr_scan"}, "name": "8f249aaad75da86e43450cb72c7e28fb", "lat": 38.90018633333333, "is_reserved": 0, "fusion_lon": 0.0, "fusion_lat": 0.0, "is_disabled": 0, "bike_id": "8f249aaad75da86e43450cb72c7e28fb", "lon": -77.011404}, {"type": "electric_bike", "rental_uris": {"android": "https://dc.lft.to/lastmile_qr_scan", "ios": "https://dc.lft.to/lastmile_qr_scan"}, "name": "74616f4a36bb82a99d01fe6041dd3e83", "lat": 38.973356833333334, "is_reserved": 0, "fusion_lon": 0.0, "fusion_lat": 0.0, "is_disabled": 0, "bike_id": "74616f4a36bb82a99d01fe6041dd3e83", "lon": -76.9959145}, {"type": "electric_scooter", "rental_uris": {"android": "https://dc.lft.to/lastmile_qr_scan", "ios": "https://dc.lft.to/lastmile_qr_scan"}, "name": "b62e25a59b0d84aa9013780e4aa88bcb", "lat": 38.90274133333333, "is_reserved": 0, "fusion_lon": 0.0, "fusion_lat": 0.0, "is_disabled": 0, "bike_id": "b62e25a59b0d84aa9013780e4aa88bcb", "lon": -77.03472333333333}, {"type": "electric_scooter", "rental_uris": {"android": "https://dc.lft.to/lastmile_qr_scan", "ios": "https://dc.lft.to/lastmile_qr_scan"}, "name": "d858e33f9dac4ccb56b560dff4f8a185", "lat": 38.909315166666666, "is_reserved": 0, "fusion_lon": 0.0, "fusion_lat": 0.0, "is_disabled": 0, "bike_id": "d858e33f9dac4ccb56b560dff4f8a185", "lon": -77.0230655}, {"type": "electric_scooter", "rental_uris": {"android": "https://dc.lft.to/lastmile_qr_scan", "ios": "https://dc.lft.to/lastmile_qr_scan"}, "name": "ed0c3f8a9dd2eabd9cc043525b787783", "lat": 38.919246666666666, "is_reserved": 0, "fusion_lon": 0.0, "fusion_lat": 0.0, "is_disabled": 0, "bike_id": "ed0c3f8a9dd2eabd9cc043525b787783", "lon": -77.03419716666667}, {"type": "electric_scooter", "rental_uris": {"android": "https://dc.lft.to/lastmile_qr_scan", "ios": "https://dc.lft.to/lastmile_qr_scan"}, "name": "efcc19ca73308f38f9fa46e4a3f3f337", "lat": 38.9025515, "is_reserved": 0, "fusion_lon": 0.0, "fusion_lat": 0.0, "is_disabled": 0, "bike_id": "efcc19ca73308f38f9fa46e4a3f3f337", "lon": -77.04061683333333}, {"type": "electric_scooter", "rental_uris": {"android": "https://dc.lft.to/lastmile_qr_scan", "ios": "https://dc.lft.to/lastmile_qr_scan"}, "name": "cfbed839f4f6cb9568512442e904c259", "lat": 38.90364666666667, "is_reserved": 0, "fusion_lon": 0.0, "fusion_lat": 0.0, "is_disabled": 0, "bike_id": "cfbed839f4f6cb9568512442e904c259", "lon": -77.045075}, {"type": "electric_bike", "rental_uris": {"android": "https://dc.lft.to/lastmile_qr_scan", "ios": "https://dc.lft.to/lastmile_qr_scan"}, "name": "69b97a025ee6329843355cbfdef168fe", "lat": 38.923370166666665, "is_reserved": 0, "fusion_lon": 0.0, "fusion_lat": 0.0, "is_disabled": 0, "bike_id": "69b97a025ee6329843355cbfdef168fe", "lon": -76.971434}, {"type": "electric_scooter", "rental_uris": {"android": "https://dc.lft.to/lastmile_qr_scan", "ios": "https://dc.lft.to/lastmile_qr_scan"}, "name": "426164bd9b5935a951542b8503fe94f9", "lat": 38.923320833333335, "is_reserved": 0, "fusion_lon": 0.0, "fusion_lat": 0.0, "is_disabled": 0, "bike_id": "426164bd9b5935a951542b8503fe94f9", "lon": -77.04614733333334}, {"type": "electric_scooter", "rental_uris": {"android": "https://dc.lft.to/lastmile_qr_scan", "ios": "https://dc.lft.to/lastmile_qr_scan"}, "name": "db4953f889bc34fc78a2bd3229ebbf39", "lat": 38.9136095, "is_reserved": 0, "fusion_lon": 0.0, "fusion_lat": 0.0, "is_disabled": 0, "bike_id": "db4953f889bc34fc78a2bd3229ebbf39", "lon": -77.06394983333334}, {"type": "electric_scooter", "rental_uris": {"android": "https://dc.lft.to/lastmile_qr_scan", "ios": "https://dc.lft.to/lastmile_qr_scan"}, "name": "e8ea6334993b962932ca041744d12c9c", "lat": 38.90559533333333, "is_reserved": 0, "fusion_lon": 0.0, "fusion_lat": 0.0, "is_disabled": 0, "bike_id": "e8ea6334993b962932ca041744d12c9c", "lon": -77.03980066666666}, {"type": "electric_scooter", "rental_uris": {"android": "https://dc.lft.to/lastmile_qr_scan", "ios": "https://dc.lft.to/lastmile_qr_scan"}, "name": "abba285c693a287669a41377145def15", "lat": 38.87758266666667, "is_reserved": 0, "fusion_lon": 0.0, "fusion_lat": 0.0, "is_disabled": 0, "bike_id": "abba285c693a287669a41377145def15", "lon": -77.00751933333333}, {"type": "electric_scooter", "rental_uris": {"android": "https://dc.lft.to/lastmile_qr_scan", "ios": "https://dc.lft.to/lastmile_qr_scan"}, "name": "20df56501645dfbff21ef8357f295952", "lat": 38.920626, "is_reserved": 0, "fusion_lon": 0.0, "fusion_lat": 0.0, "is_disabled": 0, "bike_id": "20df56501645dfbff21ef8357f295952", "lon": -77.02302233333333}, {"type": "electric_scooter", "rental_uris": {"android": "https://dc.lft.to/lastmile_qr_scan", "ios": "https://dc.lft.to/lastmile_qr_scan"}, "name": "1ab61fe0776fbe8695b1a6fb94d97778", "lat": 38.88483733333333, "is_reserved": 0, "fusion_lon": 0.0, "fusion_lat": 0.0, "is_disabled": 0, "bike_id": "1ab61fe0776fbe8695b1a6fb94d97778", "lon": -77.01522083333333}, {"type": "electric_bike", "rental_uris": {"android": "https://dc.lft.to/lastmile_qr_scan", "ios": "https://dc.lft.to/lastmile_qr_scan"}, "name": "15dc6904941651234610a53c261becf6", "lat": 38.908297, "is_reserved": 0, "fusion_lon": 0.0, "fusion_lat": 0.0, "is_disabled": 0, "bike_id": "15dc6904941651234610a53c261becf6", "lon": -76.94160833333333}, {"type": "electric_scooter", "rental_uris": {"android": "https://dc.lft.to/lastmile_qr_scan", "ios": "https://dc.lft.to/lastmile_qr_scan"}, "name": "2a3d82447b1237253d0ebd62c6b5d850", "lat": 38.90820883333333, "is_reserved": 0, "fusion_lon": 0.0, "fusion_lat": 0.0, "is_disabled": 0, "bike_id": "2a3d82447b1237253d0ebd62c6b5d850", "lon": -77.0383295}, {"type": "electric_scooter", "rental_uris": {"android": "https://dc.lft.to/lastmile_qr_scan", "ios": "https://dc.lft.to/lastmile_qr_scan"}, "name": "6a9aeeb3b489d8c76d485a51cae381e5", "lat": 38.921117, "is_reserved": 0, "fusion_lon": 0.0, "fusion_lat": 0.0, "is_disabled": 0, "bike_id": "6a9aeeb3b489d8c76d485a51cae381e5", "lon": -77.021484}, {"type": "electric_scooter", "rental_uris": {"android": "https://dc.lft.to/lastmile_qr_scan", "ios": "https://dc.lft.to/lastmile_qr_scan"}, "name": "9a9b5a7522b2d6a6df85a1e067d5adf1", "lat": 38.904112166666664, "is_reserved": 0, "fusion_lon": 0.0, "fusion_lat": 0.0, "is_disabled": 0, "bike_id": "9a9b5a7522b2d6a6df85a1e067d5adf1", "lon": -76.981118}, {"type": "electric_scooter", "rental_uris": {"android": "https://dc.lft.to/lastmile_qr_scan", "ios": "https://dc.lft.to/lastmile_qr_scan"}, "name": "1503ee238bf1cf31b98e1e003c3840d9", "lat": 38.915609833333335, "is_reserved": 0, "fusion_lon": 0.0, "fusion_lat": 0.0, "is_disabled": 0, "bike_id": "1503ee238bf1cf31b98e1e003c3840d9", "lon": -77.03665033333333}, {"type": "electric_scooter", "rental_uris": {"android": "https://dc.lft.to/lastmile_qr_scan", "ios": "https://dc.lft.to/lastmile_qr_scan"}, "name": "1c95a82152fa6ea8004046f8ff4e7a25", "lat": 38.9012915, "is_reserved": 0, "fusion_lon": 0.0, "fusion_lat": 0.0, "is_disabled": 0, "bike_id": "1c95a82152fa6ea8004046f8ff4e7a25", "lon": -77.031652}, {"type": "electric_scooter", "rental_uris": {"android": "https://dc.lft.to/lastmile_qr_scan", "ios": "https://dc.lft.to/lastmile_qr_scan"}, "name": "b4951423908a9233842f116a39153a29", "lat": 38.90027333333333, "is_reserved": 0, "fusion_lon": 0.0, "fusion_lat": 0.0, "is_disabled": 0, "bike_id": "b4951423908a9233842f116a39153a29", "lon": -77.01146866666667}, {"type": "electric_scooter", "rental_uris": {"android": "https://dc.lft.to/lastmile_qr_scan", "ios": "https://dc.lft.to/lastmile_qr_scan"}, "name": "5d6b7b43120e51750b667e58b76a492b", "lat": 38.89976983333333, "is_reserved": 0, "fusion_lon": 0.0, "fusion_lat": 0.0, "is_disabled": 0, "bike_id": "5d6b7b43120e51750b667e58b76a492b", "lon": -77.03085366666667}, {"type": "electric_scooter", "rental_uris": {"android": "https://dc.lft.to/lastmile_qr_scan", "ios": "https://dc.lft.to/lastmile_qr_scan"}, "name": "1ad149cff2ae9e1d2620a0fe69bdf75c", "lat": 38.910069166666666, "is_reserved": 0, "fusion_lon": 0.0, "fusion_lat": 0.0, "is_disabled": 0, "bike_id": "1ad149cff2ae9e1d2620a0fe69bdf75c", "lon": -76.993975}, {"type": "electric_scooter", "rental_uris": {"android": "https://dc.lft.to/lastmile_qr_scan", "ios": "https://dc.lft.to/lastmile_qr_scan"}, "name": "21d729121456236ad2c2a660212215b2", "lat": 38.904996, "is_reserved": 0, "fusion_lon": 0.0, "fusion_lat": 0.0, "is_disabled": 0, "bike_id": "21d729121456236ad2c2a660212215b2", "lon": -77.045026}, {"type": "electric_scooter", "rental_uris": {"android": "https://dc.lft.to/lastmile_qr_scan", "ios": "https://dc.lft.to/lastmile_qr_scan"}, "name": "9267f742c09f577ff64eb3a2f82f40e0", "lat": 38.890496, "is_reserved": 0, "fusion_lon": 0.0, "fusion_lat": 0.0, "is_disabled": 0, "bike_id": "9267f742c09f577ff64eb3a2f82f40e0", "lon": -76.937546}, {"type": "electric_scooter", "rental_uris": {"android": "https://dc.lft.to/lastmile_qr_scan", "ios": "https://dc.lft.to/lastmile_qr_scan"}, "name": "b061be67ae3339e3dc72251f2eca96f9", "lat": 38.911817, "is_reserved": 0, "fusion_lon": 0.0, "fusion_lat": 0.0, "is_disabled": 0, "bike_id": "b061be67ae3339e3dc72251f2eca96f9", "lon": -77.029529}, {"type": "electric_scooter", "rental_uris": {"android": "https://dc.lft.to/lastmile_qr_scan", "ios": "https://dc.lft.to/lastmile_qr_scan"}, "name": "9fcdac67a77caa653d93a7f5ff6b5417", "lat": 38.888378333333335, "is_reserved": 0, "fusion_lon": 0.0, "fusion_lat": 0.0, "is_disabled": 0, "bike_id": "9fcdac67a77caa653d93a7f5ff6b5417", "lon": -76.98691266666667}, {"type": "electric_scooter", "rental_uris": {"android": "https://dc.lft.to/lastmile_qr_scan", "ios": "https://dc.lft.to/lastmile_qr_scan"}, "name": "32bcee4544bc9265ac316c956b8c3ff5", "lat": 38.920265666666666, "is_reserved": 0, "fusion_lon": 0.0, "fusion_lat": 0.0, "is_disabled": 0, "bike_id": "32bcee4544bc9265ac316c956b8c3ff5", "lon": -77.02803633333333}, {"type": "electric_scooter", "rental_uris": {"android": "https://dc.lft.to/lastmile_qr_scan", "ios": "https://dc.lft.to/lastmile_qr_scan"}, "name": "c605511eabc36d8668467a145ad0b125", "lat": 38.898836833333334, "is_reserved": 0, "fusion_lon": 0.0, "fusion_lat": 0.0, "is_disabled": 0, "bike_id": "c605511eabc36d8668467a145ad0b125", "lon": -77.0331495}, {"type": "electric_bike", "rental_uris": {"android": "https://dc.lft.to/lastmile_qr_scan", "ios": "https://dc.lft.to/lastmile_qr_scan"}, "name": "b8602fba584026e986bdc94d25c97ba7", "lat": 38.89885266666667, "is_reserved": 0, "fusion_lon": 0.0, "fusion_lat": 0.0, "is_disabled": 0, "bike_id": "b8602fba584026e986bdc94d25c97ba7", "lon": -76.98568733333333}, {"type": "electric_scooter", "rental_uris": {"android": "https://dc.lft.to/lastmile_qr_scan", "ios": "https://dc.lft.to/lastmile_qr_scan"}, "name": "bd95482755bc69a513c762fa05926f03", "lat": 38.919756666666665, "is_reserved": 0, "fusion_lon": 0.0, "fusion_lat": 0.0, "is_disabled": 0, "bike_id": "bd95482755bc69a513c762fa05926f03", "lon": -77.02185683333333}, {"type": "electric_scooter", "rental_uris": {"android": "https://dc.lft.to/lastmile_qr_scan", "ios": "https://dc.lft.to/lastmile_qr_scan"}, "name": "06d5b76a6e63049d9897c0880f7f84eb", "lat": 38.92664666666667, "is_reserved": 0, "fusion_lon": 0.0, "fusion_lat": 0.0, "is_disabled": 0, "bike_id": "06d5b76a6e63049d9897c0880f7f84eb", "lon": -77.03731983333333}, {"type": "electric_scooter", "rental_uris": {"android": "https://dc.lft.to/lastmile_qr_scan", "ios": "https://dc.lft.to/lastmile_qr_scan"}, "name": "a9e9d5c523e7cb5888f34da8de240073", "lat": 38.91695283333333, "is_reserved": 0, "fusion_lon": 0.0, "fusion_lat": 0.0, "is_disabled": 0, "bike_id": "a9e9d5c523e7cb5888f34da8de240073", "lon": -77.04337183333334}, {"type": "electric_scooter", "rental_uris": {"android": "https://dc.lft.to/lastmile_qr_scan", "ios": "https://dc.lft.to/lastmile_qr_scan"}, "name": "c30434e91d5eb726719ef66c2cdae4b4", "lat": 38.88393033333333, "is_reserved": 0, "fusion_lon": 0.0, "fusion_lat": 0.0, "is_disabled": 0, "bike_id": "c30434e91d5eb726719ef66c2cdae4b4", "lon": -76.98838033333334}, {"type": "electric_scooter", "rental_uris": {"android": "https://dc.lft.to/lastmile_qr_scan", "ios": "https://dc.lft.to/lastmile_qr_scan"}, "name": "3152d4e509bf34282f09923b111d2629", "lat": 38.901395666666666, "is_reserved": 0, "fusion_lon": 0.0, "fusion_lat": 0.0, "is_disabled": 0, "bike_id": "3152d4e509bf34282f09923b111d2629", "lon": -77.031588}, {"type": "electric_scooter", "rental_uris": {"android": "https://dc.lft.to/lastmile_qr_scan", "ios": "https://dc.lft.to/lastmile_qr_scan"}, "name": "053545319b790650d6d02db272ea8ab6", "lat": 38.923671666666664, "is_reserved": 0, "fusion_lon": 0.0, "fusion_lat": 0.0, "is_disabled": 0, "bike_id": "053545319b790650d6d02db272ea8ab6", "lon": -77.05051283333333}, {"type": "electric_scooter", "rental_uris": {"android": "https://dc.lft.to/lastmile_qr_scan", "ios": "https://dc.lft.to/lastmile_qr_scan"}, "name": "9d6af2451b83f900424c7f115769d710", "lat": 38.92138666666666, "is_reserved": 0, "fusion_lon": 0.0, "fusion_lat": 0.0, "is_disabled": 0, "bike_id": "9d6af2451b83f900424c7f115769d710", "lon": -77.01795916666667}, {"type": "electric_scooter", "rental_uris": {"android": "https://dc.lft.to/lastmile_qr_scan", "ios": "https://dc.lft.to/lastmile_qr_scan"}, "name": "73a5fde521addee2f8a10d2f510527a2", "lat": 38.89359866666667, "is_reserved": 0, "fusion_lon": 0.0, "fusion_lat": 0.0, "is_disabled": 0, "bike_id": "73a5fde521addee2f8a10d2f510527a2", "lon": -77.00336533333333}, {"type": "electric_scooter", "rental_uris": {"android": "https://dc.lft.to/lastmile_qr_scan", "ios": "https://dc.lft.to/lastmile_qr_scan"}, "name": "fd5ebe2b0f376106a90b70cb1a8dc16c", "lat": 38.924326666666666, "is_reserved": 0, "fusion_lon": 0.0, "fusion_lat": 0.0, "is_disabled": 0, "bike_id": "fd5ebe2b0f376106a90b70cb1a8dc16c", "lon": -77.05204766666667}, {"type": "electric_scooter", "rental_uris": {"android": "https://dc.lft.to/lastmile_qr_scan", "ios": "https://dc.lft.to/lastmile_qr_scan"}, "name": "acc071a54de8eab0a44cb65aa5a747dc", "lat": 38.92514933333333, "is_reserved": 0, "fusion_lon": 0.0, "fusion_lat": 0.0, "is_disabled": 0, "bike_id": "acc071a54de8eab0a44cb65aa5a747dc", "lon": -77.02359833333334}, {"type": "electric_bike", "rental_uris": {"android": "https://dc.lft.to/lastmile_qr_scan", "ios": "https://dc.lft.to/lastmile_qr_scan"}, "name": "d068e35ed54dbf3e50fbb7427b2dfba1", "lat": 38.886058, "is_reserved": 0, "fusion_lon": 0.0, "fusion_lat": 0.0, "is_disabled": 0, "bike_id": "d068e35ed54dbf3e50fbb7427b2dfba1", "lon": -77.142304}, {"type": "electric_scooter", "rental_uris": {"android": "https://dc.lft.to/lastmile_qr_scan", "ios": "https://dc.lft.to/lastmile_qr_scan"}, "name": "23d021cbcd57b9769c55b31a1286627e", "lat": 38.923443, "is_reserved": 0, "fusion_lon": 0.0, "fusion_lat": 0.0, "is_disabled": 0, "bike_id": "23d021cbcd57b9769c55b31a1286627e", "lon": -77.035515}, {"type": "electric_scooter", "rental_uris": {"android": "https://dc.lft.to/lastmile_qr_scan", "ios": "https://dc.lft.to/lastmile_qr_scan"}, "name": "6b0bf5526b9f063814732718dc7583f2", "lat": 38.88508266666667, "is_reserved": 0, "fusion_lon": 0.0, "fusion_lat": 0.0, "is_disabled": 0, "bike_id": "6b0bf5526b9f063814732718dc7583f2", "lon": -77.01115866666666}, {"type": "electric_scooter", "rental_uris": {"android": "https://dc.lft.to/lastmile_qr_scan", "ios": "https://dc.lft.to/lastmile_qr_scan"}, "name": "5cef265c01df3b225653da5738c0c227", "lat": 38.926039333333335, "is_reserved": 0, "fusion_lon": 0.0, "fusion_lat": 0.0, "is_disabled": 0, "bike_id": "5cef265c01df3b225653da5738c0c227", "lon": -77.02155016666667}, {"type": "electric_scooter", "rental_uris": {"android": "https://dc.lft.to/lastmile_qr_scan", "ios": "https://dc.lft.to/lastmile_qr_scan"}, "name": "1d862a63eb7615d1ee70fe005d1a4cfa", "lat": 38.916658166666664, "is_reserved": 0, "fusion_lon": 0.0, "fusion_lat": 0.0, "is_disabled": 0, "bike_id": "1d862a63eb7615d1ee70fe005d1a4cfa", "lon": -77.03856783333333}, {"type": "electric_scooter", "rental_uris": {"android": "https://dc.lft.to/lastmile_qr_scan", "ios": "https://dc.lft.to/lastmile_qr_scan"}, "name": "77f96a3f3ee396a04da746a7620e79a3", "lat": 38.936842666666664, "is_reserved": 0, "fusion_lon": 0.0, "fusion_lat": 0.0, "is_disabled": 0, "bike_id": "77f96a3f3ee396a04da746a7620e79a3", "lon": -77.059867}, {"type": "electric_scooter", "rental_uris": {"android": "https://dc.lft.to/lastmile_qr_scan", "ios": "https://dc.lft.to/lastmile_qr_scan"}, "name": "fd1a721897945c306ee9cb7f27163371", "lat": 38.901635666666664, "is_reserved": 0, "fusion_lon": 0.0, "fusion_lat": 0.0, "is_disabled": 0, "bike_id": "fd1a721897945c306ee9cb7f27163371", "lon": -77.031814}, {"type": "electric_scooter", "rental_uris": {"android": "https://dc.lft.to/lastmile_qr_scan", "ios": "https://dc.lft.to/lastmile_qr_scan"}, "name": "b037e3b518e7e7b3725a8a96b84b817d", "lat": 38.92973333333333, "is_reserved": 0, "fusion_lon": 0.0, "fusion_lat": 0.0, "is_disabled": 0, "bike_id": "b037e3b518e7e7b3725a8a96b84b817d", "lon": -77.04203}, {"type": "electric_scooter", "rental_uris": {"android": "https://dc.lft.to/lastmile_qr_scan", "ios": "https://dc.lft.to/lastmile_qr_scan"}, "name": "a9a176ec3a2ce05b8521d80611e2b4b4", "lat": 38.915329666666665, "is_reserved": 0, "fusion_lon": 0.0, "fusion_lat": 0.0, "is_disabled": 0, "bike_id": "a9a176ec3a2ce05b8521d80611e2b4b4", "lon": -77.04466283333333}, {"type": "electric_scooter", "rental_uris": {"android": "https://dc.lft.to/lastmile_qr_scan", "ios": "https://dc.lft.to/lastmile_qr_scan"}, "name": "963453b6ddd7a0f45cb18eada6d60247", "lat": 38.90413433333333, "is_reserved": 0, "fusion_lon": 0.0, "fusion_lat": 0.0, "is_disabled": 0, "bike_id": "963453b6ddd7a0f45cb18eada6d60247", "lon": -77.05340883333334}, {"type": "electric_scooter", "rental_uris": {"android": "https://dc.lft.to/lastmile_qr_scan", "ios": "https://dc.lft.to/lastmile_qr_scan"}, "name": "1288f330bb2ed139c5c1821d8925c484", "lat": 38.926438, "is_reserved": 0, "fusion_lon": 0.0, "fusion_lat": 0.0, "is_disabled": 0, "bike_id": "1288f330bb2ed139c5c1821d8925c484", "lon": -77.0250575}, {"type": "electric_scooter", "rental_uris": {"android": "https://dc.lft.to/lastmile_qr_scan", "ios": "https://dc.lft.to/lastmile_qr_scan"}, "name": "22c16f8b291bf4de6c25a166868d182f", "lat": 38.930278, "is_reserved": 0, "fusion_lon": 0.0, "fusion_lat": 0.0, "is_disabled": 0, "bike_id": "22c16f8b291bf4de6c25a166868d182f", "lon": -77.01296583333334}, {"type": "electric_scooter", "rental_uris": {"android": "https://dc.lft.to/lastmile_qr_scan", "ios": "https://dc.lft.to/lastmile_qr_scan"}, "name": "4e40d78cf83563d2aa60c4e87a626639", "lat": 38.900444, "is_reserved": 0, "fusion_lon": 0.0, "fusion_lat": 0.0, "is_disabled": 0, "bike_id": "4e40d78cf83563d2aa60c4e87a626639", "lon": -77.04085183333333}, {"type": "electric_scooter", "rental_uris": {"android": "https://dc.lft.to/lastmile_qr_scan", "ios": "https://dc.lft.to/lastmile_qr_scan"}, "name": "2bb8e894a081efe7aefb29194a05f8bf", "lat": 38.930345, "is_reserved": 0, "fusion_lon": 0.0, "fusion_lat": 0.0, "is_disabled": 0, "bike_id": "2bb8e894a081efe7aefb29194a05f8bf", "lon": -77.02968033333333}, {"type": "electric_scooter", "rental_uris": {"android": "https://dc.lft.to/lastmile_qr_scan", "ios": "https://dc.lft.to/lastmile_qr_scan"}, "name": "0a7b5cd6e4cadba41730b17c1c6e32d3", "lat": 38.9234725, "is_reserved": 0, "fusion_lon": 0.0, "fusion_lat": 0.0, "is_disabled": 0, "bike_id": "0a7b5cd6e4cadba41730b17c1c6e32d3", "lon": -77.03639366666667}, {"type": "electric_scooter", "rental_uris": {"android": "https://dc.lft.to/lastmile_qr_scan", "ios": "https://dc.lft.to/lastmile_qr_scan"}, "name": "e3afac273456e1d2e99a1213962edd6f", "lat": 38.954854166666664, "is_reserved": 0, "fusion_lon": 0.0, "fusion_lat": 0.0, "is_disabled": 0, "bike_id": "e3afac273456e1d2e99a1213962edd6f", "lon": -77.06992533333333}, {"type": "electric_bike", "rental_uris": {"android": "https://dc.lft.to/lastmile_qr_scan", "ios": "https://dc.lft.to/lastmile_qr_scan"}, "name": "ce9b4b9e689cb6fb2aa4a2a69953eb71", "lat": 38.850665, "is_reserved": 0, "fusion_lon": 0.0, "fusion_lat": 0.0, "is_disabled": 0, "bike_id": "ce9b4b9e689cb6fb2aa4a2a69953eb71", "lon": -77.05153516666667}, {"type": "electric_scooter", "rental_uris": {"android": "https://dc.lft.to/lastmile_qr_scan", "ios": "https://dc.lft.to/lastmile_qr_scan"}, "name": "0e60e91e4135954b162e6d6a792a96ff", "lat": 38.92052616666667, "is_reserved": 0, "fusion_lon": 0.0, "fusion_lat": 0.0, "is_disabled": 0, "bike_id": "0e60e91e4135954b162e6d6a792a96ff", "lon": -77.0176965}, {"type": "electric_scooter", "rental_uris": {"android": "https://dc.lft.to/lastmile_qr_scan", "ios": "https://dc.lft.to/lastmile_qr_scan"}, "name": "5ac1534d4b5738dd7cee6abd37fda53e", "lat": 38.92234283333333, "is_reserved": 0, "fusion_lon": 0.0, "fusion_lat": 0.0, "is_disabled": 0, "bike_id": "5ac1534d4b5738dd7cee6abd37fda53e", "lon": -77.03462733333333}, {"type": "electric_scooter", "rental_uris": {"android": "https://dc.lft.to/lastmile_qr_scan", "ios": "https://dc.lft.to/lastmile_qr_scan"}, "name": "d93653a3426a4d36f4808db4df33c3a9", "lat": 38.9417605, "is_reserved": 0, "fusion_lon": 0.0, "fusion_lat": 0.0, "is_disabled": 0, "bike_id": "d93653a3426a4d36f4808db4df33c3a9", "lon": -77.03146966666667}, {"type": "electric_scooter", "rental_uris": {"android": "https://dc.lft.to/lastmile_qr_scan", "ios": "https://dc.lft.to/lastmile_qr_scan"}, "name": "36a316dbe0265425b21bb5a6462f95ac", "lat": 38.9382485, "is_reserved": 0, "fusion_lon": 0.0, "fusion_lat": 0.0, "is_disabled": 0, "bike_id": "36a316dbe0265425b21bb5a6462f95ac", "lon": -77.02406416666666}, {"type": "electric_scooter", "rental_uris": {"android": "https://dc.lft.to/lastmile_qr_scan", "ios": "https://dc.lft.to/lastmile_qr_scan"}, "name": "c47da6cb0e160b22fd3588ae30d8d091", "lat": 38.89906416666667, "is_reserved": 0, "fusion_lon": 0.0, "fusion_lat": 0.0, "is_disabled": 0, "bike_id": "c47da6cb0e160b22fd3588ae30d8d091", "lon": -76.98823766666666}, {"type": "electric_scooter", "rental_uris": {"android": "https://dc.lft.to/lastmile_qr_scan", "ios": "https://dc.lft.to/lastmile_qr_scan"}, "name": "6f1aa5cec3795a7cfef98138599a732b", "lat": 38.900306666666665, "is_reserved": 0, "fusion_lon": 0.0, "fusion_lat": 0.0, "is_disabled": 0, "bike_id": "6f1aa5cec3795a7cfef98138599a732b", "lon": -77.043227}, {"type": "electric_scooter", "rental_uris": {"android": "https://dc.lft.to/lastmile_qr_scan", "ios": "https://dc.lft.to/lastmile_qr_scan"}, "name": "7c8ddbc317c97063a5015685355fc496", "lat": 38.870913, "is_reserved": 0, "fusion_lon": 0.0, "fusion_lat": 0.0, "is_disabled": 0, "bike_id": "7c8ddbc317c97063a5015685355fc496", "lon": -77.01210583333334}, {"type": "electric_scooter", "rental_uris": {"android": "https://dc.lft.to/lastmile_qr_scan", "ios": "https://dc.lft.to/lastmile_qr_scan"}, "name": "f87cb65d42acdea80da09cb3cbab958f", "lat": 38.92387166666666, "is_reserved": 0, "fusion_lon": 0.0, "fusion_lat": 0.0, "is_disabled": 0, "bike_id": "f87cb65d42acdea80da09cb3cbab958f", "lon": -77.02138066666667}, {"type": "electric_bike", "rental_uris": {"android": "https://dc.lft.to/lastmile_qr_scan", "ios": "https://dc.lft.to/lastmile_qr_scan"}, "name": "78d629e44a4316cc1fa940ada6a33952", "lat": 38.97259533333333, "is_reserved": 0, "fusion_lon": 0.0, "fusion_lat": 0.0, "is_disabled": 0, "bike_id": "78d629e44a4316cc1fa940ada6a33952", "lon": -76.99276266666666}, {"type": "electric_scooter", "rental_uris": {"android": "https://dc.lft.to/lastmile_qr_scan", "ios": "https://dc.lft.to/lastmile_qr_scan"}, "name": "d626d3d1ea4e8a5965ad55ac319c468d", "lat": 38.894917, "is_reserved": 0, "fusion_lon": 0.0, "fusion_lat": 0.0, "is_disabled": 0, "bike_id": "d626d3d1ea4e8a5965ad55ac319c468d", "lon": -77.0191205}, {"type": "electric_scooter", "rental_uris": {"android": "https://dc.lft.to/lastmile_qr_scan", "ios": "https://dc.lft.to/lastmile_qr_scan"}, "name": "a8a06014c1b0b24d17ad2d591f51edf9", "lat": 38.920854166666665, "is_reserved": 0, "fusion_lon": 0.0, "fusion_lat": 0.0, "is_disabled": 0, "bike_id": "a8a06014c1b0b24d17ad2d591f51edf9", "lon": -77.02541466666666}, {"type": "electric_scooter", "rental_uris": {"android": "https://dc.lft.to/lastmile_qr_scan", "ios": "https://dc.lft.to/lastmile_qr_scan"}, "name": "086d84e83a9e3afc81bef41da9990d84", "lat": 38.88725066666667, "is_reserved": 0, "fusion_lon": 0.0, "fusion_lat": 0.0, "is_disabled": 0, "bike_id": "086d84e83a9e3afc81bef41da9990d84", "lon": -76.9837785}, {"type": "electric_scooter", "rental_uris": {"android": "https://dc.lft.to/lastmile_qr_scan", "ios": "https://dc.lft.to/lastmile_qr_scan"}, "name": "b5ffb93fa47a727de4a1280510ecba4d", "lat": 38.90094233333333, "is_reserved": 0, "fusion_lon": 0.0, "fusion_lat": 0.0, "is_disabled": 0, "bike_id": "b5ffb93fa47a727de4a1280510ecba4d", "lon": -77.049082}, {"type": "electric_scooter", "rental_uris": {"android": "https://dc.lft.to/lastmile_qr_scan", "ios": "https://dc.lft.to/lastmile_qr_scan"}, "name": "52d89986e62937df03e206a9ef39ed6c", "lat": 38.924418333333335, "is_reserved": 0, "fusion_lon": 0.0, "fusion_lat": 0.0, "is_disabled": 0, "bike_id": "52d89986e62937df03e206a9ef39ed6c", "lon": -77.02150166666667}, {"type": "electric_scooter", "rental_uris": {"android": "https://dc.lft.to/lastmile_qr_scan", "ios": "https://dc.lft.to/lastmile_qr_scan"}, "name": "9a0972bd05eb64b580c33eaadcd32524", "lat": 38.897175833333336, "is_reserved": 0, "fusion_lon": 0.0, "fusion_lat": 0.0, "is_disabled": 0, "bike_id": "9a0972bd05eb64b580c33eaadcd32524", "lon": -77.03136666666667}, {"type": "electric_bike", "rental_uris": {"android": "https://dc.lft.to/lastmile_qr_scan", "ios": "https://dc.lft.to/lastmile_qr_scan"}, "name": "0583ce617b753f4848d6c51a2fa5fb96", "lat": 38.863337, "is_reserved": 0, "fusion_lon": 0.0, "fusion_lat": 0.0, "is_disabled": 0, "bike_id": "0583ce617b753f4848d6c51a2fa5fb96", "lon": -76.98719233333334}, {"type": "electric_scooter", "rental_uris": {"android": "https://dc.lft.to/lastmile_qr_scan", "ios": "https://dc.lft.to/lastmile_qr_scan"}, "name": "1fdf09fe94e8c15e92fcc7a746bec8ae", "lat": 38.8984295, "is_reserved": 0, "fusion_lon": 0.0, "fusion_lat": 0.0, "is_disabled": 0, "bike_id": "1fdf09fe94e8c15e92fcc7a746bec8ae", "lon": -77.0221405}, {"type": "electric_scooter", "rental_uris": {"android": "https://dc.lft.to/lastmile_qr_scan", "ios": "https://dc.lft.to/lastmile_qr_scan"}, "name": "72d4219691fd9d4c57303771685d4b8b", "lat": 38.91555, "is_reserved": 0, "fusion_lon": 0.0, "fusion_lat": 0.0, "is_disabled": 0, "bike_id": "72d4219691fd9d4c57303771685d4b8b", "lon": -77.007146}, {"type": "electric_bike", "rental_uris": {"android": "https://dc.lft.to/lastmile_qr_scan", "ios": "https://dc.lft.to/lastmile_qr_scan"}, "name": "ab18f5ad53b05739c39ea5fb15caa88d", "lat": 38.89050616666667, "is_reserved": 0, "fusion_lon": 0.0, "fusion_lat": 0.0, "is_disabled": 0, "bike_id": "ab18f5ad53b05739c39ea5fb15caa88d", "lon": -77.0141415}, {"type": "electric_scooter", "rental_uris": {"android": "https://dc.lft.to/lastmile_qr_scan", "ios": "https://dc.lft.to/lastmile_qr_scan"}, "name": "f196faa708e25bd9b84e1f2bd3486af6", "lat": 38.900292, "is_reserved": 0, "fusion_lon": 0.0, "fusion_lat": 0.0, "is_disabled": 0, "bike_id": "f196faa708e25bd9b84e1f2bd3486af6", "lon": -77.00220283333333}, {"type": "electric_scooter", "rental_uris": {"android": "https://dc.lft.to/lastmile_qr_scan", "ios": "https://dc.lft.to/lastmile_qr_scan"}, "name": "7c1372777dafbf1258d878f10044dd49", "lat": 38.91675083333333, "is_reserved": 0, "fusion_lon": 0.0, "fusion_lat": 0.0, "is_disabled": 0, "bike_id": "7c1372777dafbf1258d878f10044dd49", "lon": -77.02969766666666}, {"type": "electric_scooter", "rental_uris": {"android": "https://dc.lft.to/lastmile_qr_scan", "ios": "https://dc.lft.to/lastmile_qr_scan"}, "name": "7d408225bc60c46e414d2fed21103e0d", "lat": 38.908868, "is_reserved": 0, "fusion_lon": 0.0, "fusion_lat": 0.0, "is_disabled": 0, "bike_id": "7d408225bc60c46e414d2fed21103e0d", "lon": -77.072672}, {"type": "electric_scooter", "rental_uris": {"android": "https://dc.lft.to/lastmile_qr_scan", "ios": "https://dc.lft.to/lastmile_qr_scan"}, "name": "c84e112b5b0ed43d51e669367cf7df90", "lat": 38.93909466666667, "is_reserved": 0, "fusion_lon": 0.0, "fusion_lat": 0.0, "is_disabled": 0, "bike_id": "c84e112b5b0ed43d51e669367cf7df90", "lon": -77.06033116666667}, {"type": "electric_scooter", "rental_uris": {"android": "https://dc.lft.to/lastmile_qr_scan", "ios": "https://dc.lft.to/lastmile_qr_scan"}, "name": "43a58c1c8d2291082ea10d024d98ba88", "lat": 38.89700883333333, "is_reserved": 0, "fusion_lon": 0.0, "fusion_lat": 0.0, "is_disabled": 0, "bike_id": "43a58c1c8d2291082ea10d024d98ba88", "lon": -77.02719733333333}, {"type": "electric_scooter", "rental_uris": {"android": "https://dc.lft.to/lastmile_qr_scan", "ios": "https://dc.lft.to/lastmile_qr_scan"}, "name": "43932a0a641152e4888f8cfd87706669", "lat": 38.918212, "is_reserved": 0, "fusion_lon": 0.0, "fusion_lat": 0.0, "is_disabled": 0, "bike_id": "43932a0a641152e4888f8cfd87706669", "lon": -77.03444133333333}, {"type": "electric_scooter", "rental_uris": {"android": "https://dc.lft.to/lastmile_qr_scan", "ios": "https://dc.lft.to/lastmile_qr_scan"}, "name": "c10e5e6dea85311525ee260947b02eaf", "lat": 38.927957666666664, "is_reserved": 0, "fusion_lon": 0.0, "fusion_lat": 0.0, "is_disabled": 0, "bike_id": "c10e5e6dea85311525ee260947b02eaf", "lon": -77.03083433333333}, {"type": "electric_scooter", "rental_uris": {"android": "https://dc.lft.to/lastmile_qr_scan", "ios": "https://dc.lft.to/lastmile_qr_scan"}, "name": "c76adb867b65f8b21f91d9c159f24232", "lat": 38.90033233333333, "is_reserved": 0, "fusion_lon": 0.0, "fusion_lat": 0.0, "is_disabled": 0, "bike_id": "c76adb867b65f8b21f91d9c159f24232", "lon": -77.04085066666667}, {"type": "electric_scooter", "rental_uris": {"android": "https://dc.lft.to/lastmile_qr_scan", "ios": "https://dc.lft.to/lastmile_qr_scan"}, "name": "f5323df64ea2e9c6564a208cd2353931", "lat": 38.902358, "is_reserved": 0, "fusion_lon": 0.0, "fusion_lat": 0.0, "is_disabled": 0, "bike_id": "f5323df64ea2e9c6564a208cd2353931", "lon": -77.04637983333333}, {"type": "electric_scooter", "rental_uris": {"android": "https://dc.lft.to/lastmile_qr_scan", "ios": "https://dc.lft.to/lastmile_qr_scan"}, "name": "0e77a82654d2a50c7490b94e3e76832c", "lat": 38.92890283333333, "is_reserved": 0, "fusion_lon": 0.0, "fusion_lat": 0.0, "is_disabled": 0, "bike_id": "0e77a82654d2a50c7490b94e3e76832c", "lon": -77.0327015}, {"type": "electric_scooter", "rental_uris": {"android": "https://dc.lft.to/lastmile_qr_scan", "ios": "https://dc.lft.to/lastmile_qr_scan"}, "name": "251ac7c230ecb64a79e3b9f7e4322186", "lat": 38.928139, "is_reserved": 0, "fusion_lon": 0.0, "fusion_lat": 0.0, "is_disabled": 0, "bike_id": "251ac7c230ecb64a79e3b9f7e4322186", "lon": -77.03365783333334}, {"type": "electric_scooter", "rental_uris": {"android": "https://dc.lft.to/lastmile_qr_scan", "ios": "https://dc.lft.to/lastmile_qr_scan"}, "name": "6acc08f930653a6bb190353c74735bca", "lat": 38.921603166666664, "is_reserved": 0, "fusion_lon": 0.0, "fusion_lat": 0.0, "is_disabled": 0, "bike_id": "6acc08f930653a6bb190353c74735bca", "lon": -77.03380133333333}, {"type": "electric_scooter", "rental_uris": {"android": "https://dc.lft.to/lastmile_qr_scan", "ios": "https://dc.lft.to/lastmile_qr_scan"}, "name": "1bbfd984ebfadc328b566e898ef421e1", "lat": 38.8968105, "is_reserved": 0, "fusion_lon": 0.0, "fusion_lat": 0.0, "is_disabled": 0, "bike_id": "1bbfd984ebfadc328b566e898ef421e1", "lon": -77.04349633333334}, {"type": "electric_scooter", "rental_uris": {"android": "https://dc.lft.to/lastmile_qr_scan", "ios": "https://dc.lft.to/lastmile_qr_scan"}, "name": "23368da5627fb23e36ad9d7eb7975a12", "lat": 38.906992333333335, "is_reserved": 0, "fusion_lon": 0.0, "fusion_lat": 0.0, "is_disabled": 0, "bike_id": "23368da5627fb23e36ad9d7eb7975a12", "lon": -77.02695233333333}, {"type": "electric_scooter", "rental_uris": {"android": "https://dc.lft.to/lastmile_qr_scan", "ios": "https://dc.lft.to/lastmile_qr_scan"}, "name": "3fdc21dc6a5e27e266f1f2b199752ff8", "lat": 38.92601766666667, "is_reserved": 0, "fusion_lon": 0.0, "fusion_lat": 0.0, "is_disabled": 0, "bike_id": "3fdc21dc6a5e27e266f1f2b199752ff8", "lon": -77.0215595}, {"type": "electric_scooter", "rental_uris": {"android": "https://dc.lft.to/lastmile_qr_scan", "ios": "https://dc.lft.to/lastmile_qr_scan"}, "name": "84773faf866954f817fa695a6653be74", "lat": 38.921764333333336, "is_reserved": 0, "fusion_lon": 0.0, "fusion_lat": 0.0, "is_disabled": 0, "bike_id": "84773faf866954f817fa695a6653be74", "lon": -77.01919216666667}, {"type": "electric_scooter", "rental_uris": {"android": "https://dc.lft.to/lastmile_qr_scan", "ios": "https://dc.lft.to/lastmile_qr_scan"}, "name": "149e52ac0683ed4f659d94572d60c447", "lat": 38.9105335, "is_reserved": 0, "fusion_lon": 0.0, "fusion_lat": 0.0, "is_disabled": 0, "bike_id": "149e52ac0683ed4f659d94572d60c447", "lon": -77.043742}, {"type": "electric_scooter", "rental_uris": {"android": "https://dc.lft.to/lastmile_qr_scan", "ios": "https://dc.lft.to/lastmile_qr_scan"}, "name": "edc48409c22c5fe94d002a67c7ac9717", "lat": 38.914156, "is_reserved": 0, "fusion_lon": 0.0, "fusion_lat": 0.0, "is_disabled": 0, "bike_id": "edc48409c22c5fe94d002a67c7ac9717", "lon": -77.022268}, {"type": "electric_scooter", "rental_uris": {"android": "https://dc.lft.to/lastmile_qr_scan", "ios": "https://dc.lft.to/lastmile_qr_scan"}, "name": "86e2501a69a65435371f58f1afb995e4", "lat": 38.9292515, "is_reserved": 0, "fusion_lon": 0.0, "fusion_lat": 0.0, "is_disabled": 0, "bike_id": "86e2501a69a65435371f58f1afb995e4", "lon": -76.9981465}, {"type": "electric_scooter", "rental_uris": {"android": "https://dc.lft.to/lastmile_qr_scan", "ios": "https://dc.lft.to/lastmile_qr_scan"}, "name": "a01d4e74ba55ca2ea3bf31642380f586", "lat": 38.8973025, "is_reserved": 0, "fusion_lon": 0.0, "fusion_lat": 0.0, "is_disabled": 0, "bike_id": "a01d4e74ba55ca2ea3bf31642380f586", "lon": -77.028783}, {"type": "electric_scooter", "rental_uris": {"android": "https://dc.lft.to/lastmile_qr_scan", "ios": "https://dc.lft.to/lastmile_qr_scan"}, "name": "d03aadaf34fa48e49570d0d3a181f17e", "lat": 38.917898, "is_reserved": 0, "fusion_lon": 0.0, "fusion_lat": 0.0, "is_disabled": 0, "bike_id": "d03aadaf34fa48e49570d0d3a181f17e", "lon": -77.04024816666667}, {"type": "electric_scooter", "rental_uris": {"android": "https://dc.lft.to/lastmile_qr_scan", "ios": "https://dc.lft.to/lastmile_qr_scan"}, "name": "32b9cf7336ade4e0d0f2f4a6b680cae6", "lat": 38.9265495, "is_reserved": 0, "fusion_lon": 0.0, "fusion_lat": 0.0, "is_disabled": 0, "bike_id": "32b9cf7336ade4e0d0f2f4a6b680cae6", "lon": -76.99751516666667}, {"type": "electric_scooter", "rental_uris": {"android": "https://dc.lft.to/lastmile_qr_scan", "ios": "https://dc.lft.to/lastmile_qr_scan"}, "name": "e84b843a103ebaf7bf1bb2e80f446e61", "lat": 38.9005835, "is_reserved": 0, "fusion_lon": 0.0, "fusion_lat": 0.0, "is_disabled": 0, "bike_id": "e84b843a103ebaf7bf1bb2e80f446e61", "lon": -77.03349633333333}, {"type": "electric_bike", "rental_uris": {"android": "https://dc.lft.to/lastmile_qr_scan", "ios": "https://dc.lft.to/lastmile_qr_scan"}, "name": "03607a9d78a3aab9e1ccd6a25a526370", "lat": 38.88406616666666, "is_reserved": 0, "fusion_lon": 0.0, "fusion_lat": 0.0, "is_disabled": 0, "bike_id": "03607a9d78a3aab9e1ccd6a25a526370", "lon": -76.96052483333334}, {"type": "electric_scooter", "rental_uris": {"android": "https://dc.lft.to/lastmile_qr_scan", "ios": "https://dc.lft.to/lastmile_qr_scan"}, "name": "8b8b467a44d09f4c8c315680e8dbd379", "lat": 38.91124533333333, "is_reserved": 0, "fusion_lon": 0.0, "fusion_lat": 0.0, "is_disabled": 0, "bike_id": "8b8b467a44d09f4c8c315680e8dbd379", "lon": -77.02199383333334}, {"type": "electric_scooter", "rental_uris": {"android": "https://dc.lft.to/lastmile_qr_scan", "ios": "https://dc.lft.to/lastmile_qr_scan"}, "name": "a71c849d496d0bd5fb17c1d01fa513b8", "lat": 38.900461, "is_reserved": 0, "fusion_lon": 0.0, "fusion_lat": 0.0, "is_disabled": 0, "bike_id": "a71c849d496d0bd5fb17c1d01fa513b8", "lon": -76.98823666666667}, {"type": "electric_scooter", "rental_uris": {"android": "https://dc.lft.to/lastmile_qr_scan", "ios": "https://dc.lft.to/lastmile_qr_scan"}, "name": "5b7379ec559de9b66dd6e8a875fd4132", "lat": 38.925168166666666, "is_reserved": 0, "fusion_lon": 0.0, "fusion_lat": 0.0, "is_disabled": 0, "bike_id": "5b7379ec559de9b66dd6e8a875fd4132", "lon": -77.021421}, {"type": "electric_scooter", "rental_uris": {"android": "https://dc.lft.to/lastmile_qr_scan", "ios": "https://dc.lft.to/lastmile_qr_scan"}, "name": "8607575279df7599e8e00452aaa5ca27", "lat": 38.893466, "is_reserved": 0, "fusion_lon": 0.0, "fusion_lat": 0.0, "is_disabled": 0, "bike_id": "8607575279df7599e8e00452aaa5ca27", "lon": -76.9524445}, {"type": "electric_scooter", "rental_uris": {"android": "https://dc.lft.to/lastmile_qr_scan", "ios": "https://dc.lft.to/lastmile_qr_scan"}, "name": "58138e671aaad4f4c0fa1a53c995ac38", "lat": 38.903054, "is_reserved": 0, "fusion_lon": 0.0, "fusion_lat": 0.0, "is_disabled": 0, "bike_id": "58138e671aaad4f4c0fa1a53c995ac38", "lon": -77.03318733333333}, {"type": "electric_scooter", "rental_uris": {"android": "https://dc.lft.to/lastmile_qr_scan", "ios": "https://dc.lft.to/lastmile_qr_scan"}, "name": "11314a13ca1dc00ed184d964a3ef02bf", "lat": 38.903925, "is_reserved": 0, "fusion_lon": 0.0, "fusion_lat": 0.0, "is_disabled": 0, "bike_id": "11314a13ca1dc00ed184d964a3ef02bf", "lon": -77.0685915}, {"type": "electric_scooter", "rental_uris": {"android": "https://dc.lft.to/lastmile_qr_scan", "ios": "https://dc.lft.to/lastmile_qr_scan"}, "name": "48b8b3144bca7aecba40cdea5ed9ea83", "lat": 38.926112, "is_reserved": 0, "fusion_lon": 0.0, "fusion_lat": 0.0, "is_disabled": 0, "bike_id": "48b8b3144bca7aecba40cdea5ed9ea83", "lon": -77.0215965}, {"type": "electric_scooter", "rental_uris": {"android": "https://dc.lft.to/lastmile_qr_scan", "ios": "https://dc.lft.to/lastmile_qr_scan"}, "name": "bc2b9a31da45bb50c7afb2d255615ee2", "lat": 38.8983775, "is_reserved": 0, "fusion_lon": 0.0, "fusion_lat": 0.0, "is_disabled": 0, "bike_id": "bc2b9a31da45bb50c7afb2d255615ee2", "lon": -77.012508}, {"type": "electric_scooter", "rental_uris": {"android": "https://dc.lft.to/lastmile_qr_scan", "ios": "https://dc.lft.to/lastmile_qr_scan"}, "name": "b659110f82db6f02876eb98289ae1889", "lat": 38.895655, "is_reserved": 0, "fusion_lon": 0.0, "fusion_lat": 0.0, "is_disabled": 0, "bike_id": "b659110f82db6f02876eb98289ae1889", "lon": -77.01115866666666}, {"type": "electric_scooter", "rental_uris": {"android": "https://dc.lft.to/lastmile_qr_scan", "ios": "https://dc.lft.to/lastmile_qr_scan"}, "name": "e0276bb7fe2302b7df767335a61c7439", "lat": 38.919999833333335, "is_reserved": 0, "fusion_lon": 0.0, "fusion_lat": 0.0, "is_disabled": 0, "bike_id": "e0276bb7fe2302b7df767335a61c7439", "lon": -77.0710795}, {"type": "electric_scooter", "rental_uris": {"android": "https://dc.lft.to/lastmile_qr_scan", "ios": "https://dc.lft.to/lastmile_qr_scan"}, "name": "c40f388ebc57f9c1120ca4a9869b2191", "lat": 38.89502533333334, "is_reserved": 0, "fusion_lon": 0.0, "fusion_lat": 0.0, "is_disabled": 0, "bike_id": "c40f388ebc57f9c1120ca4a9869b2191", "lon": -77.04639216666666}, {"type": "electric_scooter", "rental_uris": {"android": "https://dc.lft.to/lastmile_qr_scan", "ios": "https://dc.lft.to/lastmile_qr_scan"},