{"data": {"bikes": [{"lat": 38.90874816666667, "is_disabled": 0, "type": "electric_bike", "lon": -77.00160216666667, "bike_id": "b89ca15f213c1e831e73bd64b1dbff40", "fusion_lat": 0.0, "name": "b89ca15f213c1e831e73bd64b1dbff40", "is_reserved": 0, "rental_uris": {"android": "https://dc.lft.to/lastmile_qr_scan", "ios": "https://dc.lft.to/lastmile_qr_scan"}, "fusion_lon": 0.0}, {"lat": 38.901830333333336, "is_disabled": 0, "type": "electric_scooter", "lon": -77.021738, "bike_id": "c1f0feca2c87198307b59ff3267ca967", "fusion_lat": 0.0, "name": "c1f0feca2c87198307b59ff3267ca967", "is_reserved": 0, "rental_uris": {"android": "https://dc.lft.to/lastmile_qr_scan", "ios": "https://dc.lft.to/lastmile_qr_scan"}, "fusion_lon": 0.0}, {"lat": 38.92061183333333, "is_disabled": 0, "type": "electric_scooter", "lon": -77.04238216666667, "bike_id": "0ad651f9ad50cf2ca276225e953301f3", "fusion_lat": 0.0, "name": "0ad651f9ad50cf2ca276225e953301f3", "is_reserved": 0, "rental_uris": {"android": "https://dc.lft.to/lastmile_qr_scan", "ios": "https://dc.lft.to/lastmile_qr_scan"}, "fusion_lon": 0.0}, {"lat": 38.9169125, "is_disabled": 0, "type": "electric_scooter", "lon": -77.03066166666666, "bike_id": "994488ec38eaf804a581b3eb5cb1f1bd", "fusion_lat": 0.0, "name": "994488ec38eaf804a581b3eb5cb1f1bd", "is_reserved": 0, "rental_uris": {"android": "https://dc.lft.to/lastmile_qr_scan", "ios": "https://dc.lft.to/lastmile_qr_scan"}, "fusion_lon": 0.0}, {"lat": 38.919961, "is_disabled": 0, "type": "electric_scooter", "lon": -77.02393966666666, "bike_id": "83ae091ffb6ad2e4dd6cdb9153c4a587", "fusion_lat": 0.0, "name": "83ae091ffb6ad2e4dd6cdb9153c4a587", "is_reserved": 0, "rental_uris": {"android": "https://dc.lft.to/lastmile_qr_scan", "ios": "https://dc.lft.to/lastmile_qr_scan"}, "fusion_lon": 0.0}, {"lat": 38.944411, "is_disabled": 0, "type": "electric_scooter", "lon": -77.02337616666667, "bike_id": "cce8331b37388eed11be66a32258792e", "fusion_lat": 0.0, "name": "cce8331b37388eed11be66a32258792e", "is_reserved": 0, "rental_uris": {"android": "https://dc.lft.to/lastmile_qr_scan", "ios": "https://dc.lft.to/lastmile_qr_scan"}, "fusion_lon": 0.0}, {"lat": 38.85731366666667, "is_disabled": 0, "type": "electric_scooter", "lon": -76.994301, "bike_id": "9246fcbbc64d2dd44ff80e4f15eafc0c", "fusion_lat": 0.0, "name": "9246fcbbc64d2dd44ff80e4f15eafc0c", "is_reserved": 0, "rental_uris": {"android": "https://dc.lft.to/lastmile_qr_scan", "ios": "https://dc.lft.to/lastmile_qr_scan"}, "fusion_lon": 0.0}, {"lat": 38.90958633333334, "is_disabled": 0, "type": "electric_scooter", "lon": -77.0342475, "bike_id": "66117ff5e7cf9b7e70968518470ec802", "fusion_lat": 0.0, "name": "66117ff5e7cf9b7e70968518470ec802", "is_reserved": 0, "rental_uris": {"android": "https://dc.lft.to/lastmile_qr_scan", "ios": "https://dc.lft.to/lastmile_qr_scan"}, "fusion_lon": 0.0}, {"lat": 38.900127, "is_disabled": 0, "type": "electric_scooter", "lon": -77.01199333333334, "bike_id": "5003760699a70500a7d8f122481ccaa5", "fusion_lat": 0.0, "name": "5003760699a70500a7d8f122481ccaa5", "is_reserved": 0, "rental_uris": {"android": "https://dc.lft.to/lastmile_qr_scan", "ios": "https://dc.lft.to/lastmile_qr_scan"}, "fusion_lon": 0.0}, {"lat": 38.8847, "is_disabled": 0, "type": "electric_scooter", "lon": -77.02397183333333, "bike_id": "0b318dc116557cb3d3e9b131664bdf5a", "fusion_lat": 0.0, "name": "0b318dc116557cb3d3e9b131664bdf5a", "is_reserved": 0, "rental_uris": {"android": "https://dc.lft.to/lastmile_qr_scan", "ios": "https://dc.lft.to/lastmile_qr_scan"}, "fusion_lon": 0.0}, {"lat": 38.9006745, "is_disabled": 0, "type": "electric_scooter", "lon": -77.05064616666667, "bike_id": "fa9d1c17b17107ec04df672ae4ae444a", "fusion_lat": 0.0, "name": "fa9d1c17b17107ec04df672ae4ae444a", "is_reserved": 0, "rental_uris": {"android": "https://dc.lft.to/lastmile_qr_scan", "ios": "https://dc.lft.to/lastmile_qr_scan"}, "fusion_lon": 0.0}, {"lat": 38.865056333333335, "is_disabled": 0, "type": "electric_scooter", "lon": -76.990058, "bike_id": "f00c284970f04ab92c9395cf1a1fa96e", "fusion_lat": 0.0, "name": "f00c284970f04ab92c9395cf1a1fa96e", "is_reserved": 0, "rental_uris": {"android": "https://dc.lft.to/lastmile_qr_scan", "ios": "https://dc.lft.to/lastmile_qr_scan"}, "fusion_lon": 0.0}, {"lat": 38.94918283333333, "is_disabled": 0, "type": "electric_bike", "lon": -77.00792783333333, "bike_id": "f4924746773b59779a06f44197c6dc2b", "fusion_lat": 0.0, "name": "f4924746773b59779a06f44197c6dc2b", "is_reserved": 0, "rental_uris": {"android": "https://dc.lft.to/lastmile_qr_scan", "ios": "https://dc.lft.to/lastmile_qr_scan"}, "fusion_lon": 0.0}, {"lat": 38.92506133333333, "is_disabled": 0, "type": "electric_scooter", "lon": -76.982313, "bike_id": "8943b423f296bdf642bae1809e5173e4", "fusion_lat": 0.0, "name": "8943b423f296bdf642bae1809e5173e4", "is_reserved": 0, "rental_uris": {"android": "https://dc.lft.to/lastmile_qr_scan", "ios": "https://dc.lft.to/lastmile_qr_scan"}, "fusion_lon": 0.0}, {"lat": 38.881152, "is_disabled": 0, "type": "electric_scooter", "lon": -77.01634683333333, "bike_id": "ec7cdc0d80af99a2a9b7cec15bcf2cbf", "fusion_lat": 0.0, "name": "ec7cdc0d80af99a2a9b7cec15bcf2cbf", "is_reserved": 0, "rental_uris": {"android": "https://dc.lft.to/lastmile_qr_scan", "ios": "https://dc.lft.to/lastmile_qr_scan"}, "fusion_lon": 0.0}, {"lat": 38.867137, "is_disabled": 0, "type": "electric_scooter", "lon": -76.98727216666667, "bike_id": "d3f90e455c0168be44fb41352d127cd9", "fusion_lat": 0.0, "name": "d3f90e455c0168be44fb41352d127cd9", "is_reserved": 0, "rental_uris": {"android": "https://dc.lft.to/lastmile_qr_scan", "ios": "https://dc.lft.to/lastmile_qr_scan"}, "fusion_lon": 0.0}, {"lat": 38.905239, "is_disabled": 0, "type": "electric_scooter", "lon": -77.048725, "bike_id": "8ab2f6cf3c82ea7fa2bdf2d4f0a53e0b", "fusion_lat": 0.0, "name": "8ab2f6cf3c82ea7fa2bdf2d4f0a53e0b", "is_reserved": 0, "rental_uris": {"android": "https://dc.lft.to/lastmile_qr_scan", "ios": "https://dc.lft.to/lastmile_qr_scan"}, "fusion_lon": 0.0}, {"lat": 38.907231833333334, "is_disabled": 0, "type": "electric_scooter", "lon": -77.04780533333333, "bike_id": "50c197e7fa9ca00b851094b453fac1ba", "fusion_lat": 0.0, "name": "50c197e7fa9ca00b851094b453fac1ba", "is_reserved": 0, "rental_uris": {"android": "https://dc.lft.to/lastmile_qr_scan", "ios": "https://dc.lft.to/lastmile_qr_scan"}, "fusion_lon": 0.0}, {"lat": 38.911153166666665, "is_disabled": 0, "type": "electric_scooter", "lon": -77.04219933333333, "bike_id": "d331c49ca7c1dcf92de344a492ab2195", "fusion_lat": 0.0, "name": "d331c49ca7c1dcf92de344a492ab2195", "is_reserved": 0, "rental_uris": {"android": "https://dc.lft.to/lastmile_qr_scan", "ios": "https://dc.lft.to/lastmile_qr_scan"}, "fusion_lon": 0.0}, {"lat": 38.94169016666667, "is_disabled": 0, "type": "electric_scooter", "lon": -77.0327455, "bike_id": "3af4c8f8284381b806fc1b8dacc11fa4", "fusion_lat": 0.0, "name": "3af4c8f8284381b806fc1b8dacc11fa4", "is_reserved": 0, "rental_uris": {"android": "https://dc.lft.to/lastmile_qr_scan", "ios": "https://dc.lft.to/lastmile_qr_scan"}, "fusion_lon": 0.0}, {"lat": 38.922465833333334, "is_disabled": 0, "type": "electric_scooter", "lon": -77.03087033333334, "bike_id": "42b360e12cf6d28ed9eb97999bfff0af", "fusion_lat": 0.0, "name": "42b360e12cf6d28ed9eb97999bfff0af", "is_reserved": 0, "rental_uris": {"android": "https://dc.lft.to/lastmile_qr_scan", "ios": "https://dc.lft.to/lastmile_qr_scan"}, "fusion_lon": 0.0}, {"lat": 38.91956033333334, "is_disabled": 0, "type": "electric_scooter", "lon": -77.0489535, "bike_id": "d6f79ad20224e3ed228c0c5bca9bdc06", "fusion_lat": 0.0, "name": "d6f79ad20224e3ed228c0c5bca9bdc06", "is_reserved": 0, "rental_uris": {"android": "https://dc.lft.to/lastmile_qr_scan", "ios": "https://dc.lft.to/lastmile_qr_scan"}, "fusion_lon": 0.0}, {"lat": 38.90117166666667, "is_disabled": 0, "type": "electric_scooter", "lon": -77.03308216666667, "bike_id": "e4d1afb6fda43953ceb2bb942726d6a3", "fusion_lat": 0.0, "name": "e4d1afb6fda43953ceb2bb942726d6a3", "is_reserved": 0, "rental_uris": {"android": "https://dc.lft.to/lastmile_qr_scan", "ios": "https://dc.lft.to/lastmile_qr_scan"}, "fusion_lon": 0.0}, {"lat": 38.8733895, "is_disabled": 0, "type": "electric_scooter", "lon": -76.99164933333333, "bike_id": "88cf21e1cf423727c9f88b36410ca188", "fusion_lat": 0.0, "name": "88cf21e1cf423727c9f88b36410ca188", "is_reserved": 0, "rental_uris": {"android": "https://dc.lft.to/lastmile_qr_scan", "ios": "https://dc.lft.to/lastmile_qr_scan"}, "fusion_lon": 0.0}, {"lat": 38.902332, "is_disabled": 0, "type": "electric_scooter", "lon": -77.025829, "bike_id": "dbb6fcc6f7d8926d85c83c5420596e9c", "fusion_lat": 0.0, "name": "dbb6fcc6f7d8926d85c83c5420596e9c", "is_reserved": 0, "rental_uris": {"android": "https://dc.lft.to/lastmile_qr_scan", "ios": "https://dc.lft.to/lastmile_qr_scan"}, "fusion_lon": 0.0}, {"lat": 38.90039866666667, "is_disabled": 0, "type": "electric_scooter", "lon": -77.04428983333334, "bike_id": "4e7d6e42a6424789fb8eb5813ea742a9", "fusion_lat": 0.0, "name": "4e7d6e42a6424789fb8eb5813ea742a9", "is_reserved": 0, "rental_uris": {"android": "https://dc.lft.to/lastmile_qr_scan", "ios": "https://dc.lft.to/lastmile_qr_scan"}, "fusion_lon": 0.0}, {"lat": 38.876258666666665, "is_disabled": 0, "type": "electric_scooter", "lon": -76.9652215, "bike_id": "ebe8cdd2de6233e2937d719eb0549530", "fusion_lat": 0.0, "name": "ebe8cdd2de6233e2937d719eb0549530", "is_reserved": 0, "rental_uris": {"android": "https://dc.lft.to/lastmile_qr_scan", "ios": "https://dc.lft.to/lastmile_qr_scan"}, "fusion_lon": 0.0}, {"lat": 38.8597175, "is_disabled": 0, "type": "electric_bike", "lon": -77.0567405, "bike_id": "d721bc89dc6bc89fc44d960b1e7d2f98", "fusion_lat": 0.0, "name": "d721bc89dc6bc89fc44d960b1e7d2f98", "is_reserved": 0, "rental_uris": {"android": "https://dc.lft.to/lastmile_qr_scan", "ios": "https://dc.lft.to/lastmile_qr_scan"}, "fusion_lon": 0.0}, {"lat": 38.918113166666664, "is_disabled": 0, "type": "electric_scooter", "lon": -77.013832, "bike_id": "6f9db905c95374020bef7bc0b9f350ef", "fusion_lat": 0.0, "name": "6f9db905c95374020bef7bc0b9f350ef", "is_reserved": 0, "rental_uris": {"android": "https://dc.lft.to/lastmile_qr_scan", "ios": "https://dc.lft.to/lastmile_qr_scan"}, "fusion_lon": 0.0}, {"lat": 38.90630383333333, "is_disabled": 0, "type": "electric_scooter", "lon": -77.0338695, "bike_id": "d53a0acffb890504c97e2225de23bf14", "fusion_lat": 0.0, "name": "d53a0acffb890504c97e2225de23bf14", "is_reserved": 0, "rental_uris": {"android": "https://dc.lft.to/lastmile_qr_scan", "ios": "https://dc.lft.to/lastmile_qr_scan"}, "fusion_lon": 0.0}, {"lat": 38.91121183333333, "is_disabled": 0, "type": "electric_scooter", "lon": -77.03825716666667, "bike_id": "65d55c9caa2ddc1a322d879a4aa56efe", "fusion_lat": 0.0, "name": "65d55c9caa2ddc1a322d879a4aa56efe", "is_reserved": 0, "rental_uris": {"android": "https://dc.lft.to/lastmile_qr_scan", "ios": "https://dc.lft.to/lastmile_qr_scan"}, "fusion_lon": 0.0}, {"lat": 38.91461833333334, "is_disabled": 0, "type": "electric_scooter", "lon": -77.02801933333333, "bike_id": "9ee3dd9e9a3b0225099bc643986b4e5f", "fusion_lat": 0.0, "name": "9ee3dd9e9a3b0225099bc643986b4e5f", "is_reserved": 0, "rental_uris": {"android": "https://dc.lft.to/lastmile_qr_scan", "ios": "https://dc.lft.to/lastmile_qr_scan"}, "fusion_lon": 0.0}, {"lat": 38.94913283333333, "is_disabled": 0, "type": "electric_scooter", "lon": -77.0086235, "bike_id": "c7d0f393e0f309c1d220bc4390946d7d", "fusion_lat": 0.0, "name": "c7d0f393e0f309c1d220bc4390946d7d", "is_reserved": 0, "rental_uris": {"android": "https://dc.lft.to/lastmile_qr_scan", "ios": "https://dc.lft.to/lastmile_qr_scan"}, "fusion_lon": 0.0}, {"lat": 38.9057375, "is_disabled": 0, "type": "electric_scooter", "lon": -77.02970866666666, "bike_id": "4efb188f482b3372d74aa62c8c58b7c0", "fusion_lat": 0.0, "name": "4efb188f482b3372d74aa62c8c58b7c0", "is_reserved": 0, "rental_uris": {"android": "https://dc.lft.to/lastmile_qr_scan", "ios": "https://dc.lft.to/lastmile_qr_scan"}, "fusion_lon": 0.0}, {"lat": 38.934374, "is_disabled": 0, "type": "electric_scooter", "lon": -77.0344455, "bike_id": "ffa236feba9472d7cb2798a29daeeee8", "fusion_lat": 0.0, "name": "ffa236feba9472d7cb2798a29daeeee8", "is_reserved": 0, "rental_uris": {"android": "https://dc.lft.to/lastmile_qr_scan", "ios": "https://dc.lft.to/lastmile_qr_scan"}, "fusion_lon": 0.0}, {"lat": 38.8122755, "is_disabled": 0, "type": "electric_bike", "lon": -77.10423683333333, "bike_id": "09d7a82d2e9a89e2c0cb161daf8e5b92", "fusion_lat": 0.0, "name": "09d7a82d2e9a89e2c0cb161daf8e5b92", "is_reserved": 0, "rental_uris": {"android": "https://dc.lft.to/lastmile_qr_scan", "ios": "https://dc.lft.to/lastmile_qr_scan"}, "fusion_lon": 0.0}, {"lat": 38.960196833333335, "is_disabled": 0, "type": "electric_bike", "lon": -77.017272, "bike_id": "70d98ac5b1c4a7ff020a0c15ca56429d", "fusion_lat": 0.0, "name": "70d98ac5b1c4a7ff020a0c15ca56429d", "is_reserved": 0, "rental_uris": {"android": "https://dc.lft.to/lastmile_qr_scan", "ios": "https://dc.lft.to/lastmile_qr_scan"}, "fusion_lon": 0.0}, {"lat": 38.88466783333333, "is_disabled": 0, "type": "electric_scooter", "lon": -76.992603, "bike_id": "ed8d25dd5e107f69d281c7ffac230a23", "fusion_lat": 0.0, "name": "ed8d25dd5e107f69d281c7ffac230a23", "is_reserved": 0, "rental_uris": {"android": "https://dc.lft.to/lastmile_qr_scan", "ios": "https://dc.lft.to/lastmile_qr_scan"}, "fusion_lon": 0.0}, {"lat": 38.9031395, "is_disabled": 0, "type": "electric_scooter", "lon": -76.99359716666666, "bike_id": "c519c4371c63964c47105a6323405b18", "fusion_lat": 0.0, "name": "c519c4371c63964c47105a6323405b18", "is_reserved": 0, "rental_uris": {"android": "https://dc.lft.to/lastmile_qr_scan", "ios": "https://dc.lft.to/lastmile_qr_scan"}, "fusion_lon": 0.0}, {"lat": 38.88491483333333, "is_disabled": 0, "type": "electric_scooter", "lon": -77.00711933333334, "bike_id": "2100cdc18347b1a717b07aee0985f4b7", "fusion_lat": 0.0, "name": "2100cdc18347b1a717b07aee0985f4b7", "is_reserved": 0, "rental_uris": {"android": "https://dc.lft.to/lastmile_qr_scan", "ios": "https://dc.lft.to/lastmile_qr_scan"}, "fusion_lon": 0.0}, {"lat": 38.921513833333336, "is_disabled": 0, "type": "electric_scooter", "lon": -77.03508333333333, "bike_id": "26a7eab6bbb6b88b3839b2e830f3aea8", "fusion_lat": 0.0, "name": "26a7eab6bbb6b88b3839b2e830f3aea8", "is_reserved": 0, "rental_uris": {"android": "https://dc.lft.to/lastmile_qr_scan", "ios": "https://dc.lft.to/lastmile_qr_scan"}, "fusion_lon": 0.0}, {"lat": 39.0293535, "is_disabled": 0, "type": "electric_bike", "lon": -77.049266, "bike_id": "6a0a7d6c1002383e8042f94ae013016c", "fusion_lat": 0.0, "name": "6a0a7d6c1002383e8042f94ae013016c", "is_reserved": 0, "rental_uris": {"android": "https://dc.lft.to/lastmile_qr_scan", "ios": "https://dc.lft.to/lastmile_qr_scan"}, "fusion_lon": 0.0}, {"lat": 38.95330833333333, "is_disabled": 0, "type": "electric_scooter", "lon": -77.02754583333333, "bike_id": "94a3d4bf32b47908c4e9369de813d287", "fusion_lat": 0.0, "name": "94a3d4bf32b47908c4e9369de813d287", "is_reserved": 0, "rental_uris": {"android": "https://dc.lft.to/lastmile_qr_scan", "ios": "https://dc.lft.to/lastmile_qr_scan"}, "fusion_lon": 0.0}, {"lat": 38.87295433333333, "is_disabled": 0, "type": "electric_scooter", "lon": -77.009299, "bike_id": "b50d4c270a1d6f94037f8e7ff5f8f581", "fusion_lat": 0.0, "name": "b50d4c270a1d6f94037f8e7ff5f8f581", "is_reserved": 0, "rental_uris": {"android": "https://dc.lft.to/lastmile_qr_scan", "ios": "https://dc.lft.to/lastmile_qr_scan"}, "fusion_lon": 0.0}, {"lat": 38.93522766666667, "is_disabled": 0, "type": "electric_bike", "lon": -77.056929, "bike_id": "375dac526025b491854d081d26f5878d", "fusion_lat": 0.0, "name": "375dac526025b491854d081d26f5878d", "is_reserved": 0, "rental_uris": {"android": "https://dc.lft.to/lastmile_qr_scan", "ios": "https://dc.lft.to/lastmile_qr_scan"}, "fusion_lon": 0.0}, {"lat": 38.90050016666667, "is_disabled": 0, "type": "electric_scooter", "lon": -77.00205516666666, "bike_id": "88408479137a0c524c40cdd86928fee6", "fusion_lat": 0.0, "name": "88408479137a0c524c40cdd86928fee6", "is_reserved": 0, "rental_uris": {"android": "https://dc.lft.to/lastmile_qr_scan", "ios": "https://dc.lft.to/lastmile_qr_scan"}, "fusion_lon": 0.0}, {"lat": 38.895613166666664, "is_disabled": 0, "type": "electric_bike", "lon": -77.12730316666666, "bike_id": "1512cea9ab796545e21597dc372f0365", "fusion_lat": 0.0, "name": "1512cea9ab796545e21597dc372f0365", "is_reserved": 0, "rental_uris": {"android": "https://dc.lft.to/lastmile_qr_scan", "ios": "https://dc.lft.to/lastmile_qr_scan"}, "fusion_lon": 0.0}, {"lat": 38.903628833333336, "is_disabled": 0, "type": "electric_scooter", "lon": -77.038358, "bike_id": "bf432a0746b69bbcad48eb6fbd0f34ec", "fusion_lat": 0.0, "name": "bf432a0746b69bbcad48eb6fbd0f34ec", "is_reserved": 0, "rental_uris": {"android": "https://dc.lft.to/lastmile_qr_scan", "ios": "https://dc.lft.to/lastmile_qr_scan"}, "fusion_lon": 0.0}, {"lat": 38.904519, "is_disabled": 0, "type": "electric_scooter", "lon": -76.994597, "bike_id": "8157538e8b53e693650a1b3f5e8d8e4e", "fusion_lat": 0.0, "name": "8157538e8b53e693650a1b3f5e8d8e4e", "is_reserved": 0, "rental_uris": {"android": "https://dc.lft.to/lastmile_qr_scan", "ios": "https://dc.lft.to/lastmile_qr_scan"}, "fusion_lon": 0.0}, {"lat": 38.91887766666667, "is_disabled": 0, "type": "electric_scooter", "lon": -77.03909516666667, "bike_id": "50a75361d01f51e7b49e164b57294342", "fusion_lat": 0.0, "name": "50a75361d01f51e7b49e164b57294342", "is_reserved": 0, "rental_uris": {"android": "https://dc.lft.to/lastmile_qr_scan", "ios": "https://dc.lft.to/lastmile_qr_scan"}, "fusion_lon": 0.0}, {"lat": 38.912923666666664, "is_disabled": 0, "type": "electric_scooter", "lon": -77.02386983333334, "bike_id": "6a54df790284407c47f64421062c13b5", "fusion_lat": 0.0, "name": "6a54df790284407c47f64421062c13b5", "is_reserved": 0, "rental_uris": {"android": "https://dc.lft.to/lastmile_qr_scan", "ios": "https://dc.lft.to/lastmile_qr_scan"}, "fusion_lon": 0.0}, {"lat": 38.90420133333333, "is_disabled": 0, "type": "electric_scooter", "lon": -77.06890716666666, "bike_id": "529fc9988648905c5ad362b4bc5e42ec", "fusion_lat": 0.0, "name": "529fc9988648905c5ad362b4bc5e42ec", "is_reserved": 0, "rental_uris": {"android": "https://dc.lft.to/lastmile_qr_scan", "ios": "https://dc.lft.to/lastmile_qr_scan"}, "fusion_lon": 0.0}, {"lat": 38.93004416666667, "is_disabled": 0, "type": "electric_scooter", "lon": -77.021107, "bike_id": "36215e3f02bf4fee4c1d0b1c8b7acf77", "fusion_lat": 0.0, "name": "36215e3f02bf4fee4c1d0b1c8b7acf77", "is_reserved": 0, "rental_uris": {"android": "https://dc.lft.to/lastmile_qr_scan", "ios": "https://dc.lft.to/lastmile_qr_scan"}, "fusion_lon": 0.0}, {"lat": 38.89659483333333, "is_disabled": 0, "type": "electric_scooter", "lon": -77.0397565, "bike_id": "716fed04d99c8b7c061787a74726b106", "fusion_lat": 0.0, "name": "716fed04d99c8b7c061787a74726b106", "is_reserved": 0, "rental_uris": {"android": "https://dc.lft.to/lastmile_qr_scan", "ios": "https://dc.lft.to/lastmile_qr_scan"}, "fusion_lon": 0.0}, {"lat": 38.905619333333334, "is_disabled": 0, "type": "electric_scooter", "lon": -77.00908783333334, "bike_id": "e7483aecd999e79b8eb29b67a52a9c47", "fusion_lat": 0.0, "name": "e7483aecd999e79b8eb29b67a52a9c47", "is_reserved": 0, "rental_uris": {"android": "https://dc.lft.to/lastmile_qr_scan", "ios": "https://dc.lft.to/lastmile_qr_scan"}, "fusion_lon": 0.0}, {"lat": 38.9080845, "is_disabled": 0, "type": "electric_scooter", "lon": -77.0433485, "bike_id": "98b836867199fb7bfb79175e69c80c99", "fusion_lat": 0.0, "name": "98b836867199fb7bfb79175e69c80c99", "is_reserved": 0, "rental_uris": {"android": "https://dc.lft.to/lastmile_qr_scan", "ios": "https://dc.lft.to/lastmile_qr_scan"}, "fusion_lon": 0.0}, {"lat": 38.920475833333334, "is_disabled": 0, "type": "electric_scooter", "lon": -77.03473583333333, "bike_id": "ad63a44fc94c5d260ac5c8ae5d912253", "fusion_lat": 0.0, "name": "ad63a44fc94c5d260ac5c8ae5d912253", "is_reserved": 0, "rental_uris": {"android": "https://dc.lft.to/lastmile_qr_scan", "ios": "https://dc.lft.to/lastmile_qr_scan"}, "fusion_lon": 0.0}, {"lat": 38.936964333333336, "is_disabled": 0, "type": "electric_bike", "lon": -77.02978416666667, "bike_id": "0c4814203860765f3046e40ad38608f1", "fusion_lat": 0.0, "name": "0c4814203860765f3046e40ad38608f1", "is_reserved": 0, "rental_uris": {"android": "https://dc.lft.to/lastmile_qr_scan", "ios": "https://dc.lft.to/lastmile_qr_scan"}, "fusion_lon": 0.0}, {"lat": 38.91685716666667, "is_disabled": 0, "type": "electric_scooter", "lon": -77.029501, "bike_id": "b67505421c7a5d7531b417d98b872d7d", "fusion_lat": 0.0, "name": "b67505421c7a5d7531b417d98b872d7d", "is_reserved": 0, "rental_uris": {"android": "https://dc.lft.to/lastmile_qr_scan", "ios": "https://dc.lft.to/lastmile_qr_scan"}, "fusion_lon": 0.0}, {"lat": 38.89485633333334, "is_disabled": 0, "type": "electric_scooter", "lon": -77.01104533333333, "bike_id": "f60fff24addcd97f51eb7f9f12b2990d", "fusion_lat": 0.0, "name": "f60fff24addcd97f51eb7f9f12b2990d", "is_reserved": 0, "rental_uris": {"android": "https://dc.lft.to/lastmile_qr_scan", "ios": "https://dc.lft.to/lastmile_qr_scan"}, "fusion_lon": 0.0}, {"lat": 38.9238605, "is_disabled": 0, "type": "electric_scooter", "lon": -77.03651783333333, "bike_id": "f60eb02f98afff8fcf4ec1052ef469e0", "fusion_lat": 0.0, "name": "f60eb02f98afff8fcf4ec1052ef469e0", "is_reserved": 0, "rental_uris": {"android": "https://dc.lft.to/lastmile_qr_scan", "ios": "https://dc.lft.to/lastmile_qr_scan"}, "fusion_lon": 0.0}, {"lat": 38.918681666666664, "is_disabled": 0, "type": "electric_scooter", "lon": -77.04029616666666, "bike_id": "d0faed4cd16e7f7da8ea7d48c9595661", "fusion_lat": 0.0, "name": "d0faed4cd16e7f7da8ea7d48c9595661", "is_reserved": 0, "rental_uris": {"android": "https://dc.lft.to/lastmile_qr_scan", "ios": "https://dc.lft.to/lastmile_qr_scan"}, "fusion_lon": 0.0}, {"lat": 38.91746166666667, "is_disabled": 0, "type": "electric_scooter", "lon": -77.03653616666666, "bike_id": "67afbfab93310f6e0ddc8b31a5a67a16", "fusion_lat": 0.0, "name": "67afbfab93310f6e0ddc8b31a5a67a16", "is_reserved": 0, "rental_uris": {"android": "https://dc.lft.to/lastmile_qr_scan", "ios": "https://dc.lft.to/lastmile_qr_scan"}, "fusion_lon": 0.0}, {"lat": 38.91536516666667, "is_disabled": 0, "type": "electric_scooter", "lon": -77.0382945, "bike_id": "c8e1aecdf2a4538334ce3cde53cac034", "fusion_lat": 0.0, "name": "c8e1aecdf2a4538334ce3cde53cac034", "is_reserved": 0, "rental_uris": {"android": "https://dc.lft.to/lastmile_qr_scan", "ios": "https://dc.lft.to/lastmile_qr_scan"}, "fusion_lon": 0.0}, {"lat": 38.90795883333333, "is_disabled": 0, "type": "electric_scooter", "lon": -76.99696183333333, "bike_id": "dd85b8551ef0221bde7ab2b83fb5ec88", "fusion_lat": 0.0, "name": "dd85b8551ef0221bde7ab2b83fb5ec88", "is_reserved": 0, "rental_uris": {"android": "https://dc.lft.to/lastmile_qr_scan", "ios": "https://dc.lft.to/lastmile_qr_scan"}, "fusion_lon": 0.0}, {"lat": 38.919942, "is_disabled": 0, "type": "electric_scooter", "lon": -77.03973, "bike_id": "02e458ba65886bcfe5f310b0acfe541c", "fusion_lat": 0.0, "name": "02e458ba65886bcfe5f310b0acfe541c", "is_reserved": 0, "rental_uris": {"android": "https://dc.lft.to/lastmile_qr_scan", "ios": "https://dc.lft.to/lastmile_qr_scan"}, "fusion_lon": 0.0}, {"lat": 38.90012016666667, "is_disabled": 0, "type": "electric_scooter", "lon": -77.0119855, "bike_id": "04371361b8bbe6c215b63562bd96edbe", "fusion_lat": 0.0, "name": "04371361b8bbe6c215b63562bd96edbe", "is_reserved": 0, "rental_uris": {"android": "https://dc.lft.to/lastmile_qr_scan", "ios": "https://dc.lft.to/lastmile_qr_scan"}, "fusion_lon": 0.0}, {"lat": 38.877306, "is_disabled": 0, "type": "electric_bike", "lon": -76.98104883333333, "bike_id": "f704f17f7c988a43ab0b5b1c1d6b60e5", "fusion_lat": 0.0, "name": "f704f17f7c988a43ab0b5b1c1d6b60e5", "is_reserved": 0, "rental_uris": {"android": "https://dc.lft.to/lastmile_qr_scan", "ios": "https://dc.lft.to/lastmile_qr_scan"}, "fusion_lon": 0.0}, {"lat": 38.89736383333333, "is_disabled": 0, "type": "electric_scooter", "lon": -77.000721, "bike_id": "7798be1eaece3947357c4368d6ab9857", "fusion_lat": 0.0, "name": "7798be1eaece3947357c4368d6ab9857", "is_reserved": 0, "rental_uris": {"android": "https://dc.lft.to/lastmile_qr_scan", "ios": "https://dc.lft.to/lastmile_qr_scan"}, "fusion_lon": 0.0}, {"lat": 38.93312816666667, "is_disabled": 0, "type": "electric_scooter", "lon": -77.04527316666666, "bike_id": "c3ec7c4394655ebe9013d3ca98214a12", "fusion_lat": 0.0, "name": "c3ec7c4394655ebe9013d3ca98214a12", "is_reserved": 0, "rental_uris": {"android": "https://dc.lft.to/lastmile_qr_scan", "ios": "https://dc.lft.to/lastmile_qr_scan"}, "fusion_lon": 0.0}, {"lat": 38.832306333333335, "is_disabled": 0, "type": "electric_bike", "lon": -77.04970816666666, "bike_id": "fe0b8d101291674c062b3caedf0baaa5", "fusion_lat": 0.0, "name": "fe0b8d101291674c062b3caedf0baaa5", "is_reserved": 0, "rental_uris": {"android": "https://dc.lft.to/lastmile_qr_scan", "ios": "https://dc.lft.to/lastmile_qr_scan"}, "fusion_lon": 0.0}, {"lat": 38.90971783333333, "is_disabled": 0, "type": "electric_scooter", "lon": -77.039459, "bike_id": "eae3e00ac7c81c65e911c9b686f21912", "fusion_lat": 0.0, "name": "eae3e00ac7c81c65e911c9b686f21912", "is_reserved": 0, "rental_uris": {"android": "https://dc.lft.to/lastmile_qr_scan", "ios": "https://dc.lft.to/lastmile_qr_scan"}, "fusion_lon": 0.0}, {"lat": 38.87287716666667, "is_disabled": 0, "type": "electric_scooter", "lon": -77.00985166666666, "bike_id": "dca8f02891de2cf43276047090b1ff6f", "fusion_lat": 0.0, "name": "dca8f02891de2cf43276047090b1ff6f", "is_reserved": 0, "rental_uris": {"android": "https://dc.lft.to/lastmile_qr_scan", "ios": "https://dc.lft.to/lastmile_qr_scan"}, "fusion_lon": 0.0}, {"lat": 38.878567833333335, "is_disabled": 0, "type": "electric_scooter", "lon": -77.00713133333333, "bike_id": "05b04de06b208332d4f4243b5e4cfa63", "fusion_lat": 0.0, "name": "05b04de06b208332d4f4243b5e4cfa63", "is_reserved": 0, "rental_uris": {"android": "https://dc.lft.to/lastmile_qr_scan", "ios": "https://dc.lft.to/lastmile_qr_scan"}, "fusion_lon": 0.0}, {"lat": 38.89884, "is_disabled": 0, "type": "electric_scooter", "lon": -77.02045766666667, "bike_id": "04bee4fcbc21036216c123bf81595ef0", "fusion_lat": 0.0, "name": "04bee4fcbc21036216c123bf81595ef0", "is_reserved": 0, "rental_uris": {"android": "https://dc.lft.to/lastmile_qr_scan", "ios": "https://dc.lft.to/lastmile_qr_scan"}, "fusion_lon": 0.0}, {"lat": 38.91673616666667, "is_disabled": 0, "type": "electric_scooter", "lon": -77.02413483333333, "bike_id": "a7d94ef4cc6d017882dfd20c89c8debc", "fusion_lat": 0.0, "name": "a7d94ef4cc6d017882dfd20c89c8debc", "is_reserved": 0, "rental_uris": {"android": "https://dc.lft.to/lastmile_qr_scan", "ios": "https://dc.lft.to/lastmile_qr_scan"}, "fusion_lon": 0.0}, {"lat": 38.92060683333333, "is_disabled": 0, "type": "electric_scooter", "lon": -77.04805166666667, "bike_id": "b571440233f9ddf697089dd78cc86e43", "fusion_lat": 0.0, "name": "b571440233f9ddf697089dd78cc86e43", "is_reserved": 0, "rental_uris": {"android": "https://dc.lft.to/lastmile_qr_scan", "ios": "https://dc.lft.to/lastmile_qr_scan"}, "fusion_lon": 0.0}, {"lat": 38.86676383333333, "is_disabled": 0, "type": "electric_scooter", "lon": -76.9854005, "bike_id": "8c1fbc8cc90e50e15b163fcc60c4d233", "fusion_lat": 0.0, "name": "8c1fbc8cc90e50e15b163fcc60c4d233", "is_reserved": 0, "rental_uris": {"android": "https://dc.lft.to/lastmile_qr_scan", "ios": "https://dc.lft.to/lastmile_qr_scan"}, "fusion_lon": 0.0}, {"lat": 38.917556, "is_disabled": 0, "type": "electric_scooter", "lon": -77.0280705, "bike_id": "6f3a781cce224fb6d9279fbcd0da6a89", "fusion_lat": 0.0, "name": "6f3a781cce224fb6d9279fbcd0da6a89", "is_reserved": 0, "rental_uris": {"android": "https://dc.lft.to/lastmile_qr_scan", "ios": "https://dc.lft.to/lastmile_qr_scan"}, "fusion_lon": 0.0}, {"lat": 38.9259335, "is_disabled": 0, "type": "electric_scooter", "lon": -77.02495933333333, "bike_id": "ca647476cf41dc12a3ebbd52310fac17", "fusion_lat": 0.0, "name": "ca647476cf41dc12a3ebbd52310fac17", "is_reserved": 0, "rental_uris": {"android": "https://dc.lft.to/lastmile_qr_scan", "ios": "https://dc.lft.to/lastmile_qr_scan"}, "fusion_lon": 0.0}, {"lat": 38.874639333333334, "is_disabled": 0, "type": "electric_scooter", "lon": -77.0051715, "bike_id": "36112c2ac13bd23ebdb31ae9aead1dd7", "fusion_lat": 0.0, "name": "36112c2ac13bd23ebdb31ae9aead1dd7", "is_reserved": 0, "rental_uris": {"android": "https://dc.lft.to/lastmile_qr_scan", "ios": "https://dc.lft.to/lastmile_qr_scan"}, "fusion_lon": 0.0}, {"lat": 38.8964085, "is_disabled": 0, "type": "electric_scooter", "lon": -77.04505866666666, "bike_id": "ce3bc441a414e19b348f02b996de66d9", "fusion_lat": 0.0, "name": "ce3bc441a414e19b348f02b996de66d9", "is_reserved": 0, "rental_uris": {"android": "https://dc.lft.to/lastmile_qr_scan", "ios": "https://dc.lft.to/lastmile_qr_scan"}, "fusion_lon": 0.0}, {"lat": 38.960686333333335, "is_disabled": 0, "type": "electric_scooter", "lon": -77.07299283333333, "bike_id": "41d507c6fa0ff5594fd1776b11f7118a", "fusion_lat": 0.0, "name": "41d507c6fa0ff5594fd1776b11f7118a", "is_reserved": 0, "rental_uris": {"android": "https://dc.lft.to/lastmile_qr_scan", "ios": "https://dc.lft.to/lastmile_qr_scan"}, "fusion_lon": 0.0}, {"lat": 38.91339683333333, "is_disabled": 0, "type": "electric_scooter", "lon": -77.04281133333333, "bike_id": "7218f0c0d29bdc8bd5337c72dbc1a672", "fusion_lat": 0.0, "name": "7218f0c0d29bdc8bd5337c72dbc1a672", "is_reserved": 0, "rental_uris": {"android": "https://dc.lft.to/lastmile_qr_scan", "ios": "https://dc.lft.to/lastmile_qr_scan"}, "fusion_lon": 0.0}, {"lat": 38.914802, "is_disabled": 0, "type": "electric_scooter", "lon": -77.03232266666667, "bike_id": "94d1a1853380c30495649704c885b168", "fusion_lat": 0.0, "name": "94d1a1853380c30495649704c885b168", "is_reserved": 0, "rental_uris": {"android": "https://dc.lft.to/lastmile_qr_scan", "ios": "https://dc.lft.to/lastmile_qr_scan"}, "fusion_lon": 0.0}, {"lat": 38.89229866666667, "is_disabled": 0, "type": "electric_scooter", "lon": -77.05004716666667, "bike_id": "3b339cb8bf7d92b5893776b1962484ce", "fusion_lat": 0.0, "name": "3b339cb8bf7d92b5893776b1962484ce", "is_reserved": 0, "rental_uris": {"android": "https://dc.lft.to/lastmile_qr_scan", "ios": "https://dc.lft.to/lastmile_qr_scan"}, "fusion_lon": 0.0}, {"lat": 38.91879466666666, "is_disabled": 0, "type": "electric_scooter", "lon": -77.0350405, "bike_id": "75c91580ae918698630755df55e2fb1a", "fusion_lat": 0.0, "name": "75c91580ae918698630755df55e2fb1a", "is_reserved": 0, "rental_uris": {"android": "https://dc.lft.to/lastmile_qr_scan", "ios": "https://dc.lft.to/lastmile_qr_scan"}, "fusion_lon": 0.0}, {"lat": 38.89553166666666, "is_disabled": 0, "type": "electric_scooter", "lon": -76.93369566666667, "bike_id": "d35a7a8756c204986aceb20e6ff2f1e0", "fusion_lat": 0.0, "name": "d35a7a8756c204986aceb20e6ff2f1e0", "is_reserved": 0, "rental_uris": {"android": "https://dc.lft.to/lastmile_qr_scan", "ios": "https://dc.lft.to/lastmile_qr_scan"}, "fusion_lon": 0.0}, {"lat": 38.92660466666667, "is_disabled": 0, "type": "electric_scooter", "lon": -77.0559645, "bike_id": "f2c9e6472b1bf26839ac240b98cba0fa", "fusion_lat": 0.0, "name": "f2c9e6472b1bf26839ac240b98cba0fa", "is_reserved": 0, "rental_uris": {"android": "https://dc.lft.to/lastmile_qr_scan", "ios": "https://dc.lft.to/lastmile_qr_scan"}, "fusion_lon": 0.0}, {"lat": 38.93534233333333, "is_disabled": 0, "type": "electric_scooter", "lon": -77.023507, "bike_id": "e62716a429f02a537056edd8b52086ac", "fusion_lat": 0.0, "name": "e62716a429f02a537056edd8b52086ac", "is_reserved": 0, "rental_uris": {"android": "https://dc.lft.to/lastmile_qr_scan", "ios": "https://dc.lft.to/lastmile_qr_scan"}, "fusion_lon": 0.0}, {"lat": 38.92853916666667, "is_disabled": 0, "type": "electric_scooter", "lon": -77.02997666666667, "bike_id": "952cff7747d8b674d57b2086ac9af522", "fusion_lat": 0.0, "name": "952cff7747d8b674d57b2086ac9af522", "is_reserved": 0, "rental_uris": {"android": "https://dc.lft.to/lastmile_qr_scan", "ios": "https://dc.lft.to/lastmile_qr_scan"}, "fusion_lon": 0.0}, {"lat": 38.9036425, "is_disabled": 0, "type": "electric_scooter", "lon": -76.97655266666666, "bike_id": "9a1829cd43dd530d59d3ec066c524aad", "fusion_lat": 0.0, "name": "9a1829cd43dd530d59d3ec066c524aad", "is_reserved": 0, "rental_uris": {"android": "https://dc.lft.to/lastmile_qr_scan", "ios": "https://dc.lft.to/lastmile_qr_scan"}, "fusion_lon": 0.0}, {"lat": 38.907772333333334, "is_disabled": 0, "type": "electric_scooter", "lon": -77.0385675, "bike_id": "a5b1c1f8146f212e86e5a92f2d86f54b", "fusion_lat": 0.0, "name": "a5b1c1f8146f212e86e5a92f2d86f54b", "is_reserved": 0, "rental_uris": {"android": "https://dc.lft.to/lastmile_qr_scan", "ios": "https://dc.lft.to/lastmile_qr_scan"}, "fusion_lon": 0.0}, {"lat": 38.868879166666666, "is_disabled": 0, "type": "electric_scooter", "lon": -76.983105, "bike_id": "e20d06d607dcae557fd3c28522503d96", "fusion_lat": 0.0, "name": "e20d06d607dcae557fd3c28522503d96", "is_reserved": 0, "rental_uris": {"android": "https://dc.lft.to/lastmile_qr_scan", "ios": "https://dc.lft.to/lastmile_qr_scan"}, "fusion_lon": 0.0}, {"lat": 38.882626333333334, "is_disabled": 0, "type": "electric_scooter", "lon": -77.00434783333333, "bike_id": "a058703a3a5c485b10b9f068c4551d9d", "fusion_lat": 0.0, "name": "a058703a3a5c485b10b9f068c4551d9d", "is_reserved": 0, "rental_uris": {"android": "https://dc.lft.to/lastmile_qr_scan", "ios": "https://dc.lft.to/lastmile_qr_scan"}, "fusion_lon": 0.0}, {"lat": 38.900090666666664, "is_disabled": 0, "type": "electric_scooter", "lon": -77.04026833333333, "bike_id": "1463ec4b3a4de939ab39f87bbbd229c2", "fusion_lat": 0.0, "name": "1463ec4b3a4de939ab39f87bbbd229c2", "is_reserved": 0, "rental_uris": {"android": "https://dc.lft.to/lastmile_qr_scan", "ios": "https://dc.lft.to/lastmile_qr_scan"}, "fusion_lon": 0.0}, {"lat": 38.905516, "is_disabled": 0, "type": "electric_scooter", "lon": -77.00834416666666, "bike_id": "996e92b4e5655b35506e6da10a2e3ea5", "fusion_lat": 0.0, "name": "996e92b4e5655b35506e6da10a2e3ea5", "is_reserved": 0, "rental_uris": {"android": "https://dc.lft.to/lastmile_qr_scan", "ios": "https://dc.lft.to/lastmile_qr_scan"}, "fusion_lon": 0.0}, {"lat": 38.898894166666665, "is_disabled": 0, "type": "electric_scooter", "lon": -76.99730133333334, "bike_id": "9d017a20984128d77e11c13a0ada897d", "fusion_lat": 0.0, "name": "9d017a20984128d77e11c13a0ada897d", "is_reserved": 0, "rental_uris": {"android": "https://dc.lft.to/lastmile_qr_scan", "ios": "https://dc.lft.to/lastmile_qr_scan"}, "fusion_lon": 0.0}, {"lat": 38.90373666666667, "is_disabled": 0, "type": "electric_scooter", "lon": -77.01614766666667, "bike_id": "5eb8397c2beb894f1757ebcacb00db60", "fusion_lat": 0.0, "name": "5eb8397c2beb894f1757ebcacb00db60", "is_reserved": 0, "rental_uris": {"android": "https://dc.lft.to/lastmile_qr_scan", "ios": "https://dc.lft.to/lastmile_qr_scan"}, "fusion_lon": 0.0}, {"lat": 38.900560666666664, "is_disabled": 0, "type": "electric_scooter", "lon": -77.01318116666667, "bike_id": "309f96aa0accec220d19470ead7a0ec8", "fusion_lat": 0.0, "name": "309f96aa0accec220d19470ead7a0ec8", "is_reserved": 0, "rental_uris": {"android": "https://dc.lft.to/lastmile_qr_scan", "ios": "https://dc.lft.to/lastmile_qr_scan"}, "fusion_lon": 0.0}, {"lat": 38.911865166666665, "is_disabled": 0, "type": "electric_scooter", "lon": -77.00250266666667, "bike_id": "03bef699f446bda30a61543794071056", "fusion_lat": 0.0, "name": "03bef699f446bda30a61543794071056", "is_reserved": 0, "rental_uris": {"android": "https://dc.lft.to/lastmile_qr_scan", "ios": "https://dc.lft.to/lastmile_qr_scan"}, "fusion_lon": 0.0}, {"lat": 38.902937333333334, "is_disabled": 0, "type": "electric_scooter", "lon": -77.0019945, "bike_id": "ea3a3d2a39f438d7789dede62a46c525", "fusion_lat": 0.0, "name": "ea3a3d2a39f438d7789dede62a46c525", "is_reserved": 0, "rental_uris": {"android": "https://dc.lft.to/lastmile_qr_scan", "ios": "https://dc.lft.to/lastmile_qr_scan"}, "fusion_lon": 0.0}, {"lat": 38.90976883333333, "is_disabled": 0, "type": "electric_scooter", "lon": -77.031914, "bike_id": "d1f37069280b77aaca7060d0ee101b9b", "fusion_lat": 0.0, "name": "d1f37069280b77aaca7060d0ee101b9b", "is_reserved": 0, "rental_uris": {"android": "https://dc.lft.to/lastmile_qr_scan", "ios": "https://dc.lft.to/lastmile_qr_scan"}, "fusion_lon": 0.0}, {"lat": 38.90216516666667, "is_disabled": 0, "type": "electric_scooter", "lon": -76.94594166666667, "bike_id": "fd11fe61d4573c22cf41c7b601ce5081", "fusion_lat": 0.0, "name": "fd11fe61d4573c22cf41c7b601ce5081", "is_reserved": 0, "rental_uris": {"android": "https://dc.lft.to/lastmile_qr_scan", "ios": "https://dc.lft.to/lastmile_qr_scan"}, "fusion_lon": 0.0}, {"lat": 38.897749833333336, "is_disabled": 0, "type": "electric_scooter", "lon": -77.04339783333333, "bike_id": "d767b86b6f4f6ab0c8a395a23b87166d", "fusion_lat": 0.0, "name": "d767b86b6f4f6ab0c8a395a23b87166d", "is_reserved": 0, "rental_uris": {"android": "https://dc.lft.to/lastmile_qr_scan", "ios": "https://dc.lft.to/lastmile_qr_scan"}, "fusion_lon": 0.0}, {"lat": 38.922486666666664, "is_disabled": 0, "type": "electric_scooter", "lon": -77.03069583333334, "bike_id": "54434ec6467e346feb9a27fe9ab08444", "fusion_lat": 0.0, "name": "54434ec6467e346feb9a27fe9ab08444", "is_reserved": 0, "rental_uris": {"android": "https://dc.lft.to/lastmile_qr_scan", "ios": "https://dc.lft.to/lastmile_qr_scan"}, "fusion_lon": 0.0}, {"lat": 38.93013933333334, "is_disabled": 0, "type": "electric_bike", "lon": -77.21653116666667, "bike_id": "1cf0bdc7ebdeeb135a3ba1f670f50470", "fusion_lat": 0.0, "name": "1cf0bdc7ebdeeb135a3ba1f670f50470", "is_reserved": 0, "rental_uris": {"android": "https://dc.lft.to/lastmile_qr_scan", "ios": "https://dc.lft.to/lastmile_qr_scan"}, "fusion_lon": 0.0}, {"lat": 38.901504833333334, "is_disabled": 0, "type": "electric_bike", "lon": -76.986602, "bike_id": "516c5b261d055803acf002c6c837ff2e", "fusion_lat": 0.0, "name": "516c5b261d055803acf002c6c837ff2e", "is_reserved": 0, "rental_uris": {"android": "https://dc.lft.to/lastmile_qr_scan", "ios": "https://dc.lft.to/lastmile_qr_scan"}, "fusion_lon": 0.0}, {"lat": 38.93377516666666, "is_disabled": 0, "type": "electric_scooter", "lon": -77.03796033333333, "bike_id": "0b5989a063071e44fb723c5c5b10fe46", "fusion_lat": 0.0, "name": "0b5989a063071e44fb723c5c5b10fe46", "is_reserved": 0, "rental_uris": {"android": "https://dc.lft.to/lastmile_qr_scan", "ios": "https://dc.lft.to/lastmile_qr_scan"}, "fusion_lon": 0.0}, {"lat": 38.91961166666667, "is_disabled": 0, "type": "electric_bike", "lon": -76.97264266666667, "bike_id": "e0bccbb32f028298a097df076a30da0f", "fusion_lat": 0.0, "name": "e0bccbb32f028298a097df076a30da0f", "is_reserved": 0, "rental_uris": {"android": "https://dc.lft.to/lastmile_qr_scan", "ios": "https://dc.lft.to/lastmile_qr_scan"}, "fusion_lon": 0.0}, {"lat": 38.962765833333336, "is_disabled": 0, "type": "electric_bike", "lon": -77.032446, "bike_id": "88c9967d96829eb766dab3ba20364646", "fusion_lat": 0.0, "name": "88c9967d96829eb766dab3ba20364646", "is_reserved": 0, "rental_uris": {"android": "https://dc.lft.to/lastmile_qr_scan", "ios": "https://dc.lft.to/lastmile_qr_scan"}, "fusion_lon": 0.0}, {"lat": 38.9195475, "is_disabled": 0, "type": "electric_scooter", "lon": -77.0488615, "bike_id": "8d7f46620ed0bd8bf9f1591d17bfb96c", "fusion_lat": 0.0, "name": "8d7f46620ed0bd8bf9f1591d17bfb96c", "is_reserved": 0, "rental_uris": {"android": "https://dc.lft.to/lastmile_qr_scan", "ios": "https://dc.lft.to/lastmile_qr_scan"}, "fusion_lon": 0.0}, {"lat": 38.87927283333333, "is_disabled": 0, "type": "electric_scooter", "lon": -77.007167, "bike_id": "01e18869c1d6264408aa71fddc136d64", "fusion_lat": 0.0, "name": "01e18869c1d6264408aa71fddc136d64", "is_reserved": 0, "rental_uris": {"android": "https://dc.lft.to/lastmile_qr_scan", "ios": "https://dc.lft.to/lastmile_qr_scan"}, "fusion_lon": 0.0}, {"lat": 38.91733333333333, "is_disabled": 0, "type": "electric_scooter", "lon": -77.06900816666666, "bike_id": "fc11d0f44ccebec8d58a23d786e5c449", "fusion_lat": 0.0, "name": "fc11d0f44ccebec8d58a23d786e5c449", "is_reserved": 0, "rental_uris": {"android": "https://dc.lft.to/lastmile_qr_scan", "ios": "https://dc.lft.to/lastmile_qr_scan"}, "fusion_lon": 0.0}, {"lat": 38.912250666666665, "is_disabled": 0, "type": "electric_scooter", "lon": -77.04479116666667, "bike_id": "7f1225bcc74304a91cab8f42b2cdb62b", "fusion_lat": 0.0, "name": "7f1225bcc74304a91cab8f42b2cdb62b", "is_reserved": 0, "rental_uris": {"android": "https://dc.lft.to/lastmile_qr_scan", "ios": "https://dc.lft.to/lastmile_qr_scan"}, "fusion_lon": 0.0}, {"lat": 38.92244983333333, "is_disabled": 0, "type": "electric_scooter", "lon": -77.04248166666666, "bike_id": "2914df03ebaba7b8438b9e8383c57a41", "fusion_lat": 0.0, "name": "2914df03ebaba7b8438b9e8383c57a41", "is_reserved": 0, "rental_uris": {"android": "https://dc.lft.to/lastmile_qr_scan", "ios": "https://dc.lft.to/lastmile_qr_scan"}, "fusion_lon": 0.0}, {"lat": 38.91807516666667, "is_disabled": 0, "type": "electric_scooter", "lon": -77.0344255, "bike_id": "e103c12add690edec8a75ae3546777c2", "fusion_lat": 0.0, "name": "e103c12add690edec8a75ae3546777c2", "is_reserved": 0, "rental_uris": {"android": "https://dc.lft.to/lastmile_qr_scan", "ios": "https://dc.lft.to/lastmile_qr_scan"}, "fusion_lon": 0.0}, {"lat": 38.858004666666666, "is_disabled": 0, "type": "electric_scooter", "lon": -76.98717816666667, "bike_id": "58da4151b713e6bc76f545babfa46f90", "fusion_lat": 0.0, "name": "58da4151b713e6bc76f545babfa46f90", "is_reserved": 0, "rental_uris": {"android": "https://dc.lft.to/lastmile_qr_scan", "ios": "https://dc.lft.to/lastmile_qr_scan"}, "fusion_lon": 0.0}, {"lat": 38.883410833333336, "is_disabled": 0, "type": "electric_scooter", "lon": -77.0314305, "bike_id": "4840492b4511b8e92befd9d1c0eded36", "fusion_lat": 0.0, "name": "4840492b4511b8e92befd9d1c0eded36", "is_reserved": 0, "rental_uris": {"android": "https://dc.lft.to/lastmile_qr_scan", "ios": "https://dc.lft.to/lastmile_qr_scan"}, "fusion_lon": 0.0}, {"lat": 38.923854, "is_disabled": 0, "type": "electric_scooter", "lon": -77.0005865, "bike_id": "547088cba503d07f88995616189afa5a", "fusion_lat": 0.0, "name": "547088cba503d07f88995616189afa5a", "is_reserved": 0, "rental_uris": {"android": "https://dc.lft.to/lastmile_qr_scan", "ios": "https://dc.lft.to/lastmile_qr_scan"}, "fusion_lon": 0.0}, {"lat": 38.89895416666667, "is_disabled": 0, "type": "electric_scooter", "lon": -77.02221866666666, "bike_id": "fa8a5426bb39e980551e6044558519cd", "fusion_lat": 0.0, "name": "fa8a5426bb39e980551e6044558519cd", "is_reserved": 0, "rental_uris": {"android": "https://dc.lft.to/lastmile_qr_scan", "ios": "https://dc.lft.to/lastmile_qr_scan"}, "fusion_lon": 0.0}, {"lat": 38.924146666666665, "is_disabled": 0, "type": "electric_scooter", "lon": -77.03539983333333, "bike_id": "f437baf77d943dd95a1fc87de40e63ce", "fusion_lat": 0.0, "name": "f437baf77d943dd95a1fc87de40e63ce", "is_reserved": 0, "rental_uris": {"android": "https://dc.lft.to/lastmile_qr_scan", "ios": "https://dc.lft.to/lastmile_qr_scan"}, "fusion_lon": 0.0}, {"lat": 38.913419166666664, "is_disabled": 0, "type": "electric_scooter", "lon": -77.00225766666667, "bike_id": "083a6aba7a87a0a1f2d6db641db3976c", "fusion_lat": 0.0, "name": "083a6aba7a87a0a1f2d6db641db3976c", "is_reserved": 0, "rental_uris": {"android": "https://dc.lft.to/lastmile_qr_scan", "ios": "https://dc.lft.to/lastmile_qr_scan"}, "fusion_lon": 0.0}, {"lat": 38.9170655, "is_disabled": 0, "type": "electric_scooter", "lon": -77.03222333333333, "bike_id": "6252722ec852335094a80f33db0e3aa1", "fusion_lat": 0.0, "name": "6252722ec852335094a80f33db0e3aa1", "is_reserved": 0, "rental_uris": {"android": "https://dc.lft.to/lastmile_qr_scan", "ios": "https://dc.lft.to/lastmile_qr_scan"}, "fusion_lon": 0.0}, {"lat": 38.9233845, "is_disabled": 0, "type": "electric_scooter", "lon": -77.01894533333333, "bike_id": "e4aee85be75dae292c88f18eee4032fd", "fusion_lat": 0.0, "name": "e4aee85be75dae292c88f18eee4032fd", "is_reserved": 0, "rental_uris": {"android": "https://dc.lft.to/lastmile_qr_scan", "ios": "https://dc.lft.to/lastmile_qr_scan"}, "fusion_lon": 0.0}, {"lat": 38.892194, "is_disabled": 0, "type": "electric_scooter", "lon": -77.02122133333333, "bike_id": "00c4d7ad923b8d6602b0bd9567ba4c77", "fusion_lat": 0.0, "name": "00c4d7ad923b8d6602b0bd9567ba4c77", "is_reserved": 0, "rental_uris": {"android": "https://dc.lft.to/lastmile_qr_scan", "ios": "https://dc.lft.to/lastmile_qr_scan"}, "fusion_lon": 0.0}, {"lat": 38.90686783333334, "is_disabled": 0, "type": "electric_scooter", "lon": -77.06069866666667, "bike_id": "5b9a6de6dafe776df017559c03c41d26", "fusion_lat": 0.0, "name": "5b9a6de6dafe776df017559c03c41d26", "is_reserved": 0, "rental_uris": {"android": "https://dc.lft.to/lastmile_qr_scan", "ios": "https://dc.lft.to/lastmile_qr_scan"}, "fusion_lon": 0.0}, {"lat": 38.92584083333333, "is_disabled": 0, "type": "electric_scooter", "lon": -77.057563, "bike_id": "a9353af7464a047b72fc7158f9956ae6", "fusion_lat": 0.0, "name": "a9353af7464a047b72fc7158f9956ae6", "is_reserved": 0, "rental_uris": {"android": "https://dc.lft.to/lastmile_qr_scan", "ios": "https://dc.lft.to/lastmile_qr_scan"}, "fusion_lon": 0.0}, {"lat": 38.92113466666667, "is_disabled": 0, "type": "electric_scooter", "lon": -77.01802783333333, "bike_id": "4b4e192be82f66a0be0a0ed6cba6050a", "fusion_lat": 0.0, "name": "4b4e192be82f66a0be0a0ed6cba6050a", "is_reserved": 0, "rental_uris": {"android": "https://dc.lft.to/lastmile_qr_scan", "ios": "https://dc.lft.to/lastmile_qr_scan"}, "fusion_lon": 0.0}, {"lat": 38.90237066666667, "is_disabled": 0, "type": "electric_scooter", "lon": -77.01734183333333, "bike_id": "44a73615a6dd963f4f42a5ecbfa24770", "fusion_lat": 0.0, "name": "44a73615a6dd963f4f42a5ecbfa24770", "is_reserved": 0, "rental_uris": {"android": "https://dc.lft.to/lastmile_qr_scan", "ios": "https://dc.lft.to/lastmile_qr_scan"}, "fusion_lon": 0.0}, {"lat": 38.96113733333333, "is_disabled": 0, "type": "electric_scooter", "lon": -77.028148, "bike_id": "9e072130db1ba13a9480ea9e337102bb", "fusion_lat": 0.0, "name": "9e072130db1ba13a9480ea9e337102bb", "is_reserved": 0, "rental_uris": {"android": "https://dc.lft.to/lastmile_qr_scan", "ios": "https://dc.lft.to/lastmile_qr_scan"}, "fusion_lon": 0.0}, {"lat": 38.905708, "is_disabled": 0, "type": "electric_scooter", "lon": -77.018002, "bike_id": "82c5f64ede486ebe5b89b79283ed3b62", "fusion_lat": 0.0, "name": "82c5f64ede486ebe5b89b79283ed3b62", "is_reserved": 0, "rental_uris": {"android": "https://dc.lft.to/lastmile_qr_scan", "ios": "https://dc.lft.to/lastmile_qr_scan"}, "fusion_lon": 0.0}, {"lat": 38.92915466666667, "is_disabled": 0, "type": "electric_scooter", "lon": -77.02193366666667, "bike_id": "342a1f786139b7c63dd572130d09e6ed", "fusion_lat": 0.0, "name": "342a1f786139b7c63dd572130d09e6ed", "is_reserved": 0, "rental_uris": {"android": "https://dc.lft.to/lastmile_qr_scan", "ios": "https://dc.lft.to/lastmile_qr_scan"}, "fusion_lon": 0.0}, {"lat": 38.842698666666664, "is_disabled": 0, "type": "electric_bike", "lon": -76.98841933333334, "bike_id": "8caf424596158fe26af9562ccb558757", "fusion_lat": 0.0, "name": "8caf424596158fe26af9562ccb558757", "is_reserved": 0, "rental_uris": {"android": "https://dc.lft.to/lastmile_qr_scan", "ios": "https://dc.lft.to/lastmile_qr_scan"}, "fusion_lon": 0.0}, {"lat": 38.865034333333334, "is_disabled": 0, "type": "electric_scooter", "lon": -76.99005383333333, "bike_id": "a61c0e525cf0f8d365b97dd2b0870e01", "fusion_lat": 0.0, "name": "a61c0e525cf0f8d365b97dd2b0870e01", "is_reserved": 0, "rental_uris": {"android": "https://dc.lft.to/lastmile_qr_scan", "ios": "https://dc.lft.to/lastmile_qr_scan"}, "fusion_lon": 0.0}, {"lat": 38.8372425, "is_disabled": 0, "type": "electric_bike", "lon": -76.99767583333333, "bike_id": "5ac11113c35cee57c4e24b6842e01b05", "fusion_lat": 0.0, "name": "5ac11113c35cee57c4e24b6842e01b05", "is_reserved": 0, "rental_uris": {"android": "https://dc.lft.to/lastmile_qr_scan", "ios": "https://dc.lft.to/lastmile_qr_scan"}, "fusion_lon": 0.0}, {"lat": 38.9225465, "is_disabled": 0, "type": "electric_scooter", "lon": -77.04242716666667, "bike_id": "98ce20beaac7402d21e58f63ae9aa1ed", "fusion_lat": 0.0, "name": "98ce20beaac7402d21e58f63ae9aa1ed", "is_reserved": 0, "rental_uris": {"android": "https://dc.lft.to/lastmile_qr_scan", "ios": "https://dc.lft.to/lastmile_qr_scan"}, "fusion_lon": 0.0}, {"lat": 38.934076833333336, "is_disabled": 0, "type": "electric_scooter", "lon": -77.02458083333333, "bike_id": "2318a0bc5f6696bc7f15284bd5762b6d", "fusion_lat": 0.0, "name": "2318a0bc5f6696bc7f15284bd5762b6d", "is_reserved": 0, "rental_uris": {"android": "https://dc.lft.to/lastmile_qr_scan", "ios": "https://dc.lft.to/lastmile_qr_scan"}, "fusion_lon": 0.0}, {"lat": 38.916497666666665, "is_disabled": 0, "type": "electric_scooter", "lon": -77.04712133333334, "bike_id": "424b04ede104a69872fd9f9453ad8835", "fusion_lat": 0.0, "name": "424b04ede104a69872fd9f9453ad8835", "is_reserved": 0, "rental_uris": {"android": "https://dc.lft.to/lastmile_qr_scan", "ios": "https://dc.lft.to/lastmile_qr_scan"}, "fusion_lon": 0.0}, {"lat": 38.89546, "is_disabled": 0, "type": "electric_scooter", "lon": -77.004413, "bike_id": "78bb246030bd4e238961967424c068d2", "fusion_lat": 0.0, "name": "78bb246030bd4e238961967424c068d2", "is_reserved": 0, "rental_uris": {"android": "https://dc.lft.to/lastmile_qr_scan", "ios": "https://dc.lft.to/lastmile_qr_scan"}, "fusion_lon": 0.0}, {"lat": 38.9012945, "is_disabled": 0, "type": "electric_scooter", "lon": -77.02927616666666, "bike_id": "26a6f1200975083b247d7d2cebefdf8e", "fusion_lat": 0.0, "name": "26a6f1200975083b247d7d2cebefdf8e", "is_reserved": 0, "rental_uris": {"android": "https://dc.lft.to/lastmile_qr_scan", "ios": "https://dc.lft.to/lastmile_qr_scan"}, "fusion_lon": 0.0}, {"lat": 38.856764, "is_disabled": 0, "type": "electric_scooter", "lon": -76.981764, "bike_id": "3dc9fd8beef4799c7fc3308523975793", "fusion_lat": 0.0, "name": "3dc9fd8beef4799c7fc3308523975793", "is_reserved": 0, "rental_uris": {"android": "https://dc.lft.to/lastmile_qr_scan", "ios": "https://dc.lft.to/lastmile_qr_scan"}, "fusion_lon": 0.0}, {"lat": 38.926602833333334, "is_disabled": 0, "type": "electric_scooter", "lon": -76.9974835, "bike_id": "a219c7ae92fb42e4c4e6c9ca078d04cd", "fusion_lat": 0.0, "name": "a219c7ae92fb42e4c4e6c9ca078d04cd", "is_reserved": 0, "rental_uris": {"android": "https://dc.lft.to/lastmile_qr_scan", "ios": "https://dc.lft.to/lastmile_qr_scan"}, "fusion_lon": 0.0}, {"lat": 38.89617033333333, "is_disabled": 0, "type": "electric_scooter", "lon": -77.02144733333333, "bike_id": "fbe688af78b79cecb5190ed437b2aed5", "fusion_lat": 0.0, "name": "fbe688af78b79cecb5190ed437b2aed5", "is_reserved": 0, "rental_uris": {"android": "https://dc.lft.to/lastmile_qr_scan", "ios": "https://dc.lft.to/lastmile_qr_scan"}, "fusion_lon": 0.0}, {"lat": 38.88489666666667, "is_disabled": 0, "type": "electric_scooter", "lon": -77.03473233333334, "bike_id": "8dbfec2c575c3dc714bb017e4b1ddcf8", "fusion_lat": 0.0, "name": "8dbfec2c575c3dc714bb017e4b1ddcf8", "is_reserved": 0, "rental_uris": {"android": "https://dc.lft.to/lastmile_qr_scan", "ios": "https://dc.lft.to/lastmile_qr_scan"}, "fusion_lon": 0.0}, {"lat": 38.91550316666667, "is_disabled": 0, "type": "electric_scooter", "lon": -77.02424033333334, "bike_id": "4515da45b121d97eef8155c3bf45e3c7", "fusion_lat": 0.0, "name": "4515da45b121d97eef8155c3bf45e3c7", "is_reserved": 0, "rental_uris": {"android": "https://dc.lft.to/lastmile_qr_scan", "ios": "https://dc.lft.to/lastmile_qr_scan"}, "fusion_lon": 0.0}, {"lat": 38.898807166666664, "is_disabled": 0, "type": "electric_scooter", "lon": -77.05339416666666, "bike_id": "c69d70b1258f17dbafb1d0bc3945ee39", "fusion_lat": 0.0, "name": "c69d70b1258f17dbafb1d0bc3945ee39", "is_reserved": 0, "rental_uris": {"android": "https://dc.lft.to/lastmile_qr_scan", "ios": "https://dc.lft.to/lastmile_qr_scan"}, "fusion_lon": 0.0}, {"lat": 38.899158, "is_disabled": 0, "type": "electric_scooter", "lon": -76.93382233333334, "bike_id": "1d1743c022b2c7d83b27c1777df80c96", "fusion_lat": 0.0, "name": "1d1743c022b2c7d83b27c1777df80c96", "is_reserved": 0, "rental_uris": {"android": "https://dc.lft.to/lastmile_qr_scan", "ios": "https://dc.lft.to/lastmile_qr_scan"}, "fusion_lon": 0.0}, {"lat": 38.88277433333333, "is_disabled": 0, "type": "electric_bike", "lon": -76.98776716666667, "bike_id": "4fb237338ad753cfe4fddc29112ffdbd", "fusion_lat": 0.0, "name": "4fb237338ad753cfe4fddc29112ffdbd", "is_reserved": 0, "rental_uris": {"android": "https://dc.lft.to/lastmile_qr_scan", "ios": "https://dc.lft.to/lastmile_qr_scan"}, "fusion_lon": 0.0}, {"lat": 38.86344616666667, "is_disabled": 0, "type": "electric_scooter", "lon": -76.99003383333333, "bike_id": "9f1e446433c6c6ca8262921644774204", "fusion_lat": 0.0, "name": "9f1e446433c6c6ca8262921644774204", "is_reserved": 0, "rental_uris": {"android": "https://dc.lft.to/lastmile_qr_scan", "ios": "https://dc.lft.to/lastmile_qr_scan"}, "fusion_lon": 0.0}, {"lat": 38.95555133333333, "is_disabled": 0, "type": "electric_bike", "lon": -76.935481, "bike_id": "e008cfc48b25310978e9e8aed0c865e7", "fusion_lat": 0.0, "name": "e008cfc48b25310978e9e8aed0c865e7", "is_reserved": 0, "rental_uris": {"android": "https://dc.lft.to/lastmile_qr_scan", "ios": "https://dc.lft.to/lastmile_qr_scan"}, "fusion_lon": 0.0}, {"lat": 38.84866816666667, "is_disabled": 0, "type": "electric_scooter", "lon": -76.97693333333333, "bike_id": "93c7f5bb3e639ffcf3553a65c1ed7633", "fusion_lat": 0.0, "name": "93c7f5bb3e639ffcf3553a65c1ed7633", "is_reserved": 0, "rental_uris": {"android": "https://dc.lft.to/lastmile_qr_scan", "ios": "https://dc.lft.to/lastmile_qr_scan"}, "fusion_lon": 0.0}, {"lat": 38.912436666666665, "is_disabled": 0, "type": "electric_scooter", "lon": -77.04767716666667, "bike_id": "03da29212660b423e496a3df8ef186c4", "fusion_lat": 0.0, "name": "03da29212660b423e496a3df8ef186c4", "is_reserved": 0, "rental_uris": {"android": "https://dc.lft.to/lastmile_qr_scan", "ios": "https://dc.lft.to/lastmile_qr_scan"}, "fusion_lon": 0.0}, {"lat": 38.943925666666665, "is_disabled": 0, "type": "electric_scooter", "lon": -77.01984466666667, "bike_id": "b12208f64184acc0e7fbf2600cd8b8c7", "fusion_lat": 0.0, "name": "b12208f64184acc0e7fbf2600cd8b8c7", "is_reserved": 0, "rental_uris": {"android": "https://dc.lft.to/lastmile_qr_scan", "ios": "https://dc.lft.to/lastmile_qr_scan"}, "fusion_lon": 0.0}, {"lat": 38.928391833333336, "is_disabled": 0, "type": "electric_scooter", "lon": -77.01397766666666, "bike_id": "95a729559b7cba5ee0fe8e707a8e6428", "fusion_lat": 0.0, "name": "95a729559b7cba5ee0fe8e707a8e6428", "is_reserved": 0, "rental_uris": {"android": "https://dc.lft.to/lastmile_qr_scan", "ios": "https://dc.lft.to/lastmile_qr_scan"}, "fusion_lon": 0.0}, {"lat": 38.990034, "is_disabled": 0, "type": "electric_bike", "lon": -77.0044, "bike_id": "fcae8414aeeb4b312d6a2ff2aa8b1906", "fusion_lat": 0.0, "name": "fcae8414aeeb4b312d6a2ff2aa8b1906", "is_reserved": 0, "rental_uris": {"android": "https://dc.lft.to/lastmile_qr_scan", "ios": "https://dc.lft.to/lastmile_qr_scan"}, "fusion_lon": 0.0}, {"lat": 38.855395666666666, "is_disabled": 0, "type": "electric_bike", "lon": -77.12050033333334, "bike_id": "b1431bbbf1850ef30a81e03048743723", "fusion_lat": 0.0, "name": "b1431bbbf1850ef30a81e03048743723", "is_reserved": 0, "rental_uris": {"android": "https://dc.lft.to/lastmile_qr_scan", "ios": "https://dc.lft.to/lastmile_qr_scan"}, "fusion_lon": 0.0}, {"lat": 38.91881933333333, "is_disabled": 0, "type": "electric_scooter", "lon": -77.0349165, "bike_id": "635b0217aac07efa178a84fd940bd56d", "fusion_lat": 0.0, "name": "635b0217aac07efa178a84fd940bd56d", "is_reserved": 0, "rental_uris": {"android": "https://dc.lft.to/lastmile_qr_scan", "ios": "https://dc.lft.to/lastmile_qr_scan"}, "fusion_lon": 0.0}, {"lat": 38.923475, "is_disabled": 0, "type": "electric_scooter", "lon": -77.03392033333333, "bike_id": "b62a6af3fd45364f5c74932eb1925d3e", "fusion_lat": 0.0, "name": "b62a6af3fd45364f5c74932eb1925d3e", "is_reserved": 0, "rental_uris": {"android": "https://dc.lft.to/lastmile_qr_scan", "ios": "https://dc.lft.to/lastmile_qr_scan"}, "fusion_lon": 0.0}, {"lat": 38.944358, "is_disabled": 0, "type": "electric_scooter", "lon": -77.01506683333334, "bike_id": "f91a229c987f1fc02d52cb1f04b4ffcf", "fusion_lat": 0.0, "name": "f91a229c987f1fc02d52cb1f04b4ffcf", "is_reserved": 0, "rental_uris": {"android": "https://dc.lft.to/lastmile_qr_scan", "ios": "https://dc.lft.to/lastmile_qr_scan"}, "fusion_lon": 0.0}, {"lat": 38.911048, "is_disabled": 0, "type": "electric_scooter", "lon": -77.0382715, "bike_id": "fe5e43a1020faf6808681da79c7996c6", "fusion_lat": 0.0, "name": "fe5e43a1020faf6808681da79c7996c6", "is_reserved": 0, "rental_uris": {"android": "https://dc.lft.to/lastmile_qr_scan", "ios": "https://dc.lft.to/lastmile_qr_scan"}, "fusion_lon": 0.0}, {"lat": 38.85191283333333, "is_disabled": 0, "type": "electric_bike", "lon": -76.96108233333334, "bike_id": "1fe114dd8d7dd0243088f84d3a823174", "fusion_lat": 0.0, "name": "1fe114dd8d7dd0243088f84d3a823174", "is_reserved": 0, "rental_uris": {"android": "https://dc.lft.to/lastmile_qr_scan", "ios": "https://dc.lft.to/lastmile_qr_scan"}, "fusion_lon": 0.0}, {"lat": 38.9011265, "is_disabled": 0, "type": "electric_scooter", "lon": -77.025164, "bike_id": "37d40accc2801658071d970478cc3ffe", "fusion_lat": 0.0, "name": "37d40accc2801658071d970478cc3ffe", "is_reserved": 0, "rental_uris": {"android": "https://dc.lft.to/lastmile_qr_scan", "ios": "https://dc.lft.to/lastmile_qr_scan"}, "fusion_lon": 0.0}, {"lat": 38.93359233333334, "is_disabled": 0, "type": "electric_scooter", "lon": -77.07370733333333, "bike_id": "75612f8b9310985658d9ed0d8fc12688", "fusion_lat": 0.0, "name": "75612f8b9310985658d9ed0d8fc12688", "is_reserved": 0, "rental_uris": {"android": "https://dc.lft.to/lastmile_qr_scan", "ios": "https://dc.lft.to/lastmile_qr_scan"}, "fusion_lon": 0.0}, {"lat": 38.9086085, "is_disabled": 0, "type": "electric_bike", "lon": -76.93163216666667, "bike_id": "c4ec45e5c8265a38b6ad92559e0b3e8d", "fusion_lat": 0.0, "name": "c4ec45e5c8265a38b6ad92559e0b3e8d", "is_reserved": 0, "rental_uris": {"android": "https://dc.lft.to/lastmile_qr_scan", "ios": "https://dc.lft.to/lastmile_qr_scan"}, "fusion_lon": 0.0}, {"lat": 38.96604133333334, "is_disabled": 0, "type": "electric_bike", "lon": -76.9833505, "bike_id": "d6a4d09893c76b3fd4e5013c88380c31", "fusion_lat": 0.0, "name": "d6a4d09893c76b3fd4e5013c88380c31", "is_reserved": 0, "rental_uris": {"android": "https://dc.lft.to/lastmile_qr_scan", "ios": "https://dc.lft.to/lastmile_qr_scan"}, "fusion_lon": 0.0}, {"lat": 38.892471, "is_disabled": 0, "type": "electric_scooter", "lon": -77.04897116666666, "bike_id": "d43542020ef2a430dcd30e56c087330a", "fusion_lat": 0.0, "name": "d43542020ef2a430dcd30e56c087330a", "is_reserved": 0, "rental_uris": {"android": "https://dc.lft.to/lastmile_qr_scan", "ios": "https://dc.lft.to/lastmile_qr_scan"}, "fusion_lon": 0.0}, {"lat": 38.898384166666666, "is_disabled": 0, "type": "electric_scooter", "lon": -76.93102683333333, "bike_id": "3def6d14eb6b063598c0d9f9d4fa0d0f", "fusion_lat": 0.0, "name": "3def6d14eb6b063598c0d9f9d4fa0d0f", "is_reserved": 0, "rental_uris": {"android": "https://dc.lft.to/lastmile_qr_scan", "ios": "https://dc.lft.to/lastmile_qr_scan"}, "fusion_lon": 0.0}, {"lat": 38.87452433333333, "is_disabled": 0, "type": "electric_scooter", "lon": -77.009287, "bike_id": "52dd3979d4382b76649a8abe40bd2250", "fusion_lat": 0.0, "name": "52dd3979d4382b76649a8abe40bd2250", "is_reserved": 0, "rental_uris": {"android": "https://dc.lft.to/lastmile_qr_scan", "ios": "https://dc.lft.to/lastmile_qr_scan"}, "fusion_lon": 0.0}, {"lat": 38.90316983333334, "is_disabled": 0, "type": "electric_scooter", "lon": -76.98999583333334, "bike_id": "e11b9024183b3c35b3772311176bb1cf", "fusion_lat": 0.0, "name": "e11b9024183b3c35b3772311176bb1cf", "is_reserved": 0, "rental_uris": {"android": "https://dc.lft.to/lastmile_qr_scan", "ios": "https://dc.lft.to/lastmile_qr_scan"}, "fusion_lon": 0.0}, {"lat": 38.92081316666667, "is_disabled": 0, "type": "electric_bike", "lon": -76.99186233333333, "bike_id": "99c816b848cb288117bbc4523803e43d", "fusion_lat": 0.0, "name": "99c816b848cb288117bbc4523803e43d", "is_reserved": 0, "rental_uris": {"android": "https://dc.lft.to/lastmile_qr_scan", "ios": "https://dc.lft.to/lastmile_qr_scan"}, "fusion_lon": 0.0}, {"lat": 38.90454016666666, "is_disabled": 0, "type": "electric_scooter", "lon": -76.99459933333333, "bike_id": "d9f7ff028df655602a6326499e15b849", "fusion_lat": 0.0, "name": "d9f7ff028df655602a6326499e15b849", "is_reserved": 0, "rental_uris": {"android": "https://dc.lft.to/lastmile_qr_scan", "ios": "https://dc.lft.to/lastmile_qr_scan"}, "fusion_lon": 0.0}, {"lat": 38.909867166666665, "is_disabled": 0, "type": "electric_scooter", "lon": -77.04498183333334, "bike_id": "9ccceb18f929c9bba0de3aa951fe4f0e", "fusion_lat": 0.0, "name": "9ccceb18f929c9bba0de3aa951fe4f0e", "is_reserved": 0, "rental_uris": {"android": "https://dc.lft.to/lastmile_qr_scan", "ios": "https://dc.lft.to/lastmile_qr_scan"}, "fusion_lon": 0.0}, {"lat": 38.9308975, "is_disabled": 0, "type": "electric_scooter", "lon": -77.0255645, "bike_id": "3fdac6dc99acd75c1aaff7d69f61b11e", "fusion_lat": 0.0, "name": "3fdac6dc99acd75c1aaff7d69f61b11e", "is_reserved": 0, "rental_uris": {"android": "https://dc.lft.to/lastmile_qr_scan", "ios": "https://dc.lft.to/lastmile_qr_scan"}, "fusion_lon": 0.0}, {"lat": 38.9692755, "is_disabled": 0, "type": "electric_bike", "lon": -77.02618183333334, "bike_id": "d1da044a87697df001d5b1be2814d794", "fusion_lat": 0.0, "name": "d1da044a87697df001d5b1be2814d794", "is_reserved": 0, "rental_uris": {"android": "https://dc.lft.to/lastmile_qr_scan", "ios": "https://dc.lft.to/lastmile_qr_scan"}, "fusion_lon": 0.0}, {"lat": 38.937396166666666, "is_disabled": 0, "type": "electric_scooter", "lon": -77.03465433333334, "bike_id": "86e38e3029941de35cb354845ce2ec3b", "fusion_lat": 0.0, "name": "86e38e3029941de35cb354845ce2ec3b", "is_reserved": 0, "rental_uris": {"android": "https://dc.lft.to/lastmile_qr_scan", "ios": "https://dc.lft.to/lastmile_qr_scan"}, "fusion_lon": 0.0}, {"lat": 38.95405233333334, "is_disabled": 0, "type": "electric_scooter", "lon": -77.02746933333333, "bike_id": "b71d9acbb4f3469be1f25833ae5f6263", "fusion_lat": 0.0, "name": "b71d9acbb4f3469be1f25833ae5f6263", "is_reserved": 0, "rental_uris": {"android": "https://dc.lft.to/lastmile_qr_scan", "ios": "https://dc.lft.to/lastmile_qr_scan"}, "fusion_lon": 0.0}, {"lat": 38.92182066666667, "is_disabled": 0, "type": "electric_scooter", "lon": -77.04711366666666, "bike_id": "713105bd6ba9d9667419939891501897", "fusion_lat": 0.0, "name": "713105bd6ba9d9667419939891501897", "is_reserved": 0, "rental_uris": {"android": "https://dc.lft.to/lastmile_qr_scan", "ios": "https://dc.lft.to/lastmile_qr_scan"}, "fusion_lon": 0.0}, {"lat": 38.88577983333333, "is_disabled": 0, "type": "electric_scooter", "lon": -76.91907716666667, "bike_id": "6a1a9bc49fd480c978331c8f5f45d20b", "fusion_lat": 0.0, "name": "6a1a9bc49fd480c978331c8f5f45d20b", "is_reserved": 0, "rental_uris": {"android": "https://dc.lft.to/lastmile_qr_scan", "ios": "https://dc.lft.to/lastmile_qr_scan"}, "fusion_lon": 0.0}, {"lat": 38.92245833333333, "is_disabled": 0, "type": "electric_scooter", "lon": -77.03085583333333, "bike_id": "4b669b673c2e61d7e90de93914f8bf02", "fusion_lat": 0.0, "name": "4b669b673c2e61d7e90de93914f8bf02", "is_reserved": 0, "rental_uris": {"android": "https://dc.lft.to/lastmile_qr_scan", "ios": "https://dc.lft.to/lastmile_qr_scan"}, "fusion_lon": 0.0}, {"lat": 38.92738166666667, "is_disabled": 0, "type": "electric_scooter", "lon": -77.02596433333333, "bike_id": "ea2580efcb818e72015f570a4a0020cd", "fusion_lat": 0.0, "name": "ea2580efcb818e72015f570a4a0020cd", "is_reserved": 0, "rental_uris": {"android": "https://dc.lft.to/lastmile_qr_scan", "ios": "https://dc.lft.to/lastmile_qr_scan"}, "fusion_lon": 0.0}, {"lat": 38.92092016666667, "is_disabled": 0, "type": "electric_scooter", "lon": -77.04197133333334, "bike_id": "6c782e13427d1b22da0d6574390d740f", "fusion_lat": 0.0, "name": "6c782e13427d1b22da0d6574390d740f", "is_reserved": 0, "rental_uris": {"android": "https://dc.lft.to/lastmile_qr_scan", "ios": "https://dc.lft.to/lastmile_qr_scan"}, "fusion_lon": 0.0}, {"lat": 38.913971833333335, "is_disabled": 0, "type": "electric_scooter", "lon": -77.0260335, "bike_id": "bb330c757dd93c3e387757dfc21f243f", "fusion_lat": 0.0, "name": "bb330c757dd93c3e387757dfc21f243f", "is_reserved": 0, "rental_uris": {"android": "https://dc.lft.to/lastmile_qr_scan", "ios": "https://dc.lft.to/lastmile_qr_scan"}, "fusion_lon": 0.0}, {"lat": 38.898410166666665, "is_disabled": 0, "type": "electric_scooter", "lon": -76.98181683333334, "bike_id": "4fe72b1bb65123111ea43c30e24ad4c0", "fusion_lat": 0.0, "name": "4fe72b1bb65123111ea43c30e24ad4c0", "is_reserved": 0, "rental_uris": {"android": "https://dc.lft.to/lastmile_qr_scan", "ios": "https://dc.lft.to/lastmile_qr_scan"}, "fusion_lon": 0.0}, {"lat": 38.925984, "is_disabled": 0, "type": "electric_scooter", "lon": -77.05695983333334, "bike_id": "494d2b1e093f3c412664e2445d12023a", "fusion_lat": 0.0, "name": "494d2b1e093f3c412664e2445d12023a", "is_reserved": 0, "rental_uris": {"android": "https://dc.lft.to/lastmile_qr_scan", "ios": "https://dc.lft.to/lastmile_qr_scan"}, "fusion_lon": 0.0}, {"lat": 38.909821, "is_disabled": 0, "type": "electric_scooter", "lon": -77.02720516666666, "bike_id": "be89ab0b336484ade4ec9df4099da9d1", "fusion_lat": 0.0, "name": "be89ab0b336484ade4ec9df4099da9d1", "is_reserved": 0, "rental_uris": {"android": "https://dc.lft.to/lastmile_qr_scan", "ios": "https://dc.lft.to/lastmile_qr_scan"}, "fusion_lon": 0.0}, {"lat": 38.89989333333333, "is_disabled": 0, "type": "electric_scooter", "lon": -77.05258, "bike_id": "94373648f9ddd051b586120ec1c50808", "fusion_lat": 0.0, "name": "94373648f9ddd051b586120ec1c50808", "is_reserved": 0, "rental_uris": {"android": "https://dc.lft.to/lastmile_qr_scan", "ios": "https://dc.lft.to/lastmile_qr_scan"}, "fusion_lon": 0.0}, {"lat": 38.90415383333333, "is_disabled": 0, "type": "electric_scooter", "lon": -76.99284166666666, "bike_id": "08a0da399009cecd6b98d2e059c418a4", "fusion_lat": 0.0, "name": "08a0da399009cecd6b98d2e059c418a4", "is_reserved": 0, "rental_uris": {"android": "https://dc.lft.to/lastmile_qr_scan", "ios": "https://dc.lft.to/lastmile_qr_scan"}, "fusion_lon": 0.0}, {"lat": 38.993234, "is_disabled": 0, "type": "electric_bike", "lon": -77.03291383333334, "bike_id": "172fea2196674a6ea652d0eed6d4cd7a", "fusion_lat": 0.0, "name": "172fea2196674a6ea652d0eed6d4cd7a", "is_reserved": 0, "rental_uris": {"android": "https://dc.lft.to/lastmile_qr_scan", "ios": "https://dc.lft.to/lastmile_qr_scan"}, "fusion_lon": 0.0}, {"lat": 38.832128, "is_disabled": 0, "type": "electric_bike", "lon": -76.946209, "bike_id": "28f52beed2c3ae8dd0a65d96411535b6", "fusion_lat": 0.0, "name": "28f52beed2c3ae8dd0a65d96411535b6", "is_reserved": 0, "rental_uris": {"android": "https://dc.lft.to/lastmile_qr_scan", "ios": "https://dc.lft.to/lastmile_qr_scan"}, "fusion_lon": 0.0}, {"lat": 38.873371166666665, "is_disabled": 0, "type": "electric_bike", "lon": -77.01857633333333, "bike_id": "8c987aeb488ad0b50e0825b0b1564408", "fusion_lat": 0.0, "name": "8c987aeb488ad0b50e0825b0b1564408", "is_reserved": 0, "rental_uris": {"android": "https://dc.lft.to/lastmile_qr_scan", "ios": "https://dc.lft.to/lastmile_qr_scan"}, "fusion_lon": 0.0}, {"lat": 38.88768133333333, "is_disabled": 0, "type": "electric_scooter", "lon": -77.04354733333334, "bike_id": "8fd7e49c422f1dde161d438dc5ed0681", "fusion_lat": 0.0, "name": "8fd7e49c422f1dde161d438dc5ed0681", "is_reserved": 0, "rental_uris": {"android": "https://dc.lft.to/lastmile_qr_scan", "ios": "https://dc.lft.to/lastmile_qr_scan"}, "fusion_lon": 0.0}, {"lat": 38.9000185, "is_disabled": 0, "type": "electric_scooter", "lon": -77.021225, "bike_id": "11bdc6222d5485ea27bee271efadcef9", "fusion_lat": 0.0, "name": "11bdc6222d5485ea27bee271efadcef9", "is_reserved": 0, "rental_uris": {"android": "https://dc.lft.to/lastmile_qr_scan", "ios": "https://dc.lft.to/lastmile_qr_scan"}, "fusion_lon": 0.0}, {"lat": 38.902586, "is_disabled": 0, "type": "electric_scooter", "lon": -76.98695866666667, "bike_id": "b142ee0b1e132666c7342dc693b7f205", "fusion_lat": 0.0, "name": "b142ee0b1e132666c7342dc693b7f205", "is_reserved": 0, "rental_uris": {"android": "https://dc.lft.to/lastmile_qr_scan", "ios": "https://dc.lft.to/lastmile_qr_scan"}, "fusion_lon": 0.0}, {"lat": 38.91251883333334, "is_disabled": 0, "type": "electric_scooter", "lon": -77.04671433333333, "bike_id": "9e628dc86f43380cacd58f6094c54b7a", "fusion_lat": 0.0, "name": "9e628dc86f43380cacd58f6094c54b7a", "is_reserved": 0, "rental_uris": {"android": "https://dc.lft.to/lastmile_qr_scan", "ios": "https://dc.lft.to/lastmile_qr_scan"}, "fusion_lon": 0.0}, {"lat": 38.872909, "is_disabled": 0, "type": "electric_scooter", "lon": -77.00924933333333, "bike_id": "27f1cb934e5786f7801d103b01623bbe", "fusion_lat": 0.0, "name": "27f1cb934e5786f7801d103b01623bbe", "is_reserved": 0, "rental_uris": {"android": "https://dc.lft.to/lastmile_qr_scan", "ios": "https://dc.lft.to/lastmile_qr_scan"}, "fusion_lon": 0.0}, {"lat": 38.90343416666666, "is_disabled": 0, "type": "electric_scooter", "lon": -77.04443483333333, "bike_id": "2367190a69fa18b4fa086909357d3517", "fusion_lat": 0.0, "name": "2367190a69fa18b4fa086909357d3517", "is_reserved": 0, "rental_uris": {"android": "https://dc.lft.to/lastmile_qr_scan", "ios": "https://dc.lft.to/lastmile_qr_scan"}, "fusion_lon": 0.0}, {"lat": 38.916957333333336, "is_disabled": 0, "type": "electric_scooter", "lon": -77.04600733333334, "bike_id": "c529cc33fba428199946f77c2693fafa", "fusion_lat": 0.0, "name": "c529cc33fba428199946f77c2693fafa", "is_reserved": 0, "rental_uris": {"android": "https://dc.lft.to/lastmile_qr_scan", "ios": "https://dc.lft.to/lastmile_qr_scan"}, "fusion_lon": 0.0}, {"lat": 38.90130933333333, "is_disabled": 0, "type": "electric_scooter", "lon": -77.0333475, "bike_id": "8f821e4c5a2dfaf017098073241253d5", "fusion_lat": 0.0, "name": "8f821e4c5a2dfaf017098073241253d5", "is_reserved": 0, "rental_uris": {"android": "https://dc.lft.to/lastmile_qr_scan", "ios": "https://dc.lft.to/lastmile_qr_scan"}, "fusion_lon": 0.0}, {"lat": 38.9229995, "is_disabled": 0, "type": "electric_scooter", "lon": -77.02332733333333, "bike_id": "28984389801bd796c67c0fb1e0a237a8", "fusion_lat": 0.0, "name": "28984389801bd796c67c0fb1e0a237a8", "is_reserved": 0, "rental_uris": {"android": "https://dc.lft.to/lastmile_qr_scan", "ios": "https://dc.lft.to/lastmile_qr_scan"}, "fusion_lon": 0.0}, {"lat": 38.90109066666667, "is_disabled": 0, "type": "electric_scooter", "lon": -77.05900233333334, "bike_id": "544894c95aec01423910bbea74e1d162", "fusion_lat": 0.0, "name": "544894c95aec01423910bbea74e1d162", "is_reserved": 0, "rental_uris": {"android": "https://dc.lft.to/lastmile_qr_scan", "ios": "https://dc.lft.to/lastmile_qr_scan"}, "fusion_lon": 0.0}, {"lat": 38.93981866666667, "is_disabled": 0, "type": "electric_scooter", "lon": -77.02630833333333, "bike_id": "7a845bf185dd2aca04d5c59ebf9303af", "fusion_lat": 0.0, "name": "7a845bf185dd2aca04d5c59ebf9303af", "is_reserved": 0, "rental_uris": {"android": "https://dc.lft.to/lastmile_qr_scan", "ios": "https://dc.lft.to/lastmile_qr_scan"}, "fusion_lon": 0.0}, {"lat": 38.90735, "is_disabled": 0, "type": "electric_scooter", "lon": -77.02946833333333, "bike_id": "5e661be48c8fffc4e0f8e3e6fa573be7", "fusion_lat": 0.0, "name": "5e661be48c8fffc4e0f8e3e6fa573be7", "is_reserved": 0, "rental_uris": {"android": "https://dc.lft.to/lastmile_qr_scan", "ios": "https://dc.lft.to/lastmile_qr_scan"}, "fusion_lon": 0.0}, {"lat": 38.89886633333333, "is_disabled": 0, "type": "electric_scooter", "lon": -77.07231283333333, "bike_id": "11b6822f457b4d7e63a05716753e05fe", "fusion_lat": 0.0, "name": "11b6822f457b4d7e63a05716753e05fe", "is_reserved": 0, "rental_uris": {"android": "https://dc.lft.to/lastmile_qr_scan", "ios": "https://dc.lft.to/lastmile_qr_scan"}, "fusion_lon": 0.0}, {"lat": 38.9329495, "is_disabled": 0, "type": "electric_scooter", "lon": -77.02198183333333, "bike_id": "28b57b02259ad844ee668aa0e149dbf9", "fusion_lat": 0.0, "name": "28b57b02259ad844ee668aa0e149dbf9", "is_reserved": 0, "rental_uris": {"android": "https://dc.lft.to/lastmile_qr_scan", "ios": "https://dc.lft.to/lastmile_qr_scan"}, "fusion_lon": 0.0}, {"lat": 38.952619, "is_disabled": 0, "type": "electric_scooter", "lon": -77.06978466666666, "bike_id": "4c313ec5521ee82b39114bd5f91decf2", "fusion_lat": 0.0, "name": "4c313ec5521ee82b39114bd5f91decf2", "is_reserved": 0, "rental_uris": {"android": "https://dc.lft.to/lastmile_qr_scan", "ios": "https://dc.lft.to/lastmile_qr_scan"}, "fusion_lon": 0.0}, {"lat": 38.91684716666666, "is_disabled": 0, "type": "electric_scooter", "lon": -77.02953416666666, "bike_id": "bad0f0b1eb84f56742c544e30a525dde", "fusion_lat": 0.0, "name": "bad0f0b1eb84f56742c544e30a525dde", "is_reserved": 0, "rental_uris": {"android": "https://dc.lft.to/lastmile_qr_scan", "ios": "https://dc.lft.to/lastmile_qr_scan"}, "fusion_lon": 0.0}, {"lat": 38.906753333333334, "is_disabled": 0, "type": "electric_scooter", "lon": -77.03644916666667, "bike_id": "77f2d2f28ad633ea7370a56531303bff", "fusion_lat": 0.0, "name": "77f2d2f28ad633ea7370a56531303bff", "is_reserved": 0, "rental_uris": {"android": "https://dc.lft.to/lastmile_qr_scan", "ios": "https://dc.lft.to/lastmile_qr_scan"}, "fusion_lon": 0.0}, {"lat": 38.9161535, "is_disabled": 0, "type": "electric_scooter", "lon": -77.036416, "bike_id": "aeef71259652b3c19fc557f348ea42c3", "fusion_lat": 0.0, "name": "aeef71259652b3c19fc557f348ea42c3", "is_reserved": 0, "rental_uris": {"android": "https://dc.lft.to/lastmile_qr_scan", "ios": "https://dc.lft.to/lastmile_qr_scan"}, "fusion_lon": 0.0}, {"lat": 38.923793333333336, "is_disabled": 0, "type": "electric_scooter", "lon": -77.05752583333333, "bike_id": "f01f1a08e0882b144dcc74f578d95790", "fusion_lat": 0.0, "name": "f01f1a08e0882b144dcc74f578d95790", "is_reserved": 0, "rental_uris": {"android": "https://dc.lft.to/lastmile_qr_scan", "ios": "https://dc.lft.to/lastmile_qr_scan"}, "fusion_lon": 0.0}, {"lat": 38.91564833333333, "is_disabled": 0, "type": "electric_scooter", "lon": -77.03839266666667, "bike_id": "733b67ed7bf2a084f5b72b532adc7c08", "fusion_lat": 0.0, "name": "733b67ed7bf2a084f5b72b532adc7c08", "is_reserved": 0, "rental_uris": {"android": "https://dc.lft.to/lastmile_qr_scan", "ios": "https://dc.lft.to/lastmile_qr_scan"}, "fusion_lon": 0.0}, {"lat": 38.954939833333334, "is_disabled": 0, "type": "electric_scooter", "lon": -77.06559166666666, "bike_id": "2296849b4c2d2f2fc1eeff2cce0e7dea", "fusion_lat": 0.0, "name": "2296849b4c2d2f2fc1eeff2cce0e7dea", "is_reserved": 0, "rental_uris": {"android": "https://dc.lft.to/lastmile_qr_scan", "ios": "https://dc.lft.to/lastmile_qr_scan"}, "fusion_lon": 0.0}, {"lat": 38.9120035, "is_disabled": 0, "type": "electric_scooter", "lon": -77.0146355, "bike_id": "65f3e01cb7361718876d3f3fd6fb123e", "fusion_lat": 0.0, "name": "65f3e01cb7361718876d3f3fd6fb123e", "is_reserved": 0, "rental_uris": {"android": "https://dc.lft.to/lastmile_qr_scan", "ios": "https://dc.lft.to/lastmile_qr_scan"}, "fusion_lon": 0.0}, {"lat": 38.9317635, "is_disabled": 0, "type": "electric_scooter", "lon": -77.02817566666667, "bike_id": "3e8a84b8742ad6995ca0e0237cfd4083", "fusion_lat": 0.0, "name": "3e8a84b8742ad6995ca0e0237cfd4083", "is_reserved": 0, "rental_uris": {"android": "https://dc.lft.to/lastmile_qr_scan", "ios": "https://dc.lft.to/lastmile_qr_scan"}, "fusion_lon": 0.0}, {"lat": 38.905877, "is_disabled": 0, "type": "electric_scooter", "lon": -77.02934166666667, "bike_id": "15959b86bb6065070b183ac47b45b3d2", "fusion_lat": 0.0, "name": "15959b86bb6065070b183ac47b45b3d2", "is_reserved": 0, "rental_uris": {"android": "https://dc.lft.to/lastmile_qr_scan", "ios": "https://dc.lft.to/lastmile_qr_scan"}, "fusion_lon": 0.0}, {"lat": 38.90377483333333, "is_disabled": 0, "type": "electric_scooter", "lon": -77.04331616666667, "bike_id": "b4a10a59de287320cab3677a96005fe9", "fusion_lat": 0.0, "name": "b4a10a59de287320cab3677a96005fe9", "is_reserved": 0, "rental_uris": {"android": "https://dc.lft.to/lastmile_qr_scan", "ios": "https://dc.lft.to/lastmile_qr_scan"}, "fusion_lon": 0.0}, {"lat": 38.89712333333333, "is_disabled": 0, "type": "electric_scooter", "lon": -77.00794133333333, "bike_id": "8690223985631886e14c4a660f4fe0d2", "fusion_lat": 0.0, "name": "8690223985631886e14c4a660f4fe0d2", "is_reserved": 0, "rental_uris": {"android": "https://dc.lft.to/lastmile_qr_scan", "ios": "https://dc.lft.to/lastmile_qr_scan"}, "fusion_lon": 0.0}, {"lat": 38.91046933333333, "is_disabled": 0, "type": "electric_scooter", "lon": -77.01508983333333, "bike_id": "2b052f4da74091129399c1fd6ec615d3", "fusion_lat": 0.0, "name": "2b052f4da74091129399c1fd6ec615d3", "is_reserved": 0, "rental_uris": {"android": "https://dc.lft.to/lastmile_qr_scan", "ios": "https://dc.lft.to/lastmile_qr_scan"}, "fusion_lon": 0.0}, {"lat": 38.869048666666664, "is_disabled": 0, "type": "electric_bike", "lon": -77.13179083333333, "bike_id": "d270407af28db6849deed4550fab5ec0", "fusion_lat": 0.0, "name": "d270407af28db6849deed4550fab5ec0", "is_reserved": 0, "rental_uris": {"android": "https://dc.lft.to/lastmile_qr_scan", "ios": "https://dc.lft.to/lastmile_qr_scan"}, "fusion_lon": 0.0}, {"lat": 38.93416666666667, "is_disabled": 0, "type": "electric_scooter", "lon": -77.05781633333334, "bike_id": "af9686a07c5c33eced4689431a030da9", "fusion_lat": 0.0, "name": "af9686a07c5c33eced4689431a030da9", "is_reserved": 0, "rental_uris": {"android": "https://dc.lft.to/lastmile_qr_scan", "ios": "https://dc.lft.to/lastmile_qr_scan"}, "fusion_lon": 0.0}, {"lat": 38.907652166666665, "is_disabled": 0, "type": "electric_scooter", "lon": -77.04259883333333, "bike_id": "efdffbae7b4aa3bc58829c82deb2ac6c", "fusion_lat": 0.0, "name": "efdffbae7b4aa3bc58829c82deb2ac6c", "is_reserved": 0, "rental_uris": {"android": "https://dc.lft.to/lastmile_qr_scan", "ios": "https://dc.lft.to/lastmile_qr_scan"}, "fusion_lon": 0.0}, {"lat": 38.9220505, "is_disabled": 0, "type": "electric_scooter", "lon": -77.04006483333333, "bike_id": "8d93ad92c8dec6acb066220a57660043", "fusion_lat": 0.0, "name": "8d93ad92c8dec6acb066220a57660043", "is_reserved": 0, "rental_uris": {"android": "https://dc.lft.to/lastmile_qr_scan", "ios": "https://dc.lft.to/lastmile_qr_scan"}, "fusion_lon": 0.0}, {"lat": 38.9055945, "is_disabled": 0, "type": "electric_scooter", "lon": -77.03412816666666, "bike_id": "01d1a1dcd411c84eda6e4fdfcab2b510", "fusion_lat": 0.0, "name": "01d1a1dcd411c84eda6e4fdfcab2b510", "is_reserved": 0, "rental_uris": {"android": "https://dc.lft.to/lastmile_qr_scan", "ios": "https://dc.lft.to/lastmile_qr_scan"}, "fusion_lon": 0.0}, {"lat": 38.95410066666667, "is_disabled": 0, "type": "electric_scooter", "lon": -77.03631233333333, "bike_id": "bcc3666660f0ff21d06382baf3a87cdd", "fusion_lat": 0.0, "name": "bcc3666660f0ff21d06382baf3a87cdd", "is_reserved": 0, "rental_uris": {"android": "https://dc.lft.to/lastmile_qr_scan", "ios": "https://dc.lft.to/lastmile_qr_scan"}, "fusion_lon": 0.0}, {"lat": 38.885963333333336, "is_disabled": 0, "type": "electric_scooter", "lon": -77.02197133333334, "bike_id": "3259db75549c295a4890e1779fe47058", "fusion_lat": 0.0, "name": "3259db75549c295a4890e1779fe47058", "is_reserved": 0, "rental_uris": {"android": "https://dc.lft.to/lastmile_qr_scan", "ios": "https://dc.lft.to/lastmile_qr_scan"}, "fusion_lon": 0.0}, {"lat": 38.8403525, "is_disabled": 0, "type": "electric_bike", "lon": -76.97624166666667, "bike_id": "ba50ec7f9abd0a9d71627944294d5939", "fusion_lat": 0.0, "name": "ba50ec7f9abd0a9d71627944294d5939", "is_reserved": 0, "rental_uris": {"android": "https://dc.lft.to/lastmile_qr_scan", "ios": "https://dc.lft.to/lastmile_qr_scan"}, "fusion_lon": 0.0}, {"lat": 38.916018, "is_disabled": 0, "type": "electric_scooter", "lon": -77.02134533333333, "bike_id": "5fb7ba7cd9d009d758281119889a82e7", "fusion_lat": 0.0, "name": "5fb7ba7cd9d009d758281119889a82e7", "is_reserved": 0, "rental_uris": {"android": "https://dc.lft.to/lastmile_qr_scan", "ios": "https://dc.lft.to/lastmile_qr_scan"}, "fusion_lon": 0.0}, {"lat": 38.917820666666664, "is_disabled": 0, "type": "electric_scooter", "lon": -77.02312533333334, "bike_id": "719cc1655921eb1a24ced4ef82311300", "fusion_lat": 0.0, "name": "719cc1655921eb1a24ced4ef82311300", "is_reserved": 0, "rental_uris": {"android": "https://dc.lft.to/lastmile_qr_scan", "ios": "https://dc.lft.to/lastmile_qr_scan"}, "fusion_lon": 0.0}, {"lat": 38.89039533333333, "is_disabled": 0, "type": "electric_scooter", "lon": -76.95139583333334, "bike_id": "5c5d454d8a56f51d44ed20babd001546", "fusion_lat": 0.0, "name": "5c5d454d8a56f51d44ed20babd001546", "is_reserved": 0, "rental_uris": {"android": "https://dc.lft.to/lastmile_qr_scan", "ios": "https://dc.lft.to/lastmile_qr_scan"}, "fusion_lon": 0.0}, {"lat": 38.90654983333334, "is_disabled": 0, "type": "electric_scooter", "lon": -77.0258645, "bike_id": "8065180b44c9fe39e1e8f7730a35d017", "fusion_lat": 0.0, "name": "8065180b44c9fe39e1e8f7730a35d017", "is_reserved": 0, "rental_uris": {"android": "https://dc.lft.to/lastmile_qr_scan", "ios": "https://dc.lft.to/lastmile_qr_scan"}, "fusion_lon": 0.0}, {"lat": 38.9313655, "is_disabled": 0, "type": "electric_scooter", "lon": -77.0325645, "bike_id": "c3dd2efc5e43eccc9b96d48058a3b81c", "fusion_lat": 0.0, "name": "c3dd2efc5e43eccc9b96d48058a3b81c", "is_reserved": 0, "rental_uris": {"android": "https://dc.lft.to/lastmile_qr_scan", "ios": "https://dc.lft.to/lastmile_qr_scan"}, "fusion_lon": 0.0}, {"lat": 38.9220455, "is_disabled": 0, "type": "electric_scooter", "lon": -76.956632, "bike_id": "e6ab94e6cfaac7698a0481d61ccdcef4", "fusion_lat": 0.0, "name": "e6ab94e6cfaac7698a0481d61ccdcef4", "is_reserved": 0, "rental_uris": {"android": "https://dc.lft.to/lastmile_qr_scan", "ios": "https://dc.lft.to/lastmile_qr_scan"}, "fusion_lon": 0.0}, {"lat": 38.903115166666666, "is_disabled": 0, "type": "electric_scooter", "lon": -77.028807, "bike_id": "ad9df3f27eeda2d397960de670c8c3d9", "fusion_lat": 0.0, "name": "ad9df3f27eeda2d397960de670c8c3d9", "is_reserved": 0, "rental_uris": {"android": "https://dc.lft.to/lastmile_qr_scan", "ios": "https://dc.lft.to/lastmile_qr_scan"}, "fusion_lon": 0.0}, {"lat": 38.9022815, "is_disabled": 0, "type": "electric_scooter", "lon": -77.0432855, "bike_id": "ad602b20c62e0822594fd8f77bffd4b7", "fusion_lat": 0.0, "name": "ad602b20c62e0822594fd8f77bffd4b7", "is_reserved": 0, "rental_uris": {"android": "https://dc.lft.to/lastmile_qr_scan", "ios": "https://dc.lft.to/lastmile_qr_scan"}, "fusion_lon": 0.0}, {"lat": 38.89970866666667, "is_disabled": 0, "type": "electric_scooter", "lon": -77.02301466666667, "bike_id": "cc419533bb12915b6c188ff2bfbfc34b", "fusion_lat": 0.0, "name": "cc419533bb12915b6c188ff2bfbfc34b", "is_reserved": 0, "rental_uris": {"android": "https://dc.lft.to/lastmile_qr_scan", "ios": "https://dc.lft.to/lastmile_qr_scan"}, "fusion_lon": 0.0}, {"lat": 38.872141666666664, "is_disabled": 0, "type": "electric_bike", "lon": -77.0152665, "bike_id": "516cf61459504643770c5ae02fc892e1", "fusion_lat": 0.0, "name": "516cf61459504643770c5ae02fc892e1", "is_reserved": 0, "rental_uris": {"android": "https://dc.lft.to/lastmile_qr_scan", "ios": "https://dc.lft.to/lastmile_qr_scan"}, "fusion_lon": 0.0}, {"lat": 38.9285565, "is_disabled": 0, "type": "electric_bike", "lon": -77.22204333333333, "bike_id": "2b44fc83653f025382dc04ced565bd73", "fusion_lat": 0.0, "name": "2b44fc83653f025382dc04ced565bd73", "is_reserved": 0, "rental_uris": {"android": "https://dc.lft.to/lastmile_qr_scan", "ios": "https://dc.lft.to/lastmile_qr_scan"}, "fusion_lon": 0.0}, {"lat": 38.92254466666667, "is_disabled": 0, "type": "electric_scooter", "lon": -77.0428425, "bike_id": "fb9117b755754304c8862bd61fa426bf", "fusion_lat": 0.0, "name": "fb9117b755754304c8862bd61fa426bf", "is_reserved": 0, "rental_uris": {"android": "https://dc.lft.to/lastmile_qr_scan", "ios": "https://dc.lft.to/lastmile_qr_scan"}, "fusion_lon": 0.0}, {"lat": 39.08856216666667, "is_disabled": 0, "type": "electric_bike", "lon": -77.178374, "bike_id": "5dad90f9b488a3722cf719e5487c224f", "fusion_lat": 0.0, "name": "5dad90f9b488a3722cf719e5487c224f", "is_reserved": 0, "rental_uris": {"android": "https://dc.lft.to/lastmile_qr_scan", "ios": "https://dc.lft.to/lastmile_qr_scan"}, "fusion_lon": 0.0}, {"lat": 38.91775633333334, "is_disabled": 0, "type": "electric_scooter", "lon": -77.02890566666666, "bike_id": "2b492c0f2acd7f381e4fc2ff9590ea67", "fusion_lat": 0.0, "name": "2b492c0f2acd7f381e4fc2ff9590ea67", "is_reserved": 0, "rental_uris": {"android": "https://dc.lft.to/lastmile_qr_scan", "ios": "https://dc.lft.to/lastmile_qr_scan"}, "fusion_lon": 0.0}, {"lat": 38.9655505, "is_disabled": 0, "type": "electric_bike", "lon": -77.020349, "bike_id": "174bee21f32d2062119c9cc01c29a48e", "fusion_lat": 0.0, "name": "174bee21f32d2062119c9cc01c29a48e", "is_reserved": 0, "rental_uris": {"android": "https://dc.lft.to/lastmile_qr_scan", "ios": "https://dc.lft.to/lastmile_qr_scan"}, "fusion_lon": 0.0}, {"lat": 38.90172733333333, "is_disabled": 0, "type": "electric_scooter", "lon": -77.04991166666667, "bike_id": "2d35dbb6e558edfc43afb419829b1d97", "fusion_lat": 0.0, "name": "2d35dbb6e558edfc43afb419829b1d97", "is_reserved": 0, "rental_uris": {"android": "https://dc.lft.to/lastmile_qr_scan", "ios": "https://dc.lft.to/lastmile_qr_scan"}, "fusion_lon": 0.0}, {"lat": 38.88505983333334, "is_disabled": 0, "type": "electric_scooter", "lon": -77.005659, "bike_id": "21767c3bcae43ed4029ac6973e5e12d3", "fusion_lat": 0.0, "name": "21767c3bcae43ed4029ac6973e5e12d3", "is_reserved": 0, "rental_uris": {"android": "https://dc.lft.to/lastmile_qr_scan", "ios": "https://dc.lft.to/lastmile_qr_scan"}, "fusion_lon": 0.0}, {"lat": 38.865772166666666, "is_disabled": 0, "type": "electric_bike", "lon": -76.97297083333333, "bike_id": "fec744d7a8506c53992104a1b088d19a", "fusion_lat": 0.0, "name": "fec744d7a8506c53992104a1b088d19a", "is_reserved": 0, "rental_uris": {"android": "https://dc.lft.to/lastmile_qr_scan", "ios": "https://dc.lft.to/lastmile_qr_scan"}, "fusion_lon": 0.0}, {"lat": 38.91774933333333, "is_disabled": 0, "type": "electric_scooter", "lon": -77.04415816666666, "bike_id": "725090e3c6110500862381cc5492cd56", "fusion_lat": 0.0, "name": "725090e3c6110500862381cc5492cd56", "is_reserved": 0, "rental_uris": {"android": "https://dc.lft.to/lastmile_qr_scan", "ios": "https://dc.lft.to/lastmile_qr_scan"}, "fusion_lon": 0.0}, {"lat": 38.89003616666667, "is_disabled": 0, "type": "electric_scooter", "lon": -77.0489515, "bike_id": "03dc8e3f228132ab79d1b0cd5251577e", "fusion_lat": 0.0, "name": "03dc8e3f228132ab79d1b0cd5251577e", "is_reserved": 0, "rental_uris": {"android": "https://dc.lft.to/lastmile_qr_scan", "ios": "https://dc.lft.to/lastmile_qr_scan"}, "fusion_lon": 0.0}, {"lat": 38.8638025, "is_disabled": 0, "type": "electric_scooter", "lon": -76.9924505, "bike_id": "81a69a9cb9024b2a0998706941be02bb", "fusion_lat": 0.0, "name": "81a69a9cb9024b2a0998706941be02bb", "is_reserved": 0, "rental_uris": {"android": "https://dc.lft.to/lastmile_qr_scan", "ios": "https://dc.lft.to/lastmile_qr_scan"}, "fusion_lon": 0.0}, {"lat": 38.97836783333333, "is_disabled": 0, "type": "electric_bike", "lon": -77.02653633333334, "bike_id": "01c866a9b0bf8f590f896178c2a70eef", "fusion_lat": 0.0, "name": "01c866a9b0bf8f590f896178c2a70eef", "is_reserved": 0, "rental_uris": {"android": "https://dc.lft.to/lastmile_qr_scan", "ios": "https://dc.lft.to/lastmile_qr_scan"}, "fusion_lon": 0.0}, {"lat": 38.923556, "is_disabled": 0, "type": "electric_scooter", "lon": -77.0439035, "bike_id": "ffc22aef9da12f1ffe0f8657c49a5f0d", "fusion_lat": 0.0, "name": "ffc22aef9da12f1ffe0f8657c49a5f0d", "is_reserved": 0, "rental_uris": {"android": "https://dc.lft.to/lastmile_qr_scan", "ios": "https://dc.lft.to/lastmile_qr_scan"}, "fusion_lon": 0.0}, {"lat": 38.92790983333333, "is_disabled": 0, "type": "electric_bike", "lon": -76.97222566666667, "bike_id": "eff8fce468cb67258b4ceadec9338c60", "fusion_lat": 0.0, "name": "eff8fce468cb67258b4ceadec9338c60", "is_reserved": 0, "rental_uris": {"android": "https://dc.lft.to/lastmile_qr_scan", "ios": "https://dc.lft.to/lastmile_qr_scan"}, "fusion_lon": 0.0}, {"lat": 38.9430375, "is_disabled": 0, "type": "electric_scooter", "lon": -77.0592925, "bike_id": "4d47b6c7e48c78001ba35165ddfce886", "fusion_lat": 0.0, "name": "4d47b6c7e48c78001ba35165ddfce886", "is_reserved": 0, "rental_uris": {"android": "https://dc.lft.to/lastmile_qr_scan", "ios": "https://dc.lft.to/lastmile_qr_scan"}, "fusion_lon": 0.0}, {"lat": 38.85528083333333, "is_disabled": 0, "type": "electric_bike", "lon": -77.12048616666667, "bike_id": "df937b12c0f13d674a35fd701d45e781", "fusion_lat": 0.0, "name": "df937b12c0f13d674a35fd701d45e781", "is_reserved": 0, "rental_uris": {"android": "https://dc.lft.to/lastmile_qr_scan", "ios": "https://dc.lft.to/lastmile_qr_scan"}, "fusion_lon": 0.0}, {"lat": 38.92446983333333, "is_disabled": 0, "type": "electric_scooter", "lon": -77.0203275, "bike_id": "3e912e0e849c6a82ec07751b29ba958b", "fusion_lat": 0.0, "name": "3e912e0e849c6a82ec07751b29ba958b", "is_reserved": 0, "rental_uris": {"android": "https://dc.lft.to/lastmile_qr_scan", "ios": "https://dc.lft.to/lastmile_qr_scan"}, "fusion_lon": 0.0}, {"lat": 38.854592, "is_disabled": 0, "type": "electric_scooter", "lon": -76.97238466666667, "bike_id": "e660a7d547694b022de3afcfcf1670eb", "fusion_lat": 0.0, "name": "e660a7d547694b022de3afcfcf1670eb", "is_reserved": 0, "rental_uris": {"android": "https://dc.lft.to/lastmile_qr_scan", "ios": "https://dc.lft.to/lastmile_qr_scan"}, "fusion_lon": 0.0}, {"lat": 38.890867, "is_disabled": 0, "type": "electric_scooter", "lon": -76.95270983333333, "bike_id": "193bdb8832fefce38f14a6d7112b5aef", "fusion_lat": 0.0, "name": "193bdb8832fefce38f14a6d7112b5aef", "is_reserved": 0, "rental_uris": {"android": "https://dc.lft.to/lastmile_qr_scan", "ios": "https://dc.lft.to/lastmile_qr_scan"}, "fusion_lon": 0.0}, {"lat": 38.90531216666667, "is_disabled": 0, "type": "electric_scooter", "lon": -77.00576733333334, "bike_id": "b68819b1141108f72a816ee46ca4140c", "fusion_lat": 0.0, "name": "b68819b1141108f72a816ee46ca4140c", "is_reserved": 0, "rental_uris": {"android": "https://dc.lft.to/lastmile_qr_scan", "ios": "https://dc.lft.to/lastmile_qr_scan"}, "fusion_lon": 0.0}, {"lat": 38.907184666666666, "is_disabled": 0, "type": "electric_scooter", "lon": -77.0293645, "bike_id": "2a5d565d8eca98bb23976f84ccb8836f", "fusion_lat": 0.0, "name": "2a5d565d8eca98bb23976f84ccb8836f", "is_reserved": 0, "rental_uris": {"android": "https://dc.lft.to/lastmile_qr_scan", "ios": "https://dc.lft.to/lastmile_qr_scan"}, "fusion_lon": 0.0}, {"lat": 38.918394166666666, "is_disabled": 0, "type": "electric_scooter", "lon": -77.03531466666666, "bike_id": "c10e4b654c2fd9974a9b462565d82401", "fusion_lat": 0.0, "name": "c10e4b654c2fd9974a9b462565d82401", "is_reserved": 0, "rental_uris": {"android": "https://dc.lft.to/lastmile_qr_scan", "ios": "https://dc.lft.to/lastmile_qr_scan"}, "fusion_lon": 0.0}, {"lat": 38.919256, "is_disabled": 0, "type": "electric_scooter", "lon": -77.03181583333334, "bike_id": "e258000e5e959ce0b24546794156fd52", "fusion_lat": 0.0, "name": "e258000e5e959ce0b24546794156fd52", "is_reserved": 0, "rental_uris": {"android": "https://dc.lft.to/lastmile_qr_scan", "ios": "https://dc.lft.to/lastmile_qr_scan"}, "fusion_lon": 0.0}, {"lat": 38.95214266666667, "is_disabled": 0, "type": "electric_scooter", "lon": -77.0860455, "bike_id": "0d8bf580c8d8c4d31b324816fde8cb64", "fusion_lat": 0.0, "name": "0d8bf580c8d8c4d31b324816fde8cb64", "is_reserved": 0, "rental_uris": {"android": "https://dc.lft.to/lastmile_qr_scan", "ios": "https://dc.lft.to/lastmile_qr_scan"}, "fusion_lon": 0.0}, {"lat": 38.904924, "is_disabled": 0, "type": "electric_scooter", "lon": -77.02960516666667, "bike_id": "afd0684d822554e66131568d48a9cb02", "fusion_lat": 0.0, "name": "afd0684d822554e66131568d48a9cb02", "is_reserved": 0, "rental_uris": {"android": "https://dc.lft.to/lastmile_qr_scan", "ios": "https://dc.lft.to/lastmile_qr_scan"}, "fusion_lon": 0.0}, {"lat": 38.9999535, "is_disabled": 0, "type": "electric_bike", "lon": -76.92500533333333, "bike_id": "c92f5b8effe1733f90c4f3f12039c5c9", "fusion_lat": 0.0, "name": "c92f5b8effe1733f90c4f3f12039c5c9", "is_reserved": 0, "rental_uris": {"android": "https://dc.lft.to/lastmile_qr_scan", "ios": "https://dc.lft.to/lastmile_qr_scan"}, "fusion_lon": 0.0}, {"lat": 38.9085415, "is_disabled": 0, "type": "electric_scooter", "lon": -77.006268, "bike_id": "dbf26703ce59642c6247ee74cf1e8e1d", "fusion_lat": 0.0, "name": "dbf26703ce59642c6247ee74cf1e8e1d", "is_reserved": 0, "rental_uris": {"android": "https://dc.lft.to/lastmile_qr_scan", "ios": "https://dc.lft.to/lastmile_qr_scan"}, "fusion_lon": 0.0}, {"lat": 38.918033, "is_disabled": 0, "type": "electric_bike", "lon": -77.22323466666667, "bike_id": "d7e6d3e8867faa8a2302854c14614e39", "fusion_lat": 0.0, "name": "d7e6d3e8867faa8a2302854c14614e39", "is_reserved": 0, "rental_uris": {"android": "https://dc.lft.to/lastmile_qr_scan", "ios": "https://dc.lft.to/lastmile_qr_scan"}, "fusion_lon": 0.0}, {"lat": 38.896717333333335, "is_disabled": 0, "type": "electric_scooter", "lon": -77.05125133333334, "bike_id": "ba9a91b64ddc63058753006fd5ef37df", "fusion_lat": 0.0, "name": "ba9a91b64ddc63058753006fd5ef37df", "is_reserved": 0, "rental_uris": {"android": "https://dc.lft.to/lastmile_qr_scan", "ios": "https://dc.lft.to/lastmile_qr_scan"}, "fusion_lon": 0.0}, {"lat": 38.926429166666665, "is_disabled": 0, "type": "electric_scooter", "lon": -77.04297266666667, "bike_id": "bbe8cd1172d3359d6499754209d39067", "fusion_lat": 0.0, "name": "bbe8cd1172d3359d6499754209d39067", "is_reserved": 0, "rental_uris": {"android": "https://dc.lft.to/lastmile_qr_scan", "ios": "https://dc.lft.to/lastmile_qr_scan"}, "fusion_lon": 0.0}, {"lat": 38.93035883333334, "is_disabled": 0, "type": "electric_scooter", "lon": -77.02964616666667, "bike_id": "e5cfddb8e0981cfdfb2966bdd7efa703", "fusion_lat": 0.0, "name": "e5cfddb8e0981cfdfb2966bdd7efa703", "is_reserved": 0, "rental_uris": {"android": "https://dc.lft.to/lastmile_qr_scan", "ios": "https://dc.lft.to/lastmile_qr_scan"}, "fusion_lon": 0.0}, {"lat": 38.928977333333336, "is_disabled": 0, "type": "electric_bike", "lon": -77.05778166666667, "bike_id": "602cf103ac11840a46b3c60439e82758", "fusion_lat": 0.0, "name": "602cf103ac11840a46b3c60439e82758", "is_reserved": 0, "rental_uris": {"android": "https://dc.lft.to/lastmile_qr_scan", "ios": "https://dc.lft.to/lastmile_qr_scan"}, "fusion_lon": 0.0}, {"lat": 38.93795033333333, "is_disabled": 0, "type": "electric_scooter", "lon": -77.02478233333333, "bike_id": "aecfe77365e6f70cad5aea6d11373795", "fusion_lat": 0.0, "name": "aecfe77365e6f70cad5aea6d11373795", "is_reserved": 0, "rental_uris": {"android": "https://dc.lft.to/lastmile_qr_scan", "ios": "https://dc.lft.to/lastmile_qr_scan"}, "fusion_lon": 0.0}, {"lat": 38.91421583333333, "is_disabled": 0, "type": "electric_scooter", "lon": -77.02204733333333, "bike_id": "52d6d181d725a296f28e4ca68c3cfa7b", "fusion_lat": 0.0, "name": "52d6d181d725a296f28e4ca68c3cfa7b", "is_reserved": 0, "rental_uris": {"android": "https://dc.lft.to/lastmile_qr_scan", "ios": "https://dc.lft.to/lastmile_qr_scan"}, "fusion_lon": 0.0}, {"lat": 38.89346666666667, "is_disabled": 0, "type": "electric_scooter", "lon": -76.94930966666666, "bike_id": "c028f1c09d7bfb57f5520b25a7095eba", "fusion_lat": 0.0, "name": "c028f1c09d7bfb57f5520b25a7095eba", "is_reserved": 0, "rental_uris": {"android": "https://dc.lft.to/lastmile_qr_scan", "ios": "https://dc.lft.to/lastmile_qr_scan"}, "fusion_lon": 0.0}, {"lat": 38.97275783333333, "is_disabled": 0, "type": "electric_bike", "lon": -77.0362575, "bike_id": "8528986a5e528f3db5d02f292c3690c3", "fusion_lat": 0.0, "name": "8528986a5e528f3db5d02f292c3690c3", "is_reserved": 0, "rental_uris": {"android": "https://dc.lft.to/lastmile_qr_scan", "ios": "https://dc.lft.to/lastmile_qr_scan"}, "fusion_lon": 0.0}, {"lat": 38.918180166666666, "is_disabled": 0, "type": "electric_scooter", "lon": -77.03917916666667, "bike_id": "3d3c319d53b2d16a72e0c0aa109c24a1", "fusion_lat": 0.0, "name": "3d3c319d53b2d16a72e0c0aa109c24a1", "is_reserved": 0, "rental_uris": {"android": "https://dc.lft.to/lastmile_qr_scan", "ios": "https://dc.lft.to/lastmile_qr_scan"}, "fusion_lon": 0.0}, {"lat": 38.89482016666667, "is_disabled": 0, "type": "electric_scooter", "lon": -77.02118933333334, "bike_id": "89411b4cd6a6633212e98c1a3e785026", "fusion_lat": 0.0, "name": "89411b4cd6a6633212e98c1a3e785026", "is_reserved": 0, "rental_uris": {"android": "https://dc.lft.to/lastmile_qr_scan", "ios": "https://dc.lft.to/lastmile_qr_scan"}, "fusion_lon": 0.0}, {"lat": 38.90358416666667, "is_disabled": 0, "type": "electric_scooter", "lon": -77.03998933333334, "bike_id": "be46d8ed32a153542f042558d498660f", "fusion_lat": 0.0, "name": "be46d8ed32a153542f042558d498660f", "is_reserved": 0, "rental_uris": {"android": "https://dc.lft.to/lastmile_qr_scan", "ios": "https://dc.lft.to/lastmile_qr_scan"}, "fusion_lon": 0.0}, {"lat": 38.909788666666664, "is_disabled": 0, "type": "electric_bike", "lon": -76.98514733333333, "bike_id": "b30ab8a35282f2fde9fc2dbd69e5d133", "fusion_lat": 0.0, "name": "b30ab8a35282f2fde9fc2dbd69e5d133", "is_reserved": 0, "rental_uris": {"android": "https://dc.lft.to/lastmile_qr_scan", "ios": "https://dc.lft.to/lastmile_qr_scan"}, "fusion_lon": 0.0}, {"lat": 38.90797083333333, "is_disabled": 0, "type": "electric_scooter", "lon": -77.04354716666667, "bike_id": "f5befa3f6543d9303e2c02d5f2206b13", "fusion_lat": 0.0, "name": "f5befa3f6543d9303e2c02d5f2206b13", "is_reserved": 0, "rental_uris": {"android": "https://dc.lft.to/lastmile_qr_scan", "ios": "https://dc.lft.to/lastmile_qr_scan"}, "fusion_lon": 0.0}, {"lat": 38.903715, "is_disabled": 0, "type": "electric_scooter", "lon": -77.04265266666667, "bike_id": "783f25a612a010e39a748e5a55f25acc", "fusion_lat": 0.0, "name": "783f25a612a010e39a748e5a55f25acc", "is_reserved": 0, "rental_uris": {"android": "https://dc.lft.to/lastmile_qr_scan", "ios": "https://dc.lft.to/lastmile_qr_scan"}, "fusion_lon": 0.0}, {"lat": 38.92568633333333, "is_disabled": 0, "type": "electric_scooter", "lon": -77.0353885, "bike_id": "6e873fe4bbbc4a330942493edb4f963c", "fusion_lat": 0.0, "name": "6e873fe4bbbc4a330942493edb4f963c", "is_reserved": 0, "rental_uris": {"android": "https://dc.lft.to/lastmile_qr_scan", "ios": "https://dc.lft.to/lastmile_qr_scan"}, "fusion_lon": 0.0}, {"lat": 38.908137833333335, "is_disabled": 0, "type": "electric_scooter", "lon": -76.98274433333333, "bike_id": "ecb4f7dda1d37270c64c652682173d9a", "fusion_lat": 0.0, "name": "ecb4f7dda1d37270c64c652682173d9a", "is_reserved": 0, "rental_uris": {"android": "https://dc.lft.to/lastmile_qr_scan", "ios": "https://dc.lft.to/lastmile_qr_scan"}, "fusion_lon": 0.0}, {"lat": 38.902724166666665, "is_disabled": 0, "type": "electric_scooter", "lon": -77.03376533333333, "bike_id": "569fee921a960691aef3ecf1dff4369d", "fusion_lat": 0.0, "name": "569fee921a960691aef3ecf1dff4369d", "is_reserved": 0, "rental_uris": {"android": "https://dc.lft.to/lastmile_qr_scan", "ios": "https://dc.lft.to/lastmile_qr_scan"}, "fusion_lon": 0.0}, {"lat": 38.88067933333333, "is_disabled": 0, "type": "electric_bike", "lon": -77.10933183333333, "bike_id": "4f74a21ec631d77e5ba8c88866978da3", "fusion_lat": 0.0, "name": "4f74a21ec631d77e5ba8c88866978da3", "is_reserved": 0, "rental_uris": {"android": "https://dc.lft.to/lastmile_qr_scan", "ios": "https://dc.lft.to/lastmile_qr_scan"}, "fusion_lon": 0.0},