{"data": {"bikes": [{"lon": -77.00576933333333, "bike_id": "9a09080c706cdd39adb71b5ea83ba21c", "lat": 38.89982366666667, "fusion_lon": 0.0, "fusion_lat": 0.0, "type": "electric_scooter", "name": "9a09080c706cdd39adb71b5ea83ba21c", "is_disabled": 0, "rental_uris": {"ios": "https://dc.lft.to/lastmile_qr_scan", "android": "https://dc.lft.to/lastmile_qr_scan"}, "is_reserved": 0}, {"lon": -77.039266, "bike_id": "45fe3792ff81b15ede43c74a12fc93e7", "lat": 38.927981833333334, "fusion_lon": 0.0, "fusion_lat": 0.0, "type": "electric_scooter", "name": "45fe3792ff81b15ede43c74a12fc93e7", "is_disabled": 0, "rental_uris": {"ios": "https://dc.lft.to/lastmile_qr_scan", "android": "https://dc.lft.to/lastmile_qr_scan"}, "is_reserved": 0}, {"lon": -77.03637366666666, "bike_id": "85795d727ec073338956d89536cf8e9e", "lat": 38.924610666666666, "fusion_lon": 0.0, "fusion_lat": 0.0, "type": "electric_scooter", "name": "85795d727ec073338956d89536cf8e9e", "is_disabled": 0, "rental_uris": {"ios": "https://dc.lft.to/lastmile_qr_scan", "android": "https://dc.lft.to/lastmile_qr_scan"}, "is_reserved": 0}, {"lon": -76.99780183333333, "bike_id": "43c5f84baeed1d3d6f39b1d3337c3a69", "lat": 38.9104355, "fusion_lon": 0.0, "fusion_lat": 0.0, "type": "electric_scooter", "name": "43c5f84baeed1d3d6f39b1d3337c3a69", "is_disabled": 0, "rental_uris": {"ios": "https://dc.lft.to/lastmile_qr_scan", "android": "https://dc.lft.to/lastmile_qr_scan"}, "is_reserved": 0}, {"lon": -77.06002733333334, "bike_id": "c8b8348059c8c3ed07c68168ff6dc6bb", "lat": 38.807188333333336, "fusion_lon": 0.0, "fusion_lat": 0.0, "type": "electric_bike", "name": "c8b8348059c8c3ed07c68168ff6dc6bb", "is_disabled": 0, "rental_uris": {"ios": "https://dc.lft.to/lastmile_qr_scan", "android": "https://dc.lft.to/lastmile_qr_scan"}, "is_reserved": 0}, {"lon": -77.031784, "bike_id": "6b194ea7d08fac95da6771f80c9eda61", "lat": 38.90512966666667, "fusion_lon": 0.0, "fusion_lat": 0.0, "type": "electric_scooter", "name": "6b194ea7d08fac95da6771f80c9eda61", "is_disabled": 0, "rental_uris": {"ios": "https://dc.lft.to/lastmile_qr_scan", "android": "https://dc.lft.to/lastmile_qr_scan"}, "is_reserved": 0}, {"lon": -77.0420185, "bike_id": "71a4314c389611b6ff9b233570814db9", "lat": 38.92099266666666, "fusion_lon": 0.0, "fusion_lat": 0.0, "type": "electric_scooter", "name": "71a4314c389611b6ff9b233570814db9", "is_disabled": 0, "rental_uris": {"ios": "https://dc.lft.to/lastmile_qr_scan", "android": "https://dc.lft.to/lastmile_qr_scan"}, "is_reserved": 0}, {"lon": -76.976188, "bike_id": "714b72b78c1a1276ccb1f0227bf24661", "lat": 38.926495, "fusion_lon": 0.0, "fusion_lat": 0.0, "type": "electric_scooter", "name": "714b72b78c1a1276ccb1f0227bf24661", "is_disabled": 0, "rental_uris": {"ios": "https://dc.lft.to/lastmile_qr_scan", "android": "https://dc.lft.to/lastmile_qr_scan"}, "is_reserved": 0}, {"lon": -77.0880985, "bike_id": "d5cfe3a97dcc47ef1569806eb7b06eeb", "lat": 38.911753166666664, "fusion_lon": 0.0, "fusion_lat": 0.0, "type": "electric_bike", "name": "d5cfe3a97dcc47ef1569806eb7b06eeb", "is_disabled": 0, "rental_uris": {"ios": "https://dc.lft.to/lastmile_qr_scan", "android": "https://dc.lft.to/lastmile_qr_scan"}, "is_reserved": 0}, {"lon": -77.018675, "bike_id": "44449faf74a416bed7161083ff84a458", "lat": 38.951494, "fusion_lon": 0.0, "fusion_lat": 0.0, "type": "electric_scooter", "name": "44449faf74a416bed7161083ff84a458", "is_disabled": 0, "rental_uris": {"ios": "https://dc.lft.to/lastmile_qr_scan", "android": "https://dc.lft.to/lastmile_qr_scan"}, "is_reserved": 0}, {"lon": -76.991008, "bike_id": "8ef0c7469a14431fe77cb68a472eb923", "lat": 38.903152666666664, "fusion_lon": 0.0, "fusion_lat": 0.0, "type": "electric_scooter", "name": "8ef0c7469a14431fe77cb68a472eb923", "is_disabled": 0, "rental_uris": {"ios": "https://dc.lft.to/lastmile_qr_scan", "android": "https://dc.lft.to/lastmile_qr_scan"}, "is_reserved": 0}, {"lon": -77.0419065, "bike_id": "9286112bdf659c77168d826f8ec5d029", "lat": 38.9262265, "fusion_lon": 0.0, "fusion_lat": 0.0, "type": "electric_scooter", "name": "9286112bdf659c77168d826f8ec5d029", "is_disabled": 0, "rental_uris": {"ios": "https://dc.lft.to/lastmile_qr_scan", "android": "https://dc.lft.to/lastmile_qr_scan"}, "is_reserved": 0}, {"lon": -77.05611283333333, "bike_id": "dfaf4f2cbda0b28cebc2b50df1a1f82f", "lat": 38.931628333333336, "fusion_lon": 0.0, "fusion_lat": 0.0, "type": "electric_scooter", "name": "dfaf4f2cbda0b28cebc2b50df1a1f82f", "is_disabled": 0, "rental_uris": {"ios": "https://dc.lft.to/lastmile_qr_scan", "android": "https://dc.lft.to/lastmile_qr_scan"}, "is_reserved": 0}, {"lon": -77.00565933333333, "bike_id": "7d9429d8ede06d34792e07e75b71c58a", "lat": 38.90579566666667, "fusion_lon": 0.0, "fusion_lat": 0.0, "type": "electric_scooter", "name": "7d9429d8ede06d34792e07e75b71c58a", "is_disabled": 0, "rental_uris": {"ios": "https://dc.lft.to/lastmile_qr_scan", "android": "https://dc.lft.to/lastmile_qr_scan"}, "is_reserved": 0}, {"lon": -77.003337, "bike_id": "a1a5e0c58c0887088ca891cbf2786da9", "lat": 38.89185783333333, "fusion_lon": 0.0, "fusion_lat": 0.0, "type": "electric_scooter", "name": "a1a5e0c58c0887088ca891cbf2786da9", "is_disabled": 0, "rental_uris": {"ios": "https://dc.lft.to/lastmile_qr_scan", "android": "https://dc.lft.to/lastmile_qr_scan"}, "is_reserved": 0}, {"lon": -77.061392, "bike_id": "76be68916eb09435cf94be228785da3e", "lat": 38.943475, "fusion_lon": 0.0, "fusion_lat": 0.0, "type": "electric_scooter", "name": "76be68916eb09435cf94be228785da3e", "is_disabled": 0, "rental_uris": {"ios": "https://dc.lft.to/lastmile_qr_scan", "android": "https://dc.lft.to/lastmile_qr_scan"}, "is_reserved": 0}, {"lon": -76.99480633333333, "bike_id": "d409c6ce3a0bb10386c4115ed8c5ac0a", "lat": 38.862150166666666, "fusion_lon": 0.0, "fusion_lat": 0.0, "type": "electric_scooter", "name": "d409c6ce3a0bb10386c4115ed8c5ac0a", "is_disabled": 0, "rental_uris": {"ios": "https://dc.lft.to/lastmile_qr_scan", "android": "https://dc.lft.to/lastmile_qr_scan"}, "is_reserved": 0}, {"lon": -76.9884005, "bike_id": "0dae06213bb98af129af3a638cba26d7", "lat": 38.9007535, "fusion_lon": 0.0, "fusion_lat": 0.0, "type": "electric_scooter", "name": "0dae06213bb98af129af3a638cba26d7", "is_disabled": 0, "rental_uris": {"ios": "https://dc.lft.to/lastmile_qr_scan", "android": "https://dc.lft.to/lastmile_qr_scan"}, "is_reserved": 0}, {"lon": -77.02585366666666, "bike_id": "633d240ecd650080a7dff4d27519ff39", "lat": 38.93930616666667, "fusion_lon": 0.0, "fusion_lat": 0.0, "type": "electric_scooter", "name": "633d240ecd650080a7dff4d27519ff39", "is_disabled": 0, "rental_uris": {"ios": "https://dc.lft.to/lastmile_qr_scan", "android": "https://dc.lft.to/lastmile_qr_scan"}, "is_reserved": 0}, {"lon": -77.0318205, "bike_id": "dc89f1fedf0c2e4a0d7b555f820a1d19", "lat": 38.936091833333336, "fusion_lon": 0.0, "fusion_lat": 0.0, "type": "electric_scooter", "name": "dc89f1fedf0c2e4a0d7b555f820a1d19", "is_disabled": 0, "rental_uris": {"ios": "https://dc.lft.to/lastmile_qr_scan", "android": "https://dc.lft.to/lastmile_qr_scan"}, "is_reserved": 0}, {"lon": -76.98379466666667, "bike_id": "48f12c36fc32b16db0ac829c0ce423d4", "lat": 38.89142233333333, "fusion_lon": 0.0, "fusion_lat": 0.0, "type": "electric_scooter", "name": "48f12c36fc32b16db0ac829c0ce423d4", "is_disabled": 0, "rental_uris": {"ios": "https://dc.lft.to/lastmile_qr_scan", "android": "https://dc.lft.to/lastmile_qr_scan"}, "is_reserved": 0}, {"lon": -77.04238833333334, "bike_id": "ea60863ef81bee41632c990dbe393c8a", "lat": 38.916358, "fusion_lon": 0.0, "fusion_lat": 0.0, "type": "electric_scooter", "name": "ea60863ef81bee41632c990dbe393c8a", "is_disabled": 0, "rental_uris": {"ios": "https://dc.lft.to/lastmile_qr_scan", "android": "https://dc.lft.to/lastmile_qr_scan"}, "is_reserved": 0}, {"lon": -77.04255766666667, "bike_id": "187f29c0a41096c543de168d65e89063", "lat": 38.90715, "fusion_lon": 0.0, "fusion_lat": 0.0, "type": "electric_scooter", "name": "187f29c0a41096c543de168d65e89063", "is_disabled": 0, "rental_uris": {"ios": "https://dc.lft.to/lastmile_qr_scan", "android": "https://dc.lft.to/lastmile_qr_scan"}, "is_reserved": 0}, {"lon": -77.032777, "bike_id": "6b74b64ae93bbcbef4026c51014cbda7", "lat": 38.93253083333333, "fusion_lon": 0.0, "fusion_lat": 0.0, "type": "electric_scooter", "name": "6b74b64ae93bbcbef4026c51014cbda7", "is_disabled": 0, "rental_uris": {"ios": "https://dc.lft.to/lastmile_qr_scan", "android": "https://dc.lft.to/lastmile_qr_scan"}, "is_reserved": 0}, {"lon": -77.010048, "bike_id": "e5853c4ada5f18087452b66118564e2c", "lat": 38.919233166666665, "fusion_lon": 0.0, "fusion_lat": 0.0, "type": "electric_scooter", "name": "e5853c4ada5f18087452b66118564e2c", "is_disabled": 0, "rental_uris": {"ios": "https://dc.lft.to/lastmile_qr_scan", "android": "https://dc.lft.to/lastmile_qr_scan"}, "is_reserved": 0}, {"lon": -77.02507533333333, "bike_id": "2f0d84068ed6aad792234a0fa8d1e444", "lat": 38.9309335, "fusion_lon": 0.0, "fusion_lat": 0.0, "type": "electric_scooter", "name": "2f0d84068ed6aad792234a0fa8d1e444", "is_disabled": 0, "rental_uris": {"ios": "https://dc.lft.to/lastmile_qr_scan", "android": "https://dc.lft.to/lastmile_qr_scan"}, "is_reserved": 0}, {"lon": -76.948771, "bike_id": "7593e3f11943646f1e7262a3d73313c4", "lat": 38.895499, "fusion_lon": 0.0, "fusion_lat": 0.0, "type": "electric_scooter", "name": "7593e3f11943646f1e7262a3d73313c4", "is_disabled": 0, "rental_uris": {"ios": "https://dc.lft.to/lastmile_qr_scan", "android": "https://dc.lft.to/lastmile_qr_scan"}, "is_reserved": 0}, {"lon": -77.02949433333333, "bike_id": "98b05f94bcc87035a217b7e61ef81970", "lat": 38.92373516666667, "fusion_lon": 0.0, "fusion_lat": 0.0, "type": "electric_scooter", "name": "98b05f94bcc87035a217b7e61ef81970", "is_disabled": 0, "rental_uris": {"ios": "https://dc.lft.to/lastmile_qr_scan", "android": "https://dc.lft.to/lastmile_qr_scan"}, "is_reserved": 0}, {"lon": -77.04791033333333, "bike_id": "b84bc83554649b7b724ca6fd275c68a3", "lat": 38.9097, "fusion_lon": 0.0, "fusion_lat": 0.0, "type": "electric_scooter", "name": "b84bc83554649b7b724ca6fd275c68a3", "is_disabled": 0, "rental_uris": {"ios": "https://dc.lft.to/lastmile_qr_scan", "android": "https://dc.lft.to/lastmile_qr_scan"}, "is_reserved": 0}, {"lon": -77.027945, "bike_id": "96b42ddf053874debb68a21238a693c9", "lat": 38.929727666666665, "fusion_lon": 0.0, "fusion_lat": 0.0, "type": "electric_scooter", "name": "96b42ddf053874debb68a21238a693c9", "is_disabled": 0, "rental_uris": {"ios": "https://dc.lft.to/lastmile_qr_scan", "android": "https://dc.lft.to/lastmile_qr_scan"}, "is_reserved": 0}, {"lon": -76.93361366666667, "bike_id": "f6d8f35bfe48647a734cbecffe2a0f34", "lat": 38.8879395, "fusion_lon": 0.0, "fusion_lat": 0.0, "type": "electric_scooter", "name": "f6d8f35bfe48647a734cbecffe2a0f34", "is_disabled": 0, "rental_uris": {"ios": "https://dc.lft.to/lastmile_qr_scan", "android": "https://dc.lft.to/lastmile_qr_scan"}, "is_reserved": 0}, {"lon": -77.04022216666667, "bike_id": "84209e9f852c4317e8ef664257db0fb5", "lat": 38.924505333333336, "fusion_lon": 0.0, "fusion_lat": 0.0, "type": "electric_scooter", "name": "84209e9f852c4317e8ef664257db0fb5", "is_disabled": 0, "rental_uris": {"ios": "https://dc.lft.to/lastmile_qr_scan", "android": "https://dc.lft.to/lastmile_qr_scan"}, "is_reserved": 0}, {"lon": -76.98711933333334, "bike_id": "a43f76514b3fe061b0658dcd824c6824", "lat": 38.86699733333333, "fusion_lon": 0.0, "fusion_lat": 0.0, "type": "electric_scooter", "name": "a43f76514b3fe061b0658dcd824c6824", "is_disabled": 0, "rental_uris": {"ios": "https://dc.lft.to/lastmile_qr_scan", "android": "https://dc.lft.to/lastmile_qr_scan"}, "is_reserved": 0}, {"lon": -77.03021233333334, "bike_id": "5f7a11170004eff656940091ac76e121", "lat": 38.916755333333334, "fusion_lon": 0.0, "fusion_lat": 0.0, "type": "electric_scooter", "name": "5f7a11170004eff656940091ac76e121", "is_disabled": 0, "rental_uris": {"ios": "https://dc.lft.to/lastmile_qr_scan", "android": "https://dc.lft.to/lastmile_qr_scan"}, "is_reserved": 0}, {"lon": -76.9785615, "bike_id": "11ab55d67c4252e848a8bbc30f594365", "lat": 38.870678, "fusion_lon": 0.0, "fusion_lat": 0.0, "type": "electric_scooter", "name": "11ab55d67c4252e848a8bbc30f594365", "is_disabled": 0, "rental_uris": {"ios": "https://dc.lft.to/lastmile_qr_scan", "android": "https://dc.lft.to/lastmile_qr_scan"}, "is_reserved": 0}, {"lon": -77.02602883333333, "bike_id": "82bc122cc82d6d8ac8f20697a1b9c258", "lat": 38.9279285, "fusion_lon": 0.0, "fusion_lat": 0.0, "type": "electric_scooter", "name": "82bc122cc82d6d8ac8f20697a1b9c258", "is_disabled": 0, "rental_uris": {"ios": "https://dc.lft.to/lastmile_qr_scan", "android": "https://dc.lft.to/lastmile_qr_scan"}, "is_reserved": 0}, {"lon": -77.0121005, "bike_id": "b71161e16ae344a680f13455a5d84cd9", "lat": 38.915890833333336, "fusion_lon": 0.0, "fusion_lat": 0.0, "type": "electric_scooter", "name": "b71161e16ae344a680f13455a5d84cd9", "is_disabled": 0, "rental_uris": {"ios": "https://dc.lft.to/lastmile_qr_scan", "android": "https://dc.lft.to/lastmile_qr_scan"}, "is_reserved": 0}, {"lon": -77.03183433333334, "bike_id": "25944d53f7d6a1c84fcb406163c1dafc", "lat": 38.92100333333333, "fusion_lon": 0.0, "fusion_lat": 0.0, "type": "electric_scooter", "name": "25944d53f7d6a1c84fcb406163c1dafc", "is_disabled": 0, "rental_uris": {"ios": "https://dc.lft.to/lastmile_qr_scan", "android": "https://dc.lft.to/lastmile_qr_scan"}, "is_reserved": 0}, {"lon": -76.98885133333333, "bike_id": "1efb0fd06bbcb98531014af9d60e54c6", "lat": 38.86651833333333, "fusion_lon": 0.0, "fusion_lat": 0.0, "type": "electric_scooter", "name": "1efb0fd06bbcb98531014af9d60e54c6", "is_disabled": 0, "rental_uris": {"ios": "https://dc.lft.to/lastmile_qr_scan", "android": "https://dc.lft.to/lastmile_qr_scan"}, "is_reserved": 0}, {"lon": -77.021243, "bike_id": "bb4eeca4de3e36b19a6cd87aa46355b4", "lat": 38.9357585, "fusion_lon": 0.0, "fusion_lat": 0.0, "type": "electric_bike", "name": "bb4eeca4de3e36b19a6cd87aa46355b4", "is_disabled": 0, "rental_uris": {"ios": "https://dc.lft.to/lastmile_qr_scan", "android": "https://dc.lft.to/lastmile_qr_scan"}, "is_reserved": 0}, {"lon": -77.0173855, "bike_id": "aa4d6bfaaeedd7382eefa6b35c3e0d73", "lat": 38.90246533333333, "fusion_lon": 0.0, "fusion_lat": 0.0, "type": "electric_scooter", "name": "aa4d6bfaaeedd7382eefa6b35c3e0d73", "is_disabled": 0, "rental_uris": {"ios": "https://dc.lft.to/lastmile_qr_scan", "android": "https://dc.lft.to/lastmile_qr_scan"}, "is_reserved": 0}, {"lon": -77.03515116666667, "bike_id": "ce94ed42c99d6055730f51a0852ee1ac", "lat": 38.92341416666667, "fusion_lon": 0.0, "fusion_lat": 0.0, "type": "electric_scooter", "name": "ce94ed42c99d6055730f51a0852ee1ac", "is_disabled": 0, "rental_uris": {"ios": "https://dc.lft.to/lastmile_qr_scan", "android": "https://dc.lft.to/lastmile_qr_scan"}, "is_reserved": 0}, {"lon": -77.0319535, "bike_id": "7e1e92073080ec5dcfc4737df2cbe7d0", "lat": 38.90700783333333, "fusion_lon": 0.0, "fusion_lat": 0.0, "type": "electric_scooter", "name": "7e1e92073080ec5dcfc4737df2cbe7d0", "is_disabled": 0, "rental_uris": {"ios": "https://dc.lft.to/lastmile_qr_scan", "android": "https://dc.lft.to/lastmile_qr_scan"}, "is_reserved": 0}, {"lon": -77.0217375, "bike_id": "d6daffccd14ae94bc5decea3e8a03a8b", "lat": 38.8973465, "fusion_lon": 0.0, "fusion_lat": 0.0, "type": "electric_scooter", "name": "d6daffccd14ae94bc5decea3e8a03a8b", "is_disabled": 0, "rental_uris": {"ios": "https://dc.lft.to/lastmile_qr_scan", "android": "https://dc.lft.to/lastmile_qr_scan"}, "is_reserved": 0}, {"lon": -77.02184583333333, "bike_id": "2c4de88c9049adff600a291128b7b470", "lat": 38.909543166666666, "fusion_lon": 0.0, "fusion_lat": 0.0, "type": "electric_scooter", "name": "2c4de88c9049adff600a291128b7b470", "is_disabled": 0, "rental_uris": {"ios": "https://dc.lft.to/lastmile_qr_scan", "android": "https://dc.lft.to/lastmile_qr_scan"}, "is_reserved": 0}, {"lon": -77.0240235, "bike_id": "e1c8eadc8cfe0398bc2e82da7f2360bd", "lat": 38.882863666666665, "fusion_lon": 0.0, "fusion_lat": 0.0, "type": "electric_scooter", "name": "e1c8eadc8cfe0398bc2e82da7f2360bd", "is_disabled": 0, "rental_uris": {"ios": "https://dc.lft.to/lastmile_qr_scan", "android": "https://dc.lft.to/lastmile_qr_scan"}, "is_reserved": 0}, {"lon": -77.03677433333333, "bike_id": "6f5ab2dc9eb1a2a34c8ea0303f4b2f1c", "lat": 38.908241333333336, "fusion_lon": 0.0, "fusion_lat": 0.0, "type": "electric_scooter", "name": "6f5ab2dc9eb1a2a34c8ea0303f4b2f1c", "is_disabled": 0, "rental_uris": {"ios": "https://dc.lft.to/lastmile_qr_scan", "android": "https://dc.lft.to/lastmile_qr_scan"}, "is_reserved": 0}, {"lon": -77.03785666666667, "bike_id": "706691aacb3f2958b070d5bf7a5e6c78", "lat": 38.936014, "fusion_lon": 0.0, "fusion_lat": 0.0, "type": "electric_scooter", "name": "706691aacb3f2958b070d5bf7a5e6c78", "is_disabled": 0, "rental_uris": {"ios": "https://dc.lft.to/lastmile_qr_scan", "android": "https://dc.lft.to/lastmile_qr_scan"}, "is_reserved": 0}, {"lon": -77.04658733333333, "bike_id": "e3c4c2aa4f93ca751ad536af9be8d772", "lat": 38.905546666666666, "fusion_lon": 0.0, "fusion_lat": 0.0, "type": "electric_scooter", "name": "e3c4c2aa4f93ca751ad536af9be8d772", "is_disabled": 0, "rental_uris": {"ios": "https://dc.lft.to/lastmile_qr_scan", "android": "https://dc.lft.to/lastmile_qr_scan"}, "is_reserved": 0}, {"lon": -76.96607783333333, "bike_id": "58dbec6df44f36a642d53cf0179b410a", "lat": 38.871081833333335, "fusion_lon": 0.0, "fusion_lat": 0.0, "type": "electric_scooter", "name": "58dbec6df44f36a642d53cf0179b410a", "is_disabled": 0, "rental_uris": {"ios": "https://dc.lft.to/lastmile_qr_scan", "android": "https://dc.lft.to/lastmile_qr_scan"}, "is_reserved": 0}, {"lon": -77.036539, "bike_id": "fab05664ea15dd8b04dd930ac97e7994", "lat": 38.918093166666665, "fusion_lon": 0.0, "fusion_lat": 0.0, "type": "electric_scooter", "name": "fab05664ea15dd8b04dd930ac97e7994", "is_disabled": 0, "rental_uris": {"ios": "https://dc.lft.to/lastmile_qr_scan", "android": "https://dc.lft.to/lastmile_qr_scan"}, "is_reserved": 0}, {"lon": -77.03217283333333, "bike_id": "1a0a18a0b3f7fa007436c471dc018199", "lat": 38.907316333333334, "fusion_lon": 0.0, "fusion_lat": 0.0, "type": "electric_scooter", "name": "1a0a18a0b3f7fa007436c471dc018199", "is_disabled": 0, "rental_uris": {"ios": "https://dc.lft.to/lastmile_qr_scan", "android": "https://dc.lft.to/lastmile_qr_scan"}, "is_reserved": 0}, {"lon": -77.0103965, "bike_id": "fec4091be3533678d189f4fccc56037c", "lat": 38.92122833333333, "fusion_lon": 0.0, "fusion_lat": 0.0, "type": "electric_scooter", "name": "fec4091be3533678d189f4fccc56037c", "is_disabled": 0, "rental_uris": {"ios": "https://dc.lft.to/lastmile_qr_scan", "android": "https://dc.lft.to/lastmile_qr_scan"}, "is_reserved": 0}, {"lon": -76.96908766666667, "bike_id": "9db71def3a99c211e8eb541459a7486c", "lat": 38.846099, "fusion_lon": 0.0, "fusion_lat": 0.0, "type": "electric_bike", "name": "9db71def3a99c211e8eb541459a7486c", "is_disabled": 0, "rental_uris": {"ios": "https://dc.lft.to/lastmile_qr_scan", "android": "https://dc.lft.to/lastmile_qr_scan"}, "is_reserved": 0}, {"lon": -77.03265783333333, "bike_id": "95678bf6133d9d0c26879df810a595ed", "lat": 38.93197516666667, "fusion_lon": 0.0, "fusion_lat": 0.0, "type": "electric_scooter", "name": "95678bf6133d9d0c26879df810a595ed", "is_disabled": 0, "rental_uris": {"ios": "https://dc.lft.to/lastmile_qr_scan", "android": "https://dc.lft.to/lastmile_qr_scan"}, "is_reserved": 0}, {"lon": -77.016252, "bike_id": "4fdbe20d1bbce93815e48d959ec64dfa", "lat": 38.90685583333333, "fusion_lon": 0.0, "fusion_lat": 0.0, "type": "electric_scooter", "name": "4fdbe20d1bbce93815e48d959ec64dfa", "is_disabled": 0, "rental_uris": {"ios": "https://dc.lft.to/lastmile_qr_scan", "android": "https://dc.lft.to/lastmile_qr_scan"}, "is_reserved": 0}, {"lon": -77.02271766666667, "bike_id": "b250476270611d1ec3863938d51dea48", "lat": 38.91270933333333, "fusion_lon": 0.0, "fusion_lat": 0.0, "type": "electric_scooter", "name": "b250476270611d1ec3863938d51dea48", "is_disabled": 0, "rental_uris": {"ios": "https://dc.lft.to/lastmile_qr_scan", "android": "https://dc.lft.to/lastmile_qr_scan"}, "is_reserved": 0}, {"lon": -77.02658733333334, "bike_id": "6ab1ca678148cdec5b63e54573029aa7", "lat": 38.925800333333335, "fusion_lon": 0.0, "fusion_lat": 0.0, "type": "electric_scooter", "name": "6ab1ca678148cdec5b63e54573029aa7", "is_disabled": 0, "rental_uris": {"ios": "https://dc.lft.to/lastmile_qr_scan", "android": "https://dc.lft.to/lastmile_qr_scan"}, "is_reserved": 0}, {"lon": -77.03659783333333, "bike_id": "c1a2de1da5410470a3fd607dd87962a7", "lat": 38.9124455, "fusion_lon": 0.0, "fusion_lat": 0.0, "type": "electric_scooter", "name": "c1a2de1da5410470a3fd607dd87962a7", "is_disabled": 0, "rental_uris": {"ios": "https://dc.lft.to/lastmile_qr_scan", "android": "https://dc.lft.to/lastmile_qr_scan"}, "is_reserved": 0}, {"lon": -77.0320085, "bike_id": "9d19e001c9272566f85ea0c3ff28b194", "lat": 38.90785283333334, "fusion_lon": 0.0, "fusion_lat": 0.0, "type": "electric_scooter", "name": "9d19e001c9272566f85ea0c3ff28b194", "is_disabled": 0, "rental_uris": {"ios": "https://dc.lft.to/lastmile_qr_scan", "android": "https://dc.lft.to/lastmile_qr_scan"}, "is_reserved": 0}, {"lon": -77.115935, "bike_id": "fea974e7dd4d1c12e2af03a74467c2fc", "lat": 39.074944, "fusion_lon": 0.0, "fusion_lat": 0.0, "type": "electric_bike", "name": "fea974e7dd4d1c12e2af03a74467c2fc", "is_disabled": 0, "rental_uris": {"ios": "https://dc.lft.to/lastmile_qr_scan", "android": "https://dc.lft.to/lastmile_qr_scan"}, "is_reserved": 0}, {"lon": -76.99070216666667, "bike_id": "b671ae3713711a14409d24409b619558", "lat": 38.927477833333334, "fusion_lon": 0.0, "fusion_lat": 0.0, "type": "electric_scooter", "name": "b671ae3713711a14409d24409b619558", "is_disabled": 0, "rental_uris": {"ios": "https://dc.lft.to/lastmile_qr_scan", "android": "https://dc.lft.to/lastmile_qr_scan"}, "is_reserved": 0}, {"lon": -76.999304, "bike_id": "7cd8efd6adb9f3381a9d724720186092", "lat": 38.8431605, "fusion_lon": 0.0, "fusion_lat": 0.0, "type": "electric_scooter", "name": "7cd8efd6adb9f3381a9d724720186092", "is_disabled": 0, "rental_uris": {"ios": "https://dc.lft.to/lastmile_qr_scan", "android": "https://dc.lft.to/lastmile_qr_scan"}, "is_reserved": 0}, {"lon": -76.99051683333333, "bike_id": "19ffb399d37bfe475bddb7cc5ce2739f", "lat": 38.86375783333333, "fusion_lon": 0.0, "fusion_lat": 0.0, "type": "electric_scooter", "name": "19ffb399d37bfe475bddb7cc5ce2739f", "is_disabled": 0, "rental_uris": {"ios": "https://dc.lft.to/lastmile_qr_scan", "android": "https://dc.lft.to/lastmile_qr_scan"}, "is_reserved": 0}, {"lon": -77.01205316666666, "bike_id": "1f20a020fbefe41cb04e366a07f79272", "lat": 38.88550266666667, "fusion_lon": 0.0, "fusion_lat": 0.0, "type": "electric_scooter", "name": "1f20a020fbefe41cb04e366a07f79272", "is_disabled": 0, "rental_uris": {"ios": "https://dc.lft.to/lastmile_qr_scan", "android": "https://dc.lft.to/lastmile_qr_scan"}, "is_reserved": 0}, {"lon": -76.90489266666667, "bike_id": "75c251e4e0871354cf545990a0c5f99a", "lat": 39.002843666666664, "fusion_lon": 0.0, "fusion_lat": 0.0, "type": "electric_bike", "name": "75c251e4e0871354cf545990a0c5f99a", "is_disabled": 0, "rental_uris": {"ios": "https://dc.lft.to/lastmile_qr_scan", "android": "https://dc.lft.to/lastmile_qr_scan"}, "is_reserved": 0}, {"lon": -77.02369333333333, "bike_id": "bc1f4e006919101e32cd589d09c288d9", "lat": 38.9020825, "fusion_lon": 0.0, "fusion_lat": 0.0, "type": "electric_scooter", "name": "bc1f4e006919101e32cd589d09c288d9", "is_disabled": 0, "rental_uris": {"ios": "https://dc.lft.to/lastmile_qr_scan", "android": "https://dc.lft.to/lastmile_qr_scan"}, "is_reserved": 0}, {"lon": -77.0215595, "bike_id": "80784d9c11c383720b5ef190a08b212d", "lat": 38.92999866666667, "fusion_lon": 0.0, "fusion_lat": 0.0, "type": "electric_scooter", "name": "80784d9c11c383720b5ef190a08b212d", "is_disabled": 0, "rental_uris": {"ios": "https://dc.lft.to/lastmile_qr_scan", "android": "https://dc.lft.to/lastmile_qr_scan"}, "is_reserved": 0}, {"lon": -77.05299633333334, "bike_id": "c66430cbaab1d08a791fe5d0e1a304d6", "lat": 38.8988665, "fusion_lon": 0.0, "fusion_lat": 0.0, "type": "electric_scooter", "name": "c66430cbaab1d08a791fe5d0e1a304d6", "is_disabled": 0, "rental_uris": {"ios": "https://dc.lft.to/lastmile_qr_scan", "android": "https://dc.lft.to/lastmile_qr_scan"}, "is_reserved": 0}, {"lon": -77.00573516666667, "bike_id": "4ade1d18aac85f494adfa217a5dda298", "lat": 38.876565, "fusion_lon": 0.0, "fusion_lat": 0.0, "type": "electric_scooter", "name": "4ade1d18aac85f494adfa217a5dda298", "is_disabled": 0, "rental_uris": {"ios": "https://dc.lft.to/lastmile_qr_scan", "android": "https://dc.lft.to/lastmile_qr_scan"}, "is_reserved": 0}, {"lon": -76.94726066666666, "bike_id": "4a4d56385e203751ac5e9b6c86a35bc6", "lat": 38.8973805, "fusion_lon": 0.0, "fusion_lat": 0.0, "type": "electric_scooter", "name": "4a4d56385e203751ac5e9b6c86a35bc6", "is_disabled": 0, "rental_uris": {"ios": "https://dc.lft.to/lastmile_qr_scan", "android": "https://dc.lft.to/lastmile_qr_scan"}, "is_reserved": 0}, {"lon": -77.0162505, "bike_id": "04c8b185a01733738948aa09733d4d96", "lat": 38.96574966666667, "fusion_lon": 0.0, "fusion_lat": 0.0, "type": "electric_scooter", "name": "04c8b185a01733738948aa09733d4d96", "is_disabled": 0, "rental_uris": {"ios": "https://dc.lft.to/lastmile_qr_scan", "android": "https://dc.lft.to/lastmile_qr_scan"}, "is_reserved": 0}, {"lon": -77.0328915, "bike_id": "69579d9d2882a33ddffcbb7731528ff0", "lat": 38.93974866666667, "fusion_lon": 0.0, "fusion_lat": 0.0, "type": "electric_scooter", "name": "69579d9d2882a33ddffcbb7731528ff0", "is_disabled": 0, "rental_uris": {"ios": "https://dc.lft.to/lastmile_qr_scan", "android": "https://dc.lft.to/lastmile_qr_scan"}, "is_reserved": 0}, {"lon": -76.97706616666666, "bike_id": "f06eee0f7bcd1ee6b61bb95b2b642613", "lat": 38.949140666666665, "fusion_lon": 0.0, "fusion_lat": 0.0, "type": "electric_bike", "name": "f06eee0f7bcd1ee6b61bb95b2b642613", "is_disabled": 0, "rental_uris": {"ios": "https://dc.lft.to/lastmile_qr_scan", "android": "https://dc.lft.to/lastmile_qr_scan"}, "is_reserved": 0}, {"lon": -77.02007783333333, "bike_id": "412fd239a8d12c3ed4f4a66885513067", "lat": 38.9241345, "fusion_lon": 0.0, "fusion_lat": 0.0, "type": "electric_scooter", "name": "412fd239a8d12c3ed4f4a66885513067", "is_disabled": 0, "rental_uris": {"ios": "https://dc.lft.to/lastmile_qr_scan", "android": "https://dc.lft.to/lastmile_qr_scan"}, "is_reserved": 0}, {"lon": -77.035633, "bike_id": "033ac7e89d55df613fcc533d57161622", "lat": 38.927367, "fusion_lon": 0.0, "fusion_lat": 0.0, "type": "electric_scooter", "name": "033ac7e89d55df613fcc533d57161622", "is_disabled": 0, "rental_uris": {"ios": "https://dc.lft.to/lastmile_qr_scan", "android": "https://dc.lft.to/lastmile_qr_scan"}, "is_reserved": 0}, {"lon": -77.03285483333333, "bike_id": "cef35572d21556dcdb8301dbe23be0ad", "lat": 38.932019333333336, "fusion_lon": 0.0, "fusion_lat": 0.0, "type": "electric_scooter", "name": "cef35572d21556dcdb8301dbe23be0ad", "is_disabled": 0, "rental_uris": {"ios": "https://dc.lft.to/lastmile_qr_scan", "android": "https://dc.lft.to/lastmile_qr_scan"}, "is_reserved": 0}, {"lon": -77.00545733333334, "bike_id": "cc2c8c291ed40487a8bcf1eac4a6939d", "lat": 38.912664166666666, "fusion_lon": 0.0, "fusion_lat": 0.0, "type": "electric_scooter", "name": "cc2c8c291ed40487a8bcf1eac4a6939d", "is_disabled": 0, "rental_uris": {"ios": "https://dc.lft.to/lastmile_qr_scan", "android": "https://dc.lft.to/lastmile_qr_scan"}, "is_reserved": 0}, {"lon": -77.36093583333333, "bike_id": "6aeb32efd4210d6ff97cb778dc95976b", "lat": 38.93961733333333, "fusion_lon": 0.0, "fusion_lat": 0.0, "type": "electric_bike", "name": "6aeb32efd4210d6ff97cb778dc95976b", "is_disabled": 0, "rental_uris": {"ios": "https://dc.lft.to/lastmile_qr_scan", "android": "https://dc.lft.to/lastmile_qr_scan"}, "is_reserved": 0}, {"lon": -77.00925033333333, "bike_id": "baead697dee0d70d3777104da0e8e1d1", "lat": 38.91097033333333, "fusion_lon": 0.0, "fusion_lat": 0.0, "type": "electric_scooter", "name": "baead697dee0d70d3777104da0e8e1d1", "is_disabled": 0, "rental_uris": {"ios": "https://dc.lft.to/lastmile_qr_scan", "android": "https://dc.lft.to/lastmile_qr_scan"}, "is_reserved": 0}, {"lon": -76.989633, "bike_id": "91ccf823334ca466f56f3619c80b0639", "lat": 38.901285, "fusion_lon": 0.0, "fusion_lat": 0.0, "type": "electric_scooter", "name": "91ccf823334ca466f56f3619c80b0639", "is_disabled": 0, "rental_uris": {"ios": "https://dc.lft.to/lastmile_qr_scan", "android": "https://dc.lft.to/lastmile_qr_scan"}, "is_reserved": 0}, {"lon": -77.013712, "bike_id": "67263a1882d1075837a81114806feb0a", "lat": 38.90619483333333, "fusion_lon": 0.0, "fusion_lat": 0.0, "type": "electric_scooter", "name": "67263a1882d1075837a81114806feb0a", "is_disabled": 0, "rental_uris": {"ios": "https://dc.lft.to/lastmile_qr_scan", "android": "https://dc.lft.to/lastmile_qr_scan"}, "is_reserved": 0}, {"lon": -77.01751666666667, "bike_id": "0063598ac8a21ec847f4081c0be7c791", "lat": 38.8805055, "fusion_lon": 0.0, "fusion_lat": 0.0, "type": "electric_scooter", "name": "0063598ac8a21ec847f4081c0be7c791", "is_disabled": 0, "rental_uris": {"ios": "https://dc.lft.to/lastmile_qr_scan", "android": "https://dc.lft.to/lastmile_qr_scan"}, "is_reserved": 0}, {"lon": -77.035686, "bike_id": "7799a42c57574d85dd72f160f41d02a6", "lat": 38.904687, "fusion_lon": 0.0, "fusion_lat": 0.0, "type": "electric_scooter", "name": "7799a42c57574d85dd72f160f41d02a6", "is_disabled": 0, "rental_uris": {"ios": "https://dc.lft.to/lastmile_qr_scan", "android": "https://dc.lft.to/lastmile_qr_scan"}, "is_reserved": 0}, {"lon": -76.98172166666667, "bike_id": "ce9d60b4f6379a1b418cd84908bbb1ad", "lat": 38.91670583333333, "fusion_lon": 0.0, "fusion_lat": 0.0, "type": "electric_scooter", "name": "ce9d60b4f6379a1b418cd84908bbb1ad", "is_disabled": 0, "rental_uris": {"ios": "https://dc.lft.to/lastmile_qr_scan", "android": "https://dc.lft.to/lastmile_qr_scan"}, "is_reserved": 0}, {"lon": -77.01746833333333, "bike_id": "4cda6159bc0384c504faae5b93d9f705", "lat": 38.881158166666665, "fusion_lon": 0.0, "fusion_lat": 0.0, "type": "electric_scooter", "name": "4cda6159bc0384c504faae5b93d9f705", "is_disabled": 0, "rental_uris": {"ios": "https://dc.lft.to/lastmile_qr_scan", "android": "https://dc.lft.to/lastmile_qr_scan"}, "is_reserved": 0}, {"lon": -77.02222416666666, "bike_id": "553b6fef7ee6339e9c3d7a316485797c", "lat": 38.8997575, "fusion_lon": 0.0, "fusion_lat": 0.0, "type": "electric_scooter", "name": "553b6fef7ee6339e9c3d7a316485797c", "is_disabled": 0, "rental_uris": {"ios": "https://dc.lft.to/lastmile_qr_scan", "android": "https://dc.lft.to/lastmile_qr_scan"}, "is_reserved": 0}, {"lon": -77.02982133333333, "bike_id": "26ead385fb714f96341454fdd9d43a34", "lat": 38.936971166666666, "fusion_lon": 0.0, "fusion_lat": 0.0, "type": "electric_bike", "name": "26ead385fb714f96341454fdd9d43a34", "is_disabled": 0, "rental_uris": {"ios": "https://dc.lft.to/lastmile_qr_scan", "android": "https://dc.lft.to/lastmile_qr_scan"}, "is_reserved": 0}, {"lon": -77.001328, "bike_id": "cb6eeb8d3f2047ce94bf8b417ac01837", "lat": 38.885253666666664, "fusion_lon": 0.0, "fusion_lat": 0.0, "type": "electric_scooter", "name": "cb6eeb8d3f2047ce94bf8b417ac01837", "is_disabled": 0, "rental_uris": {"ios": "https://dc.lft.to/lastmile_qr_scan", "android": "https://dc.lft.to/lastmile_qr_scan"}, "is_reserved": 0}, {"lon": -77.036646, "bike_id": "6e4f4d3c43242eb1de27f75cb2aef6c2", "lat": 38.92326683333334, "fusion_lon": 0.0, "fusion_lat": 0.0, "type": "electric_scooter", "name": "6e4f4d3c43242eb1de27f75cb2aef6c2", "is_disabled": 0, "rental_uris": {"ios": "https://dc.lft.to/lastmile_qr_scan", "android": "https://dc.lft.to/lastmile_qr_scan"}, "is_reserved": 0}, {"lon": -77.02533133333333, "bike_id": "1dbd76a0b4811715bd1333ef67dca479", "lat": 38.9430195, "fusion_lon": 0.0, "fusion_lat": 0.0, "type": "electric_scooter", "name": "1dbd76a0b4811715bd1333ef67dca479", "is_disabled": 0, "rental_uris": {"ios": "https://dc.lft.to/lastmile_qr_scan", "android": "https://dc.lft.to/lastmile_qr_scan"}, "is_reserved": 0}, {"lon": -77.03648716666666, "bike_id": "eb5d39a8d3292588e28f72b246cf6457", "lat": 38.9261, "fusion_lon": 0.0, "fusion_lat": 0.0, "type": "electric_scooter", "name": "eb5d39a8d3292588e28f72b246cf6457", "is_disabled": 0, "rental_uris": {"ios": "https://dc.lft.to/lastmile_qr_scan", "android": "https://dc.lft.to/lastmile_qr_scan"}, "is_reserved": 0}, {"lon": -76.96995766666667, "bike_id": "0d5a211d6fc3e1593a14a5d2371543bb", "lat": 38.8737065, "fusion_lon": 0.0, "fusion_lat": 0.0, "type": "electric_scooter", "name": "0d5a211d6fc3e1593a14a5d2371543bb", "is_disabled": 0, "rental_uris": {"ios": "https://dc.lft.to/lastmile_qr_scan", "android": "https://dc.lft.to/lastmile_qr_scan"}, "is_reserved": 0}, {"lon": -77.06130533333334, "bike_id": "834a0b6f6fa984bcb53b77c36b0bffcf", "lat": 38.9435275, "fusion_lon": 0.0, "fusion_lat": 0.0, "type": "electric_scooter", "name": "834a0b6f6fa984bcb53b77c36b0bffcf", "is_disabled": 0, "rental_uris": {"ios": "https://dc.lft.to/lastmile_qr_scan", "android": "https://dc.lft.to/lastmile_qr_scan"}, "is_reserved": 0}, {"lon": -77.024645, "bike_id": "9b78371b78602f02910308eb5599ac1c", "lat": 38.884168833333334, "fusion_lon": 0.0, "fusion_lat": 0.0, "type": "electric_scooter", "name": "9b78371b78602f02910308eb5599ac1c", "is_disabled": 0, "rental_uris": {"ios": "https://dc.lft.to/lastmile_qr_scan", "android": "https://dc.lft.to/lastmile_qr_scan"}, "is_reserved": 0}, {"lon": -76.99620683333333, "bike_id": "ec2db226f2b69418705eb3eeaebb9774", "lat": 38.9089795, "fusion_lon": 0.0, "fusion_lat": 0.0, "type": "electric_scooter", "name": "ec2db226f2b69418705eb3eeaebb9774", "is_disabled": 0, "rental_uris": {"ios": "https://dc.lft.to/lastmile_qr_scan", "android": "https://dc.lft.to/lastmile_qr_scan"}, "is_reserved": 0}, {"lon": -77.03473933333333, "bike_id": "5766e88f6ef6fcbc843a0b532084b81f", "lat": 38.92745016666667, "fusion_lon": 0.0, "fusion_lat": 0.0, "type": "electric_scooter", "name": "5766e88f6ef6fcbc843a0b532084b81f", "is_disabled": 0, "rental_uris": {"ios": "https://dc.lft.to/lastmile_qr_scan", "android": "https://dc.lft.to/lastmile_qr_scan"}, "is_reserved": 0}, {"lon": -77.04984983333334, "bike_id": "0c887a1de955fe2b2efee88f8a38320e", "lat": 38.899774, "fusion_lon": 0.0, "fusion_lat": 0.0, "type": "electric_scooter", "name": "0c887a1de955fe2b2efee88f8a38320e", "is_disabled": 0, "rental_uris": {"ios": "https://dc.lft.to/lastmile_qr_scan", "android": "https://dc.lft.to/lastmile_qr_scan"}, "is_reserved": 0}, {"lon": -77.0779695, "bike_id": "e3b6e774b39982c83a4bb5e182b2c5b6", "lat": 38.996011, "fusion_lon": 0.0, "fusion_lat": 0.0, "type": "electric_bike", "name": "e3b6e774b39982c83a4bb5e182b2c5b6", "is_disabled": 0, "rental_uris": {"ios": "https://dc.lft.to/lastmile_qr_scan", "android": "https://dc.lft.to/lastmile_qr_scan"}, "is_reserved": 0}, {"lon": -77.02534733333333, "bike_id": "0b0d57e4563e6f5448286e6a97385413", "lat": 38.9041235, "fusion_lon": 0.0, "fusion_lat": 0.0, "type": "electric_scooter", "name": "0b0d57e4563e6f5448286e6a97385413", "is_disabled": 0, "rental_uris": {"ios": "https://dc.lft.to/lastmile_qr_scan", "android": "https://dc.lft.to/lastmile_qr_scan"}, "is_reserved": 0}, {"lon": -77.06580166666667, "bike_id": "66e42023d26df41bf57bb66f3e3645a9", "lat": 38.911316166666666, "fusion_lon": 0.0, "fusion_lat": 0.0, "type": "electric_bike", "name": "66e42023d26df41bf57bb66f3e3645a9", "is_disabled": 0, "rental_uris": {"ios": "https://dc.lft.to/lastmile_qr_scan", "android": "https://dc.lft.to/lastmile_qr_scan"}, "is_reserved": 0}, {"lon": -77.03878716666667, "bike_id": "6c9449d2a8d6b958aa0f43c783ed64e5", "lat": 38.9330645, "fusion_lon": 0.0, "fusion_lat": 0.0, "type": "electric_scooter", "name": "6c9449d2a8d6b958aa0f43c783ed64e5", "is_disabled": 0, "rental_uris": {"ios": "https://dc.lft.to/lastmile_qr_scan", "android": "https://dc.lft.to/lastmile_qr_scan"}, "is_reserved": 0}, {"lon": -76.98196466666667, "bike_id": "4aaff6aa5e754b47c11b003f44674b94", "lat": 38.9259375, "fusion_lon": 0.0, "fusion_lat": 0.0, "type": "electric_scooter", "name": "4aaff6aa5e754b47c11b003f44674b94", "is_disabled": 0, "rental_uris": {"ios": "https://dc.lft.to/lastmile_qr_scan", "android": "https://dc.lft.to/lastmile_qr_scan"}, "is_reserved": 0}, {"lon": -77.02627066666666, "bike_id": "c7dc19d0ea0d85d55c3b03bfd79675ef", "lat": 38.962220333333335, "fusion_lon": 0.0, "fusion_lat": 0.0, "type": "electric_bike", "name": "c7dc19d0ea0d85d55c3b03bfd79675ef", "is_disabled": 0, "rental_uris": {"ios": "https://dc.lft.to/lastmile_qr_scan", "android": "https://dc.lft.to/lastmile_qr_scan"}, "is_reserved": 0}, {"lon": -77.00717666666667, "bike_id": "b7778ce7ae7b84d1ad3f31a8634a2258", "lat": 38.879356666666666, "fusion_lon": 0.0, "fusion_lat": 0.0, "type": "electric_scooter", "name": "b7778ce7ae7b84d1ad3f31a8634a2258", "is_disabled": 0, "rental_uris": {"ios": "https://dc.lft.to/lastmile_qr_scan", "android": "https://dc.lft.to/lastmile_qr_scan"}, "is_reserved": 0}, {"lon": -77.0390795, "bike_id": "85e45cdee35f1fd10223f0ad4ddbb4e3", "lat": 38.922402166666664, "fusion_lon": 0.0, "fusion_lat": 0.0, "type": "electric_scooter", "name": "85e45cdee35f1fd10223f0ad4ddbb4e3", "is_disabled": 0, "rental_uris": {"ios": "https://dc.lft.to/lastmile_qr_scan", "android": "https://dc.lft.to/lastmile_qr_scan"}, "is_reserved": 0}, {"lon": -77.10093, "bike_id": "c6c3d6dfa38e90f96fa01bc14b59064e", "lat": 38.9595925, "fusion_lon": 0.0, "fusion_lat": 0.0, "type": "electric_bike", "name": "c6c3d6dfa38e90f96fa01bc14b59064e", "is_disabled": 0, "rental_uris": {"ios": "https://dc.lft.to/lastmile_qr_scan", "android": "https://dc.lft.to/lastmile_qr_scan"}, "is_reserved": 0}, {"lon": -76.98263683333333, "bike_id": "657cd8701459743fb80c3f2fd13ee4cf", "lat": 38.908534, "fusion_lon": 0.0, "fusion_lat": 0.0, "type": "electric_scooter", "name": "657cd8701459743fb80c3f2fd13ee4cf", "is_disabled": 0, "rental_uris": {"ios": "https://dc.lft.to/lastmile_qr_scan", "android": "https://dc.lft.to/lastmile_qr_scan"}, "is_reserved": 0}, {"lon": -76.95487916666667, "bike_id": "76884ce4f9accca0d56c5518c6ece73d", "lat": 38.884642, "fusion_lon": 0.0, "fusion_lat": 0.0, "type": "electric_scooter", "name": "76884ce4f9accca0d56c5518c6ece73d", "is_disabled": 0, "rental_uris": {"ios": "https://dc.lft.to/lastmile_qr_scan", "android": "https://dc.lft.to/lastmile_qr_scan"}, "is_reserved": 0}, {"lon": -76.9940605, "bike_id": "0531b6846ba655db4773cee1e2575dda", "lat": 38.831387, "fusion_lon": 0.0, "fusion_lat": 0.0, "type": "electric_bike", "name": "0531b6846ba655db4773cee1e2575dda", "is_disabled": 0, "rental_uris": {"ios": "https://dc.lft.to/lastmile_qr_scan", "android": "https://dc.lft.to/lastmile_qr_scan"}, "is_reserved": 0}, {"lon": -76.98596616666667, "bike_id": "672bbd24ee90cc5dcebc7045cd200a02", "lat": 38.908105, "fusion_lon": 0.0, "fusion_lat": 0.0, "type": "electric_scooter", "name": "672bbd24ee90cc5dcebc7045cd200a02", "is_disabled": 0, "rental_uris": {"ios": "https://dc.lft.to/lastmile_qr_scan", "android": "https://dc.lft.to/lastmile_qr_scan"}, "is_reserved": 0}, {"lon": -76.9429085, "bike_id": "3d7adea2c8354b423e7983347237a132", "lat": 38.938674, "fusion_lon": 0.0, "fusion_lat": 0.0, "type": "electric_bike", "name": "3d7adea2c8354b423e7983347237a132", "is_disabled": 0, "rental_uris": {"ios": "https://dc.lft.to/lastmile_qr_scan", "android": "https://dc.lft.to/lastmile_qr_scan"}, "is_reserved": 0}, {"lon": -76.98886166666666, "bike_id": "65c56e1eee50b645fe11228ac8e16d3b", "lat": 38.8664655, "fusion_lon": 0.0, "fusion_lat": 0.0, "type": "electric_scooter", "name": "65c56e1eee50b645fe11228ac8e16d3b", "is_disabled": 0, "rental_uris": {"ios": "https://dc.lft.to/lastmile_qr_scan", "android": "https://dc.lft.to/lastmile_qr_scan"}, "is_reserved": 0}, {"lon": -76.9948645, "bike_id": "7c54336c5c6717ce5c4f65fafd25542a", "lat": 38.915691333333335, "fusion_lon": 0.0, "fusion_lat": 0.0, "type": "electric_scooter", "name": "7c54336c5c6717ce5c4f65fafd25542a", "is_disabled": 0, "rental_uris": {"ios": "https://dc.lft.to/lastmile_qr_scan", "android": "https://dc.lft.to/lastmile_qr_scan"}, "is_reserved": 0}, {"lon": -77.06484583333334, "bike_id": "ee16fdedb1c2438d8f4ba47a20610944", "lat": 38.9464695, "fusion_lon": 0.0, "fusion_lat": 0.0, "type": "electric_scooter", "name": "ee16fdedb1c2438d8f4ba47a20610944", "is_disabled": 0, "rental_uris": {"ios": "https://dc.lft.to/lastmile_qr_scan", "android": "https://dc.lft.to/lastmile_qr_scan"}, "is_reserved": 0}, {"lon": -77.04091483333333, "bike_id": "c55d9669e32e185911bcd8150d25985f", "lat": 38.920277, "fusion_lon": 0.0, "fusion_lat": 0.0, "type": "electric_scooter", "name": "c55d9669e32e185911bcd8150d25985f", "is_disabled": 0, "rental_uris": {"ios": "https://dc.lft.to/lastmile_qr_scan", "android": "https://dc.lft.to/lastmile_qr_scan"}, "is_reserved": 0}, {"lon": -76.9890415, "bike_id": "56ac659849ce91d95c7675125364bdb1", "lat": 38.9134695, "fusion_lon": 0.0, "fusion_lat": 0.0, "type": "electric_scooter", "name": "56ac659849ce91d95c7675125364bdb1", "is_disabled": 0, "rental_uris": {"ios": "https://dc.lft.to/lastmile_qr_scan", "android": "https://dc.lft.to/lastmile_qr_scan"}, "is_reserved": 0}, {"lon": -76.9337755, "bike_id": "25f876ad6766124e5149c95c78062ac4", "lat": 38.899073666666666, "fusion_lon": 0.0, "fusion_lat": 0.0, "type": "electric_scooter", "name": "25f876ad6766124e5149c95c78062ac4", "is_disabled": 0, "rental_uris": {"ios": "https://dc.lft.to/lastmile_qr_scan", "android": "https://dc.lft.to/lastmile_qr_scan"}, "is_reserved": 0}, {"lon": -77.036651, "bike_id": "ce671a49fbb5bb8a771bd0f0fe0e5208", "lat": 38.91750666666667, "fusion_lon": 0.0, "fusion_lat": 0.0, "type": "electric_scooter", "name": "ce671a49fbb5bb8a771bd0f0fe0e5208", "is_disabled": 0, "rental_uris": {"ios": "https://dc.lft.to/lastmile_qr_scan", "android": "https://dc.lft.to/lastmile_qr_scan"}, "is_reserved": 0}, {"lon": -77.02860833333334, "bike_id": "4c06b8c1121722225f654bba53da834d", "lat": 38.88739666666667, "fusion_lon": 0.0, "fusion_lat": 0.0, "type": "electric_scooter", "name": "4c06b8c1121722225f654bba53da834d", "is_disabled": 0, "rental_uris": {"ios": "https://dc.lft.to/lastmile_qr_scan", "android": "https://dc.lft.to/lastmile_qr_scan"}, "is_reserved": 0}, {"lon": -77.03636166666666, "bike_id": "e09fb32bd28478b1098c5fc1df782e12", "lat": 38.9329435, "fusion_lon": 0.0, "fusion_lat": 0.0, "type": "electric_scooter", "name": "e09fb32bd28478b1098c5fc1df782e12", "is_disabled": 0, "rental_uris": {"ios": "https://dc.lft.to/lastmile_qr_scan", "android": "https://dc.lft.to/lastmile_qr_scan"}, "is_reserved": 0}, {"lon": -76.97628883333333, "bike_id": "6f7da438b34c8e9e555be04ce0c3a8d7", "lat": 38.90569716666667, "fusion_lon": 0.0, "fusion_lat": 0.0, "type": "electric_scooter", "name": "6f7da438b34c8e9e555be04ce0c3a8d7", "is_disabled": 0, "rental_uris": {"ios": "https://dc.lft.to/lastmile_qr_scan", "android": "https://dc.lft.to/lastmile_qr_scan"}, "is_reserved": 0}, {"lon": -77.025053, "bike_id": "9c9b4384f4f2f8442c2d6da4e79b3833", "lat": 38.939578833333336, "fusion_lon": 0.0, "fusion_lat": 0.0, "type": "electric_scooter", "name": "9c9b4384f4f2f8442c2d6da4e79b3833", "is_disabled": 0, "rental_uris": {"ios": "https://dc.lft.to/lastmile_qr_scan", "android": "https://dc.lft.to/lastmile_qr_scan"}, "is_reserved": 0}, {"lon": -77.12531283333334, "bike_id": "0ca5ca45722c302faa3d754487448304", "lat": 39.05632883333333, "fusion_lon": 0.0, "fusion_lat": 0.0, "type": "electric_bike", "name": "0ca5ca45722c302faa3d754487448304", "is_disabled": 0, "rental_uris": {"ios": "https://dc.lft.to/lastmile_qr_scan", "android": "https://dc.lft.to/lastmile_qr_scan"}, "is_reserved": 0}, {"lon": -77.074498, "bike_id": "432b9cdc40885117bd7e313976ddeddd", "lat": 38.94509083333333, "fusion_lon": 0.0, "fusion_lat": 0.0, "type": "electric_scooter", "name": "432b9cdc40885117bd7e313976ddeddd", "is_disabled": 0, "rental_uris": {"ios": "https://dc.lft.to/lastmile_qr_scan", "android": "https://dc.lft.to/lastmile_qr_scan"}, "is_reserved": 0}, {"lon": -76.99930733333333, "bike_id": "469d505ea63e71ddaabd8f3830eb35d5", "lat": 38.84315733333333, "fusion_lon": 0.0, "fusion_lat": 0.0, "type": "electric_scooter", "name": "469d505ea63e71ddaabd8f3830eb35d5", "is_disabled": 0, "rental_uris": {"ios": "https://dc.lft.to/lastmile_qr_scan", "android": "https://dc.lft.to/lastmile_qr_scan"}, "is_reserved": 0}, {"lon": -77.0271945, "bike_id": "327e87d7ad9d56ac50baa2fac7ab3db6", "lat": 38.906718, "fusion_lon": 0.0, "fusion_lat": 0.0, "type": "electric_scooter", "name": "327e87d7ad9d56ac50baa2fac7ab3db6", "is_disabled": 0, "rental_uris": {"ios": "https://dc.lft.to/lastmile_qr_scan", "android": "https://dc.lft.to/lastmile_qr_scan"}, "is_reserved": 0}, {"lon": -76.989334, "bike_id": "38120effeff6a3ffa4ef5c71f74b19b0", "lat": 38.9184015, "fusion_lon": 0.0, "fusion_lat": 0.0, "type": "electric_scooter", "name": "38120effeff6a3ffa4ef5c71f74b19b0", "is_disabled": 0, "rental_uris": {"ios": "https://dc.lft.to/lastmile_qr_scan", "android": "https://dc.lft.to/lastmile_qr_scan"}, "is_reserved": 0}, {"lon": -77.03774566666667, "bike_id": "8250f6f1c53281104b4740659ddf199d", "lat": 38.929597666666666, "fusion_lon": 0.0, "fusion_lat": 0.0, "type": "electric_scooter", "name": "8250f6f1c53281104b4740659ddf199d", "is_disabled": 0, "rental_uris": {"ios": "https://dc.lft.to/lastmile_qr_scan", "android": "https://dc.lft.to/lastmile_qr_scan"}, "is_reserved": 0}, {"lon": -77.02570583333333, "bike_id": "49c52aaf48d50fb48f8d0411edb5c8ef", "lat": 38.91338116666667, "fusion_lon": 0.0, "fusion_lat": 0.0, "type": "electric_scooter", "name": "49c52aaf48d50fb48f8d0411edb5c8ef", "is_disabled": 0, "rental_uris": {"ios": "https://dc.lft.to/lastmile_qr_scan", "android": "https://dc.lft.to/lastmile_qr_scan"}, "is_reserved": 0}, {"lon": -76.987684, "bike_id": "42d6c313bbacf04f6bb140aea9e85731", "lat": 38.8577345, "fusion_lon": 0.0, "fusion_lat": 0.0, "type": "electric_bike", "name": "42d6c313bbacf04f6bb140aea9e85731", "is_disabled": 0, "rental_uris": {"ios": "https://dc.lft.to/lastmile_qr_scan", "android": "https://dc.lft.to/lastmile_qr_scan"}, "is_reserved": 0}, {"lon": -77.036922, "bike_id": "3362c9a85da4da55e5f8d732e00c3b54", "lat": 38.93522933333333, "fusion_lon": 0.0, "fusion_lat": 0.0, "type": "electric_scooter", "name": "3362c9a85da4da55e5f8d732e00c3b54", "is_disabled": 0, "rental_uris": {"ios": "https://dc.lft.to/lastmile_qr_scan", "android": "https://dc.lft.to/lastmile_qr_scan"}, "is_reserved": 0}, {"lon": -77.05588316666666, "bike_id": "a2c950b88ee71029170d99e632910ead", "lat": 38.89306466666667, "fusion_lon": 0.0, "fusion_lat": 0.0, "type": "electric_scooter", "name": "a2c950b88ee71029170d99e632910ead", "is_disabled": 0, "rental_uris": {"ios": "https://dc.lft.to/lastmile_qr_scan", "android": "https://dc.lft.to/lastmile_qr_scan"}, "is_reserved": 0}, {"lon": -77.03927, "bike_id": "f8297f90aac602ae0a8ead11c5319614", "lat": 38.92099783333333, "fusion_lon": 0.0, "fusion_lat": 0.0, "type": "electric_scooter", "name": "f8297f90aac602ae0a8ead11c5319614", "is_disabled": 0, "rental_uris": {"ios": "https://dc.lft.to/lastmile_qr_scan", "android": "https://dc.lft.to/lastmile_qr_scan"}, "is_reserved": 0}, {"lon": -77.04043783333333, "bike_id": "25e4819f85a822cc7a1c1cdc2f06a99f", "lat": 38.903830166666665, "fusion_lon": 0.0, "fusion_lat": 0.0, "type": "electric_scooter", "name": "25e4819f85a822cc7a1c1cdc2f06a99f", "is_disabled": 0, "rental_uris": {"ios": "https://dc.lft.to/lastmile_qr_scan", "android": "https://dc.lft.to/lastmile_qr_scan"}, "is_reserved": 0}, {"lon": -77.02997816666667, "bike_id": "4c0de0cfa83d2830bdc4f77cc823754a", "lat": 38.912645499999996, "fusion_lon": 0.0, "fusion_lat": 0.0, "type": "electric_scooter", "name": "4c0de0cfa83d2830bdc4f77cc823754a", "is_disabled": 0, "rental_uris": {"ios": "https://dc.lft.to/lastmile_qr_scan", "android": "https://dc.lft.to/lastmile_qr_scan"}, "is_reserved": 0}, {"lon": -76.984012, "bike_id": "8c179785b953b75b6ea60e8d9f4ac7d8", "lat": 38.906255333333334, "fusion_lon": 0.0, "fusion_lat": 0.0, "type": "electric_scooter", "name": "8c179785b953b75b6ea60e8d9f4ac7d8", "is_disabled": 0, "rental_uris": {"ios": "https://dc.lft.to/lastmile_qr_scan", "android": "https://dc.lft.to/lastmile_qr_scan"}, "is_reserved": 0}, {"lon": -76.95749683333334, "bike_id": "5c0f3231682fad13a0c37f7f269f21fa", "lat": 38.884253333333334, "fusion_lon": 0.0, "fusion_lat": 0.0, "type": "electric_scooter", "name": "5c0f3231682fad13a0c37f7f269f21fa", "is_disabled": 0, "rental_uris": {"ios": "https://dc.lft.to/lastmile_qr_scan", "android": "https://dc.lft.to/lastmile_qr_scan"}, "is_reserved": 0}, {"lon": -77.045826, "bike_id": "c87cce7b5409e37bb4c081d5dddd9bf8", "lat": 38.913572, "fusion_lon": 0.0, "fusion_lat": 0.0, "type": "electric_scooter", "name": "c87cce7b5409e37bb4c081d5dddd9bf8", "is_disabled": 0, "rental_uris": {"ios": "https://dc.lft.to/lastmile_qr_scan", "android": "https://dc.lft.to/lastmile_qr_scan"}, "is_reserved": 0}, {"lon": -77.00147533333333, "bike_id": "f9ac5766d291020670bf244aef599265", "lat": 38.91077216666667, "fusion_lon": 0.0, "fusion_lat": 0.0, "type": "electric_scooter", "name": "f9ac5766d291020670bf244aef599265", "is_disabled": 0, "rental_uris": {"ios": "https://dc.lft.to/lastmile_qr_scan", "android": "https://dc.lft.to/lastmile_qr_scan"}, "is_reserved": 0}, {"lon": -77.01201, "bike_id": "11697724f9cc35a4b68a73f35d2ef4bd", "lat": 38.824034166666664, "fusion_lon": 0.0, "fusion_lat": 0.0, "type": "electric_bike", "name": "11697724f9cc35a4b68a73f35d2ef4bd", "is_disabled": 0, "rental_uris": {"ios": "https://dc.lft.to/lastmile_qr_scan", "android": "https://dc.lft.to/lastmile_qr_scan"}, "is_reserved": 0}, {"lon": -77.02361616666667, "bike_id": "4b0499d9c96f33e242e08daad5818c56", "lat": 38.922238, "fusion_lon": 0.0, "fusion_lat": 0.0, "type": "electric_scooter", "name": "4b0499d9c96f33e242e08daad5818c56", "is_disabled": 0, "rental_uris": {"ios": "https://dc.lft.to/lastmile_qr_scan", "android": "https://dc.lft.to/lastmile_qr_scan"}, "is_reserved": 0}, {"lon": -77.00334616666666, "bike_id": "8a1eacebfbfff4f16e9611f26a9e0016", "lat": 38.891843, "fusion_lon": 0.0, "fusion_lat": 0.0, "type": "electric_scooter", "name": "8a1eacebfbfff4f16e9611f26a9e0016", "is_disabled": 0, "rental_uris": {"ios": "https://dc.lft.to/lastmile_qr_scan", "android": "https://dc.lft.to/lastmile_qr_scan"}, "is_reserved": 0}, {"lon": -77.0320985, "bike_id": "0fdd08be58afb9afb14b8ae0a8a927ba", "lat": 38.90732966666667, "fusion_lon": 0.0, "fusion_lat": 0.0, "type": "electric_scooter", "name": "0fdd08be58afb9afb14b8ae0a8a927ba", "is_disabled": 0, "rental_uris": {"ios": "https://dc.lft.to/lastmile_qr_scan", "android": "https://dc.lft.to/lastmile_qr_scan"}, "is_reserved": 0}, {"lon": -77.04052633333333, "bike_id": "9203884b6510ed2d0c86abb6f5cba2e0", "lat": 38.928766833333334, "fusion_lon": 0.0, "fusion_lat": 0.0, "type": "electric_scooter", "name": "9203884b6510ed2d0c86abb6f5cba2e0", "is_disabled": 0, "rental_uris": {"ios": "https://dc.lft.to/lastmile_qr_scan", "android": "https://dc.lft.to/lastmile_qr_scan"}, "is_reserved": 0}, {"lon": -77.02655966666667, "bike_id": "50f14429856d863804e0d351e82eb17a", "lat": 38.88109016666667, "fusion_lon": 0.0, "fusion_lat": 0.0, "type": "electric_scooter", "name": "50f14429856d863804e0d351e82eb17a", "is_disabled": 0, "rental_uris": {"ios": "https://dc.lft.to/lastmile_qr_scan", "android": "https://dc.lft.to/lastmile_qr_scan"}, "is_reserved": 0}, {"lon": -77.02324383333334, "bike_id": "d2783235ee7bf0cf9553ce9209d9492a", "lat": 38.894866, "fusion_lon": 0.0, "fusion_lat": 0.0, "type": "electric_scooter", "name": "d2783235ee7bf0cf9553ce9209d9492a", "is_disabled": 0, "rental_uris": {"ios": "https://dc.lft.to/lastmile_qr_scan", "android": "https://dc.lft.to/lastmile_qr_scan"}, "is_reserved": 0}, {"lon": -77.03194516666667, "bike_id": "3dc1cab049dfec0f66c395c788ae3492", "lat": 38.897687166666664, "fusion_lon": 0.0, "fusion_lat": 0.0, "type": "electric_scooter", "name": "3dc1cab049dfec0f66c395c788ae3492", "is_disabled": 0, "rental_uris": {"ios": "https://dc.lft.to/lastmile_qr_scan", "android": "https://dc.lft.to/lastmile_qr_scan"}, "is_reserved": 0}, {"lon": -77.11708883333333, "bike_id": "26b9645af0d3effcdaae106747cf4794", "lat": 38.867461666666664, "fusion_lon": 0.0, "fusion_lat": 0.0, "type": "electric_bike", "name": "26b9645af0d3effcdaae106747cf4794", "is_disabled": 0, "rental_uris": {"ios": "https://dc.lft.to/lastmile_qr_scan", "android": "https://dc.lft.to/lastmile_qr_scan"}, "is_reserved": 0}, {"lon": -77.0477215, "bike_id": "6c6af922bbbc61951ccd5cca29eac6b9", "lat": 38.917654, "fusion_lon": 0.0, "fusion_lat": 0.0, "type": "electric_scooter", "name": "6c6af922bbbc61951ccd5cca29eac6b9", "is_disabled": 0, "rental_uris": {"ios": "https://dc.lft.to/lastmile_qr_scan", "android": "https://dc.lft.to/lastmile_qr_scan"}, "is_reserved": 0}, {"lon": -77.00049616666666, "bike_id": "88c73721e225fac955085306e4dc511b", "lat": 38.923943, "fusion_lon": 0.0, "fusion_lat": 0.0, "type": "electric_scooter", "name": "88c73721e225fac955085306e4dc511b", "is_disabled": 0, "rental_uris": {"ios": "https://dc.lft.to/lastmile_qr_scan", "android": "https://dc.lft.to/lastmile_qr_scan"}, "is_reserved": 0}, {"lon": -77.036305, "bike_id": "da0c6efce2f2099ba72a88a9d0388993", "lat": 38.932889, "fusion_lon": 0.0, "fusion_lat": 0.0, "type": "electric_bike", "name": "da0c6efce2f2099ba72a88a9d0388993", "is_disabled": 0, "rental_uris": {"ios": "https://dc.lft.to/lastmile_qr_scan", "android": "https://dc.lft.to/lastmile_qr_scan"}, "is_reserved": 0}, {"lon": -77.03454433333333, "bike_id": "d7957e915756b00e00ccbb82a0cd1069", "lat": 38.927344166666664, "fusion_lon": 0.0, "fusion_lat": 0.0, "type": "electric_scooter", "name": "d7957e915756b00e00ccbb82a0cd1069", "is_disabled": 0, "rental_uris": {"ios": "https://dc.lft.to/lastmile_qr_scan", "android": "https://dc.lft.to/lastmile_qr_scan"}, "is_reserved": 0}, {"lon": -76.98533316666666, "bike_id": "4a3faaf96ccfc7dd1dda97dad95099cb", "lat": 38.90457283333333, "fusion_lon": 0.0, "fusion_lat": 0.0, "type": "electric_scooter", "name": "4a3faaf96ccfc7dd1dda97dad95099cb", "is_disabled": 0, "rental_uris": {"ios": "https://dc.lft.to/lastmile_qr_scan", "android": "https://dc.lft.to/lastmile_qr_scan"}, "is_reserved": 0}, {"lon": -77.0321195, "bike_id": "6cfa5e533fe419ebccbfde020b472a7e", "lat": 38.919227666666664, "fusion_lon": 0.0, "fusion_lat": 0.0, "type": "electric_scooter", "name": "6cfa5e533fe419ebccbfde020b472a7e", "is_disabled": 0, "rental_uris": {"ios": "https://dc.lft.to/lastmile_qr_scan", "android": "https://dc.lft.to/lastmile_qr_scan"}, "is_reserved": 0}, {"lon": -77.11613666666666, "bike_id": "9f8a0b23702412e9c96bcf1d5abfb7ec", "lat": 38.8548755, "fusion_lon": 0.0, "fusion_lat": 0.0, "type": "electric_bike", "name": "9f8a0b23702412e9c96bcf1d5abfb7ec", "is_disabled": 0, "rental_uris": {"ios": "https://dc.lft.to/lastmile_qr_scan", "android": "https://dc.lft.to/lastmile_qr_scan"}, "is_reserved": 0}, {"lon": -76.9417705, "bike_id": "53ae5ac143d47169fa3e7f6ead41b98b", "lat": 38.89268333333333, "fusion_lon": 0.0, "fusion_lat": 0.0, "type": "electric_scooter", "name": "53ae5ac143d47169fa3e7f6ead41b98b", "is_disabled": 0, "rental_uris": {"ios": "https://dc.lft.to/lastmile_qr_scan", "android": "https://dc.lft.to/lastmile_qr_scan"}, "is_reserved": 0}, {"lon": -77.00104683333333, "bike_id": "1526a875d22a5c35434514813f80527a", "lat": 38.91703016666666, "fusion_lon": 0.0, "fusion_lat": 0.0, "type": "electric_scooter", "name": "1526a875d22a5c35434514813f80527a", "is_disabled": 0, "rental_uris": {"ios": "https://dc.lft.to/lastmile_qr_scan", "android": "https://dc.lft.to/lastmile_qr_scan"}, "is_reserved": 0}, {"lon": -77.03600433333334, "bike_id": "7189b357ea53749f994e9ec39b46512b", "lat": 38.92683866666667, "fusion_lon": 0.0, "fusion_lat": 0.0, "type": "electric_scooter", "name": "7189b357ea53749f994e9ec39b46512b", "is_disabled": 0, "rental_uris": {"ios": "https://dc.lft.to/lastmile_qr_scan", "android": "https://dc.lft.to/lastmile_qr_scan"}, "is_reserved": 0}, {"lon": -77.03265166666667, "bike_id": "0ab38131b0a55e3aa059df96f0a86f43", "lat": 38.932613333333336, "fusion_lon": 0.0, "fusion_lat": 0.0, "type": "electric_scooter", "name": "0ab38131b0a55e3aa059df96f0a86f43", "is_disabled": 0, "rental_uris": {"ios": "https://dc.lft.to/lastmile_qr_scan", "android": "https://dc.lft.to/lastmile_qr_scan"}, "is_reserved": 0}, {"lon": -77.03722316666666, "bike_id": "200cfcd12c05f9c7b7ac192e401f6925", "lat": 38.914787, "fusion_lon": 0.0, "fusion_lat": 0.0, "type": "electric_scooter", "name": "200cfcd12c05f9c7b7ac192e401f6925", "is_disabled": 0, "rental_uris": {"ios": "https://dc.lft.to/lastmile_qr_scan", "android": "https://dc.lft.to/lastmile_qr_scan"}, "is_reserved": 0}, {"lon": -77.02711833333333, "bike_id": "266461ee3b2e1bbff78748bb9f797e4f", "lat": 38.906700666666666, "fusion_lon": 0.0, "fusion_lat": 0.0, "type": "electric_scooter", "name": "266461ee3b2e1bbff78748bb9f797e4f", "is_disabled": 0, "rental_uris": {"ios": "https://dc.lft.to/lastmile_qr_scan", "android": "https://dc.lft.to/lastmile_qr_scan"}, "is_reserved": 0}, {"lon": -76.99621683333334, "bike_id": "9c4e47520bc8a4f6be071b56b4e172b5", "lat": 38.90941316666667, "fusion_lon": 0.0, "fusion_lat": 0.0, "type": "electric_scooter", "name": "9c4e47520bc8a4f6be071b56b4e172b5", "is_disabled": 0, "rental_uris": {"ios": "https://dc.lft.to/lastmile_qr_scan", "android": "https://dc.lft.to/lastmile_qr_scan"}, "is_reserved": 0}, {"lon": -77.018954, "bike_id": "75b5a208602222949afce1f5221e2ec2", "lat": 38.874627333333336, "fusion_lon": 0.0, "fusion_lat": 0.0, "type": "electric_scooter", "name": "75b5a208602222949afce1f5221e2ec2", "is_disabled": 0, "rental_uris": {"ios": "https://dc.lft.to/lastmile_qr_scan", "android": "https://dc.lft.to/lastmile_qr_scan"}, "is_reserved": 0}, {"lon": -77.00258316666667, "bike_id": "2389a26b7e01eaf8b45d1596df123f61", "lat": 38.9181605, "fusion_lon": 0.0, "fusion_lat": 0.0, "type": "electric_scooter", "name": "2389a26b7e01eaf8b45d1596df123f61", "is_disabled": 0, "rental_uris": {"ios": "https://dc.lft.to/lastmile_qr_scan", "android": "https://dc.lft.to/lastmile_qr_scan"}, "is_reserved": 0}, {"lon": -76.98694883333333, "bike_id": "101fed1c5098e0408b136e9e41d43161", "lat": 38.912123666666666, "fusion_lon": 0.0, "fusion_lat": 0.0, "type": "electric_scooter", "name": "101fed1c5098e0408b136e9e41d43161", "is_disabled": 0, "rental_uris": {"ios": "https://dc.lft.to/lastmile_qr_scan", "android": "https://dc.lft.to/lastmile_qr_scan"}, "is_reserved": 0}, {"lon": -77.02347766666666, "bike_id": "683036c3a49d70759adda8ad1e50f6d2", "lat": 38.92248566666667, "fusion_lon": 0.0, "fusion_lat": 0.0, "type": "electric_scooter", "name": "683036c3a49d70759adda8ad1e50f6d2", "is_disabled": 0, "rental_uris": {"ios": "https://dc.lft.to/lastmile_qr_scan", "android": "https://dc.lft.to/lastmile_qr_scan"}, "is_reserved": 0}, {"lon": -77.00490766666667, "bike_id": "e8cb77a1fbc4512c00fe6f64d80695bc", "lat": 38.905576333333336, "fusion_lon": 0.0, "fusion_lat": 0.0, "type": "electric_scooter", "name": "e8cb77a1fbc4512c00fe6f64d80695bc", "is_disabled": 0, "rental_uris": {"ios": "https://dc.lft.to/lastmile_qr_scan", "android": "https://dc.lft.to/lastmile_qr_scan"}, "is_reserved": 0}, {"lon": -77.03447083333333, "bike_id": "b39c1cf29e1f16c85047f1a15da06281", "lat": 38.906995, "fusion_lon": 0.0, "fusion_lat": 0.0, "type": "electric_scooter", "name": "b39c1cf29e1f16c85047f1a15da06281", "is_disabled": 0, "rental_uris": {"ios": "https://dc.lft.to/lastmile_qr_scan", "android": "https://dc.lft.to/lastmile_qr_scan"}, "is_reserved": 0}, {"lon": -77.01513766666666, "bike_id": "763641422136a992c5d0d601b8fa367e", "lat": 38.900240833333335, "fusion_lon": 0.0, "fusion_lat": 0.0, "type": "electric_scooter", "name": "763641422136a992c5d0d601b8fa367e", "is_disabled": 0, "rental_uris": {"ios": "https://dc.lft.to/lastmile_qr_scan", "android": "https://dc.lft.to/lastmile_qr_scan"}, "is_reserved": 0}, {"lon": -77.02305666666666, "bike_id": "21c0da0e038ba0695b4e8b90458ed604", "lat": 38.9182985, "fusion_lon": 0.0, "fusion_lat": 0.0, "type": "electric_scooter", "name": "21c0da0e038ba0695b4e8b90458ed604", "is_disabled": 0, "rental_uris": {"ios": "https://dc.lft.to/lastmile_qr_scan", "android": "https://dc.lft.to/lastmile_qr_scan"}, "is_reserved": 0}, {"lon": -77.03135116666667, "bike_id": "261eed62ec2ea4ee5602b7717c90b64b", "lat": 38.9149605, "fusion_lon": 0.0, "fusion_lat": 0.0, "type": "electric_scooter", "name": "261eed62ec2ea4ee5602b7717c90b64b", "is_disabled": 0, "rental_uris": {"ios": "https://dc.lft.to/lastmile_qr_scan", "android": "https://dc.lft.to/lastmile_qr_scan"}, "is_reserved": 0}, {"lon": -77.02842383333333, "bike_id": "eb242ef9c191a30bda38f89fe5bea4a4", "lat": 38.925767666666665, "fusion_lon": 0.0, "fusion_lat": 0.0, "type": "electric_scooter", "name": "eb242ef9c191a30bda38f89fe5bea4a4", "is_disabled": 0, "rental_uris": {"ios": "https://dc.lft.to/lastmile_qr_scan", "android": "https://dc.lft.to/lastmile_qr_scan"}, "is_reserved": 0}, {"lon": -77.02832416666666, "bike_id": "592dbc63a3694ca82d2e2de400b597a8", "lat": 38.934622166666664, "fusion_lon": 0.0, "fusion_lat": 0.0, "type": "electric_scooter", "name": "592dbc63a3694ca82d2e2de400b597a8", "is_disabled": 0, "rental_uris": {"ios": "https://dc.lft.to/lastmile_qr_scan", "android": "https://dc.lft.to/lastmile_qr_scan"}, "is_reserved": 0}, {"lon": -77.028054, "bike_id": "4bb6b174f1c8be76400f519a5200f584", "lat": 38.91102516666667, "fusion_lon": 0.0, "fusion_lat": 0.0, "type": "electric_scooter", "name": "4bb6b174f1c8be76400f519a5200f584", "is_disabled": 0, "rental_uris": {"ios": "https://dc.lft.to/lastmile_qr_scan", "android": "https://dc.lft.to/lastmile_qr_scan"}, "is_reserved": 0}, {"lon": -77.00919783333333, "bike_id": "b3cfb6532ea5ec11ecbc70b1a59796ff", "lat": 38.910972666666666, "fusion_lon": 0.0, "fusion_lat": 0.0, "type": "electric_scooter", "name": "b3cfb6532ea5ec11ecbc70b1a59796ff", "is_disabled": 0, "rental_uris": {"ios": "https://dc.lft.to/lastmile_qr_scan", "android": "https://dc.lft.to/lastmile_qr_scan"}, "is_reserved": 0}, {"lon": -76.95756766666666, "bike_id": "b849a2e271343820132a6344cac45a52", "lat": 38.884295333333334, "fusion_lon": 0.0, "fusion_lat": 0.0, "type": "electric_scooter", "name": "b849a2e271343820132a6344cac45a52", "is_disabled": 0, "rental_uris": {"ios": "https://dc.lft.to/lastmile_qr_scan", "android": "https://dc.lft.to/lastmile_qr_scan"}, "is_reserved": 0}, {"lon": -77.0292275, "bike_id": "18c4321a26922fc6a9a4fc249d44d013", "lat": 38.934612, "fusion_lon": 0.0, "fusion_lat": 0.0, "type": "electric_scooter", "name": "18c4321a26922fc6a9a4fc249d44d013", "is_disabled": 0, "rental_uris": {"ios": "https://dc.lft.to/lastmile_qr_scan", "android": "https://dc.lft.to/lastmile_qr_scan"}, "is_reserved": 0}, {"lon": -77.04863533333334, "bike_id": "2248b7feb574514237b934568fc8ea8d", "lat": 38.90958033333333, "fusion_lon": 0.0, "fusion_lat": 0.0, "type": "electric_scooter", "name": "2248b7feb574514237b934568fc8ea8d", "is_disabled": 0, "rental_uris": {"ios": "https://dc.lft.to/lastmile_qr_scan", "android": "https://dc.lft.to/lastmile_qr_scan"}, "is_reserved": 0}, {"lon": -77.0220515, "bike_id": "a13e82912a97a567f1c93f42aa4fc8e1", "lat": 38.9208965, "fusion_lon": 0.0, "fusion_lat": 0.0, "type": "electric_scooter", "name": "a13e82912a97a567f1c93f42aa4fc8e1", "is_disabled": 0, "rental_uris": {"ios": "https://dc.lft.to/lastmile_qr_scan", "android": "https://dc.lft.to/lastmile_qr_scan"}, "is_reserved": 0}, {"lon": -77.017286, "bike_id": "bd00f0246681f4bacb58b59e27cdb517", "lat": 38.87294633333333, "fusion_lon": 0.0, "fusion_lat": 0.0, "type": "electric_scooter", "name": "bd00f0246681f4bacb58b59e27cdb517", "is_disabled": 0, "rental_uris": {"ios": "https://dc.lft.to/lastmile_qr_scan", "android": "https://dc.lft.to/lastmile_qr_scan"}, "is_reserved": 0}, {"lon": -77.06517933333333, "bike_id": "0b5ec443e529312b47255c6fdca574c0", "lat": 38.90885633333333, "fusion_lon": 0.0, "fusion_lat": 0.0, "type": "electric_scooter", "name": "0b5ec443e529312b47255c6fdca574c0", "is_disabled": 0, "rental_uris": {"ios": "https://dc.lft.to/lastmile_qr_scan", "android": "https://dc.lft.to/lastmile_qr_scan"}, "is_reserved": 0}, {"lon": -76.97338483333333, "bike_id": "f169240fd7b96146ca30bf7c4aa4c91a", "lat": 38.904804166666665, "fusion_lon": 0.0, "fusion_lat": 0.0, "type": "electric_bike", "name": "f169240fd7b96146ca30bf7c4aa4c91a", "is_disabled": 0, "rental_uris": {"ios": "https://dc.lft.to/lastmile_qr_scan", "android": "https://dc.lft.to/lastmile_qr_scan"}, "is_reserved": 0}, {"lon": -76.97910066666667, "bike_id": "c25ba87dca9dbd10840240b0862a9700", "lat": 38.9246025, "fusion_lon": 0.0, "fusion_lat": 0.0, "type": "electric_bike", "name": "c25ba87dca9dbd10840240b0862a9700", "is_disabled": 0, "rental_uris": {"ios": "https://dc.lft.to/lastmile_qr_scan", "android": "https://dc.lft.to/lastmile_qr_scan"}, "is_reserved": 0}, {"lon": -76.99792366666667, "bike_id": "ac771416ab5cce0422719a47ee57308a", "lat": 38.9564105, "fusion_lon": 0.0, "fusion_lat": 0.0, "type": "electric_bike", "name": "ac771416ab5cce0422719a47ee57308a", "is_disabled": 0, "rental_uris": {"ios": "https://dc.lft.to/lastmile_qr_scan", "android": "https://dc.lft.to/lastmile_qr_scan"}, "is_reserved": 0}, {"lon": -77.017662, "bike_id": "a86b40176a359ec69c83932a1d374a94", "lat": 38.9008465, "fusion_lon": 0.0, "fusion_lat": 0.0, "type": "electric_scooter", "name": "a86b40176a359ec69c83932a1d374a94", "is_disabled": 0, "rental_uris": {"ios": "https://dc.lft.to/lastmile_qr_scan", "android": "https://dc.lft.to/lastmile_qr_scan"}, "is_reserved": 0}, {"lon": -77.000509, "bike_id": "e13cac4a9b1d11647879484031607130", "lat": 38.8743665, "fusion_lon": 0.0, "fusion_lat": 0.0, "type": "electric_scooter", "name": "e13cac4a9b1d11647879484031607130", "is_disabled": 0, "rental_uris": {"ios": "https://dc.lft.to/lastmile_qr_scan", "android": "https://dc.lft.to/lastmile_qr_scan"}, "is_reserved": 0}, {"lon": -76.92578366666666, "bike_id": "6d75ba40ea3cc9d8643641f317e7161a", "lat": 38.897800333333336, "fusion_lon": 0.0, "fusion_lat": 0.0, "type": "electric_scooter", "name": "6d75ba40ea3cc9d8643641f317e7161a", "is_disabled": 0, "rental_uris": {"ios": "https://dc.lft.to/lastmile_qr_scan", "android": "https://dc.lft.to/lastmile_qr_scan"}, "is_reserved": 0}, {"lon": -77.02392183333333, "bike_id": "fef0bbef6455c64c23f1c51e75291d39", "lat": 38.88131083333333, "fusion_lon": 0.0, "fusion_lat": 0.0, "type": "electric_scooter", "name": "fef0bbef6455c64c23f1c51e75291d39", "is_disabled": 0, "rental_uris": {"ios": "https://dc.lft.to/lastmile_qr_scan", "android": "https://dc.lft.to/lastmile_qr_scan"}, "is_reserved": 0}, {"lon": -76.9927405, "bike_id": "014687639d4f5839841974b33d419c99", "lat": 38.896127166666666, "fusion_lon": 0.0, "fusion_lat": 0.0, "type": "electric_scooter", "name": "014687639d4f5839841974b33d419c99", "is_disabled": 0, "rental_uris": {"ios": "https://dc.lft.to/lastmile_qr_scan", "android": "https://dc.lft.to/lastmile_qr_scan"}, "is_reserved": 0}, {"lon": -77.04717066666667, "bike_id": "34031caf0f10538f75efce7f270d7b5f", "lat": 38.89963, "fusion_lon": 0.0, "fusion_lat": 0.0, "type": "electric_scooter", "name": "34031caf0f10538f75efce7f270d7b5f", "is_disabled": 0, "rental_uris": {"ios": "https://dc.lft.to/lastmile_qr_scan", "android": "https://dc.lft.to/lastmile_qr_scan"}, "is_reserved": 0}, {"lon": -77.03178033333333, "bike_id": "0982398a4fcf5144c063026813131003", "lat": 38.89221083333333, "fusion_lon": 0.0, "fusion_lat": 0.0, "type": "electric_scooter", "name": "0982398a4fcf5144c063026813131003", "is_disabled": 0, "rental_uris": {"ios": "https://dc.lft.to/lastmile_qr_scan", "android": "https://dc.lft.to/lastmile_qr_scan"}, "is_reserved": 0}, {"lon": -77.03639133333333, "bike_id": "e7bf0d449c53351cd3b7c9e4110f9a34", "lat": 38.937636833333336, "fusion_lon": 0.0, "fusion_lat": 0.0, "type": "electric_bike", "name": "e7bf0d449c53351cd3b7c9e4110f9a34", "is_disabled": 0, "rental_uris": {"ios": "https://dc.lft.to/lastmile_qr_scan", "android": "https://dc.lft.to/lastmile_qr_scan"}, "is_reserved": 0}, {"lon": -77.05726166666666, "bike_id": "eca1f20f3b85ac73ab8c540e6d163aa2", "lat": 38.93364966666667, "fusion_lon": 0.0, "fusion_lat": 0.0, "type": "electric_scooter", "name": "eca1f20f3b85ac73ab8c540e6d163aa2", "is_disabled": 0, "rental_uris": {"ios": "https://dc.lft.to/lastmile_qr_scan", "android": "https://dc.lft.to/lastmile_qr_scan"}, "is_reserved": 0}, {"lon": -77.07823366666666, "bike_id": "ccc3709a3f3056e055cfce0c6f5e436c", "lat": 38.9237005, "fusion_lon": 0.0, "fusion_lat": 0.0, "type": "electric_scooter", "name": "ccc3709a3f3056e055cfce0c6f5e436c", "is_disabled": 0, "rental_uris": {"ios": "https://dc.lft.to/lastmile_qr_scan", "android": "https://dc.lft.to/lastmile_qr_scan"}, "is_reserved": 0}, {"lon": -77.0411155, "bike_id": "de8cc06723f829facecaf53444fc0025", "lat": 38.915517666666666, "fusion_lon": 0.0, "fusion_lat": 0.0, "type": "electric_scooter", "name": "de8cc06723f829facecaf53444fc0025", "is_disabled": 0, "rental_uris": {"ios": "https://dc.lft.to/lastmile_qr_scan", "android": "https://dc.lft.to/lastmile_qr_scan"}, "is_reserved": 0}, {"lon": -77.0364645, "bike_id": "544de57d27efbc23a4feaab85c8ba79e", "lat": 38.91806533333333, "fusion_lon": 0.0, "fusion_lat": 0.0, "type": "electric_scooter", "name": "544de57d27efbc23a4feaab85c8ba79e", "is_disabled": 0, "rental_uris": {"ios": "https://dc.lft.to/lastmile_qr_scan", "android": "https://dc.lft.to/lastmile_qr_scan"}, "is_reserved": 0}, {"lon": -77.00575966666666, "bike_id": "d21a5b0edd89d5a122b2906d678ab726", "lat": 38.8299695, "fusion_lon": 0.0, "fusion_lat": 0.0, "type": "electric_scooter", "name": "d21a5b0edd89d5a122b2906d678ab726", "is_disabled": 0, "rental_uris": {"ios": "https://dc.lft.to/lastmile_qr_scan", "android": "https://dc.lft.to/lastmile_qr_scan"}, "is_reserved": 0}, {"lon": -77.0279685, "bike_id": "c2e1fa41a33cd59ed2a6dac562960354", "lat": 38.92286883333333, "fusion_lon": 0.0, "fusion_lat": 0.0, "type": "electric_scooter", "name": "c2e1fa41a33cd59ed2a6dac562960354", "is_disabled": 0, "rental_uris": {"ios": "https://dc.lft.to/lastmile_qr_scan", "android": "https://dc.lft.to/lastmile_qr_scan"}, "is_reserved": 0}, {"lon": -76.99190183333333, "bike_id": "d060ad28131539d9e216e9d30dde4fb7", "lat": 38.8826155, "fusion_lon": 0.0, "fusion_lat": 0.0, "type": "electric_scooter", "name": "d060ad28131539d9e216e9d30dde4fb7", "is_disabled": 0, "rental_uris": {"ios": "https://dc.lft.to/lastmile_qr_scan", "android": "https://dc.lft.to/lastmile_qr_scan"}, "is_reserved": 0}, {"lon": -77.03232133333333, "bike_id": "3e88cf8f407453defb00303d8ec767ea", "lat": 38.92989433333334, "fusion_lon": 0.0, "fusion_lat": 0.0, "type": "electric_scooter", "name": "3e88cf8f407453defb00303d8ec767ea", "is_disabled": 0, "rental_uris": {"ios": "https://dc.lft.to/lastmile_qr_scan", "android": "https://dc.lft.to/lastmile_qr_scan"}, "is_reserved": 0}, {"lon": -77.02370516666667, "bike_id": "2cf142c2c9a9f5f24a7b84cf5d1c98c7", "lat": 38.896168833333334, "fusion_lon": 0.0, "fusion_lat": 0.0, "type": "electric_scooter", "name": "2cf142c2c9a9f5f24a7b84cf5d1c98c7", "is_disabled": 0, "rental_uris": {"ios": "https://dc.lft.to/lastmile_qr_scan", "android": "https://dc.lft.to/lastmile_qr_scan"}, "is_reserved": 0}, {"lon": -76.98797383333333, "bike_id": "733e7a2979d357f05d0a5b8651a33209", "lat": 38.89238783333333, "fusion_lon": 0.0, "fusion_lat": 0.0, "type": "electric_scooter", "name": "733e7a2979d357f05d0a5b8651a33209", "is_disabled": 0, "rental_uris": {"ios": "https://dc.lft.to/lastmile_qr_scan", "android": "https://dc.lft.to/lastmile_qr_scan"}, "is_reserved": 0}, {"lon": -77.0188405, "bike_id": "972d9db4bfc16e9f3a2e343d6906f8f0", "lat": 38.90610483333333, "fusion_lon": 0.0, "fusion_lat": 0.0, "type": "electric_scooter", "name": "972d9db4bfc16e9f3a2e343d6906f8f0", "is_disabled": 0, "rental_uris": {"ios": "https://dc.lft.to/lastmile_qr_scan", "android": "https://dc.lft.to/lastmile_qr_scan"}, "is_reserved": 0}, {"lon": -77.03207416666666, "bike_id": "4baf27f2eb27adb24de1d54d5b43ea50", "lat": 38.90717133333333, "fusion_lon": 0.0, "fusion_lat": 0.0, "type": "electric_scooter", "name": "4baf27f2eb27adb24de1d54d5b43ea50", "is_disabled": 0, "rental_uris": {"ios": "https://dc.lft.to/lastmile_qr_scan", "android": "https://dc.lft.to/lastmile_qr_scan"}, "is_reserved": 0}, {"lon": -77.02290183333334, "bike_id": "fde0e80985fb206901aa0f513341d854", "lat": 38.9329205, "fusion_lon": 0.0, "fusion_lat": 0.0, "type": "electric_scooter", "name": "fde0e80985fb206901aa0f513341d854", "is_disabled": 0, "rental_uris": {"ios": "https://dc.lft.to/lastmile_qr_scan", "android": "https://dc.lft.to/lastmile_qr_scan"}, "is_reserved": 0}, {"lon": -77.05565916666667, "bike_id": "88f940dc100af0cb04f6d30abe91f438", "lat": 38.93039316666667, "fusion_lon": 0.0, "fusion_lat": 0.0, "type": "electric_scooter", "name": "88f940dc100af0cb04f6d30abe91f438", "is_disabled": 0, "rental_uris": {"ios": "https://dc.lft.to/lastmile_qr_scan", "android": "https://dc.lft.to/lastmile_qr_scan"}, "is_reserved": 0}, {"lon": -77.10525733333333, "bike_id": "9824a33ff24072c016c7f9dc33f1ba32", "lat": 38.873749, "fusion_lon": 0.0, "fusion_lat": 0.0, "type": "electric_bike", "name": "9824a33ff24072c016c7f9dc33f1ba32", "is_disabled": 0, "rental_uris": {"ios": "https://dc.lft.to/lastmile_qr_scan", "android": "https://dc.lft.to/lastmile_qr_scan"}, "is_reserved": 0}, {"lon": -76.983128, "bike_id": "531e45caced918c4bc693c2b64449bb9", "lat": 38.899695, "fusion_lon": 0.0, "fusion_lat": 0.0, "type": "electric_scooter", "name": "531e45caced918c4bc693c2b64449bb9", "is_disabled": 0, "rental_uris": {"ios": "https://dc.lft.to/lastmile_qr_scan", "android": "https://dc.lft.to/lastmile_qr_scan"}, "is_reserved": 0}, {"lon": -76.9926915, "bike_id": "50f4f89e1d67628aca2fae30673ef9f8", "lat": 38.903856166666664, "fusion_lon": 0.0, "fusion_lat": 0.0, "type": "electric_scooter", "name": "50f4f89e1d67628aca2fae30673ef9f8", "is_disabled": 0, "rental_uris": {"ios": "https://dc.lft.to/lastmile_qr_scan", "android": "https://dc.lft.to/lastmile_qr_scan"}, "is_reserved": 0}, {"lon": -77.03356883333333, "bike_id": "b0a2f873ad6036d1d85c411429d13e35", "lat": 38.905534833333334, "fusion_lon": 0.0, "fusion_lat": 0.0, "type": "electric_scooter", "name": "b0a2f873ad6036d1d85c411429d13e35", "is_disabled": 0, "rental_uris": {"ios": "https://dc.lft.to/lastmile_qr_scan", "android": "https://dc.lft.to/lastmile_qr_scan"}, "is_reserved": 0}, {"lon": -76.98151033333333, "bike_id": "8109602255cf1b14c4c53e1369d6fb64", "lat": 38.9056765, "fusion_lon": 0.0, "fusion_lat": 0.0, "type": "electric_scooter", "name": "8109602255cf1b14c4c53e1369d6fb64", "is_disabled": 0, "rental_uris": {"ios": "https://dc.lft.to/lastmile_qr_scan", "android": "https://dc.lft.to/lastmile_qr_scan"}, "is_reserved": 0}, {"lon": -77.0271415, "bike_id": "803a546e68a542a1756ce8b9f197e0da", "lat": 38.90672266666667, "fusion_lon": 0.0, "fusion_lat": 0.0, "type": "electric_scooter", "name": "803a546e68a542a1756ce8b9f197e0da", "is_disabled": 0, "rental_uris": {"ios": "https://dc.lft.to/lastmile_qr_scan", "android": "https://dc.lft.to/lastmile_qr_scan"}, "is_reserved": 0}, {"lon": -77.02226266666666, "bike_id": "283177f1cf623f1bbc8f5cdde94c6895", "lat": 38.95687616666667, "fusion_lon": 0.0, "fusion_lat": 0.0, "type": "electric_bike", "name": "283177f1cf623f1bbc8f5cdde94c6895", "is_disabled": 0, "rental_uris": {"ios": "https://dc.lft.to/lastmile_qr_scan", "android": "https://dc.lft.to/lastmile_qr_scan"}, "is_reserved": 0}, {"lon": -77.023819, "bike_id": "ccb1fe8e9aadfcdee7aaa83f59bd3a16", "lat": 38.90636116666667, "fusion_lon": 0.0, "fusion_lat": 0.0, "type": "electric_scooter", "name": "ccb1fe8e9aadfcdee7aaa83f59bd3a16", "is_disabled": 0, "rental_uris": {"ios": "https://dc.lft.to/lastmile_qr_scan", "android": "https://dc.lft.to/lastmile_qr_scan"}, "is_reserved": 0}, {"lon": -77.01758366666667, "bike_id": "1c3824dd607d72f2bf1e59eea13d13e5", "lat": 38.90374833333333, "fusion_lon": 0.0, "fusion_lat": 0.0, "type": "electric_scooter", "name": "1c3824dd607d72f2bf1e59eea13d13e5", "is_disabled": 0, "rental_uris": {"ios": "https://dc.lft.to/lastmile_qr_scan", "android": "https://dc.lft.to/lastmile_qr_scan"}, "is_reserved": 0}, {"lon": -77.07257116666666, "bike_id": "6ce81957b10f2fc689a3b5a164709182", "lat": 38.93435916666667, "fusion_lon": 0.0, "fusion_lat": 0.0, "type": "electric_scooter", "name": "6ce81957b10f2fc689a3b5a164709182", "is_disabled": 0, "rental_uris": {"ios": "https://dc.lft.to/lastmile_qr_scan", "android": "https://dc.lft.to/lastmile_qr_scan"}, "is_reserved": 0}, {"lon": -77.04325716666666, "bike_id": "ca247e27addf3b5820538bef9db648cf", "lat": 38.91876666666667, "fusion_lon": 0.0, "fusion_lat": 0.0, "type": "electric_scooter", "name": "ca247e27addf3b5820538bef9db648cf", "is_disabled": 0, "rental_uris": {"ios": "https://dc.lft.to/lastmile_qr_scan", "android": "https://dc.lft.to/lastmile_qr_scan"}, "is_reserved": 0}, {"lon": -77.0165175, "bike_id": "63ff6474620d43ae8e249544aabbb8b8", "lat": 38.899812, "fusion_lon": 0.0, "fusion_lat": 0.0, "type": "electric_scooter", "name": "63ff6474620d43ae8e249544aabbb8b8", "is_disabled": 0, "rental_uris": {"ios": "https://dc.lft.to/lastmile_qr_scan", "android": "https://dc.lft.to/lastmile_qr_scan"}, "is_reserved": 0}, {"lon": -77.054173, "bike_id": "6c17cf070427bfb7db969f8ef800105e", "lat": 38.928344333333335, "fusion_lon": 0.0, "fusion_lat": 0.0, "type": "electric_scooter", "name": "6c17cf070427bfb7db969f8ef800105e", "is_disabled": 0, "rental_uris": {"ios": "https://dc.lft.to/lastmile_qr_scan", "android": "https://dc.lft.to/lastmile_qr_scan"}, "is_reserved": 0}, {"lon": -77.020949, "bike_id": "b803c2582cc6f08c8a81fd663ad91ee0", "lat": 38.929043166666666, "fusion_lon": 0.0, "fusion_lat": 0.0, "type": "electric_scooter", "name": "b803c2582cc6f08c8a81fd663ad91ee0", "is_disabled": 0, "rental_uris": {"ios": "https://dc.lft.to/lastmile_qr_scan", "android": "https://dc.lft.to/lastmile_qr_scan"}, "is_reserved": 0}, {"lon": -77.03211983333334, "bike_id": "2aa9ed0c6976cfaea7f0f0844f69b653", "lat": 38.936158, "fusion_lon": 0.0, "fusion_lat": 0.0, "type": "electric_scooter", "name": "2aa9ed0c6976cfaea7f0f0844f69b653", "is_disabled": 0, "rental_uris": {"ios": "https://dc.lft.to/lastmile_qr_scan", "android": "https://dc.lft.to/lastmile_qr_scan"}, "is_reserved": 0}, {"lon": -77.03635783333333, "bike_id": "b38ae4b70ec67f4be8a651390e833ae3", "lat": 38.91556333333333, "fusion_lon": 0.0, "fusion_lat": 0.0, "type": "electric_scooter", "name": "b38ae4b70ec67f4be8a651390e833ae3", "is_disabled": 0, "rental_uris": {"ios": "https://dc.lft.to/lastmile_qr_scan", "android": "https://dc.lft.to/lastmile_qr_scan"}, "is_reserved": 0}, {"lon": -77.00539416666666, "bike_id": "eaf997a269412a06efaa139f7df7fa50", "lat": 38.8754505, "fusion_lon": 0.0, "fusion_lat": 0.0, "type": "electric_scooter", "name": "eaf997a269412a06efaa139f7df7fa50", "is_disabled": 0, "rental_uris": {"ios": "https://dc.lft.to/lastmile_qr_scan", "android": "https://dc.lft.to/lastmile_qr_scan"}, "is_reserved": 0}, {"lon": -76.93278033333333, "bike_id": "e9fa2d8a86edd035e3d433eeb6af0dcd", "lat": 38.954239666666666, "fusion_lon": 0.0, "fusion_lat": 0.0, "type": "electric_bike", "name": "e9fa2d8a86edd035e3d433eeb6af0dcd", "is_disabled": 0, "rental_uris": {"ios": "https://dc.lft.to/lastmile_qr_scan", "android": "https://dc.lft.to/lastmile_qr_scan"}, "is_reserved": 0}, {"lon": -77.00122366666666, "bike_id": "9e59d5d72251f688b2911bbdceed64fa", "lat": 38.87821916666667, "fusion_lon": 0.0, "fusion_lat": 0.0, "type": "electric_scooter", "name": "9e59d5d72251f688b2911bbdceed64fa", "is_disabled": 0, "rental_uris": {"ios": "https://dc.lft.to/lastmile_qr_scan", "android": "https://dc.lft.to/lastmile_qr_scan"}, "is_reserved": 0}, {"lon": -77.043846, "bike_id": "c27059328f9ca534c3bbd67df668879a", "lat": 38.918712166666666, "fusion_lon": 0.0, "fusion_lat": 0.0, "type": "electric_scooter", "name": "c27059328f9ca534c3bbd67df668879a", "is_disabled": 0, "rental_uris": {"ios": "https://dc.lft.to/lastmile_qr_scan", "android": "https://dc.lft.to/lastmile_qr_scan"}, "is_reserved": 0}, {"lon": -77.04867383333334, "bike_id": "2f9d5fb6bf6c43fed0a868a2ae2f577c", "lat": 38.916203, "fusion_lon": 0.0, "fusion_lat": 0.0, "type": "electric_scooter", "name": "2f9d5fb6bf6c43fed0a868a2ae2f577c", "is_disabled": 0, "rental_uris": {"ios": "https://dc.lft.to/lastmile_qr_scan", "android": "https://dc.lft.to/lastmile_qr_scan"}, "is_reserved": 0}, {"lon": -77.00075083333333, "bike_id": "08ed8303dccd071fc7770fce6c590101", "lat": 38.899938166666665, "fusion_lon": 0.0, "fusion_lat": 0.0, "type": "electric_scooter", "name": "08ed8303dccd071fc7770fce6c590101", "is_disabled": 0, "rental_uris": {"ios": "https://dc.lft.to/lastmile_qr_scan", "android": "https://dc.lft.to/lastmile_qr_scan"}, "is_reserved": 0}, {"lon": -77.01109816666667, "bike_id": "2b7c0bec72a8ad13bde6518aba1cb446", "lat": 38.9037435, "fusion_lon": 0.0, "fusion_lat": 0.0, "type": "electric_scooter", "name": "2b7c0bec72a8ad13bde6518aba1cb446", "is_disabled": 0, "rental_uris": {"ios": "https://dc.lft.to/lastmile_qr_scan", "android": "https://dc.lft.to/lastmile_qr_scan"}, "is_reserved": 0}, {"lon": -77.0184355, "bike_id": "6acc83de0cea2b559ec8e8454fcac8a2", "lat": 38.912601333333335, "fusion_lon": 0.0, "fusion_lat": 0.0, "type": "electric_scooter", "name": "6acc83de0cea2b559ec8e8454fcac8a2", "is_disabled": 0, "rental_uris": {"ios": "https://dc.lft.to/lastmile_qr_scan", "android": "https://dc.lft.to/lastmile_qr_scan"}, "is_reserved": 0}, {"lon": -77.0347555, "bike_id": "10646786ab673fe38cb9b163161821f1", "lat": 38.90689733333333, "fusion_lon": 0.0, "fusion_lat": 0.0, "type": "electric_scooter", "name": "10646786ab673fe38cb9b163161821f1", "is_disabled": 0, "rental_uris": {"ios": "https://dc.lft.to/lastmile_qr_scan", "android": "https://dc.lft.to/lastmile_qr_scan"}, "is_reserved": 0}, {"lon": -76.9860445, "bike_id": "d0f73f3f4c6d9254af80309c1d1e5a37", "lat": 38.90621983333333, "fusion_lon": 0.0, "fusion_lat": 0.0, "type": "electric_bike", "name": "d0f73f3f4c6d9254af80309c1d1e5a37", "is_disabled": 0, "rental_uris": {"ios": "https://dc.lft.to/lastmile_qr_scan", "android": "https://dc.lft.to/lastmile_qr_scan"}, "is_reserved": 0}, {"lon": -77.03464783333334, "bike_id": "c9e8ce4bff5e5f3d0b3b0b9b999e5731", "lat": 38.919323, "fusion_lon": 0.0, "fusion_lat": 0.0, "type": "electric_scooter", "name": "c9e8ce4bff5e5f3d0b3b0b9b999e5731", "is_disabled": 0, "rental_uris": {"ios": "https://dc.lft.to/lastmile_qr_scan", "android": "https://dc.lft.to/lastmile_qr_scan"}, "is_reserved": 0}, {"lon": -76.98525783333334, "bike_id": "a61071cc8459055a6804adfa8c9dd471", "lat": 38.866837333333336, "fusion_lon": 0.0, "fusion_lat": 0.0, "type": "electric_scooter", "name": "a61071cc8459055a6804adfa8c9dd471", "is_disabled": 0, "rental_uris": {"ios": "https://dc.lft.to/lastmile_qr_scan", "android": "https://dc.lft.to/lastmile_qr_scan"}, "is_reserved": 0}, {"lon": -77.0507925, "bike_id": "28e68e45492672ed50b3bb561ff6bcdd", "lat": 38.81362133333333, "fusion_lon": 0.0, "fusion_lat": 0.0, "type": "electric_bike", "name": "28e68e45492672ed50b3bb561ff6bcdd", "is_disabled": 0, "rental_uris": {"ios": "https://dc.lft.to/lastmile_qr_scan", "android": "https://dc.lft.to/lastmile_qr_scan"}, "is_reserved": 0}, {"lon": -77.03261583333334, "bike_id": "29beedd271cc4138a52cc82596d54f7b", "lat": 38.9198945, "fusion_lon": 0.0, "fusion_lat": 0.0, "type": "electric_scooter", "name": "29beedd271cc4138a52cc82596d54f7b", "is_disabled": 0, "rental_uris": {"ios": "https://dc.lft.to/lastmile_qr_scan", "android": "https://dc.lft.to/lastmile_qr_scan"}, "is_reserved": 0}, {"lon": -77.0423395, "bike_id": "8f50a35e1ddbdbfbe7345e8fb336193e", "lat": 38.9140355, "fusion_lon": 0.0, "fusion_lat": 0.0, "type": "electric_scooter", "name": "8f50a35e1ddbdbfbe7345e8fb336193e", "is_disabled": 0, "rental_uris": {"ios": "https://dc.lft.to/lastmile_qr_scan", "android": "https://dc.lft.to/lastmile_qr_scan"}, "is_reserved": 0}, {"lon": -77.00554533333333, "bike_id": "3291bfabb9b51bc145170ac69867fc64", "lat": 38.87466533333333, "fusion_lon": 0.0, "fusion_lat": 0.0, "type": "electric_scooter", "name": "3291bfabb9b51bc145170ac69867fc64", "is_disabled": 0, "rental_uris": {"ios": "https://dc.lft.to/lastmile_qr_scan", "android": "https://dc.lft.to/lastmile_qr_scan"}, "is_reserved": 0}, {"lon": -76.97429016666666, "bike_id": "8fa754f509c3b89d828ae222938a7ecf", "lat": 38.904008166666664, "fusion_lon": 0.0, "fusion_lat": 0.0, "type": "electric_scooter", "name": "8fa754f509c3b89d828ae222938a7ecf", "is_disabled": 0, "rental_uris": {"ios": "https://dc.lft.to/lastmile_qr_scan", "android": "https://dc.lft.to/lastmile_qr_scan"}, "is_reserved": 0}, {"lon": -77.00494966666666, "bike_id": "75edff8a463227429d5541105c572b87", "lat": 38.90564116666667, "fusion_lon": 0.0, "fusion_lat": 0.0, "type": "electric_scooter", "name": "75edff8a463227429d5541105c572b87", "is_disabled": 0, "rental_uris": {"ios": "https://dc.lft.to/lastmile_qr_scan", "android": "https://dc.lft.to/lastmile_qr_scan"}, "is_reserved": 0}, {"lon": -77.02292483333333, "bike_id": "e20051ae85567296d1be4d9338ac74b5", "lat": 38.922291333333334, "fusion_lon": 0.0, "fusion_lat": 0.0, "type": "electric_scooter", "name": "e20051ae85567296d1be4d9338ac74b5", "is_disabled": 0, "rental_uris": {"ios": "https://dc.lft.to/lastmile_qr_scan", "android": "https://dc.lft.to/lastmile_qr_scan"}, "is_reserved": 0}, {"lon": -77.0384075, "bike_id": "d3b2281884377396fad29a557f140f28", "lat": 38.931008, "fusion_lon": 0.0, "fusion_lat": 0.0, "type": "electric_scooter", "name": "d3b2281884377396fad29a557f140f28", "is_disabled": 0, "rental_uris": {"ios": "https://dc.lft.to/lastmile_qr_scan", "android": "https://dc.lft.to/lastmile_qr_scan"}, "is_reserved": 0}, {"lon": -77.0202875, "bike_id": "d46c7e15c5ea336b059b1aefb6c2d8d6", "lat": 38.905556833333335, "fusion_lon": 0.0, "fusion_lat": 0.0, "type": "electric_scooter", "name": "d46c7e15c5ea336b059b1aefb6c2d8d6", "is_disabled": 0, "rental_uris": {"ios": "https://dc.lft.to/lastmile_qr_scan", "android": "https://dc.lft.to/lastmile_qr_scan"}, "is_reserved": 0}, {"lon": -77.027699, "bike_id": "e9e3d06b77da62a360dae643960be5b0", "lat": 38.954233, "fusion_lon": 0.0, "fusion_lat": 0.0, "type": "electric_scooter", "name": "e9e3d06b77da62a360dae643960be5b0", "is_disabled": 0, "rental_uris": {"ios": "https://dc.lft.to/lastmile_qr_scan", "android": "https://dc.lft.to/lastmile_qr_scan"}, "is_reserved": 0}, {"lon": -76.907366, "bike_id": "7933bd0b834096d2da2784fb10c7e3ee", "lat": 38.89612416666667, "fusion_lon": 0.0, "fusion_lat": 0.0, "type": "electric_bike", "name": "7933bd0b834096d2da2784fb10c7e3ee", "is_disabled": 0, "rental_uris": {"ios": "https://dc.lft.to/lastmile_qr_scan", "android": "https://dc.lft.to/lastmile_qr_scan"}, "is_reserved": 0}, {"lon": -77.04470816666667, "bike_id": "8b65292fce552e239541558e2b07035e", "lat": 38.923931333333336, "fusion_lon": 0.0, "fusion_lat": 0.0, "type": "electric_scooter", "name": "8b65292fce552e239541558e2b07035e", "is_disabled": 0, "rental_uris": {"ios": "https://dc.lft.to/lastmile_qr_scan", "android": "https://dc.lft.to/lastmile_qr_scan"}, "is_reserved": 0}, {"lon": -77.019028, "bike_id": "9de2aa6bf31fb1bffc8d33882bf5cbde", "lat": 38.89964416666667, "fusion_lon": 0.0, "fusion_lat": 0.0, "type": "electric_scooter", "name": "9de2aa6bf31fb1bffc8d33882bf5cbde", "is_disabled": 0, "rental_uris": {"ios": "https://dc.lft.to/lastmile_qr_scan", "android": "https://dc.lft.to/lastmile_qr_scan"}, "is_reserved": 0}, {"lon": -77.03882083333333, "bike_id": "259be2f84a26dff0d5d9d7564fb0589e", "lat": 38.94870216666666, "fusion_lon": 0.0, "fusion_lat": 0.0, "type": "electric_scooter", "name": "259be2f84a26dff0d5d9d7564fb0589e", "is_disabled": 0, "rental_uris": {"ios": "https://dc.lft.to/lastmile_qr_scan", "android": "https://dc.lft.to/lastmile_qr_scan"}, "is_reserved": 0}, {"lon": -76.97430866666667, "bike_id": "9e2808b7873809fec8a4952dc4259638", "lat": 38.93234116666667, "fusion_lon": 0.0, "fusion_lat": 0.0, "type": "electric_bike", "name": "9e2808b7873809fec8a4952dc4259638", "is_disabled": 0, "rental_uris": {"ios": "https://dc.lft.to/lastmile_qr_scan", "android": "https://dc.lft.to/lastmile_qr_scan"}, "is_reserved": 0}, {"lon": -77.046532, "bike_id": "bece4b84ee42a5a62f582f50c448efbb", "lat": 39.05502883333333, "fusion_lon": 0.0, "fusion_lat": 0.0, "type": "electric_bike", "name": "bece4b84ee42a5a62f582f50c448efbb", "is_disabled": 0, "rental_uris": {"ios": "https://dc.lft.to/lastmile_qr_scan", "android": "https://dc.lft.to/lastmile_qr_scan"}, "is_reserved": 0}, {"lon": -77.055843, "bike_id": "2a6d0285a0c3f348796e52273e1ac041", "lat": 38.933504666666664, "fusion_lon": 0.0, "fusion_lat": 0.0, "type": "electric_scooter", "name": "2a6d0285a0c3f348796e52273e1ac041", "is_disabled": 0, "rental_uris": {"ios": "https://dc.lft.to/lastmile_qr_scan", "android": "https://dc.lft.to/lastmile_qr_scan"}, "is_reserved": 0}, {"lon": -77.01771566666666, "bike_id": "221f55bdb958a0b8ddd2adef4741b600", "lat": 38.8874015, "fusion_lon": 0.0, "fusion_lat": 0.0, "type": "electric_scooter", "name": "221f55bdb958a0b8ddd2adef4741b600", "is_disabled": 0, "rental_uris": {"ios": "https://dc.lft.to/lastmile_qr_scan", "android": "https://dc.lft.to/lastmile_qr_scan"}, "is_reserved": 0}, {"lon": -77.02759866666666, "bike_id": "fbac1fde136ed8daddf9f3fbd05e5d4b", "lat": 38.96566133333334, "fusion_lon": 0.0, "fusion_lat": 0.0, "type": "electric_bike", "name": "fbac1fde136ed8daddf9f3fbd05e5d4b", "is_disabled": 0, "rental_uris": {"ios": "https://dc.lft.to/lastmile_qr_scan", "android": "https://dc.lft.to/lastmile_qr_scan"}, "is_reserved": 0}, {"lon": -77.060321, "bike_id": "4c340aa24cb2c8048036d7476d635dd3", "lat": 38.933604833333334, "fusion_lon": 0.0, "fusion_lat": 0.0, "type": "electric_scooter", "name": "4c340aa24cb2c8048036d7476d635dd3", "is_disabled": 0, "rental_uris": {"ios": "https://dc.lft.to/lastmile_qr_scan", "android": "https://dc.lft.to/lastmile_qr_scan"}, "is_reserved": 0}, {"lon": -76.95654633333334, "bike_id": "f8b7d97629be6a6a42e44155dce097b7", "lat": 38.89623916666667, "fusion_lon": 0.0, "fusion_lat": 0.0, "type": "electric_scooter", "name": "f8b7d97629be6a6a42e44155dce097b7", "is_disabled": 0, "rental_uris": {"ios": "https://dc.lft.to/lastmile_qr_scan", "android": "https://dc.lft.to/lastmile_qr_scan"}, "is_reserved": 0}, {"lon": -76.9612925, "bike_id": "bdffe35d6af961e7b7997b7ede1a60f8", "lat": 38.94205916666667, "fusion_lon": 0.0, "fusion_lat": 0.0, "type": "electric_bike", "name": "bdffe35d6af961e7b7997b7ede1a60f8", "is_disabled": 0, "rental_uris": {"ios": "https://dc.lft.to/lastmile_qr_scan", "android": "https://dc.lft.to/lastmile_qr_scan"}, "is_reserved": 0}, {"lon": -77.052366, "bike_id": "951675114a786b22b81a643fe1de5240", "lat": 38.92465516666667, "fusion_lon": 0.0, "fusion_lat": 0.0, "type": "electric_scooter", "name": "951675114a786b22b81a643fe1de5240", "is_disabled": 0, "rental_uris": {"ios": "https://dc.lft.to/lastmile_qr_scan", "android": "https://dc.lft.to/lastmile_qr_scan"}, "is_reserved": 0}, {"lon": -77.03669183333334, "bike_id": "7743ba373a5794943579a936f158d85a", "lat": 38.932086, "fusion_lon": 0.0, "fusion_lat": 0.0, "type": "electric_scooter", "name": "7743ba373a5794943579a936f158d85a", "is_disabled": 0, "rental_uris": {"ios": "https://dc.lft.to/lastmile_qr_scan", "android": "https://dc.lft.to/lastmile_qr_scan"}, "is_reserved": 0}, {"lon": -77.018124, "bike_id": "30593ce96388bfb6452c1eac13275cf4", "lat": 38.964833, "fusion_lon": 0.0, "fusion_lat": 0.0, "type": "electric_scooter", "name": "30593ce96388bfb6452c1eac13275cf4", "is_disabled": 0, "rental_uris": {"ios": "https://dc.lft.to/lastmile_qr_scan", "android": "https://dc.lft.to/lastmile_qr_scan"}, "is_reserved": 0}, {"lon": -77.0417485, "bike_id": "8363c8ea44fa5cf2f80925fc00287d05", "lat": 38.9054375, "fusion_lon": 0.0, "fusion_lat": 0.0, "type": "electric_scooter", "name": "8363c8ea44fa5cf2f80925fc00287d05", "is_disabled": 0, "rental_uris": {"ios": "https://dc.lft.to/lastmile_qr_scan", "android": "https://dc.lft.to/lastmile_qr_scan"}, "is_reserved": 0}, {"lon": -76.884039, "bike_id": "d63d45324c53fecf66a92e8d695e2744", "lat": 38.93166766666667, "fusion_lon": 0.0, "fusion_lat": 0.0, "type": "electric_bike", "name": "d63d45324c53fecf66a92e8d695e2744", "is_disabled": 0, "rental_uris": {"ios": "https://dc.lft.to/lastmile_qr_scan", "android": "https://dc.lft.to/lastmile_qr_scan"}, "is_reserved": 0}, {"lon": -77.12739533333334, "bike_id": "47632a8b2a8e48353a6e4a50f5182475", "lat": 38.89567233333333, "fusion_lon": 0.0, "fusion_lat": 0.0, "type": "electric_bike", "name": "47632a8b2a8e48353a6e4a50f5182475", "is_disabled": 0, "rental_uris": {"ios": "https://dc.lft.to/lastmile_qr_scan", "android": "https://dc.lft.to/lastmile_qr_scan"}, "is_reserved": 0}, {"lon": -76.93175633333334, "bike_id": "c7cf3aece6299052ff665ede0408675c", "lat": 38.89883566666666, "fusion_lon": 0.0, "fusion_lat": 0.0, "type": "electric_scooter", "name": "c7cf3aece6299052ff665ede0408675c", "is_disabled": 0, "rental_uris": {"ios": "https://dc.lft.to/lastmile_qr_scan", "android": "https://dc.lft.to/lastmile_qr_scan"}, "is_reserved": 0}, {"lon": -77.03810383333334, "bike_id": "e0a0193d753f9d2335c13d5774bbe623", "lat": 38.920581166666665, "fusion_lon": 0.0, "fusion_lat": 0.0, "type": "electric_scooter", "name": "e0a0193d753f9d2335c13d5774bbe623", "is_disabled": 0, "rental_uris": {"ios": "https://dc.lft.to/lastmile_qr_scan", "android": "https://dc.lft.to/lastmile_qr_scan"}, "is_reserved": 0}, {"lon": -77.034217, "bike_id": "b6c18df63f82441f44f4915f44b6b8e4", "lat": 38.93350983333333, "fusion_lon": 0.0, "fusion_lat": 0.0, "type": "electric_scooter", "name": "b6c18df63f82441f44f4915f44b6b8e4", "is_disabled": 0, "rental_uris": {"ios": "https://dc.lft.to/lastmile_qr_scan", "android": "https://dc.lft.to/lastmile_qr_scan"}, "is_reserved": 0}, {"lon": -76.9364185, "bike_id": "32b372d2edddf4f2e9f2d0debd85c3eb", "lat": 38.900613, "fusion_lon": 0.0, "fusion_lat": 0.0, "type": "electric_scooter", "name": "32b372d2edddf4f2e9f2d0debd85c3eb", "is_disabled": 0, "rental_uris": {"ios": "https://dc.lft.to/lastmile_qr_scan", "android": "https://dc.lft.to/lastmile_qr_scan"}, "is_reserved": 0}, {"lon": -76.999314, "bike_id": "83ab74a096d3da7fe180408b1cac16b2", "lat": 38.843151666666664, "fusion_lon": 0.0, "fusion_lat": 0.0, "type": "electric_scooter", "name": "83ab74a096d3da7fe180408b1cac16b2", "is_disabled": 0, "rental_uris": {"ios": "https://dc.lft.to/lastmile_qr_scan", "android": "https://dc.lft.to/lastmile_qr_scan"}, "is_reserved": 0}, {"lon": -77.02444783333333, "bike_id": "c4a0e3d0e7c968965a6acb2a0410a349", "lat": 38.9375455, "fusion_lon": 0.0, "fusion_lat": 0.0, "type": "electric_scooter", "name": "c4a0e3d0e7c968965a6acb2a0410a349", "is_disabled": 0, "rental_uris": {"ios": "https://dc.lft.to/lastmile_qr_scan", "android": "https://dc.lft.to/lastmile_qr_scan"}, "is_reserved": 0}, {"lon": -76.93011566666667, "bike_id": "5b33b5f6b6e91d1961de1540d930a978", "lat": 38.89647383333333, "fusion_lon": 0.0, "fusion_lat": 0.0, "type": "electric_bike", "name": "5b33b5f6b6e91d1961de1540d930a978", "is_disabled": 0, "rental_uris": {"ios": "https://dc.lft.to/lastmile_qr_scan", "android": "https://dc.lft.to/lastmile_qr_scan"}, "is_reserved": 0}, {"lon": -77.04047066666666, "bike_id": "7b1649c454490ebf74e5e992281301a4", "lat": 38.88988066666667, "fusion_lon": 0.0, "fusion_lat": 0.0, "type": "electric_scooter", "name": "7b1649c454490ebf74e5e992281301a4", "is_disabled": 0, "rental_uris": {"ios": "https://dc.lft.to/lastmile_qr_scan", "android": "https://dc.lft.to/lastmile_qr_scan"}, "is_reserved": 0}, {"lon": -77.03289966666667, "bike_id": "f7cf670c1106a6a0f55942b580260ccd", "lat": 38.956488666666665, "fusion_lon": 0.0, "fusion_lat": 0.0, "type": "electric_scooter", "name": "f7cf670c1106a6a0f55942b580260ccd", "is_disabled": 0, "rental_uris": {"ios": "https://dc.lft.to/lastmile_qr_scan", "android": "https://dc.lft.to/lastmile_qr_scan"}, "is_reserved": 0}, {"lon": -76.9574425, "bike_id": "118a783ef147041121e56ba750e38a83", "lat": 38.884265, "fusion_lon": 0.0, "fusion_lat": 0.0, "type": "electric_scooter", "name": "118a783ef147041121e56ba750e38a83", "is_disabled": 0, "rental_uris": {"ios": "https://dc.lft.to/lastmile_qr_scan", "android": "https://dc.lft.to/lastmile_qr_scan"}, "is_reserved": 0}, {"lon": -76.87497166666667, "bike_id": "8a8a11f67874678203c4b4393089406e", "lat": 38.990914, "fusion_lon": 0.0, "fusion_lat": 0.0, "type": "electric_bike", "name": "8a8a11f67874678203c4b4393089406e", "is_disabled": 0, "rental_uris": {"ios": "https://dc.lft.to/lastmile_qr_scan", "android": "https://dc.lft.to/lastmile_qr_scan"}, "is_reserved": 0}, {"lon": -77.044208, "bike_id": "0b6c79ec32f1befa69fefb48e53e024c", "lat": 38.921069333333335, "fusion_lon": 0.0, "fusion_lat": 0.0, "type": "electric_scooter", "name": "0b6c79ec32f1befa69fefb48e53e024c", "is_disabled": 0, "rental_uris": {"ios": "https://dc.lft.to/lastmile_qr_scan", "android": "https://dc.lft.to/lastmile_qr_scan"}, "is_reserved": 0}, {"lon": -76.99179116666667, "bike_id": "8d3b01f9717314afb6b8384f2fe23717", "lat": 38.90504116666666, "fusion_lon": 0.0, "fusion_lat": 0.0, "type": "electric_scooter", "name": "8d3b01f9717314afb6b8384f2fe23717", "is_disabled": 0, "rental_uris": {"ios": "https://dc.lft.to/lastmile_qr_scan", "android": "https://dc.lft.to/lastmile_qr_scan"}, "is_reserved": 0}, {"lon": -77.10844866666666, "bike_id": "50e2b06e2f80dd4e94d5ece0345525a8", "lat": 38.811978333333336, "fusion_lon": 0.0, "fusion_lat": 0.0, "type": "electric_bike", "name": "50e2b06e2f80dd4e94d5ece0345525a8", "is_disabled": 0, "rental_uris": {"ios": "https://dc.lft.to/lastmile_qr_scan", "android": "https://dc.lft.to/lastmile_qr_scan"}, "is_reserved": 0}, {"lon": -77.03248883333333, "bike_id": "6e919b06484fe7559d4c06230c5949ca", "lat": 38.90132766666667, "fusion_lon": 0.0, "fusion_lat": 0.0, "type": "electric_scooter", "name": "6e919b06484fe7559d4c06230c5949ca", "is_disabled": 0, "rental_uris": {"ios": "https://dc.lft.to/lastmile_qr_scan", "android": "https://dc.lft.to/lastmile_qr_scan"}, "is_reserved": 0}, {"lon": -77.0400645, "bike_id": "c6f22227ea2f42e8c032c0a1d02d23d4", "lat": 38.90993683333333, "fusion_lon": 0.0, "fusion_lat": 0.0, "type": "electric_scooter", "name": "c6f22227ea2f42e8c032c0a1d02d23d4", "is_disabled": 0, "rental_uris": {"ios": "https://dc.lft.to/lastmile_qr_scan", "android": "https://dc.lft.to/lastmile_qr_scan"}, "is_reserved": 0}, {"lon": -77.0362415, "bike_id": "cb2ac8f4b1c4629ffdf1011bdbf90fa8", "lat": 38.93156066666667, "fusion_lon": 0.0, "fusion_lat": 0.0, "type": "electric_scooter", "name": "cb2ac8f4b1c4629ffdf1011bdbf90fa8", "is_disabled": 0, "rental_uris": {"ios": "https://dc.lft.to/lastmile_qr_scan", "android": "https://dc.lft.to/lastmile_qr_scan"}, "is_reserved": 0}, {"lon": -77.0347025, "bike_id": "57f0944a36acc8882e23b2f26ea63739", "lat": 38.919845333333335, "fusion_lon": 0.0, "fusion_lat": 0.0, "type": "electric_scooter", "name": "57f0944a36acc8882e23b2f26ea63739", "is_disabled": 0, "rental_uris": {"ios": "https://dc.lft.to/lastmile_qr_scan", "android": "https://dc.lft.to/lastmile_qr_scan"}, "is_reserved": 0}, {"lon": -77.01453683333334, "bike_id": "004cdb8269dcdfece4df4b5345cc7348", "lat": 38.917720333333335, "fusion_lon": 0.0, "fusion_lat": 0.0, "type": "electric_scooter", "name": "004cdb8269dcdfece4df4b5345cc7348", "is_disabled": 0, "rental_uris": {"ios": "https://dc.lft.to/lastmile_qr_scan", "android": "https://dc.lft.to/lastmile_qr_scan"}, "is_reserved": 0}, {"lon": -77.025742, "bike_id": "e905a93669783b6c066e262874296e72", "lat": 38.914956, "fusion_lon": 0.0, "fusion_lat": 0.0, "type": "electric_scooter", "name": "e905a93669783b6c066e262874296e72", "is_disabled": 0, "rental_uris": {"ios": "https://dc.lft.to/lastmile_qr_scan", "android": "https://dc.lft.to/lastmile_qr_scan"}, "is_reserved": 0},