{"data": {"bikes": [{"is_disabled": 0, "fusion_lat": 0.0, "lat": 38.897782166666666, "type": "electric_scooter", "lon": -76.97722783333333, "is_reserved": 0, "fusion_lon": 0.0, "bike_id": "039f3ae27cd9bae9c41888766f8ac627", "name": "039f3ae27cd9bae9c41888766f8ac627", "rental_uris": {"ios": "https://dc.lft.to/lastmile_qr_scan", "android": "https://dc.lft.to/lastmile_qr_scan"}}, {"is_disabled": 0, "fusion_lat": 0.0, "lat": 38.91778766666667, "type": "electric_scooter", "lon": -76.97339766666667, "is_reserved": 0, "fusion_lon": 0.0, "bike_id": "cdd96dc88f8eb1990280d01d388c092e", "name": "cdd96dc88f8eb1990280d01d388c092e", "rental_uris": {"ios": "https://dc.lft.to/lastmile_qr_scan", "android": "https://dc.lft.to/lastmile_qr_scan"}}, {"is_disabled": 0, "fusion_lat": 0.0, "lat": 38.887089833333334, "type": "electric_scooter", "lon": -77.00155566666666, "is_reserved": 0, "fusion_lon": 0.0, "bike_id": "0585508807665a9f03a745f55f2b331d", "name": "0585508807665a9f03a745f55f2b331d", "rental_uris": {"ios": "https://dc.lft.to/lastmile_qr_scan", "android": "https://dc.lft.to/lastmile_qr_scan"}}, {"is_disabled": 0, "fusion_lat": 0.0, "lat": 38.9218655, "type": "electric_scooter", "lon": -77.04234316666667, "is_reserved": 0, "fusion_lon": 0.0, "bike_id": "eb9367d9688bf28240bc1b75e0678fe9", "name": "eb9367d9688bf28240bc1b75e0678fe9", "rental_uris": {"ios": "https://dc.lft.to/lastmile_qr_scan", "android": "https://dc.lft.to/lastmile_qr_scan"}}, {"is_disabled": 0, "fusion_lat": 0.0, "lat": 38.91719033333333, "type": "electric_scooter", "lon": -77.02895266666667, "is_reserved": 0, "fusion_lon": 0.0, "bike_id": "4e139f83001ff0c6e54e950caf2663f2", "name": "4e139f83001ff0c6e54e950caf2663f2", "rental_uris": {"ios": "https://dc.lft.to/lastmile_qr_scan", "android": "https://dc.lft.to/lastmile_qr_scan"}}, {"is_disabled": 0, "fusion_lat": 0.0, "lat": 38.923341, "type": "electric_scooter", "lon": -77.03904716666666, "is_reserved": 0, "fusion_lon": 0.0, "bike_id": "a3c9f96be8d11b6b84faa7c258b96363", "name": "a3c9f96be8d11b6b84faa7c258b96363", "rental_uris": {"ios": "https://dc.lft.to/lastmile_qr_scan", "android": "https://dc.lft.to/lastmile_qr_scan"}}, {"is_disabled": 0, "fusion_lat": 0.0, "lat": 38.894712166666665, "type": "electric_scooter", "lon": -76.99381283333334, "is_reserved": 0, "fusion_lon": 0.0, "bike_id": "9f8b862db9959d8cb7e3a2a917e586e3", "name": "9f8b862db9959d8cb7e3a2a917e586e3", "rental_uris": {"ios": "https://dc.lft.to/lastmile_qr_scan", "android": "https://dc.lft.to/lastmile_qr_scan"}}, {"is_disabled": 0, "fusion_lat": 0.0, "lat": 38.923122666666664, "type": "electric_scooter", "lon": -77.021243, "is_reserved": 0, "fusion_lon": 0.0, "bike_id": "b918ec07ac0b49b921e8a99180e8787f", "name": "b918ec07ac0b49b921e8a99180e8787f", "rental_uris": {"ios": "https://dc.lft.to/lastmile_qr_scan", "android": "https://dc.lft.to/lastmile_qr_scan"}}, {"is_disabled": 0, "fusion_lat": 0.0, "lat": 38.91558166666667, "type": "electric_scooter", "lon": -77.0350525, "is_reserved": 0, "fusion_lon": 0.0, "bike_id": "f45d09f4a78c7f94ad7f530112a0db6a", "name": "f45d09f4a78c7f94ad7f530112a0db6a", "rental_uris": {"ios": "https://dc.lft.to/lastmile_qr_scan", "android": "https://dc.lft.to/lastmile_qr_scan"}}, {"is_disabled": 0, "fusion_lat": 0.0, "lat": 39.03051583333333, "type": "electric_bike", "lon": -77.094835, "is_reserved": 0, "fusion_lon": 0.0, "bike_id": "51ca25f16aa5e2fbe12e69561c3f3c87", "name": "51ca25f16aa5e2fbe12e69561c3f3c87", "rental_uris": {"ios": "https://dc.lft.to/lastmile_qr_scan", "android": "https://dc.lft.to/lastmile_qr_scan"}}, {"is_disabled": 0, "fusion_lat": 0.0, "lat": 38.907178333333334, "type": "electric_scooter", "lon": -77.0331905, "is_reserved": 0, "fusion_lon": 0.0, "bike_id": "e2c170cf1256d8c7edc793b1f0c02834", "name": "e2c170cf1256d8c7edc793b1f0c02834", "rental_uris": {"ios": "https://dc.lft.to/lastmile_qr_scan", "android": "https://dc.lft.to/lastmile_qr_scan"}}, {"is_disabled": 0, "fusion_lat": 0.0, "lat": 38.89253016666667, "type": "electric_bike", "lon": -76.985426, "is_reserved": 0, "fusion_lon": 0.0, "bike_id": "94a2057f2e9f584fe1899fc219464b79", "name": "94a2057f2e9f584fe1899fc219464b79", "rental_uris": {"ios": "https://dc.lft.to/lastmile_qr_scan", "android": "https://dc.lft.to/lastmile_qr_scan"}}, {"is_disabled": 0, "fusion_lat": 0.0, "lat": 38.90502133333333, "type": "electric_scooter", "lon": -77.062801, "is_reserved": 0, "fusion_lon": 0.0, "bike_id": "fb6bf59ebf37c7c673395cc1fbec61ee", "name": "fb6bf59ebf37c7c673395cc1fbec61ee", "rental_uris": {"ios": "https://dc.lft.to/lastmile_qr_scan", "android": "https://dc.lft.to/lastmile_qr_scan"}}, {"is_disabled": 0, "fusion_lat": 0.0, "lat": 38.94442266666667, "type": "electric_scooter", "lon": -77.063455, "is_reserved": 0, "fusion_lon": 0.0, "bike_id": "4f0b7222b94662d011d73a49f8a404b4", "name": "4f0b7222b94662d011d73a49f8a404b4", "rental_uris": {"ios": "https://dc.lft.to/lastmile_qr_scan", "android": "https://dc.lft.to/lastmile_qr_scan"}}, {"is_disabled": 0, "fusion_lat": 0.0, "lat": 39.03885183333333, "type": "electric_bike", "lon": -76.990418, "is_reserved": 0, "fusion_lon": 0.0, "bike_id": "bdb1b212b4b884c64e830a9262ef68c2", "name": "bdb1b212b4b884c64e830a9262ef68c2", "rental_uris": {"ios": "https://dc.lft.to/lastmile_qr_scan", "android": "https://dc.lft.to/lastmile_qr_scan"}}, {"is_disabled": 0, "fusion_lat": 0.0, "lat": 38.90493816666667, "type": "electric_scooter", "lon": -77.06015316666667, "is_reserved": 0, "fusion_lon": 0.0, "bike_id": "489ec5689f59fb84e900d848f721ff67", "name": "489ec5689f59fb84e900d848f721ff67", "rental_uris": {"ios": "https://dc.lft.to/lastmile_qr_scan", "android": "https://dc.lft.to/lastmile_qr_scan"}}, {"is_disabled": 0, "fusion_lat": 0.0, "lat": 38.9422985, "type": "electric_scooter", "lon": -77.01535133333333, "is_reserved": 0, "fusion_lon": 0.0, "bike_id": "951925514b541e3fc686980b167ffbf5", "name": "951925514b541e3fc686980b167ffbf5", "rental_uris": {"ios": "https://dc.lft.to/lastmile_qr_scan", "android": "https://dc.lft.to/lastmile_qr_scan"}}, {"is_disabled": 0, "fusion_lat": 0.0, "lat": 38.897666666666666, "type": "electric_scooter", "lon": -76.98555683333333, "is_reserved": 0, "fusion_lon": 0.0, "bike_id": "044f212b331d154b8c0939ea84fa5079", "name": "044f212b331d154b8c0939ea84fa5079", "rental_uris": {"ios": "https://dc.lft.to/lastmile_qr_scan", "android": "https://dc.lft.to/lastmile_qr_scan"}}, {"is_disabled": 0, "fusion_lat": 0.0, "lat": 38.90516083333333, "type": "electric_scooter", "lon": -77.051483, "is_reserved": 0, "fusion_lon": 0.0, "bike_id": "71da9a88c783dc4e33ae183f8dbfb859", "name": "71da9a88c783dc4e33ae183f8dbfb859", "rental_uris": {"ios": "https://dc.lft.to/lastmile_qr_scan", "android": "https://dc.lft.to/lastmile_qr_scan"}}, {"is_disabled": 0, "fusion_lat": 0.0, "lat": 38.942086, "type": "electric_bike", "lon": -77.0182575, "is_reserved": 0, "fusion_lon": 0.0, "bike_id": "42d3b50644dba30b52139794a6d969e9", "name": "42d3b50644dba30b52139794a6d969e9", "rental_uris": {"ios": "https://dc.lft.to/lastmile_qr_scan", "android": "https://dc.lft.to/lastmile_qr_scan"}}, {"is_disabled": 0, "fusion_lat": 0.0, "lat": 38.90802583333333, "type": "electric_scooter", "lon": -77.034185, "is_reserved": 0, "fusion_lon": 0.0, "bike_id": "3d5e57d9847577cfc63e65ab141c9135", "name": "3d5e57d9847577cfc63e65ab141c9135", "rental_uris": {"ios": "https://dc.lft.to/lastmile_qr_scan", "android": "https://dc.lft.to/lastmile_qr_scan"}}, {"is_disabled": 0, "fusion_lat": 0.0, "lat": 38.8581235, "type": "electric_scooter", "lon": -76.98650216666667, "is_reserved": 0, "fusion_lon": 0.0, "bike_id": "8ada84863fe29b35be8478df30951f75", "name": "8ada84863fe29b35be8478df30951f75", "rental_uris": {"ios": "https://dc.lft.to/lastmile_qr_scan", "android": "https://dc.lft.to/lastmile_qr_scan"}}, {"is_disabled": 0, "fusion_lat": 0.0, "lat": 38.905677833333336, "type": "electric_scooter", "lon": -77.0347565, "is_reserved": 0, "fusion_lon": 0.0, "bike_id": "97bc7f52849aa2ae8b5df5b00c13a4ad", "name": "97bc7f52849aa2ae8b5df5b00c13a4ad", "rental_uris": {"ios": "https://dc.lft.to/lastmile_qr_scan", "android": "https://dc.lft.to/lastmile_qr_scan"}}, {"is_disabled": 0, "fusion_lat": 0.0, "lat": 38.892256333333336, "type": "electric_scooter", "lon": -77.02446533333334, "is_reserved": 0, "fusion_lon": 0.0, "bike_id": "5ce5a9faae05e8a9080f80438728dfef", "name": "5ce5a9faae05e8a9080f80438728dfef", "rental_uris": {"ios": "https://dc.lft.to/lastmile_qr_scan", "android": "https://dc.lft.to/lastmile_qr_scan"}}, {"is_disabled": 0, "fusion_lat": 0.0, "lat": 38.957568, "type": "electric_scooter", "lon": -77.02065383333333, "is_reserved": 0, "fusion_lon": 0.0, "bike_id": "19262e3634f53e1a7dad8bd92529915f", "name": "19262e3634f53e1a7dad8bd92529915f", "rental_uris": {"ios": "https://dc.lft.to/lastmile_qr_scan", "android": "https://dc.lft.to/lastmile_qr_scan"}}, {"is_disabled": 0, "fusion_lat": 0.0, "lat": 38.958948, "type": "electric_bike", "lon": -76.92484283333333, "is_reserved": 0, "fusion_lon": 0.0, "bike_id": "ef49b63028961e86b4fb310a31ad3d05", "name": "ef49b63028961e86b4fb310a31ad3d05", "rental_uris": {"ios": "https://dc.lft.to/lastmile_qr_scan", "android": "https://dc.lft.to/lastmile_qr_scan"}}, {"is_disabled": 0, "fusion_lat": 0.0, "lat": 38.893731333333335, "type": "electric_scooter", "lon": -76.949986, "is_reserved": 0, "fusion_lon": 0.0, "bike_id": "0455847b9c8c5f64c1dbf639250805ab", "name": "0455847b9c8c5f64c1dbf639250805ab", "rental_uris": {"ios": "https://dc.lft.to/lastmile_qr_scan", "android": "https://dc.lft.to/lastmile_qr_scan"}}, {"is_disabled": 0, "fusion_lat": 0.0, "lat": 38.9007555, "type": "electric_scooter", "lon": -76.99841833333333, "is_reserved": 0, "fusion_lon": 0.0, "bike_id": "8c3eb4dcd03ae3b9c076d2f9f1eca1ac", "name": "8c3eb4dcd03ae3b9c076d2f9f1eca1ac", "rental_uris": {"ios": "https://dc.lft.to/lastmile_qr_scan", "android": "https://dc.lft.to/lastmile_qr_scan"}}, {"is_disabled": 0, "fusion_lat": 0.0, "lat": 38.97328483333333, "type": "electric_bike", "lon": -77.02146316666666, "is_reserved": 0, "fusion_lon": 0.0, "bike_id": "9e8907f9a8d826856d76286d2380078c", "name": "9e8907f9a8d826856d76286d2380078c", "rental_uris": {"ios": "https://dc.lft.to/lastmile_qr_scan", "android": "https://dc.lft.to/lastmile_qr_scan"}}, {"is_disabled": 0, "fusion_lat": 0.0, "lat": 38.88191533333333, "type": "electric_scooter", "lon": -77.02809383333333, "is_reserved": 0, "fusion_lon": 0.0, "bike_id": "8d9d7b4989107c88082ba0a99c1a0f8f", "name": "8d9d7b4989107c88082ba0a99c1a0f8f", "rental_uris": {"ios": "https://dc.lft.to/lastmile_qr_scan", "android": "https://dc.lft.to/lastmile_qr_scan"}}, {"is_disabled": 0, "fusion_lat": 0.0, "lat": 38.903290166666665, "type": "electric_scooter", "lon": -77.038284, "is_reserved": 0, "fusion_lon": 0.0, "bike_id": "3c34dd86f5f53e0d6b8b0fa37acbcece", "name": "3c34dd86f5f53e0d6b8b0fa37acbcece", "rental_uris": {"ios": "https://dc.lft.to/lastmile_qr_scan", "android": "https://dc.lft.to/lastmile_qr_scan"}}, {"is_disabled": 0, "fusion_lat": 0.0, "lat": 38.925455166666666, "type": "electric_scooter", "lon": -76.98124083333333, "is_reserved": 0, "fusion_lon": 0.0, "bike_id": "6282f8a18e75af85b6d9e88b1e7ce6c3", "name": "6282f8a18e75af85b6d9e88b1e7ce6c3", "rental_uris": {"ios": "https://dc.lft.to/lastmile_qr_scan", "android": "https://dc.lft.to/lastmile_qr_scan"}}, {"is_disabled": 0, "fusion_lat": 0.0, "lat": 38.928427666666664, "type": "electric_scooter", "lon": -77.055051, "is_reserved": 0, "fusion_lon": 0.0, "bike_id": "c3a6e997fd153d49f66a3ba282a6c889", "name": "c3a6e997fd153d49f66a3ba282a6c889", "rental_uris": {"ios": "https://dc.lft.to/lastmile_qr_scan", "android": "https://dc.lft.to/lastmile_qr_scan"}}, {"is_disabled": 0, "fusion_lat": 0.0, "lat": 38.91882966666667, "type": "electric_scooter", "lon": -77.0357445, "is_reserved": 0, "fusion_lon": 0.0, "bike_id": "08bd6c0957905af4ebc59f4f314bf059", "name": "08bd6c0957905af4ebc59f4f314bf059", "rental_uris": {"ios": "https://dc.lft.to/lastmile_qr_scan", "android": "https://dc.lft.to/lastmile_qr_scan"}}, {"is_disabled": 0, "fusion_lat": 0.0, "lat": 38.885759166666666, "type": "electric_scooter", "lon": -77.01542283333333, "is_reserved": 0, "fusion_lon": 0.0, "bike_id": "424d2042a7cd0e664fcfca6d8396e118", "name": "424d2042a7cd0e664fcfca6d8396e118", "rental_uris": {"ios": "https://dc.lft.to/lastmile_qr_scan", "android": "https://dc.lft.to/lastmile_qr_scan"}}, {"is_disabled": 0, "fusion_lat": 0.0, "lat": 38.916882666666666, "type": "electric_scooter", "lon": -77.03099216666666, "is_reserved": 0, "fusion_lon": 0.0, "bike_id": "beaa11df5f302bb9d290cdacb76cf5cb", "name": "beaa11df5f302bb9d290cdacb76cf5cb", "rental_uris": {"ios": "https://dc.lft.to/lastmile_qr_scan", "android": "https://dc.lft.to/lastmile_qr_scan"}}, {"is_disabled": 0, "fusion_lat": 0.0, "lat": 38.90982833333333, "type": "electric_scooter", "lon": -77.03175183333333, "is_reserved": 0, "fusion_lon": 0.0, "bike_id": "65ffd478448066fdada96e38d0a3a6d1", "name": "65ffd478448066fdada96e38d0a3a6d1", "rental_uris": {"ios": "https://dc.lft.to/lastmile_qr_scan", "android": "https://dc.lft.to/lastmile_qr_scan"}}, {"is_disabled": 0, "fusion_lat": 0.0, "lat": 38.8999815, "type": "electric_scooter", "lon": -77.03364, "is_reserved": 0, "fusion_lon": 0.0, "bike_id": "a220f70ec748637d9aa366fc7a766775", "name": "a220f70ec748637d9aa366fc7a766775", "rental_uris": {"ios": "https://dc.lft.to/lastmile_qr_scan", "android": "https://dc.lft.to/lastmile_qr_scan"}}, {"is_disabled": 0, "fusion_lat": 0.0, "lat": 38.884567833333335, "type": "electric_scooter", "lon": -77.02554, "is_reserved": 0, "fusion_lon": 0.0, "bike_id": "76eafdb9a245a16b0d9a5b29da7e7ba6", "name": "76eafdb9a245a16b0d9a5b29da7e7ba6", "rental_uris": {"ios": "https://dc.lft.to/lastmile_qr_scan", "android": "https://dc.lft.to/lastmile_qr_scan"}}, {"is_disabled": 0, "fusion_lat": 0.0, "lat": 38.921750833333334, "type": "electric_scooter", "lon": -77.0422585, "is_reserved": 0, "fusion_lon": 0.0, "bike_id": "ba31bc764986862487ef9ebb3484d381", "name": "ba31bc764986862487ef9ebb3484d381", "rental_uris": {"ios": "https://dc.lft.to/lastmile_qr_scan", "android": "https://dc.lft.to/lastmile_qr_scan"}}, {"is_disabled": 0, "fusion_lat": 0.0, "lat": 38.924814166666664, "type": "electric_scooter", "lon": -77.02842283333334, "is_reserved": 0, "fusion_lon": 0.0, "bike_id": "12d8ee3167724264637a641bd3f73bfb", "name": "12d8ee3167724264637a641bd3f73bfb", "rental_uris": {"ios": "https://dc.lft.to/lastmile_qr_scan", "android": "https://dc.lft.to/lastmile_qr_scan"}}, {"is_disabled": 0, "fusion_lat": 0.0, "lat": 38.92015216666667, "type": "electric_scooter", "lon": -77.071241, "is_reserved": 0, "fusion_lon": 0.0, "bike_id": "5f1ff8c9cf2800d31bbe8fd3fda51f9b", "name": "5f1ff8c9cf2800d31bbe8fd3fda51f9b", "rental_uris": {"ios": "https://dc.lft.to/lastmile_qr_scan", "android": "https://dc.lft.to/lastmile_qr_scan"}}, {"is_disabled": 0, "fusion_lat": 0.0, "lat": 38.92575433333333, "type": "electric_scooter", "lon": -77.03921966666667, "is_reserved": 0, "fusion_lon": 0.0, "bike_id": "98efe974cd06eb85733e1c09fd1fc2fd", "name": "98efe974cd06eb85733e1c09fd1fc2fd", "rental_uris": {"ios": "https://dc.lft.to/lastmile_qr_scan", "android": "https://dc.lft.to/lastmile_qr_scan"}}, {"is_disabled": 0, "fusion_lat": 0.0, "lat": 38.928022, "type": "electric_scooter", "lon": -77.0272225, "is_reserved": 0, "fusion_lon": 0.0, "bike_id": "9be06d49519319557de6f9f0bed3f63b", "name": "9be06d49519319557de6f9f0bed3f63b", "rental_uris": {"ios": "https://dc.lft.to/lastmile_qr_scan", "android": "https://dc.lft.to/lastmile_qr_scan"}}, {"is_disabled": 0, "fusion_lat": 0.0, "lat": 38.952647666666664, "type": "electric_bike", "lon": -77.06981016666667, "is_reserved": 0, "fusion_lon": 0.0, "bike_id": "41ce4fb825733b29715aadaecd5d3e60", "name": "41ce4fb825733b29715aadaecd5d3e60", "rental_uris": {"ios": "https://dc.lft.to/lastmile_qr_scan", "android": "https://dc.lft.to/lastmile_qr_scan"}}, {"is_disabled": 0, "fusion_lat": 0.0, "lat": 38.90797833333333, "type": "electric_scooter", "lon": -77.04452183333333, "is_reserved": 0, "fusion_lon": 0.0, "bike_id": "389aa706b89c4b4873a10cff2855efe5", "name": "389aa706b89c4b4873a10cff2855efe5", "rental_uris": {"ios": "https://dc.lft.to/lastmile_qr_scan", "android": "https://dc.lft.to/lastmile_qr_scan"}}, {"is_disabled": 0, "fusion_lat": 0.0, "lat": 38.92644683333333, "type": "electric_scooter", "lon": -77.01343533333333, "is_reserved": 0, "fusion_lon": 0.0, "bike_id": "649d068885161e0ea6126eda2a89fc7d", "name": "649d068885161e0ea6126eda2a89fc7d", "rental_uris": {"ios": "https://dc.lft.to/lastmile_qr_scan", "android": "https://dc.lft.to/lastmile_qr_scan"}}, {"is_disabled": 0, "fusion_lat": 0.0, "lat": 38.82089083333334, "type": "electric_bike", "lon": -77.05362616666666, "is_reserved": 0, "fusion_lon": 0.0, "bike_id": "9fc771bc2827e93cb661dcd05cbdac38", "name": "9fc771bc2827e93cb661dcd05cbdac38", "rental_uris": {"ios": "https://dc.lft.to/lastmile_qr_scan", "android": "https://dc.lft.to/lastmile_qr_scan"}}, {"is_disabled": 0, "fusion_lat": 0.0, "lat": 38.926037666666666, "type": "electric_scooter", "lon": -77.05696066666667, "is_reserved": 0, "fusion_lon": 0.0, "bike_id": "c72bc6dc92314bbcf2c37cb2b548c677", "name": "c72bc6dc92314bbcf2c37cb2b548c677", "rental_uris": {"ios": "https://dc.lft.to/lastmile_qr_scan", "android": "https://dc.lft.to/lastmile_qr_scan"}}, {"is_disabled": 0, "fusion_lat": 0.0, "lat": 38.92324333333333, "type": "electric_scooter", "lon": -77.03889466666666, "is_reserved": 0, "fusion_lon": 0.0, "bike_id": "904b0578dceeb2fd29433b9de148d401", "name": "904b0578dceeb2fd29433b9de148d401", "rental_uris": {"ios": "https://dc.lft.to/lastmile_qr_scan", "android": "https://dc.lft.to/lastmile_qr_scan"}}, {"is_disabled": 0, "fusion_lat": 0.0, "lat": 38.93768716666666, "type": "electric_scooter", "lon": -77.02113, "is_reserved": 0, "fusion_lon": 0.0, "bike_id": "750ebdca35b5df818856a54fc0673995", "name": "750ebdca35b5df818856a54fc0673995", "rental_uris": {"ios": "https://dc.lft.to/lastmile_qr_scan", "android": "https://dc.lft.to/lastmile_qr_scan"}}, {"is_disabled": 0, "fusion_lat": 0.0, "lat": 38.918226, "type": "electric_scooter", "lon": -77.0352835, "is_reserved": 0, "fusion_lon": 0.0, "bike_id": "e04600035c313584c02c98ffc29ba593", "name": "e04600035c313584c02c98ffc29ba593", "rental_uris": {"ios": "https://dc.lft.to/lastmile_qr_scan", "android": "https://dc.lft.to/lastmile_qr_scan"}}, {"is_disabled": 0, "fusion_lat": 0.0, "lat": 38.9508915, "type": "electric_scooter", "lon": -77.02830233333333, "is_reserved": 0, "fusion_lon": 0.0, "bike_id": "d003486d7d50957f5755a26e56c1e043", "name": "d003486d7d50957f5755a26e56c1e043", "rental_uris": {"ios": "https://dc.lft.to/lastmile_qr_scan", "android": "https://dc.lft.to/lastmile_qr_scan"}}, {"is_disabled": 0, "fusion_lat": 0.0, "lat": 38.94093, "type": "electric_scooter", "lon": -77.02721383333333, "is_reserved": 0, "fusion_lon": 0.0, "bike_id": "6192251039fcb8f893e3d8d21219452b", "name": "6192251039fcb8f893e3d8d21219452b", "rental_uris": {"ios": "https://dc.lft.to/lastmile_qr_scan", "android": "https://dc.lft.to/lastmile_qr_scan"}}, {"is_disabled": 0, "fusion_lat": 0.0, "lat": 38.90973366666667, "type": "electric_scooter", "lon": -77.0386885, "is_reserved": 0, "fusion_lon": 0.0, "bike_id": "2274e671b691affa4de221e0e149592a", "name": "2274e671b691affa4de221e0e149592a", "rental_uris": {"ios": "https://dc.lft.to/lastmile_qr_scan", "android": "https://dc.lft.to/lastmile_qr_scan"}}, {"is_disabled": 0, "fusion_lat": 0.0, "lat": 38.91965883333334, "type": "electric_scooter", "lon": -77.03211466666667, "is_reserved": 0, "fusion_lon": 0.0, "bike_id": "13090876ee1d0c0603c6034a63301fe8", "name": "13090876ee1d0c0603c6034a63301fe8", "rental_uris": {"ios": "https://dc.lft.to/lastmile_qr_scan", "android": "https://dc.lft.to/lastmile_qr_scan"}}, {"is_disabled": 0, "fusion_lat": 0.0, "lat": 38.9067295, "type": "electric_scooter", "lon": -77.02713833333334, "is_reserved": 0, "fusion_lon": 0.0, "bike_id": "4423b76b933b4512af0ac210ae2b7d94", "name": "4423b76b933b4512af0ac210ae2b7d94", "rental_uris": {"ios": "https://dc.lft.to/lastmile_qr_scan", "android": "https://dc.lft.to/lastmile_qr_scan"}}, {"is_disabled": 0, "fusion_lat": 0.0, "lat": 38.889349333333335, "type": "electric_scooter", "lon": -77.020614, "is_reserved": 0, "fusion_lon": 0.0, "bike_id": "6faa83f667c4f5df165b581a0075e52d", "name": "6faa83f667c4f5df165b581a0075e52d", "rental_uris": {"ios": "https://dc.lft.to/lastmile_qr_scan", "android": "https://dc.lft.to/lastmile_qr_scan"}}, {"is_disabled": 0, "fusion_lat": 0.0, "lat": 38.93536133333333, "type": "electric_scooter", "lon": -77.02343516666667, "is_reserved": 0, "fusion_lon": 0.0, "bike_id": "12f2c6e53e068eb8285ee7be37819e16", "name": "12f2c6e53e068eb8285ee7be37819e16", "rental_uris": {"ios": "https://dc.lft.to/lastmile_qr_scan", "android": "https://dc.lft.to/lastmile_qr_scan"}}, {"is_disabled": 0, "fusion_lat": 0.0, "lat": 38.919583, "type": "electric_scooter", "lon": -77.031969, "is_reserved": 0, "fusion_lon": 0.0, "bike_id": "c34f94858ea9f8a15b989d9dd01db50b", "name": "c34f94858ea9f8a15b989d9dd01db50b", "rental_uris": {"ios": "https://dc.lft.to/lastmile_qr_scan", "android": "https://dc.lft.to/lastmile_qr_scan"}}, {"is_disabled": 0, "fusion_lat": 0.0, "lat": 38.898903833333335, "type": "electric_scooter", "lon": -77.0071755, "is_reserved": 0, "fusion_lon": 0.0, "bike_id": "672babd74a50b7250d8c70edad2b0004", "name": "672babd74a50b7250d8c70edad2b0004", "rental_uris": {"ios": "https://dc.lft.to/lastmile_qr_scan", "android": "https://dc.lft.to/lastmile_qr_scan"}}, {"is_disabled": 0, "fusion_lat": 0.0, "lat": 38.9179955, "type": "electric_scooter", "lon": -77.03656766666667, "is_reserved": 0, "fusion_lon": 0.0, "bike_id": "2293b2cce521fb81f75b6b7a9536c431", "name": "2293b2cce521fb81f75b6b7a9536c431", "rental_uris": {"ios": "https://dc.lft.to/lastmile_qr_scan", "android": "https://dc.lft.to/lastmile_qr_scan"}}, {"is_disabled": 0, "fusion_lat": 0.0, "lat": 38.876335833333336, "type": "electric_scooter", "lon": -76.96527466666667, "is_reserved": 0, "fusion_lon": 0.0, "bike_id": "dfd06470c240b0248383ed73b71dd1dc", "name": "dfd06470c240b0248383ed73b71dd1dc", "rental_uris": {"ios": "https://dc.lft.to/lastmile_qr_scan", "android": "https://dc.lft.to/lastmile_qr_scan"}}, {"is_disabled": 0, "fusion_lat": 0.0, "lat": 38.94177966666667, "type": "electric_scooter", "lon": -77.02502766666667, "is_reserved": 0, "fusion_lon": 0.0, "bike_id": "73800697cbf1cb75a933a095629db885", "name": "73800697cbf1cb75a933a095629db885", "rental_uris": {"ios": "https://dc.lft.to/lastmile_qr_scan", "android": "https://dc.lft.to/lastmile_qr_scan"}}, {"is_disabled": 0, "fusion_lat": 0.0, "lat": 38.90273466666667, "type": "electric_scooter", "lon": -77.01959666666667, "is_reserved": 0, "fusion_lon": 0.0, "bike_id": "206390946b1bf46bcc3850bd9ed4aaa5", "name": "206390946b1bf46bcc3850bd9ed4aaa5", "rental_uris": {"ios": "https://dc.lft.to/lastmile_qr_scan", "android": "https://dc.lft.to/lastmile_qr_scan"}}, {"is_disabled": 0, "fusion_lat": 0.0, "lat": 38.902726666666666, "type": "electric_scooter", "lon": -77.03348683333333, "is_reserved": 0, "fusion_lon": 0.0, "bike_id": "7a3904e9185cd3d70964345a1bee7bc0", "name": "7a3904e9185cd3d70964345a1bee7bc0", "rental_uris": {"ios": "https://dc.lft.to/lastmile_qr_scan", "android": "https://dc.lft.to/lastmile_qr_scan"}}, {"is_disabled": 0, "fusion_lat": 0.0, "lat": 38.84293433333333, "type": "electric_scooter", "lon": -76.99947366666666, "is_reserved": 0, "fusion_lon": 0.0, "bike_id": "4ef888c24480b2a93b35e45d528a9e13", "name": "4ef888c24480b2a93b35e45d528a9e13", "rental_uris": {"ios": "https://dc.lft.to/lastmile_qr_scan", "android": "https://dc.lft.to/lastmile_qr_scan"}}, {"is_disabled": 0, "fusion_lat": 0.0, "lat": 38.93319016666667, "type": "electric_scooter", "lon": -77.03280466666666, "is_reserved": 0, "fusion_lon": 0.0, "bike_id": "4132f205ea44bb15feb3b91edc36706c", "name": "4132f205ea44bb15feb3b91edc36706c", "rental_uris": {"ios": "https://dc.lft.to/lastmile_qr_scan", "android": "https://dc.lft.to/lastmile_qr_scan"}}, {"is_disabled": 0, "fusion_lat": 0.0, "lat": 38.90269933333333, "type": "electric_scooter", "lon": -77.01733366666667, "is_reserved": 0, "fusion_lon": 0.0, "bike_id": "cdef4be4143b043017587388705d1db1", "name": "cdef4be4143b043017587388705d1db1", "rental_uris": {"ios": "https://dc.lft.to/lastmile_qr_scan", "android": "https://dc.lft.to/lastmile_qr_scan"}}, {"is_disabled": 0, "fusion_lat": 0.0, "lat": 38.857216, "type": "electric_scooter", "lon": -76.980929, "is_reserved": 0, "fusion_lon": 0.0, "bike_id": "bc4f05fc3a9d5eb10516fd3239d92bf2", "name": "bc4f05fc3a9d5eb10516fd3239d92bf2", "rental_uris": {"ios": "https://dc.lft.to/lastmile_qr_scan", "android": "https://dc.lft.to/lastmile_qr_scan"}}, {"is_disabled": 0, "fusion_lat": 0.0, "lat": 38.925554, "type": "electric_bike", "lon": -77.00134283333334, "is_reserved": 0, "fusion_lon": 0.0, "bike_id": "7dbb428bd6bebf51e4ec18653dccd256", "name": "7dbb428bd6bebf51e4ec18653dccd256", "rental_uris": {"ios": "https://dc.lft.to/lastmile_qr_scan", "android": "https://dc.lft.to/lastmile_qr_scan"}}, {"is_disabled": 0, "fusion_lat": 0.0, "lat": 38.9256515, "type": "electric_scooter", "lon": -77.0527355, "is_reserved": 0, "fusion_lon": 0.0, "bike_id": "c5492502a944226fbc6ad84186ad8ade", "name": "c5492502a944226fbc6ad84186ad8ade", "rental_uris": {"ios": "https://dc.lft.to/lastmile_qr_scan", "android": "https://dc.lft.to/lastmile_qr_scan"}}, {"is_disabled": 0, "fusion_lat": 0.0, "lat": 38.94026266666667, "type": "electric_scooter", "lon": -77.07171766666667, "is_reserved": 0, "fusion_lon": 0.0, "bike_id": "1de462f37d333658a5dff549aca54d82", "name": "1de462f37d333658a5dff549aca54d82", "rental_uris": {"ios": "https://dc.lft.to/lastmile_qr_scan", "android": "https://dc.lft.to/lastmile_qr_scan"}}, {"is_disabled": 0, "fusion_lat": 0.0, "lat": 38.91689816666667, "type": "electric_scooter", "lon": -77.03870083333334, "is_reserved": 0, "fusion_lon": 0.0, "bike_id": "5816bc7d1b3b434082f3790c6268439b", "name": "5816bc7d1b3b434082f3790c6268439b", "rental_uris": {"ios": "https://dc.lft.to/lastmile_qr_scan", "android": "https://dc.lft.to/lastmile_qr_scan"}}, {"is_disabled": 0, "fusion_lat": 0.0, "lat": 38.85060583333333, "type": "electric_bike", "lon": -76.9732945, "is_reserved": 0, "fusion_lon": 0.0, "bike_id": "87d19349e1da2f033f23edbad332e5f7", "name": "87d19349e1da2f033f23edbad332e5f7", "rental_uris": {"ios": "https://dc.lft.to/lastmile_qr_scan", "android": "https://dc.lft.to/lastmile_qr_scan"}}, {"is_disabled": 0, "fusion_lat": 0.0, "lat": 38.89888633333333, "type": "electric_scooter", "lon": -76.93175483333333, "is_reserved": 0, "fusion_lon": 0.0, "bike_id": "c40913661a176b5dbffbae022fde9207", "name": "c40913661a176b5dbffbae022fde9207", "rental_uris": {"ios": "https://dc.lft.to/lastmile_qr_scan", "android": "https://dc.lft.to/lastmile_qr_scan"}}, {"is_disabled": 0, "fusion_lat": 0.0, "lat": 38.86368, "type": "electric_bike", "lon": -76.97007966666666, "is_reserved": 0, "fusion_lon": 0.0, "bike_id": "59ca094171adedb8c1e9d4de26e61996", "name": "59ca094171adedb8c1e9d4de26e61996", "rental_uris": {"ios": "https://dc.lft.to/lastmile_qr_scan", "android": "https://dc.lft.to/lastmile_qr_scan"}}, {"is_disabled": 0, "fusion_lat": 0.0, "lat": 38.920653, "type": "electric_scooter", "lon": -77.04381716666667, "is_reserved": 0, "fusion_lon": 0.0, "bike_id": "163fbe961cca5737f6bd792bf5e730e1", "name": "163fbe961cca5737f6bd792bf5e730e1", "rental_uris": {"ios": "https://dc.lft.to/lastmile_qr_scan", "android": "https://dc.lft.to/lastmile_qr_scan"}}, {"is_disabled": 0, "fusion_lat": 0.0, "lat": 38.915547833333335, "type": "electric_scooter", "lon": -77.041576, "is_reserved": 0, "fusion_lon": 0.0, "bike_id": "5ac9c3c1eadd5b79a4256fa09096f8fb", "name": "5ac9c3c1eadd5b79a4256fa09096f8fb", "rental_uris": {"ios": "https://dc.lft.to/lastmile_qr_scan", "android": "https://dc.lft.to/lastmile_qr_scan"}}, {"is_disabled": 0, "fusion_lat": 0.0, "lat": 38.91461566666667, "type": "electric_scooter", "lon": -77.046452, "is_reserved": 0, "fusion_lon": 0.0, "bike_id": "45c87e35266e71f904d2b3a742d60271", "name": "45c87e35266e71f904d2b3a742d60271", "rental_uris": {"ios": "https://dc.lft.to/lastmile_qr_scan", "android": "https://dc.lft.to/lastmile_qr_scan"}}, {"is_disabled": 0, "fusion_lat": 0.0, "lat": 38.90246033333333, "type": "electric_scooter", "lon": -77.045822, "is_reserved": 0, "fusion_lon": 0.0, "bike_id": "69517c21a9dd7f75eba321c8165b94ee", "name": "69517c21a9dd7f75eba321c8165b94ee", "rental_uris": {"ios": "https://dc.lft.to/lastmile_qr_scan", "android": "https://dc.lft.to/lastmile_qr_scan"}}, {"is_disabled": 0, "fusion_lat": 0.0, "lat": 38.89479933333333, "type": "electric_scooter", "lon": -76.9840345, "is_reserved": 0, "fusion_lon": 0.0, "bike_id": "7f5310c61ef145e3e047bf74c2ddb2f5", "name": "7f5310c61ef145e3e047bf74c2ddb2f5", "rental_uris": {"ios": "https://dc.lft.to/lastmile_qr_scan", "android": "https://dc.lft.to/lastmile_qr_scan"}}, {"is_disabled": 0, "fusion_lat": 0.0, "lat": 38.861724, "type": "electric_bike", "lon": -77.13148133333334, "is_reserved": 0, "fusion_lon": 0.0, "bike_id": "6850f7bf188791adf1eb766524808ce2", "name": "6850f7bf188791adf1eb766524808ce2", "rental_uris": {"ios": "https://dc.lft.to/lastmile_qr_scan", "android": "https://dc.lft.to/lastmile_qr_scan"}}, {"is_disabled": 0, "fusion_lat": 0.0, "lat": 38.872144, "type": "electric_bike", "lon": -77.016354, "is_reserved": 0, "fusion_lon": 0.0, "bike_id": "8f4cd2371e30ab0fc8e554edf41e57b5", "name": "8f4cd2371e30ab0fc8e554edf41e57b5", "rental_uris": {"ios": "https://dc.lft.to/lastmile_qr_scan", "android": "https://dc.lft.to/lastmile_qr_scan"}}, {"is_disabled": 0, "fusion_lat": 0.0, "lat": 38.91015433333333, "type": "electric_scooter", "lon": -77.0889475, "is_reserved": 0, "fusion_lon": 0.0, "bike_id": "e351d0fbf93808e2a2cea94df6a8b8db", "name": "e351d0fbf93808e2a2cea94df6a8b8db", "rental_uris": {"ios": "https://dc.lft.to/lastmile_qr_scan", "android": "https://dc.lft.to/lastmile_qr_scan"}}, {"is_disabled": 0, "fusion_lat": 0.0, "lat": 38.93703683333333, "type": "electric_bike", "lon": -77.02984, "is_reserved": 0, "fusion_lon": 0.0, "bike_id": "ac3b0005701f32124cab71e038d99e9d", "name": "ac3b0005701f32124cab71e038d99e9d", "rental_uris": {"ios": "https://dc.lft.to/lastmile_qr_scan", "android": "https://dc.lft.to/lastmile_qr_scan"}}, {"is_disabled": 0, "fusion_lat": 0.0, "lat": 38.91378, "type": "electric_scooter", "lon": -77.0044745, "is_reserved": 0, "fusion_lon": 0.0, "bike_id": "4762665f3dc1d7af4d0d815e67046601", "name": "4762665f3dc1d7af4d0d815e67046601", "rental_uris": {"ios": "https://dc.lft.to/lastmile_qr_scan", "android": "https://dc.lft.to/lastmile_qr_scan"}}, {"is_disabled": 0, "fusion_lat": 0.0, "lat": 38.90007666666666, "type": "electric_scooter", "lon": -76.9901395, "is_reserved": 0, "fusion_lon": 0.0, "bike_id": "eda78cd213def4de053a9fc40a4fdcfa", "name": "eda78cd213def4de053a9fc40a4fdcfa", "rental_uris": {"ios": "https://dc.lft.to/lastmile_qr_scan", "android": "https://dc.lft.to/lastmile_qr_scan"}}, {"is_disabled": 0, "fusion_lat": 0.0, "lat": 38.896268, "type": "electric_scooter", "lon": -76.98125333333333, "is_reserved": 0, "fusion_lon": 0.0, "bike_id": "21c80a5c1236698da5d21f61367c5b79", "name": "21c80a5c1236698da5d21f61367c5b79", "rental_uris": {"ios": "https://dc.lft.to/lastmile_qr_scan", "android": "https://dc.lft.to/lastmile_qr_scan"}}, {"is_disabled": 0, "fusion_lat": 0.0, "lat": 38.921578, "type": "electric_scooter", "lon": -77.03883483333334, "is_reserved": 0, "fusion_lon": 0.0, "bike_id": "59823601141a502cf85317c7d6167199", "name": "59823601141a502cf85317c7d6167199", "rental_uris": {"ios": "https://dc.lft.to/lastmile_qr_scan", "android": "https://dc.lft.to/lastmile_qr_scan"}}, {"is_disabled": 0, "fusion_lat": 0.0, "lat": 38.95102683333333, "type": "electric_scooter", "lon": -77.02334933333333, "is_reserved": 0, "fusion_lon": 0.0, "bike_id": "0cc86ac80614f143a241bd0b8eb330c9", "name": "0cc86ac80614f143a241bd0b8eb330c9", "rental_uris": {"ios": "https://dc.lft.to/lastmile_qr_scan", "android": "https://dc.lft.to/lastmile_qr_scan"}}, {"is_disabled": 0, "fusion_lat": 0.0, "lat": 38.865747, "type": "electric_scooter", "lon": -76.98950583333334, "is_reserved": 0, "fusion_lon": 0.0, "bike_id": "edc5c1be70947d21adf251bb4b967149", "name": "edc5c1be70947d21adf251bb4b967149", "rental_uris": {"ios": "https://dc.lft.to/lastmile_qr_scan", "android": "https://dc.lft.to/lastmile_qr_scan"}}, {"is_disabled": 0, "fusion_lat": 0.0, "lat": 38.93323866666667, "type": "electric_scooter", "lon": -77.0291225, "is_reserved": 0, "fusion_lon": 0.0, "bike_id": "dbec32b3959ea40a85863b1e74419898", "name": "dbec32b3959ea40a85863b1e74419898", "rental_uris": {"ios": "https://dc.lft.to/lastmile_qr_scan", "android": "https://dc.lft.to/lastmile_qr_scan"}}, {"is_disabled": 0, "fusion_lat": 0.0, "lat": 38.921419, "type": "electric_scooter", "lon": -77.0423885, "is_reserved": 0, "fusion_lon": 0.0, "bike_id": "4b2d4cdea770cd4de38f3c73e322b71a", "name": "4b2d4cdea770cd4de38f3c73e322b71a", "rental_uris": {"ios": "https://dc.lft.to/lastmile_qr_scan", "android": "https://dc.lft.to/lastmile_qr_scan"}}, {"is_disabled": 0, "fusion_lat": 0.0, "lat": 38.93834983333333, "type": "electric_scooter", "lon": -77.0617535, "is_reserved": 0, "fusion_lon": 0.0, "bike_id": "f0d53480e5f974abeae8eb2e0f347ddd", "name": "f0d53480e5f974abeae8eb2e0f347ddd", "rental_uris": {"ios": "https://dc.lft.to/lastmile_qr_scan", "android": "https://dc.lft.to/lastmile_qr_scan"}}, {"is_disabled": 0, "fusion_lat": 0.0, "lat": 38.8984045, "type": "electric_scooter", "lon": -76.93102383333333, "is_reserved": 0, "fusion_lon": 0.0, "bike_id": "79dbe340e8b002969ea726177a1f5659", "name": "79dbe340e8b002969ea726177a1f5659", "rental_uris": {"ios": "https://dc.lft.to/lastmile_qr_scan", "android": "https://dc.lft.to/lastmile_qr_scan"}}, {"is_disabled": 0, "fusion_lat": 0.0, "lat": 38.900747, "type": "electric_scooter", "lon": -77.04585733333333, "is_reserved": 0, "fusion_lon": 0.0, "bike_id": "f8e78d1a5045dfc437e24f25cc3db227", "name": "f8e78d1a5045dfc437e24f25cc3db227", "rental_uris": {"ios": "https://dc.lft.to/lastmile_qr_scan", "android": "https://dc.lft.to/lastmile_qr_scan"}}, {"is_disabled": 0, "fusion_lat": 0.0, "lat": 38.927173, "type": "electric_scooter", "lon": -77.02324616666667, "is_reserved": 0, "fusion_lon": 0.0, "bike_id": "809742a845a5e2a3284240cc876fafcd", "name": "809742a845a5e2a3284240cc876fafcd", "rental_uris": {"ios": "https://dc.lft.to/lastmile_qr_scan", "android": "https://dc.lft.to/lastmile_qr_scan"}}, {"is_disabled": 0, "fusion_lat": 0.0, "lat": 38.925256833333336, "type": "electric_scooter", "lon": -77.04130483333333, "is_reserved": 0, "fusion_lon": 0.0, "bike_id": "edcaa9db258776d187b0400c519b5225", "name": "edcaa9db258776d187b0400c519b5225", "rental_uris": {"ios": "https://dc.lft.to/lastmile_qr_scan", "android": "https://dc.lft.to/lastmile_qr_scan"}}, {"is_disabled": 0, "fusion_lat": 0.0, "lat": 38.966061333333336, "type": "electric_bike", "lon": -76.98330266666666, "is_reserved": 0, "fusion_lon": 0.0, "bike_id": "80ebbd233454843b09390cc1de266254", "name": "80ebbd233454843b09390cc1de266254", "rental_uris": {"ios": "https://dc.lft.to/lastmile_qr_scan", "android": "https://dc.lft.to/lastmile_qr_scan"}}, {"is_disabled": 0, "fusion_lat": 0.0, "lat": 38.9084845, "type": "electric_scooter", "lon": -77.08529866666667, "is_reserved": 0, "fusion_lon": 0.0, "bike_id": "555e6f2e10e7dda38931492350def543", "name": "555e6f2e10e7dda38931492350def543", "rental_uris": {"ios": "https://dc.lft.to/lastmile_qr_scan", "android": "https://dc.lft.to/lastmile_qr_scan"}}, {"is_disabled": 0, "fusion_lat": 0.0, "lat": 38.917177833333334, "type": "electric_scooter", "lon": -77.03837933333334, "is_reserved": 0, "fusion_lon": 0.0, "bike_id": "dbfeb2d180a5f03e0f5e6684a16d30a8", "name": "dbfeb2d180a5f03e0f5e6684a16d30a8", "rental_uris": {"ios": "https://dc.lft.to/lastmile_qr_scan", "android": "https://dc.lft.to/lastmile_qr_scan"}}, {"is_disabled": 0, "fusion_lat": 0.0, "lat": 38.94933916666667, "type": "electric_scooter", "lon": -77.01937483333333, "is_reserved": 0, "fusion_lon": 0.0, "bike_id": "85131fa32c00035cc1498562c5a990b4", "name": "85131fa32c00035cc1498562c5a990b4", "rental_uris": {"ios": "https://dc.lft.to/lastmile_qr_scan", "android": "https://dc.lft.to/lastmile_qr_scan"}}, {"is_disabled": 0, "fusion_lat": 0.0, "lat": 38.92740216666667, "type": "electric_bike", "lon": -76.99364533333333, "is_reserved": 0, "fusion_lon": 0.0, "bike_id": "aff8e558caa2989ea3fe1ee9dcc83d00", "name": "aff8e558caa2989ea3fe1ee9dcc83d00", "rental_uris": {"ios": "https://dc.lft.to/lastmile_qr_scan", "android": "https://dc.lft.to/lastmile_qr_scan"}}, {"is_disabled": 0, "fusion_lat": 0.0, "lat": 38.909291333333336, "type": "electric_scooter", "lon": -76.99921183333333, "is_reserved": 0, "fusion_lon": 0.0, "bike_id": "6151d481578196cceed580699e75e259", "name": "6151d481578196cceed580699e75e259", "rental_uris": {"ios": "https://dc.lft.to/lastmile_qr_scan", "android": "https://dc.lft.to/lastmile_qr_scan"}}, {"is_disabled": 0, "fusion_lat": 0.0, "lat": 38.9237385, "type": "electric_scooter", "lon": -77.01912383333334, "is_reserved": 0, "fusion_lon": 0.0, "bike_id": "ef99872ebaa2f94e3f4028a85aa73bf0", "name": "ef99872ebaa2f94e3f4028a85aa73bf0", "rental_uris": {"ios": "https://dc.lft.to/lastmile_qr_scan", "android": "https://dc.lft.to/lastmile_qr_scan"}}, {"is_disabled": 0, "fusion_lat": 0.0, "lat": 38.9309305, "type": "electric_scooter", "lon": -77.07799283333334, "is_reserved": 0, "fusion_lon": 0.0, "bike_id": "67a65406ad0400229b7f63d243dd1e96", "name": "67a65406ad0400229b7f63d243dd1e96", "rental_uris": {"ios": "https://dc.lft.to/lastmile_qr_scan", "android": "https://dc.lft.to/lastmile_qr_scan"}}, {"is_disabled": 0, "fusion_lat": 0.0, "lat": 38.90572983333333, "type": "electric_scooter", "lon": -77.02980916666667, "is_reserved": 0, "fusion_lon": 0.0, "bike_id": "3ddc658fe2079df92fbc888d78ccaf69", "name": "3ddc658fe2079df92fbc888d78ccaf69", "rental_uris": {"ios": "https://dc.lft.to/lastmile_qr_scan", "android": "https://dc.lft.to/lastmile_qr_scan"}}, {"is_disabled": 0, "fusion_lat": 0.0, "lat": 38.86452883333333, "type": "electric_bike", "lon": -76.94540266666667, "is_reserved": 0, "fusion_lon": 0.0, "bike_id": "9ddf22cd2028a773d4c78d8a4477ef2d", "name": "9ddf22cd2028a773d4c78d8a4477ef2d", "rental_uris": {"ios": "https://dc.lft.to/lastmile_qr_scan", "android": "https://dc.lft.to/lastmile_qr_scan"}}, {"is_disabled": 0, "fusion_lat": 0.0, "lat": 38.956428833333334, "type": "electric_scooter", "lon": -77.03300533333334, "is_reserved": 0, "fusion_lon": 0.0, "bike_id": "300941dc978363228ce7ffadca4f05e8", "name": "300941dc978363228ce7ffadca4f05e8", "rental_uris": {"ios": "https://dc.lft.to/lastmile_qr_scan", "android": "https://dc.lft.to/lastmile_qr_scan"}}, {"is_disabled": 0, "fusion_lat": 0.0, "lat": 38.8980565, "type": "electric_scooter", "lon": -76.99160666666667, "is_reserved": 0, "fusion_lon": 0.0, "bike_id": "964f8878343d38bdb5637b93d54a1de8", "name": "964f8878343d38bdb5637b93d54a1de8", "rental_uris": {"ios": "https://dc.lft.to/lastmile_qr_scan", "android": "https://dc.lft.to/lastmile_qr_scan"}}, {"is_disabled": 0, "fusion_lat": 0.0, "lat": 38.916685333333334, "type": "electric_scooter", "lon": -77.04155466666667, "is_reserved": 0, "fusion_lon": 0.0, "bike_id": "1e9cde0320afbba12c67f5e80964abdd", "name": "1e9cde0320afbba12c67f5e80964abdd", "rental_uris": {"ios": "https://dc.lft.to/lastmile_qr_scan", "android": "https://dc.lft.to/lastmile_qr_scan"}}, {"is_disabled": 0, "fusion_lat": 0.0, "lat": 38.87152116666667, "type": "electric_bike", "lon": -76.93699533333333, "is_reserved": 0, "fusion_lon": 0.0, "bike_id": "6f88c6a26276a716875605d7264d3fc2", "name": "6f88c6a26276a716875605d7264d3fc2", "rental_uris": {"ios": "https://dc.lft.to/lastmile_qr_scan", "android": "https://dc.lft.to/lastmile_qr_scan"}}, {"is_disabled": 0, "fusion_lat": 0.0, "lat": 38.9156675, "type": "electric_scooter", "lon": -77.02076483333333, "is_reserved": 0, "fusion_lon": 0.0, "bike_id": "9ef6659ac72a139ccb3d444f42e6b217", "name": "9ef6659ac72a139ccb3d444f42e6b217", "rental_uris": {"ios": "https://dc.lft.to/lastmile_qr_scan", "android": "https://dc.lft.to/lastmile_qr_scan"}}, {"is_disabled": 0, "fusion_lat": 0.0, "lat": 38.917078833333335, "type": "electric_scooter", "lon": -77.00713183333333, "is_reserved": 0, "fusion_lon": 0.0, "bike_id": "0057847d59a6b196f3d23466aca5dae6", "name": "0057847d59a6b196f3d23466aca5dae6", "rental_uris": {"ios": "https://dc.lft.to/lastmile_qr_scan", "android": "https://dc.lft.to/lastmile_qr_scan"}}, {"is_disabled": 0, "fusion_lat": 0.0, "lat": 38.923901666666666, "type": "electric_scooter", "lon": -77.00064433333333, "is_reserved": 0, "fusion_lon": 0.0, "bike_id": "cb361efcdb3851ef0254cff7b37fc25c", "name": "cb361efcdb3851ef0254cff7b37fc25c", "rental_uris": {"ios": "https://dc.lft.to/lastmile_qr_scan", "android": "https://dc.lft.to/lastmile_qr_scan"}}, {"is_disabled": 0, "fusion_lat": 0.0, "lat": 38.89221416666667, "type": "electric_scooter", "lon": -77.04655533333333, "is_reserved": 0, "fusion_lon": 0.0, "bike_id": "d467aa3e9120e4aab0a2c24feab40e48", "name": "d467aa3e9120e4aab0a2c24feab40e48", "rental_uris": {"ios": "https://dc.lft.to/lastmile_qr_scan", "android": "https://dc.lft.to/lastmile_qr_scan"}}, {"is_disabled": 0, "fusion_lat": 0.0, "lat": 38.8784175, "type": "electric_scooter", "lon": -77.019656, "is_reserved": 0, "fusion_lon": 0.0, "bike_id": "6ebdd0d5c4d84a5995db1690fef2a7ce", "name": "6ebdd0d5c4d84a5995db1690fef2a7ce", "rental_uris": {"ios": "https://dc.lft.to/lastmile_qr_scan", "android": "https://dc.lft.to/lastmile_qr_scan"}}, {"is_disabled": 0, "fusion_lat": 0.0, "lat": 38.9130175, "type": "electric_scooter", "lon": -77.01962116666667, "is_reserved": 0, "fusion_lon": 0.0, "bike_id": "410664b223380708be01c75412f25048", "name": "410664b223380708be01c75412f25048", "rental_uris": {"ios": "https://dc.lft.to/lastmile_qr_scan", "android": "https://dc.lft.to/lastmile_qr_scan"}}, {"is_disabled": 0, "fusion_lat": 0.0, "lat": 38.91691016666667, "type": "electric_scooter", "lon": -77.04614416666666, "is_reserved": 0, "fusion_lon": 0.0, "bike_id": "c088e91342592e92eb28cccc35f3c232", "name": "c088e91342592e92eb28cccc35f3c232", "rental_uris": {"ios": "https://dc.lft.to/lastmile_qr_scan", "android": "https://dc.lft.to/lastmile_qr_scan"}}, {"is_disabled": 0, "fusion_lat": 0.0, "lat": 38.939754, "type": "electric_scooter", "lon": -77.028909, "is_reserved": 0, "fusion_lon": 0.0, "bike_id": "d45fab07eb0c2057397b02294910874a", "name": "d45fab07eb0c2057397b02294910874a", "rental_uris": {"ios": "https://dc.lft.to/lastmile_qr_scan", "android": "https://dc.lft.to/lastmile_qr_scan"}}, {"is_disabled": 0, "fusion_lat": 0.0, "lat": 38.92483816666667, "type": "electric_scooter", "lon": -77.02634316666666, "is_reserved": 0, "fusion_lon": 0.0, "bike_id": "a6060eb2150a7249f3d9926b18d5279f", "name": "a6060eb2150a7249f3d9926b18d5279f", "rental_uris": {"ios": "https://dc.lft.to/lastmile_qr_scan", "android": "https://dc.lft.to/lastmile_qr_scan"}}, {"is_disabled": 0, "fusion_lat": 0.0, "lat": 38.859680166666664, "type": "electric_scooter", "lon": -76.99113483333333, "is_reserved": 0, "fusion_lon": 0.0, "bike_id": "ac3e8ebb2b1f15d08737d338a0296872", "name": "ac3e8ebb2b1f15d08737d338a0296872", "rental_uris": {"ios": "https://dc.lft.to/lastmile_qr_scan", "android": "https://dc.lft.to/lastmile_qr_scan"}}, {"is_disabled": 0, "fusion_lat": 0.0, "lat": 38.9445575, "type": "electric_scooter", "lon": -77.06355316666667, "is_reserved": 0, "fusion_lon": 0.0, "bike_id": "98176085dabd08a30170cc4fbd0d826f", "name": "98176085dabd08a30170cc4fbd0d826f", "rental_uris": {"ios": "https://dc.lft.to/lastmile_qr_scan", "android": "https://dc.lft.to/lastmile_qr_scan"}}, {"is_disabled": 0, "fusion_lat": 0.0, "lat": 38.918181833333335, "type": "electric_scooter", "lon": -77.03301483333334, "is_reserved": 0, "fusion_lon": 0.0, "bike_id": "88a3639be04c6c7e1289d9e32b4a2675", "name": "88a3639be04c6c7e1289d9e32b4a2675", "rental_uris": {"ios": "https://dc.lft.to/lastmile_qr_scan", "android": "https://dc.lft.to/lastmile_qr_scan"}}, {"is_disabled": 0, "fusion_lat": 0.0, "lat": 38.923163, "type": "electric_scooter", "lon": -77.039128, "is_reserved": 0, "fusion_lon": 0.0, "bike_id": "7824a7d0ec3f9bfc6247711e510aa3da", "name": "7824a7d0ec3f9bfc6247711e510aa3da", "rental_uris": {"ios": "https://dc.lft.to/lastmile_qr_scan", "android": "https://dc.lft.to/lastmile_qr_scan"}}, {"is_disabled": 0, "fusion_lat": 0.0, "lat": 38.9232945, "type": "electric_scooter", "lon": -77.04523483333334, "is_reserved": 0, "fusion_lon": 0.0, "bike_id": "3650e299adec8786c68cdcce059f7923", "name": "3650e299adec8786c68cdcce059f7923", "rental_uris": {"ios": "https://dc.lft.to/lastmile_qr_scan", "android": "https://dc.lft.to/lastmile_qr_scan"}}, {"is_disabled": 0, "fusion_lat": 0.0, "lat": 38.90504516666667, "type": "electric_scooter", "lon": -77.043273, "is_reserved": 0, "fusion_lon": 0.0, "bike_id": "92955fb7fae0040dfff1e5d48b25223b", "name": "92955fb7fae0040dfff1e5d48b25223b", "rental_uris": {"ios": "https://dc.lft.to/lastmile_qr_scan", "android": "https://dc.lft.to/lastmile_qr_scan"}}, {"is_disabled": 0, "fusion_lat": 0.0, "lat": 38.91554383333333, "type": "electric_scooter", "lon": -77.0317475, "is_reserved": 0, "fusion_lon": 0.0, "bike_id": "b1179a30593cd6e2bf03ea759d85bea6", "name": "b1179a30593cd6e2bf03ea759d85bea6", "rental_uris": {"ios": "https://dc.lft.to/lastmile_qr_scan", "android": "https://dc.lft.to/lastmile_qr_scan"}}, {"is_disabled": 0, "fusion_lat": 0.0, "lat": 38.915451166666664, "type": "electric_scooter", "lon": -77.03844816666667, "is_reserved": 0, "fusion_lon": 0.0, "bike_id": "3360e1a7973ca65d6af6db361c2f1b15", "name": "3360e1a7973ca65d6af6db361c2f1b15", "rental_uris": {"ios": "https://dc.lft.to/lastmile_qr_scan", "android": "https://dc.lft.to/lastmile_qr_scan"}}, {"is_disabled": 0, "fusion_lat": 0.0, "lat": 39.08861666666667, "type": "electric_bike", "lon": -77.1784245, "is_reserved": 0, "fusion_lon": 0.0, "bike_id": "3b141bd8be6db2fb58dc7bee73426f27", "name": "3b141bd8be6db2fb58dc7bee73426f27", "rental_uris": {"ios": "https://dc.lft.to/lastmile_qr_scan", "android": "https://dc.lft.to/lastmile_qr_scan"}}, {"is_disabled": 0, "fusion_lat": 0.0, "lat": 38.929515, "type": "electric_bike", "lon": -77.04401816666666, "is_reserved": 0, "fusion_lon": 0.0, "bike_id": "11d39fa8a62e41cf7926d61ec2e28b3c", "name": "11d39fa8a62e41cf7926d61ec2e28b3c", "rental_uris": {"ios": "https://dc.lft.to/lastmile_qr_scan", "android": "https://dc.lft.to/lastmile_qr_scan"}}, {"is_disabled": 0, "fusion_lat": 0.0, "lat": 38.91106816666667, "type": "electric_scooter", "lon": -77.04825233333334, "is_reserved": 0, "fusion_lon": 0.0, "bike_id": "ad6128c72a320fca52e52aa6897b293a", "name": "ad6128c72a320fca52e52aa6897b293a", "rental_uris": {"ios": "https://dc.lft.to/lastmile_qr_scan", "android": "https://dc.lft.to/lastmile_qr_scan"}}, {"is_disabled": 0, "fusion_lat": 0.0, "lat": 38.929554833333334, "type": "electric_bike", "lon": -77.03772616666667, "is_reserved": 0, "fusion_lon": 0.0, "bike_id": "b72464b7361c69ad7f7745b684be2d17", "name": "b72464b7361c69ad7f7745b684be2d17", "rental_uris": {"ios": "https://dc.lft.to/lastmile_qr_scan", "android": "https://dc.lft.to/lastmile_qr_scan"}}, {"is_disabled": 0, "fusion_lat": 0.0, "lat": 38.940591, "type": "electric_bike", "lon": -76.95387, "is_reserved": 0, "fusion_lon": 0.0, "bike_id": "26cc2dd31e8d98b4a8f084b0d8dc4078", "name": "26cc2dd31e8d98b4a8f084b0d8dc4078", "rental_uris": {"ios": "https://dc.lft.to/lastmile_qr_scan", "android": "https://dc.lft.to/lastmile_qr_scan"}}, {"is_disabled": 0, "fusion_lat": 0.0, "lat": 38.90160683333333, "type": "electric_scooter", "lon": -76.97629916666666, "is_reserved": 0, "fusion_lon": 0.0, "bike_id": "68a43c0d778fde73f0e35d44ebf963ee", "name": "68a43c0d778fde73f0e35d44ebf963ee", "rental_uris": {"ios": "https://dc.lft.to/lastmile_qr_scan", "android": "https://dc.lft.to/lastmile_qr_scan"}}, {"is_disabled": 0, "fusion_lat": 0.0, "lat": 38.92847866666666, "type": "electric_bike", "lon": -77.02063766666667, "is_reserved": 0, "fusion_lon": 0.0, "bike_id": "ac3b72dc32b8340b7eba22cf665195cf", "name": "ac3b72dc32b8340b7eba22cf665195cf", "rental_uris": {"ios": "https://dc.lft.to/lastmile_qr_scan", "android": "https://dc.lft.to/lastmile_qr_scan"}}, {"is_disabled": 0, "fusion_lat": 0.0, "lat": 38.91923233333333, "type": "electric_scooter", "lon": -77.03193416666667, "is_reserved": 0, "fusion_lon": 0.0, "bike_id": "a4280f612c7d3798d98e1afae09ec38c", "name": "a4280f612c7d3798d98e1afae09ec38c", "rental_uris": {"ios": "https://dc.lft.to/lastmile_qr_scan", "android": "https://dc.lft.to/lastmile_qr_scan"}}, {"is_disabled": 0, "fusion_lat": 0.0, "lat": 38.92856916666667, "type": "electric_bike", "lon": -77.22213016666667, "is_reserved": 0, "fusion_lon": 0.0, "bike_id": "3e3432a67dcdf596a8a6d7736df8c89c", "name": "3e3432a67dcdf596a8a6d7736df8c89c", "rental_uris": {"ios": "https://dc.lft.to/lastmile_qr_scan", "android": "https://dc.lft.to/lastmile_qr_scan"}}, {"is_disabled": 0, "fusion_lat": 0.0, "lat": 38.887259, "type": "electric_scooter", "lon": -77.03212133333334, "is_reserved": 0, "fusion_lon": 0.0, "bike_id": "b47a94e0ffca49eeab029f55ed9b8dff", "name": "b47a94e0ffca49eeab029f55ed9b8dff", "rental_uris": {"ios": "https://dc.lft.to/lastmile_qr_scan", "android": "https://dc.lft.to/lastmile_qr_scan"}}, {"is_disabled": 0, "fusion_lat": 0.0, "lat": 38.98368116666666, "type": "electric_scooter", "lon": -77.02646333333334, "is_reserved": 0, "fusion_lon": 0.0, "bike_id": "270e42b4f26ddb4c76340233fc8551f1", "name": "270e42b4f26ddb4c76340233fc8551f1", "rental_uris": {"ios": "https://dc.lft.to/lastmile_qr_scan", "android": "https://dc.lft.to/lastmile_qr_scan"}}, {"is_disabled": 0, "fusion_lat": 0.0, "lat": 38.8841555, "type": "electric_scooter", "lon": -77.03058833333333, "is_reserved": 0, "fusion_lon": 0.0, "bike_id": "1b2824f4bcf71def5f444e2d0b670401", "name": "1b2824f4bcf71def5f444e2d0b670401", "rental_uris": {"ios": "https://dc.lft.to/lastmile_qr_scan", "android": "https://dc.lft.to/lastmile_qr_scan"}}, {"is_disabled": 0, "fusion_lat": 0.0, "lat": 38.89957616666667, "type": "electric_bike", "lon": -77.0549945, "is_reserved": 0, "fusion_lon": 0.0, "bike_id": "28e787963d390a987bd254d8ed23dc2a", "name": "28e787963d390a987bd254d8ed23dc2a", "rental_uris": {"ios": "https://dc.lft.to/lastmile_qr_scan", "android": "https://dc.lft.to/lastmile_qr_scan"}}, {"is_disabled": 0, "fusion_lat": 0.0, "lat": 38.911162166666664, "type": "electric_scooter", "lon": -77.03830466666666, "is_reserved": 0, "fusion_lon": 0.0, "bike_id": "c91930f3ce83ad34c5161110997d612f", "name": "c91930f3ce83ad34c5161110997d612f", "rental_uris": {"ios": "https://dc.lft.to/lastmile_qr_scan", "android": "https://dc.lft.to/lastmile_qr_scan"}}, {"is_disabled": 0, "fusion_lat": 0.0, "lat": 38.875002, "type": "electric_scooter", "lon": -77.0017515, "is_reserved": 0, "fusion_lon": 0.0, "bike_id": "15a4dd2091d5786176a0a1d1866565a4", "name": "15a4dd2091d5786176a0a1d1866565a4", "rental_uris": {"ios": "https://dc.lft.to/lastmile_qr_scan", "android": "https://dc.lft.to/lastmile_qr_scan"}}, {"is_disabled": 0, "fusion_lat": 0.0, "lat": 38.892028833333335, "type": "electric_scooter", "lon": -77.03167033333334, "is_reserved": 0, "fusion_lon": 0.0, "bike_id": "3e94c9b21ac5a17d2e9c56af5664d8bb", "name": "3e94c9b21ac5a17d2e9c56af5664d8bb", "rental_uris": {"ios": "https://dc.lft.to/lastmile_qr_scan", "android": "https://dc.lft.to/lastmile_qr_scan"}}, {"is_disabled": 0, "fusion_lat": 0.0, "lat": 38.905175, "type": "electric_scooter", "lon": -77.06463166666667, "is_reserved": 0, "fusion_lon": 0.0, "bike_id": "aab82f1a7a97be881c1f06619e36aa4c", "name": "aab82f1a7a97be881c1f06619e36aa4c", "rental_uris": {"ios": "https://dc.lft.to/lastmile_qr_scan", "android": "https://dc.lft.to/lastmile_qr_scan"}}, {"is_disabled": 0, "fusion_lat": 0.0, "lat": 38.92084933333334, "type": "electric_scooter", "lon": -77.0420745, "is_reserved": 0, "fusion_lon": 0.0, "bike_id": "49f11eb5b7157ac762055ce2733dd615", "name": "49f11eb5b7157ac762055ce2733dd615", "rental_uris": {"ios": "https://dc.lft.to/lastmile_qr_scan", "android": "https://dc.lft.to/lastmile_qr_scan"}}, {"is_disabled": 0, "fusion_lat": 0.0, "lat": 38.922149166666664, "type": "electric_scooter", "lon": -77.042658, "is_reserved": 0, "fusion_lon": 0.0, "bike_id": "0e31f164839f403d6dea2dc2ada55c37", "name": "0e31f164839f403d6dea2dc2ada55c37", "rental_uris": {"ios": "https://dc.lft.to/lastmile_qr_scan", "android": "https://dc.lft.to/lastmile_qr_scan"}}, {"is_disabled": 0, "fusion_lat": 0.0, "lat": 38.9146315, "type": "electric_scooter", "lon": -77.03658033333333, "is_reserved": 0, "fusion_lon": 0.0, "bike_id": "e0a31de5c2e456140692921096e02aa4", "name": "e0a31de5c2e456140692921096e02aa4", "rental_uris": {"ios": "https://dc.lft.to/lastmile_qr_scan", "android": "https://dc.lft.to/lastmile_qr_scan"}}, {"is_disabled": 0, "fusion_lat": 0.0, "lat": 38.925771, "type": "electric_scooter", "lon": -77.02569333333334, "is_reserved": 0, "fusion_lon": 0.0, "bike_id": "07fde8d0c281781014a71823b5f69924", "name": "07fde8d0c281781014a71823b5f69924", "rental_uris": {"ios": "https://dc.lft.to/lastmile_qr_scan", "android": "https://dc.lft.to/lastmile_qr_scan"}}, {"is_disabled": 0, "fusion_lat": 0.0, "lat": 38.9081715, "type": "electric_scooter", "lon": -76.98406233333333, "is_reserved": 0, "fusion_lon": 0.0, "bike_id": "8ce1686874ee947e2061c0c79d3c2183", "name": "8ce1686874ee947e2061c0c79d3c2183", "rental_uris": {"ios": "https://dc.lft.to/lastmile_qr_scan", "android": "https://dc.lft.to/lastmile_qr_scan"}}, {"is_disabled": 0, "fusion_lat": 0.0, "lat": 38.872343666666666, "type": "electric_scooter", "lon": -77.01766383333333, "is_reserved": 0, "fusion_lon": 0.0, "bike_id": "9dcec47d0953116e3173400bf7d6c492", "name": "9dcec47d0953116e3173400bf7d6c492", "rental_uris": {"ios": "https://dc.lft.to/lastmile_qr_scan", "android": "https://dc.lft.to/lastmile_qr_scan"}}, {"is_disabled": 0, "fusion_lat": 0.0, "lat": 38.864177833333336, "type": "electric_scooter", "lon": -77.013614, "is_reserved": 0, "fusion_lon": 0.0, "bike_id": "37ee5b81432c5e87bafa04633eb47ed6", "name": "37ee5b81432c5e87bafa04633eb47ed6", "rental_uris": {"ios": "https://dc.lft.to/lastmile_qr_scan", "android": "https://dc.lft.to/lastmile_qr_scan"}}, {"is_disabled": 0, "fusion_lat": 0.0, "lat": 38.884411, "type": "electric_scooter", "lon": -77.03036, "is_reserved": 0, "fusion_lon": 0.0, "bike_id": "389e6db239b1c68a73334cb7cf6b7042", "name": "389e6db239b1c68a73334cb7cf6b7042", "rental_uris": {"ios": "https://dc.lft.to/lastmile_qr_scan", "android": "https://dc.lft.to/lastmile_qr_scan"}}, {"is_disabled": 0, "fusion_lat": 0.0, "lat": 38.919256, "type": "electric_scooter", "lon": -77.03340033333333, "is_reserved": 0, "fusion_lon": 0.0, "bike_id": "85cb7f584545b09671576a1cb28b6e3c", "name": "85cb7f584545b09671576a1cb28b6e3c", "rental_uris": {"ios": "https://dc.lft.to/lastmile_qr_scan", "android": "https://dc.lft.to/lastmile_qr_scan"}}, {"is_disabled": 0, "fusion_lat": 0.0, "lat": 38.901783, "type": "electric_scooter", "lon": -76.999978, "is_reserved": 0, "fusion_lon": 0.0, "bike_id": "cbb06672fd87bae040dfbebebb6805ff", "name": "cbb06672fd87bae040dfbebebb6805ff", "rental_uris": {"ios": "https://dc.lft.to/lastmile_qr_scan", "android": "https://dc.lft.to/lastmile_qr_scan"}}, {"is_disabled": 0, "fusion_lat": 0.0, "lat": 38.894725666666666, "type": "electric_scooter", "lon": -77.00066433333333, "is_reserved": 0, "fusion_lon": 0.0, "bike_id": "f295e965d0f749bcf6fd8d76316ab9c1", "name": "f295e965d0f749bcf6fd8d76316ab9c1", "rental_uris": {"ios": "https://dc.lft.to/lastmile_qr_scan", "android": "https://dc.lft.to/lastmile_qr_scan"}}, {"is_disabled": 0, "fusion_lat": 0.0, "lat": 38.9001745, "type": "electric_scooter", "lon": -76.9867785, "is_reserved": 0, "fusion_lon": 0.0, "bike_id": "cff9a8341003c6edc90565c1d41e1b31", "name": "cff9a8341003c6edc90565c1d41e1b31", "rental_uris": {"ios": "https://dc.lft.to/lastmile_qr_scan", "android": "https://dc.lft.to/lastmile_qr_scan"}}, {"is_disabled": 0, "fusion_lat": 0.0, "lat": 38.90296583333333, "type": "electric_scooter", "lon": -77.0343825, "is_reserved": 0, "fusion_lon": 0.0, "bike_id": "a4a8c6302711633dac77241cd1e7bd78", "name": "a4a8c6302711633dac77241cd1e7bd78", "rental_uris": {"ios": "https://dc.lft.to/lastmile_qr_scan", "android": "https://dc.lft.to/lastmile_qr_scan"}}, {"is_disabled": 0, "fusion_lat": 0.0, "lat": 38.925807166666665, "type": "electric_scooter", "lon": -77.0576395, "is_reserved": 0, "fusion_lon": 0.0, "bike_id": "bc8862e9009df9f4daecc6222acbb0c9", "name": "bc8862e9009df9f4daecc6222acbb0c9", "rental_uris": {"ios": "https://dc.lft.to/lastmile_qr_scan", "android": "https://dc.lft.to/lastmile_qr_scan"}}, {"is_disabled": 0, "fusion_lat": 0.0, "lat": 38.92371416666667, "type": "electric_scooter", "lon": -77.05760966666666, "is_reserved": 0, "fusion_lon": 0.0, "bike_id": "dbd7d1b077d51a4e234a640a2f0920df", "name": "dbd7d1b077d51a4e234a640a2f0920df", "rental_uris": {"ios": "https://dc.lft.to/lastmile_qr_scan", "android": "https://dc.lft.to/lastmile_qr_scan"}}, {"is_disabled": 0, "fusion_lat": 0.0, "lat": 38.89374816666667, "type": "electric_scooter", "lon": -76.94996916666666, "is_reserved": 0, "fusion_lon": 0.0, "bike_id": "1678c578e3acb5c53f7e4b493c4e7322", "name": "1678c578e3acb5c53f7e4b493c4e7322", "rental_uris": {"ios": "https://dc.lft.to/lastmile_qr_scan", "android": "https://dc.lft.to/lastmile_qr_scan"}}, {"is_disabled": 0, "fusion_lat": 0.0, "lat": 38.9188865, "type": "electric_scooter", "lon": -77.0296965, "is_reserved": 0, "fusion_lon": 0.0, "bike_id": "ece0aac53892d03f588ae8838b18be34", "name": "ece0aac53892d03f588ae8838b18be34", "rental_uris": {"ios": "https://dc.lft.to/lastmile_qr_scan", "android": "https://dc.lft.to/lastmile_qr_scan"}}, {"is_disabled": 0, "fusion_lat": 0.0, "lat": 38.905847333333334, "type": "electric_scooter", "lon": -77.0071585, "is_reserved": 0, "fusion_lon": 0.0, "bike_id": "954095aa9233587e9f4241dfa121d3bb", "name": "954095aa9233587e9f4241dfa121d3bb", "rental_uris": {"ios": "https://dc.lft.to/lastmile_qr_scan", "android": "https://dc.lft.to/lastmile_qr_scan"}}, {"is_disabled": 0, "fusion_lat": 0.0, "lat": 38.88482, "type": "electric_scooter", "lon": -77.01526866666667, "is_reserved": 0, "fusion_lon": 0.0, "bike_id": "c47aba92c4fca72c4470be3f8ec7a91e", "name": "c47aba92c4fca72c4470be3f8ec7a91e", "rental_uris": {"ios": "https://dc.lft.to/lastmile_qr_scan", "android": "https://dc.lft.to/lastmile_qr_scan"}}, {"is_disabled": 0, "fusion_lat": 0.0, "lat": 38.90986633333333, "type": "electric_scooter", "lon": -77.03175783333333, "is_reserved": 0, "fusion_lon": 0.0, "bike_id": "9cee6176cfe9a1d2ea90d1b5e423b8d6", "name": "9cee6176cfe9a1d2ea90d1b5e423b8d6", "rental_uris": {"ios": "https://dc.lft.to/lastmile_qr_scan", "android": "https://dc.lft.to/lastmile_qr_scan"}}, {"is_disabled": 0, "fusion_lat": 0.0, "lat": 38.90717033333333, "type": "electric_scooter", "lon": -77.04353416666666, "is_reserved": 0, "fusion_lon": 0.0, "bike_id": "dcb3343cf899fa5e73101266f8e0071f", "name": "dcb3343cf899fa5e73101266f8e0071f", "rental_uris": {"ios": "https://dc.lft.to/lastmile_qr_scan", "android": "https://dc.lft.to/lastmile_qr_scan"}}, {"is_disabled": 0, "fusion_lat": 0.0, "lat": 38.963935166666666, "type": "electric_scooter", "lon": -77.02592333333334, "is_reserved": 0, "fusion_lon": 0.0, "bike_id": "9a8857fa4e2310fe817716f478a7776a", "name": "9a8857fa4e2310fe817716f478a7776a", "rental_uris": {"ios": "https://dc.lft.to/lastmile_qr_scan", "android": "https://dc.lft.to/lastmile_qr_scan"}}, {"is_disabled": 0, "fusion_lat": 0.0, "lat": 38.92128616666667, "type": "electric_scooter", "lon": -77.01791366666667, "is_reserved": 0, "fusion_lon": 0.0, "bike_id": "84a11228f1117845146e12ca5bbeab89", "name": "84a11228f1117845146e12ca5bbeab89", "rental_uris": {"ios": "https://dc.lft.to/lastmile_qr_scan", "android": "https://dc.lft.to/lastmile_qr_scan"}}, {"is_disabled": 0, "fusion_lat": 0.0, "lat": 38.9149765, "type": "electric_scooter", "lon": -76.983961, "is_reserved": 0, "fusion_lon": 0.0, "bike_id": "a85b8dcbca98ee06587aad44fd05390d", "name": "a85b8dcbca98ee06587aad44fd05390d", "rental_uris": {"ios": "https://dc.lft.to/lastmile_qr_scan", "android": "https://dc.lft.to/lastmile_qr_scan"}}, {"is_disabled": 0, "fusion_lat": 0.0, "lat": 38.905834666666664, "type": "electric_scooter", "lon": -77.03820333333333, "is_reserved": 0, "fusion_lon": 0.0, "bike_id": "8fa920e32c4d518469b6b69a6a1f02ce", "name": "8fa920e32c4d518469b6b69a6a1f02ce", "rental_uris": {"ios": "https://dc.lft.to/lastmile_qr_scan", "android": "https://dc.lft.to/lastmile_qr_scan"}}, {"is_disabled": 0, "fusion_lat": 0.0, "lat": 38.96227416666667, "type": "electric_bike", "lon": -77.026256, "is_reserved": 0, "fusion_lon": 0.0, "bike_id": "6b848db76525b37ab8f785cdcfdb7dec", "name": "6b848db76525b37ab8f785cdcfdb7dec", "rental_uris": {"ios": "https://dc.lft.to/lastmile_qr_scan", "android": "https://dc.lft.to/lastmile_qr_scan"}}, {"is_disabled": 0, "fusion_lat": 0.0, "lat": 38.8577095, "type": "electric_bike", "lon": -76.98770066666667, "is_reserved": 0, "fusion_lon": 0.0, "bike_id": "083864af9ea74a97f43e14459306fe2f", "name": "083864af9ea74a97f43e14459306fe2f", "rental_uris": {"ios": "https://dc.lft.to/lastmile_qr_scan", "android": "https://dc.lft.to/lastmile_qr_scan"}}, {"is_disabled": 0, "fusion_lat": 0.0, "lat": 38.93056816666667, "type": "electric_scooter", "lon": -77.02648616666667, "is_reserved": 0, "fusion_lon": 0.0, "bike_id": "3a2cf025f01b87c43bffcae5145f3108", "name": "3a2cf025f01b87c43bffcae5145f3108", "rental_uris": {"ios": "https://dc.lft.to/lastmile_qr_scan", "android": "https://dc.lft.to/lastmile_qr_scan"}}, {"is_disabled": 0, "fusion_lat": 0.0, "lat": 38.90133183333333, "type": "electric_scooter", "lon": -77.002786, "is_reserved": 0, "fusion_lon": 0.0, "bike_id": "64e018b5c796540053f99af150e16273", "name": "64e018b5c796540053f99af150e16273", "rental_uris": {"ios": "https://dc.lft.to/lastmile_qr_scan", "android": "https://dc.lft.to/lastmile_qr_scan"}}, {"is_disabled": 0, "fusion_lat": 0.0, "lat": 38.9308425, "type": "electric_scooter", "lon": -77.0375255, "is_reserved": 0, "fusion_lon": 0.0, "bike_id": "f4ec1e89961b73e97a3be3e1d2d721a1", "name": "f4ec1e89961b73e97a3be3e1d2d721a1", "rental_uris": {"ios": "https://dc.lft.to/lastmile_qr_scan", "android": "https://dc.lft.to/lastmile_qr_scan"}}, {"is_disabled": 0, "fusion_lat": 0.0, "lat": 38.86631966666667, "type": "electric_scooter", "lon": -76.98692633333333, "is_reserved": 0, "fusion_lon": 0.0, "bike_id": "a2fd4774652fb6079ac7556ee44d533b", "name": "a2fd4774652fb6079ac7556ee44d533b", "rental_uris": {"ios": "https://dc.lft.to/lastmile_qr_scan", "android": "https://dc.lft.to/lastmile_qr_scan"}}, {"is_disabled": 0, "fusion_lat": 0.0, "lat": 38.84936483333333, "type": "electric_bike", "lon": -77.10016283333333, "is_reserved": 0, "fusion_lon": 0.0, "bike_id": "627b4198c48371727bc6ee1ce6bde3d9", "name": "627b4198c48371727bc6ee1ce6bde3d9", "rental_uris": {"ios": "https://dc.lft.to/lastmile_qr_scan", "android": "https://dc.lft.to/lastmile_qr_scan"}}, {"is_disabled": 0, "fusion_lat": 0.0, "lat": 38.8429675, "type": "electric_scooter", "lon": -76.99944266666667, "is_reserved": 0, "fusion_lon": 0.0, "bike_id": "35ccca935804a439bd439b1ce71a7dd4", "name": "35ccca935804a439bd439b1ce71a7dd4", "rental_uris": {"ios": "https://dc.lft.to/lastmile_qr_scan", "android": "https://dc.lft.to/lastmile_qr_scan"}}, {"is_disabled": 0, "fusion_lat": 0.0, "lat": 38.951867666666665, "type": "electric_bike", "lon": -76.93547033333333, "is_reserved": 0, "fusion_lon": 0.0, "bike_id": "c7aaef854de47b54d381dcedcec6fe79", "name": "c7aaef854de47b54d381dcedcec6fe79", "rental_uris": {"ios": "https://dc.lft.to/lastmile_qr_scan", "android": "https://dc.lft.to/lastmile_qr_scan"}}, {"is_disabled": 0, "fusion_lat": 0.0, "lat": 38.9286925, "type": "electric_scooter", "lon": -77.02875783333333, "is_reserved": 0, "fusion_lon": 0.0, "bike_id": "f19dded150fa5d291fc8d8a0481f4e29", "name": "f19dded150fa5d291fc8d8a0481f4e29", "rental_uris": {"ios": "https://dc.lft.to/lastmile_qr_scan", "android": "https://dc.lft.to/lastmile_qr_scan"}}, {"is_disabled": 0, "fusion_lat": 0.0, "lat": 38.90258216666667, "type": "electric_scooter", "lon": -77.0184405, "is_reserved": 0, "fusion_lon": 0.0, "bike_id": "8ebeda8bc4f2e9c59e4af34a327f7ef9", "name": "8ebeda8bc4f2e9c59e4af34a327f7ef9", "rental_uris": {"ios": "https://dc.lft.to/lastmile_qr_scan", "android": "https://dc.lft.to/lastmile_qr_scan"}}, {"is_disabled": 0, "fusion_lat": 0.0, "lat": 38.91548183333333, "type": "electric_scooter", "lon": -77.03853883333333, "is_reserved": 0, "fusion_lon": 0.0, "bike_id": "d2c5df4a917e43772e77939b549365f8", "name": "d2c5df4a917e43772e77939b549365f8", "rental_uris": {"ios": "https://dc.lft.to/lastmile_qr_scan", "android": "https://dc.lft.to/lastmile_qr_scan"}}, {"is_disabled": 0, "fusion_lat": 0.0, "lat": 38.8637175, "type": "electric_scooter", "lon": -76.9904425, "is_reserved": 0, "fusion_lon": 0.0, "bike_id": "cdec84ca93a4e09e912b6259d90c8864", "name": "cdec84ca93a4e09e912b6259d90c8864", "rental_uris": {"ios": "https://dc.lft.to/lastmile_qr_scan", "android": "https://dc.lft.to/lastmile_qr_scan"}}, {"is_disabled": 0, "fusion_lat": 0.0, "lat": 38.91265883333333, "type": "electric_scooter", "lon": -77.03628283333333, "is_reserved": 0, "fusion_lon": 0.0, "bike_id": "707dd7965e37b8cb9506fa5bb33f9633", "name": "707dd7965e37b8cb9506fa5bb33f9633", "rental_uris": {"ios": "https://dc.lft.to/lastmile_qr_scan", "android": "https://dc.lft.to/lastmile_qr_scan"}}, {"is_disabled": 0, "fusion_lat": 0.0, "lat": 38.87119833333333, "type": "electric_scooter", "lon": -77.0106895, "is_reserved": 0, "fusion_lon": 0.0, "bike_id": "a14f766356980785c436228127577455", "name": "a14f766356980785c436228127577455", "rental_uris": {"ios": "https://dc.lft.to/lastmile_qr_scan", "android": "https://dc.lft.to/lastmile_qr_scan"}}, {"is_disabled": 0, "fusion_lat": 0.0, "lat": 38.94509266666667, "type": "electric_bike", "lon": -77.006691, "is_reserved": 0, "fusion_lon": 0.0, "bike_id": "740ce5cd53ca5cae2bc095b0630856ef", "name": "740ce5cd53ca5cae2bc095b0630856ef", "rental_uris": {"ios": "https://dc.lft.to/lastmile_qr_scan", "android": "https://dc.lft.to/lastmile_qr_scan"}}, {"is_disabled": 0, "fusion_lat": 0.0, "lat": 38.87736683333333, "type": "electric_bike", "lon": -77.11853733333334, "is_reserved": 0, "fusion_lon": 0.0, "bike_id": "889a0b54662dd305bfe86d94b81d2605", "name": "889a0b54662dd305bfe86d94b81d2605", "rental_uris": {"ios": "https://dc.lft.to/lastmile_qr_scan", "android": "https://dc.lft.to/lastmile_qr_scan"}}, {"is_disabled": 0, "fusion_lat": 0.0, "lat": 38.911069499999996, "type": "electric_scooter", "lon": -77.04201833333333, "is_reserved": 0, "fusion_lon": 0.0, "bike_id": "231e21cced01c7d6996b821e37e5f727", "name": "231e21cced01c7d6996b821e37e5f727", "rental_uris": {"ios": "https://dc.lft.to/lastmile_qr_scan", "android": "https://dc.lft.to/lastmile_qr_scan"}}, {"is_disabled": 0, "fusion_lat": 0.0, "lat": 38.8823775, "type": "electric_scooter", "lon": -76.99086933333334, "is_reserved": 0, "fusion_lon": 0.0, "bike_id": "72e86a935b4fe9b553ec1fc1ef52c03d", "name": "72e86a935b4fe9b553ec1fc1ef52c03d", "rental_uris": {"ios": "https://dc.lft.to/lastmile_qr_scan", "android": "https://dc.lft.to/lastmile_qr_scan"}}, {"is_disabled": 0, "fusion_lat": 0.0, "lat": 38.956413, "type": "electric_scooter", "lon": -76.99795883333333, "is_reserved": 0, "fusion_lon": 0.0, "bike_id": "fe26637d55c08e1a917b0e62b7029005", "name": "fe26637d55c08e1a917b0e62b7029005", "rental_uris": {"ios": "https://dc.lft.to/lastmile_qr_scan", "android": "https://dc.lft.to/lastmile_qr_scan"}}, {"is_disabled": 0, "fusion_lat": 0.0, "lat": 38.886367, "type": "electric_scooter", "lon": -77.01964483333333, "is_reserved": 0, "fusion_lon": 0.0, "bike_id": "da78241a08f0c0f37f7548bbb1a71c21", "name": "da78241a08f0c0f37f7548bbb1a71c21", "rental_uris": {"ios": "https://dc.lft.to/lastmile_qr_scan", "android": "https://dc.lft.to/lastmile_qr_scan"}}, {"is_disabled": 0, "fusion_lat": 0.0, "lat": 38.887526, "type": "electric_scooter", "lon": -77.02017316666667, "is_reserved": 0, "fusion_lon": 0.0, "bike_id": "a40f0b9add4257528b462c34578a0465", "name": "a40f0b9add4257528b462c34578a0465", "rental_uris": {"ios": "https://dc.lft.to/lastmile_qr_scan", "android": "https://dc.lft.to/lastmile_qr_scan"}}, {"is_disabled": 0, "fusion_lat": 0.0, "lat": 38.879700666666665, "type": "electric_scooter", "lon": -76.98544283333334, "is_reserved": 0, "fusion_lon": 0.0, "bike_id": "e0a6ae8b8a82eea932ffdb020e79f2da", "name": "e0a6ae8b8a82eea932ffdb020e79f2da", "rental_uris": {"ios": "https://dc.lft.to/lastmile_qr_scan", "android": "https://dc.lft.to/lastmile_qr_scan"}}, {"is_disabled": 0, "fusion_lat": 0.0, "lat": 38.99163983333333, "type": "electric_scooter", "lon": -77.04738966666666, "is_reserved": 0, "fusion_lon": 0.0, "bike_id": "7ca3bcdd617eafca73fed034f9c869de", "name": "7ca3bcdd617eafca73fed034f9c869de", "rental_uris": {"ios": "https://dc.lft.to/lastmile_qr_scan", "android": "https://dc.lft.to/lastmile_qr_scan"}}, {"is_disabled": 0, "fusion_lat": 0.0, "lat": 38.96026033333333, "type": "electric_bike", "lon": -77.017233, "is_reserved": 0, "fusion_lon": 0.0, "bike_id": "d2e85b819ea982377d1311911bcf5410", "name": "d2e85b819ea982377d1311911bcf5410", "rental_uris": {"ios": "https://dc.lft.to/lastmile_qr_scan", "android": "https://dc.lft.to/lastmile_qr_scan"}}, {"is_disabled": 0, "fusion_lat": 0.0, "lat": 38.904295, "type": "electric_scooter", "lon": -77.05312633333334, "is_reserved": 0, "fusion_lon": 0.0, "bike_id": "bb4bb785f834baa13a547b8e17dcbe23", "name": "bb4bb785f834baa13a547b8e17dcbe23", "rental_uris": {"ios": "https://dc.lft.to/lastmile_qr_scan", "android": "https://dc.lft.to/lastmile_qr_scan"}}, {"is_disabled": 0, "fusion_lat": 0.0, "lat": 38.91991516666667, "type": "electric_scooter", "lon": -76.97309216666666, "is_reserved": 0, "fusion_lon": 0.0, "bike_id": "327f58c009f949e175a53561b44e058e", "name": "327f58c009f949e175a53561b44e058e", "rental_uris": {"ios": "https://dc.lft.to/lastmile_qr_scan", "android": "https://dc.lft.to/lastmile_qr_scan"}}, {"is_disabled": 0, "fusion_lat": 0.0, "lat": 39.02937333333333, "type": "electric_bike", "lon": -77.049277, "is_reserved": 0, "fusion_lon": 0.0, "bike_id": "7a0cb2cec466f6158bb2977844a6e175", "name": "7a0cb2cec466f6158bb2977844a6e175", "rental_uris": {"ios": "https://dc.lft.to/lastmile_qr_scan", "android": "https://dc.lft.to/lastmile_qr_scan"}}, {"is_disabled": 0, "fusion_lat": 0.0, "lat": 38.93584216666667, "type": "electric_scooter", "lon": -77.037387, "is_reserved": 0, "fusion_lon": 0.0, "bike_id": "299c82138e2d5ff30e85d1c3443e84b2", "name": "299c82138e2d5ff30e85d1c3443e84b2", "rental_uris": {"ios": "https://dc.lft.to/lastmile_qr_scan", "android": "https://dc.lft.to/lastmile_qr_scan"}}, {"is_disabled": 0, "fusion_lat": 0.0, "lat": 38.9086575, "type": "electric_bike", "lon": -77.0807225, "is_reserved": 0, "fusion_lon": 0.0, "bike_id": "e1fcec16264fc54014a56ffbe9b68a9e", "name": "e1fcec16264fc54014a56ffbe9b68a9e", "rental_uris": {"ios": "https://dc.lft.to/lastmile_qr_scan", "android": "https://dc.lft.to/lastmile_qr_scan"}}, {"is_disabled": 0, "fusion_lat": 0.0, "lat": 38.935294166666665, "type": "electric_scooter", "lon": -77.023695, "is_reserved": 0, "fusion_lon": 0.0, "bike_id": "8e07f0bb56c5595282d4d7416fcff97a", "name": "8e07f0bb56c5595282d4d7416fcff97a", "rental_uris": {"ios": "https://dc.lft.to/lastmile_qr_scan", "android": "https://dc.lft.to/lastmile_qr_scan"}}, {"is_disabled": 0, "fusion_lat": 0.0, "lat": 38.85799266666667, "type": "electric_bike", "lon": -77.0996195, "is_reserved": 0, "fusion_lon": 0.0, "bike_id": "56378e7089d77bac15bc0d74c7e8142c", "name": "56378e7089d77bac15bc0d74c7e8142c", "rental_uris": {"ios": "https://dc.lft.to/lastmile_qr_scan", "android": "https://dc.lft.to/lastmile_qr_scan"}}, {"is_disabled": 0, "fusion_lat": 0.0, "lat": 38.87660566666667, "type": "electric_scooter", "lon": -77.00409383333333, "is_reserved": 0, "fusion_lon": 0.0, "bike_id": "b0213eef268004bd20ca08154b6946d2", "name": "b0213eef268004bd20ca08154b6946d2", "rental_uris": {"ios": "https://dc.lft.to/lastmile_qr_scan", "android": "https://dc.lft.to/lastmile_qr_scan"}}, {"is_disabled": 0, "fusion_lat": 0.0, "lat": 38.90034133333333, "type": "electric_scooter", "lon": -76.99829116666666, "is_reserved": 0, "fusion_lon": 0.0, "bike_id": "024911f6d743ebdded5fe4424bda80e0", "name": "024911f6d743ebdded5fe4424bda80e0", "rental_uris": {"ios": "https://dc.lft.to/lastmile_qr_scan", "android": "https://dc.lft.to/lastmile_qr_scan"}}, {"is_disabled": 0, "fusion_lat": 0.0, "lat": 38.91910683333333, "type": "electric_scooter", "lon": -77.04629233333333, "is_reserved": 0, "fusion_lon": 0.0, "bike_id": "af2aa17cd3772eed059697c017d0d488", "name": "af2aa17cd3772eed059697c017d0d488", "rental_uris": {"ios": "https://dc.lft.to/lastmile_qr_scan", "android": "https://dc.lft.to/lastmile_qr_scan"}}, {"is_disabled": 0, "fusion_lat": 0.0, "lat": 38.91714783333333, "type": "electric_scooter", "lon": -77.00889083333334, "is_reserved": 0, "fusion_lon": 0.0, "bike_id": "c4648a02741a178174a41cc2173a77db", "name": "c4648a02741a178174a41cc2173a77db", "rental_uris": {"ios": "https://dc.lft.to/lastmile_qr_scan", "android": "https://dc.lft.to/lastmile_qr_scan"}}, {"is_disabled": 0, "fusion_lat": 0.0, "lat": 38.935917833333335, "type": "electric_scooter", "lon": -77.0350465, "is_reserved": 0, "fusion_lon": 0.0, "bike_id": "318191a0e2f38e94c1511822540a8191", "name": "318191a0e2f38e94c1511822540a8191", "rental_uris": {"ios": "https://dc.lft.to/lastmile_qr_scan", "android": "https://dc.lft.to/lastmile_qr_scan"}}, {"is_disabled": 0, "fusion_lat": 0.0, "lat": 38.86379183333333, "type": "electric_scooter", "lon": -76.99055983333334, "is_reserved": 0, "fusion_lon": 0.0, "bike_id": "98aa2207e91032b9ee7f29eb3168f6c5", "name": "98aa2207e91032b9ee7f29eb3168f6c5", "rental_uris": {"ios": "https://dc.lft.to/lastmile_qr_scan", "android": "https://dc.lft.to/lastmile_qr_scan"}}, {"is_disabled": 0, "fusion_lat": 0.0, "lat": 38.939122833333336, "type": "electric_scooter", "lon": -77.06038866666667, "is_reserved": 0, "fusion_lon": 0.0, "bike_id": "f95ff26a25cfaac6d8d23e3d3e19aad1", "name": "f95ff26a25cfaac6d8d23e3d3e19aad1", "rental_uris": {"ios": "https://dc.lft.to/lastmile_qr_scan", "android": "https://dc.lft.to/lastmile_qr_scan"}}, {"is_disabled": 0, "fusion_lat": 0.0, "lat": 38.9121375, "type": "electric_scooter", "lon": -77.0384235, "is_reserved": 0, "fusion_lon": 0.0, "bike_id": "1ee0e2231c86b375130561ecba7a695f", "name": "1ee0e2231c86b375130561ecba7a695f", "rental_uris": {"ios": "https://dc.lft.to/lastmile_qr_scan", "android": "https://dc.lft.to/lastmile_qr_scan"}}, {"is_disabled": 0, "fusion_lat": 0.0, "lat": 38.939869333333334, "type": "electric_scooter", "lon": -77.031405, "is_reserved": 0, "fusion_lon": 0.0, "bike_id": "eadc03aa88cbfe56bdca2a9524ef7be0", "name": "eadc03aa88cbfe56bdca2a9524ef7be0", "rental_uris": {"ios": "https://dc.lft.to/lastmile_qr_scan", "android": "https://dc.lft.to/lastmile_qr_scan"}}, {"is_disabled": 0, "fusion_lat": 0.0, "lat": 38.865281333333336, "type": "electric_scooter", "lon": -76.99030166666667, "is_reserved": 0, "fusion_lon": 0.0, "bike_id": "948f8c34109f652bf63acc7204aa6c65", "name": "948f8c34109f652bf63acc7204aa6c65", "rental_uris": {"ios": "https://dc.lft.to/lastmile_qr_scan", "android": "https://dc.lft.to/lastmile_qr_scan"}}, {"is_disabled": 0, "fusion_lat": 0.0, "lat": 38.9139005, "type": "electric_scooter", "lon": -76.98422333333333, "is_reserved": 0, "fusion_lon": 0.0, "bike_id": "a57f2f9165f341e516e2e49381bd6e26", "name": "a57f2f9165f341e516e2e49381bd6e26", "rental_uris": {"ios": "https://dc.lft.to/lastmile_qr_scan", "android": "https://dc.lft.to/lastmile_qr_scan"}}, {"is_disabled": 0, "fusion_lat": 0.0, "lat": 38.9020675, "type": "electric_scooter", "lon": -77.02367766666667, "is_reserved": 0, "fusion_lon": 0.0, "bike_id": "2ad146436c29aa8f16a9df8c966826a1", "name": "2ad146436c29aa8f16a9df8c966826a1", "rental_uris": {"ios": "https://dc.lft.to/lastmile_qr_scan", "android": "https://dc.lft.to/lastmile_qr_scan"}}, {"is_disabled": 0, "fusion_lat": 0.0, "lat": 38.91418816666667, "type": "electric_scooter", "lon": -77.0196795, "is_reserved": 0, "fusion_lon": 0.0, "bike_id": "3e6a67f94ce4ec74e2f648e98c285153", "name": "3e6a67f94ce4ec74e2f648e98c285153", "rental_uris": {"ios": "https://dc.lft.to/lastmile_qr_scan", "android": "https://dc.lft.to/lastmile_qr_scan"}}, {"is_disabled": 0, "fusion_lat": 0.0, "lat": 38.952730833333334, "type": "electric_bike", "lon": -77.0698205, "is_reserved": 0, "fusion_lon": 0.0, "bike_id": "2386c88b7bdf961f2caf89e87695752e", "name": "2386c88b7bdf961f2caf89e87695752e", "rental_uris": {"ios": "https://dc.lft.to/lastmile_qr_scan", "android": "https://dc.lft.to/lastmile_qr_scan"}}, {"is_disabled": 0, "fusion_lat": 0.0, "lat": 38.9113045, "type": "electric_scooter", "lon": -77.04456116666667, "is_reserved": 0, "fusion_lon": 0.0, "bike_id": "2d128f2fdb5128b350043689cb369f26", "name": "2d128f2fdb5128b350043689cb369f26", "rental_uris": {"ios": "https://dc.lft.to/lastmile_qr_scan", "android": "https://dc.lft.to/lastmile_qr_scan"}}, {"is_disabled": 0, "fusion_lat": 0.0, "lat": 38.9068765, "type": "electric_scooter", "lon": -77.0635395, "is_reserved": 0, "fusion_lon": 0.0, "bike_id": "5bd6050e3e4988f857253392b54c925d", "name": "5bd6050e3e4988f857253392b54c925d", "rental_uris": {"ios": "https://dc.lft.to/lastmile_qr_scan", "android": "https://dc.lft.to/lastmile_qr_scan"}}, {"is_disabled": 0, "fusion_lat": 0.0, "lat": 38.933161, "type": "electric_scooter", "lon": -77.03286783333333, "is_reserved": 0, "fusion_lon": 0.0, "bike_id": "52dc6b81a07dd8e2906857606b00df0b", "name": "52dc6b81a07dd8e2906857606b00df0b", "rental_uris": {"ios": "https://dc.lft.to/lastmile_qr_scan", "android": "https://dc.lft.to/lastmile_qr_scan"}}, {"is_disabled": 0, "fusion_lat": 0.0, "lat": 38.96505916666667, "type": "electric_bike", "lon": -77.0283255, "is_reserved": 0, "fusion_lon": 0.0, "bike_id": "205959532d906d2ce16c13a0139248ae", "name": "205959532d906d2ce16c13a0139248ae", "rental_uris": {"ios": "https://dc.lft.to/lastmile_qr_scan", "android": "https://dc.lft.to/lastmile_qr_scan"}}, {"is_disabled": 0, "fusion_lat": 0.0, "lat": 38.925534166666665, "type": "electric_scooter", "lon": -77.05302016666667, "is_reserved": 0, "fusion_lon": 0.0, "bike_id": "5e769a65f67da910fa1200c6a2d1d35c", "name": "5e769a65f67da910fa1200c6a2d1d35c", "rental_uris": {"ios": "https://dc.lft.to/lastmile_qr_scan", "android": "https://dc.lft.to/lastmile_qr_scan"}}, {"is_disabled": 0, "fusion_lat": 0.0, "lat": 38.95201516666667, "type": "electric_bike", "lon": -76.96722033333333, "is_reserved": 0, "fusion_lon": 0.0, "bike_id": "fa71c2954e0af7def0ad07033d61fa9b", "name": "fa71c2954e0af7def0ad07033d61fa9b", "rental_uris": {"ios": "https://dc.lft.to/lastmile_qr_scan", "android": "https://dc.lft.to/lastmile_qr_scan"}}, {"is_disabled": 0, "fusion_lat": 0.0, "lat": 38.9038405, "type": "electric_scooter", "lon": -77.0110085, "is_reserved": 0, "fusion_lon": 0.0, "bike_id": "918b36bbb0aabd341a962e26fd820e36", "name": "918b36bbb0aabd341a962e26fd820e36", "rental_uris": {"ios": "https://dc.lft.to/lastmile_qr_scan", "android": "https://dc.lft.to/lastmile_qr_scan"}}, {"is_disabled": 0, "fusion_lat": 0.0, "lat": 38.903505833333334, "type": "electric_scooter", "lon": -76.97560383333334, "is_reserved": 0, "fusion_lon": 0.0, "bike_id": "e8874bc39ad17ac0fa64163f770e7df9", "name": "e8874bc39ad17ac0fa64163f770e7df9", "rental_uris": {"ios": "https://dc.lft.to/lastmile_qr_scan", "android": "https://dc.lft.to/lastmile_qr_scan"}}, {"is_disabled": 0, "fusion_lat": 0.0, "lat": 38.99825416666667, "type": "electric_bike", "lon": -76.88378783333333, "is_reserved": 0, "fusion_lon": 0.0, "bike_id": "c85538d3e2cc56ecc8fb637cac69b285", "name": "c85538d3e2cc56ecc8fb637cac69b285", "rental_uris": {"ios": "https://dc.lft.to/lastmile_qr_scan", "android": "https://dc.lft.to/lastmile_qr_scan"}}, {"is_disabled": 0, "fusion_lat": 0.0, "lat": 38.913419166666664, "type": "electric_scooter", "lon": -77.03016516666666, "is_reserved": 0, "fusion_lon": 0.0, "bike_id": "f61ce800e738857b181c7caa4058aac4", "name": "f61ce800e738857b181c7caa4058aac4", "rental_uris": {"ios": "https://dc.lft.to/lastmile_qr_scan", "android": "https://dc.lft.to/lastmile_qr_scan"}}, {"is_disabled": 0, "fusion_lat": 0.0, "lat": 38.863906166666666, "type": "electric_bike", "lon": -76.98988283333334, "is_reserved": 0, "fusion_lon": 0.0, "bike_id": "f2e96e7c5aa6b4d34f8c1dc07cfd49fa", "name": "f2e96e7c5aa6b4d34f8c1dc07cfd49fa", "rental_uris": {"ios": "https://dc.lft.to/lastmile_qr_scan", "android": "https://dc.lft.to/lastmile_qr_scan"}}, {"is_disabled": 0, "fusion_lat": 0.0, "lat": 38.94170066666667, "type": "electric_scooter", "lon": -77.041334, "is_reserved": 0, "fusion_lon": 0.0, "bike_id": "d8bfdeed5f8cdbf61e5e27fa5888471c", "name": "d8bfdeed5f8cdbf61e5e27fa5888471c", "rental_uris": {"ios": "https://dc.lft.to/lastmile_qr_scan", "android": "https://dc.lft.to/lastmile_qr_scan"}}, {"is_disabled": 0, "fusion_lat": 0.0, "lat": 38.967021333333335, "type": "electric_bike", "lon": -77.10221116666666, "is_reserved": 0, "fusion_lon": 0.0, "bike_id": "6e13c1b1ac9249fd4e8bbe8a98f80c54", "name": "6e13c1b1ac9249fd4e8bbe8a98f80c54", "rental_uris": {"ios": "https://dc.lft.to/lastmile_qr_scan", "android": "https://dc.lft.to/lastmile_qr_scan"}}, {"is_disabled": 0, "fusion_lat": 0.0, "lat": 38.914089, "type": "electric_scooter", "lon": -77.02047933333333, "is_reserved": 0, "fusion_lon": 0.0, "bike_id": "963fdbfc3c290850d5ee0c93e5827021", "name": "963fdbfc3c290850d5ee0c93e5827021", "rental_uris": {"ios": "https://dc.lft.to/lastmile_qr_scan", "android": "https://dc.lft.to/lastmile_qr_scan"}}, {"is_disabled": 0, "fusion_lat": 0.0, "lat": 38.8616455, "type": "electric_bike", "lon": -77.1309345, "is_reserved": 0, "fusion_lon": 0.0, "bike_id": "95d2982db7a339833de619b6b1d1328d", "name": "95d2982db7a339833de619b6b1d1328d", "rental_uris": {"ios": "https://dc.lft.to/lastmile_qr_scan", "android": "https://dc.lft.to/lastmile_qr_scan"}}, {"is_disabled": 0, "fusion_lat": 0.0, "lat": 38.897611833333336, "type": "electric_scooter", "lon": -77.02689816666667, "is_reserved": 0, "fusion_lon": 0.0, "bike_id": "f5a93efab23b45115f7d37a2a34687d1", "name": "f5a93efab23b45115f7d37a2a34687d1", "rental_uris": {"ios": "https://dc.lft.to/lastmile_qr_scan", "android": "https://dc.lft.to/lastmile_qr_scan"}}, {"is_disabled": 0, "fusion_lat": 0.0, "lat": 38.919837333333334, "type": "electric_scooter", "lon": -77.04169566666667, "is_reserved": 0, "fusion_lon": 0.0, "bike_id": "7665786cf061454f27b31f33a08b702b", "name": "7665786cf061454f27b31f33a08b702b", "rental_uris": {"ios": "https://dc.lft.to/lastmile_qr_scan", "android": "https://dc.lft.to/lastmile_qr_scan"}}, {"is_disabled": 0, "fusion_lat": 0.0, "lat": 38.932424833333336, "type": "electric_bike", "lon": -76.97423483333333, "is_reserved": 0, "fusion_lon": 0.0, "bike_id": "cfc3cb8fb8e9419faced727237407797", "name": "cfc3cb8fb8e9419faced727237407797", "rental_uris": {"ios": "https://dc.lft.to/lastmile_qr_scan", "android": "https://dc.lft.to/lastmile_qr_scan"}}, {"is_disabled": 0, "fusion_lat": 0.0, "lat": 38.90193133333333, "type": "electric_scooter", "lon": -77.02172766666666, "is_reserved": 0, "fusion_lon": 0.0, "bike_id": "1252872a48328d08d60df3395714be15", "name": "1252872a48328d08d60df3395714be15", "rental_uris": {"ios": "https://dc.lft.to/lastmile_qr_scan", "android": "https://dc.lft.to/lastmile_qr_scan"}}, {"is_disabled": 0, "fusion_lat": 0.0, "lat": 38.903647, "type": "electric_scooter", "lon": -77.04183416666666, "is_reserved": 0, "fusion_lon": 0.0, "bike_id": "074dd7cefc755441cec4aa80874a01ac", "name": "074dd7cefc755441cec4aa80874a01ac", "rental_uris": {"ios": "https://dc.lft.to/lastmile_qr_scan", "android": "https://dc.lft.to/lastmile_qr_scan"}}, {"is_disabled": 0, "fusion_lat": 0.0, "lat": 38.895232166666666, "type": "electric_scooter", "lon": -76.98083016666666, "is_reserved": 0, "fusion_lon": 0.0, "bike_id": "fff736b762970fff245e32d8228203c7", "name": "fff736b762970fff245e32d8228203c7", "rental_uris": {"ios": "https://dc.lft.to/lastmile_qr_scan", "android": "https://dc.lft.to/lastmile_qr_scan"}}, {"is_disabled": 0, "fusion_lat": 0.0, "lat": 38.905789166666665, "type": "electric_scooter", "lon": -77.0220645, "is_reserved": 0, "fusion_lon": 0.0, "bike_id": "4ee83a8851f2605475b471e5532a5220", "name": "4ee83a8851f2605475b471e5532a5220", "rental_uris": {"ios": "https://dc.lft.to/lastmile_qr_scan", "android": "https://dc.lft.to/lastmile_qr_scan"}}, {"is_disabled": 0, "fusion_lat": 0.0, "lat": 38.92116216666667, "type": "electric_scooter", "lon": -77.04221733333334, "is_reserved": 0, "fusion_lon": 0.0, "bike_id": "8ffda7865db1ffdd1cfbc195cf7d2d02", "name": "8ffda7865db1ffdd1cfbc195cf7d2d02", "rental_uris": {"ios": "https://dc.lft.to/lastmile_qr_scan", "android": "https://dc.lft.to/lastmile_qr_scan"}}, {"is_disabled": 0, "fusion_lat": 0.0, "lat": 38.900501, "type": "electric_scooter", "lon": -76.9882495, "is_reserved": 0, "fusion_lon": 0.0, "bike_id": "4f6d1b209772741094871cb5fdac4ed9", "name": "4f6d1b209772741094871cb5fdac4ed9", "rental_uris": {"ios": "https://dc.lft.to/lastmile_qr_scan", "android": "https://dc.lft.to/lastmile_qr_scan"}}, {"is_disabled": 0, "fusion_lat": 0.0, "lat": 38.91379216666667, "type": "electric_scooter", "lon": -77.019972, "is_reserved": 0, "fusion_lon": 0.0, "bike_id": "12e250f4fc9a2b489da79ec6be8d404b", "name": "12e250f4fc9a2b489da79ec6be8d404b", "rental_uris": {"ios": "https://dc.lft.to/lastmile_qr_scan", "android": "https://dc.lft.to/lastmile_qr_scan"}}, {"is_disabled": 0, "fusion_lat": 0.0, "lat": 38.880735666666666, "type": "electric_bike", "lon": -77.08637866666666, "is_reserved": 0, "fusion_lon": 0.0, "bike_id": "65d7f6fe39e4b1c58b41099058e40c2f", "name": "65d7f6fe39e4b1c58b41099058e40c2f", "rental_uris": {"ios": "https://dc.lft.to/lastmile_qr_scan", "android": "https://dc.lft.to/lastmile_qr_scan"}}, {"is_disabled": 0, "fusion_lat": 0.0, "lat": 38.886625333333335, "type": "electric_scooter", "lon": -77.03388633333333, "is_reserved": 0, "fusion_lon": 0.0, "bike_id": "0ca0202b4f6a576847396906e6862d6b", "name": "0ca0202b4f6a576847396906e6862d6b", "rental_uris": {"ios": "https://dc.lft.to/lastmile_qr_scan", "android": "https://dc.lft.to/lastmile_qr_scan"}}, {"is_disabled": 0, "fusion_lat": 0.0, "lat": 38.904264, "type": "electric_scooter", "lon": -77.04348933333333, "is_reserved": 0, "fusion_lon": 0.0, "bike_id": "70e92441f1376d10436a0f2096e453d7", "name": "70e92441f1376d10436a0f2096e453d7", "rental_uris": {"ios": "https://dc.lft.to/lastmile_qr_scan", "android": "https://dc.lft.to/lastmile_qr_scan"}}, {"is_disabled": 0, "fusion_lat": 0.0, "lat": 38.827335833333336, "type": "electric_bike", "lon": -77.00863183333334, "is_reserved": 0, "fusion_lon": 0.0, "bike_id": "279bb0a95dfaf2548a19ed2c41d77062", "name": "279bb0a95dfaf2548a19ed2c41d77062", "rental_uris": {"ios": "https://dc.lft.to/lastmile_qr_scan", "android": "https://dc.lft.to/lastmile_qr_scan"}}, {"is_disabled": 0, "fusion_lat": 0.0, "lat": 38.9047415, "type": "electric_scooter", "lon": -77.04353716666667, "is_reserved": 0, "fusion_lon": 0.0, "bike_id": "d08440f4a675cc69434ca7c6758dd97e", "name": "d08440f4a675cc69434ca7c6758dd97e", "rental_uris": {"ios": "https://dc.lft.to/lastmile_qr_scan", "android": "https://dc.lft.to/lastmile_qr_scan"}}, {"is_disabled": 0, "fusion_lat": 0.0, "lat": 38.8804025, "type": "electric_scooter", "lon": -76.931276, "is_reserved": 0, "fusion_lon": 0.0, "bike_id": "0eb212bb347d9c4fcb46e3ce8f167965", "name": "0eb212bb347d9c4fcb46e3ce8f167965", "rental_uris": {"ios": "https://dc.lft.to/lastmile_qr_scan", "android": "https://dc.lft.to/lastmile_qr_scan"}}, {"is_disabled": 0, "fusion_lat": 0.0, "lat": 38.8848425, "type": "electric_scooter", "lon": -77.03357383333334, "is_reserved": 0, "fusion_lon": 0.0, "bike_id": "64f0dc8298ae3d6d211466ac7a350e2d", "name": "64f0dc8298ae3d6d211466ac7a350e2d", "rental_uris": {"ios": "https://dc.lft.to/lastmile_qr_scan", "android": "https://dc.lft.to/lastmile_qr_scan"}}, {"is_disabled": 0, "fusion_lat": 0.0, "lat": 38.90244333333333, "type": "electric_scooter", "lon": -77.00198, "is_reserved": 0, "fusion_lon": 0.0, "bike_id": "020a4ae6b32e4a357c74157991fa3f5f", "name": "020a4ae6b32e4a357c74157991fa3f5f", "rental_uris": {"ios": "https://dc.lft.to/lastmile_qr_scan", "android": "https://dc.lft.to/lastmile_qr_scan"}}, {"is_disabled": 0, "fusion_lat": 0.0, "lat": 38.884804, "type": "electric_scooter", "lon": -77.02343383333333, "is_reserved": 0, "fusion_lon": 0.0, "bike_id": "bbb80b04b423901277b7f90adaef5d9b", "name": "bbb80b04b423901277b7f90adaef5d9b", "rental_uris": {"ios": "https://dc.lft.to/lastmile_qr_scan", "android": "https://dc.lft.to/lastmile_qr_scan"}}, {"is_disabled": 0, "fusion_lat": 0.0, "lat": 38.9252435, "type": "electric_scooter", "lon": -77.05130016666666, "is_reserved": 0, "fusion_lon": 0.0, "bike_id": "9cca7b76db34c636b6cec75c32e96934", "name": "9cca7b76db34c636b6cec75c32e96934", "rental_uris": {"ios": "https://dc.lft.to/lastmile_qr_scan", "android": "https://dc.lft.to/lastmile_qr_scan"}}, {"is_disabled": 0, "fusion_lat": 0.0, "lat": 38.92490566666667, "type": "electric_scooter", "lon": -77.0524615, "is_reserved": 0, "fusion_lon": 0.0, "bike_id": "b720ddaaa8bbbb3afec26266b4d21611", "name": "b720ddaaa8bbbb3afec26266b4d21611", "rental_uris": {"ios": "https://dc.lft.to/lastmile_qr_scan", "android": "https://dc.lft.to/lastmile_qr_scan"}}, {"is_disabled": 0, "fusion_lat": 0.0, "lat": 38.91879933333333, "type": "electric_scooter", "lon": -77.01595683333333, "is_reserved": 0, "fusion_lon": 0.0, "bike_id": "fb495538f9e53bb7602e945e0bb1ed84", "name": "fb495538f9e53bb7602e945e0bb1ed84", "rental_uris": {"ios": "https://dc.lft.to/lastmile_qr_scan", "android": "https://dc.lft.to/lastmile_qr_scan"}}, {"is_disabled": 0, "fusion_lat": 0.0, "lat": 38.89243066666667, "type": "electric_scooter", "lon": -77.0395845, "is_reserved": 0, "fusion_lon": 0.0, "bike_id": "1f808059040f2d3c111a22eefaeadf77", "name": "1f808059040f2d3c111a22eefaeadf77", "rental_uris": {"ios": "https://dc.lft.to/lastmile_qr_scan", "android": "https://dc.lft.to/lastmile_qr_scan"}}, {"is_disabled": 0, "fusion_lat": 0.0, "lat": 38.87175233333333, "type": "electric_scooter", "lon": -77.00623216666666, "is_reserved": 0, "fusion_lon": 0.0, "bike_id": "b6578ebe077dcf04e66d307558da2b77", "name": "b6578ebe077dcf04e66d307558da2b77", "rental_uris": {"ios": "https://dc.lft.to/lastmile_qr_scan", "android": "https://dc.lft.to/lastmile_qr_scan"}}, {"is_disabled": 0, "fusion_lat": 0.0, "lat": 38.92074066666667, "type": "electric_scooter", "lon": -77.04688433333334, "is_reserved": 0, "fusion_lon": 0.0, "bike_id": "ae514c2bb63a5398cc929bc8320b1a2c", "name": "ae514c2bb63a5398cc929bc8320b1a2c", "rental_uris": {"ios": "https://dc.lft.to/lastmile_qr_scan", "android": "https://dc.lft.to/lastmile_qr_scan"}}, {"is_disabled": 0, "fusion_lat": 0.0, "lat": 38.901401166666666, "type": "electric_scooter", "lon": -77.043422, "is_reserved": 0, "fusion_lon": 0.0, "bike_id": "836c7e9e583eaee462b07a1e74e33e99", "name": "836c7e9e583eaee462b07a1e74e33e99", "rental_uris": {"ios": "https://dc.lft.to/lastmile_qr_scan", "android": "https://dc.lft.to/lastmile_qr_scan"}}, {"is_disabled": 0, "fusion_lat": 0.0, "lat": 38.89711233333333, "type": "electric_scooter", "lon": -76.9176875, "is_reserved": 0, "fusion_lon": 0.0, "bike_id": "e7a7fd520cc587b7492557dd2715f8df", "name": "e7a7fd520cc587b7492557dd2715f8df", "rental_uris": {"ios": "https://dc.lft.to/lastmile_qr_scan", "android": "https://dc.lft.to/lastmile_qr_scan"}}, {"is_disabled": 0, "fusion_lat": 0.0, "lat": 38.895536166666666, "type": "electric_scooter", "lon": -76.93371833333333, "is_reserved": 0, "fusion_lon": 0.0, "bike_id": "f0f25f50a4e33ad9c3d66b2570982b30", "name": "f0f25f50a4e33ad9c3d66b2570982b30", "rental_uris": {"ios": "https://dc.lft.to/lastmile_qr_scan", "android": "https://dc.lft.to/lastmile_qr_scan"}}, {"is_disabled": 0, "fusion_lat": 0.0, "lat": 38.9223175, "type": "electric_scooter", "lon": -77.04384916666666, "is_reserved": 0, "fusion_lon": 0.0, "bike_id": "743e871270284e221d0d470992fe41e9", "name": "743e871270284e221d0d470992fe41e9", "rental_uris": {"ios": "https://dc.lft.to/lastmile_qr_scan", "android": "https://dc.lft.to/lastmile_qr_scan"}}, {"is_disabled": 0, "fusion_lat": 0.0, "lat": 38.9249015, "type": "electric_scooter", "lon": -77.0213765, "is_reserved": 0, "fusion_lon": 0.0, "bike_id": "fa6fa22f6688e448ec067335ac5f4452", "name": "fa6fa22f6688e448ec067335ac5f4452", "rental_uris": {"ios": "https://dc.lft.to/lastmile_qr_scan", "android": "https://dc.lft.to/lastmile_qr_scan"}}, {"is_disabled": 0, "fusion_lat": 0.0, "lat": 38.90995316666667, "type": "electric_scooter", "lon": -77.03852916666666, "is_reserved": 0, "fusion_lon": 0.0, "bike_id": "57fd8c6d67237bbf3bf29692e0740c24", "name": "57fd8c6d67237bbf3bf29692e0740c24", "rental_uris": {"ios": "https://dc.lft.to/lastmile_qr_scan", "android": "https://dc.lft.to/lastmile_qr_scan"}}, {"is_disabled": 0, "fusion_lat": 0.0, "lat": 38.931856333333336, "type": "electric_bike", "lon": -77.03447616666666, "is_reserved": 0, "fusion_lon": 0.0, "bike_id": "62b7c585ac5581d7eda161c82b084da5", "name": "62b7c585ac5581d7eda161c82b084da5", "rental_uris": {"ios": "https://dc.lft.to/lastmile_qr_scan", "android": "https://dc.lft.to/lastmile_qr_scan"}}, {"is_disabled": 0, "fusion_lat": 0.0, "lat": 38.85923916666667, "type": "electric_scooter", "lon": -76.98977983333333, "is_reserved": 0, "fusion_lon": 0.0, "bike_id": "fe085424e9ebc09364fd9417e269c283", "name": "fe085424e9ebc09364fd9417e269c283", "rental_uris": {"ios": "https://dc.lft.to/lastmile_qr_scan", "android": "https://dc.lft.to/lastmile_qr_scan"}}, {"is_disabled": 0, "fusion_lat": 0.0, "lat": 38.8666555, "type": "electric_scooter", "lon": -76.9888175, "is_reserved": 0, "fusion_lon": 0.0, "bike_id": "d1bf21186dc3fdae5fe86977cc0dc072", "name": "d1bf21186dc3fdae5fe86977cc0dc072", "rental_uris": {"ios": "https://dc.lft.to/lastmile_qr_scan", "android": "https://dc.lft.to/lastmile_qr_scan"}}, {"is_disabled": 0, "fusion_lat": 0.0, "lat": 38.93978216666667, "type": "electric_scooter", "lon": -77.03587866666666, "is_reserved": 0, "fusion_lon": 0.0, "bike_id": "b79aeefa8127abc963dda6fcfbe51c18", "name": "b79aeefa8127abc963dda6fcfbe51c18", "rental_uris": {"ios": "https://dc.lft.to/lastmile_qr_scan", "android": "https://dc.lft.to/lastmile_qr_scan"}}, {"is_disabled": 0, "fusion_lat": 0.0, "lat": 38.90471766666667, "type": "electric_scooter", "lon": -77.04848033333333, "is_reserved": 0, "fusion_lon": 0.0, "bike_id": "1cef9bea5220b6214034327b7729e801", "name": "1cef9bea5220b6214034327b7729e801", "rental_uris": {"ios": "https://dc.lft.to/lastmile_qr_scan", "android": "https://dc.lft.to/lastmile_qr_scan"}}, {"is_disabled": 0, "fusion_lat": 0.0, "lat": 38.934591, "type": "electric_scooter", "lon": -77.030505, "is_reserved": 0, "fusion_lon": 0.0, "bike_id": "0f8859abb2f058e7400ad24246afd88a", "name": "0f8859abb2f058e7400ad24246afd88a", "rental_uris": {"ios": "https://dc.lft.to/lastmile_qr_scan", "android": "https://dc.lft.to/lastmile_qr_scan"}}, {"is_disabled": 0, "fusion_lat": 0.0, "lat": 38.9420835, "type": "electric_bike", "lon": -77.0182325, "is_reserved": 0, "fusion_lon": 0.0, "bike_id": "6a9441f5d9e6852e841b0b196c46ea04", "name": "6a9441f5d9e6852e841b0b196c46ea04", "rental_uris": {"ios": "https://dc.lft.to/lastmile_qr_scan", "android": "https://dc.lft.to/lastmile_qr_scan"}}, {"is_disabled": 0, "fusion_lat": 0.0, "lat": 38.902671, "type": "electric_scooter", "lon": -77.06006683333334, "is_reserved": 0, "fusion_lon": 0.0, "bike_id": "9263c104d1c2355efa48b2383e4959fc", "name": "9263c104d1c2355efa48b2383e4959fc", "rental_uris": {"ios": "https://dc.lft.to/lastmile_qr_scan", "android": "https://dc.lft.to/lastmile_qr_scan"}}, {"is_disabled": 0, "fusion_lat": 0.0, "lat": 38.894856833333336, "type": "electric_scooter", "lon": -77.0503, "is_reserved": 0, "fusion_lon": 0.0, "bike_id": "a3143c72f1cbc8796028177713ce1d1b", "name": "a3143c72f1cbc8796028177713ce1d1b", "rental_uris": {"ios": "https://dc.lft.to/lastmile_qr_scan", "android": "https://dc.lft.to/lastmile_qr_scan"}}, {"is_disabled": 0, "fusion_lat": 0.0, "lat": 38.802251166666665, "type": "electric_bike", "lon": -77.0791715, "is_reserved": 0, "fusion_lon": 0.0, "bike_id": "3d8f0e38cde1c1266ce507e71ff39375", "name": "3d8f0e38cde1c1266ce507e71ff39375", "rental_uris": {"ios": "https://dc.lft.to/lastmile_qr_scan", "android": "https://dc.lft.to/lastmile_qr_scan"}}, {"is_disabled": 0, "fusion_lat": 0.0, "lat": 38.8827145, "type": "electric_scooter", "lon": -76.99545066666667, "is_reserved": 0, "fusion_lon": 0.0, "bike_id": "11c2853dc565aa5b8acda94a7d20600c", "name": "11c2853dc565aa5b8acda94a7d20600c", "rental_uris": {"ios": "https://dc.lft.to/lastmile_qr_scan", "android": "https://dc.lft.to/lastmile_qr_scan"}}, {"is_disabled": 0, "fusion_lat": 0.0, "lat": 38.90770216666667, "type": "electric_scooter", "lon": -77.02065133333333, "is_reserved": 0, "fusion_lon": 0.0, "bike_id": "4dea8b5e03e5a1b532ecf573f13ac75e", "name": "4dea8b5e03e5a1b532ecf573f13ac75e", "rental_uris": {"ios": "https://dc.lft.to/lastmile_qr_scan", "android": "https://dc.lft.to/lastmile_qr_scan"}}, {"is_disabled": 0, "fusion_lat": 0.0, "lat": 38.866197166666666, "type": "electric_scooter", "lon": -76.986512, "is_reserved": 0, "fusion_lon": 0.0, "bike_id": "3df81b1a4757bad9ae5dd9a553daef5d", "name": "3df81b1a4757bad9ae5dd9a553daef5d", "rental_uris": {"ios": "https://dc.lft.to/lastmile_qr_scan", "android": "https://dc.lft.to/lastmile_qr_scan"}}, {"is_disabled": 0, "fusion_lat": 0.0, "lat": 38.915688, "type": "electric_scooter", "lon": -77.031981, "is_reserved": 0, "fusion_lon": 0.0, "bike_id": "35c751d31c70928dfbe0ad7b7e30f23e", "name": "35c751d31c70928dfbe0ad7b7e30f23e", "rental_uris": {"ios": "https://dc.lft.to/lastmile_qr_scan", "android": "https://dc.lft.to/lastmile_qr_scan"}}, {"is_disabled": 0, "fusion_lat": 0.0, "lat": 38.86254916666667, "type": "electric_scooter", "lon": -76.9870095, "is_reserved": 0, "fusion_lon": 0.0, "bike_id": "ba40c3bf7811a8fc9608f1457a707bbc", "name": "ba40c3bf7811a8fc9608f1457a707bbc", "rental_uris": {"ios": "https://dc.lft.to/lastmile_qr_scan", "android": "https://dc.lft.to/lastmile_qr_scan"}}, {"is_disabled": 0, "fusion_lat": 0.0, "lat": 38.909765666666665, "type": "electric_scooter", "lon": -77.03866516666666, "is_reserved": 0, "fusion_lon": 0.0, "bike_id": "2e3e8f5c1aa068175e7724e1183c2d91", "name": "2e3e8f5c1aa068175e7724e1183c2d91", "rental_uris": {"ios": "https://dc.lft.to/lastmile_qr_scan", "android": "https://dc.lft.to/lastmile_qr_scan"}}, {"is_disabled": 0, "fusion_lat": 0.0, "lat": 38.902323833333334, "type": "electric_scooter", "lon": -77.02362383333333, "is_reserved": 0, "fusion_lon": 0.0, "bike_id": "b1e8c4b6e7417e833164be84e0eff39f", "name": "b1e8c4b6e7417e833164be84e0eff39f", "rental_uris": {"ios": "https://dc.lft.to/lastmile_qr_scan", "android": "https://dc.lft.to/lastmile_qr_scan"}}, {"is_disabled": 0, "fusion_lat": 0.0, "lat": 38.90688516666667, "type": "electric_scooter", "lon": -77.06335233333333, "is_reserved": 0, "fusion_lon": 0.0, "bike_id": "47475fac3dacce753bb462e27e1fa2e8", "name": "47475fac3dacce753bb462e27e1fa2e8", "rental_uris": {"ios": "https://dc.lft.to/lastmile_qr_scan", "android": "https://dc.lft.to/lastmile_qr_scan"}},