{"data": {"bikes": [{"fusion_lat": 0.0, "lon": -77.00206333333334, "is_reserved": 0, "bike_id": "e4a15452e9f185e556cc8c08947f7a8d", "fusion_lon": 0.0, "rental_uris": {"android": "https://dc.lft.to/lastmile_qr_scan", "ios": "https://dc.lft.to/lastmile_qr_scan"}, "name": "e4a15452e9f185e556cc8c08947f7a8d", "type": "electric_scooter", "lat": 38.900510833333335, "is_disabled": 0}, {"fusion_lat": 0.0, "lon": -77.04657783333333, "is_reserved": 0, "bike_id": "ac1e7e39d4f2234f7ce62c17c66350d2", "fusion_lon": 0.0, "rental_uris": {"android": "https://dc.lft.to/lastmile_qr_scan", "ios": "https://dc.lft.to/lastmile_qr_scan"}, "name": "ac1e7e39d4f2234f7ce62c17c66350d2", "type": "electric_scooter", "lat": 38.912738166666664, "is_disabled": 0}, {"fusion_lat": 0.0, "lon": -77.046301, "is_reserved": 0, "bike_id": "98ca9f52f4f01b45235456726a2cc2b4", "fusion_lon": 0.0, "rental_uris": {"android": "https://dc.lft.to/lastmile_qr_scan", "ios": "https://dc.lft.to/lastmile_qr_scan"}, "name": "98ca9f52f4f01b45235456726a2cc2b4", "type": "electric_scooter", "lat": 38.903413666666665, "is_disabled": 0}, {"fusion_lat": 0.0, "lon": -77.04286483333334, "is_reserved": 0, "bike_id": "5c097b67a780920107d7714bdaef3127", "fusion_lon": 0.0, "rental_uris": {"android": "https://dc.lft.to/lastmile_qr_scan", "ios": "https://dc.lft.to/lastmile_qr_scan"}, "name": "5c097b67a780920107d7714bdaef3127", "type": "electric_scooter", "lat": 38.92303166666667, "is_disabled": 0}, {"fusion_lat": 0.0, "lon": -76.92996216666667, "is_reserved": 0, "bike_id": "dcb74d8a91342e945d56519781858b56", "fusion_lon": 0.0, "rental_uris": {"android": "https://dc.lft.to/lastmile_qr_scan", "ios": "https://dc.lft.to/lastmile_qr_scan"}, "name": "dcb74d8a91342e945d56519781858b56", "type": "electric_scooter", "lat": 38.90186766666667, "is_disabled": 0}, {"fusion_lat": 0.0, "lon": -77.03181166666667, "is_reserved": 0, "bike_id": "c04dd6e6e1b1923005fc7af9f3cba4c4", "fusion_lon": 0.0, "rental_uris": {"android": "https://dc.lft.to/lastmile_qr_scan", "ios": "https://dc.lft.to/lastmile_qr_scan"}, "name": "c04dd6e6e1b1923005fc7af9f3cba4c4", "type": "electric_scooter", "lat": 38.919568166666664, "is_disabled": 0}, {"fusion_lat": 0.0, "lon": -77.05814416666666, "is_reserved": 0, "bike_id": "ac06e2761e6ba20d8321cc56a98401da", "fusion_lon": 0.0, "rental_uris": {"android": "https://dc.lft.to/lastmile_qr_scan", "ios": "https://dc.lft.to/lastmile_qr_scan"}, "name": "ac06e2761e6ba20d8321cc56a98401da", "type": "electric_scooter", "lat": 38.93523833333333, "is_disabled": 0}, {"fusion_lat": 0.0, "lon": -77.00111516666666, "is_reserved": 0, "bike_id": "45dc271a69785a082b10bbb1f8222069", "fusion_lon": 0.0, "rental_uris": {"android": "https://dc.lft.to/lastmile_qr_scan", "ios": "https://dc.lft.to/lastmile_qr_scan"}, "name": "45dc271a69785a082b10bbb1f8222069", "type": "electric_scooter", "lat": 38.9170435, "is_disabled": 0}, {"fusion_lat": 0.0, "lon": -77.02835833333333, "is_reserved": 0, "bike_id": "a5bd6713c52337e17bacd2314877e34e", "fusion_lon": 0.0, "rental_uris": {"android": "https://dc.lft.to/lastmile_qr_scan", "ios": "https://dc.lft.to/lastmile_qr_scan"}, "name": "a5bd6713c52337e17bacd2314877e34e", "type": "electric_scooter", "lat": 38.924763666666664, "is_disabled": 0}, {"fusion_lat": 0.0, "lon": -77.10913233333333, "is_reserved": 0, "bike_id": "f6c80d8711148c02f52f17f0b413615f", "fusion_lon": 0.0, "rental_uris": {"android": "https://dc.lft.to/lastmile_qr_scan", "ios": "https://dc.lft.to/lastmile_qr_scan"}, "name": "f6c80d8711148c02f52f17f0b413615f", "type": "electric_bike", "lat": 39.052049833333335, "is_disabled": 0}, {"fusion_lat": 0.0, "lon": -77.0365625, "is_reserved": 0, "bike_id": "9a6773bb350c60d50c7c0d1146453d24", "fusion_lon": 0.0, "rental_uris": {"android": "https://dc.lft.to/lastmile_qr_scan", "ios": "https://dc.lft.to/lastmile_qr_scan"}, "name": "9a6773bb350c60d50c7c0d1146453d24", "type": "electric_scooter", "lat": 38.9229475, "is_disabled": 0}, {"fusion_lat": 0.0, "lon": -77.0141945, "is_reserved": 0, "bike_id": "0924b486d5fbb19056b874b4db38092e", "fusion_lon": 0.0, "rental_uris": {"android": "https://dc.lft.to/lastmile_qr_scan", "ios": "https://dc.lft.to/lastmile_qr_scan"}, "name": "0924b486d5fbb19056b874b4db38092e", "type": "electric_scooter", "lat": 38.92866183333334, "is_disabled": 0}, {"fusion_lat": 0.0, "lon": -77.02780466666667, "is_reserved": 0, "bike_id": "624d459c85e37d0cca332b2b6a19bed0", "fusion_lon": 0.0, "rental_uris": {"android": "https://dc.lft.to/lastmile_qr_scan", "ios": "https://dc.lft.to/lastmile_qr_scan"}, "name": "624d459c85e37d0cca332b2b6a19bed0", "type": "electric_scooter", "lat": 38.927631166666664, "is_disabled": 0}, {"fusion_lat": 0.0, "lon": -77.0245285, "is_reserved": 0, "bike_id": "3891b06908865ff2b29af9ff1622e62c", "fusion_lon": 0.0, "rental_uris": {"android": "https://dc.lft.to/lastmile_qr_scan", "ios": "https://dc.lft.to/lastmile_qr_scan"}, "name": "3891b06908865ff2b29af9ff1622e62c", "type": "electric_scooter", "lat": 38.8972565, "is_disabled": 0}, {"fusion_lat": 0.0, "lon": -77.04978783333334, "is_reserved": 0, "bike_id": "4c43bab00ff8865a50db2c48a5185530", "fusion_lon": 0.0, "rental_uris": {"android": "https://dc.lft.to/lastmile_qr_scan", "ios": "https://dc.lft.to/lastmile_qr_scan"}, "name": "4c43bab00ff8865a50db2c48a5185530", "type": "electric_bike", "lat": 39.06291, "is_disabled": 0}, {"fusion_lat": 0.0, "lon": -77.03048666666666, "is_reserved": 0, "bike_id": "080fa23d837d2e6b6729473f07231650", "fusion_lon": 0.0, "rental_uris": {"android": "https://dc.lft.to/lastmile_qr_scan", "ios": "https://dc.lft.to/lastmile_qr_scan"}, "name": "080fa23d837d2e6b6729473f07231650", "type": "electric_scooter", "lat": 38.89829016666667, "is_disabled": 0}, {"fusion_lat": 0.0, "lon": -77.0432585, "is_reserved": 0, "bike_id": "eeb50242489472bde046cb506745c24e", "fusion_lon": 0.0, "rental_uris": {"android": "https://dc.lft.to/lastmile_qr_scan", "ios": "https://dc.lft.to/lastmile_qr_scan"}, "name": "eeb50242489472bde046cb506745c24e", "type": "electric_scooter", "lat": 38.8922465, "is_disabled": 0}, {"fusion_lat": 0.0, "lon": -77.0328675, "is_reserved": 0, "bike_id": "9ba9f244bd75250bf40eaad4c8b3e9ab", "fusion_lon": 0.0, "rental_uris": {"android": "https://dc.lft.to/lastmile_qr_scan", "ios": "https://dc.lft.to/lastmile_qr_scan"}, "name": "9ba9f244bd75250bf40eaad4c8b3e9ab", "type": "electric_scooter", "lat": 38.95628133333334, "is_disabled": 0}, {"fusion_lat": 0.0, "lon": -76.94241216666667, "is_reserved": 0, "bike_id": "e04c56434555e88808883954f1813c8d", "fusion_lon": 0.0, "rental_uris": {"android": "https://dc.lft.to/lastmile_qr_scan", "ios": "https://dc.lft.to/lastmile_qr_scan"}, "name": "e04c56434555e88808883954f1813c8d", "type": "electric_scooter", "lat": 38.896703333333335, "is_disabled": 0}, {"fusion_lat": 0.0, "lon": -77.01316483333333, "is_reserved": 0, "bike_id": "0e2a5261fdbdb53722ddbfcd53b5e093", "fusion_lon": 0.0, "rental_uris": {"android": "https://dc.lft.to/lastmile_qr_scan", "ios": "https://dc.lft.to/lastmile_qr_scan"}, "name": "0e2a5261fdbdb53722ddbfcd53b5e093", "type": "electric_scooter", "lat": 38.91042, "is_disabled": 0}, {"fusion_lat": 0.0, "lon": -77.01752033333334, "is_reserved": 0, "bike_id": "f165e66c1b38c1270ce43558e8289270", "fusion_lon": 0.0, "rental_uris": {"android": "https://dc.lft.to/lastmile_qr_scan", "ios": "https://dc.lft.to/lastmile_qr_scan"}, "name": "f165e66c1b38c1270ce43558e8289270", "type": "electric_scooter", "lat": 38.903756666666666, "is_disabled": 0}, {"fusion_lat": 0.0, "lon": -77.00118516666667, "is_reserved": 0, "bike_id": "1544c69686e34d2888c157ac640f9823", "fusion_lon": 0.0, "rental_uris": {"android": "https://dc.lft.to/lastmile_qr_scan", "ios": "https://dc.lft.to/lastmile_qr_scan"}, "name": "1544c69686e34d2888c157ac640f9823", "type": "electric_scooter", "lat": 38.90503616666667, "is_disabled": 0}, {"fusion_lat": 0.0, "lon": -77.0211605, "is_reserved": 0, "bike_id": "8c2e07287ed6b489a2cd3e1dd7699b1f", "fusion_lon": 0.0, "rental_uris": {"android": "https://dc.lft.to/lastmile_qr_scan", "ios": "https://dc.lft.to/lastmile_qr_scan"}, "name": "8c2e07287ed6b489a2cd3e1dd7699b1f", "type": "electric_scooter", "lat": 38.8947595, "is_disabled": 0}, {"fusion_lat": 0.0, "lon": -77.043161, "is_reserved": 0, "bike_id": "32c200e282a1c29110bbabaabacacd40", "fusion_lon": 0.0, "rental_uris": {"android": "https://dc.lft.to/lastmile_qr_scan", "ios": "https://dc.lft.to/lastmile_qr_scan"}, "name": "32c200e282a1c29110bbabaabacacd40", "type": "electric_scooter", "lat": 38.92312116666667, "is_disabled": 0}, {"fusion_lat": 0.0, "lon": -76.946187, "is_reserved": 0, "bike_id": "c305f7e326a4e0ea6f99850b764b6c32", "fusion_lon": 0.0, "rental_uris": {"android": "https://dc.lft.to/lastmile_qr_scan", "ios": "https://dc.lft.to/lastmile_qr_scan"}, "name": "c305f7e326a4e0ea6f99850b764b6c32", "type": "electric_bike", "lat": 38.8323605, "is_disabled": 0}, {"fusion_lat": 0.0, "lon": -77.03260466666667, "is_reserved": 0, "bike_id": "b880313af7ed6048200889f6aa31e786", "fusion_lon": 0.0, "rental_uris": {"android": "https://dc.lft.to/lastmile_qr_scan", "ios": "https://dc.lft.to/lastmile_qr_scan"}, "name": "b880313af7ed6048200889f6aa31e786", "type": "electric_scooter", "lat": 38.92742533333333, "is_disabled": 0}, {"fusion_lat": 0.0, "lon": -76.99857183333333, "is_reserved": 0, "bike_id": "d6b405298c99fef2dab93188d03fa047", "fusion_lon": 0.0, "rental_uris": {"android": "https://dc.lft.to/lastmile_qr_scan", "ios": "https://dc.lft.to/lastmile_qr_scan"}, "name": "d6b405298c99fef2dab93188d03fa047", "type": "electric_scooter", "lat": 38.894140666666665, "is_disabled": 0}, {"fusion_lat": 0.0, "lon": -76.9830345, "is_reserved": 0, "bike_id": "ec0a7d1647433323e5dc1e7a2267b9a5", "fusion_lon": 0.0, "rental_uris": {"android": "https://dc.lft.to/lastmile_qr_scan", "ios": "https://dc.lft.to/lastmile_qr_scan"}, "name": "ec0a7d1647433323e5dc1e7a2267b9a5", "type": "electric_scooter", "lat": 38.90525383333333, "is_disabled": 0}, {"fusion_lat": 0.0, "lon": -76.98191366666667, "is_reserved": 0, "bike_id": "bc61d9db88247283a02a65080d300e47", "fusion_lon": 0.0, "rental_uris": {"android": "https://dc.lft.to/lastmile_qr_scan", "ios": "https://dc.lft.to/lastmile_qr_scan"}, "name": "bc61d9db88247283a02a65080d300e47", "type": "electric_scooter", "lat": 38.902810333333335, "is_disabled": 0}, {"fusion_lat": 0.0, "lon": -77.02996233333333, "is_reserved": 0, "bike_id": "55ff55a65165f03d27c0a7d331dc04e8", "fusion_lon": 0.0, "rental_uris": {"android": "https://dc.lft.to/lastmile_qr_scan", "ios": "https://dc.lft.to/lastmile_qr_scan"}, "name": "55ff55a65165f03d27c0a7d331dc04e8", "type": "electric_scooter", "lat": 38.92674133333333, "is_disabled": 0}, {"fusion_lat": 0.0, "lon": -77.0399485, "is_reserved": 0, "bike_id": "2c3b2bca7d87ab5ab872fb92fb7386a7", "fusion_lon": 0.0, "rental_uris": {"android": "https://dc.lft.to/lastmile_qr_scan", "ios": "https://dc.lft.to/lastmile_qr_scan"}, "name": "2c3b2bca7d87ab5ab872fb92fb7386a7", "type": "electric_scooter", "lat": 38.91414983333333, "is_disabled": 0}, {"fusion_lat": 0.0, "lon": -77.023108, "is_reserved": 0, "bike_id": "c695c4e4ff60a7d3f8290ed95920dc63", "fusion_lon": 0.0, "rental_uris": {"android": "https://dc.lft.to/lastmile_qr_scan", "ios": "https://dc.lft.to/lastmile_qr_scan"}, "name": "c695c4e4ff60a7d3f8290ed95920dc63", "type": "electric_scooter", "lat": 38.92064966666667, "is_disabled": 0}, {"fusion_lat": 0.0, "lon": -77.02498233333333, "is_reserved": 0, "bike_id": "a62320b6d1290990afd9f41d42942c3f", "fusion_lon": 0.0, "rental_uris": {"android": "https://dc.lft.to/lastmile_qr_scan", "ios": "https://dc.lft.to/lastmile_qr_scan"}, "name": "a62320b6d1290990afd9f41d42942c3f", "type": "electric_scooter", "lat": 38.942018833333336, "is_disabled": 0}, {"fusion_lat": 0.0, "lon": -77.03844466666666, "is_reserved": 0, "bike_id": "62a718ce52599414a848aee409166e53", "fusion_lon": 0.0, "rental_uris": {"android": "https://dc.lft.to/lastmile_qr_scan", "ios": "https://dc.lft.to/lastmile_qr_scan"}, "name": "62a718ce52599414a848aee409166e53", "type": "electric_scooter", "lat": 38.90384733333333, "is_disabled": 0}, {"fusion_lat": 0.0, "lon": -77.001878, "is_reserved": 0, "bike_id": "157196567b4b7d45d73b10062adae49f", "fusion_lon": 0.0, "rental_uris": {"android": "https://dc.lft.to/lastmile_qr_scan", "ios": "https://dc.lft.to/lastmile_qr_scan"}, "name": "157196567b4b7d45d73b10062adae49f", "type": "electric_scooter", "lat": 38.8944735, "is_disabled": 0}, {"fusion_lat": 0.0, "lon": -77.00377266666666, "is_reserved": 0, "bike_id": "0b654d5d87e366d9c715c82cb41d90f7", "fusion_lon": 0.0, "rental_uris": {"android": "https://dc.lft.to/lastmile_qr_scan", "ios": "https://dc.lft.to/lastmile_qr_scan"}, "name": "0b654d5d87e366d9c715c82cb41d90f7", "type": "electric_bike", "lat": 38.83606483333333, "is_disabled": 0}, {"fusion_lat": 0.0, "lon": -77.024812, "is_reserved": 0, "bike_id": "81ed73725bd21f38dcae3ccb54f24a10", "fusion_lon": 0.0, "rental_uris": {"android": "https://dc.lft.to/lastmile_qr_scan", "ios": "https://dc.lft.to/lastmile_qr_scan"}, "name": "81ed73725bd21f38dcae3ccb54f24a10", "type": "electric_scooter", "lat": 38.92745566666667, "is_disabled": 0}, {"fusion_lat": 0.0, "lon": -77.04054, "is_reserved": 0, "bike_id": "904eea0f915e024808df69b72ae719b2", "fusion_lon": 0.0, "rental_uris": {"android": "https://dc.lft.to/lastmile_qr_scan", "ios": "https://dc.lft.to/lastmile_qr_scan"}, "name": "904eea0f915e024808df69b72ae719b2", "type": "electric_scooter", "lat": 38.91871916666667, "is_disabled": 0}, {"fusion_lat": 0.0, "lon": -76.97665866666667, "is_reserved": 0, "bike_id": "0f2378f269aa9bbec10e0386beeed4d4", "fusion_lon": 0.0, "rental_uris": {"android": "https://dc.lft.to/lastmile_qr_scan", "ios": "https://dc.lft.to/lastmile_qr_scan"}, "name": "0f2378f269aa9bbec10e0386beeed4d4", "type": "electric_bike", "lat": 38.952425166666664, "is_disabled": 0}, {"fusion_lat": 0.0, "lon": -77.03867183333334, "is_reserved": 0, "bike_id": "07fbeef137e51ef01dc8d5beafebc6b1", "fusion_lon": 0.0, "rental_uris": {"android": "https://dc.lft.to/lastmile_qr_scan", "ios": "https://dc.lft.to/lastmile_qr_scan"}, "name": "07fbeef137e51ef01dc8d5beafebc6b1", "type": "electric_scooter", "lat": 38.906631833333336, "is_disabled": 0}, {"fusion_lat": 0.0, "lon": -77.03597033333334, "is_reserved": 0, "bike_id": "84f8b24a410443bb26e667d1100d43c1", "fusion_lon": 0.0, "rental_uris": {"android": "https://dc.lft.to/lastmile_qr_scan", "ios": "https://dc.lft.to/lastmile_qr_scan"}, "name": "84f8b24a410443bb26e667d1100d43c1", "type": "electric_scooter", "lat": 38.93934183333333, "is_disabled": 0}, {"fusion_lat": 0.0, "lon": -77.0325795, "is_reserved": 0, "bike_id": "b175861a6b36f3ce4d62bb863b7c7ebb", "fusion_lon": 0.0, "rental_uris": {"android": "https://dc.lft.to/lastmile_qr_scan", "ios": "https://dc.lft.to/lastmile_qr_scan"}, "name": "b175861a6b36f3ce4d62bb863b7c7ebb", "type": "electric_scooter", "lat": 38.932499, "is_disabled": 0}, {"fusion_lat": 0.0, "lon": -77.03030366666667, "is_reserved": 0, "bike_id": "126c1b2c17b54d6193ea32473a48a37a", "fusion_lon": 0.0, "rental_uris": {"android": "https://dc.lft.to/lastmile_qr_scan", "ios": "https://dc.lft.to/lastmile_qr_scan"}, "name": "126c1b2c17b54d6193ea32473a48a37a", "type": "electric_scooter", "lat": 38.9322335, "is_disabled": 0}, {"fusion_lat": 0.0, "lon": -77.03084883333334, "is_reserved": 0, "bike_id": "43c55bcfa01a3c0114eb8a40d5957859", "fusion_lon": 0.0, "rental_uris": {"android": "https://dc.lft.to/lastmile_qr_scan", "ios": "https://dc.lft.to/lastmile_qr_scan"}, "name": "43c55bcfa01a3c0114eb8a40d5957859", "type": "electric_scooter", "lat": 38.927209500000004, "is_disabled": 0}, {"fusion_lat": 0.0, "lon": -77.02578816666667, "is_reserved": 0, "bike_id": "cc10fc24cbcaaaeb2afcd7f6caf864f5", "fusion_lon": 0.0, "rental_uris": {"android": "https://dc.lft.to/lastmile_qr_scan", "ios": "https://dc.lft.to/lastmile_qr_scan"}, "name": "cc10fc24cbcaaaeb2afcd7f6caf864f5", "type": "electric_scooter", "lat": 38.9205735, "is_disabled": 0}, {"fusion_lat": 0.0, "lon": -76.98808983333333, "is_reserved": 0, "bike_id": "67ba16e5f0eb06268e0438b14735c72f", "fusion_lon": 0.0, "rental_uris": {"android": "https://dc.lft.to/lastmile_qr_scan", "ios": "https://dc.lft.to/lastmile_qr_scan"}, "name": "67ba16e5f0eb06268e0438b14735c72f", "type": "electric_scooter", "lat": 38.86742516666666, "is_disabled": 0}, {"fusion_lat": 0.0, "lon": -77.0556825, "is_reserved": 0, "bike_id": "edfef6cd0fb1a6b556f590912e053501", "fusion_lon": 0.0, "rental_uris": {"android": "https://dc.lft.to/lastmile_qr_scan", "ios": "https://dc.lft.to/lastmile_qr_scan"}, "name": "edfef6cd0fb1a6b556f590912e053501", "type": "electric_scooter", "lat": 38.909291833333334, "is_disabled": 0}, {"fusion_lat": 0.0, "lon": -77.07888283333334, "is_reserved": 0, "bike_id": "529ff28c4ba43721c89cf3635918b663", "fusion_lon": 0.0, "rental_uris": {"android": "https://dc.lft.to/lastmile_qr_scan", "ios": "https://dc.lft.to/lastmile_qr_scan"}, "name": "529ff28c4ba43721c89cf3635918b663", "type": "electric_scooter", "lat": 38.93126216666667, "is_disabled": 0}, {"fusion_lat": 0.0, "lon": -77.022799, "is_reserved": 0, "bike_id": "4c0c1b99a44ebce3b312069012d59f9e", "fusion_lon": 0.0, "rental_uris": {"android": "https://dc.lft.to/lastmile_qr_scan", "ios": "https://dc.lft.to/lastmile_qr_scan"}, "name": "4c0c1b99a44ebce3b312069012d59f9e", "type": "electric_scooter", "lat": 38.878806, "is_disabled": 0}, {"fusion_lat": 0.0, "lon": -76.96564233333334, "is_reserved": 0, "bike_id": "d958c5f82f04a6443a9637415a82d374", "fusion_lon": 0.0, "rental_uris": {"android": "https://dc.lft.to/lastmile_qr_scan", "ios": "https://dc.lft.to/lastmile_qr_scan"}, "name": "d958c5f82f04a6443a9637415a82d374", "type": "electric_bike", "lat": 38.873799166666664, "is_disabled": 0}, {"fusion_lat": 0.0, "lon": -77.02901516666667, "is_reserved": 0, "bike_id": "9fffc1a07edcc7f63e0fc2a8c499a0f2", "fusion_lon": 0.0, "rental_uris": {"android": "https://dc.lft.to/lastmile_qr_scan", "ios": "https://dc.lft.to/lastmile_qr_scan"}, "name": "9fffc1a07edcc7f63e0fc2a8c499a0f2", "type": "electric_scooter", "lat": 38.940366166666664, "is_disabled": 0}, {"fusion_lat": 0.0, "lon": -77.043248, "is_reserved": 0, "bike_id": "9a5a58b9a37d4544082ed4a28908b2c9", "fusion_lon": 0.0, "rental_uris": {"android": "https://dc.lft.to/lastmile_qr_scan", "ios": "https://dc.lft.to/lastmile_qr_scan"}, "name": "9a5a58b9a37d4544082ed4a28908b2c9", "type": "electric_scooter", "lat": 38.90764166666666, "is_disabled": 0}, {"fusion_lat": 0.0, "lon": -77.03500716666667, "is_reserved": 0, "bike_id": "b36b9389fbfccf84de49011e55142e80", "fusion_lon": 0.0, "rental_uris": {"android": "https://dc.lft.to/lastmile_qr_scan", "ios": "https://dc.lft.to/lastmile_qr_scan"}, "name": "b36b9389fbfccf84de49011e55142e80", "type": "electric_scooter", "lat": 38.9187085, "is_disabled": 0}, {"fusion_lat": 0.0, "lon": -77.028963, "is_reserved": 0, "bike_id": "d2ab7553cee043f28fdce6a968222fac", "fusion_lon": 0.0, "rental_uris": {"android": "https://dc.lft.to/lastmile_qr_scan", "ios": "https://dc.lft.to/lastmile_qr_scan"}, "name": "d2ab7553cee043f28fdce6a968222fac", "type": "electric_scooter", "lat": 38.961279833333336, "is_disabled": 0}, {"fusion_lat": 0.0, "lon": -76.99897683333333, "is_reserved": 0, "bike_id": "84573acff534ace816e7a7799e003b2a", "fusion_lon": 0.0, "rental_uris": {"android": "https://dc.lft.to/lastmile_qr_scan", "ios": "https://dc.lft.to/lastmile_qr_scan"}, "name": "84573acff534ace816e7a7799e003b2a", "type": "electric_scooter", "lat": 38.92457316666667, "is_disabled": 0}, {"fusion_lat": 0.0, "lon": -77.02917233333334, "is_reserved": 0, "bike_id": "99cf48f8c1d2137edfed5dcebe4f2f9d", "fusion_lon": 0.0, "rental_uris": {"android": "https://dc.lft.to/lastmile_qr_scan", "ios": "https://dc.lft.to/lastmile_qr_scan"}, "name": "99cf48f8c1d2137edfed5dcebe4f2f9d", "type": "electric_scooter", "lat": 38.90363633333333, "is_disabled": 0}, {"fusion_lat": 0.0, "lon": -77.05305116666666, "is_reserved": 0, "bike_id": "dea4484078e38a5ab648bff7642489c9", "fusion_lon": 0.0, "rental_uris": {"android": "https://dc.lft.to/lastmile_qr_scan", "ios": "https://dc.lft.to/lastmile_qr_scan"}, "name": "dea4484078e38a5ab648bff7642489c9", "type": "electric_scooter", "lat": 38.89852283333333, "is_disabled": 0}, {"fusion_lat": 0.0, "lon": -77.02952166666667, "is_reserved": 0, "bike_id": "ebed9d9780e27ac44108e17663384640", "fusion_lon": 0.0, "rental_uris": {"android": "https://dc.lft.to/lastmile_qr_scan", "ios": "https://dc.lft.to/lastmile_qr_scan"}, "name": "ebed9d9780e27ac44108e17663384640", "type": "electric_scooter", "lat": 38.92173833333333, "is_disabled": 0}, {"fusion_lat": 0.0, "lon": -77.01216466666666, "is_reserved": 0, "bike_id": "20336711b2e263ab72da2dd508ade4ab", "fusion_lon": 0.0, "rental_uris": {"android": "https://dc.lft.to/lastmile_qr_scan", "ios": "https://dc.lft.to/lastmile_qr_scan"}, "name": "20336711b2e263ab72da2dd508ade4ab", "type": "electric_scooter", "lat": 38.915175, "is_disabled": 0}, {"fusion_lat": 0.0, "lon": -77.0334195, "is_reserved": 0, "bike_id": "23bfab44e802f4f70dd295f6ce94c3ef", "fusion_lon": 0.0, "rental_uris": {"android": "https://dc.lft.to/lastmile_qr_scan", "ios": "https://dc.lft.to/lastmile_qr_scan"}, "name": "23bfab44e802f4f70dd295f6ce94c3ef", "type": "electric_scooter", "lat": 38.916919166666666, "is_disabled": 0}, {"fusion_lat": 0.0, "lon": -76.97854616666666, "is_reserved": 0, "bike_id": "85c3b5489964b5697a948d6fab078cd7", "fusion_lon": 0.0, "rental_uris": {"android": "https://dc.lft.to/lastmile_qr_scan", "ios": "https://dc.lft.to/lastmile_qr_scan"}, "name": "85c3b5489964b5697a948d6fab078cd7", "type": "electric_scooter", "lat": 38.87076233333333, "is_disabled": 0}, {"fusion_lat": 0.0, "lon": -77.0075465, "is_reserved": 0, "bike_id": "0f4fe1a85801ed1557e568dfb2bf4108", "fusion_lon": 0.0, "rental_uris": {"android": "https://dc.lft.to/lastmile_qr_scan", "ios": "https://dc.lft.to/lastmile_qr_scan"}, "name": "0f4fe1a85801ed1557e568dfb2bf4108", "type": "electric_scooter", "lat": 38.92677033333333, "is_disabled": 0}, {"fusion_lat": 0.0, "lon": -77.0279645, "is_reserved": 0, "bike_id": "ef895356eb51f85e64f796249e554144", "fusion_lon": 0.0, "rental_uris": {"android": "https://dc.lft.to/lastmile_qr_scan", "ios": "https://dc.lft.to/lastmile_qr_scan"}, "name": "ef895356eb51f85e64f796249e554144", "type": "electric_scooter", "lat": 38.892335333333335, "is_disabled": 0}, {"fusion_lat": 0.0, "lon": -77.03289133333334, "is_reserved": 0, "bike_id": "fa6bb31edeceb7a619d9ba4d8578f6ba", "fusion_lon": 0.0, "rental_uris": {"android": "https://dc.lft.to/lastmile_qr_scan", "ios": "https://dc.lft.to/lastmile_qr_scan"}, "name": "fa6bb31edeceb7a619d9ba4d8578f6ba", "type": "electric_scooter", "lat": 38.9351435, "is_disabled": 0}, {"fusion_lat": 0.0, "lon": -77.0231115, "is_reserved": 0, "bike_id": "73f35f7efcf8ba6c80f4073d3b2d2e96", "fusion_lon": 0.0, "rental_uris": {"android": "https://dc.lft.to/lastmile_qr_scan", "ios": "https://dc.lft.to/lastmile_qr_scan"}, "name": "73f35f7efcf8ba6c80f4073d3b2d2e96", "type": "electric_scooter", "lat": 38.91845816666667, "is_disabled": 0}, {"fusion_lat": 0.0, "lon": -77.02712316666667, "is_reserved": 0, "bike_id": "861b0154b65a5063e41e885eec6992da", "fusion_lon": 0.0, "rental_uris": {"android": "https://dc.lft.to/lastmile_qr_scan", "ios": "https://dc.lft.to/lastmile_qr_scan"}, "name": "861b0154b65a5063e41e885eec6992da", "type": "electric_scooter", "lat": 38.924695, "is_disabled": 0}, {"fusion_lat": 0.0, "lon": -77.05911883333333, "is_reserved": 0, "bike_id": "59707a40ab829b4195e109b924641f04", "fusion_lon": 0.0, "rental_uris": {"android": "https://dc.lft.to/lastmile_qr_scan", "ios": "https://dc.lft.to/lastmile_qr_scan"}, "name": "59707a40ab829b4195e109b924641f04", "type": "electric_scooter", "lat": 38.900993166666666, "is_disabled": 0}, {"fusion_lat": 0.0, "lon": -77.04695466666666, "is_reserved": 0, "bike_id": "723a840da237319ddb4e1cdeee108be2", "fusion_lon": 0.0, "rental_uris": {"android": "https://dc.lft.to/lastmile_qr_scan", "ios": "https://dc.lft.to/lastmile_qr_scan"}, "name": "723a840da237319ddb4e1cdeee108be2", "type": "electric_scooter", "lat": 38.921775, "is_disabled": 0}, {"fusion_lat": 0.0, "lon": -76.98918233333333, "is_reserved": 0, "bike_id": "c93f26d2f5c289d7e89599f2a103a550", "fusion_lon": 0.0, "rental_uris": {"android": "https://dc.lft.to/lastmile_qr_scan", "ios": "https://dc.lft.to/lastmile_qr_scan"}, "name": "c93f26d2f5c289d7e89599f2a103a550", "type": "electric_scooter", "lat": 38.86492633333334, "is_disabled": 0}, {"fusion_lat": 0.0, "lon": -77.01242633333334, "is_reserved": 0, "bike_id": "04f84d53e79e132cea46dc3ddcc6e3c4", "fusion_lon": 0.0, "rental_uris": {"android": "https://dc.lft.to/lastmile_qr_scan", "ios": "https://dc.lft.to/lastmile_qr_scan"}, "name": "04f84d53e79e132cea46dc3ddcc6e3c4", "type": "electric_scooter", "lat": 38.915737, "is_disabled": 0}, {"fusion_lat": 0.0, "lon": -77.03225883333333, "is_reserved": 0, "bike_id": "bff0cedf897bf8c51ac627b39d0063bd", "fusion_lon": 0.0, "rental_uris": {"android": "https://dc.lft.to/lastmile_qr_scan", "ios": "https://dc.lft.to/lastmile_qr_scan"}, "name": "bff0cedf897bf8c51ac627b39d0063bd", "type": "electric_scooter", "lat": 38.903668333333336, "is_disabled": 0}, {"fusion_lat": 0.0, "lon": -77.02948433333333, "is_reserved": 0, "bike_id": "00ed266f6325eec670192ab6058f8c3c", "fusion_lon": 0.0, "rental_uris": {"android": "https://dc.lft.to/lastmile_qr_scan", "ios": "https://dc.lft.to/lastmile_qr_scan"}, "name": "00ed266f6325eec670192ab6058f8c3c", "type": "electric_scooter", "lat": 38.916861, "is_disabled": 0}, {"fusion_lat": 0.0, "lon": -76.94581483333333, "is_reserved": 0, "bike_id": "df2169239ab9700301d4d9f0312c4c9a", "fusion_lon": 0.0, "rental_uris": {"android": "https://dc.lft.to/lastmile_qr_scan", "ios": "https://dc.lft.to/lastmile_qr_scan"}, "name": "df2169239ab9700301d4d9f0312c4c9a", "type": "electric_scooter", "lat": 38.901476, "is_disabled": 0}, {"fusion_lat": 0.0, "lon": -76.97396433333333, "is_reserved": 0, "bike_id": "f9842eb265191d693770e5b50722f0d9", "fusion_lon": 0.0, "rental_uris": {"android": "https://dc.lft.to/lastmile_qr_scan", "ios": "https://dc.lft.to/lastmile_qr_scan"}, "name": "f9842eb265191d693770e5b50722f0d9", "type": "electric_scooter", "lat": 38.90295033333334, "is_disabled": 0}, {"fusion_lat": 0.0, "lon": -77.00060233333333, "is_reserved": 0, "bike_id": "763de2a39b6f8d39ff03379b2d02e9ec", "fusion_lon": 0.0, "rental_uris": {"android": "https://dc.lft.to/lastmile_qr_scan", "ios": "https://dc.lft.to/lastmile_qr_scan"}, "name": "763de2a39b6f8d39ff03379b2d02e9ec", "type": "electric_scooter", "lat": 38.90728216666667, "is_disabled": 0}, {"fusion_lat": 0.0, "lon": -77.02185066666667, "is_reserved": 0, "bike_id": "f906d95dde724c7d4e54712ffed9d025", "fusion_lon": 0.0, "rental_uris": {"android": "https://dc.lft.to/lastmile_qr_scan", "ios": "https://dc.lft.to/lastmile_qr_scan"}, "name": "f906d95dde724c7d4e54712ffed9d025", "type": "electric_scooter", "lat": 38.89730433333333, "is_disabled": 0}, {"fusion_lat": 0.0, "lon": -76.989958, "is_reserved": 0, "bike_id": "9fe5e3f435113594b3c3671b297eb766", "fusion_lon": 0.0, "rental_uris": {"android": "https://dc.lft.to/lastmile_qr_scan", "ios": "https://dc.lft.to/lastmile_qr_scan"}, "name": "9fe5e3f435113594b3c3671b297eb766", "type": "electric_scooter", "lat": 38.864338833333335, "is_disabled": 0}, {"fusion_lat": 0.0, "lon": -77.021893, "is_reserved": 0, "bike_id": "756e199fad71ad6e424f1d96686337ff", "fusion_lon": 0.0, "rental_uris": {"android": "https://dc.lft.to/lastmile_qr_scan", "ios": "https://dc.lft.to/lastmile_qr_scan"}, "name": "756e199fad71ad6e424f1d96686337ff", "type": "electric_bike", "lat": 38.92800416666667, "is_disabled": 0}, {"fusion_lat": 0.0, "lon": -77.03682233333333, "is_reserved": 0, "bike_id": "88a7c5c1c594724c05142e17b66513c7", "fusion_lon": 0.0, "rental_uris": {"android": "https://dc.lft.to/lastmile_qr_scan", "ios": "https://dc.lft.to/lastmile_qr_scan"}, "name": "88a7c5c1c594724c05142e17b66513c7", "type": "electric_scooter", "lat": 38.91676233333333, "is_disabled": 0}, {"fusion_lat": 0.0, "lon": -77.01813933333334, "is_reserved": 0, "bike_id": "0d5555aa615e43d71c5ff0a448204769", "fusion_lon": 0.0, "rental_uris": {"android": "https://dc.lft.to/lastmile_qr_scan", "ios": "https://dc.lft.to/lastmile_qr_scan"}, "name": "0d5555aa615e43d71c5ff0a448204769", "type": "electric_scooter", "lat": 38.930417166666665, "is_disabled": 0}, {"fusion_lat": 0.0, "lon": -77.04345316666667, "is_reserved": 0, "bike_id": "eed20082a36e491c8cf9679b85739922", "fusion_lon": 0.0, "rental_uris": {"android": "https://dc.lft.to/lastmile_qr_scan", "ios": "https://dc.lft.to/lastmile_qr_scan"}, "name": "eed20082a36e491c8cf9679b85739922", "type": "electric_scooter", "lat": 38.90877833333333, "is_disabled": 0}, {"fusion_lat": 0.0, "lon": -77.074033, "is_reserved": 0, "bike_id": "14dbada052b74c0ca6bd620baee6aaa0", "fusion_lon": 0.0, "rental_uris": {"android": "https://dc.lft.to/lastmile_qr_scan", "ios": "https://dc.lft.to/lastmile_qr_scan"}, "name": "14dbada052b74c0ca6bd620baee6aaa0", "type": "electric_scooter", "lat": 38.92881, "is_disabled": 0}, {"fusion_lat": 0.0, "lon": -76.9995555, "is_reserved": 0, "bike_id": "86f9e36aaec8180ab8146c365206bf7e", "fusion_lon": 0.0, "rental_uris": {"android": "https://dc.lft.to/lastmile_qr_scan", "ios": "https://dc.lft.to/lastmile_qr_scan"}, "name": "86f9e36aaec8180ab8146c365206bf7e", "type": "electric_scooter", "lat": 38.906732166666664, "is_disabled": 0}, {"fusion_lat": 0.0, "lon": -77.039024, "is_reserved": 0, "bike_id": "3720eb9066eb48efaf70e176a1e669bd", "fusion_lon": 0.0, "rental_uris": {"android": "https://dc.lft.to/lastmile_qr_scan", "ios": "https://dc.lft.to/lastmile_qr_scan"}, "name": "3720eb9066eb48efaf70e176a1e669bd", "type": "electric_scooter", "lat": 38.9186985, "is_disabled": 0}, {"fusion_lat": 0.0, "lon": -76.9685955, "is_reserved": 0, "bike_id": "271bd0952dee87c48531cc510e5bf49d", "fusion_lon": 0.0, "rental_uris": {"android": "https://dc.lft.to/lastmile_qr_scan", "ios": "https://dc.lft.to/lastmile_qr_scan"}, "name": "271bd0952dee87c48531cc510e5bf49d", "type": "electric_scooter", "lat": 38.87088633333333, "is_disabled": 0}, {"fusion_lat": 0.0, "lon": -77.06593683333334, "is_reserved": 0, "bike_id": "0eaa663b3408ad428fe56d7eaefe5227", "fusion_lon": 0.0, "rental_uris": {"android": "https://dc.lft.to/lastmile_qr_scan", "ios": "https://dc.lft.to/lastmile_qr_scan"}, "name": "0eaa663b3408ad428fe56d7eaefe5227", "type": "electric_scooter", "lat": 38.90410833333333, "is_disabled": 0}, {"fusion_lat": 0.0, "lon": -76.934751, "is_reserved": 0, "bike_id": "2750b2e7be47f310a709cc3cff7250fe", "fusion_lon": 0.0, "rental_uris": {"android": "https://dc.lft.to/lastmile_qr_scan", "ios": "https://dc.lft.to/lastmile_qr_scan"}, "name": "2750b2e7be47f310a709cc3cff7250fe", "type": "electric_scooter", "lat": 38.905537833333334, "is_disabled": 0}, {"fusion_lat": 0.0, "lon": -77.0004165, "is_reserved": 0, "bike_id": "eee97b30f48b758e2cb08e49bae89b27", "fusion_lon": 0.0, "rental_uris": {"android": "https://dc.lft.to/lastmile_qr_scan", "ios": "https://dc.lft.to/lastmile_qr_scan"}, "name": "eee97b30f48b758e2cb08e49bae89b27", "type": "electric_scooter", "lat": 38.900087, "is_disabled": 0}, {"fusion_lat": 0.0, "lon": -76.985959, "is_reserved": 0, "bike_id": "785a0453e86069332f194c824cf570e1", "fusion_lon": 0.0, "rental_uris": {"android": "https://dc.lft.to/lastmile_qr_scan", "ios": "https://dc.lft.to/lastmile_qr_scan"}, "name": "785a0453e86069332f194c824cf570e1", "type": "electric_scooter", "lat": 38.90015866666667, "is_disabled": 0}, {"fusion_lat": 0.0, "lon": -77.06344933333334, "is_reserved": 0, "bike_id": "1d3cad030de8f67313276dd193d390da", "fusion_lon": 0.0, "rental_uris": {"android": "https://dc.lft.to/lastmile_qr_scan", "ios": "https://dc.lft.to/lastmile_qr_scan"}, "name": "1d3cad030de8f67313276dd193d390da", "type": "electric_scooter", "lat": 38.907313, "is_disabled": 0}, {"fusion_lat": 0.0, "lon": -76.984771, "is_reserved": 0, "bike_id": "b0330b4164afc55ff8a5cbfb237f54ab", "fusion_lon": 0.0, "rental_uris": {"android": "https://dc.lft.to/lastmile_qr_scan", "ios": "https://dc.lft.to/lastmile_qr_scan"}, "name": "b0330b4164afc55ff8a5cbfb237f54ab", "type": "electric_scooter", "lat": 38.90045583333333, "is_disabled": 0}, {"fusion_lat": 0.0, "lon": -77.02386433333334, "is_reserved": 0, "bike_id": "d7371560d033257761d9cca5dc227284", "fusion_lon": 0.0, "rental_uris": {"android": "https://dc.lft.to/lastmile_qr_scan", "ios": "https://dc.lft.to/lastmile_qr_scan"}, "name": "d7371560d033257761d9cca5dc227284", "type": "electric_scooter", "lat": 38.92903866666666, "is_disabled": 0}, {"fusion_lat": 0.0, "lon": -77.00595766666666, "is_reserved": 0, "bike_id": "ec22c23d78d208077fb8660d767cb331", "fusion_lon": 0.0, "rental_uris": {"android": "https://dc.lft.to/lastmile_qr_scan", "ios": "https://dc.lft.to/lastmile_qr_scan"}, "name": "ec22c23d78d208077fb8660d767cb331", "type": "electric_scooter", "lat": 38.87546566666666, "is_disabled": 0}, {"fusion_lat": 0.0, "lon": -77.03828133333333, "is_reserved": 0, "bike_id": "425310b18ee5b58a14bc7906968da590", "fusion_lon": 0.0, "rental_uris": {"android": "https://dc.lft.to/lastmile_qr_scan", "ios": "https://dc.lft.to/lastmile_qr_scan"}, "name": "425310b18ee5b58a14bc7906968da590", "type": "electric_scooter", "lat": 38.911194, "is_disabled": 0}, {"fusion_lat": 0.0, "lon": -77.04541916666666, "is_reserved": 0, "bike_id": "4bed2b88928a46fa005dd97d7a157212", "fusion_lon": 0.0, "rental_uris": {"android": "https://dc.lft.to/lastmile_qr_scan", "ios": "https://dc.lft.to/lastmile_qr_scan"}, "name": "4bed2b88928a46fa005dd97d7a157212", "type": "electric_scooter", "lat": 38.9097, "is_disabled": 0}, {"fusion_lat": 0.0, "lon": -77.0507475, "is_reserved": 0, "bike_id": "7b0284a8239f2ccfdb575125b7455e7c", "fusion_lon": 0.0, "rental_uris": {"android": "https://dc.lft.to/lastmile_qr_scan", "ios": "https://dc.lft.to/lastmile_qr_scan"}, "name": "7b0284a8239f2ccfdb575125b7455e7c", "type": "electric_scooter", "lat": 38.8978715, "is_disabled": 0}, {"fusion_lat": 0.0, "lon": -77.00062183333333, "is_reserved": 0, "bike_id": "cba7935f34b3d01f5d727f0b3d688d44", "fusion_lon": 0.0, "rental_uris": {"android": "https://dc.lft.to/lastmile_qr_scan", "ios": "https://dc.lft.to/lastmile_qr_scan"}, "name": "cba7935f34b3d01f5d727f0b3d688d44", "type": "electric_scooter", "lat": 38.900477333333335, "is_disabled": 0}, {"fusion_lat": 0.0, "lon": -77.031718, "is_reserved": 0, "bike_id": "0254d3fc26ceb8f5c7caa87635705036", "fusion_lon": 0.0, "rental_uris": {"android": "https://dc.lft.to/lastmile_qr_scan", "ios": "https://dc.lft.to/lastmile_qr_scan"}, "name": "0254d3fc26ceb8f5c7caa87635705036", "type": "electric_scooter", "lat": 38.915498166666666, "is_disabled": 0}, {"fusion_lat": 0.0, "lon": -77.04408833333333, "is_reserved": 0, "bike_id": "8a1303bca431a6d4431537367c6e549f", "fusion_lon": 0.0, "rental_uris": {"android": "https://dc.lft.to/lastmile_qr_scan", "ios": "https://dc.lft.to/lastmile_qr_scan"}, "name": "8a1303bca431a6d4431537367c6e549f", "type": "electric_scooter", "lat": 38.91357883333333, "is_disabled": 0}, {"fusion_lat": 0.0, "lon": -77.01256, "is_reserved": 0, "bike_id": "caf5cc0243a3dfe5e20e03f58ca11467", "fusion_lon": 0.0, "rental_uris": {"android": "https://dc.lft.to/lastmile_qr_scan", "ios": "https://dc.lft.to/lastmile_qr_scan"}, "name": "caf5cc0243a3dfe5e20e03f58ca11467", "type": "electric_scooter", "lat": 38.90846283333333, "is_disabled": 0}, {"fusion_lat": 0.0, "lon": -77.0018995, "is_reserved": 0, "bike_id": "1b74a450b9c1ddb52fc09804b59321e1", "fusion_lon": 0.0, "rental_uris": {"android": "https://dc.lft.to/lastmile_qr_scan", "ios": "https://dc.lft.to/lastmile_qr_scan"}, "name": "1b74a450b9c1ddb52fc09804b59321e1", "type": "electric_scooter", "lat": 38.90378366666667, "is_disabled": 0}, {"fusion_lat": 0.0, "lon": -77.0377115, "is_reserved": 0, "bike_id": "794f5f01a807ab6611cd53bdd981a3bc", "fusion_lon": 0.0, "rental_uris": {"android": "https://dc.lft.to/lastmile_qr_scan", "ios": "https://dc.lft.to/lastmile_qr_scan"}, "name": "794f5f01a807ab6611cd53bdd981a3bc", "type": "electric_scooter", "lat": 38.92514516666667, "is_disabled": 0}, {"fusion_lat": 0.0, "lon": -77.07270966666667, "is_reserved": 0, "bike_id": "0b4a3f8de27e6a96969ec148ddd44286", "fusion_lon": 0.0, "rental_uris": {"android": "https://dc.lft.to/lastmile_qr_scan", "ios": "https://dc.lft.to/lastmile_qr_scan"}, "name": "0b4a3f8de27e6a96969ec148ddd44286", "type": "electric_scooter", "lat": 38.934854, "is_disabled": 0}, {"fusion_lat": 0.0, "lon": -77.02935366666667, "is_reserved": 0, "bike_id": "429cfc21624be64b6dc328d3ef5e4e5a", "fusion_lon": 0.0, "rental_uris": {"android": "https://dc.lft.to/lastmile_qr_scan", "ios": "https://dc.lft.to/lastmile_qr_scan"}, "name": "429cfc21624be64b6dc328d3ef5e4e5a", "type": "electric_scooter", "lat": 38.93249316666667, "is_disabled": 0}, {"fusion_lat": 0.0, "lon": -77.0380865, "is_reserved": 0, "bike_id": "6bb178033bba0bcb620b638d491662a2", "fusion_lon": 0.0, "rental_uris": {"android": "https://dc.lft.to/lastmile_qr_scan", "ios": "https://dc.lft.to/lastmile_qr_scan"}, "name": "6bb178033bba0bcb620b638d491662a2", "type": "electric_scooter", "lat": 38.909738, "is_disabled": 0}, {"fusion_lat": 0.0, "lon": -77.02306333333334, "is_reserved": 0, "bike_id": "2dfafb6a5c84c3c41a451232a02ad254", "fusion_lon": 0.0, "rental_uris": {"android": "https://dc.lft.to/lastmile_qr_scan", "ios": "https://dc.lft.to/lastmile_qr_scan"}, "name": "2dfafb6a5c84c3c41a451232a02ad254", "type": "electric_scooter", "lat": 38.91782383333333, "is_disabled": 0}, {"fusion_lat": 0.0, "lon": -77.03856383333333, "is_reserved": 0, "bike_id": "5b09b557cfad1958bcd617a249c1e784", "fusion_lon": 0.0, "rental_uris": {"android": "https://dc.lft.to/lastmile_qr_scan", "ios": "https://dc.lft.to/lastmile_qr_scan"}, "name": "5b09b557cfad1958bcd617a249c1e784", "type": "electric_scooter", "lat": 38.9066335, "is_disabled": 0}, {"fusion_lat": 0.0, "lon": -77.01764966666667, "is_reserved": 0, "bike_id": "3fb46683b3f3cbd0abce8d8e9f0c60cc", "fusion_lon": 0.0, "rental_uris": {"android": "https://dc.lft.to/lastmile_qr_scan", "ios": "https://dc.lft.to/lastmile_qr_scan"}, "name": "3fb46683b3f3cbd0abce8d8e9f0c60cc", "type": "electric_scooter", "lat": 38.877029666666665, "is_disabled": 0}, {"fusion_lat": 0.0, "lon": -77.01815166666667, "is_reserved": 0, "bike_id": "46912aaa4cd244fbe0bbeef7ebac6928", "fusion_lon": 0.0, "rental_uris": {"android": "https://dc.lft.to/lastmile_qr_scan", "ios": "https://dc.lft.to/lastmile_qr_scan"}, "name": "46912aaa4cd244fbe0bbeef7ebac6928", "type": "electric_scooter", "lat": 38.92366466666667, "is_disabled": 0}, {"fusion_lat": 0.0, "lon": -77.07245, "is_reserved": 0, "bike_id": "8ff1c014b1f61a81a7293b52547418a8", "fusion_lon": 0.0, "rental_uris": {"android": "https://dc.lft.to/lastmile_qr_scan", "ios": "https://dc.lft.to/lastmile_qr_scan"}, "name": "8ff1c014b1f61a81a7293b52547418a8", "type": "electric_scooter", "lat": 38.9598145, "is_disabled": 0}, {"fusion_lat": 0.0, "lon": -77.0119685, "is_reserved": 0, "bike_id": "eed93a21c4914f80360cd2089aff4b0b", "fusion_lon": 0.0, "rental_uris": {"android": "https://dc.lft.to/lastmile_qr_scan", "ios": "https://dc.lft.to/lastmile_qr_scan"}, "name": "eed93a21c4914f80360cd2089aff4b0b", "type": "electric_scooter", "lat": 38.8709155, "is_disabled": 0}, {"fusion_lat": 0.0, "lon": -77.03871266666667, "is_reserved": 0, "bike_id": "010707495b2c84d66dec3018ab341896", "fusion_lon": 0.0, "rental_uris": {"android": "https://dc.lft.to/lastmile_qr_scan", "ios": "https://dc.lft.to/lastmile_qr_scan"}, "name": "010707495b2c84d66dec3018ab341896", "type": "electric_scooter", "lat": 38.92153966666667, "is_disabled": 0}, {"fusion_lat": 0.0, "lon": -77.11156333333334, "is_reserved": 0, "bike_id": "1adf82e0bbe98795eadaa47cd6a480a9", "fusion_lon": 0.0, "rental_uris": {"android": "https://dc.lft.to/lastmile_qr_scan", "ios": "https://dc.lft.to/lastmile_qr_scan"}, "name": "1adf82e0bbe98795eadaa47cd6a480a9", "type": "electric_bike", "lat": 38.85517133333333, "is_disabled": 0}, {"fusion_lat": 0.0, "lon": -77.06286633333333, "is_reserved": 0, "bike_id": "845bfe2007514402e6c8256bb515bfb2", "fusion_lon": 0.0, "rental_uris": {"android": "https://dc.lft.to/lastmile_qr_scan", "ios": "https://dc.lft.to/lastmile_qr_scan"}, "name": "845bfe2007514402e6c8256bb515bfb2", "type": "electric_scooter", "lat": 38.904359166666666, "is_disabled": 0}, {"fusion_lat": 0.0, "lon": -76.99142716666667, "is_reserved": 0, "bike_id": "42dadf9b6e406e5621227b9507d41798", "fusion_lon": 0.0, "rental_uris": {"android": "https://dc.lft.to/lastmile_qr_scan", "ios": "https://dc.lft.to/lastmile_qr_scan"}, "name": "42dadf9b6e406e5621227b9507d41798", "type": "electric_scooter", "lat": 38.88591733333333, "is_disabled": 0}, {"fusion_lat": 0.0, "lon": -77.18736966666667, "is_reserved": 0, "bike_id": "f2a834dcb5d775135115d44920665189", "fusion_lon": 0.0, "rental_uris": {"android": "https://dc.lft.to/lastmile_qr_scan", "ios": "https://dc.lft.to/lastmile_qr_scan"}, "name": "f2a834dcb5d775135115d44920665189", "type": "electric_bike", "lat": 38.89349983333334, "is_disabled": 0}, {"fusion_lat": 0.0, "lon": -77.01862983333334, "is_reserved": 0, "bike_id": "a53a9007b08c64dc636596d7562ce0bf", "fusion_lon": 0.0, "rental_uris": {"android": "https://dc.lft.to/lastmile_qr_scan", "ios": "https://dc.lft.to/lastmile_qr_scan"}, "name": "a53a9007b08c64dc636596d7562ce0bf", "type": "electric_scooter", "lat": 38.973673833333336, "is_disabled": 0}, {"fusion_lat": 0.0, "lon": -76.99528616666667, "is_reserved": 0, "bike_id": "cdae3f07b51d2b50170de236c8a12eea", "fusion_lon": 0.0, "rental_uris": {"android": "https://dc.lft.to/lastmile_qr_scan", "ios": "https://dc.lft.to/lastmile_qr_scan"}, "name": "cdae3f07b51d2b50170de236c8a12eea", "type": "electric_scooter", "lat": 38.883722, "is_disabled": 0}, {"fusion_lat": 0.0, "lon": -77.03149683333334, "is_reserved": 0, "bike_id": "9707927caa58a65f2ac4ab3eb1e95a53", "fusion_lon": 0.0, "rental_uris": {"android": "https://dc.lft.to/lastmile_qr_scan", "ios": "https://dc.lft.to/lastmile_qr_scan"}, "name": "9707927caa58a65f2ac4ab3eb1e95a53", "type": "electric_scooter", "lat": 38.91926633333333, "is_disabled": 0}, {"fusion_lat": 0.0, "lon": -77.03339333333334, "is_reserved": 0, "bike_id": "7f2f3fa502cb19b7b9de61ffbffa6ef8", "fusion_lon": 0.0, "rental_uris": {"android": "https://dc.lft.to/lastmile_qr_scan", "ios": "https://dc.lft.to/lastmile_qr_scan"}, "name": "7f2f3fa502cb19b7b9de61ffbffa6ef8", "type": "electric_scooter", "lat": 38.898424, "is_disabled": 0}, {"fusion_lat": 0.0, "lon": -77.03515233333333, "is_reserved": 0, "bike_id": "78cf6aa7f3757f79c6c694e06c8e8b24", "fusion_lon": 0.0, "rental_uris": {"android": "https://dc.lft.to/lastmile_qr_scan", "ios": "https://dc.lft.to/lastmile_qr_scan"}, "name": "78cf6aa7f3757f79c6c694e06c8e8b24", "type": "electric_scooter", "lat": 38.922580833333335, "is_disabled": 0}, {"fusion_lat": 0.0, "lon": -77.0468785, "is_reserved": 0, "bike_id": "23ac8e0c6645c546d2ac2259743c5732", "fusion_lon": 0.0, "rental_uris": {"android": "https://dc.lft.to/lastmile_qr_scan", "ios": "https://dc.lft.to/lastmile_qr_scan"}, "name": "23ac8e0c6645c546d2ac2259743c5732", "type": "electric_bike", "lat": 39.0239075, "is_disabled": 0}, {"fusion_lat": 0.0, "lon": -77.02226733333333, "is_reserved": 0, "bike_id": "a3b10b0278ec6109bc0dbb2514d144f1", "fusion_lon": 0.0, "rental_uris": {"android": "https://dc.lft.to/lastmile_qr_scan", "ios": "https://dc.lft.to/lastmile_qr_scan"}, "name": "a3b10b0278ec6109bc0dbb2514d144f1", "type": "electric_scooter", "lat": 38.9164695, "is_disabled": 0}, {"fusion_lat": 0.0, "lon": -77.03956233333334, "is_reserved": 0, "bike_id": "7fbd234028b96d043ddc0e284d5884a4", "fusion_lon": 0.0, "rental_uris": {"android": "https://dc.lft.to/lastmile_qr_scan", "ios": "https://dc.lft.to/lastmile_qr_scan"}, "name": "7fbd234028b96d043ddc0e284d5884a4", "type": "electric_scooter", "lat": 38.8924975, "is_disabled": 0}, {"fusion_lat": 0.0, "lon": -76.9733035, "is_reserved": 0, "bike_id": "7db69f03c2a01a858f8d1ff766743e41", "fusion_lon": 0.0, "rental_uris": {"android": "https://dc.lft.to/lastmile_qr_scan", "ios": "https://dc.lft.to/lastmile_qr_scan"}, "name": "7db69f03c2a01a858f8d1ff766743e41", "type": "electric_scooter", "lat": 38.865569666666666, "is_disabled": 0}, {"fusion_lat": 0.0, "lon": -77.03715366666667, "is_reserved": 0, "bike_id": "52dd49633d76156e7f5e843a11f8fbdf", "fusion_lon": 0.0, "rental_uris": {"android": "https://dc.lft.to/lastmile_qr_scan", "ios": "https://dc.lft.to/lastmile_qr_scan"}, "name": "52dd49633d76156e7f5e843a11f8fbdf", "type": "electric_scooter", "lat": 38.91687833333334, "is_disabled": 0}, {"fusion_lat": 0.0, "lon": -77.0435355, "is_reserved": 0, "bike_id": "8bd69f3dc5de662ce99ed23a3c7637c8", "fusion_lon": 0.0, "rental_uris": {"android": "https://dc.lft.to/lastmile_qr_scan", "ios": "https://dc.lft.to/lastmile_qr_scan"}, "name": "8bd69f3dc5de662ce99ed23a3c7637c8", "type": "electric_scooter", "lat": 38.920606, "is_disabled": 0}, {"fusion_lat": 0.0, "lon": -77.06460916666667, "is_reserved": 0, "bike_id": "007619f9947e219a1d2cad6d0ca98ed7", "fusion_lon": 0.0, "rental_uris": {"android": "https://dc.lft.to/lastmile_qr_scan", "ios": "https://dc.lft.to/lastmile_qr_scan"}, "name": "007619f9947e219a1d2cad6d0ca98ed7", "type": "electric_scooter", "lat": 38.927430333333334, "is_disabled": 0}, {"fusion_lat": 0.0, "lon": -76.9822475, "is_reserved": 0, "bike_id": "44989996e207b68e4597388e27480bd5", "fusion_lon": 0.0, "rental_uris": {"android": "https://dc.lft.to/lastmile_qr_scan", "ios": "https://dc.lft.to/lastmile_qr_scan"}, "name": "44989996e207b68e4597388e27480bd5", "type": "electric_scooter", "lat": 38.886470333333335, "is_disabled": 0}, {"fusion_lat": 0.0, "lon": -77.01581766666666, "is_reserved": 0, "bike_id": "7aa532c95108bb3ba91be874475ae6b8", "fusion_lon": 0.0, "rental_uris": {"android": "https://dc.lft.to/lastmile_qr_scan", "ios": "https://dc.lft.to/lastmile_qr_scan"}, "name": "7aa532c95108bb3ba91be874475ae6b8", "type": "electric_scooter", "lat": 38.88611366666667, "is_disabled": 0}, {"fusion_lat": 0.0, "lon": -77.03783283333334, "is_reserved": 0, "bike_id": "1682841722564243c199e41ba6760abe", "fusion_lon": 0.0, "rental_uris": {"android": "https://dc.lft.to/lastmile_qr_scan", "ios": "https://dc.lft.to/lastmile_qr_scan"}, "name": "1682841722564243c199e41ba6760abe", "type": "electric_scooter", "lat": 38.916965833333336, "is_disabled": 0}, {"fusion_lat": 0.0, "lon": -77.03482883333334, "is_reserved": 0, "bike_id": "c744756c6b8fba81a7fa51d7c16d65bd", "fusion_lon": 0.0, "rental_uris": {"android": "https://dc.lft.to/lastmile_qr_scan", "ios": "https://dc.lft.to/lastmile_qr_scan"}, "name": "c744756c6b8fba81a7fa51d7c16d65bd", "type": "electric_scooter", "lat": 38.924764, "is_disabled": 0}, {"fusion_lat": 0.0, "lon": -77.02579566666667, "is_reserved": 0, "bike_id": "61c68b1608d90a4016876a68ea20d5ea", "fusion_lon": 0.0, "rental_uris": {"android": "https://dc.lft.to/lastmile_qr_scan", "ios": "https://dc.lft.to/lastmile_qr_scan"}, "name": "61c68b1608d90a4016876a68ea20d5ea", "type": "electric_scooter", "lat": 38.92055416666667, "is_disabled": 0}, {"fusion_lat": 0.0, "lon": -77.02675383333333, "is_reserved": 0, "bike_id": "82519dac62e862cb3b6e52035142d5fe", "fusion_lon": 0.0, "rental_uris": {"android": "https://dc.lft.to/lastmile_qr_scan", "ios": "https://dc.lft.to/lastmile_qr_scan"}, "name": "82519dac62e862cb3b6e52035142d5fe", "type": "electric_scooter", "lat": 38.90114333333333, "is_disabled": 0}, {"fusion_lat": 0.0, "lon": -77.03237333333334, "is_reserved": 0, "bike_id": "ec9761c0ac6651d654a64ac27d2b9f4d", "fusion_lon": 0.0, "rental_uris": {"android": "https://dc.lft.to/lastmile_qr_scan", "ios": "https://dc.lft.to/lastmile_qr_scan"}, "name": "ec9761c0ac6651d654a64ac27d2b9f4d", "type": "electric_scooter", "lat": 38.92878233333333, "is_disabled": 0}, {"fusion_lat": 0.0, "lon": -76.98361633333333, "is_reserved": 0, "bike_id": "fb8571238cc53056c2aecd8ccd97a91e", "fusion_lon": 0.0, "rental_uris": {"android": "https://dc.lft.to/lastmile_qr_scan", "ios": "https://dc.lft.to/lastmile_qr_scan"}, "name": "fb8571238cc53056c2aecd8ccd97a91e", "type": "electric_scooter", "lat": 38.915004833333334, "is_disabled": 0}, {"fusion_lat": 0.0, "lon": -76.9981755, "is_reserved": 0, "bike_id": "053d810b8fd2411cac71a9451c08f0e5", "fusion_lon": 0.0, "rental_uris": {"android": "https://dc.lft.to/lastmile_qr_scan", "ios": "https://dc.lft.to/lastmile_qr_scan"}, "name": "053d810b8fd2411cac71a9451c08f0e5", "type": "electric_scooter", "lat": 38.907250833333336, "is_disabled": 0}, {"fusion_lat": 0.0, "lon": -77.0297885, "is_reserved": 0, "bike_id": "4e04ee69532f5eb71c2b115320dc4023", "fusion_lon": 0.0, "rental_uris": {"android": "https://dc.lft.to/lastmile_qr_scan", "ios": "https://dc.lft.to/lastmile_qr_scan"}, "name": "4e04ee69532f5eb71c2b115320dc4023", "type": "electric_scooter", "lat": 38.91414616666667, "is_disabled": 0}, {"fusion_lat": 0.0, "lon": -77.00031633333333, "is_reserved": 0, "bike_id": "5792f59bf31f99a8484155b9dab4539a", "fusion_lon": 0.0, "rental_uris": {"android": "https://dc.lft.to/lastmile_qr_scan", "ios": "https://dc.lft.to/lastmile_qr_scan"}, "name": "5792f59bf31f99a8484155b9dab4539a", "type": "electric_scooter", "lat": 38.924709, "is_disabled": 0}, {"fusion_lat": 0.0, "lon": -77.029199, "is_reserved": 0, "bike_id": "d4028cfc56a7e69b6aa627b8b1a4eee4", "fusion_lon": 0.0, "rental_uris": {"android": "https://dc.lft.to/lastmile_qr_scan", "ios": "https://dc.lft.to/lastmile_qr_scan"}, "name": "d4028cfc56a7e69b6aa627b8b1a4eee4", "type": "electric_scooter", "lat": 38.93874016666667, "is_disabled": 0}, {"fusion_lat": 0.0, "lon": -77.04423116666666, "is_reserved": 0, "bike_id": "e093435dc7f7f3c0019e5cace27bf030", "fusion_lon": 0.0, "rental_uris": {"android": "https://dc.lft.to/lastmile_qr_scan", "ios": "https://dc.lft.to/lastmile_qr_scan"}, "name": "e093435dc7f7f3c0019e5cace27bf030", "type": "electric_scooter", "lat": 38.921250666666666, "is_disabled": 0}, {"fusion_lat": 0.0, "lon": -77.0284605, "is_reserved": 0, "bike_id": "c4eac5da232377f34af55163542ef1af", "fusion_lon": 0.0, "rental_uris": {"android": "https://dc.lft.to/lastmile_qr_scan", "ios": "https://dc.lft.to/lastmile_qr_scan"}, "name": "c4eac5da232377f34af55163542ef1af", "type": "electric_scooter", "lat": 38.887458, "is_disabled": 0}, {"fusion_lat": 0.0, "lon": -77.00724183333334, "is_reserved": 0, "bike_id": "323b6b8b5590e1effd783ce877aeea6b", "fusion_lon": 0.0, "rental_uris": {"android": "https://dc.lft.to/lastmile_qr_scan", "ios": "https://dc.lft.to/lastmile_qr_scan"}, "name": "323b6b8b5590e1effd783ce877aeea6b", "type": "electric_scooter", "lat": 38.884928333333335, "is_disabled": 0}, {"fusion_lat": 0.0, "lon": -76.98560716666667, "is_reserved": 0, "bike_id": "46ee038ea82cfa517bd4946313f665e8", "fusion_lon": 0.0, "rental_uris": {"android": "https://dc.lft.to/lastmile_qr_scan", "ios": "https://dc.lft.to/lastmile_qr_scan"}, "name": "46ee038ea82cfa517bd4946313f665e8", "type": "electric_bike", "lat": 38.89956033333333, "is_disabled": 0}, {"fusion_lat": 0.0, "lon": -77.03851216666666, "is_reserved": 0, "bike_id": "0f91976f024b808f248b6fba4e18d867", "fusion_lon": 0.0, "rental_uris": {"android": "https://dc.lft.to/lastmile_qr_scan", "ios": "https://dc.lft.to/lastmile_qr_scan"}, "name": "0f91976f024b808f248b6fba4e18d867", "type": "electric_scooter", "lat": 38.907823, "is_disabled": 0}, {"fusion_lat": 0.0, "lon": -77.03877866666667, "is_reserved": 0, "bike_id": "a2e23574dfefa496f58b1cd3983e1713", "fusion_lon": 0.0, "rental_uris": {"android": "https://dc.lft.to/lastmile_qr_scan", "ios": "https://dc.lft.to/lastmile_qr_scan"}, "name": "a2e23574dfefa496f58b1cd3983e1713", "type": "electric_scooter", "lat": 38.89198966666667, "is_disabled": 0}, {"fusion_lat": 0.0, "lon": -77.051084, "is_reserved": 0, "bike_id": "65894336c200e77b930add03aeff9123", "fusion_lon": 0.0, "rental_uris": {"android": "https://dc.lft.to/lastmile_qr_scan", "ios": "https://dc.lft.to/lastmile_qr_scan"}, "name": "65894336c200e77b930add03aeff9123", "type": "electric_bike", "lat": 39.03667216666667, "is_disabled": 0}, {"fusion_lat": 0.0, "lon": -76.9677885, "is_reserved": 0, "bike_id": "7479365fb5df359258063dec2e82cedf", "fusion_lon": 0.0, "rental_uris": {"android": "https://dc.lft.to/lastmile_qr_scan", "ios": "https://dc.lft.to/lastmile_qr_scan"}, "name": "7479365fb5df359258063dec2e82cedf", "type": "electric_scooter", "lat": 38.87328216666667, "is_disabled": 0}, {"fusion_lat": 0.0, "lon": -77.03814916666667, "is_reserved": 0, "bike_id": "67298de945aad8251f0fef4bc2c494d9", "fusion_lon": 0.0, "rental_uris": {"android": "https://dc.lft.to/lastmile_qr_scan", "ios": "https://dc.lft.to/lastmile_qr_scan"}, "name": "67298de945aad8251f0fef4bc2c494d9", "type": "electric_scooter", "lat": 38.909709166666666, "is_disabled": 0}, {"fusion_lat": 0.0, "lon": -77.003742, "is_reserved": 0, "bike_id": "57b424dcad0a76411b29d6159dca18b8", "fusion_lon": 0.0, "rental_uris": {"android": "https://dc.lft.to/lastmile_qr_scan", "ios": "https://dc.lft.to/lastmile_qr_scan"}, "name": "57b424dcad0a76411b29d6159dca18b8", "type": "electric_scooter", "lat": 38.89729533333333, "is_disabled": 0}, {"fusion_lat": 0.0, "lon": -77.02150516666667, "is_reserved": 0, "bike_id": "e56fb422327a0f63ef9c5114c5530cf4", "fusion_lon": 0.0, "rental_uris": {"android": "https://dc.lft.to/lastmile_qr_scan", "ios": "https://dc.lft.to/lastmile_qr_scan"}, "name": "e56fb422327a0f63ef9c5114c5530cf4", "type": "electric_scooter", "lat": 38.87922666666667, "is_disabled": 0}, {"fusion_lat": 0.0, "lon": -77.02691916666667, "is_reserved": 0, "bike_id": "2c20b262b9a0f1fdb19b6193a075a723", "fusion_lon": 0.0, "rental_uris": {"android": "https://dc.lft.to/lastmile_qr_scan", "ios": "https://dc.lft.to/lastmile_qr_scan"}, "name": "2c20b262b9a0f1fdb19b6193a075a723", "type": "electric_scooter", "lat": 38.923291166666665, "is_disabled": 0}, {"fusion_lat": 0.0, "lon": -77.03987366666667, "is_reserved": 0, "bike_id": "de1d415162f2b7418a3d831d6eea3c5a", "fusion_lon": 0.0, "rental_uris": {"android": "https://dc.lft.to/lastmile_qr_scan", "ios": "https://dc.lft.to/lastmile_qr_scan"}, "name": "de1d415162f2b7418a3d831d6eea3c5a", "type": "electric_scooter", "lat": 38.91763016666667, "is_disabled": 0}, {"fusion_lat": 0.0, "lon": -77.01128166666666, "is_reserved": 0, "bike_id": "3c0b86f14249d9e2285770724501e8e7", "fusion_lon": 0.0, "rental_uris": {"android": "https://dc.lft.to/lastmile_qr_scan", "ios": "https://dc.lft.to/lastmile_qr_scan"}, "name": "3c0b86f14249d9e2285770724501e8e7", "type": "electric_scooter", "lat": 38.88036683333333, "is_disabled": 0}, {"fusion_lat": 0.0, "lon": -77.018147, "is_reserved": 0, "bike_id": "76d6d5a4478bdb248a9518b298e8ba05", "fusion_lon": 0.0, "rental_uris": {"android": "https://dc.lft.to/lastmile_qr_scan", "ios": "https://dc.lft.to/lastmile_qr_scan"}, "name": "76d6d5a4478bdb248a9518b298e8ba05", "type": "electric_scooter", "lat": 38.90971533333333, "is_disabled": 0}, {"fusion_lat": 0.0, "lon": -77.03344566666667, "is_reserved": 0, "bike_id": "34fd820d03e024eae38357e51f9c029a", "fusion_lon": 0.0, "rental_uris": {"android": "https://dc.lft.to/lastmile_qr_scan", "ios": "https://dc.lft.to/lastmile_qr_scan"}, "name": "34fd820d03e024eae38357e51f9c029a", "type": "electric_scooter", "lat": 38.8989805, "is_disabled": 0}, {"fusion_lat": 0.0, "lon": -77.02692766666667, "is_reserved": 0, "bike_id": "0bf094cb7531881c279382fc58f7df4e", "fusion_lon": 0.0, "rental_uris": {"android": "https://dc.lft.to/lastmile_qr_scan", "ios": "https://dc.lft.to/lastmile_qr_scan"}, "name": "0bf094cb7531881c279382fc58f7df4e", "type": "electric_scooter", "lat": 38.9125165, "is_disabled": 0}, {"fusion_lat": 0.0, "lon": -76.98034533333333, "is_reserved": 0, "bike_id": "8a26526b246336c426abe34658efb877", "fusion_lon": 0.0, "rental_uris": {"android": "https://dc.lft.to/lastmile_qr_scan", "ios": "https://dc.lft.to/lastmile_qr_scan"}, "name": "8a26526b246336c426abe34658efb877", "type": "electric_bike", "lat": 38.88968883333333, "is_disabled": 0}, {"fusion_lat": 0.0, "lon": -77.047984, "is_reserved": 0, "bike_id": "76277024b66455e08166b31927296888", "fusion_lon": 0.0, "rental_uris": {"android": "https://dc.lft.to/lastmile_qr_scan", "ios": "https://dc.lft.to/lastmile_qr_scan"}, "name": "76277024b66455e08166b31927296888", "type": "electric_scooter", "lat": 38.919134666666665, "is_disabled": 0}, {"fusion_lat": 0.0, "lon": -76.93617683333333, "is_reserved": 0, "bike_id": "eca272e39cb58915a5acc19c88c16930", "fusion_lon": 0.0, "rental_uris": {"android": "https://dc.lft.to/lastmile_qr_scan", "ios": "https://dc.lft.to/lastmile_qr_scan"}, "name": "eca272e39cb58915a5acc19c88c16930", "type": "electric_bike", "lat": 38.97068216666667, "is_disabled": 0}, {"fusion_lat": 0.0, "lon": -77.0071415, "is_reserved": 0, "bike_id": "3ef7a5d04a7af823db088c4b6e1ee1ff", "fusion_lon": 0.0, "rental_uris": {"android": "https://dc.lft.to/lastmile_qr_scan", "ios": "https://dc.lft.to/lastmile_qr_scan"}, "name": "3ef7a5d04a7af823db088c4b6e1ee1ff", "type": "electric_scooter", "lat": 38.90586416666667, "is_disabled": 0}, {"fusion_lat": 0.0, "lon": -77.0098235, "is_reserved": 0, "bike_id": "784587d2a8a235096414141da1342a29", "fusion_lon": 0.0, "rental_uris": {"android": "https://dc.lft.to/lastmile_qr_scan", "ios": "https://dc.lft.to/lastmile_qr_scan"}, "name": "784587d2a8a235096414141da1342a29", "type": "electric_scooter", "lat": 38.872836166666666, "is_disabled": 0}, {"fusion_lat": 0.0, "lon": -77.0237495, "is_reserved": 0, "bike_id": "90f546ae35563fd0914387f0f65d90fd", "fusion_lon": 0.0, "rental_uris": {"android": "https://dc.lft.to/lastmile_qr_scan", "ios": "https://dc.lft.to/lastmile_qr_scan"}, "name": "90f546ae35563fd0914387f0f65d90fd", "type": "electric_scooter", "lat": 38.91599316666667, "is_disabled": 0}, {"fusion_lat": 0.0, "lon": -76.99422783333333, "is_reserved": 0, "bike_id": "039d579bb8da33cdc11f742eaf8cb946", "fusion_lon": 0.0, "rental_uris": {"android": "https://dc.lft.to/lastmile_qr_scan", "ios": "https://dc.lft.to/lastmile_qr_scan"}, "name": "039d579bb8da33cdc11f742eaf8cb946", "type": "electric_scooter", "lat": 38.950554333333336, "is_disabled": 0}, {"fusion_lat": 0.0, "lon": -76.99766, "is_reserved": 0, "bike_id": "e659f2bf4b1639c5d6e1ae009e0f5e25", "fusion_lon": 0.0, "rental_uris": {"android": "https://dc.lft.to/lastmile_qr_scan", "ios": "https://dc.lft.to/lastmile_qr_scan"}, "name": "e659f2bf4b1639c5d6e1ae009e0f5e25", "type": "electric_scooter", "lat": 38.91128333333333, "is_disabled": 0}, {"fusion_lat": 0.0, "lon": -77.04508833333334, "is_reserved": 0, "bike_id": "af3f20810ac3f4d242a6b98dc2f8e158", "fusion_lon": 0.0, "rental_uris": {"android": "https://dc.lft.to/lastmile_qr_scan", "ios": "https://dc.lft.to/lastmile_qr_scan"}, "name": "af3f20810ac3f4d242a6b98dc2f8e158", "type": "electric_scooter", "lat": 38.90777966666667, "is_disabled": 0}, {"fusion_lat": 0.0, "lon": -76.98104, "is_reserved": 0, "bike_id": "04a7b503f1f2b213f5918a69b1818db3", "fusion_lon": 0.0, "rental_uris": {"android": "https://dc.lft.to/lastmile_qr_scan", "ios": "https://dc.lft.to/lastmile_qr_scan"}, "name": "04a7b503f1f2b213f5918a69b1818db3", "type": "electric_scooter", "lat": 38.903932166666664, "is_disabled": 0}, {"fusion_lat": 0.0, "lon": -76.9983495, "is_reserved": 0, "bike_id": "16f60184b08cd11b56face6f69095e85", "fusion_lon": 0.0, "rental_uris": {"android": "https://dc.lft.to/lastmile_qr_scan", "ios": "https://dc.lft.to/lastmile_qr_scan"}, "name": "16f60184b08cd11b56face6f69095e85", "type": "electric_scooter", "lat": 38.89079533333334, "is_disabled": 0}, {"fusion_lat": 0.0, "lon": -77.04656933333334, "is_reserved": 0, "bike_id": "9d2425ab5c346c11781d323d87c72024", "fusion_lon": 0.0, "rental_uris": {"android": "https://dc.lft.to/lastmile_qr_scan", "ios": "https://dc.lft.to/lastmile_qr_scan"}, "name": "9d2425ab5c346c11781d323d87c72024", "type": "electric_scooter", "lat": 38.91368216666667, "is_disabled": 0}, {"fusion_lat": 0.0, "lon": -76.9835665, "is_reserved": 0, "bike_id": "89e1d244a501f67e1efe98cb62335b29", "fusion_lon": 0.0, "rental_uris": {"android": "https://dc.lft.to/lastmile_qr_scan", "ios": "https://dc.lft.to/lastmile_qr_scan"}, "name": "89e1d244a501f67e1efe98cb62335b29", "type": "electric_scooter", "lat": 38.88744166666667, "is_disabled": 0}, {"fusion_lat": 0.0, "lon": -76.9752875, "is_reserved": 0, "bike_id": "5eaa792f156a61b11d3865310dc7a18e", "fusion_lon": 0.0, "rental_uris": {"android": "https://dc.lft.to/lastmile_qr_scan", "ios": "https://dc.lft.to/lastmile_qr_scan"}, "name": "5eaa792f156a61b11d3865310dc7a18e", "type": "electric_bike", "lat": 38.90332016666667, "is_disabled": 0}, {"fusion_lat": 0.0, "lon": -77.04343133333333, "is_reserved": 0, "bike_id": "4d63e7d25f1b8dec5c02d9fc9cf0bbd4", "fusion_lon": 0.0, "rental_uris": {"android": "https://dc.lft.to/lastmile_qr_scan", "ios": "https://dc.lft.to/lastmile_qr_scan"}, "name": "4d63e7d25f1b8dec5c02d9fc9cf0bbd4", "type": "electric_scooter", "lat": 38.9087735, "is_disabled": 0}, {"fusion_lat": 0.0, "lon": -77.021921, "is_reserved": 0, "bike_id": "518708b0f67ef35502bc3c0dd778ba0a", "fusion_lon": 0.0, "rental_uris": {"android": "https://dc.lft.to/lastmile_qr_scan", "ios": "https://dc.lft.to/lastmile_qr_scan"}, "name": "518708b0f67ef35502bc3c0dd778ba0a", "type": "electric_scooter", "lat": 38.911324666666665, "is_disabled": 0}, {"fusion_lat": 0.0, "lon": -76.95756816666666, "is_reserved": 0, "bike_id": "dffcaef249ced5c54edff7acb9f6f4e7", "fusion_lon": 0.0, "rental_uris": {"android": "https://dc.lft.to/lastmile_qr_scan", "ios": "https://dc.lft.to/lastmile_qr_scan"}, "name": "dffcaef249ced5c54edff7acb9f6f4e7", "type": "electric_scooter", "lat": 38.88432133333333, "is_disabled": 0}, {"fusion_lat": 0.0, "lon": -76.98263516666667, "is_reserved": 0, "bike_id": "8beef58618d67be257c007f3e87f53b7", "fusion_lon": 0.0, "rental_uris": {"android": "https://dc.lft.to/lastmile_qr_scan", "ios": "https://dc.lft.to/lastmile_qr_scan"}, "name": "8beef58618d67be257c007f3e87f53b7", "type": "electric_scooter", "lat": 38.8853215, "is_disabled": 0}, {"fusion_lat": 0.0, "lon": -77.03438216666666, "is_reserved": 0, "bike_id": "522d6dd6dc9b824ad422dcb2a3735f04", "fusion_lon": 0.0, "rental_uris": {"android": "https://dc.lft.to/lastmile_qr_scan", "ios": "https://dc.lft.to/lastmile_qr_scan"}, "name": "522d6dd6dc9b824ad422dcb2a3735f04", "type": "electric_scooter", "lat": 38.910137166666665, "is_disabled": 0}, {"fusion_lat": 0.0, "lon": -77.02446633333334, "is_reserved": 0, "bike_id": "c2a9446153e94c426056a709916c678d", "fusion_lon": 0.0, "rental_uris": {"android": "https://dc.lft.to/lastmile_qr_scan", "ios": "https://dc.lft.to/lastmile_qr_scan"}, "name": "c2a9446153e94c426056a709916c678d", "type": "electric_scooter", "lat": 38.9240995, "is_disabled": 0}, {"fusion_lat": 0.0, "lon": -77.0374575, "is_reserved": 0, "bike_id": "32ca835222fcf403dcb790fe0a3d8f5e", "fusion_lon": 0.0, "rental_uris": {"android": "https://dc.lft.to/lastmile_qr_scan", "ios": "https://dc.lft.to/lastmile_qr_scan"}, "name": "32ca835222fcf403dcb790fe0a3d8f5e", "type": "electric_scooter", "lat": 38.922132833333336, "is_disabled": 0}, {"fusion_lat": 0.0, "lon": -76.9977725, "is_reserved": 0, "bike_id": "8e2df9111454250bd028d9143e329794", "fusion_lon": 0.0, "rental_uris": {"android": "https://dc.lft.to/lastmile_qr_scan", "ios": "https://dc.lft.to/lastmile_qr_scan"}, "name": "8e2df9111454250bd028d9143e329794", "type": "electric_scooter", "lat": 38.84431516666667, "is_disabled": 0}, {"fusion_lat": 0.0, "lon": -77.02692916666666, "is_reserved": 0, "bike_id": "ff00f9e17d5fb07a4af468493aac69d3", "fusion_lon": 0.0, "rental_uris": {"android": "https://dc.lft.to/lastmile_qr_scan", "ios": "https://dc.lft.to/lastmile_qr_scan"}, "name": "ff00f9e17d5fb07a4af468493aac69d3", "type": "electric_scooter", "lat": 38.89579116666667, "is_disabled": 0}, {"fusion_lat": 0.0, "lon": -77.04142483333334, "is_reserved": 0, "bike_id": "0c212ff9777b0e279a6cd9ae7a3d4a04", "fusion_lon": 0.0, "rental_uris": {"android": "https://dc.lft.to/lastmile_qr_scan", "ios": "https://dc.lft.to/lastmile_qr_scan"}, "name": "0c212ff9777b0e279a6cd9ae7a3d4a04", "type": "electric_scooter", "lat": 38.8922095, "is_disabled": 0}, {"fusion_lat": 0.0, "lon": -76.99419433333334, "is_reserved": 0, "bike_id": "dfefddbd194693c0ba2c1fc8decc5ba6", "fusion_lon": 0.0, "rental_uris": {"android": "https://dc.lft.to/lastmile_qr_scan", "ios": "https://dc.lft.to/lastmile_qr_scan"}, "name": "dfefddbd194693c0ba2c1fc8decc5ba6", "type": "electric_scooter", "lat": 38.92107083333333, "is_disabled": 0}, {"fusion_lat": 0.0, "lon": -77.04451616666667, "is_reserved": 0, "bike_id": "a51982c1c462459b9eb16bf5d3602366", "fusion_lon": 0.0, "rental_uris": {"android": "https://dc.lft.to/lastmile_qr_scan", "ios": "https://dc.lft.to/lastmile_qr_scan"}, "name": "a51982c1c462459b9eb16bf5d3602366", "type": "electric_scooter", "lat": 38.908351333333336, "is_disabled": 0}, {"fusion_lat": 0.0, "lon": -77.0392825, "is_reserved": 0, "bike_id": "19dfa36d7c16fea85cc36a5d656a3ed8", "fusion_lon": 0.0, "rental_uris": {"android": "https://dc.lft.to/lastmile_qr_scan", "ios": "https://dc.lft.to/lastmile_qr_scan"}, "name": "19dfa36d7c16fea85cc36a5d656a3ed8", "type": "electric_scooter", "lat": 38.92488766666666, "is_disabled": 0}, {"fusion_lat": 0.0, "lon": -77.00958233333333, "is_reserved": 0, "bike_id": "9451d882ba3c2091dc7e5fdae08722cd", "fusion_lon": 0.0, "rental_uris": {"android": "https://dc.lft.to/lastmile_qr_scan", "ios": "https://dc.lft.to/lastmile_qr_scan"}, "name": "9451d882ba3c2091dc7e5fdae08722cd", "type": "electric_scooter", "lat": 38.90781966666667, "is_disabled": 0}, {"fusion_lat": 0.0, "lon": -77.0254825, "is_reserved": 0, "bike_id": "4accf8a3b1f88e8b96f46127be3f4631", "fusion_lon": 0.0, "rental_uris": {"android": "https://dc.lft.to/lastmile_qr_scan", "ios": "https://dc.lft.to/lastmile_qr_scan"}, "name": "4accf8a3b1f88e8b96f46127be3f4631", "type": "electric_scooter", "lat": 38.9247325, "is_disabled": 0}, {"fusion_lat": 0.0, "lon": -76.9895715, "is_reserved": 0, "bike_id": "aa42af51a1026d8f6d491805e574d82b", "fusion_lon": 0.0, "rental_uris": {"android": "https://dc.lft.to/lastmile_qr_scan", "ios": "https://dc.lft.to/lastmile_qr_scan"}, "name": "aa42af51a1026d8f6d491805e574d82b", "type": "electric_scooter", "lat": 38.9003275, "is_disabled": 0}, {"fusion_lat": 0.0, "lon": -77.0215665, "is_reserved": 0, "bike_id": "dd3a3a9143c655368bbd15fcf938657f", "fusion_lon": 0.0, "rental_uris": {"android": "https://dc.lft.to/lastmile_qr_scan", "ios": "https://dc.lft.to/lastmile_qr_scan"}, "name": "dd3a3a9143c655368bbd15fcf938657f", "type": "electric_scooter", "lat": 38.926110666666666, "is_disabled": 0}, {"fusion_lat": 0.0, "lon": -77.04988716666666, "is_reserved": 0, "bike_id": "6a1fdd3f1842f4b34c307dcedd123bce", "fusion_lon": 0.0, "rental_uris": {"android": "https://dc.lft.to/lastmile_qr_scan", "ios": "https://dc.lft.to/lastmile_qr_scan"}, "name": "6a1fdd3f1842f4b34c307dcedd123bce", "type": "electric_scooter", "lat": 38.8973005, "is_disabled": 0}, {"fusion_lat": 0.0, "lon": -77.03352333333333, "is_reserved": 0, "bike_id": "491dca02a9859305b7f2eb61eb3ff83e", "fusion_lon": 0.0, "rental_uris": {"android": "https://dc.lft.to/lastmile_qr_scan", "ios": "https://dc.lft.to/lastmile_qr_scan"}, "name": "491dca02a9859305b7f2eb61eb3ff83e", "type": "electric_scooter", "lat": 38.8984205, "is_disabled": 0}, {"fusion_lat": 0.0, "lon": -77.033093, "is_reserved": 0, "bike_id": "0bb80ac164ad3c7ebe75fef22be33fd6", "fusion_lon": 0.0, "rental_uris": {"android": "https://dc.lft.to/lastmile_qr_scan", "ios": "https://dc.lft.to/lastmile_qr_scan"}, "name": "0bb80ac164ad3c7ebe75fef22be33fd6", "type": "electric_scooter", "lat": 38.95615033333333, "is_disabled": 0}, {"fusion_lat": 0.0, "lon": -77.02406333333333, "is_reserved": 0, "bike_id": "6610fb1234258873f621f082b9e56c0e", "fusion_lon": 0.0, "rental_uris": {"android": "https://dc.lft.to/lastmile_qr_scan", "ios": "https://dc.lft.to/lastmile_qr_scan"}, "name": "6610fb1234258873f621f082b9e56c0e", "type": "electric_scooter", "lat": 38.91521783333334, "is_disabled": 0}, {"fusion_lat": 0.0, "lon": -76.991408, "is_reserved": 0, "bike_id": "e3560bd43462690f1d9e90cec1d1fefc", "fusion_lon": 0.0, "rental_uris": {"android": "https://dc.lft.to/lastmile_qr_scan", "ios": "https://dc.lft.to/lastmile_qr_scan"}, "name": "e3560bd43462690f1d9e90cec1d1fefc", "type": "electric_scooter", "lat": 38.9011045, "is_disabled": 0}, {"fusion_lat": 0.0, "lon": -77.12526333333334, "is_reserved": 0, "bike_id": "0451cc5b57b287a169f23085206cc902", "fusion_lon": 0.0, "rental_uris": {"android": "https://dc.lft.to/lastmile_qr_scan", "ios": "https://dc.lft.to/lastmile_qr_scan"}, "name": "0451cc5b57b287a169f23085206cc902", "type": "electric_bike", "lat": 39.0563305, "is_disabled": 0}, {"fusion_lat": 0.0, "lon": -77.07511233333334, "is_reserved": 0, "bike_id": "02ee77177f6512965b95c060185e3f16", "fusion_lon": 0.0, "rental_uris": {"android": "https://dc.lft.to/lastmile_qr_scan", "ios": "https://dc.lft.to/lastmile_qr_scan"}, "name": "02ee77177f6512965b95c060185e3f16", "type": "electric_scooter", "lat": 38.89479883333333, "is_disabled": 0}, {"fusion_lat": 0.0, "lon": -77.05116416666667, "is_reserved": 0, "bike_id": "726db2bf906f5daa07b97a7a851dd137", "fusion_lon": 0.0, "rental_uris": {"android": "https://dc.lft.to/lastmile_qr_scan", "ios": "https://dc.lft.to/lastmile_qr_scan"}, "name": "726db2bf906f5daa07b97a7a851dd137", "type": "electric_scooter", "lat": 38.923438, "is_disabled": 0}, {"fusion_lat": 0.0, "lon": -76.976228, "is_reserved": 0, "bike_id": "37217ad136428440917e3cfe86f86d72", "fusion_lon": 0.0, "rental_uris": {"android": "https://dc.lft.to/lastmile_qr_scan", "ios": "https://dc.lft.to/lastmile_qr_scan"}, "name": "37217ad136428440917e3cfe86f86d72", "type": "electric_scooter", "lat": 38.90571383333333, "is_disabled": 0}, {"fusion_lat": 0.0, "lon": -76.9854535, "is_reserved": 0, "bike_id": "118998e5f0ccd35fb93b3b7f83c4651a", "fusion_lon": 0.0, "rental_uris": {"android": "https://dc.lft.to/lastmile_qr_scan", "ios": "https://dc.lft.to/lastmile_qr_scan"}, "name": "118998e5f0ccd35fb93b3b7f83c4651a", "type": "electric_scooter", "lat": 38.910277666666666, "is_disabled": 0}, {"fusion_lat": 0.0, "lon": -77.03278666666667, "is_reserved": 0, "bike_id": "0bf97f2095c56a2d55429ff7f14c923c", "fusion_lon": 0.0, "rental_uris": {"android": "https://dc.lft.to/lastmile_qr_scan", "ios": "https://dc.lft.to/lastmile_qr_scan"}, "name": "0bf97f2095c56a2d55429ff7f14c923c", "type": "electric_scooter", "lat": 38.90292683333333, "is_disabled": 0}, {"fusion_lat": 0.0, "lon": -77.02281266666667, "is_reserved": 0, "bike_id": "65d7c7bb1761157d31eeb64ce9c5ad06", "fusion_lon": 0.0, "rental_uris": {"android": "https://dc.lft.to/lastmile_qr_scan", "ios": "https://dc.lft.to/lastmile_qr_scan"}, "name": "65d7c7bb1761157d31eeb64ce9c5ad06", "type": "electric_scooter", "lat": 38.894976, "is_disabled": 0}, {"fusion_lat": 0.0, "lon": -76.99922933333333, "is_reserved": 0, "bike_id": "9424d260fb54b00eb412b1fad694f37d", "fusion_lon": 0.0, "rental_uris": {"android": "https://dc.lft.to/lastmile_qr_scan", "ios": "https://dc.lft.to/lastmile_qr_scan"}, "name": "9424d260fb54b00eb412b1fad694f37d", "type": "electric_scooter", "lat": 38.9077485, "is_disabled": 0}, {"fusion_lat": 0.0, "lon": -77.0300605, "is_reserved": 0, "bike_id": "b031469aabe4839c3d9d2d24064fef74", "fusion_lon": 0.0, "rental_uris": {"android": "https://dc.lft.to/lastmile_qr_scan", "ios": "https://dc.lft.to/lastmile_qr_scan"}, "name": "b031469aabe4839c3d9d2d24064fef74", "type": "electric_scooter", "lat": 38.920437666666665, "is_disabled": 0}, {"fusion_lat": 0.0, "lon": -77.031773, "is_reserved": 0, "bike_id": "3686daa5ac207c9cee8d25dafdbac899", "fusion_lon": 0.0, "rental_uris": {"android": "https://dc.lft.to/lastmile_qr_scan", "ios": "https://dc.lft.to/lastmile_qr_scan"}, "name": "3686daa5ac207c9cee8d25dafdbac899", "type": "electric_scooter", "lat": 38.918062166666665, "is_disabled": 0}, {"fusion_lat": 0.0, "lon": -76.976386, "is_reserved": 0, "bike_id": "5d3d4f8a63347a29f038b7732779c123", "fusion_lon": 0.0, "rental_uris": {"android": "https://dc.lft.to/lastmile_qr_scan", "ios": "https://dc.lft.to/lastmile_qr_scan"}, "name": "5d3d4f8a63347a29f038b7732779c123", "type": "electric_scooter", "lat": 38.86455733333333, "is_disabled": 0}, {"fusion_lat": 0.0, "lon": -77.03830266666667, "is_reserved": 0, "bike_id": "3c1f7bec5f9383c52d7b5fa825142f21", "fusion_lon": 0.0, "rental_uris": {"android": "https://dc.lft.to/lastmile_qr_scan", "ios": "https://dc.lft.to/lastmile_qr_scan"}, "name": "3c1f7bec5f9383c52d7b5fa825142f21", "type": "electric_scooter", "lat": 38.911155, "is_disabled": 0}, {"fusion_lat": 0.0, "lon": -76.95752883333333, "is_reserved": 0, "bike_id": "fd8b62bad54e2e833581e72e86118030", "fusion_lon": 0.0, "rental_uris": {"android": "https://dc.lft.to/lastmile_qr_scan", "ios": "https://dc.lft.to/lastmile_qr_scan"}, "name": "fd8b62bad54e2e833581e72e86118030", "type": "electric_scooter", "lat": 38.884267, "is_disabled": 0}, {"fusion_lat": 0.0, "lon": -77.03703883333333, "is_reserved": 0, "bike_id": "eb3eb6a77bd3c3cf7ea0c8ed1dae8bdd", "fusion_lon": 0.0, "rental_uris": {"android": "https://dc.lft.to/lastmile_qr_scan", "ios": "https://dc.lft.to/lastmile_qr_scan"}, "name": "eb3eb6a77bd3c3cf7ea0c8ed1dae8bdd", "type": "electric_scooter", "lat": 38.9263485, "is_disabled": 0}, {"fusion_lat": 0.0, "lon": -76.99507683333333, "is_reserved": 0, "bike_id": "a182d833171d3e1356c75560ef06b59f", "fusion_lon": 0.0, "rental_uris": {"android": "https://dc.lft.to/lastmile_qr_scan", "ios": "https://dc.lft.to/lastmile_qr_scan"}, "name": "a182d833171d3e1356c75560ef06b59f", "type": "electric_scooter", "lat": 38.897277, "is_disabled": 0}, {"fusion_lat": 0.0, "lon": -77.03882266666666, "is_reserved": 0, "bike_id": "6191fa85afae84857c37a29b1330ef78", "fusion_lon": 0.0, "rental_uris": {"android": "https://dc.lft.to/lastmile_qr_scan", "ios": "https://dc.lft.to/lastmile_qr_scan"}, "name": "6191fa85afae84857c37a29b1330ef78", "type": "electric_scooter", "lat": 38.91008216666667, "is_disabled": 0}, {"fusion_lat": 0.0, "lon": -77.009232, "is_reserved": 0, "bike_id": "d60e949a1b0153b3e071f0055be3f9fe", "fusion_lon": 0.0, "rental_uris": {"android": "https://dc.lft.to/lastmile_qr_scan", "ios": "https://dc.lft.to/lastmile_qr_scan"}, "name": "d60e949a1b0153b3e071f0055be3f9fe", "type": "electric_scooter", "lat": 38.89603733333333, "is_disabled": 0}, {"fusion_lat": 0.0, "lon": -76.99502166666667, "is_reserved": 0, "bike_id": "48fbd98b047962daa62c4981ff25d9e7", "fusion_lon": 0.0, "rental_uris": {"android": "https://dc.lft.to/lastmile_qr_scan", "ios": "https://dc.lft.to/lastmile_qr_scan"}, "name": "48fbd98b047962daa62c4981ff25d9e7", "type": "electric_scooter", "lat": 38.882572333333336, "is_disabled": 0}, {"fusion_lat": 0.0, "lon": -77.05320933333333, "is_reserved": 0, "bike_id": "1fa2c3e98b60a01d211ffaa61bb06c6b", "fusion_lon": 0.0, "rental_uris": {"android": "https://dc.lft.to/lastmile_qr_scan", "ios": "https://dc.lft.to/lastmile_qr_scan"}, "name": "1fa2c3e98b60a01d211ffaa61bb06c6b", "type": "electric_scooter", "lat": 38.91549466666667, "is_disabled": 0}, {"fusion_lat": 0.0, "lon": -76.98009483333334, "is_reserved": 0, "bike_id": "edb7e6da6f3c63e36f201513ac41972b", "fusion_lon": 0.0, "rental_uris": {"android": "https://dc.lft.to/lastmile_qr_scan", "ios": "https://dc.lft.to/lastmile_qr_scan"}, "name": "edb7e6da6f3c63e36f201513ac41972b", "type": "electric_bike", "lat": 38.85317633333333, "is_disabled": 0}, {"fusion_lat": 0.0, "lon": -77.07701033333333, "is_reserved": 0, "bike_id": "4079329dea9593b9105b50c958d0ed21", "fusion_lon": 0.0, "rental_uris": {"android": "https://dc.lft.to/lastmile_qr_scan", "ios": "https://dc.lft.to/lastmile_qr_scan"}, "name": "4079329dea9593b9105b50c958d0ed21", "type": "electric_bike", "lat": 38.84089433333333, "is_disabled": 0}, {"fusion_lat": 0.0, "lon": -77.04322983333333, "is_reserved": 0, "bike_id": "fd60f26ccc2cf75b967fb929bfbd874f", "fusion_lon": 0.0, "rental_uris": {"android": "https://dc.lft.to/lastmile_qr_scan", "ios": "https://dc.lft.to/lastmile_qr_scan"}, "name": "fd60f26ccc2cf75b967fb929bfbd874f", "type": "electric_scooter", "lat": 38.892246666666665, "is_disabled": 0}, {"fusion_lat": 0.0, "lon": -77.04331583333334, "is_reserved": 0, "bike_id": "53834ba3f0ee2b523fcb37973c584dbf", "fusion_lon": 0.0, "rental_uris": {"android": "https://dc.lft.to/lastmile_qr_scan", "ios": "https://dc.lft.to/lastmile_qr_scan"}, "name": "53834ba3f0ee2b523fcb37973c584dbf", "type": "electric_scooter", "lat": 38.90331583333333, "is_disabled": 0}, {"fusion_lat": 0.0, "lon": -77.03777966666667, "is_reserved": 0, "bike_id": "31372fd1703218e5f0d1bfbb23cb92d0", "fusion_lon": 0.0, "rental_uris": {"android": "https://dc.lft.to/lastmile_qr_scan", "ios": "https://dc.lft.to/lastmile_qr_scan"}, "name": "31372fd1703218e5f0d1bfbb23cb92d0", "type": "electric_scooter", "lat": 38.90704616666667, "is_disabled": 0}, {"fusion_lat": 0.0, "lon": -77.06072283333333, "is_reserved": 0, "bike_id": "648a70f4a907232f84ea78cd3424ff82", "fusion_lon": 0.0, "rental_uris": {"android": "https://dc.lft.to/lastmile_qr_scan", "ios": "https://dc.lft.to/lastmile_qr_scan"}, "name": "648a70f4a907232f84ea78cd3424ff82", "type": "electric_bike", "lat": 38.885841666666664, "is_disabled": 0}, {"fusion_lat": 0.0, "lon": -77.035365, "is_reserved": 0, "bike_id": "999d1042c653b5c0f2d3086aaaf50542", "fusion_lon": 0.0, "rental_uris": {"android": "https://dc.lft.to/lastmile_qr_scan", "ios": "https://dc.lft.to/lastmile_qr_scan"}, "name": "999d1042c653b5c0f2d3086aaaf50542", "type": "electric_scooter", "lat": 38.924248, "is_disabled": 0}, {"fusion_lat": 0.0, "lon": -76.99528666666667, "is_reserved": 0, "bike_id": "74875606e1b98bd80ea985352f36d3f3", "fusion_lon": 0.0, "rental_uris": {"android": "https://dc.lft.to/lastmile_qr_scan", "ios": "https://dc.lft.to/lastmile_qr_scan"}, "name": "74875606e1b98bd80ea985352f36d3f3", "type": "electric_scooter", "lat": 38.877623666666665, "is_disabled": 0}, {"fusion_lat": 0.0, "lon": -77.00626933333334, "is_reserved": 0, "bike_id": "0914b79c852ecaeb28ecddace9096c23", "fusion_lon": 0.0, "rental_uris": {"android": "https://dc.lft.to/lastmile_qr_scan", "ios": "https://dc.lft.to/lastmile_qr_scan"}, "name": "0914b79c852ecaeb28ecddace9096c23", "type": "electric_scooter", "lat": 38.90819416666667, "is_disabled": 0}, {"fusion_lat": 0.0, "lon": -77.02990766666667, "is_reserved": 0, "bike_id": "7b9d6075110f634c8e030a9d996d29a9", "fusion_lon": 0.0, "rental_uris": {"android": "https://dc.lft.to/lastmile_qr_scan", "ios": "https://dc.lft.to/lastmile_qr_scan"}, "name": "7b9d6075110f634c8e030a9d996d29a9", "type": "electric_scooter", "lat": 38.905802666666666, "is_disabled": 0}, {"fusion_lat": 0.0, "lon": -77.13097933333333, "is_reserved": 0, "bike_id": "ff2c27edff61ddd4de2feae0e238371c", "fusion_lon": 0.0, "rental_uris": {"android": "https://dc.lft.to/lastmile_qr_scan", "ios": "https://dc.lft.to/lastmile_qr_scan"}, "name": "ff2c27edff61ddd4de2feae0e238371c", "type": "electric_bike", "lat": 39.02433966666667, "is_disabled": 0}, {"fusion_lat": 0.0, "lon": -76.99952483333334, "is_reserved": 0, "bike_id": "0b80d1b801b6418aee0717ce25538454", "fusion_lon": 0.0, "rental_uris": {"android": "https://dc.lft.to/lastmile_qr_scan", "ios": "https://dc.lft.to/lastmile_qr_scan"}, "name": "0b80d1b801b6418aee0717ce25538454", "type": "electric_scooter", "lat": 38.92350533333333, "is_disabled": 0}, {"fusion_lat": 0.0, "lon": -77.01937133333334, "is_reserved": 0, "bike_id": "d2a6458a3f1787a04ddba9a279edaa52", "fusion_lon": 0.0, "rental_uris": {"android": "https://dc.lft.to/lastmile_qr_scan", "ios": "https://dc.lft.to/lastmile_qr_scan"}, "name": "d2a6458a3f1787a04ddba9a279edaa52", "type": "electric_scooter", "lat": 38.949300666666666, "is_disabled": 0}, {"fusion_lat": 0.0, "lon": -77.03869233333333, "is_reserved": 0, "bike_id": "b3788eab229d458b2ec9dad3b7db6c7a", "fusion_lon": 0.0, "rental_uris": {"android": "https://dc.lft.to/lastmile_qr_scan", "ios": "https://dc.lft.to/lastmile_qr_scan"}, "name": "b3788eab229d458b2ec9dad3b7db6c7a", "type": "electric_scooter", "lat": 38.90661583333333, "is_disabled": 0}, {"fusion_lat": 0.0, "lon": -77.056235, "is_reserved": 0, "bike_id": "77f6772fccb0e447041dbfc1ef5f6a8a", "fusion_lon": 0.0, "rental_uris": {"android": "https://dc.lft.to/lastmile_qr_scan", "ios": "https://dc.lft.to/lastmile_qr_scan"}, "name": "77f6772fccb0e447041dbfc1ef5f6a8a", "type": "electric_scooter", "lat": 38.9607095, "is_disabled": 0}, {"fusion_lat": 0.0, "lon": -77.03857483333333, "is_reserved": 0, "bike_id": "9538024553263b58d9c9aa4c98a28ca5", "fusion_lon": 0.0, "rental_uris": {"android": "https://dc.lft.to/lastmile_qr_scan", "ios": "https://dc.lft.to/lastmile_qr_scan"}, "name": "9538024553263b58d9c9aa4c98a28ca5", "type": "electric_scooter", "lat": 38.915577666666664, "is_disabled": 0}, {"fusion_lat": 0.0, "lon": -77.03083933333333, "is_reserved": 0, "bike_id": "ec72f825be10bba4df4945ef4b6b687d", "fusion_lon": 0.0, "rental_uris": {"android": "https://dc.lft.to/lastmile_qr_scan", "ios": "https://dc.lft.to/lastmile_qr_scan"}, "name": "ec72f825be10bba4df4945ef4b6b687d", "type": "electric_scooter", "lat": 38.92236533333333, "is_disabled": 0}, {"fusion_lat": 0.0, "lon": -77.01840516666667, "is_reserved": 0, "bike_id": "abf89e77929274ad11a91487a77a1284", "fusion_lon": 0.0, "rental_uris": {"android": "https://dc.lft.to/lastmile_qr_scan", "ios": "https://dc.lft.to/lastmile_qr_scan"}, "name": "abf89e77929274ad11a91487a77a1284", "type": "electric_scooter", "lat": 38.949982166666665, "is_disabled": 0}, {"fusion_lat": 0.0, "lon": -77.09593716666667, "is_reserved": 0, "bike_id": "9fd7299dcc53d47f853236d115117b0f", "fusion_lon": 0.0, "rental_uris": {"android": "https://dc.lft.to/lastmile_qr_scan", "ios": "https://dc.lft.to/lastmile_qr_scan"}, "name": "9fd7299dcc53d47f853236d115117b0f", "type": "electric_bike", "lat": 39.02890683333333, "is_disabled": 0}, {"fusion_lat": 0.0, "lon": -77.002092, "is_reserved": 0, "bike_id": "f4a8aee9dd648ed36c3161bc1825db7a", "fusion_lon": 0.0, "rental_uris": {"android": "https://dc.lft.to/lastmile_qr_scan", "ios": "https://dc.lft.to/lastmile_qr_scan"}, "name": "f4a8aee9dd648ed36c3161bc1825db7a", "type": "electric_scooter", "lat": 38.90047, "is_disabled": 0}, {"fusion_lat": 0.0, "lon": -77.043224, "is_reserved": 0, "bike_id": "4efe9d9f717d00a59fd625e6001364de", "fusion_lon": 0.0, "rental_uris": {"android": "https://dc.lft.to/lastmile_qr_scan", "ios": "https://dc.lft.to/lastmile_qr_scan"}, "name": "4efe9d9f717d00a59fd625e6001364de", "type": "electric_scooter", "lat": 38.892253333333336, "is_disabled": 0}, {"fusion_lat": 0.0, "lon": -77.03471716666667, "is_reserved": 0, "bike_id": "d3988962f930224ed02bffc947970de7", "fusion_lon": 0.0, "rental_uris": {"android": "https://dc.lft.to/lastmile_qr_scan", "ios": "https://dc.lft.to/lastmile_qr_scan"}, "name": "d3988962f930224ed02bffc947970de7", "type": "electric_scooter", "lat": 38.905598833333336, "is_disabled": 0}, {"fusion_lat": 0.0, "lon": -77.007043, "is_reserved": 0, "bike_id": "6ca52e9a97e5a18eeae9a16627de1dad", "fusion_lon": 0.0, "rental_uris": {"android": "https://dc.lft.to/lastmile_qr_scan", "ios": "https://dc.lft.to/lastmile_qr_scan"}, "name": "6ca52e9a97e5a18eeae9a16627de1dad", "type": "electric_scooter", "lat": 38.90569516666667, "is_disabled": 0}, {"fusion_lat": 0.0, "lon": -77.03203083333334, "is_reserved": 0, "bike_id": "968c0a7854ed06b5d7f7941de324c864", "fusion_lon": 0.0, "rental_uris": {"android": "https://dc.lft.to/lastmile_qr_scan", "ios": "https://dc.lft.to/lastmile_qr_scan"}, "name": "968c0a7854ed06b5d7f7941de324c864", "type": "electric_scooter", "lat": 38.91786, "is_disabled": 0}, {"fusion_lat": 0.0, "lon": -77.04864933333333, "is_reserved": 0, "bike_id": "9b54c3a9ecbe0e12c7a8056fbba0f6f3", "fusion_lon": 0.0, "rental_uris": {"android": "https://dc.lft.to/lastmile_qr_scan", "ios": "https://dc.lft.to/lastmile_qr_scan"}, "name": "9b54c3a9ecbe0e12c7a8056fbba0f6f3", "type": "electric_scooter", "lat": 38.90119933333333, "is_disabled": 0}, {"fusion_lat": 0.0, "lon": -77.03645416666667, "is_reserved": 0, "bike_id": "51597a4dc1d6ad911e635ea1982fd8da", "fusion_lon": 0.0, "rental_uris": {"android": "https://dc.lft.to/lastmile_qr_scan", "ios": "https://dc.lft.to/lastmile_qr_scan"}, "name": "51597a4dc1d6ad911e635ea1982fd8da", "type": "electric_scooter", "lat": 38.9211225, "is_disabled": 0}, {"fusion_lat": 0.0, "lon": -77.02797366666667, "is_reserved": 0, "bike_id": "1c13ea134f259b1b45231d177320ae5b", "fusion_lon": 0.0, "rental_uris": {"android": "https://dc.lft.to/lastmile_qr_scan", "ios": "https://dc.lft.to/lastmile_qr_scan"}, "name": "1c13ea134f259b1b45231d177320ae5b", "type": "electric_scooter", "lat": 38.9097935, "is_disabled": 0}, {"fusion_lat": 0.0, "lon": -77.0423925, "is_reserved": 0, "bike_id": "a2fdf568b541dc3f6c09274cd07b278d", "fusion_lon": 0.0, "rental_uris": {"android": "https://dc.lft.to/lastmile_qr_scan", "ios": "https://dc.lft.to/lastmile_qr_scan"}, "name": "a2fdf568b541dc3f6c09274cd07b278d", "type": "electric_scooter", "lat": 38.916934833333336, "is_disabled": 0}, {"fusion_lat": 0.0, "lon": -76.98102866666666, "is_reserved": 0, "bike_id": "82099e92c747b694a6f2b6dd3e291c68", "fusion_lon": 0.0, "rental_uris": {"android": "https://dc.lft.to/lastmile_qr_scan", "ios": "https://dc.lft.to/lastmile_qr_scan"}, "name": "82099e92c747b694a6f2b6dd3e291c68", "type": "electric_scooter", "lat": 38.903913, "is_disabled": 0}, {"fusion_lat": 0.0, "lon": -77.046447, "is_reserved": 0, "bike_id": "730eb61961c6e9d9b6efc2a6dfa560f1", "fusion_lon": 0.0, "rental_uris": {"android": "https://dc.lft.to/lastmile_qr_scan", "ios": "https://dc.lft.to/lastmile_qr_scan"}, "name": "730eb61961c6e9d9b6efc2a6dfa560f1", "type": "electric_scooter", "lat": 38.903310833333336, "is_disabled": 0}, {"fusion_lat": 0.0, "lon": -76.98513883333334, "is_reserved": 0, "bike_id": "2b5958d5f9477ca90a0bf44520f69332", "fusion_lon": 0.0, "rental_uris": {"android": "https://dc.lft.to/lastmile_qr_scan", "ios": "https://dc.lft.to/lastmile_qr_scan"}, "name": "2b5958d5f9477ca90a0bf44520f69332", "type": "electric_scooter", "lat": 38.86654133333333, "is_disabled": 0}, {"fusion_lat": 0.0, "lon": -77.0276565, "is_reserved": 0, "bike_id": "629552a82cfbbb0b874fa5e6bf322440", "fusion_lon": 0.0, "rental_uris": {"android": "https://dc.lft.to/lastmile_qr_scan", "ios": "https://dc.lft.to/lastmile_qr_scan"}, "name": "629552a82cfbbb0b874fa5e6bf322440", "type": "electric_scooter", "lat": 38.929795166666665, "is_disabled": 0}, {"fusion_lat": 0.0, "lon": -76.99010133333333, "is_reserved": 0, "bike_id": "30d1adaf29ff275bea0ef7879797a194", "fusion_lon": 0.0, "rental_uris": {"android": "https://dc.lft.to/lastmile_qr_scan", "ios": "https://dc.lft.to/lastmile_qr_scan"}, "name": "30d1adaf29ff275bea0ef7879797a194", "type": "electric_scooter", "lat": 38.88180933333334, "is_disabled": 0}, {"fusion_lat": 0.0, "lon": -77.00062933333334, "is_reserved": 0, "bike_id": "7e754efbdc1ab29456d6998b367d9fc5", "fusion_lon": 0.0, "rental_uris": {"android": "https://dc.lft.to/lastmile_qr_scan", "ios": "https://dc.lft.to/lastmile_qr_scan"}, "name": "7e754efbdc1ab29456d6998b367d9fc5", "type": "electric_scooter", "lat": 38.899812, "is_disabled": 0}, {"fusion_lat": 0.0, "lon": -77.02506116666666, "is_reserved": 0, "bike_id": "b81de3a1bf0f2a148852bb4bc8fa04e9", "fusion_lon": 0.0, "rental_uris": {"android": "https://dc.lft.to/lastmile_qr_scan", "ios": "https://dc.lft.to/lastmile_qr_scan"}, "name": "b81de3a1bf0f2a148852bb4bc8fa04e9", "type": "electric_scooter", "lat": 38.92107383333333, "is_disabled": 0}, {"fusion_lat": 0.0, "lon": -77.032737, "is_reserved": 0, "bike_id": "9cfdd09ecb3dcc69c6e1397a6e213eb2", "fusion_lon": 0.0, "rental_uris": {"android": "https://dc.lft.to/lastmile_qr_scan", "ios": "https://dc.lft.to/lastmile_qr_scan"}, "name": "9cfdd09ecb3dcc69c6e1397a6e213eb2", "type": "electric_scooter", "lat": 38.92838316666667, "is_disabled": 0}, {"fusion_lat": 0.0, "lon": -76.98792133333333, "is_reserved": 0, "bike_id": "efaf7ceff0405f33bab55e14c91fbe0b", "fusion_lon": 0.0, "rental_uris": {"android": "https://dc.lft.to/lastmile_qr_scan", "ios": "https://dc.lft.to/lastmile_qr_scan"}, "name": "efaf7ceff0405f33bab55e14c91fbe0b", "type": "electric_bike", "lat": 38.90608683333333, "is_disabled": 0}, {"fusion_lat": 0.0, "lon": -77.00187433333333, "is_reserved": 0, "bike_id": "38cf3ff863f9ab2871da99770a6d955c", "fusion_lon": 0.0, "rental_uris": {"android": "https://dc.lft.to/lastmile_qr_scan", "ios": "https://dc.lft.to/lastmile_qr_scan"}, "name": "38cf3ff863f9ab2871da99770a6d955c", "type": "electric_scooter", "lat": 38.9038105, "is_disabled": 0}, {"fusion_lat": 0.0, "lon": -77.03128666666667, "is_reserved": 0, "bike_id": "d908b17a3ce9f48af7a3811ce70233f2", "fusion_lon": 0.0, "rental_uris": {"android": "https://dc.lft.to/lastmile_qr_scan", "ios": "https://dc.lft.to/lastmile_qr_scan"}, "name": "d908b17a3ce9f48af7a3811ce70233f2", "type": "electric_scooter", "lat": 38.91495833333333, "is_disabled": 0}, {"fusion_lat": 0.0, "lon": -76.9575495, "is_reserved": 0, "bike_id": "141703161dccbe22bef40c9fe0a268a8", "fusion_lon": 0.0, "rental_uris": {"android": "https://dc.lft.to/lastmile_qr_scan", "ios": "https://dc.lft.to/lastmile_qr_scan"}, "name": "141703161dccbe22bef40c9fe0a268a8", "type": "electric_scooter", "lat": 38.8843445, "is_disabled": 0}, {"fusion_lat": 0.0, "lon": -77.04709966666667, "is_reserved": 0, "bike_id": "589f7aa75a8ded049e9a86471da8db09", "fusion_lon": 0.0, "rental_uris": {"android": "https://dc.lft.to/lastmile_qr_scan", "ios": "https://dc.lft.to/lastmile_qr_scan"}, "name": "589f7aa75a8ded049e9a86471da8db09", "type": "electric_scooter", "lat": 38.92230633333333, "is_disabled": 0}, {"fusion_lat": 0.0, "lon": -76.95126766666667, "is_reserved": 0, "bike_id": "c8f93e5c67948ccc0e5ca7cfbe31352d", "fusion_lon": 0.0, "rental_uris": {"android": "https://dc.lft.to/lastmile_qr_scan", "ios": "https://dc.lft.to/lastmile_qr_scan"}, "name": "c8f93e5c67948ccc0e5ca7cfbe31352d", "type": "electric_scooter", "lat": 38.8902905, "is_disabled": 0}, {"fusion_lat": 0.0, "lon": -77.04995233333334, "is_reserved": 0, "bike_id": "ec47e876d317508d759491630aa08649", "fusion_lon": 0.0, "rental_uris": {"android": "https://dc.lft.to/lastmile_qr_scan", "ios": "https://dc.lft.to/lastmile_qr_scan"}, "name": "ec47e876d317508d759491630aa08649", "type": "electric_scooter", "lat": 38.892280666666665, "is_disabled": 0}, {"fusion_lat": 0.0, "lon": -77.00735166666666, "is_reserved": 0, "bike_id": "3eaab40377daaa5b0c8b4e606dc3179a", "fusion_lon": 0.0, "rental_uris": {"android": "https://dc.lft.to/lastmile_qr_scan", "ios": "https://dc.lft.to/lastmile_qr_scan"}, "name": "3eaab40377daaa5b0c8b4e606dc3179a", "type": "electric_scooter", "lat": 38.92544016666667, "is_disabled": 0}, {"fusion_lat": 0.0, "lon": -77.0501235, "is_reserved": 0, "bike_id": "8dad6e028066d08639d3db2182b7ec9d", "fusion_lon": 0.0, "rental_uris": {"android": "https://dc.lft.to/lastmile_qr_scan", "ios": "https://dc.lft.to/lastmile_qr_scan"}, "name": "8dad6e028066d08639d3db2182b7ec9d", "type": "electric_scooter", "lat": 38.90288616666667, "is_disabled": 0}, {"fusion_lat": 0.0, "lon": -77.0364365, "is_reserved": 0, "bike_id": "3e9503bf48d4815b538b26e5c025f067", "fusion_lon": 0.0, "rental_uris": {"android": "https://dc.lft.to/lastmile_qr_scan", "ios": "https://dc.lft.to/lastmile_qr_scan"}, "name": "3e9503bf48d4815b538b26e5c025f067", "type": "electric_scooter", "lat": 38.922666166666666, "is_disabled": 0}, {"fusion_lat": 0.0, "lon": -77.02166366666667, "is_reserved": 0, "bike_id": "fb5b558e2b8163885180d5ffba2b2de6", "fusion_lon": 0.0, "rental_uris": {"android": "https://dc.lft.to/lastmile_qr_scan", "ios": "https://dc.lft.to/lastmile_qr_scan"}, "name": "fb5b558e2b8163885180d5ffba2b2de6", "type": "electric_scooter", "lat": 38.916085, "is_disabled": 0}, {"fusion_lat": 0.0, "lon": -76.94944933333333, "is_reserved": 0, "bike_id": "5b5aa5c2f2356acb7544da0b0a4bd114", "fusion_lon": 0.0, "rental_uris": {"android": "https://dc.lft.to/lastmile_qr_scan", "ios": "https://dc.lft.to/lastmile_qr_scan"}, "name": "5b5aa5c2f2356acb7544da0b0a4bd114", "type": "electric_scooter", "lat": 38.905014, "is_disabled": 0}, {"fusion_lat": 0.0, "lon": -77.0294665, "is_reserved": 0, "bike_id": "9159ef2c4234b8462c7d50607ababf1e", "fusion_lon": 0.0, "rental_uris": {"android": "https://dc.lft.to/lastmile_qr_scan", "ios": "https://dc.lft.to/lastmile_qr_scan"}, "name": "9159ef2c4234b8462c7d50607ababf1e", "type": "electric_scooter", "lat": 38.928576, "is_disabled": 0}, {"fusion_lat": 0.0, "lon": -77.02489116666666, "is_reserved": 0, "bike_id": "42382d46b3607797223e4b732fc18a53", "fusion_lon": 0.0, "rental_uris": {"android": "https://dc.lft.to/lastmile_qr_scan", "ios": "https://dc.lft.to/lastmile_qr_scan"}, "name": "42382d46b3607797223e4b732fc18a53", "type": "electric_scooter", "lat": 38.941826, "is_disabled": 0}, {"fusion_lat": 0.0, "lon": -77.03933933333333, "is_reserved": 0, "bike_id": "667c3ba31d72a00155dffa1621416a46", "fusion_lon": 0.0, "rental_uris": {"android": "https://dc.lft.to/lastmile_qr_scan", "ios": "https://dc.lft.to/lastmile_qr_scan"}, "name": "667c3ba31d72a00155dffa1621416a46", "type": "electric_scooter", "lat": 38.917574, "is_disabled": 0}, {"fusion_lat": 0.0, "lon": -77.03783216666666, "is_reserved": 0, "bike_id": "f824d408fda4d77ad180f72618d9fe16", "fusion_lon": 0.0, "rental_uris": {"android": "https://dc.lft.to/lastmile_qr_scan", "ios": "https://dc.lft.to/lastmile_qr_scan"}, "name": "f824d408fda4d77ad180f72618d9fe16", "type": "electric_scooter", "lat": 38.9220905, "is_disabled": 0}, {"fusion_lat": 0.0, "lon": -77.02662966666666, "is_reserved": 0, "bike_id": "27bb4ce3900120a0c8be7cf2771d839c", "fusion_lon": 0.0, "rental_uris": {"android": "https://dc.lft.to/lastmile_qr_scan", "ios": "https://dc.lft.to/lastmile_qr_scan"}, "name": "27bb4ce3900120a0c8be7cf2771d839c", "type": "electric_scooter", "lat": 38.930996666666665, "is_disabled": 0}, {"fusion_lat": 0.0, "lon": -77.00395733333333, "is_reserved": 0, "bike_id": "36fd4b1bbd2f437b042eb13e5981b03c", "fusion_lon": 0.0, "rental_uris": {"android": "https://dc.lft.to/lastmile_qr_scan", "ios": "https://dc.lft.to/lastmile_qr_scan"}, "name": "36fd4b1bbd2f437b042eb13e5981b03c", "type": "electric_bike", "lat": 38.985431, "is_disabled": 0}, {"fusion_lat": 0.0, "lon": -76.962319, "is_reserved": 0, "bike_id": "033d507f59ac71f9f280f61859fb8c61", "fusion_lon": 0.0, "rental_uris": {"android": "https://dc.lft.to/lastmile_qr_scan", "ios": "https://dc.lft.to/lastmile_qr_scan"}, "name": "033d507f59ac71f9f280f61859fb8c61", "type": "electric_scooter", "lat": 38.877628333333334, "is_disabled": 0}, {"fusion_lat": 0.0, "lon": -77.07376516666666, "is_reserved": 0, "bike_id": "de39677cc9f1e733d16eb595be7644f2", "fusion_lon": 0.0, "rental_uris": {"android": "https://dc.lft.to/lastmile_qr_scan", "ios": "https://dc.lft.to/lastmile_qr_scan"}, "name": "de39677cc9f1e733d16eb595be7644f2", "type": "electric_bike", "lat": 38.96196033333333, "is_disabled": 0}, {"fusion_lat": 0.0, "lon": -77.03868116666666, "is_reserved": 0, "bike_id": "29eb28bcb7f5aab4370356d8277c80ab", "fusion_lon": 0.0, "rental_uris": {"android": "https://dc.lft.to/lastmile_qr_scan", "ios": "https://dc.lft.to/lastmile_qr_scan"}, "name": "29eb28bcb7f5aab4370356d8277c80ab", "type": "electric_scooter", "lat": 38.921532666666664, "is_disabled": 0}, {"fusion_lat": 0.0, "lon": -77.01205233333333, "is_reserved": 0, "bike_id": "cfa2cbe974e3ade4f463667ace65bc43", "fusion_lon": 0.0, "rental_uris": {"android": "https://dc.lft.to/lastmile_qr_scan", "ios": "https://dc.lft.to/lastmile_qr_scan"}, "name": "cfa2cbe974e3ade4f463667ace65bc43", "type": "electric_scooter", "lat": 38.91832866666667, "is_disabled": 0}, {"fusion_lat": 0.0, "lon": -76.99762766666667, "is_reserved": 0, "bike_id": "95a26a8fd8b7e9bbb24618dc60945a69", "fusion_lon": 0.0, "rental_uris": {"android": "https://dc.lft.to/lastmile_qr_scan", "ios": "https://dc.lft.to/lastmile_qr_scan"}, "name": "95a26a8fd8b7e9bbb24618dc60945a69", "type": "electric_scooter", "lat": 38.90019083333333, "is_disabled": 0}, {"fusion_lat": 0.0, "lon": -77.04534566666666, "is_reserved": 0, "bike_id": "8aab0ae2e1ab3bf9bd1bd7e05faa204f", "fusion_lon": 0.0, "rental_uris": {"android": "https://dc.lft.to/lastmile_qr_scan", "ios": "https://dc.lft.to/lastmile_qr_scan"}, "name": "8aab0ae2e1ab3bf9bd1bd7e05faa204f", "type": "electric_scooter", "lat": 38.934076, "is_disabled": 0}, {"fusion_lat": 0.0, "lon": -77.03478516666667, "is_reserved": 0, "bike_id": "e06030dcc8636d7b42f755e25de269f0", "fusion_lon": 0.0, "rental_uris": {"android": "https://dc.lft.to/lastmile_qr_scan", "ios": "https://dc.lft.to/lastmile_qr_scan"}, "name": "e06030dcc8636d7b42f755e25de269f0", "type": "electric_scooter", "lat": 38.9248245, "is_disabled": 0}, {"fusion_lat": 0.0, "lon": -77.04348783333333, "is_reserved": 0, "bike_id": "d4cf52384aa56c7239cd2d3a887b6348", "fusion_lon": 0.0, "rental_uris": {"android": "https://dc.lft.to/lastmile_qr_scan", "ios": "https://dc.lft.to/lastmile_qr_scan"}, "name": "d4cf52384aa56c7239cd2d3a887b6348", "type": "electric_scooter", "lat": 38.90724683333333, "is_disabled": 0}, {"fusion_lat": 0.0, "lon": -77.02225316666667, "is_reserved": 0, "bike_id": "9e9a70ac241aa5e1771ef31bb25ff3af", "fusion_lon": 0.0, "rental_uris": {"android": "https://dc.lft.to/lastmile_qr_scan", "ios": "https://dc.lft.to/lastmile_qr_scan"}, "name": "9e9a70ac241aa5e1771ef31bb25ff3af", "type": "electric_bike", "lat": 38.956848666666666, "is_disabled": 0}, {"fusion_lat": 0.0, "lon": -77.00594883333333, "is_reserved": 0, "bike_id": "4736f1d97cfab2e6aa90dbd725031043", "fusion_lon": 0.0, "rental_uris": {"android": "https://dc.lft.to/lastmile_qr_scan", "ios": "https://dc.lft.to/lastmile_qr_scan"}, "name": "4736f1d97cfab2e6aa90dbd725031043", "type": "electric_scooter", "lat": 38.905535, "is_disabled": 0}, {"fusion_lat": 0.0, "lon": -77.034072, "is_reserved": 0, "bike_id": "54ab473d75f09a3912f4ff9e6469f9c4", "fusion_lon": 0.0, "rental_uris": {"android": "https://dc.lft.to/lastmile_qr_scan", "ios": "https://dc.lft.to/lastmile_qr_scan"}, "name": "54ab473d75f09a3912f4ff9e6469f9c4", "type": "electric_scooter", "lat": 38.92306633333333, "is_disabled": 0}, {"fusion_lat": 0.0, "lon": -76.99859083333334, "is_reserved": 0, "bike_id": "9a2afb9f79a29d6193a522ba9647cf42", "fusion_lon": 0.0, "rental_uris": {"android": "https://dc.lft.to/lastmile_qr_scan", "ios": "https://dc.lft.to/lastmile_qr_scan"}, "name": "9a2afb9f79a29d6193a522ba9647cf42", "type": "electric_bike", "lat": 38.8972575, "is_disabled": 0}, {"fusion_lat": 0.0, "lon": -77.02391533333333, "is_reserved": 0, "bike_id": "330a7bb84e76801ee6ebb0d9ca318a1e", "fusion_lon": 0.0, "rental_uris": {"android": "https://dc.lft.to/lastmile_qr_scan", "ios": "https://dc.lft.to/lastmile_qr_scan"}, "name": "330a7bb84e76801ee6ebb0d9ca318a1e", "type": "electric_scooter", "lat": 38.957072833333335, "is_disabled": 0}, {"fusion_lat": 0.0, "lon": -76.93137016666667, "is_reserved": 0, "bike_id": "2bc72176d1b8852386499b0735544261", "fusion_lon": 0.0, "rental_uris": {"android": "https://dc.lft.to/lastmile_qr_scan", "ios": "https://dc.lft.to/lastmile_qr_scan"}, "name": "2bc72176d1b8852386499b0735544261", "type": "electric_scooter", "lat": 38.880781, "is_disabled": 0}, {"fusion_lat": 0.0, "lon": -77.103268, "is_reserved": 0, "bike_id": "e25117dfb04097c745e4e1874373262a", "fusion_lon": 0.0, "rental_uris": {"android": "https://dc.lft.to/lastmile_qr_scan", "ios": "https://dc.lft.to/lastmile_qr_scan"}, "name": "e25117dfb04097c745e4e1874373262a", "type": "electric_bike", "lat": 38.874175, "is_disabled": 0}, {"fusion_lat": 0.0, "lon": -77.03073316666666, "is_reserved": 0, "bike_id": "cb524cf51ceb06d70ad3af37c62d310f", "fusion_lon": 0.0, "rental_uris": {"android": "https://dc.lft.to/lastmile_qr_scan", "ios": "https://dc.lft.to/lastmile_qr_scan"}, "name": "cb524cf51ceb06d70ad3af37c62d310f", "type": "electric_scooter", "lat": 38.91751133333333, "is_disabled": 0},