{"data": {"bikes": [{"is_disabled": 0, "fusion_lat": 0.0, "lat": 38.9118535, "type": "electric_scooter", "lon": -77.01057966666667, "is_reserved": 0, "fusion_lon": 0.0, "bike_id": "1bd3f4e2f6c0212d1e368b271d5e489f", "name": "1bd3f4e2f6c0212d1e368b271d5e489f", "rental_uris": {"ios": "https://dc.lft.to/lastmile_qr_scan", "android": "https://dc.lft.to/lastmile_qr_scan"}}, {"is_disabled": 0, "fusion_lat": 0.0, "lat": 38.90649166666667, "type": "electric_bike", "lon": -77.043322, "is_reserved": 0, "fusion_lon": 0.0, "bike_id": "b3c20fb0bc4fd2ef60fc43d1cae7302e", "name": "b3c20fb0bc4fd2ef60fc43d1cae7302e", "rental_uris": {"ios": "https://dc.lft.to/lastmile_qr_scan", "android": "https://dc.lft.to/lastmile_qr_scan"}}, {"is_disabled": 0, "fusion_lat": 0.0, "lat": 38.905008333333335, "type": "electric_scooter", "lon": -76.99016933333333, "is_reserved": 0, "fusion_lon": 0.0, "bike_id": "242803c034980aaa1903c285af0ddae6", "name": "242803c034980aaa1903c285af0ddae6", "rental_uris": {"ios": "https://dc.lft.to/lastmile_qr_scan", "android": "https://dc.lft.to/lastmile_qr_scan"}}, {"is_disabled": 0, "fusion_lat": 0.0, "lat": 38.90695483333333, "type": "electric_scooter", "lon": -77.03473483333333, "is_reserved": 0, "fusion_lon": 0.0, "bike_id": "b450838c34fa7493b4b583f5992fc60f", "name": "b450838c34fa7493b4b583f5992fc60f", "rental_uris": {"ios": "https://dc.lft.to/lastmile_qr_scan", "android": "https://dc.lft.to/lastmile_qr_scan"}}, {"is_disabled": 0, "fusion_lat": 0.0, "lat": 38.900042, "type": "electric_scooter", "lon": -77.04505816666666, "is_reserved": 0, "fusion_lon": 0.0, "bike_id": "45387489f6571a68ad0599bcddfbf673", "name": "45387489f6571a68ad0599bcddfbf673", "rental_uris": {"ios": "https://dc.lft.to/lastmile_qr_scan", "android": "https://dc.lft.to/lastmile_qr_scan"}}, {"is_disabled": 0, "fusion_lat": 0.0, "lat": 38.96570966666667, "type": "electric_bike", "lon": -77.0162565, "is_reserved": 0, "fusion_lon": 0.0, "bike_id": "19903d848b07ee6412615091dd8c72e6", "name": "19903d848b07ee6412615091dd8c72e6", "rental_uris": {"ios": "https://dc.lft.to/lastmile_qr_scan", "android": "https://dc.lft.to/lastmile_qr_scan"}}, {"is_disabled": 0, "fusion_lat": 0.0, "lat": 38.90426583333333, "type": "electric_scooter", "lon": -77.02952266666667, "is_reserved": 0, "fusion_lon": 0.0, "bike_id": "af731b6f71823999e2374a4fc25283b7", "name": "af731b6f71823999e2374a4fc25283b7", "rental_uris": {"ios": "https://dc.lft.to/lastmile_qr_scan", "android": "https://dc.lft.to/lastmile_qr_scan"}}, {"is_disabled": 0, "fusion_lat": 0.0, "lat": 38.9036795, "type": "electric_scooter", "lon": -77.04348983333334, "is_reserved": 0, "fusion_lon": 0.0, "bike_id": "a4599de9caf7ec99b6dd7a5e3c1f3851", "name": "a4599de9caf7ec99b6dd7a5e3c1f3851", "rental_uris": {"ios": "https://dc.lft.to/lastmile_qr_scan", "android": "https://dc.lft.to/lastmile_qr_scan"}}, {"is_disabled": 0, "fusion_lat": 0.0, "lat": 38.9062175, "type": "electric_scooter", "lon": -77.05035916666667, "is_reserved": 0, "fusion_lon": 0.0, "bike_id": "783a7ef3c4617c9767a6bb39b525f406", "name": "783a7ef3c4617c9767a6bb39b525f406", "rental_uris": {"ios": "https://dc.lft.to/lastmile_qr_scan", "android": "https://dc.lft.to/lastmile_qr_scan"}}, {"is_disabled": 0, "fusion_lat": 0.0, "lat": 38.960207833333335, "type": "electric_scooter", "lon": -77.02831966666666, "is_reserved": 0, "fusion_lon": 0.0, "bike_id": "2705a8909b61c0861251457b29b011fb", "name": "2705a8909b61c0861251457b29b011fb", "rental_uris": {"ios": "https://dc.lft.to/lastmile_qr_scan", "android": "https://dc.lft.to/lastmile_qr_scan"}}, {"is_disabled": 0, "fusion_lat": 0.0, "lat": 38.89738283333333, "type": "electric_scooter", "lon": -77.0450635, "is_reserved": 0, "fusion_lon": 0.0, "bike_id": "a5c379cb5b0a79435979c6167ba9107a", "name": "a5c379cb5b0a79435979c6167ba9107a", "rental_uris": {"ios": "https://dc.lft.to/lastmile_qr_scan", "android": "https://dc.lft.to/lastmile_qr_scan"}}, {"is_disabled": 0, "fusion_lat": 0.0, "lat": 38.897452333333334, "type": "electric_scooter", "lon": -77.0086825, "is_reserved": 0, "fusion_lon": 0.0, "bike_id": "286dde94b1badfde69649d22c9a5b99b", "name": "286dde94b1badfde69649d22c9a5b99b", "rental_uris": {"ios": "https://dc.lft.to/lastmile_qr_scan", "android": "https://dc.lft.to/lastmile_qr_scan"}}, {"is_disabled": 0, "fusion_lat": 0.0, "lat": 38.906715, "type": "electric_scooter", "lon": -77.00073016666667, "is_reserved": 0, "fusion_lon": 0.0, "bike_id": "663a3ecb4186367756404f8110d019d1", "name": "663a3ecb4186367756404f8110d019d1", "rental_uris": {"ios": "https://dc.lft.to/lastmile_qr_scan", "android": "https://dc.lft.to/lastmile_qr_scan"}}, {"is_disabled": 0, "fusion_lat": 0.0, "lat": 38.912092, "type": "electric_scooter", "lon": -77.00366766666667, "is_reserved": 0, "fusion_lon": 0.0, "bike_id": "bf8262ac544e41a1da349b12f2a13174", "name": "bf8262ac544e41a1da349b12f2a13174", "rental_uris": {"ios": "https://dc.lft.to/lastmile_qr_scan", "android": "https://dc.lft.to/lastmile_qr_scan"}}, {"is_disabled": 0, "fusion_lat": 0.0, "lat": 38.874982833333334, "type": "electric_scooter", "lon": -76.997941, "is_reserved": 0, "fusion_lon": 0.0, "bike_id": "1fd2b4b6b060a4c98329a6f3c66c132b", "name": "1fd2b4b6b060a4c98329a6f3c66c132b", "rental_uris": {"ios": "https://dc.lft.to/lastmile_qr_scan", "android": "https://dc.lft.to/lastmile_qr_scan"}}, {"is_disabled": 0, "fusion_lat": 0.0, "lat": 38.904312, "type": "electric_scooter", "lon": -77.03279516666667, "is_reserved": 0, "fusion_lon": 0.0, "bike_id": "aef4e1ec3bb66153d9fc732ef9371adc", "name": "aef4e1ec3bb66153d9fc732ef9371adc", "rental_uris": {"ios": "https://dc.lft.to/lastmile_qr_scan", "android": "https://dc.lft.to/lastmile_qr_scan"}}, {"is_disabled": 0, "fusion_lat": 0.0, "lat": 38.928774, "type": "electric_scooter", "lon": -77.03441616666667, "is_reserved": 0, "fusion_lon": 0.0, "bike_id": "9de78945758bfe95703251aa5a658af1", "name": "9de78945758bfe95703251aa5a658af1", "rental_uris": {"ios": "https://dc.lft.to/lastmile_qr_scan", "android": "https://dc.lft.to/lastmile_qr_scan"}}, {"is_disabled": 0, "fusion_lat": 0.0, "lat": 38.902491833333336, "type": "electric_scooter", "lon": -77.0020585, "is_reserved": 0, "fusion_lon": 0.0, "bike_id": "deed62e1d5f08081b349366530f51454", "name": "deed62e1d5f08081b349366530f51454", "rental_uris": {"ios": "https://dc.lft.to/lastmile_qr_scan", "android": "https://dc.lft.to/lastmile_qr_scan"}}, {"is_disabled": 0, "fusion_lat": 0.0, "lat": 38.897682833333334, "type": "electric_scooter", "lon": -77.01222583333333, "is_reserved": 0, "fusion_lon": 0.0, "bike_id": "9108f3ec99e7be3e2961fa247998fe2f", "name": "9108f3ec99e7be3e2961fa247998fe2f", "rental_uris": {"ios": "https://dc.lft.to/lastmile_qr_scan", "android": "https://dc.lft.to/lastmile_qr_scan"}}, {"is_disabled": 0, "fusion_lat": 0.0, "lat": 38.8550995, "type": "electric_bike", "lon": -77.12011633333333, "is_reserved": 0, "fusion_lon": 0.0, "bike_id": "6c469f70b0615190e310f22695c9dcf0", "name": "6c469f70b0615190e310f22695c9dcf0", "rental_uris": {"ios": "https://dc.lft.to/lastmile_qr_scan", "android": "https://dc.lft.to/lastmile_qr_scan"}}, {"is_disabled": 0, "fusion_lat": 0.0, "lat": 38.905803, "type": "electric_scooter", "lon": -77.0345965, "is_reserved": 0, "fusion_lon": 0.0, "bike_id": "a1874a10a17129934b7486424dce670f", "name": "a1874a10a17129934b7486424dce670f", "rental_uris": {"ios": "https://dc.lft.to/lastmile_qr_scan", "android": "https://dc.lft.to/lastmile_qr_scan"}}, {"is_disabled": 0, "fusion_lat": 0.0, "lat": 38.8960975, "type": "electric_scooter", "lon": -77.04555333333333, "is_reserved": 0, "fusion_lon": 0.0, "bike_id": "4bb23246a401ecfbbd6578b3342c082c", "name": "4bb23246a401ecfbbd6578b3342c082c", "rental_uris": {"ios": "https://dc.lft.to/lastmile_qr_scan", "android": "https://dc.lft.to/lastmile_qr_scan"}}, {"is_disabled": 0, "fusion_lat": 0.0, "lat": 38.99941533333333, "type": "electric_bike", "lon": -77.01767716666667, "is_reserved": 0, "fusion_lon": 0.0, "bike_id": "4e25404def2d559d9df1e6eb25535db2", "name": "4e25404def2d559d9df1e6eb25535db2", "rental_uris": {"ios": "https://dc.lft.to/lastmile_qr_scan", "android": "https://dc.lft.to/lastmile_qr_scan"}}, {"is_disabled": 0, "fusion_lat": 0.0, "lat": 38.9324865, "type": "electric_scooter", "lon": -77.03863983333333, "is_reserved": 0, "fusion_lon": 0.0, "bike_id": "919ca0dbc11ecfa8a33302ef6ac3104a", "name": "919ca0dbc11ecfa8a33302ef6ac3104a", "rental_uris": {"ios": "https://dc.lft.to/lastmile_qr_scan", "android": "https://dc.lft.to/lastmile_qr_scan"}}, {"is_disabled": 0, "fusion_lat": 0.0, "lat": 38.890043666666664, "type": "electric_bike", "lon": -76.9994385, "is_reserved": 0, "fusion_lon": 0.0, "bike_id": "790bf655fdea0f2813044deca7d63fac", "name": "790bf655fdea0f2813044deca7d63fac", "rental_uris": {"ios": "https://dc.lft.to/lastmile_qr_scan", "android": "https://dc.lft.to/lastmile_qr_scan"}}, {"is_disabled": 0, "fusion_lat": 0.0, "lat": 38.9387545, "type": "electric_scooter", "lon": -77.02482266666667, "is_reserved": 0, "fusion_lon": 0.0, "bike_id": "cb0d82e8f1181eca5e7d34ea6a118132", "name": "cb0d82e8f1181eca5e7d34ea6a118132", "rental_uris": {"ios": "https://dc.lft.to/lastmile_qr_scan", "android": "https://dc.lft.to/lastmile_qr_scan"}}, {"is_disabled": 0, "fusion_lat": 0.0, "lat": 38.90285033333333, "type": "electric_scooter", "lon": -77.04146783333333, "is_reserved": 0, "fusion_lon": 0.0, "bike_id": "21a9aa57c8a5b53aee4b441e82071664", "name": "21a9aa57c8a5b53aee4b441e82071664", "rental_uris": {"ios": "https://dc.lft.to/lastmile_qr_scan", "android": "https://dc.lft.to/lastmile_qr_scan"}}, {"is_disabled": 0, "fusion_lat": 0.0, "lat": 38.91610466666667, "type": "electric_scooter", "lon": -77.04880366666667, "is_reserved": 0, "fusion_lon": 0.0, "bike_id": "cba02d365e21918bce628b89c33511f2", "name": "cba02d365e21918bce628b89c33511f2", "rental_uris": {"ios": "https://dc.lft.to/lastmile_qr_scan", "android": "https://dc.lft.to/lastmile_qr_scan"}}, {"is_disabled": 0, "fusion_lat": 0.0, "lat": 38.93162133333333, "type": "electric_scooter", "lon": -77.036294, "is_reserved": 0, "fusion_lon": 0.0, "bike_id": "41eab9d7c083836a4f1bbaecb4e455f9", "name": "41eab9d7c083836a4f1bbaecb4e455f9", "rental_uris": {"ios": "https://dc.lft.to/lastmile_qr_scan", "android": "https://dc.lft.to/lastmile_qr_scan"}}, {"is_disabled": 0, "fusion_lat": 0.0, "lat": 38.89462366666667, "type": "electric_scooter", "lon": -76.99374583333334, "is_reserved": 0, "fusion_lon": 0.0, "bike_id": "ab181cd0d0f52ccdb097a31801fc2440", "name": "ab181cd0d0f52ccdb097a31801fc2440", "rental_uris": {"ios": "https://dc.lft.to/lastmile_qr_scan", "android": "https://dc.lft.to/lastmile_qr_scan"}}, {"is_disabled": 0, "fusion_lat": 0.0, "lat": 38.91721066666667, "type": "electric_scooter", "lon": -77.028872, "is_reserved": 0, "fusion_lon": 0.0, "bike_id": "3e370417eaadaf3a04d5b9698a6ce614", "name": "3e370417eaadaf3a04d5b9698a6ce614", "rental_uris": {"ios": "https://dc.lft.to/lastmile_qr_scan", "android": "https://dc.lft.to/lastmile_qr_scan"}}, {"is_disabled": 0, "fusion_lat": 0.0, "lat": 38.920494833333336, "type": "electric_scooter", "lon": -77.04665533333333, "is_reserved": 0, "fusion_lon": 0.0, "bike_id": "aeeddb2e90748954393c667ea751e6da", "name": "aeeddb2e90748954393c667ea751e6da", "rental_uris": {"ios": "https://dc.lft.to/lastmile_qr_scan", "android": "https://dc.lft.to/lastmile_qr_scan"}}, {"is_disabled": 0, "fusion_lat": 0.0, "lat": 38.8922385, "type": "electric_scooter", "lon": -77.02845416666666, "is_reserved": 0, "fusion_lon": 0.0, "bike_id": "c08099f22e4aa971bde1c5c9602568e3", "name": "c08099f22e4aa971bde1c5c9602568e3", "rental_uris": {"ios": "https://dc.lft.to/lastmile_qr_scan", "android": "https://dc.lft.to/lastmile_qr_scan"}}, {"is_disabled": 0, "fusion_lat": 0.0, "lat": 38.92326666666666, "type": "electric_scooter", "lon": -77.0390585, "is_reserved": 0, "fusion_lon": 0.0, "bike_id": "e347308e9bcb077dbc074546d28ebed7", "name": "e347308e9bcb077dbc074546d28ebed7", "rental_uris": {"ios": "https://dc.lft.to/lastmile_qr_scan", "android": "https://dc.lft.to/lastmile_qr_scan"}}, {"is_disabled": 0, "fusion_lat": 0.0, "lat": 38.921837833333335, "type": "electric_scooter", "lon": -77.04239283333334, "is_reserved": 0, "fusion_lon": 0.0, "bike_id": "ccff727c57a9bc10135f5b1623e067a0", "name": "ccff727c57a9bc10135f5b1623e067a0", "rental_uris": {"ios": "https://dc.lft.to/lastmile_qr_scan", "android": "https://dc.lft.to/lastmile_qr_scan"}}, {"is_disabled": 0, "fusion_lat": 0.0, "lat": 38.90542816666667, "type": "electric_scooter", "lon": -77.04676933333333, "is_reserved": 0, "fusion_lon": 0.0, "bike_id": "fcd1a9259a4dca21e222cf1d472c1c2a", "name": "fcd1a9259a4dca21e222cf1d472c1c2a", "rental_uris": {"ios": "https://dc.lft.to/lastmile_qr_scan", "android": "https://dc.lft.to/lastmile_qr_scan"}}, {"is_disabled": 0, "fusion_lat": 0.0, "lat": 39.03048016666666, "type": "electric_bike", "lon": -77.09482216666666, "is_reserved": 0, "fusion_lon": 0.0, "bike_id": "7f56669d52f5330d2cc46efed35d7cf5", "name": "7f56669d52f5330d2cc46efed35d7cf5", "rental_uris": {"ios": "https://dc.lft.to/lastmile_qr_scan", "android": "https://dc.lft.to/lastmile_qr_scan"}}, {"is_disabled": 0, "fusion_lat": 0.0, "lat": 38.90766583333333, "type": "electric_scooter", "lon": -77.03204483333333, "is_reserved": 0, "fusion_lon": 0.0, "bike_id": "350f7a990bfdab882a0beb37c1ae2a4c", "name": "350f7a990bfdab882a0beb37c1ae2a4c", "rental_uris": {"ios": "https://dc.lft.to/lastmile_qr_scan", "android": "https://dc.lft.to/lastmile_qr_scan"}}, {"is_disabled": 0, "fusion_lat": 0.0, "lat": 38.887080833333336, "type": "electric_scooter", "lon": -77.00154416666666, "is_reserved": 0, "fusion_lon": 0.0, "bike_id": "32a439b0cfe5491c0b128328f9d3e2b0", "name": "32a439b0cfe5491c0b128328f9d3e2b0", "rental_uris": {"ios": "https://dc.lft.to/lastmile_qr_scan", "android": "https://dc.lft.to/lastmile_qr_scan"}}, {"is_disabled": 0, "fusion_lat": 0.0, "lat": 38.8977005, "type": "electric_scooter", "lon": -76.97725216666667, "is_reserved": 0, "fusion_lon": 0.0, "bike_id": "12df9db25fa23f69e0ed2d3cbd3c79cf", "name": "12df9db25fa23f69e0ed2d3cbd3c79cf", "rental_uris": {"ios": "https://dc.lft.to/lastmile_qr_scan", "android": "https://dc.lft.to/lastmile_qr_scan"}}, {"is_disabled": 0, "fusion_lat": 0.0, "lat": 38.915512166666666, "type": "electric_scooter", "lon": -77.0351155, "is_reserved": 0, "fusion_lon": 0.0, "bike_id": "d97db0fc9897d09a4ceac10948c634c9", "name": "d97db0fc9897d09a4ceac10948c634c9", "rental_uris": {"ios": "https://dc.lft.to/lastmile_qr_scan", "android": "https://dc.lft.to/lastmile_qr_scan"}}, {"is_disabled": 0, "fusion_lat": 0.0, "lat": 38.9056475, "type": "electric_scooter", "lon": -77.005985, "is_reserved": 0, "fusion_lon": 0.0, "bike_id": "5903c45d228672fe1d3b0027aaf10561", "name": "5903c45d228672fe1d3b0027aaf10561", "rental_uris": {"ios": "https://dc.lft.to/lastmile_qr_scan", "android": "https://dc.lft.to/lastmile_qr_scan"}}, {"is_disabled": 0, "fusion_lat": 0.0, "lat": 38.9231105, "type": "electric_scooter", "lon": -77.02116966666667, "is_reserved": 0, "fusion_lon": 0.0, "bike_id": "c2f1adbb12834daa41de63a513bbeb0c", "name": "c2f1adbb12834daa41de63a513bbeb0c", "rental_uris": {"ios": "https://dc.lft.to/lastmile_qr_scan", "android": "https://dc.lft.to/lastmile_qr_scan"}}, {"is_disabled": 0, "fusion_lat": 0.0, "lat": 38.9117625, "type": "electric_scooter", "lon": -77.0683245, "is_reserved": 0, "fusion_lon": 0.0, "bike_id": "c10452ea1259374e4db7f318c3237c67", "name": "c10452ea1259374e4db7f318c3237c67", "rental_uris": {"ios": "https://dc.lft.to/lastmile_qr_scan", "android": "https://dc.lft.to/lastmile_qr_scan"}}, {"is_disabled": 0, "fusion_lat": 0.0, "lat": 38.9047105, "type": "electric_scooter", "lon": -77.03288933333333, "is_reserved": 0, "fusion_lon": 0.0, "bike_id": "a0436e8d3da2dab18f09568abae523cc", "name": "a0436e8d3da2dab18f09568abae523cc", "rental_uris": {"ios": "https://dc.lft.to/lastmile_qr_scan", "android": "https://dc.lft.to/lastmile_qr_scan"}}, {"is_disabled": 0, "fusion_lat": 0.0, "lat": 38.8442465, "type": "electric_scooter", "lon": -76.99775816666667, "is_reserved": 0, "fusion_lon": 0.0, "bike_id": "025f86532f057b1e2980575f5a4f0f81", "name": "025f86532f057b1e2980575f5a4f0f81", "rental_uris": {"ios": "https://dc.lft.to/lastmile_qr_scan", "android": "https://dc.lft.to/lastmile_qr_scan"}}, {"is_disabled": 0, "fusion_lat": 0.0, "lat": 38.87957816666667, "type": "electric_scooter", "lon": -77.00481, "is_reserved": 0, "fusion_lon": 0.0, "bike_id": "9fc3e20bc8ac740446735f63e34e1ef5", "name": "9fc3e20bc8ac740446735f63e34e1ef5", "rental_uris": {"ios": "https://dc.lft.to/lastmile_qr_scan", "android": "https://dc.lft.to/lastmile_qr_scan"}}, {"is_disabled": 0, "fusion_lat": 0.0, "lat": 38.90367333333333, "type": "electric_scooter", "lon": -77.04347566666667, "is_reserved": 0, "fusion_lon": 0.0, "bike_id": "cb8115fca603e873c2850a4bd236e6d4", "name": "cb8115fca603e873c2850a4bd236e6d4", "rental_uris": {"ios": "https://dc.lft.to/lastmile_qr_scan", "android": "https://dc.lft.to/lastmile_qr_scan"}}, {"is_disabled": 0, "fusion_lat": 0.0, "lat": 38.9865925, "type": "electric_bike", "lon": -77.0563845, "is_reserved": 0, "fusion_lon": 0.0, "bike_id": "e0003d8eb52ab2abb3547bea44ac8ebc", "name": "e0003d8eb52ab2abb3547bea44ac8ebc", "rental_uris": {"ios": "https://dc.lft.to/lastmile_qr_scan", "android": "https://dc.lft.to/lastmile_qr_scan"}}, {"is_disabled": 0, "fusion_lat": 0.0, "lat": 38.86919116666667, "type": "electric_scooter", "lon": -76.98305916666666, "is_reserved": 0, "fusion_lon": 0.0, "bike_id": "e8a8095fa63cd2a3bda8899d21f4ce14", "name": "e8a8095fa63cd2a3bda8899d21f4ce14", "rental_uris": {"ios": "https://dc.lft.to/lastmile_qr_scan", "android": "https://dc.lft.to/lastmile_qr_scan"}}, {"is_disabled": 0, "fusion_lat": 0.0, "lat": 38.885059, "type": "electric_scooter", "lon": -77.00567733333334, "is_reserved": 0, "fusion_lon": 0.0, "bike_id": "4f67064276d2abeb8e74dceb9b4c87e0", "name": "4f67064276d2abeb8e74dceb9b4c87e0", "rental_uris": {"ios": "https://dc.lft.to/lastmile_qr_scan", "android": "https://dc.lft.to/lastmile_qr_scan"}}, {"is_disabled": 0, "fusion_lat": 0.0, "lat": 38.9176855, "type": "electric_scooter", "lon": -77.02316833333333, "is_reserved": 0, "fusion_lon": 0.0, "bike_id": "c5fe75cae950d933d4506dcf89214af2", "name": "c5fe75cae950d933d4506dcf89214af2", "rental_uris": {"ios": "https://dc.lft.to/lastmile_qr_scan", "android": "https://dc.lft.to/lastmile_qr_scan"}}, {"is_disabled": 0, "fusion_lat": 0.0, "lat": 38.90034883333333, "type": "electric_scooter", "lon": -77.00881716666666, "is_reserved": 0, "fusion_lon": 0.0, "bike_id": "8e08f6435386ff6b558ad3814e065ab5", "name": "8e08f6435386ff6b558ad3814e065ab5", "rental_uris": {"ios": "https://dc.lft.to/lastmile_qr_scan", "android": "https://dc.lft.to/lastmile_qr_scan"}}, {"is_disabled": 0, "fusion_lat": 0.0, "lat": 38.88502833333333, "type": "electric_scooter", "lon": -77.00568533333333, "is_reserved": 0, "fusion_lon": 0.0, "bike_id": "dbb266d2c9aff6cdd39bfa960a9a58d9", "name": "dbb266d2c9aff6cdd39bfa960a9a58d9", "rental_uris": {"ios": "https://dc.lft.to/lastmile_qr_scan", "android": "https://dc.lft.to/lastmile_qr_scan"}}, {"is_disabled": 0, "fusion_lat": 0.0, "lat": 38.905310666666665, "type": "electric_scooter", "lon": -77.05996066666667, "is_reserved": 0, "fusion_lon": 0.0, "bike_id": "3190b6254e2dad83e92c12736526cc08", "name": "3190b6254e2dad83e92c12736526cc08", "rental_uris": {"ios": "https://dc.lft.to/lastmile_qr_scan", "android": "https://dc.lft.to/lastmile_qr_scan"}}, {"is_disabled": 0, "fusion_lat": 0.0, "lat": 38.89668783333333, "type": "electric_scooter", "lon": -76.98837266666666, "is_reserved": 0, "fusion_lon": 0.0, "bike_id": "e49ef0b4df7a3b0c49a662fdc9c34802", "name": "e49ef0b4df7a3b0c49a662fdc9c34802", "rental_uris": {"ios": "https://dc.lft.to/lastmile_qr_scan", "android": "https://dc.lft.to/lastmile_qr_scan"}}, {"is_disabled": 0, "fusion_lat": 0.0, "lat": 38.91680816666667, "type": "electric_scooter", "lon": -77.02200316666666, "is_reserved": 0, "fusion_lon": 0.0, "bike_id": "f3b574910fedf9399ce128659244c006", "name": "f3b574910fedf9399ce128659244c006", "rental_uris": {"ios": "https://dc.lft.to/lastmile_qr_scan", "android": "https://dc.lft.to/lastmile_qr_scan"}}, {"is_disabled": 0, "fusion_lat": 0.0, "lat": 38.8662875, "type": "electric_scooter", "lon": -76.98716883333333, "is_reserved": 0, "fusion_lon": 0.0, "bike_id": "25ea0142bd6f8a11f3484e9b68d3aab6", "name": "25ea0142bd6f8a11f3484e9b68d3aab6", "rental_uris": {"ios": "https://dc.lft.to/lastmile_qr_scan", "android": "https://dc.lft.to/lastmile_qr_scan"}}, {"is_disabled": 0, "fusion_lat": 0.0, "lat": 38.92122583333333, "type": "electric_scooter", "lon": -77.03178583333333, "is_reserved": 0, "fusion_lon": 0.0, "bike_id": "4bf528b5463e89757deabca9d79ba752", "name": "4bf528b5463e89757deabca9d79ba752", "rental_uris": {"ios": "https://dc.lft.to/lastmile_qr_scan", "android": "https://dc.lft.to/lastmile_qr_scan"}}, {"is_disabled": 0, "fusion_lat": 0.0, "lat": 38.896700833333334, "type": "electric_scooter", "lon": -77.00898033333333, "is_reserved": 0, "fusion_lon": 0.0, "bike_id": "a51e5f6fa4700af6244e4ca119330576", "name": "a51e5f6fa4700af6244e4ca119330576", "rental_uris": {"ios": "https://dc.lft.to/lastmile_qr_scan", "android": "https://dc.lft.to/lastmile_qr_scan"}}, {"is_disabled": 0, "fusion_lat": 0.0, "lat": 38.9562785, "type": "electric_bike", "lon": -76.93885483333334, "is_reserved": 0, "fusion_lon": 0.0, "bike_id": "0e1db704a177144d26779b32ad8a834b", "name": "0e1db704a177144d26779b32ad8a834b", "rental_uris": {"ios": "https://dc.lft.to/lastmile_qr_scan", "android": "https://dc.lft.to/lastmile_qr_scan"}}, {"is_disabled": 0, "fusion_lat": 0.0, "lat": 38.900196, "type": "electric_scooter", "lon": -77.01223583333334, "is_reserved": 0, "fusion_lon": 0.0, "bike_id": "d315ec6aac2744f5e48e7422cd9ccc41", "name": "d315ec6aac2744f5e48e7422cd9ccc41", "rental_uris": {"ios": "https://dc.lft.to/lastmile_qr_scan", "android": "https://dc.lft.to/lastmile_qr_scan"}}, {"is_disabled": 0, "fusion_lat": 0.0, "lat": 38.9006695, "type": "electric_scooter", "lon": -77.025364, "is_reserved": 0, "fusion_lon": 0.0, "bike_id": "944062c533655d456a9d699282ed6a3f", "name": "944062c533655d456a9d699282ed6a3f", "rental_uris": {"ios": "https://dc.lft.to/lastmile_qr_scan", "android": "https://dc.lft.to/lastmile_qr_scan"}}, {"is_disabled": 0, "fusion_lat": 0.0, "lat": 38.914670666666666, "type": "electric_scooter", "lon": -77.031923, "is_reserved": 0, "fusion_lon": 0.0, "bike_id": "36e520cfb516e241b6daaaa80b8e8bd5", "name": "36e520cfb516e241b6daaaa80b8e8bd5", "rental_uris": {"ios": "https://dc.lft.to/lastmile_qr_scan", "android": "https://dc.lft.to/lastmile_qr_scan"}}, {"is_disabled": 0, "fusion_lat": 0.0, "lat": 38.92907916666667, "type": "electric_scooter", "lon": -77.064209, "is_reserved": 0, "fusion_lon": 0.0, "bike_id": "435a26ca39c278e4f6e9782832a208bb", "name": "435a26ca39c278e4f6e9782832a208bb", "rental_uris": {"ios": "https://dc.lft.to/lastmile_qr_scan", "android": "https://dc.lft.to/lastmile_qr_scan"}}, {"is_disabled": 0, "fusion_lat": 0.0, "lat": 38.898371833333336, "type": "electric_scooter", "lon": -77.03951016666667, "is_reserved": 0, "fusion_lon": 0.0, "bike_id": "f59e7183d7e6a02c064e65f3c7003d4e", "name": "f59e7183d7e6a02c064e65f3c7003d4e", "rental_uris": {"ios": "https://dc.lft.to/lastmile_qr_scan", "android": "https://dc.lft.to/lastmile_qr_scan"}}, {"is_disabled": 0, "fusion_lat": 0.0, "lat": 38.842721833333336, "type": "electric_bike", "lon": -76.988433, "is_reserved": 0, "fusion_lon": 0.0, "bike_id": "88debd7bf2e84b7f9668aecb08d22331", "name": "88debd7bf2e84b7f9668aecb08d22331", "rental_uris": {"ios": "https://dc.lft.to/lastmile_qr_scan", "android": "https://dc.lft.to/lastmile_qr_scan"}}, {"is_disabled": 0, "fusion_lat": 0.0, "lat": 38.89935533333333, "type": "electric_scooter", "lon": -77.05409433333334, "is_reserved": 0, "fusion_lon": 0.0, "bike_id": "3ef449e64112fa177deeece08e6c520d", "name": "3ef449e64112fa177deeece08e6c520d", "rental_uris": {"ios": "https://dc.lft.to/lastmile_qr_scan", "android": "https://dc.lft.to/lastmile_qr_scan"}}, {"is_disabled": 0, "fusion_lat": 0.0, "lat": 38.87489083333333, "type": "electric_scooter", "lon": -77.00183316666667, "is_reserved": 0, "fusion_lon": 0.0, "bike_id": "afa8b3a419456d06e4fc54d3fcda60f5", "name": "afa8b3a419456d06e4fc54d3fcda60f5", "rental_uris": {"ios": "https://dc.lft.to/lastmile_qr_scan", "android": "https://dc.lft.to/lastmile_qr_scan"}}, {"is_disabled": 0, "fusion_lat": 0.0, "lat": 38.9025975, "type": "electric_scooter", "lon": -77.03855516666667, "is_reserved": 0, "fusion_lon": 0.0, "bike_id": "f5179614e9b79a10c5b5cc8d4937553c", "name": "f5179614e9b79a10c5b5cc8d4937553c", "rental_uris": {"ios": "https://dc.lft.to/lastmile_qr_scan", "android": "https://dc.lft.to/lastmile_qr_scan"}}, {"is_disabled": 0, "fusion_lat": 0.0, "lat": 38.922519, "type": "electric_scooter", "lon": -77.0306545, "is_reserved": 0, "fusion_lon": 0.0, "bike_id": "1307737e8c38a82aa9b559b050b7b6b7", "name": "1307737e8c38a82aa9b559b050b7b6b7", "rental_uris": {"ios": "https://dc.lft.to/lastmile_qr_scan", "android": "https://dc.lft.to/lastmile_qr_scan"}}, {"is_disabled": 0, "fusion_lat": 0.0, "lat": 38.926182833333336, "type": "electric_scooter", "lon": -77.0056295, "is_reserved": 0, "fusion_lon": 0.0, "bike_id": "a19f52429b9b97b74f6445f26330c372", "name": "a19f52429b9b97b74f6445f26330c372", "rental_uris": {"ios": "https://dc.lft.to/lastmile_qr_scan", "android": "https://dc.lft.to/lastmile_qr_scan"}}, {"is_disabled": 0, "fusion_lat": 0.0, "lat": 38.88708316666666, "type": "electric_scooter", "lon": -77.0322045, "is_reserved": 0, "fusion_lon": 0.0, "bike_id": "9553cff9b92dc4f75bdb64716f27d735", "name": "9553cff9b92dc4f75bdb64716f27d735", "rental_uris": {"ios": "https://dc.lft.to/lastmile_qr_scan", "android": "https://dc.lft.to/lastmile_qr_scan"}}, {"is_disabled": 0, "fusion_lat": 0.0, "lat": 38.8828635, "type": "electric_scooter", "lon": -77.0415155, "is_reserved": 0, "fusion_lon": 0.0, "bike_id": "a5116ea85cbe19da7899f85706dcd4bc", "name": "a5116ea85cbe19da7899f85706dcd4bc", "rental_uris": {"ios": "https://dc.lft.to/lastmile_qr_scan", "android": "https://dc.lft.to/lastmile_qr_scan"}}, {"is_disabled": 0, "fusion_lat": 0.0, "lat": 38.91879183333333, "type": "electric_scooter", "lon": -76.9716105, "is_reserved": 0, "fusion_lon": 0.0, "bike_id": "b6d2c3a12039e1d484fbca830d273094", "name": "b6d2c3a12039e1d484fbca830d273094", "rental_uris": {"ios": "https://dc.lft.to/lastmile_qr_scan", "android": "https://dc.lft.to/lastmile_qr_scan"}}, {"is_disabled": 0, "fusion_lat": 0.0, "lat": 38.863701, "type": "electric_scooter", "lon": -76.99046683333333, "is_reserved": 0, "fusion_lon": 0.0, "bike_id": "66d0d9c518a0bca328a0e359b9fa99c2", "name": "66d0d9c518a0bca328a0e359b9fa99c2", "rental_uris": {"ios": "https://dc.lft.to/lastmile_qr_scan", "android": "https://dc.lft.to/lastmile_qr_scan"}}, {"is_disabled": 0, "fusion_lat": 0.0, "lat": 38.90500766666667, "type": "electric_scooter", "lon": -77.04501983333333, "is_reserved": 0, "fusion_lon": 0.0, "bike_id": "a558bf6ce496e339f361f02080266d69", "name": "a558bf6ce496e339f361f02080266d69", "rental_uris": {"ios": "https://dc.lft.to/lastmile_qr_scan", "android": "https://dc.lft.to/lastmile_qr_scan"}}, {"is_disabled": 0, "fusion_lat": 0.0, "lat": 38.908523833333334, "type": "electric_scooter", "lon": -77.02458066666667, "is_reserved": 0, "fusion_lon": 0.0, "bike_id": "76f5fa292e1a28ef3afdb6a12728268a", "name": "76f5fa292e1a28ef3afdb6a12728268a", "rental_uris": {"ios": "https://dc.lft.to/lastmile_qr_scan", "android": "https://dc.lft.to/lastmile_qr_scan"}}, {"is_disabled": 0, "fusion_lat": 0.0, "lat": 38.94613433333333, "type": "electric_scooter", "lon": -77.03506633333333, "is_reserved": 0, "fusion_lon": 0.0, "bike_id": "695d6b5449a1174192431a57b9c08e8a", "name": "695d6b5449a1174192431a57b9c08e8a", "rental_uris": {"ios": "https://dc.lft.to/lastmile_qr_scan", "android": "https://dc.lft.to/lastmile_qr_scan"}}, {"is_disabled": 0, "fusion_lat": 0.0, "lat": 38.892261166666664, "type": "electric_scooter", "lon": -77.0486905, "is_reserved": 0, "fusion_lon": 0.0, "bike_id": "a7355f613f245e75adef84abff4a9811", "name": "a7355f613f245e75adef84abff4a9811", "rental_uris": {"ios": "https://dc.lft.to/lastmile_qr_scan", "android": "https://dc.lft.to/lastmile_qr_scan"}}, {"is_disabled": 0, "fusion_lat": 0.0, "lat": 38.86178016666667, "type": "electric_scooter", "lon": -76.99427866666667, "is_reserved": 0, "fusion_lon": 0.0, "bike_id": "6726ef740f574d8b7480678f1f5ed6d8", "name": "6726ef740f574d8b7480678f1f5ed6d8", "rental_uris": {"ios": "https://dc.lft.to/lastmile_qr_scan", "android": "https://dc.lft.to/lastmile_qr_scan"}}, {"is_disabled": 0, "fusion_lat": 0.0, "lat": 38.907281833333336, "type": "electric_scooter", "lon": -77.02320883333333, "is_reserved": 0, "fusion_lon": 0.0, "bike_id": "439ecc8cc778a75da981237f9d0591a0", "name": "439ecc8cc778a75da981237f9d0591a0", "rental_uris": {"ios": "https://dc.lft.to/lastmile_qr_scan", "android": "https://dc.lft.to/lastmile_qr_scan"}}, {"is_disabled": 0, "fusion_lat": 0.0, "lat": 38.86513466666667, "type": "electric_bike", "lon": -76.97342483333334, "is_reserved": 0, "fusion_lon": 0.0, "bike_id": "3d37468ab4f401f0109658331de39c84", "name": "3d37468ab4f401f0109658331de39c84", "rental_uris": {"ios": "https://dc.lft.to/lastmile_qr_scan", "android": "https://dc.lft.to/lastmile_qr_scan"}}, {"is_disabled": 0, "fusion_lat": 0.0, "lat": 38.90278333333333, "type": "electric_scooter", "lon": -77.0598615, "is_reserved": 0, "fusion_lon": 0.0, "bike_id": "66e571cd203429f91217682b91120d05", "name": "66e571cd203429f91217682b91120d05", "rental_uris": {"ios": "https://dc.lft.to/lastmile_qr_scan", "android": "https://dc.lft.to/lastmile_qr_scan"}}, {"is_disabled": 0, "fusion_lat": 0.0, "lat": 38.90372083333333, "type": "electric_scooter", "lon": -77.02646066666667, "is_reserved": 0, "fusion_lon": 0.0, "bike_id": "b4890c1ba43eb317c1f59b5fab58cfe2", "name": "b4890c1ba43eb317c1f59b5fab58cfe2", "rental_uris": {"ios": "https://dc.lft.to/lastmile_qr_scan", "android": "https://dc.lft.to/lastmile_qr_scan"}}, {"is_disabled": 0, "fusion_lat": 0.0, "lat": 38.8925115, "type": "electric_scooter", "lon": -77.02593983333334, "is_reserved": 0, "fusion_lon": 0.0, "bike_id": "51972c20c1fba5644c1af3b6be19f740", "name": "51972c20c1fba5644c1af3b6be19f740", "rental_uris": {"ios": "https://dc.lft.to/lastmile_qr_scan", "android": "https://dc.lft.to/lastmile_qr_scan"}}, {"is_disabled": 0, "fusion_lat": 0.0, "lat": 38.90564416666667, "type": "electric_scooter", "lon": -77.04868333333333, "is_reserved": 0, "fusion_lon": 0.0, "bike_id": "4aa3789719ac2a08e3b8cf5fa1660f87", "name": "4aa3789719ac2a08e3b8cf5fa1660f87", "rental_uris": {"ios": "https://dc.lft.to/lastmile_qr_scan", "android": "https://dc.lft.to/lastmile_qr_scan"}}, {"is_disabled": 0, "fusion_lat": 0.0, "lat": 38.93944283333333, "type": "electric_scooter", "lon": -77.061128, "is_reserved": 0, "fusion_lon": 0.0, "bike_id": "f7b19d02785608f93d57445a0fa202b9", "name": "f7b19d02785608f93d57445a0fa202b9", "rental_uris": {"ios": "https://dc.lft.to/lastmile_qr_scan", "android": "https://dc.lft.to/lastmile_qr_scan"}}, {"is_disabled": 0, "fusion_lat": 0.0, "lat": 38.892284333333336, "type": "electric_scooter", "lon": -77.046347, "is_reserved": 0, "fusion_lon": 0.0, "bike_id": "4326f8a6a991783e6d817b3ee02d4462", "name": "4326f8a6a991783e6d817b3ee02d4462", "rental_uris": {"ios": "https://dc.lft.to/lastmile_qr_scan", "android": "https://dc.lft.to/lastmile_qr_scan"}}, {"is_disabled": 0, "fusion_lat": 0.0, "lat": 38.865213833333335, "type": "electric_scooter", "lon": -76.990479, "is_reserved": 0, "fusion_lon": 0.0, "bike_id": "bd0399192ce095eeee0e8e710f577e0b", "name": "bd0399192ce095eeee0e8e710f577e0b", "rental_uris": {"ios": "https://dc.lft.to/lastmile_qr_scan", "android": "https://dc.lft.to/lastmile_qr_scan"}}, {"is_disabled": 0, "fusion_lat": 0.0, "lat": 38.89622766666667, "type": "electric_scooter", "lon": -76.9564145, "is_reserved": 0, "fusion_lon": 0.0, "bike_id": "8b7afcae5c42f632ac9d1ee271fa510f", "name": "8b7afcae5c42f632ac9d1ee271fa510f", "rental_uris": {"ios": "https://dc.lft.to/lastmile_qr_scan", "android": "https://dc.lft.to/lastmile_qr_scan"}}, {"is_disabled": 0, "fusion_lat": 0.0, "lat": 38.919078166666665, "type": "electric_scooter", "lon": -77.0411165, "is_reserved": 0, "fusion_lon": 0.0, "bike_id": "19bd4aa05a511daf4f5efb1a1dc1f24f", "name": "19bd4aa05a511daf4f5efb1a1dc1f24f", "rental_uris": {"ios": "https://dc.lft.to/lastmile_qr_scan", "android": "https://dc.lft.to/lastmile_qr_scan"}}, {"is_disabled": 0, "fusion_lat": 0.0, "lat": 38.940423333333335, "type": "electric_scooter", "lon": -77.0298205, "is_reserved": 0, "fusion_lon": 0.0, "bike_id": "a5f5f285f9782a15afc14f5c2b72ab36", "name": "a5f5f285f9782a15afc14f5c2b72ab36", "rental_uris": {"ios": "https://dc.lft.to/lastmile_qr_scan", "android": "https://dc.lft.to/lastmile_qr_scan"}}, {"is_disabled": 0, "fusion_lat": 0.0, "lat": 38.90325716666667, "type": "electric_scooter", "lon": -76.972967, "is_reserved": 0, "fusion_lon": 0.0, "bike_id": "a77edc154e922eca39264013591d0d3c", "name": "a77edc154e922eca39264013591d0d3c", "rental_uris": {"ios": "https://dc.lft.to/lastmile_qr_scan", "android": "https://dc.lft.to/lastmile_qr_scan"}}, {"is_disabled": 0, "fusion_lat": 0.0, "lat": 38.893609833333336, "type": "electric_scooter", "lon": -77.00338766666667, "is_reserved": 0, "fusion_lon": 0.0, "bike_id": "9d676f87d46c8b68a422159358eb865e", "name": "9d676f87d46c8b68a422159358eb865e", "rental_uris": {"ios": "https://dc.lft.to/lastmile_qr_scan", "android": "https://dc.lft.to/lastmile_qr_scan"}}, {"is_disabled": 0, "fusion_lat": 0.0, "lat": 38.853198666666664, "type": "electric_scooter", "lon": -76.9800405, "is_reserved": 0, "fusion_lon": 0.0, "bike_id": "4820559b7dc237dd7588cb6909b6bc5b", "name": "4820559b7dc237dd7588cb6909b6bc5b", "rental_uris": {"ios": "https://dc.lft.to/lastmile_qr_scan", "android": "https://dc.lft.to/lastmile_qr_scan"}}, {"is_disabled": 0, "fusion_lat": 0.0, "lat": 38.872333833333336, "type": "electric_scooter", "lon": -77.01209366666667, "is_reserved": 0, "fusion_lon": 0.0, "bike_id": "f2622ac6451be5e966322fe087e3fa43", "name": "f2622ac6451be5e966322fe087e3fa43", "rental_uris": {"ios": "https://dc.lft.to/lastmile_qr_scan", "android": "https://dc.lft.to/lastmile_qr_scan"}}, {"is_disabled": 0, "fusion_lat": 0.0, "lat": 38.896955, "type": "electric_scooter", "lon": -77.00494966666666, "is_reserved": 0, "fusion_lon": 0.0, "bike_id": "139108fcb8ded9861604e75bb4b88b9b", "name": "139108fcb8ded9861604e75bb4b88b9b", "rental_uris": {"ios": "https://dc.lft.to/lastmile_qr_scan", "android": "https://dc.lft.to/lastmile_qr_scan"}}, {"is_disabled": 0, "fusion_lat": 0.0, "lat": 38.9311285, "type": "electric_scooter", "lon": -77.02411133333334, "is_reserved": 0, "fusion_lon": 0.0, "bike_id": "6fc2269cc605e40e55f041631f6f4ce8", "name": "6fc2269cc605e40e55f041631f6f4ce8", "rental_uris": {"ios": "https://dc.lft.to/lastmile_qr_scan", "android": "https://dc.lft.to/lastmile_qr_scan"}}, {"is_disabled": 0, "fusion_lat": 0.0, "lat": 38.89599666666667, "type": "electric_scooter", "lon": -77.04243283333334, "is_reserved": 0, "fusion_lon": 0.0, "bike_id": "80d154c76c2c088b24e7dc747fbe0f77", "name": "80d154c76c2c088b24e7dc747fbe0f77", "rental_uris": {"ios": "https://dc.lft.to/lastmile_qr_scan", "android": "https://dc.lft.to/lastmile_qr_scan"}}, {"is_disabled": 0, "fusion_lat": 0.0, "lat": 38.93313083333334, "type": "electric_scooter", "lon": -77.03283616666667, "is_reserved": 0, "fusion_lon": 0.0, "bike_id": "773095a115356e5bc188b739dfd365fe", "name": "773095a115356e5bc188b739dfd365fe", "rental_uris": {"ios": "https://dc.lft.to/lastmile_qr_scan", "android": "https://dc.lft.to/lastmile_qr_scan"}}, {"is_disabled": 0, "fusion_lat": 0.0, "lat": 38.9614965, "type": "electric_scooter", "lon": -76.997704, "is_reserved": 0, "fusion_lon": 0.0, "bike_id": "bb8f5134f6105b3c4615e02f44d13287", "name": "bb8f5134f6105b3c4615e02f44d13287", "rental_uris": {"ios": "https://dc.lft.to/lastmile_qr_scan", "android": "https://dc.lft.to/lastmile_qr_scan"}}, {"is_disabled": 0, "fusion_lat": 0.0, "lat": 38.92263116666667, "type": "electric_scooter", "lon": -77.0413135, "is_reserved": 0, "fusion_lon": 0.0, "bike_id": "023063e2f8286727c75c3a5a8a22e2d7", "name": "023063e2f8286727c75c3a5a8a22e2d7", "rental_uris": {"ios": "https://dc.lft.to/lastmile_qr_scan", "android": "https://dc.lft.to/lastmile_qr_scan"}}, {"is_disabled": 0, "fusion_lat": 0.0, "lat": 38.904891166666665, "type": "electric_scooter", "lon": -77.02953466666666, "is_reserved": 0, "fusion_lon": 0.0, "bike_id": "8da3efb77925d24379410ecf2f103620", "name": "8da3efb77925d24379410ecf2f103620", "rental_uris": {"ios": "https://dc.lft.to/lastmile_qr_scan", "android": "https://dc.lft.to/lastmile_qr_scan"}}, {"is_disabled": 0, "fusion_lat": 0.0, "lat": 38.903694, "type": "electric_scooter", "lon": -77.04667933333333, "is_reserved": 0, "fusion_lon": 0.0, "bike_id": "42bf61ca8490f5a78292958bef32ca2b", "name": "42bf61ca8490f5a78292958bef32ca2b", "rental_uris": {"ios": "https://dc.lft.to/lastmile_qr_scan", "android": "https://dc.lft.to/lastmile_qr_scan"}}, {"is_disabled": 0, "fusion_lat": 0.0, "lat": 38.91481733333333, "type": "electric_scooter", "lon": -77.00948716666667, "is_reserved": 0, "fusion_lon": 0.0, "bike_id": "cacbf389c4e3d94c7a028126b5a50df5", "name": "cacbf389c4e3d94c7a028126b5a50df5", "rental_uris": {"ios": "https://dc.lft.to/lastmile_qr_scan", "android": "https://dc.lft.to/lastmile_qr_scan"}}, {"is_disabled": 0, "fusion_lat": 0.0, "lat": 38.923718666666666, "type": "electric_scooter", "lon": -77.04132983333334, "is_reserved": 0, "fusion_lon": 0.0, "bike_id": "e96c9771147622caeb4874ed68dc5bb2", "name": "e96c9771147622caeb4874ed68dc5bb2", "rental_uris": {"ios": "https://dc.lft.to/lastmile_qr_scan", "android": "https://dc.lft.to/lastmile_qr_scan"}}, {"is_disabled": 0, "fusion_lat": 0.0, "lat": 38.885125, "type": "electric_scooter", "lon": -77.00570266666666, "is_reserved": 0, "fusion_lon": 0.0, "bike_id": "47d6534302d54d3f869f120cb2b34b6e", "name": "47d6534302d54d3f869f120cb2b34b6e", "rental_uris": {"ios": "https://dc.lft.to/lastmile_qr_scan", "android": "https://dc.lft.to/lastmile_qr_scan"}}, {"is_disabled": 0, "fusion_lat": 0.0, "lat": 38.907823666666665, "type": "electric_scooter", "lon": -77.03831066666666, "is_reserved": 0, "fusion_lon": 0.0, "bike_id": "c5eea7cd73f0a40cf04f7617172c44e4", "name": "c5eea7cd73f0a40cf04f7617172c44e4", "rental_uris": {"ios": "https://dc.lft.to/lastmile_qr_scan", "android": "https://dc.lft.to/lastmile_qr_scan"}}, {"is_disabled": 0, "fusion_lat": 0.0, "lat": 38.96145516666667, "type": "electric_scooter", "lon": -77.02779916666667, "is_reserved": 0, "fusion_lon": 0.0, "bike_id": "81682c411eaf9ce7e91d5a8adf1fd862", "name": "81682c411eaf9ce7e91d5a8adf1fd862", "rental_uris": {"ios": "https://dc.lft.to/lastmile_qr_scan", "android": "https://dc.lft.to/lastmile_qr_scan"}}, {"is_disabled": 0, "fusion_lat": 0.0, "lat": 38.90165116666667, "type": "electric_scooter", "lon": -77.02881866666667, "is_reserved": 0, "fusion_lon": 0.0, "bike_id": "7c1bd68de5a54496f055e13f4a96ba66", "name": "7c1bd68de5a54496f055e13f4a96ba66", "rental_uris": {"ios": "https://dc.lft.to/lastmile_qr_scan", "android": "https://dc.lft.to/lastmile_qr_scan"}}, {"is_disabled": 0, "fusion_lat": 0.0, "lat": 38.92523166666667, "type": "electric_scooter", "lon": -77.03852266666667, "is_reserved": 0, "fusion_lon": 0.0, "bike_id": "b954c67b536049a2d0a26436ff9d1b70", "name": "b954c67b536049a2d0a26436ff9d1b70", "rental_uris": {"ios": "https://dc.lft.to/lastmile_qr_scan", "android": "https://dc.lft.to/lastmile_qr_scan"}}, {"is_disabled": 0, "fusion_lat": 0.0, "lat": 38.907786333333334, "type": "electric_scooter", "lon": -77.07157233333334, "is_reserved": 0, "fusion_lon": 0.0, "bike_id": "fdbaff7fa134ab4579783781162865cc", "name": "fdbaff7fa134ab4579783781162865cc", "rental_uris": {"ios": "https://dc.lft.to/lastmile_qr_scan", "android": "https://dc.lft.to/lastmile_qr_scan"}}, {"is_disabled": 0, "fusion_lat": 0.0, "lat": 39.056344833333334, "type": "electric_bike", "lon": -77.12529866666667, "is_reserved": 0, "fusion_lon": 0.0, "bike_id": "cca1eeba5fa1ffa4c071a64db5d8ce12", "name": "cca1eeba5fa1ffa4c071a64db5d8ce12", "rental_uris": {"ios": "https://dc.lft.to/lastmile_qr_scan", "android": "https://dc.lft.to/lastmile_qr_scan"}}, {"is_disabled": 0, "fusion_lat": 0.0, "lat": 38.9073045, "type": "electric_scooter", "lon": -77.0006695, "is_reserved": 0, "fusion_lon": 0.0, "bike_id": "f56eb609640e7ee4b4bbfd0b34d35d0e", "name": "f56eb609640e7ee4b4bbfd0b34d35d0e", "rental_uris": {"ios": "https://dc.lft.to/lastmile_qr_scan", "android": "https://dc.lft.to/lastmile_qr_scan"}}, {"is_disabled": 0, "fusion_lat": 0.0, "lat": 38.91395683333333, "type": "electric_scooter", "lon": -77.03929233333334, "is_reserved": 0, "fusion_lon": 0.0, "bike_id": "a91ee51817736a3058bc4484abde5171", "name": "a91ee51817736a3058bc4484abde5171", "rental_uris": {"ios": "https://dc.lft.to/lastmile_qr_scan", "android": "https://dc.lft.to/lastmile_qr_scan"}}, {"is_disabled": 0, "fusion_lat": 0.0, "lat": 38.907271333333334, "type": "electric_scooter", "lon": -76.99859, "is_reserved": 0, "fusion_lon": 0.0, "bike_id": "fdc360e47101699b088ee9b98f4b2113", "name": "fdc360e47101699b088ee9b98f4b2113", "rental_uris": {"ios": "https://dc.lft.to/lastmile_qr_scan", "android": "https://dc.lft.to/lastmile_qr_scan"}}, {"is_disabled": 0, "fusion_lat": 0.0, "lat": 38.91607533333333, "type": "electric_scooter", "lon": -77.0330165, "is_reserved": 0, "fusion_lon": 0.0, "bike_id": "01971666d0d529b243b61f625635665f", "name": "01971666d0d529b243b61f625635665f", "rental_uris": {"ios": "https://dc.lft.to/lastmile_qr_scan", "android": "https://dc.lft.to/lastmile_qr_scan"}}, {"is_disabled": 0, "fusion_lat": 0.0, "lat": 38.88637683333333, "type": "electric_bike", "lon": -76.9547335, "is_reserved": 0, "fusion_lon": 0.0, "bike_id": "08c713d9942249d062e02494a0f5843d", "name": "08c713d9942249d062e02494a0f5843d", "rental_uris": {"ios": "https://dc.lft.to/lastmile_qr_scan", "android": "https://dc.lft.to/lastmile_qr_scan"}}, {"is_disabled": 0, "fusion_lat": 0.0, "lat": 38.953985833333334, "type": "electric_scooter", "lon": -77.0274845, "is_reserved": 0, "fusion_lon": 0.0, "bike_id": "6950b0098810e7b01d8539884be301b2", "name": "6950b0098810e7b01d8539884be301b2", "rental_uris": {"ios": "https://dc.lft.to/lastmile_qr_scan", "android": "https://dc.lft.to/lastmile_qr_scan"}}, {"is_disabled": 0, "fusion_lat": 0.0, "lat": 38.86663633333333, "type": "electric_scooter", "lon": -76.989059, "is_reserved": 0, "fusion_lon": 0.0, "bike_id": "561765cb072ee8ec076fbaa478143d6e", "name": "561765cb072ee8ec076fbaa478143d6e", "rental_uris": {"ios": "https://dc.lft.to/lastmile_qr_scan", "android": "https://dc.lft.to/lastmile_qr_scan"}}, {"is_disabled": 0, "fusion_lat": 0.0, "lat": 38.84461066666667, "type": "electric_bike", "lon": -76.98753466666666, "is_reserved": 0, "fusion_lon": 0.0, "bike_id": "de455f80bc422a5777d8a36426d045ad", "name": "de455f80bc422a5777d8a36426d045ad", "rental_uris": {"ios": "https://dc.lft.to/lastmile_qr_scan", "android": "https://dc.lft.to/lastmile_qr_scan"}}, {"is_disabled": 0, "fusion_lat": 0.0, "lat": 38.900313833333335, "type": "electric_scooter", "lon": -76.99862516666667, "is_reserved": 0, "fusion_lon": 0.0, "bike_id": "ae933afab61d6cc72be82fedf5443495", "name": "ae933afab61d6cc72be82fedf5443495", "rental_uris": {"ios": "https://dc.lft.to/lastmile_qr_scan", "android": "https://dc.lft.to/lastmile_qr_scan"}}, {"is_disabled": 0, "fusion_lat": 0.0, "lat": 38.94632433333334, "type": "electric_scooter", "lon": -77.01845116666667, "is_reserved": 0, "fusion_lon": 0.0, "bike_id": "e7843bdbf121025d5f955ae8446b0ec1", "name": "e7843bdbf121025d5f955ae8446b0ec1", "rental_uris": {"ios": "https://dc.lft.to/lastmile_qr_scan", "android": "https://dc.lft.to/lastmile_qr_scan"}}, {"is_disabled": 0, "fusion_lat": 0.0, "lat": 38.865201666666664, "type": "electric_scooter", "lon": -76.99042283333333, "is_reserved": 0, "fusion_lon": 0.0, "bike_id": "78130edb82648704c5213d8c695a783b", "name": "78130edb82648704c5213d8c695a783b", "rental_uris": {"ios": "https://dc.lft.to/lastmile_qr_scan", "android": "https://dc.lft.to/lastmile_qr_scan"}}, {"is_disabled": 0, "fusion_lat": 0.0, "lat": 38.92122883333333, "type": "electric_scooter", "lon": -77.04578883333333, "is_reserved": 0, "fusion_lon": 0.0, "bike_id": "02843d435282049ae7f9a5d0ed0cb28a", "name": "02843d435282049ae7f9a5d0ed0cb28a", "rental_uris": {"ios": "https://dc.lft.to/lastmile_qr_scan", "android": "https://dc.lft.to/lastmile_qr_scan"}}, {"is_disabled": 0, "fusion_lat": 0.0, "lat": 38.91548233333333, "type": "electric_scooter", "lon": -77.04611733333333, "is_reserved": 0, "fusion_lon": 0.0, "bike_id": "2166086b43b4c8eae0aaaea73501a04d", "name": "2166086b43b4c8eae0aaaea73501a04d", "rental_uris": {"ios": "https://dc.lft.to/lastmile_qr_scan", "android": "https://dc.lft.to/lastmile_qr_scan"}}, {"is_disabled": 0, "fusion_lat": 0.0, "lat": 38.91472916666667, "type": "electric_scooter", "lon": -76.98435816666667, "is_reserved": 0, "fusion_lon": 0.0, "bike_id": "dd67276ae2eb276eac920c232cb640ef", "name": "dd67276ae2eb276eac920c232cb640ef", "rental_uris": {"ios": "https://dc.lft.to/lastmile_qr_scan", "android": "https://dc.lft.to/lastmile_qr_scan"}}, {"is_disabled": 0, "fusion_lat": 0.0, "lat": 38.90014133333333, "type": "electric_scooter", "lon": -77.03081466666667, "is_reserved": 0, "fusion_lon": 0.0, "bike_id": "5b951d4d9fa34a9c3ec016fe3b3ba646", "name": "5b951d4d9fa34a9c3ec016fe3b3ba646", "rental_uris": {"ios": "https://dc.lft.to/lastmile_qr_scan", "android": "https://dc.lft.to/lastmile_qr_scan"}}, {"is_disabled": 0, "fusion_lat": 0.0, "lat": 38.890531333333335, "type": "electric_scooter", "lon": -76.93752683333334, "is_reserved": 0, "fusion_lon": 0.0, "bike_id": "a0acb5e487bdff10653e3a4e5c3935a4", "name": "a0acb5e487bdff10653e3a4e5c3935a4", "rental_uris": {"ios": "https://dc.lft.to/lastmile_qr_scan", "android": "https://dc.lft.to/lastmile_qr_scan"}}, {"is_disabled": 0, "fusion_lat": 0.0, "lat": 38.87631016666667, "type": "electric_scooter", "lon": -76.96529066666666, "is_reserved": 0, "fusion_lon": 0.0, "bike_id": "8f7c4e3cf3febb7b2cc6402b306db54b", "name": "8f7c4e3cf3febb7b2cc6402b306db54b", "rental_uris": {"ios": "https://dc.lft.to/lastmile_qr_scan", "android": "https://dc.lft.to/lastmile_qr_scan"}}, {"is_disabled": 0, "fusion_lat": 0.0, "lat": 38.919610166666665, "type": "electric_scooter", "lon": -77.027175, "is_reserved": 0, "fusion_lon": 0.0, "bike_id": "b164e13eb5fcf9bcc413f4f96762b4cd", "name": "b164e13eb5fcf9bcc413f4f96762b4cd", "rental_uris": {"ios": "https://dc.lft.to/lastmile_qr_scan", "android": "https://dc.lft.to/lastmile_qr_scan"}}, {"is_disabled": 0, "fusion_lat": 0.0, "lat": 38.90842716666667, "type": "electric_scooter", "lon": -77.02698483333333, "is_reserved": 0, "fusion_lon": 0.0, "bike_id": "942a6011cc7b64fdde9ea22dd42a3f16", "name": "942a6011cc7b64fdde9ea22dd42a3f16", "rental_uris": {"ios": "https://dc.lft.to/lastmile_qr_scan", "android": "https://dc.lft.to/lastmile_qr_scan"}}, {"is_disabled": 0, "fusion_lat": 0.0, "lat": 38.84611366666667, "type": "electric_bike", "lon": -76.96905683333334, "is_reserved": 0, "fusion_lon": 0.0, "bike_id": "64f6984935046d4afa4c54bb51c89fc5", "name": "64f6984935046d4afa4c54bb51c89fc5", "rental_uris": {"ios": "https://dc.lft.to/lastmile_qr_scan", "android": "https://dc.lft.to/lastmile_qr_scan"}}, {"is_disabled": 0, "fusion_lat": 0.0, "lat": 38.84616066666667, "type": "electric_bike", "lon": -76.97820483333334, "is_reserved": 0, "fusion_lon": 0.0, "bike_id": "3db3904cd94912b6d02799ab959e7357", "name": "3db3904cd94912b6d02799ab959e7357", "rental_uris": {"ios": "https://dc.lft.to/lastmile_qr_scan", "android": "https://dc.lft.to/lastmile_qr_scan"}}, {"is_disabled": 0, "fusion_lat": 0.0, "lat": 38.924971, "type": "electric_scooter", "lon": -77.02153633333333, "is_reserved": 0, "fusion_lon": 0.0, "bike_id": "65ae189c013da8290fd70c4e7455b295", "name": "65ae189c013da8290fd70c4e7455b295", "rental_uris": {"ios": "https://dc.lft.to/lastmile_qr_scan", "android": "https://dc.lft.to/lastmile_qr_scan"}}, {"is_disabled": 0, "fusion_lat": 0.0, "lat": 38.9034895, "type": "electric_scooter", "lon": -77.03890516666667, "is_reserved": 0, "fusion_lon": 0.0, "bike_id": "d3830843bb7114c1ddf3f69fb545c331", "name": "d3830843bb7114c1ddf3f69fb545c331", "rental_uris": {"ios": "https://dc.lft.to/lastmile_qr_scan", "android": "https://dc.lft.to/lastmile_qr_scan"}}, {"is_disabled": 0, "fusion_lat": 0.0, "lat": 38.90300833333333, "type": "electric_scooter", "lon": -77.03469683333333, "is_reserved": 0, "fusion_lon": 0.0, "bike_id": "a78fc5b8895cc2fe985db10ba17c1871", "name": "a78fc5b8895cc2fe985db10ba17c1871", "rental_uris": {"ios": "https://dc.lft.to/lastmile_qr_scan", "android": "https://dc.lft.to/lastmile_qr_scan"}}, {"is_disabled": 0, "fusion_lat": 0.0, "lat": 38.8832525, "type": "electric_scooter", "lon": -77.00484433333334, "is_reserved": 0, "fusion_lon": 0.0, "bike_id": "d8eabfa7067929e0355ab388c4a5d788", "name": "d8eabfa7067929e0355ab388c4a5d788", "rental_uris": {"ios": "https://dc.lft.to/lastmile_qr_scan", "android": "https://dc.lft.to/lastmile_qr_scan"}}, {"is_disabled": 0, "fusion_lat": 0.0, "lat": 38.901270333333336, "type": "electric_scooter", "lon": -76.99660383333334, "is_reserved": 0, "fusion_lon": 0.0, "bike_id": "abc1107d4f5aeb7254fef3dea25cdd33", "name": "abc1107d4f5aeb7254fef3dea25cdd33", "rental_uris": {"ios": "https://dc.lft.to/lastmile_qr_scan", "android": "https://dc.lft.to/lastmile_qr_scan"}}, {"is_disabled": 0, "fusion_lat": 0.0, "lat": 38.912755833333335, "type": "electric_scooter", "lon": -77.02247783333334, "is_reserved": 0, "fusion_lon": 0.0, "bike_id": "83bb825ef45974b039631659b1038e6e", "name": "83bb825ef45974b039631659b1038e6e", "rental_uris": {"ios": "https://dc.lft.to/lastmile_qr_scan", "android": "https://dc.lft.to/lastmile_qr_scan"}}, {"is_disabled": 0, "fusion_lat": 0.0, "lat": 39.0581235, "type": "electric_bike", "lon": -77.12625866666667, "is_reserved": 0, "fusion_lon": 0.0, "bike_id": "f2e1647df09b137f6aae0c9f486cca77", "name": "f2e1647df09b137f6aae0c9f486cca77", "rental_uris": {"ios": "https://dc.lft.to/lastmile_qr_scan", "android": "https://dc.lft.to/lastmile_qr_scan"}}, {"is_disabled": 0, "fusion_lat": 0.0, "lat": 38.92362583333333, "type": "electric_scooter", "lon": -77.05133583333334, "is_reserved": 0, "fusion_lon": 0.0, "bike_id": "426565ba26f5e0af36e865fe7f8aab0a", "name": "426565ba26f5e0af36e865fe7f8aab0a", "rental_uris": {"ios": "https://dc.lft.to/lastmile_qr_scan", "android": "https://dc.lft.to/lastmile_qr_scan"}}, {"is_disabled": 0, "fusion_lat": 0.0, "lat": 38.89558066666667, "type": "electric_scooter", "lon": -76.93041766666667, "is_reserved": 0, "fusion_lon": 0.0, "bike_id": "6f9097567074b769fd85c3686801cc14", "name": "6f9097567074b769fd85c3686801cc14", "rental_uris": {"ios": "https://dc.lft.to/lastmile_qr_scan", "android": "https://dc.lft.to/lastmile_qr_scan"}}, {"is_disabled": 0, "fusion_lat": 0.0, "lat": 38.89613416666667, "type": "electric_scooter", "lon": -77.04050066666667, "is_reserved": 0, "fusion_lon": 0.0, "bike_id": "b25b0ede6b3e63c2fcd0461351b8a71b", "name": "b25b0ede6b3e63c2fcd0461351b8a71b", "rental_uris": {"ios": "https://dc.lft.to/lastmile_qr_scan", "android": "https://dc.lft.to/lastmile_qr_scan"}}, {"is_disabled": 0, "fusion_lat": 0.0, "lat": 38.953557833333335, "type": "electric_bike", "lon": -76.98095833333333, "is_reserved": 0, "fusion_lon": 0.0, "bike_id": "a49d99ddbaa86370c2c88b43b7fe6020", "name": "a49d99ddbaa86370c2c88b43b7fe6020", "rental_uris": {"ios": "https://dc.lft.to/lastmile_qr_scan", "android": "https://dc.lft.to/lastmile_qr_scan"}}, {"is_disabled": 0, "fusion_lat": 0.0, "lat": 38.973689, "type": "electric_scooter", "lon": -77.018644, "is_reserved": 0, "fusion_lon": 0.0, "bike_id": "78a20d2a4fffbae34e5e4faaef108461", "name": "78a20d2a4fffbae34e5e4faaef108461", "rental_uris": {"ios": "https://dc.lft.to/lastmile_qr_scan", "android": "https://dc.lft.to/lastmile_qr_scan"}}, {"is_disabled": 0, "fusion_lat": 0.0, "lat": 38.87988216666667, "type": "electric_scooter", "lon": -77.02407433333333, "is_reserved": 0, "fusion_lon": 0.0, "bike_id": "a075d2ddb7738b21370056b03457a840", "name": "a075d2ddb7738b21370056b03457a840", "rental_uris": {"ios": "https://dc.lft.to/lastmile_qr_scan", "android": "https://dc.lft.to/lastmile_qr_scan"}}, {"is_disabled": 0, "fusion_lat": 0.0, "lat": 38.84291116666667, "type": "electric_scooter", "lon": -76.99950716666666, "is_reserved": 0, "fusion_lon": 0.0, "bike_id": "12780b42e00e886cfe0ec0934dbf50e6", "name": "12780b42e00e886cfe0ec0934dbf50e6", "rental_uris": {"ios": "https://dc.lft.to/lastmile_qr_scan", "android": "https://dc.lft.to/lastmile_qr_scan"}}, {"is_disabled": 0, "fusion_lat": 0.0, "lat": 38.867226333333335, "type": "electric_scooter", "lon": -76.98786583333333, "is_reserved": 0, "fusion_lon": 0.0, "bike_id": "93818b9a8d5f345af9f3b285f1b11699", "name": "93818b9a8d5f345af9f3b285f1b11699", "rental_uris": {"ios": "https://dc.lft.to/lastmile_qr_scan", "android": "https://dc.lft.to/lastmile_qr_scan"}}, {"is_disabled": 0, "fusion_lat": 0.0, "lat": 38.902209666666664, "type": "electric_scooter", "lon": -77.02133783333333, "is_reserved": 0, "fusion_lon": 0.0, "bike_id": "982de8b71a8864f1b6ca0e857268d4ec", "name": "982de8b71a8864f1b6ca0e857268d4ec", "rental_uris": {"ios": "https://dc.lft.to/lastmile_qr_scan", "android": "https://dc.lft.to/lastmile_qr_scan"}}, {"is_disabled": 0, "fusion_lat": 0.0, "lat": 38.89612066666667, "type": "electric_scooter", "lon": -77.04500133333333, "is_reserved": 0, "fusion_lon": 0.0, "bike_id": "1dd3c6102d5d90744524a19ece4ceb57", "name": "1dd3c6102d5d90744524a19ece4ceb57", "rental_uris": {"ios": "https://dc.lft.to/lastmile_qr_scan", "android": "https://dc.lft.to/lastmile_qr_scan"}}, {"is_disabled": 0, "fusion_lat": 0.0, "lat": 38.903820333333336, "type": "electric_scooter", "lon": -77.03629716666667, "is_reserved": 0, "fusion_lon": 0.0, "bike_id": "e721983285712a7463fda9ec4da3af4e", "name": "e721983285712a7463fda9ec4da3af4e", "rental_uris": {"ios": "https://dc.lft.to/lastmile_qr_scan", "android": "https://dc.lft.to/lastmile_qr_scan"}}, {"is_disabled": 0, "fusion_lat": 0.0, "lat": 38.916635166666666, "type": "electric_scooter", "lon": -77.0066275, "is_reserved": 0, "fusion_lon": 0.0, "bike_id": "d1212e52e097b65b926bba315f8dda18", "name": "d1212e52e097b65b926bba315f8dda18", "rental_uris": {"ios": "https://dc.lft.to/lastmile_qr_scan", "android": "https://dc.lft.to/lastmile_qr_scan"}}, {"is_disabled": 0, "fusion_lat": 0.0, "lat": 38.8972165, "type": "electric_scooter", "lon": -77.0271145, "is_reserved": 0, "fusion_lon": 0.0, "bike_id": "2f6a0d6bfdea3c6a93478216a9088559", "name": "2f6a0d6bfdea3c6a93478216a9088559", "rental_uris": {"ios": "https://dc.lft.to/lastmile_qr_scan", "android": "https://dc.lft.to/lastmile_qr_scan"}}, {"is_disabled": 0, "fusion_lat": 0.0, "lat": 38.8922375, "type": "electric_scooter", "lon": -77.04197333333333, "is_reserved": 0, "fusion_lon": 0.0, "bike_id": "f0ce4e76f307be05c3cf8cf4e9b20964", "name": "f0ce4e76f307be05c3cf8cf4e9b20964", "rental_uris": {"ios": "https://dc.lft.to/lastmile_qr_scan", "android": "https://dc.lft.to/lastmile_qr_scan"}}, {"is_disabled": 0, "fusion_lat": 0.0, "lat": 38.94050333333333, "type": "electric_scooter", "lon": -77.09268433333334, "is_reserved": 0, "fusion_lon": 0.0, "bike_id": "a13c2e652b932a0ca7f08e538cafbb44", "name": "a13c2e652b932a0ca7f08e538cafbb44", "rental_uris": {"ios": "https://dc.lft.to/lastmile_qr_scan", "android": "https://dc.lft.to/lastmile_qr_scan"}}, {"is_disabled": 0, "fusion_lat": 0.0, "lat": 38.9199425, "type": "electric_scooter", "lon": -77.04165483333334, "is_reserved": 0, "fusion_lon": 0.0, "bike_id": "74cfe6b10470db20687fb1c19623c664", "name": "74cfe6b10470db20687fb1c19623c664", "rental_uris": {"ios": "https://dc.lft.to/lastmile_qr_scan", "android": "https://dc.lft.to/lastmile_qr_scan"}}, {"is_disabled": 0, "fusion_lat": 0.0, "lat": 38.922593666666664, "type": "electric_scooter", "lon": -77.03521383333333, "is_reserved": 0, "fusion_lon": 0.0, "bike_id": "c2745ba7a88a744987ef6545a14feedb", "name": "c2745ba7a88a744987ef6545a14feedb", "rental_uris": {"ios": "https://dc.lft.to/lastmile_qr_scan", "android": "https://dc.lft.to/lastmile_qr_scan"}}, {"is_disabled": 0, "fusion_lat": 0.0, "lat": 38.899700333333335, "type": "electric_scooter", "lon": -77.05172166666667, "is_reserved": 0, "fusion_lon": 0.0, "bike_id": "0c0b148f01bf3a73d25c358e6b098cc6", "name": "0c0b148f01bf3a73d25c358e6b098cc6", "rental_uris": {"ios": "https://dc.lft.to/lastmile_qr_scan", "android": "https://dc.lft.to/lastmile_qr_scan"}}, {"is_disabled": 0, "fusion_lat": 0.0, "lat": 38.892279333333335, "type": "electric_scooter", "lon": -77.02647316666666, "is_reserved": 0, "fusion_lon": 0.0, "bike_id": "8c868539c80f9cb0136cbf695e50c46a", "name": "8c868539c80f9cb0136cbf695e50c46a", "rental_uris": {"ios": "https://dc.lft.to/lastmile_qr_scan", "android": "https://dc.lft.to/lastmile_qr_scan"}}, {"is_disabled": 0, "fusion_lat": 0.0, "lat": 38.92265316666666, "type": "electric_scooter", "lon": -77.04128683333333, "is_reserved": 0, "fusion_lon": 0.0, "bike_id": "bbff8c6650d7a9f37342c0120536137a", "name": "bbff8c6650d7a9f37342c0120536137a", "rental_uris": {"ios": "https://dc.lft.to/lastmile_qr_scan", "android": "https://dc.lft.to/lastmile_qr_scan"}}, {"is_disabled": 0, "fusion_lat": 0.0, "lat": 38.8982335, "type": "electric_scooter", "lon": -77.02918983333333, "is_reserved": 0, "fusion_lon": 0.0, "bike_id": "dbcae88214b88898530777615035ff31", "name": "dbcae88214b88898530777615035ff31", "rental_uris": {"ios": "https://dc.lft.to/lastmile_qr_scan", "android": "https://dc.lft.to/lastmile_qr_scan"}}, {"is_disabled": 0, "fusion_lat": 0.0, "lat": 38.926304, "type": "electric_scooter", "lon": -77.03789016666667, "is_reserved": 0, "fusion_lon": 0.0, "bike_id": "fed29bf3f31b42253bbe1bd4e7f05f73", "name": "fed29bf3f31b42253bbe1bd4e7f05f73", "rental_uris": {"ios": "https://dc.lft.to/lastmile_qr_scan", "android": "https://dc.lft.to/lastmile_qr_scan"}}, {"is_disabled": 0, "fusion_lat": 0.0, "lat": 38.89263583333333, "type": "electric_scooter", "lon": -76.94158916666666, "is_reserved": 0, "fusion_lon": 0.0, "bike_id": "f58d1175a317a7ad84299fe44b8b5180", "name": "f58d1175a317a7ad84299fe44b8b5180", "rental_uris": {"ios": "https://dc.lft.to/lastmile_qr_scan", "android": "https://dc.lft.to/lastmile_qr_scan"}}, {"is_disabled": 0, "fusion_lat": 0.0, "lat": 38.89745883333333, "type": "electric_scooter", "lon": -77.0468245, "is_reserved": 0, "fusion_lon": 0.0, "bike_id": "efcc36b134831ed7e623141aa3bb60e8", "name": "efcc36b134831ed7e623141aa3bb60e8", "rental_uris": {"ios": "https://dc.lft.to/lastmile_qr_scan", "android": "https://dc.lft.to/lastmile_qr_scan"}}, {"is_disabled": 0, "fusion_lat": 0.0, "lat": 38.892249666666665, "type": "electric_scooter", "lon": -77.04647716666666, "is_reserved": 0, "fusion_lon": 0.0, "bike_id": "baabbb8737e76ed013bca2f175c07733", "name": "baabbb8737e76ed013bca2f175c07733", "rental_uris": {"ios": "https://dc.lft.to/lastmile_qr_scan", "android": "https://dc.lft.to/lastmile_qr_scan"}}, {"is_disabled": 0, "fusion_lat": 0.0, "lat": 38.92259166666667, "type": "electric_scooter", "lon": -77.03404283333333, "is_reserved": 0, "fusion_lon": 0.0, "bike_id": "1f8a932c6681aa12f81539fe14c8e401", "name": "1f8a932c6681aa12f81539fe14c8e401", "rental_uris": {"ios": "https://dc.lft.to/lastmile_qr_scan", "android": "https://dc.lft.to/lastmile_qr_scan"}}, {"is_disabled": 0, "fusion_lat": 0.0, "lat": 38.8961705, "type": "electric_scooter", "lon": -77.04501033333334, "is_reserved": 0, "fusion_lon": 0.0, "bike_id": "c35407e4c7221f86d578f8ca0c4c7426", "name": "c35407e4c7221f86d578f8ca0c4c7426", "rental_uris": {"ios": "https://dc.lft.to/lastmile_qr_scan", "android": "https://dc.lft.to/lastmile_qr_scan"}}, {"is_disabled": 0, "fusion_lat": 0.0, "lat": 38.82248283333333, "type": "electric_bike", "lon": -77.00560733333333, "is_reserved": 0, "fusion_lon": 0.0, "bike_id": "f3a27e12c4f84eb3abcec68d5941cd4b", "name": "f3a27e12c4f84eb3abcec68d5941cd4b", "rental_uris": {"ios": "https://dc.lft.to/lastmile_qr_scan", "android": "https://dc.lft.to/lastmile_qr_scan"}}, {"is_disabled": 0, "fusion_lat": 0.0, "lat": 38.874772666666665, "type": "electric_scooter", "lon": -77.01070366666667, "is_reserved": 0, "fusion_lon": 0.0, "bike_id": "c469a4e63b2f2bf106249bca4a4efe19", "name": "c469a4e63b2f2bf106249bca4a4efe19", "rental_uris": {"ios": "https://dc.lft.to/lastmile_qr_scan", "android": "https://dc.lft.to/lastmile_qr_scan"}}, {"is_disabled": 0, "fusion_lat": 0.0, "lat": 38.914907, "type": "electric_scooter", "lon": -77.018579, "is_reserved": 0, "fusion_lon": 0.0, "bike_id": "3b90c5c0255a38dd1d4f28af7a6fa074", "name": "3b90c5c0255a38dd1d4f28af7a6fa074", "rental_uris": {"ios": "https://dc.lft.to/lastmile_qr_scan", "android": "https://dc.lft.to/lastmile_qr_scan"}}, {"is_disabled": 0, "fusion_lat": 0.0, "lat": 38.876476833333335, "type": "electric_scooter", "lon": -77.00434516666667, "is_reserved": 0, "fusion_lon": 0.0, "bike_id": "7459ee6238ee442b63db37f6e99b0493", "name": "7459ee6238ee442b63db37f6e99b0493", "rental_uris": {"ios": "https://dc.lft.to/lastmile_qr_scan", "android": "https://dc.lft.to/lastmile_qr_scan"}}, {"is_disabled": 0, "fusion_lat": 0.0, "lat": 38.9058305, "type": "electric_scooter", "lon": -77.02985333333334, "is_reserved": 0, "fusion_lon": 0.0, "bike_id": "d44d62c36d2cce6b3f7e0f0e1a4634ef", "name": "d44d62c36d2cce6b3f7e0f0e1a4634ef", "rental_uris": {"ios": "https://dc.lft.to/lastmile_qr_scan", "android": "https://dc.lft.to/lastmile_qr_scan"}}, {"is_disabled": 0, "fusion_lat": 0.0, "lat": 38.864524, "type": "electric_scooter", "lon": -76.9741015, "is_reserved": 0, "fusion_lon": 0.0, "bike_id": "d4917b7ea7466f2a4f5555869093f94e", "name": "d4917b7ea7466f2a4f5555869093f94e", "rental_uris": {"ios": "https://dc.lft.to/lastmile_qr_scan", "android": "https://dc.lft.to/lastmile_qr_scan"}}, {"is_disabled": 0, "fusion_lat": 0.0, "lat": 38.90805783333333, "type": "electric_scooter", "lon": -76.99847066666666, "is_reserved": 0, "fusion_lon": 0.0, "bike_id": "81485b54c12e93234f0cddfc84e76f85", "name": "81485b54c12e93234f0cddfc84e76f85", "rental_uris": {"ios": "https://dc.lft.to/lastmile_qr_scan", "android": "https://dc.lft.to/lastmile_qr_scan"}}, {"is_disabled": 0, "fusion_lat": 0.0, "lat": 38.90866583333333, "type": "electric_scooter", "lon": -77.02847116666666, "is_reserved": 0, "fusion_lon": 0.0, "bike_id": "fe2b6053c8884b5846a0c9181e875920", "name": "fe2b6053c8884b5846a0c9181e875920", "rental_uris": {"ios": "https://dc.lft.to/lastmile_qr_scan", "android": "https://dc.lft.to/lastmile_qr_scan"}}, {"is_disabled": 0, "fusion_lat": 0.0, "lat": 38.897277833333334, "type": "electric_scooter", "lon": -77.0489445, "is_reserved": 0, "fusion_lon": 0.0, "bike_id": "695827beaacfc9f1508bfdec9f976e01", "name": "695827beaacfc9f1508bfdec9f976e01", "rental_uris": {"ios": "https://dc.lft.to/lastmile_qr_scan", "android": "https://dc.lft.to/lastmile_qr_scan"}}, {"is_disabled": 0, "fusion_lat": 0.0, "lat": 38.90915966666667, "type": "electric_scooter", "lon": -77.0800875, "is_reserved": 0, "fusion_lon": 0.0, "bike_id": "b83cb1ac31a8752fe1f98d98ab134cf8", "name": "b83cb1ac31a8752fe1f98d98ab134cf8", "rental_uris": {"ios": "https://dc.lft.to/lastmile_qr_scan", "android": "https://dc.lft.to/lastmile_qr_scan"}}, {"is_disabled": 0, "fusion_lat": 0.0, "lat": 38.911087333333334, "type": "electric_scooter", "lon": -77.04501733333333, "is_reserved": 0, "fusion_lon": 0.0, "bike_id": "0d9dbd862bea51f0481077b865ffe5c1", "name": "0d9dbd862bea51f0481077b865ffe5c1", "rental_uris": {"ios": "https://dc.lft.to/lastmile_qr_scan", "android": "https://dc.lft.to/lastmile_qr_scan"}}, {"is_disabled": 0, "fusion_lat": 0.0, "lat": 38.88741433333333, "type": "electric_scooter", "lon": -77.01534716666667, "is_reserved": 0, "fusion_lon": 0.0, "bike_id": "bab6ae04256bfe95ef75addfe7ab437b", "name": "bab6ae04256bfe95ef75addfe7ab437b", "rental_uris": {"ios": "https://dc.lft.to/lastmile_qr_scan", "android": "https://dc.lft.to/lastmile_qr_scan"}}, {"is_disabled": 0, "fusion_lat": 0.0, "lat": 38.941838833333335, "type": "electric_scooter", "lon": -77.02483766666667, "is_reserved": 0, "fusion_lon": 0.0, "bike_id": "bf9f7dfede2a34b15141d280e2189a07", "name": "bf9f7dfede2a34b15141d280e2189a07", "rental_uris": {"ios": "https://dc.lft.to/lastmile_qr_scan", "android": "https://dc.lft.to/lastmile_qr_scan"}}, {"is_disabled": 0, "fusion_lat": 0.0, "lat": 38.892199833333336, "type": "electric_bike", "lon": -77.10781933333334, "is_reserved": 0, "fusion_lon": 0.0, "bike_id": "5afc74c06387e4ac4ac47177ccdd2792", "name": "5afc74c06387e4ac4ac47177ccdd2792", "rental_uris": {"ios": "https://dc.lft.to/lastmile_qr_scan", "android": "https://dc.lft.to/lastmile_qr_scan"}}, {"is_disabled": 0, "fusion_lat": 0.0, "lat": 38.90593166666667, "type": "electric_scooter", "lon": -77.016127, "is_reserved": 0, "fusion_lon": 0.0, "bike_id": "593c0af847fda6a31bda476b577b4982", "name": "593c0af847fda6a31bda476b577b4982", "rental_uris": {"ios": "https://dc.lft.to/lastmile_qr_scan", "android": "https://dc.lft.to/lastmile_qr_scan"}}, {"is_disabled": 0, "fusion_lat": 0.0, "lat": 38.905719, "type": "electric_scooter", "lon": -77.02213916666666, "is_reserved": 0, "fusion_lon": 0.0, "bike_id": "3e266f1265fb8f169702e6342b8f93bb", "name": "3e266f1265fb8f169702e6342b8f93bb", "rental_uris": {"ios": "https://dc.lft.to/lastmile_qr_scan", "android": "https://dc.lft.to/lastmile_qr_scan"}}, {"is_disabled": 0, "fusion_lat": 0.0, "lat": 38.900364333333336, "type": "electric_scooter", "lon": -77.00537533333333, "is_reserved": 0, "fusion_lon": 0.0, "bike_id": "8327fc1779267d321c5d45a1dc966d20", "name": "8327fc1779267d321c5d45a1dc966d20", "rental_uris": {"ios": "https://dc.lft.to/lastmile_qr_scan", "android": "https://dc.lft.to/lastmile_qr_scan"}}, {"is_disabled": 0, "fusion_lat": 0.0, "lat": 38.920291, "type": "electric_scooter", "lon": -77.027918, "is_reserved": 0, "fusion_lon": 0.0, "bike_id": "88fc68f861099184d1ba254cd107ed74", "name": "88fc68f861099184d1ba254cd107ed74", "rental_uris": {"ios": "https://dc.lft.to/lastmile_qr_scan", "android": "https://dc.lft.to/lastmile_qr_scan"}}, {"is_disabled": 0, "fusion_lat": 0.0, "lat": 38.91682866666667, "type": "electric_scooter", "lon": -77.01233, "is_reserved": 0, "fusion_lon": 0.0, "bike_id": "1af312040908e770116a662192ed3d2d", "name": "1af312040908e770116a662192ed3d2d", "rental_uris": {"ios": "https://dc.lft.to/lastmile_qr_scan", "android": "https://dc.lft.to/lastmile_qr_scan"}}, {"is_disabled": 0, "fusion_lat": 0.0, "lat": 38.884495, "type": "electric_scooter", "lon": -77.01533466666666, "is_reserved": 0, "fusion_lon": 0.0, "bike_id": "812e209a90e76a1337dfc91e57079cc9", "name": "812e209a90e76a1337dfc91e57079cc9", "rental_uris": {"ios": "https://dc.lft.to/lastmile_qr_scan", "android": "https://dc.lft.to/lastmile_qr_scan"}}, {"is_disabled": 0, "fusion_lat": 0.0, "lat": 38.89220683333333, "type": "electric_scooter", "lon": -77.02138333333333, "is_reserved": 0, "fusion_lon": 0.0, "bike_id": "3fcde46435185a53c19a226c35944d70", "name": "3fcde46435185a53c19a226c35944d70", "rental_uris": {"ios": "https://dc.lft.to/lastmile_qr_scan", "android": "https://dc.lft.to/lastmile_qr_scan"}}, {"is_disabled": 0, "fusion_lat": 0.0, "lat": 38.916316333333334, "type": "electric_scooter", "lon": -77.0317985, "is_reserved": 0, "fusion_lon": 0.0, "bike_id": "1ec9b57d47b0f53dd25f9e972f15cc93", "name": "1ec9b57d47b0f53dd25f9e972f15cc93", "rental_uris": {"ios": "https://dc.lft.to/lastmile_qr_scan", "android": "https://dc.lft.to/lastmile_qr_scan"}}, {"is_disabled": 0, "fusion_lat": 0.0, "lat": 38.86112683333333, "type": "electric_scooter", "lon": -76.96779616666667, "is_reserved": 0, "fusion_lon": 0.0, "bike_id": "f0dcdfe7fc2dc2942aac7f3d91e717e6", "name": "f0dcdfe7fc2dc2942aac7f3d91e717e6", "rental_uris": {"ios": "https://dc.lft.to/lastmile_qr_scan", "android": "https://dc.lft.to/lastmile_qr_scan"}}, {"is_disabled": 0, "fusion_lat": 0.0, "lat": 38.919023333333335, "type": "electric_scooter", "lon": -77.0216985, "is_reserved": 0, "fusion_lon": 0.0, "bike_id": "2137ec03a9f9c00fbc50a03019cbc231", "name": "2137ec03a9f9c00fbc50a03019cbc231", "rental_uris": {"ios": "https://dc.lft.to/lastmile_qr_scan", "android": "https://dc.lft.to/lastmile_qr_scan"}}, {"is_disabled": 0, "fusion_lat": 0.0, "lat": 38.8768555, "type": "electric_scooter", "lon": -77.01759783333334, "is_reserved": 0, "fusion_lon": 0.0, "bike_id": "e182f8bf3bb25d6e02f62f6feb780062", "name": "e182f8bf3bb25d6e02f62f6feb780062", "rental_uris": {"ios": "https://dc.lft.to/lastmile_qr_scan", "android": "https://dc.lft.to/lastmile_qr_scan"}}, {"is_disabled": 0, "fusion_lat": 0.0, "lat": 38.902819, "type": "electric_scooter", "lon": -77.03386016666667, "is_reserved": 0, "fusion_lon": 0.0, "bike_id": "9b954717d7e011d57710571e244aaadf", "name": "9b954717d7e011d57710571e244aaadf", "rental_uris": {"ios": "https://dc.lft.to/lastmile_qr_scan", "android": "https://dc.lft.to/lastmile_qr_scan"}}, {"is_disabled": 0, "fusion_lat": 0.0, "lat": 38.90800483333334, "type": "electric_scooter", "lon": -77.04348983333334, "is_reserved": 0, "fusion_lon": 0.0, "bike_id": "922d4c0a83a9c0c02046ff71aa0a35cc", "name": "922d4c0a83a9c0c02046ff71aa0a35cc", "rental_uris": {"ios": "https://dc.lft.to/lastmile_qr_scan", "android": "https://dc.lft.to/lastmile_qr_scan"}}, {"is_disabled": 0, "fusion_lat": 0.0, "lat": 38.907741666666666, "type": "electric_scooter", "lon": -77.043552, "is_reserved": 0, "fusion_lon": 0.0, "bike_id": "e07e972e9e0402f68400286f4537d26d", "name": "e07e972e9e0402f68400286f4537d26d", "rental_uris": {"ios": "https://dc.lft.to/lastmile_qr_scan", "android": "https://dc.lft.to/lastmile_qr_scan"}}, {"is_disabled": 0, "fusion_lat": 0.0, "lat": 38.9000735, "type": "electric_scooter", "lon": -76.99843, "is_reserved": 0, "fusion_lon": 0.0, "bike_id": "b376ccbcf48e635fcdc3fd8fdb06b155", "name": "b376ccbcf48e635fcdc3fd8fdb06b155", "rental_uris": {"ios": "https://dc.lft.to/lastmile_qr_scan", "android": "https://dc.lft.to/lastmile_qr_scan"}}, {"is_disabled": 0, "fusion_lat": 0.0, "lat": 38.90555416666667, "type": "electric_scooter", "lon": -77.02488083333333, "is_reserved": 0, "fusion_lon": 0.0, "bike_id": "4f5e9d8c7a0f4f26eccd85484dc73967", "name": "4f5e9d8c7a0f4f26eccd85484dc73967", "rental_uris": {"ios": "https://dc.lft.to/lastmile_qr_scan", "android": "https://dc.lft.to/lastmile_qr_scan"}}, {"is_disabled": 0, "fusion_lat": 0.0, "lat": 38.883442333333335, "type": "electric_scooter", "lon": -77.03148683333333, "is_reserved": 0, "fusion_lon": 0.0, "bike_id": "81cc49e0fdf79f0a50c81632acef400a", "name": "81cc49e0fdf79f0a50c81632acef400a", "rental_uris": {"ios": "https://dc.lft.to/lastmile_qr_scan", "android": "https://dc.lft.to/lastmile_qr_scan"}}, {"is_disabled": 0, "fusion_lat": 0.0, "lat": 38.9666745, "type": "electric_scooter", "lon": -77.0240975, "is_reserved": 0, "fusion_lon": 0.0, "bike_id": "32d909b6ff2e27916e7db4399ad7de33", "name": "32d909b6ff2e27916e7db4399ad7de33", "rental_uris": {"ios": "https://dc.lft.to/lastmile_qr_scan", "android": "https://dc.lft.to/lastmile_qr_scan"}}, {"is_disabled": 0, "fusion_lat": 0.0, "lat": 38.89918266666667, "type": "electric_scooter", "lon": -77.04082866666667, "is_reserved": 0, "fusion_lon": 0.0, "bike_id": "584f10b85b283feb6279c2b7065569a1", "name": "584f10b85b283feb6279c2b7065569a1", "rental_uris": {"ios": "https://dc.lft.to/lastmile_qr_scan", "android": "https://dc.lft.to/lastmile_qr_scan"}}, {"is_disabled": 0, "fusion_lat": 0.0, "lat": 38.861064999999996, "type": "electric_scooter", "lon": -76.98360333333333, "is_reserved": 0, "fusion_lon": 0.0, "bike_id": "528e5364053fb7503da99278893259f0", "name": "528e5364053fb7503da99278893259f0", "rental_uris": {"ios": "https://dc.lft.to/lastmile_qr_scan", "android": "https://dc.lft.to/lastmile_qr_scan"}}, {"is_disabled": 0, "fusion_lat": 0.0, "lat": 38.91013483333333, "type": "electric_scooter", "lon": -76.99389666666667, "is_reserved": 0, "fusion_lon": 0.0, "bike_id": "6f809bd502f6ebb6a044099648bf0204", "name": "6f809bd502f6ebb6a044099648bf0204", "rental_uris": {"ios": "https://dc.lft.to/lastmile_qr_scan", "android": "https://dc.lft.to/lastmile_qr_scan"}}, {"is_disabled": 0, "fusion_lat": 0.0, "lat": 38.923347666666665, "type": "electric_scooter", "lon": -77.019009, "is_reserved": 0, "fusion_lon": 0.0, "bike_id": "485e411415875b5be9f34882f0c45348", "name": "485e411415875b5be9f34882f0c45348", "rental_uris": {"ios": "https://dc.lft.to/lastmile_qr_scan", "android": "https://dc.lft.to/lastmile_qr_scan"}}, {"is_disabled": 0, "fusion_lat": 0.0, "lat": 38.91343116666667, "type": "electric_scooter", "lon": -77.00221816666667, "is_reserved": 0, "fusion_lon": 0.0, "bike_id": "7c15c98163211cafa2b0985b36427fa6", "name": "7c15c98163211cafa2b0985b36427fa6", "rental_uris": {"ios": "https://dc.lft.to/lastmile_qr_scan", "android": "https://dc.lft.to/lastmile_qr_scan"}}, {"is_disabled": 0, "fusion_lat": 0.0, "lat": 38.942080833333335, "type": "electric_bike", "lon": -77.01827633333333, "is_reserved": 0, "fusion_lon": 0.0, "bike_id": "906f46cca1e7880a4d15f22b91d0d767", "name": "906f46cca1e7880a4d15f22b91d0d767", "rental_uris": {"ios": "https://dc.lft.to/lastmile_qr_scan", "android": "https://dc.lft.to/lastmile_qr_scan"}}, {"is_disabled": 0, "fusion_lat": 0.0, "lat": 38.93972933333333, "type": "electric_scooter", "lon": -77.03592883333333, "is_reserved": 0, "fusion_lon": 0.0, "bike_id": "e241f37703f5f37325f901413e13234b", "name": "e241f37703f5f37325f901413e13234b", "rental_uris": {"ios": "https://dc.lft.to/lastmile_qr_scan", "android": "https://dc.lft.to/lastmile_qr_scan"}}, {"is_disabled": 0, "fusion_lat": 0.0, "lat": 38.90482266666667, "type": "electric_scooter", "lon": -77.0486345, "is_reserved": 0, "fusion_lon": 0.0, "bike_id": "a4ad57d40de89f1522bd3cf393337f71", "name": "a4ad57d40de89f1522bd3cf393337f71", "rental_uris": {"ios": "https://dc.lft.to/lastmile_qr_scan", "android": "https://dc.lft.to/lastmile_qr_scan"}}, {"is_disabled": 0, "fusion_lat": 0.0, "lat": 38.9345795, "type": "electric_scooter", "lon": -77.030503, "is_reserved": 0, "fusion_lon": 0.0, "bike_id": "9ae480879fbec80d846cf87f0dadf0ef", "name": "9ae480879fbec80d846cf87f0dadf0ef", "rental_uris": {"ios": "https://dc.lft.to/lastmile_qr_scan", "android": "https://dc.lft.to/lastmile_qr_scan"}}, {"is_disabled": 0, "fusion_lat": 0.0, "lat": 38.993823666666664, "type": "electric_bike", "lon": -77.03201183333333, "is_reserved": 0, "fusion_lon": 0.0, "bike_id": "523d8bb034ed9b9c4067f6174b1b17b6", "name": "523d8bb034ed9b9c4067f6174b1b17b6", "rental_uris": {"ios": "https://dc.lft.to/lastmile_qr_scan", "android": "https://dc.lft.to/lastmile_qr_scan"}}, {"is_disabled": 0, "fusion_lat": 0.0, "lat": 38.894769833333335, "type": "electric_scooter", "lon": -77.0500775, "is_reserved": 0, "fusion_lon": 0.0, "bike_id": "69f26c57658597e8c2ada9b6b72014fa", "name": "69f26c57658597e8c2ada9b6b72014fa", "rental_uris": {"ios": "https://dc.lft.to/lastmile_qr_scan", "android": "https://dc.lft.to/lastmile_qr_scan"}}, {"is_disabled": 0, "fusion_lat": 0.0, "lat": 38.904752333333334, "type": "electric_scooter", "lon": -77.05320883333333, "is_reserved": 0, "fusion_lon": 0.0, "bike_id": "4c98941664a13e43b1c6d408679e4190", "name": "4c98941664a13e43b1c6d408679e4190", "rental_uris": {"ios": "https://dc.lft.to/lastmile_qr_scan", "android": "https://dc.lft.to/lastmile_qr_scan"}}, {"is_disabled": 0, "fusion_lat": 0.0, "lat": 38.928681833333336, "type": "electric_scooter", "lon": -77.01418383333333, "is_reserved": 0, "fusion_lon": 0.0, "bike_id": "381f64dcb04b2ff17ffae13feb2d76f7", "name": "381f64dcb04b2ff17ffae13feb2d76f7", "rental_uris": {"ios": "https://dc.lft.to/lastmile_qr_scan", "android": "https://dc.lft.to/lastmile_qr_scan"}}, {"is_disabled": 0, "fusion_lat": 0.0, "lat": 38.90991733333333, "type": "electric_scooter", "lon": -77.03859633333333, "is_reserved": 0, "fusion_lon": 0.0, "bike_id": "68d2ed5250ac9720334cbbebb2603e30", "name": "68d2ed5250ac9720334cbbebb2603e30", "rental_uris": {"ios": "https://dc.lft.to/lastmile_qr_scan", "android": "https://dc.lft.to/lastmile_qr_scan"}}, {"is_disabled": 0, "fusion_lat": 0.0, "lat": 38.859177333333335, "type": "electric_scooter", "lon": -76.98973683333334, "is_reserved": 0, "fusion_lon": 0.0, "bike_id": "b5d118d865ac04f843afda1d4f82fb25", "name": "b5d118d865ac04f843afda1d4f82fb25", "rental_uris": {"ios": "https://dc.lft.to/lastmile_qr_scan", "android": "https://dc.lft.to/lastmile_qr_scan"}}, {"is_disabled": 0, "fusion_lat": 0.0, "lat": 38.9198905, "type": "electric_scooter", "lon": -77.04178133333333, "is_reserved": 0, "fusion_lon": 0.0, "bike_id": "ee8af2e691824c286ca684036b974dba", "name": "ee8af2e691824c286ca684036b974dba", "rental_uris": {"ios": "https://dc.lft.to/lastmile_qr_scan", "android": "https://dc.lft.to/lastmile_qr_scan"}}, {"is_disabled": 0, "fusion_lat": 0.0, "lat": 38.905092, "type": "electric_scooter", "lon": -77.068704, "is_reserved": 0, "fusion_lon": 0.0, "bike_id": "44d4a9b1b546390a3f1ca131257f58c5", "name": "44d4a9b1b546390a3f1ca131257f58c5", "rental_uris": {"ios": "https://dc.lft.to/lastmile_qr_scan", "android": "https://dc.lft.to/lastmile_qr_scan"}}, {"is_disabled": 0, "fusion_lat": 0.0, "lat": 38.92482, "type": "electric_scooter", "lon": -77.025489, "is_reserved": 0, "fusion_lon": 0.0, "bike_id": "6ed3719ac4232f0323089c661517e4ba", "name": "6ed3719ac4232f0323089c661517e4ba", "rental_uris": {"ios": "https://dc.lft.to/lastmile_qr_scan", "android": "https://dc.lft.to/lastmile_qr_scan"}}, {"is_disabled": 0, "fusion_lat": 0.0, "lat": 38.878464666666666, "type": "electric_scooter", "lon": -77.02269866666667, "is_reserved": 0, "fusion_lon": 0.0, "bike_id": "08c2a6da973de59bfbe931888cee3ad7", "name": "08c2a6da973de59bfbe931888cee3ad7", "rental_uris": {"ios": "https://dc.lft.to/lastmile_qr_scan", "android": "https://dc.lft.to/lastmile_qr_scan"}}, {"is_disabled": 0, "fusion_lat": 0.0, "lat": 38.898845, "type": "electric_scooter", "lon": -76.9317715, "is_reserved": 0, "fusion_lon": 0.0, "bike_id": "c3e1133788e1bb0287b1f0ba8d0a20c8", "name": "c3e1133788e1bb0287b1f0ba8d0a20c8", "rental_uris": {"ios": "https://dc.lft.to/lastmile_qr_scan", "android": "https://dc.lft.to/lastmile_qr_scan"}}, {"is_disabled": 0, "fusion_lat": 0.0, "lat": 38.92757016666667, "type": "electric_scooter", "lon": -77.005961, "is_reserved": 0, "fusion_lon": 0.0, "bike_id": "8d8db1825ecd858b352a9e46a7dbca0c", "name": "8d8db1825ecd858b352a9e46a7dbca0c", "rental_uris": {"ios": "https://dc.lft.to/lastmile_qr_scan", "android": "https://dc.lft.to/lastmile_qr_scan"}}, {"is_disabled": 0, "fusion_lat": 0.0, "lat": 38.90104133333333, "type": "electric_scooter", "lon": -77.0437155, "is_reserved": 0, "fusion_lon": 0.0, "bike_id": "16d153e7960974e3e1742424dc46143a", "name": "16d153e7960974e3e1742424dc46143a", "rental_uris": {"ios": "https://dc.lft.to/lastmile_qr_scan", "android": "https://dc.lft.to/lastmile_qr_scan"}}, {"is_disabled": 0, "fusion_lat": 0.0, "lat": 38.903599, "type": "electric_scooter", "lon": -77.04520883333333, "is_reserved": 0, "fusion_lon": 0.0, "bike_id": "7ff11de7b5de11302125c821ff6d5d10", "name": "7ff11de7b5de11302125c821ff6d5d10", "rental_uris": {"ios": "https://dc.lft.to/lastmile_qr_scan", "android": "https://dc.lft.to/lastmile_qr_scan"}}, {"is_disabled": 0, "fusion_lat": 0.0, "lat": 38.92747333333333, "type": "electric_scooter", "lon": -77.02537383333333, "is_reserved": 0, "fusion_lon": 0.0, "bike_id": "c9ba612ebc1fc625d9b2f888007a75fb", "name": "c9ba612ebc1fc625d9b2f888007a75fb", "rental_uris": {"ios": "https://dc.lft.to/lastmile_qr_scan", "android": "https://dc.lft.to/lastmile_qr_scan"}}, {"is_disabled": 0, "fusion_lat": 0.0, "lat": 38.906061666666666, "type": "electric_scooter", "lon": -77.05900583333333, "is_reserved": 0, "fusion_lon": 0.0, "bike_id": "f9cdf7829b6f7c5aede19decf47270de", "name": "f9cdf7829b6f7c5aede19decf47270de", "rental_uris": {"ios": "https://dc.lft.to/lastmile_qr_scan", "android": "https://dc.lft.to/lastmile_qr_scan"}}, {"is_disabled": 0, "fusion_lat": 0.0, "lat": 38.91244116666667, "type": "electric_scooter", "lon": -77.01623716666667, "is_reserved": 0, "fusion_lon": 0.0, "bike_id": "eb45effaecf3b54f669293284b2e8f3f", "name": "eb45effaecf3b54f669293284b2e8f3f", "rental_uris": {"ios": "https://dc.lft.to/lastmile_qr_scan", "android": "https://dc.lft.to/lastmile_qr_scan"}}, {"is_disabled": 0, "fusion_lat": 0.0, "lat": 38.898503833333336, "type": "electric_scooter", "lon": -77.03330783333334, "is_reserved": 0, "fusion_lon": 0.0, "bike_id": "7b397f224571bff5e87067e0352935d4", "name": "7b397f224571bff5e87067e0352935d4", "rental_uris": {"ios": "https://dc.lft.to/lastmile_qr_scan", "android": "https://dc.lft.to/lastmile_qr_scan"}}, {"is_disabled": 0, "fusion_lat": 0.0, "lat": 38.90729283333334, "type": "electric_scooter", "lon": -77.0232115, "is_reserved": 0, "fusion_lon": 0.0, "bike_id": "45b57a3efc9eb6bbabc694054c64e534", "name": "45b57a3efc9eb6bbabc694054c64e534", "rental_uris": {"ios": "https://dc.lft.to/lastmile_qr_scan", "android": "https://dc.lft.to/lastmile_qr_scan"}}, {"is_disabled": 0, "fusion_lat": 0.0, "lat": 38.9332565, "type": "electric_scooter", "lon": -77.02930683333334, "is_reserved": 0, "fusion_lon": 0.0, "bike_id": "0b15f9d8a1ead1a95a79507625830729", "name": "0b15f9d8a1ead1a95a79507625830729", "rental_uris": {"ios": "https://dc.lft.to/lastmile_qr_scan", "android": "https://dc.lft.to/lastmile_qr_scan"}}, {"is_disabled": 0, "fusion_lat": 0.0, "lat": 38.90605083333333, "type": "electric_scooter", "lon": -77.03977166666667, "is_reserved": 0, "fusion_lon": 0.0, "bike_id": "ecb8bcae175bff0f7f77d502b096bd7f", "name": "ecb8bcae175bff0f7f77d502b096bd7f", "rental_uris": {"ios": "https://dc.lft.to/lastmile_qr_scan", "android": "https://dc.lft.to/lastmile_qr_scan"}}, {"is_disabled": 0, "fusion_lat": 0.0, "lat": 38.9248145, "type": "electric_scooter", "lon": -77.02721616666666, "is_reserved": 0, "fusion_lon": 0.0, "bike_id": "1c41b3fa199ed0fae7f9e4e64ba813c1", "name": "1c41b3fa199ed0fae7f9e4e64ba813c1", "rental_uris": {"ios": "https://dc.lft.to/lastmile_qr_scan", "android": "https://dc.lft.to/lastmile_qr_scan"}}, {"is_disabled": 0, "fusion_lat": 0.0, "lat": 38.89700466666667, "type": "electric_scooter", "lon": -77.0311555, "is_reserved": 0, "fusion_lon": 0.0, "bike_id": "92a96e455c878c7fb7fd106eeb15f9d8", "name": "92a96e455c878c7fb7fd106eeb15f9d8", "rental_uris": {"ios": "https://dc.lft.to/lastmile_qr_scan", "android": "https://dc.lft.to/lastmile_qr_scan"}}, {"is_disabled": 0, "fusion_lat": 0.0, "lat": 38.9015915, "type": "electric_scooter", "lon": -76.97631716666666, "is_reserved": 0, "fusion_lon": 0.0, "bike_id": "e533e0db90d6ad99a599f5509b83fdc6", "name": "e533e0db90d6ad99a599f5509b83fdc6", "rental_uris": {"ios": "https://dc.lft.to/lastmile_qr_scan", "android": "https://dc.lft.to/lastmile_qr_scan"}}, {"is_disabled": 0, "fusion_lat": 0.0, "lat": 38.915513833333335, "type": "electric_scooter", "lon": -77.03845083333333, "is_reserved": 0, "fusion_lon": 0.0, "bike_id": "b7f61fc9e14eedb1b1154b98494cefb0", "name": "b7f61fc9e14eedb1b1154b98494cefb0", "rental_uris": {"ios": "https://dc.lft.to/lastmile_qr_scan", "android": "https://dc.lft.to/lastmile_qr_scan"}}, {"is_disabled": 0, "fusion_lat": 0.0, "lat": 38.9285645, "type": "electric_bike", "lon": -77.2221705, "is_reserved": 0, "fusion_lon": 0.0, "bike_id": "4507955898acaec56d02752e6878402b", "name": "4507955898acaec56d02752e6878402b", "rental_uris": {"ios": "https://dc.lft.to/lastmile_qr_scan", "android": "https://dc.lft.to/lastmile_qr_scan"}}, {"is_disabled": 0, "fusion_lat": 0.0, "lat": 38.922094666666666, "type": "electric_scooter", "lon": -77.032944, "is_reserved": 0, "fusion_lon": 0.0, "bike_id": "6881837cc64148e40a38af88f4a467ec", "name": "6881837cc64148e40a38af88f4a467ec", "rental_uris": {"ios": "https://dc.lft.to/lastmile_qr_scan", "android": "https://dc.lft.to/lastmile_qr_scan"}}, {"is_disabled": 0, "fusion_lat": 0.0, "lat": 38.93240816666667, "type": "electric_scooter", "lon": -77.03863216666667, "is_reserved": 0, "fusion_lon": 0.0, "bike_id": "1397b41451e2fb5ff24419a7d222aec4", "name": "1397b41451e2fb5ff24419a7d222aec4", "rental_uris": {"ios": "https://dc.lft.to/lastmile_qr_scan", "android": "https://dc.lft.to/lastmile_qr_scan"}}, {"is_disabled": 0, "fusion_lat": 0.0, "lat": 38.8995975, "type": "electric_bike", "lon": -77.05499333333333, "is_reserved": 0, "fusion_lon": 0.0, "bike_id": "076a4ed5e254bb4e2a5512583c88b1cb", "name": "076a4ed5e254bb4e2a5512583c88b1cb", "rental_uris": {"ios": "https://dc.lft.to/lastmile_qr_scan", "android": "https://dc.lft.to/lastmile_qr_scan"}}, {"is_disabled": 0, "fusion_lat": 0.0, "lat": 38.88721283333334, "type": "electric_scooter", "lon": -77.03219716666666, "is_reserved": 0, "fusion_lon": 0.0, "bike_id": "70584fd64e247790502fde43d86ada3c", "name": "70584fd64e247790502fde43d86ada3c", "rental_uris": {"ios": "https://dc.lft.to/lastmile_qr_scan", "android": "https://dc.lft.to/lastmile_qr_scan"}}, {"is_disabled": 0, "fusion_lat": 0.0, "lat": 38.90730466666667, "type": "electric_scooter", "lon": -77.04011266666667, "is_reserved": 0, "fusion_lon": 0.0, "bike_id": "2886673e706949a7936833a01d043756", "name": "2886673e706949a7936833a01d043756", "rental_uris": {"ios": "https://dc.lft.to/lastmile_qr_scan", "android": "https://dc.lft.to/lastmile_qr_scan"}}, {"is_disabled": 0, "fusion_lat": 0.0, "lat": 38.928039, "type": "electric_bike", "lon": -77.04370866666666, "is_reserved": 0, "fusion_lon": 0.0, "bike_id": "b41b67596bdb13540bc196af0a0d39dc", "name": "b41b67596bdb13540bc196af0a0d39dc", "rental_uris": {"ios": "https://dc.lft.to/lastmile_qr_scan", "android": "https://dc.lft.to/lastmile_qr_scan"}}, {"is_disabled": 0, "fusion_lat": 0.0, "lat": 38.983647, "type": "electric_scooter", "lon": -77.02646116666666, "is_reserved": 0, "fusion_lon": 0.0, "bike_id": "9ef3359c2613f95781b56230dc0bdf92", "name": "9ef3359c2613f95781b56230dc0bdf92", "rental_uris": {"ios": "https://dc.lft.to/lastmile_qr_scan", "android": "https://dc.lft.to/lastmile_qr_scan"}}, {"is_disabled": 0, "fusion_lat": 0.0, "lat": 38.898512833333335, "type": "electric_bike", "lon": -76.93190516666667, "is_reserved": 0, "fusion_lon": 0.0, "bike_id": "8e40f16d3a5aee9fddd1c8b110b553d8", "name": "8e40f16d3a5aee9fddd1c8b110b553d8", "rental_uris": {"ios": "https://dc.lft.to/lastmile_qr_scan", "android": "https://dc.lft.to/lastmile_qr_scan"}}, {"is_disabled": 0, "fusion_lat": 0.0, "lat": 38.929519, "type": "electric_bike", "lon": -77.04399933333333, "is_reserved": 0, "fusion_lon": 0.0, "bike_id": "50d93ddb4d0d8f9667fcc63c69e4abb2", "name": "50d93ddb4d0d8f9667fcc63c69e4abb2", "rental_uris": {"ios": "https://dc.lft.to/lastmile_qr_scan", "android": "https://dc.lft.to/lastmile_qr_scan"}}, {"is_disabled": 0, "fusion_lat": 0.0, "lat": 38.9051305, "type": "electric_scooter", "lon": -77.0433595, "is_reserved": 0, "fusion_lon": 0.0, "bike_id": "69a5f76006936ad0294f0e6b6a984ed0", "name": "69a5f76006936ad0294f0e6b6a984ed0", "rental_uris": {"ios": "https://dc.lft.to/lastmile_qr_scan", "android": "https://dc.lft.to/lastmile_qr_scan"}}, {"is_disabled": 0, "fusion_lat": 0.0, "lat": 39.088597666666665, "type": "electric_bike", "lon": -77.17840716666667, "is_reserved": 0, "fusion_lon": 0.0, "bike_id": "710bfc7d1812c0e910dc1d8f5672377f", "name": "710bfc7d1812c0e910dc1d8f5672377f", "rental_uris": {"ios": "https://dc.lft.to/lastmile_qr_scan", "android": "https://dc.lft.to/lastmile_qr_scan"}}, {"is_disabled": 0, "fusion_lat": 0.0, "lat": 38.92328933333334, "type": "electric_scooter", "lon": -77.04519833333333, "is_reserved": 0, "fusion_lon": 0.0, "bike_id": "9a8aa033e480ebe9017c7b22640df1fa", "name": "9a8aa033e480ebe9017c7b22640df1fa", "rental_uris": {"ios": "https://dc.lft.to/lastmile_qr_scan", "android": "https://dc.lft.to/lastmile_qr_scan"}}, {"is_disabled": 0, "fusion_lat": 0.0, "lat": 38.88604083333333, "type": "electric_scooter", "lon": -77.04511266666667, "is_reserved": 0, "fusion_lon": 0.0, "bike_id": "18b3a82523d60ffaad71144528aca639", "name": "18b3a82523d60ffaad71144528aca639", "rental_uris": {"ios": "https://dc.lft.to/lastmile_qr_scan", "android": "https://dc.lft.to/lastmile_qr_scan"}}, {"is_disabled": 0, "fusion_lat": 0.0, "lat": 38.9241445, "type": "electric_scooter", "lon": -77.05644166666667, "is_reserved": 0, "fusion_lon": 0.0, "bike_id": "b1e2ceebcbf5d4cff177c0b7a8c868c7", "name": "b1e2ceebcbf5d4cff177c0b7a8c868c7", "rental_uris": {"ios": "https://dc.lft.to/lastmile_qr_scan", "android": "https://dc.lft.to/lastmile_qr_scan"}}, {"is_disabled": 0, "fusion_lat": 0.0, "lat": 38.926802, "type": "electric_scooter", "lon": -77.03056366666667, "is_reserved": 0, "fusion_lon": 0.0, "bike_id": "8e573e26841dffdb33f9e1b96c44c5f7", "name": "8e573e26841dffdb33f9e1b96c44c5f7", "rental_uris": {"ios": "https://dc.lft.to/lastmile_qr_scan", "android": "https://dc.lft.to/lastmile_qr_scan"}}, {"is_disabled": 0, "fusion_lat": 0.0, "lat": 38.8458725, "type": "electric_scooter", "lon": -76.98162433333333, "is_reserved": 0, "fusion_lon": 0.0, "bike_id": "f32de5fab9645a33acb713c9146a8814", "name": "f32de5fab9645a33acb713c9146a8814", "rental_uris": {"ios": "https://dc.lft.to/lastmile_qr_scan", "android": "https://dc.lft.to/lastmile_qr_scan"}}, {"is_disabled": 0, "fusion_lat": 0.0, "lat": 38.95635566666667, "type": "electric_scooter", "lon": -77.0330715, "is_reserved": 0, "fusion_lon": 0.0, "bike_id": "b8482bf68f386a5601c44f56c62c601b", "name": "b8482bf68f386a5601c44f56c62c601b", "rental_uris": {"ios": "https://dc.lft.to/lastmile_qr_scan", "android": "https://dc.lft.to/lastmile_qr_scan"}}, {"is_disabled": 0, "fusion_lat": 0.0, "lat": 38.92722116666667, "type": "electric_scooter", "lon": -77.04120033333334, "is_reserved": 0, "fusion_lon": 0.0, "bike_id": "182aa339b110b5e45151fdfeb4c0bf59", "name": "182aa339b110b5e45151fdfeb4c0bf59", "rental_uris": {"ios": "https://dc.lft.to/lastmile_qr_scan", "android": "https://dc.lft.to/lastmile_qr_scan"}}, {"is_disabled": 0, "fusion_lat": 0.0, "lat": 38.90350566666667, "type": "electric_scooter", "lon": -77.036606, "is_reserved": 0, "fusion_lon": 0.0, "bike_id": "e46e21d952830b5bacc05d3563529a94", "name": "e46e21d952830b5bacc05d3563529a94", "rental_uris": {"ios": "https://dc.lft.to/lastmile_qr_scan", "android": "https://dc.lft.to/lastmile_qr_scan"}}, {"is_disabled": 0, "fusion_lat": 0.0, "lat": 38.921856, "type": "electric_scooter", "lon": -77.04714716666666, "is_reserved": 0, "fusion_lon": 0.0, "bike_id": "c6c7bac0cb1550fc016a0335269b8e0e", "name": "c6c7bac0cb1550fc016a0335269b8e0e", "rental_uris": {"ios": "https://dc.lft.to/lastmile_qr_scan", "android": "https://dc.lft.to/lastmile_qr_scan"}}, {"is_disabled": 0, "fusion_lat": 0.0, "lat": 38.9028295, "type": "electric_scooter", "lon": -77.038664, "is_reserved": 0, "fusion_lon": 0.0, "bike_id": "3aa4f089c7d5a673913a294366e7faaf", "name": "3aa4f089c7d5a673913a294366e7faaf", "rental_uris": {"ios": "https://dc.lft.to/lastmile_qr_scan", "android": "https://dc.lft.to/lastmile_qr_scan"}}, {"is_disabled": 0, "fusion_lat": 0.0, "lat": 38.9076525, "type": "electric_scooter", "lon": -77.03205516666667, "is_reserved": 0, "fusion_lon": 0.0, "bike_id": "39d95a239e7ac989f90252740032cf56", "name": "39d95a239e7ac989f90252740032cf56", "rental_uris": {"ios": "https://dc.lft.to/lastmile_qr_scan", "android": "https://dc.lft.to/lastmile_qr_scan"}}, {"is_disabled": 0, "fusion_lat": 0.0, "lat": 38.905649333333336, "type": "electric_scooter", "lon": -77.0059255, "is_reserved": 0, "fusion_lon": 0.0, "bike_id": "e3c8cf9f86dd3c69d757704aae7a986f", "name": "e3c8cf9f86dd3c69d757704aae7a986f", "rental_uris": {"ios": "https://dc.lft.to/lastmile_qr_scan", "android": "https://dc.lft.to/lastmile_qr_scan"}}, {"is_disabled": 0, "fusion_lat": 0.0, "lat": 38.933816, "type": "electric_scooter", "lon": -77.03259066666666, "is_reserved": 0, "fusion_lon": 0.0, "bike_id": "586364b0f105f8d98c0a374b9a31589e", "name": "586364b0f105f8d98c0a374b9a31589e", "rental_uris": {"ios": "https://dc.lft.to/lastmile_qr_scan", "android": "https://dc.lft.to/lastmile_qr_scan"}}, {"is_disabled": 0, "fusion_lat": 0.0, "lat": 38.90009, "type": "electric_scooter", "lon": -76.99785716666666, "is_reserved": 0, "fusion_lon": 0.0, "bike_id": "c45d4058e8f8baee620320b54419b126", "name": "c45d4058e8f8baee620320b54419b126", "rental_uris": {"ios": "https://dc.lft.to/lastmile_qr_scan", "android": "https://dc.lft.to/lastmile_qr_scan"}}, {"is_disabled": 0, "fusion_lat": 0.0, "lat": 38.90063983333334, "type": "electric_scooter", "lon": -77.01322866666666, "is_reserved": 0, "fusion_lon": 0.0, "bike_id": "582f116401d062ada1276eb49decb593", "name": "582f116401d062ada1276eb49decb593", "rental_uris": {"ios": "https://dc.lft.to/lastmile_qr_scan", "android": "https://dc.lft.to/lastmile_qr_scan"}}, {"is_disabled": 0, "fusion_lat": 0.0, "lat": 38.936029833333336, "type": "electric_scooter", "lon": -77.03807233333333, "is_reserved": 0, "fusion_lon": 0.0, "bike_id": "96e36f7ea4d5ae1f2245cb6d20b4f166", "name": "96e36f7ea4d5ae1f2245cb6d20b4f166", "rental_uris": {"ios": "https://dc.lft.to/lastmile_qr_scan", "android": "https://dc.lft.to/lastmile_qr_scan"}}, {"is_disabled": 0, "fusion_lat": 0.0, "lat": 38.918290999999996, "type": "electric_scooter", "lon": -77.03526, "is_reserved": 0, "fusion_lon": 0.0, "bike_id": "48c869424ed400459bae3ec7ad078356", "name": "48c869424ed400459bae3ec7ad078356", "rental_uris": {"ios": "https://dc.lft.to/lastmile_qr_scan", "android": "https://dc.lft.to/lastmile_qr_scan"}}, {"is_disabled": 0, "fusion_lat": 0.0, "lat": 38.8886035, "type": "electric_scooter", "lon": -77.00118266666666, "is_reserved": 0, "fusion_lon": 0.0, "bike_id": "bbb73bba93214d4cb2c5ee832d44c7ec", "name": "bbb73bba93214d4cb2c5ee832d44c7ec", "rental_uris": {"ios": "https://dc.lft.to/lastmile_qr_scan", "android": "https://dc.lft.to/lastmile_qr_scan"}}, {"is_disabled": 0, "fusion_lat": 0.0, "lat": 38.91420016666667, "type": "electric_scooter", "lon": -77.03395783333333, "is_reserved": 0, "fusion_lon": 0.0, "bike_id": "bfeeba30cea45560ae4d9117b51e3476", "name": "bfeeba30cea45560ae4d9117b51e3476", "rental_uris": {"ios": "https://dc.lft.to/lastmile_qr_scan", "android": "https://dc.lft.to/lastmile_qr_scan"}}, {"is_disabled": 0, "fusion_lat": 0.0, "lat": 38.9072865, "type": "electric_scooter", "lon": -77.02539, "is_reserved": 0, "fusion_lon": 0.0, "bike_id": "a9eb400ce27e3ff2f58d3d9ddd30fdde", "name": "a9eb400ce27e3ff2f58d3d9ddd30fdde", "rental_uris": {"ios": "https://dc.lft.to/lastmile_qr_scan", "android": "https://dc.lft.to/lastmile_qr_scan"}}, {"is_disabled": 0, "fusion_lat": 0.0, "lat": 38.896468, "type": "electric_scooter", "lon": -77.04962066666667, "is_reserved": 0, "fusion_lon": 0.0, "bike_id": "3b3bfa7e5b431817d06476e506c4818e", "name": "3b3bfa7e5b431817d06476e506c4818e", "rental_uris": {"ios": "https://dc.lft.to/lastmile_qr_scan", "android": "https://dc.lft.to/lastmile_qr_scan"}}, {"is_disabled": 0, "fusion_lat": 0.0, "lat": 38.90647416666667, "type": "electric_scooter", "lon": -77.00826433333333, "is_reserved": 0, "fusion_lon": 0.0, "bike_id": "6df6dffda3859fd16c5ee84e91819504", "name": "6df6dffda3859fd16c5ee84e91819504", "rental_uris": {"ios": "https://dc.lft.to/lastmile_qr_scan", "android": "https://dc.lft.to/lastmile_qr_scan"}}, {"is_disabled": 0, "fusion_lat": 0.0, "lat": 38.90568783333333, "type": "electric_scooter", "lon": -77.04690166666667, "is_reserved": 0, "fusion_lon": 0.0, "bike_id": "2ad2864b827d19098b312b801b896b35", "name": "2ad2864b827d19098b312b801b896b35", "rental_uris": {"ios": "https://dc.lft.to/lastmile_qr_scan", "android": "https://dc.lft.to/lastmile_qr_scan"}}, {"is_disabled": 0, "fusion_lat": 0.0, "lat": 38.866592833333335, "type": "electric_scooter", "lon": -76.98902283333334, "is_reserved": 0, "fusion_lon": 0.0, "bike_id": "e5c4a132fcef37ec2c7a27c58895fa41", "name": "e5c4a132fcef37ec2c7a27c58895fa41", "rental_uris": {"ios": "https://dc.lft.to/lastmile_qr_scan", "android": "https://dc.lft.to/lastmile_qr_scan"}}, {"is_disabled": 0, "fusion_lat": 0.0, "lat": 38.921018, "type": "electric_scooter", "lon": -77.063344, "is_reserved": 0, "fusion_lon": 0.0, "bike_id": "1d260acf7c60ae995e7e08e51fe5f209", "name": "1d260acf7c60ae995e7e08e51fe5f209", "rental_uris": {"ios": "https://dc.lft.to/lastmile_qr_scan", "android": "https://dc.lft.to/lastmile_qr_scan"}}, {"is_disabled": 0, "fusion_lat": 0.0, "lat": 38.92895633333333, "type": "electric_scooter", "lon": -77.0325745, "is_reserved": 0, "fusion_lon": 0.0, "bike_id": "e2e5904eae197a3469d03a59695de501", "name": "e2e5904eae197a3469d03a59695de501", "rental_uris": {"ios": "https://dc.lft.to/lastmile_qr_scan", "android": "https://dc.lft.to/lastmile_qr_scan"}}, {"is_disabled": 0, "fusion_lat": 0.0, "lat": 38.903623, "type": "electric_scooter", "lon": -77.03475316666666, "is_reserved": 0, "fusion_lon": 0.0, "bike_id": "a395b5a746db5b58a99bbce1907425c4", "name": "a395b5a746db5b58a99bbce1907425c4", "rental_uris": {"ios": "https://dc.lft.to/lastmile_qr_scan", "android": "https://dc.lft.to/lastmile_qr_scan"}}, {"is_disabled": 0, "fusion_lat": 0.0, "lat": 38.916808833333334, "type": "electric_scooter", "lon": -77.02293783333333, "is_reserved": 0, "fusion_lon": 0.0, "bike_id": "520dd439810feb64f46f2ed190a78c9d", "name": "520dd439810feb64f46f2ed190a78c9d", "rental_uris": {"ios": "https://dc.lft.to/lastmile_qr_scan", "android": "https://dc.lft.to/lastmile_qr_scan"}}, {"is_disabled": 0, "fusion_lat": 0.0, "lat": 38.884293166666666, "type": "electric_scooter", "lon": -77.02557833333333, "is_reserved": 0, "fusion_lon": 0.0, "bike_id": "13ae8ebdce7039ee2a1c00b0d9275f44", "name": "13ae8ebdce7039ee2a1c00b0d9275f44", "rental_uris": {"ios": "https://dc.lft.to/lastmile_qr_scan", "android": "https://dc.lft.to/lastmile_qr_scan"}}, {"is_disabled": 0, "fusion_lat": 0.0, "lat": 38.920092333333336, "type": "electric_scooter", "lon": -77.07117883333333, "is_reserved": 0, "fusion_lon": 0.0, "bike_id": "b0f1619ae7ff743a4814d1db280a2506", "name": "b0f1619ae7ff743a4814d1db280a2506", "rental_uris": {"ios": "https://dc.lft.to/lastmile_qr_scan", "android": "https://dc.lft.to/lastmile_qr_scan"}}, {"is_disabled": 0, "fusion_lat": 0.0, "lat": 38.91902016666667, "type": "electric_scooter", "lon": -77.0355175, "is_reserved": 0, "fusion_lon": 0.0, "bike_id": "8aad59450eca08b92bc1b8a4a3d61232", "name": "8aad59450eca08b92bc1b8a4a3d61232", "rental_uris": {"ios": "https://dc.lft.to/lastmile_qr_scan", "android": "https://dc.lft.to/lastmile_qr_scan"}}, {"is_disabled": 0, "fusion_lat": 0.0, "lat": 38.90352166666667, "type": "electric_scooter", "lon": -77.04103816666667, "is_reserved": 0, "fusion_lon": 0.0, "bike_id": "d6ea0517aa13996b430da8b1f79b74f2", "name": "d6ea0517aa13996b430da8b1f79b74f2", "rental_uris": {"ios": "https://dc.lft.to/lastmile_qr_scan", "android": "https://dc.lft.to/lastmile_qr_scan"}}, {"is_disabled": 0, "fusion_lat": 0.0, "lat": 38.91709, "type": "electric_scooter", "lon": -77.0311205, "is_reserved": 0, "fusion_lon": 0.0, "bike_id": "39d4f51841360e8aed42b79a3c9163dc", "name": "39d4f51841360e8aed42b79a3c9163dc", "rental_uris": {"ios": "https://dc.lft.to/lastmile_qr_scan", "android": "https://dc.lft.to/lastmile_qr_scan"}}, {"is_disabled": 0, "fusion_lat": 0.0, "lat": 38.90713233333334, "type": "electric_scooter", "lon": -77.03094016666667, "is_reserved": 0, "fusion_lon": 0.0, "bike_id": "fdb894213a111a48ab4516a6dd5a19bf", "name": "fdb894213a111a48ab4516a6dd5a19bf", "rental_uris": {"ios": "https://dc.lft.to/lastmile_qr_scan", "android": "https://dc.lft.to/lastmile_qr_scan"}}, {"is_disabled": 0, "fusion_lat": 0.0, "lat": 38.925751, "type": "electric_scooter", "lon": -77.0393745, "is_reserved": 0, "fusion_lon": 0.0, "bike_id": "465a4052a14cd6aa6f6c4b6922545843", "name": "465a4052a14cd6aa6f6c4b6922545843", "rental_uris": {"ios": "https://dc.lft.to/lastmile_qr_scan", "android": "https://dc.lft.to/lastmile_qr_scan"}},