{"data": {"bikes": [{"lon": -77.03018283333333, "lat": 38.904910666666666, "rental_uris": {"ios": "https://dc.lft.to/lastmile_qr_scan", "android": "https://dc.lft.to/lastmile_qr_scan"}, "bike_id": "53dd482acbfe75c5fce82e02733692d3", "type": "electric_scooter", "is_disabled": 0, "fusion_lat": 0.0, "fusion_lon": 0.0, "is_reserved": 0, "name": "53dd482acbfe75c5fce82e02733692d3"}, {"lon": -77.022092, "lat": 38.91414483333333, "rental_uris": {"ios": "https://dc.lft.to/lastmile_qr_scan", "android": "https://dc.lft.to/lastmile_qr_scan"}, "bike_id": "821878fa7f5fd375368cf59e70008bab", "type": "electric_scooter", "is_disabled": 0, "fusion_lat": 0.0, "fusion_lon": 0.0, "is_reserved": 0, "name": "821878fa7f5fd375368cf59e70008bab"}, {"lon": -77.000693, "lat": 38.924351, "rental_uris": {"ios": "https://dc.lft.to/lastmile_qr_scan", "android": "https://dc.lft.to/lastmile_qr_scan"}, "bike_id": "9c1ae3d940be0ad793bc08a3d7479a98", "type": "electric_scooter", "is_disabled": 0, "fusion_lat": 0.0, "fusion_lon": 0.0, "is_reserved": 0, "name": "9c1ae3d940be0ad793bc08a3d7479a98"}, {"lon": -77.091662, "lat": 38.945584333333336, "rental_uris": {"ios": "https://dc.lft.to/lastmile_qr_scan", "android": "https://dc.lft.to/lastmile_qr_scan"}, "bike_id": "6a2632085396ef115d10798de381d583", "type": "electric_scooter", "is_disabled": 0, "fusion_lat": 0.0, "fusion_lon": 0.0, "is_reserved": 0, "name": "6a2632085396ef115d10798de381d583"}, {"lon": -76.99938633333333, "lat": 38.8429755, "rental_uris": {"ios": "https://dc.lft.to/lastmile_qr_scan", "android": "https://dc.lft.to/lastmile_qr_scan"}, "bike_id": "fdb0f15f174b4aa7503731d87b8d29b4", "type": "electric_scooter", "is_disabled": 0, "fusion_lat": 0.0, "fusion_lon": 0.0, "is_reserved": 0, "name": "fdb0f15f174b4aa7503731d87b8d29b4"}, {"lon": -76.99830783333333, "lat": 38.885306166666666, "rental_uris": {"ios": "https://dc.lft.to/lastmile_qr_scan", "android": "https://dc.lft.to/lastmile_qr_scan"}, "bike_id": "de804f2f21e2a356e5f82d967613efa5", "type": "electric_scooter", "is_disabled": 0, "fusion_lat": 0.0, "fusion_lon": 0.0, "is_reserved": 0, "name": "de804f2f21e2a356e5f82d967613efa5"}, {"lon": -77.00779016666667, "lat": 38.92674916666667, "rental_uris": {"ios": "https://dc.lft.to/lastmile_qr_scan", "android": "https://dc.lft.to/lastmile_qr_scan"}, "bike_id": "668f5185a6bde40a477aced0efd439a3", "type": "electric_scooter", "is_disabled": 0, "fusion_lat": 0.0, "fusion_lon": 0.0, "is_reserved": 0, "name": "668f5185a6bde40a477aced0efd439a3"}, {"lon": -77.05132983333333, "lat": 38.907107333333336, "rental_uris": {"ios": "https://dc.lft.to/lastmile_qr_scan", "android": "https://dc.lft.to/lastmile_qr_scan"}, "bike_id": "6764adf84989a0a739a343ebea978bb7", "type": "electric_scooter", "is_disabled": 0, "fusion_lat": 0.0, "fusion_lon": 0.0, "is_reserved": 0, "name": "6764adf84989a0a739a343ebea978bb7"}, {"lon": -77.05886016666666, "lat": 38.93636566666667, "rental_uris": {"ios": "https://dc.lft.to/lastmile_qr_scan", "android": "https://dc.lft.to/lastmile_qr_scan"}, "bike_id": "f28bdb3f4d8adbb5dd4d5387774bb31e", "type": "electric_scooter", "is_disabled": 0, "fusion_lat": 0.0, "fusion_lon": 0.0, "is_reserved": 0, "name": "f28bdb3f4d8adbb5dd4d5387774bb31e"}, {"lon": -77.02576733333333, "lat": 38.996936, "rental_uris": {"ios": "https://dc.lft.to/lastmile_qr_scan", "android": "https://dc.lft.to/lastmile_qr_scan"}, "bike_id": "73ef5b8ae9762853d5844ddffed15631", "type": "electric_bike", "is_disabled": 0, "fusion_lat": 0.0, "fusion_lon": 0.0, "is_reserved": 0, "name": "73ef5b8ae9762853d5844ddffed15631"}, {"lon": -77.0268685, "lat": 38.9181815, "rental_uris": {"ios": "https://dc.lft.to/lastmile_qr_scan", "android": "https://dc.lft.to/lastmile_qr_scan"}, "bike_id": "1ded3085c6e6596c1c92e2cf476705db", "type": "electric_scooter", "is_disabled": 0, "fusion_lat": 0.0, "fusion_lon": 0.0, "is_reserved": 0, "name": "1ded3085c6e6596c1c92e2cf476705db"}, {"lon": -76.94422016666667, "lat": 38.966178, "rental_uris": {"ios": "https://dc.lft.to/lastmile_qr_scan", "android": "https://dc.lft.to/lastmile_qr_scan"}, "bike_id": "bb933903c4df87d7d996c31b03330bf9", "type": "electric_bike", "is_disabled": 0, "fusion_lat": 0.0, "fusion_lon": 0.0, "is_reserved": 0, "name": "bb933903c4df87d7d996c31b03330bf9"}, {"lon": -77.02554033333334, "lat": 38.941318, "rental_uris": {"ios": "https://dc.lft.to/lastmile_qr_scan", "android": "https://dc.lft.to/lastmile_qr_scan"}, "bike_id": "0f4b31170d21f8f4726c734dfcf2a160", "type": "electric_scooter", "is_disabled": 0, "fusion_lat": 0.0, "fusion_lon": 0.0, "is_reserved": 0, "name": "0f4b31170d21f8f4726c734dfcf2a160"}, {"lon": -76.98843183333334, "lat": 38.84275233333334, "rental_uris": {"ios": "https://dc.lft.to/lastmile_qr_scan", "android": "https://dc.lft.to/lastmile_qr_scan"}, "bike_id": "dd18755f72a818c807e9ae1960e46df1", "type": "electric_bike", "is_disabled": 0, "fusion_lat": 0.0, "fusion_lon": 0.0, "is_reserved": 0, "name": "dd18755f72a818c807e9ae1960e46df1"}, {"lon": -77.0417975, "lat": 38.92018566666667, "rental_uris": {"ios": "https://dc.lft.to/lastmile_qr_scan", "android": "https://dc.lft.to/lastmile_qr_scan"}, "bike_id": "077051705fa3fdf8dc9e4ba91aa397b1", "type": "electric_scooter", "is_disabled": 0, "fusion_lat": 0.0, "fusion_lon": 0.0, "is_reserved": 0, "name": "077051705fa3fdf8dc9e4ba91aa397b1"}, {"lon": -77.02599083333334, "lat": 38.91691383333333, "rental_uris": {"ios": "https://dc.lft.to/lastmile_qr_scan", "android": "https://dc.lft.to/lastmile_qr_scan"}, "bike_id": "6b6d72ed2bc30ce3bcdd1bf83d3f7b45", "type": "electric_scooter", "is_disabled": 0, "fusion_lat": 0.0, "fusion_lon": 0.0, "is_reserved": 0, "name": "6b6d72ed2bc30ce3bcdd1bf83d3f7b45"}, {"lon": -77.024045, "lat": 38.95731583333333, "rental_uris": {"ios": "https://dc.lft.to/lastmile_qr_scan", "android": "https://dc.lft.to/lastmile_qr_scan"}, "bike_id": "81e353a2dee44acef7c70aeda8bef48d", "type": "electric_scooter", "is_disabled": 0, "fusion_lat": 0.0, "fusion_lon": 0.0, "is_reserved": 0, "name": "81e353a2dee44acef7c70aeda8bef48d"}, {"lon": -76.94878866666667, "lat": 38.895494666666664, "rental_uris": {"ios": "https://dc.lft.to/lastmile_qr_scan", "android": "https://dc.lft.to/lastmile_qr_scan"}, "bike_id": "7177a736483b262dd4e1f7bf92e7754b", "type": "electric_scooter", "is_disabled": 0, "fusion_lat": 0.0, "fusion_lon": 0.0, "is_reserved": 0, "name": "7177a736483b262dd4e1f7bf92e7754b"}, {"lon": -77.02671716666667, "lat": 38.898032, "rental_uris": {"ios": "https://dc.lft.to/lastmile_qr_scan", "android": "https://dc.lft.to/lastmile_qr_scan"}, "bike_id": "0b2e1c7c6deb190d3680def33c14f921", "type": "electric_scooter", "is_disabled": 0, "fusion_lat": 0.0, "fusion_lon": 0.0, "is_reserved": 0, "name": "0b2e1c7c6deb190d3680def33c14f921"}, {"lon": -76.94636466666667, "lat": 38.8984105, "rental_uris": {"ios": "https://dc.lft.to/lastmile_qr_scan", "android": "https://dc.lft.to/lastmile_qr_scan"}, "bike_id": "921fe05047d576054706cba00f46b1fc", "type": "electric_scooter", "is_disabled": 0, "fusion_lat": 0.0, "fusion_lon": 0.0, "is_reserved": 0, "name": "921fe05047d576054706cba00f46b1fc"}, {"lon": -77.037018, "lat": 38.916717166666665, "rental_uris": {"ios": "https://dc.lft.to/lastmile_qr_scan", "android": "https://dc.lft.to/lastmile_qr_scan"}, "bike_id": "c7cb42ebfa572281976e8b6318d3fcb9", "type": "electric_scooter", "is_disabled": 0, "fusion_lat": 0.0, "fusion_lon": 0.0, "is_reserved": 0, "name": "c7cb42ebfa572281976e8b6318d3fcb9"}, {"lon": -77.0512695, "lat": 38.89638433333333, "rental_uris": {"ios": "https://dc.lft.to/lastmile_qr_scan", "android": "https://dc.lft.to/lastmile_qr_scan"}, "bike_id": "da835537ac7ccdc6007d5fce9b931c47", "type": "electric_scooter", "is_disabled": 0, "fusion_lat": 0.0, "fusion_lon": 0.0, "is_reserved": 0, "name": "da835537ac7ccdc6007d5fce9b931c47"}, {"lon": -77.055241, "lat": 38.92793433333333, "rental_uris": {"ios": "https://dc.lft.to/lastmile_qr_scan", "android": "https://dc.lft.to/lastmile_qr_scan"}, "bike_id": "97b0aece3d5bfa7cb14f4269a91e0807", "type": "electric_scooter", "is_disabled": 0, "fusion_lat": 0.0, "fusion_lon": 0.0, "is_reserved": 0, "name": "97b0aece3d5bfa7cb14f4269a91e0807"}, {"lon": -77.0073695, "lat": 38.88489766666667, "rental_uris": {"ios": "https://dc.lft.to/lastmile_qr_scan", "android": "https://dc.lft.to/lastmile_qr_scan"}, "bike_id": "f5009e987b43530c3231927e1c615b3d", "type": "electric_scooter", "is_disabled": 0, "fusion_lat": 0.0, "fusion_lon": 0.0, "is_reserved": 0, "name": "f5009e987b43530c3231927e1c615b3d"}, {"lon": -77.044971, "lat": 38.90136366666667, "rental_uris": {"ios": "https://dc.lft.to/lastmile_qr_scan", "android": "https://dc.lft.to/lastmile_qr_scan"}, "bike_id": "5109f6099f95193e4adc8b1fe10edba9", "type": "electric_scooter", "is_disabled": 0, "fusion_lat": 0.0, "fusion_lon": 0.0, "is_reserved": 0, "name": "5109f6099f95193e4adc8b1fe10edba9"}, {"lon": -76.98252116666667, "lat": 38.90452, "rental_uris": {"ios": "https://dc.lft.to/lastmile_qr_scan", "android": "https://dc.lft.to/lastmile_qr_scan"}, "bike_id": "98b738e49d8d4415657765091c13b46d", "type": "electric_scooter", "is_disabled": 0, "fusion_lat": 0.0, "fusion_lon": 0.0, "is_reserved": 0, "name": "98b738e49d8d4415657765091c13b46d"}, {"lon": -77.02400533333333, "lat": 38.894526, "rental_uris": {"ios": "https://dc.lft.to/lastmile_qr_scan", "android": "https://dc.lft.to/lastmile_qr_scan"}, "bike_id": "0d25c43b47eec6dbaa6e44da6ff3b795", "type": "electric_scooter", "is_disabled": 0, "fusion_lat": 0.0, "fusion_lon": 0.0, "is_reserved": 0, "name": "0d25c43b47eec6dbaa6e44da6ff3b795"}, {"lon": -76.98016566666666, "lat": 38.900789333333336, "rental_uris": {"ios": "https://dc.lft.to/lastmile_qr_scan", "android": "https://dc.lft.to/lastmile_qr_scan"}, "bike_id": "f3af2602d5300c48b8476d74a0930651", "type": "electric_scooter", "is_disabled": 0, "fusion_lat": 0.0, "fusion_lon": 0.0, "is_reserved": 0, "name": "f3af2602d5300c48b8476d74a0930651"}, {"lon": -77.026048, "lat": 38.898375, "rental_uris": {"ios": "https://dc.lft.to/lastmile_qr_scan", "android": "https://dc.lft.to/lastmile_qr_scan"}, "bike_id": "9c568d196dd96747772e12a76507b2ee", "type": "electric_scooter", "is_disabled": 0, "fusion_lat": 0.0, "fusion_lon": 0.0, "is_reserved": 0, "name": "9c568d196dd96747772e12a76507b2ee"}, {"lon": -77.07416566666667, "lat": 38.928857, "rental_uris": {"ios": "https://dc.lft.to/lastmile_qr_scan", "android": "https://dc.lft.to/lastmile_qr_scan"}, "bike_id": "a261dbb7b62bc9b8f7b09f5a2e80d833", "type": "electric_scooter", "is_disabled": 0, "fusion_lat": 0.0, "fusion_lon": 0.0, "is_reserved": 0, "name": "a261dbb7b62bc9b8f7b09f5a2e80d833"}, {"lon": -77.0281535, "lat": 38.899738666666664, "rental_uris": {"ios": "https://dc.lft.to/lastmile_qr_scan", "android": "https://dc.lft.to/lastmile_qr_scan"}, "bike_id": "6ed247254b0b343cde593dcfb51a3bcc", "type": "electric_scooter", "is_disabled": 0, "fusion_lat": 0.0, "fusion_lon": 0.0, "is_reserved": 0, "name": "6ed247254b0b343cde593dcfb51a3bcc"}, {"lon": -77.04347283333334, "lat": 38.910459833333334, "rental_uris": {"ios": "https://dc.lft.to/lastmile_qr_scan", "android": "https://dc.lft.to/lastmile_qr_scan"}, "bike_id": "0ca114e3d339ee211a979ce4a513de2a", "type": "electric_scooter", "is_disabled": 0, "fusion_lat": 0.0, "fusion_lon": 0.0, "is_reserved": 0, "name": "0ca114e3d339ee211a979ce4a513de2a"}, {"lon": -77.02273166666667, "lat": 38.916264, "rental_uris": {"ios": "https://dc.lft.to/lastmile_qr_scan", "android": "https://dc.lft.to/lastmile_qr_scan"}, "bike_id": "bf9fa511c014c46ca2bf7074240cdc83", "type": "electric_scooter", "is_disabled": 0, "fusion_lat": 0.0, "fusion_lon": 0.0, "is_reserved": 0, "name": "bf9fa511c014c46ca2bf7074240cdc83"}, {"lon": -76.98601583333334, "lat": 38.9002175, "rental_uris": {"ios": "https://dc.lft.to/lastmile_qr_scan", "android": "https://dc.lft.to/lastmile_qr_scan"}, "bike_id": "cb12f5c845d593523b068c6602467ed0", "type": "electric_scooter", "is_disabled": 0, "fusion_lat": 0.0, "fusion_lon": 0.0, "is_reserved": 0, "name": "cb12f5c845d593523b068c6602467ed0"}, {"lon": -76.93481266666667, "lat": 38.905798833333336, "rental_uris": {"ios": "https://dc.lft.to/lastmile_qr_scan", "android": "https://dc.lft.to/lastmile_qr_scan"}, "bike_id": "c30df8f7564f57f4bed175225cf15edd", "type": "electric_scooter", "is_disabled": 0, "fusion_lat": 0.0, "fusion_lon": 0.0, "is_reserved": 0, "name": "c30df8f7564f57f4bed175225cf15edd"}, {"lon": -77.01816316666667, "lat": 38.9304175, "rental_uris": {"ios": "https://dc.lft.to/lastmile_qr_scan", "android": "https://dc.lft.to/lastmile_qr_scan"}, "bike_id": "33b4bccf145cce2edfb195838caf7be6", "type": "electric_scooter", "is_disabled": 0, "fusion_lat": 0.0, "fusion_lon": 0.0, "is_reserved": 0, "name": "33b4bccf145cce2edfb195838caf7be6"}, {"lon": -77.03875416666666, "lat": 38.90618633333333, "rental_uris": {"ios": "https://dc.lft.to/lastmile_qr_scan", "android": "https://dc.lft.to/lastmile_qr_scan"}, "bike_id": "bdf58c3ac15563ab89dff2ef197cd6ff", "type": "electric_scooter", "is_disabled": 0, "fusion_lat": 0.0, "fusion_lon": 0.0, "is_reserved": 0, "name": "bdf58c3ac15563ab89dff2ef197cd6ff"}, {"lon": -76.98923, "lat": 38.864841, "rental_uris": {"ios": "https://dc.lft.to/lastmile_qr_scan", "android": "https://dc.lft.to/lastmile_qr_scan"}, "bike_id": "8067f97e854887a335a2513d01685c74", "type": "electric_scooter", "is_disabled": 0, "fusion_lat": 0.0, "fusion_lon": 0.0, "is_reserved": 0, "name": "8067f97e854887a335a2513d01685c74"}, {"lon": -77.06358966666667, "lat": 38.9072665, "rental_uris": {"ios": "https://dc.lft.to/lastmile_qr_scan", "android": "https://dc.lft.to/lastmile_qr_scan"}, "bike_id": "379905d814cfd9c791ea079fc39b01b3", "type": "electric_scooter", "is_disabled": 0, "fusion_lat": 0.0, "fusion_lon": 0.0, "is_reserved": 0, "name": "379905d814cfd9c791ea079fc39b01b3"}, {"lon": -76.94595533333333, "lat": 38.9014845, "rental_uris": {"ios": "https://dc.lft.to/lastmile_qr_scan", "android": "https://dc.lft.to/lastmile_qr_scan"}, "bike_id": "586910e3e30b6fb2dde5a864aae349cd", "type": "electric_scooter", "is_disabled": 0, "fusion_lat": 0.0, "fusion_lon": 0.0, "is_reserved": 0, "name": "586910e3e30b6fb2dde5a864aae349cd"}, {"lon": -77.06593466666666, "lat": 38.904076, "rental_uris": {"ios": "https://dc.lft.to/lastmile_qr_scan", "android": "https://dc.lft.to/lastmile_qr_scan"}, "bike_id": "466a338d5c4878a17468321e95ab7750", "type": "electric_scooter", "is_disabled": 0, "fusion_lat": 0.0, "fusion_lon": 0.0, "is_reserved": 0, "name": "466a338d5c4878a17468321e95ab7750"}, {"lon": -77.02446666666667, "lat": 38.93109333333334, "rental_uris": {"ios": "https://dc.lft.to/lastmile_qr_scan", "android": "https://dc.lft.to/lastmile_qr_scan"}, "bike_id": "9cb6d1c236e45b9bd7776ad189e03b3d", "type": "electric_scooter", "is_disabled": 0, "fusion_lat": 0.0, "fusion_lon": 0.0, "is_reserved": 0, "name": "9cb6d1c236e45b9bd7776ad189e03b3d"}, {"lon": -77.01249333333334, "lat": 38.91570216666667, "rental_uris": {"ios": "https://dc.lft.to/lastmile_qr_scan", "android": "https://dc.lft.to/lastmile_qr_scan"}, "bike_id": "6597756a302c24fd43770c9523c3183c", "type": "electric_scooter", "is_disabled": 0, "fusion_lat": 0.0, "fusion_lon": 0.0, "is_reserved": 0, "name": "6597756a302c24fd43770c9523c3183c"}, {"lon": -77.03911616666667, "lat": 38.93253383333333, "rental_uris": {"ios": "https://dc.lft.to/lastmile_qr_scan", "android": "https://dc.lft.to/lastmile_qr_scan"}, "bike_id": "580ec5e42a122b2239a44fc161d639e3", "type": "electric_scooter", "is_disabled": 0, "fusion_lat": 0.0, "fusion_lon": 0.0, "is_reserved": 0, "name": "580ec5e42a122b2239a44fc161d639e3"}, {"lon": -77.00052866666667, "lat": 38.9000285, "rental_uris": {"ios": "https://dc.lft.to/lastmile_qr_scan", "android": "https://dc.lft.to/lastmile_qr_scan"}, "bike_id": "8850a3e2a1df0b6f28105b28b296ef32", "type": "electric_scooter", "is_disabled": 0, "fusion_lat": 0.0, "fusion_lon": 0.0, "is_reserved": 0, "name": "8850a3e2a1df0b6f28105b28b296ef32"}, {"lon": -76.97397283333333, "lat": 38.90296933333333, "rental_uris": {"ios": "https://dc.lft.to/lastmile_qr_scan", "android": "https://dc.lft.to/lastmile_qr_scan"}, "bike_id": "ff9d6323764f1ba045fd5ee0f1ae4f17", "type": "electric_scooter", "is_disabled": 0, "fusion_lat": 0.0, "fusion_lon": 0.0, "is_reserved": 0, "name": "ff9d6323764f1ba045fd5ee0f1ae4f17"}, {"lon": -77.00063633333333, "lat": 38.90734583333333, "rental_uris": {"ios": "https://dc.lft.to/lastmile_qr_scan", "android": "https://dc.lft.to/lastmile_qr_scan"}, "bike_id": "5697d9784171750907243a55cdcf8c04", "type": "electric_scooter", "is_disabled": 0, "fusion_lat": 0.0, "fusion_lon": 0.0, "is_reserved": 0, "name": "5697d9784171750907243a55cdcf8c04"}, {"lon": -77.0985405, "lat": 38.84862866666667, "rental_uris": {"ios": "https://dc.lft.to/lastmile_qr_scan", "android": "https://dc.lft.to/lastmile_qr_scan"}, "bike_id": "11382996f1867598e6490532a6b97cb6", "type": "electric_bike", "is_disabled": 0, "fusion_lat": 0.0, "fusion_lon": 0.0, "is_reserved": 0, "name": "11382996f1867598e6490532a6b97cb6"}, {"lon": -77.02712, "lat": 38.9246365, "rental_uris": {"ios": "https://dc.lft.to/lastmile_qr_scan", "android": "https://dc.lft.to/lastmile_qr_scan"}, "bike_id": "85ca599ee82f24fb2ead51b03302d388", "type": "electric_scooter", "is_disabled": 0, "fusion_lat": 0.0, "fusion_lon": 0.0, "is_reserved": 0, "name": "85ca599ee82f24fb2ead51b03302d388"}, {"lon": -77.03905116666667, "lat": 38.9186635, "rental_uris": {"ios": "https://dc.lft.to/lastmile_qr_scan", "android": "https://dc.lft.to/lastmile_qr_scan"}, "bike_id": "ea659b04ba0cc4bbdfc169bbe79bdd7a", "type": "electric_scooter", "is_disabled": 0, "fusion_lat": 0.0, "fusion_lon": 0.0, "is_reserved": 0, "name": "ea659b04ba0cc4bbdfc169bbe79bdd7a"}, {"lon": -76.94380533333333, "lat": 38.893285666666664, "rental_uris": {"ios": "https://dc.lft.to/lastmile_qr_scan", "android": "https://dc.lft.to/lastmile_qr_scan"}, "bike_id": "dd23aa58ba11cfe6df77d5955dcb205d", "type": "electric_scooter", "is_disabled": 0, "fusion_lat": 0.0, "fusion_lon": 0.0, "is_reserved": 0, "name": "dd23aa58ba11cfe6df77d5955dcb205d"}, {"lon": -77.0322095, "lat": 38.91552683333333, "rental_uris": {"ios": "https://dc.lft.to/lastmile_qr_scan", "android": "https://dc.lft.to/lastmile_qr_scan"}, "bike_id": "97b3105ea6c7af942b14b2e6a6dd365f", "type": "electric_scooter", "is_disabled": 0, "fusion_lat": 0.0, "fusion_lon": 0.0, "is_reserved": 0, "name": "97b3105ea6c7af942b14b2e6a6dd365f"}, {"lon": -76.99775133333333, "lat": 38.84430483333333, "rental_uris": {"ios": "https://dc.lft.to/lastmile_qr_scan", "android": "https://dc.lft.to/lastmile_qr_scan"}, "bike_id": "6494070ad5c4000a3ca4d3a659f4f2ab", "type": "electric_scooter", "is_disabled": 0, "fusion_lat": 0.0, "fusion_lon": 0.0, "is_reserved": 0, "name": "6494070ad5c4000a3ca4d3a659f4f2ab"}, {"lon": -76.97425383333334, "lat": 38.90403883333333, "rental_uris": {"ios": "https://dc.lft.to/lastmile_qr_scan", "android": "https://dc.lft.to/lastmile_qr_scan"}, "bike_id": "8b1f1b4be552cb6b715376d43ddba6e9", "type": "electric_scooter", "is_disabled": 0, "fusion_lat": 0.0, "fusion_lon": 0.0, "is_reserved": 0, "name": "8b1f1b4be552cb6b715376d43ddba6e9"}, {"lon": -77.02428616666667, "lat": 38.937115166666665, "rental_uris": {"ios": "https://dc.lft.to/lastmile_qr_scan", "android": "https://dc.lft.to/lastmile_qr_scan"}, "bike_id": "922805f98f2a4310aad8aa0756e015c2", "type": "electric_scooter", "is_disabled": 0, "fusion_lat": 0.0, "fusion_lon": 0.0, "is_reserved": 0, "name": "922805f98f2a4310aad8aa0756e015c2"}, {"lon": -77.0906615, "lat": 38.86259033333333, "rental_uris": {"ios": "https://dc.lft.to/lastmile_qr_scan", "android": "https://dc.lft.to/lastmile_qr_scan"}, "bike_id": "91d324d05822cb99076f89d862220f36", "type": "electric_bike", "is_disabled": 0, "fusion_lat": 0.0, "fusion_lon": 0.0, "is_reserved": 0, "name": "91d324d05822cb99076f89d862220f36"}, {"lon": -76.97826233333333, "lat": 38.8436515, "rental_uris": {"ios": "https://dc.lft.to/lastmile_qr_scan", "android": "https://dc.lft.to/lastmile_qr_scan"}, "bike_id": "75b4444e0ebbbf3838d7632cd5cc59b5", "type": "electric_bike", "is_disabled": 0, "fusion_lat": 0.0, "fusion_lon": 0.0, "is_reserved": 0, "name": "75b4444e0ebbbf3838d7632cd5cc59b5"}, {"lon": -77.03219666666666, "lat": 38.896674833333336, "rental_uris": {"ios": "https://dc.lft.to/lastmile_qr_scan", "android": "https://dc.lft.to/lastmile_qr_scan"}, "bike_id": "248219e29e09fbfba49a9eaa9c5065c1", "type": "electric_scooter", "is_disabled": 0, "fusion_lat": 0.0, "fusion_lon": 0.0, "is_reserved": 0, "name": "248219e29e09fbfba49a9eaa9c5065c1"}, {"lon": -76.9375575, "lat": 38.89044883333333, "rental_uris": {"ios": "https://dc.lft.to/lastmile_qr_scan", "android": "https://dc.lft.to/lastmile_qr_scan"}, "bike_id": "93c7d39ac08a257d2747467e615e65ea", "type": "electric_scooter", "is_disabled": 0, "fusion_lat": 0.0, "fusion_lon": 0.0, "is_reserved": 0, "name": "93c7d39ac08a257d2747467e615e65ea"}, {"lon": -77.03376433333334, "lat": 38.899039, "rental_uris": {"ios": "https://dc.lft.to/lastmile_qr_scan", "android": "https://dc.lft.to/lastmile_qr_scan"}, "bike_id": "3abf07cb1bbebac290a79ab442b20c4e", "type": "electric_scooter", "is_disabled": 0, "fusion_lat": 0.0, "fusion_lon": 0.0, "is_reserved": 0, "name": "3abf07cb1bbebac290a79ab442b20c4e"}, {"lon": -77.00005583333333, "lat": 38.89296916666667, "rental_uris": {"ios": "https://dc.lft.to/lastmile_qr_scan", "android": "https://dc.lft.to/lastmile_qr_scan"}, "bike_id": "3e47dce233392aaa4b8c3bf4046bc3fe", "type": "electric_scooter", "is_disabled": 0, "fusion_lat": 0.0, "fusion_lon": 0.0, "is_reserved": 0, "name": "3e47dce233392aaa4b8c3bf4046bc3fe"}, {"lon": -77.03183416666667, "lat": 38.91926933333333, "rental_uris": {"ios": "https://dc.lft.to/lastmile_qr_scan", "android": "https://dc.lft.to/lastmile_qr_scan"}, "bike_id": "fe2197beac659eeb21a89df143296eaa", "type": "electric_scooter", "is_disabled": 0, "fusion_lat": 0.0, "fusion_lon": 0.0, "is_reserved": 0, "name": "fe2197beac659eeb21a89df143296eaa"}, {"lon": -76.986245, "lat": 38.901164, "rental_uris": {"ios": "https://dc.lft.to/lastmile_qr_scan", "android": "https://dc.lft.to/lastmile_qr_scan"}, "bike_id": "05fe4116243313773954a9cd47a94125", "type": "electric_scooter", "is_disabled": 0, "fusion_lat": 0.0, "fusion_lon": 0.0, "is_reserved": 0, "name": "05fe4116243313773954a9cd47a94125"}, {"lon": -77.04349833333333, "lat": 38.907256333333336, "rental_uris": {"ios": "https://dc.lft.to/lastmile_qr_scan", "android": "https://dc.lft.to/lastmile_qr_scan"}, "bike_id": "2bf69434e69597cee4164a186bf3b07d", "type": "electric_scooter", "is_disabled": 0, "fusion_lat": 0.0, "fusion_lon": 0.0, "is_reserved": 0, "name": "2bf69434e69597cee4164a186bf3b07d"}, {"lon": -77.02149333333334, "lat": 38.91415033333333, "rental_uris": {"ios": "https://dc.lft.to/lastmile_qr_scan", "android": "https://dc.lft.to/lastmile_qr_scan"}, "bike_id": "afe00a607206309d5a86495e711f889a", "type": "electric_bike", "is_disabled": 0, "fusion_lat": 0.0, "fusion_lon": 0.0, "is_reserved": 0, "name": "afe00a607206309d5a86495e711f889a"}, {"lon": -76.99779966666667, "lat": 38.844288166666665, "rental_uris": {"ios": "https://dc.lft.to/lastmile_qr_scan", "android": "https://dc.lft.to/lastmile_qr_scan"}, "bike_id": "99ada719d60c8e92b7e368cb63111951", "type": "electric_scooter", "is_disabled": 0, "fusion_lat": 0.0, "fusion_lon": 0.0, "is_reserved": 0, "name": "99ada719d60c8e92b7e368cb63111951"}, {"lon": -76.93751383333333, "lat": 38.890464, "rental_uris": {"ios": "https://dc.lft.to/lastmile_qr_scan", "android": "https://dc.lft.to/lastmile_qr_scan"}, "bike_id": "802c01a47dd8a10fa5b4d2863dadb919", "type": "electric_scooter", "is_disabled": 0, "fusion_lat": 0.0, "fusion_lon": 0.0, "is_reserved": 0, "name": "802c01a47dd8a10fa5b4d2863dadb919"}, {"lon": -77.02932966666667, "lat": 38.89527616666667, "rental_uris": {"ios": "https://dc.lft.to/lastmile_qr_scan", "android": "https://dc.lft.to/lastmile_qr_scan"}, "bike_id": "00999824431ca9e2d53b986529b0368d", "type": "electric_scooter", "is_disabled": 0, "fusion_lat": 0.0, "fusion_lon": 0.0, "is_reserved": 0, "name": "00999824431ca9e2d53b986529b0368d"}, {"lon": -77.04371816666666, "lat": 38.90423633333333, "rental_uris": {"ios": "https://dc.lft.to/lastmile_qr_scan", "android": "https://dc.lft.to/lastmile_qr_scan"}, "bike_id": "9fcbdbb49aa605377a1929722c7e1afc", "type": "electric_scooter", "is_disabled": 0, "fusion_lat": 0.0, "fusion_lon": 0.0, "is_reserved": 0, "name": "9fcbdbb49aa605377a1929722c7e1afc"}, {"lon": -77.02386283333334, "lat": 38.900366166666664, "rental_uris": {"ios": "https://dc.lft.to/lastmile_qr_scan", "android": "https://dc.lft.to/lastmile_qr_scan"}, "bike_id": "542da5e436425d7921018ba42df6f734", "type": "electric_scooter", "is_disabled": 0, "fusion_lat": 0.0, "fusion_lon": 0.0, "is_reserved": 0, "name": "542da5e436425d7921018ba42df6f734"}, {"lon": -77.02940883333333, "lat": 38.920772166666666, "rental_uris": {"ios": "https://dc.lft.to/lastmile_qr_scan", "android": "https://dc.lft.to/lastmile_qr_scan"}, "bike_id": "c980c02caaab04f6886021a7ebda2302", "type": "electric_scooter", "is_disabled": 0, "fusion_lat": 0.0, "fusion_lon": 0.0, "is_reserved": 0, "name": "c980c02caaab04f6886021a7ebda2302"}, {"lon": -77.02239766666666, "lat": 38.9227075, "rental_uris": {"ios": "https://dc.lft.to/lastmile_qr_scan", "android": "https://dc.lft.to/lastmile_qr_scan"}, "bike_id": "e650ce3b19cbe8605711af01cf6d0ad6", "type": "electric_scooter", "is_disabled": 0, "fusion_lat": 0.0, "fusion_lon": 0.0, "is_reserved": 0, "name": "e650ce3b19cbe8605711af01cf6d0ad6"}, {"lon": -77.00337933333333, "lat": 38.889859333333334, "rental_uris": {"ios": "https://dc.lft.to/lastmile_qr_scan", "android": "https://dc.lft.to/lastmile_qr_scan"}, "bike_id": "ad10f8d2f479f42b3bb319f863f35815", "type": "electric_scooter", "is_disabled": 0, "fusion_lat": 0.0, "fusion_lon": 0.0, "is_reserved": 0, "name": "ad10f8d2f479f42b3bb319f863f35815"}, {"lon": -77.04524266666667, "lat": 38.941969, "rental_uris": {"ios": "https://dc.lft.to/lastmile_qr_scan", "android": "https://dc.lft.to/lastmile_qr_scan"}, "bike_id": "b31aed7e2c6049c8f0a21b403ec8a4fd", "type": "electric_bike", "is_disabled": 0, "fusion_lat": 0.0, "fusion_lon": 0.0, "is_reserved": 0, "name": "b31aed7e2c6049c8f0a21b403ec8a4fd"}, {"lon": -76.99513916666666, "lat": 38.8961685, "rental_uris": {"ios": "https://dc.lft.to/lastmile_qr_scan", "android": "https://dc.lft.to/lastmile_qr_scan"}, "bike_id": "57fec27db76fe9f3e5202b27bda5c251", "type": "electric_scooter", "is_disabled": 0, "fusion_lat": 0.0, "fusion_lon": 0.0, "is_reserved": 0, "name": "57fec27db76fe9f3e5202b27bda5c251"}, {"lon": -77.04717233333334, "lat": 38.921959666666666, "rental_uris": {"ios": "https://dc.lft.to/lastmile_qr_scan", "android": "https://dc.lft.to/lastmile_qr_scan"}, "bike_id": "9aedb31304472cb8e978c12d5648957b", "type": "electric_scooter", "is_disabled": 0, "fusion_lat": 0.0, "fusion_lon": 0.0, "is_reserved": 0, "name": "9aedb31304472cb8e978c12d5648957b"}, {"lon": -77.0213705, "lat": 38.924629333333336, "rental_uris": {"ios": "https://dc.lft.to/lastmile_qr_scan", "android": "https://dc.lft.to/lastmile_qr_scan"}, "bike_id": "382d4f593dc65e365d19f6dbfb9b532a", "type": "electric_scooter", "is_disabled": 0, "fusion_lat": 0.0, "fusion_lon": 0.0, "is_reserved": 0, "name": "382d4f593dc65e365d19f6dbfb9b532a"}, {"lon": -76.94805916666667, "lat": 38.861949333333335, "rental_uris": {"ios": "https://dc.lft.to/lastmile_qr_scan", "android": "https://dc.lft.to/lastmile_qr_scan"}, "bike_id": "ed4fbb1b06016aee4fbcddbbd92f23be", "type": "electric_bike", "is_disabled": 0, "fusion_lat": 0.0, "fusion_lon": 0.0, "is_reserved": 0, "name": "ed4fbb1b06016aee4fbcddbbd92f23be"}, {"lon": -77.04676433333333, "lat": 38.895562166666664, "rental_uris": {"ios": "https://dc.lft.to/lastmile_qr_scan", "android": "https://dc.lft.to/lastmile_qr_scan"}, "bike_id": "8c47704e8abbad5cd737998d5039c8de", "type": "electric_scooter", "is_disabled": 0, "fusion_lat": 0.0, "fusion_lon": 0.0, "is_reserved": 0, "name": "8c47704e8abbad5cd737998d5039c8de"}, {"lon": -77.04689733333333, "lat": 38.91574116666666, "rental_uris": {"ios": "https://dc.lft.to/lastmile_qr_scan", "android": "https://dc.lft.to/lastmile_qr_scan"}, "bike_id": "094c16955ca64cb8586a04f60e0f4fa6", "type": "electric_scooter", "is_disabled": 0, "fusion_lat": 0.0, "fusion_lon": 0.0, "is_reserved": 0, "name": "094c16955ca64cb8586a04f60e0f4fa6"}, {"lon": -77.0299635, "lat": 38.89749666666667, "rental_uris": {"ios": "https://dc.lft.to/lastmile_qr_scan", "android": "https://dc.lft.to/lastmile_qr_scan"}, "bike_id": "4b17349693d906c0f526de28bdc85d91", "type": "electric_scooter", "is_disabled": 0, "fusion_lat": 0.0, "fusion_lon": 0.0, "is_reserved": 0, "name": "4b17349693d906c0f526de28bdc85d91"}, {"lon": -77.00428216666667, "lat": 38.90562883333333, "rental_uris": {"ios": "https://dc.lft.to/lastmile_qr_scan", "android": "https://dc.lft.to/lastmile_qr_scan"}, "bike_id": "1e86a9d1216030cc1a9c2783b7ab0756", "type": "electric_scooter", "is_disabled": 0, "fusion_lat": 0.0, "fusion_lon": 0.0, "is_reserved": 0, "name": "1e86a9d1216030cc1a9c2783b7ab0756"}, {"lon": -77.03843566666667, "lat": 38.902689, "rental_uris": {"ios": "https://dc.lft.to/lastmile_qr_scan", "android": "https://dc.lft.to/lastmile_qr_scan"}, "bike_id": "3f7e329595875a12b843b91df94ebd73", "type": "electric_scooter", "is_disabled": 0, "fusion_lat": 0.0, "fusion_lon": 0.0, "is_reserved": 0, "name": "3f7e329595875a12b843b91df94ebd73"}, {"lon": -77.0174395, "lat": 38.88568083333333, "rental_uris": {"ios": "https://dc.lft.to/lastmile_qr_scan", "android": "https://dc.lft.to/lastmile_qr_scan"}, "bike_id": "4fd11fb0ac35363fc6a7ee589e038d1d", "type": "electric_scooter", "is_disabled": 0, "fusion_lat": 0.0, "fusion_lon": 0.0, "is_reserved": 0, "name": "4fd11fb0ac35363fc6a7ee589e038d1d"}, {"lon": -77.03350433333334, "lat": 38.89842983333333, "rental_uris": {"ios": "https://dc.lft.to/lastmile_qr_scan", "android": "https://dc.lft.to/lastmile_qr_scan"}, "bike_id": "07eb4be944673d51465de602ee7f9811", "type": "electric_scooter", "is_disabled": 0, "fusion_lat": 0.0, "fusion_lon": 0.0, "is_reserved": 0, "name": "07eb4be944673d51465de602ee7f9811"}, {"lon": -77.03385066666667, "lat": 38.938710666666665, "rental_uris": {"ios": "https://dc.lft.to/lastmile_qr_scan", "android": "https://dc.lft.to/lastmile_qr_scan"}, "bike_id": "754f91f6b18b568c03fec35b5e4586dd", "type": "electric_scooter", "is_disabled": 0, "fusion_lat": 0.0, "fusion_lon": 0.0, "is_reserved": 0, "name": "754f91f6b18b568c03fec35b5e4586dd"}, {"lon": -76.9652895, "lat": 38.87477783333333, "rental_uris": {"ios": "https://dc.lft.to/lastmile_qr_scan", "android": "https://dc.lft.to/lastmile_qr_scan"}, "bike_id": "eab06ac7660753f43197686d671c488c", "type": "electric_bike", "is_disabled": 0, "fusion_lat": 0.0, "fusion_lon": 0.0, "is_reserved": 0, "name": "eab06ac7660753f43197686d671c488c"}, {"lon": -77.02803183333333, "lat": 38.892353666666665, "rental_uris": {"ios": "https://dc.lft.to/lastmile_qr_scan", "android": "https://dc.lft.to/lastmile_qr_scan"}, "bike_id": "7edc0e478dfc418b59973e22ef42145c", "type": "electric_scooter", "is_disabled": 0, "fusion_lat": 0.0, "fusion_lon": 0.0, "is_reserved": 0, "name": "7edc0e478dfc418b59973e22ef42145c"}, {"lon": -77.0289895, "lat": 38.94047183333333, "rental_uris": {"ios": "https://dc.lft.to/lastmile_qr_scan", "android": "https://dc.lft.to/lastmile_qr_scan"}, "bike_id": "871695aa0c4409ffee2984523785aae3", "type": "electric_scooter", "is_disabled": 0, "fusion_lat": 0.0, "fusion_lon": 0.0, "is_reserved": 0, "name": "871695aa0c4409ffee2984523785aae3"}, {"lon": -76.97862416666666, "lat": 38.87068933333333, "rental_uris": {"ios": "https://dc.lft.to/lastmile_qr_scan", "android": "https://dc.lft.to/lastmile_qr_scan"}, "bike_id": "8a37bc9749d16f12edf3fa9335390b58", "type": "electric_scooter", "is_disabled": 0, "fusion_lat": 0.0, "fusion_lon": 0.0, "is_reserved": 0, "name": "8a37bc9749d16f12edf3fa9335390b58"}, {"lon": -77.028998, "lat": 38.9613985, "rental_uris": {"ios": "https://dc.lft.to/lastmile_qr_scan", "android": "https://dc.lft.to/lastmile_qr_scan"}, "bike_id": "d7a5e7147b792d92790b887e0acacfab", "type": "electric_scooter", "is_disabled": 0, "fusion_lat": 0.0, "fusion_lon": 0.0, "is_reserved": 0, "name": "d7a5e7147b792d92790b887e0acacfab"}, {"lon": -77.05305216666666, "lat": 38.898512333333336, "rental_uris": {"ios": "https://dc.lft.to/lastmile_qr_scan", "android": "https://dc.lft.to/lastmile_qr_scan"}, "bike_id": "b7184a377fd8283240f5ca7a99faad52", "type": "electric_scooter", "is_disabled": 0, "fusion_lat": 0.0, "fusion_lon": 0.0, "is_reserved": 0, "name": "b7184a377fd8283240f5ca7a99faad52"}, {"lon": -77.04335916666666, "lat": 38.907639, "rental_uris": {"ios": "https://dc.lft.to/lastmile_qr_scan", "android": "https://dc.lft.to/lastmile_qr_scan"}, "bike_id": "69f147d6a97bc014f0bd9214d7d8e7ee", "type": "electric_scooter", "is_disabled": 0, "fusion_lat": 0.0, "fusion_lon": 0.0, "is_reserved": 0, "name": "69f147d6a97bc014f0bd9214d7d8e7ee"}, {"lon": -77.00565516666667, "lat": 38.902339, "rental_uris": {"ios": "https://dc.lft.to/lastmile_qr_scan", "android": "https://dc.lft.to/lastmile_qr_scan"}, "bike_id": "094472b7c0f29b56b90651569f7163f0", "type": "electric_scooter", "is_disabled": 0, "fusion_lat": 0.0, "fusion_lon": 0.0, "is_reserved": 0, "name": "094472b7c0f29b56b90651569f7163f0"}, {"lon": -76.97304833333334, "lat": 38.91984166666667, "rental_uris": {"ios": "https://dc.lft.to/lastmile_qr_scan", "android": "https://dc.lft.to/lastmile_qr_scan"}, "bike_id": "f347c4936e72428dbf1aed1b279167d2", "type": "electric_scooter", "is_disabled": 0, "fusion_lat": 0.0, "fusion_lon": 0.0, "is_reserved": 0, "name": "f347c4936e72428dbf1aed1b279167d2"}, {"lon": -77.06208216666667, "lat": 38.92037416666667, "rental_uris": {"ios": "https://dc.lft.to/lastmile_qr_scan", "android": "https://dc.lft.to/lastmile_qr_scan"}, "bike_id": "14e50a331020b21df1ee972b3b92d99b", "type": "electric_bike", "is_disabled": 0, "fusion_lat": 0.0, "fusion_lon": 0.0, "is_reserved": 0, "name": "14e50a331020b21df1ee972b3b92d99b"}, {"lon": -77.04539266666667, "lat": 38.90058716666667, "rental_uris": {"ios": "https://dc.lft.to/lastmile_qr_scan", "android": "https://dc.lft.to/lastmile_qr_scan"}, "bike_id": "0fd0076d43f67038c2558b56d5144aa0", "type": "electric_scooter", "is_disabled": 0, "fusion_lat": 0.0, "fusion_lon": 0.0, "is_reserved": 0, "name": "0fd0076d43f67038c2558b56d5144aa0"}, {"lon": -77.044941, "lat": 38.90375233333334, "rental_uris": {"ios": "https://dc.lft.to/lastmile_qr_scan", "android": "https://dc.lft.to/lastmile_qr_scan"}, "bike_id": "89f2ead73ed8a83a56c4e635b030de23", "type": "electric_scooter", "is_disabled": 0, "fusion_lat": 0.0, "fusion_lon": 0.0, "is_reserved": 0, "name": "89f2ead73ed8a83a56c4e635b030de23"}, {"lon": -77.019523, "lat": 38.922490833333335, "rental_uris": {"ios": "https://dc.lft.to/lastmile_qr_scan", "android": "https://dc.lft.to/lastmile_qr_scan"}, "bike_id": "7ada22f0e05a32630e6da78cac9b95a2", "type": "electric_scooter", "is_disabled": 0, "fusion_lat": 0.0, "fusion_lon": 0.0, "is_reserved": 0, "name": "7ada22f0e05a32630e6da78cac9b95a2"}, {"lon": -77.03350033333334, "lat": 38.89844016666667, "rental_uris": {"ios": "https://dc.lft.to/lastmile_qr_scan", "android": "https://dc.lft.to/lastmile_qr_scan"}, "bike_id": "5d827401a9b7217652f039bb9a46cfb9", "type": "electric_scooter", "is_disabled": 0, "fusion_lat": 0.0, "fusion_lon": 0.0, "is_reserved": 0, "name": "5d827401a9b7217652f039bb9a46cfb9"}, {"lon": -77.03504416666667, "lat": 38.91878066666666, "rental_uris": {"ios": "https://dc.lft.to/lastmile_qr_scan", "android": "https://dc.lft.to/lastmile_qr_scan"}, "bike_id": "53f299fce571abf2d19ba0c6f56b8276", "type": "electric_scooter", "is_disabled": 0, "fusion_lat": 0.0, "fusion_lon": 0.0, "is_reserved": 0, "name": "53f299fce571abf2d19ba0c6f56b8276"}, {"lon": -77.02951183333333, "lat": 38.92172466666667, "rental_uris": {"ios": "https://dc.lft.to/lastmile_qr_scan", "android": "https://dc.lft.to/lastmile_qr_scan"}, "bike_id": "1fd1e3d7a5c335a1282d4e9e4692f651", "type": "electric_scooter", "is_disabled": 0, "fusion_lat": 0.0, "fusion_lon": 0.0, "is_reserved": 0, "name": "1fd1e3d7a5c335a1282d4e9e4692f651"}, {"lon": -76.93541, "lat": 38.95555366666667, "rental_uris": {"ios": "https://dc.lft.to/lastmile_qr_scan", "android": "https://dc.lft.to/lastmile_qr_scan"}, "bike_id": "4b59221df27d07735f2297ef2adf4be2", "type": "electric_bike", "is_disabled": 0, "fusion_lat": 0.0, "fusion_lon": 0.0, "is_reserved": 0, "name": "4b59221df27d07735f2297ef2adf4be2"}, {"lon": -77.0395965, "lat": 38.897189166666664, "rental_uris": {"ios": "https://dc.lft.to/lastmile_qr_scan", "android": "https://dc.lft.to/lastmile_qr_scan"}, "bike_id": "04a320b9a78f5161d4ab65c84de460f1", "type": "electric_scooter", "is_disabled": 0, "fusion_lat": 0.0, "fusion_lon": 0.0, "is_reserved": 0, "name": "04a320b9a78f5161d4ab65c84de460f1"}, {"lon": -77.0504105, "lat": 38.923755166666666, "rental_uris": {"ios": "https://dc.lft.to/lastmile_qr_scan", "android": "https://dc.lft.to/lastmile_qr_scan"}, "bike_id": "6da077875f6cbcd43112a4a21a95eb72", "type": "electric_scooter", "is_disabled": 0, "fusion_lat": 0.0, "fusion_lon": 0.0, "is_reserved": 0, "name": "6da077875f6cbcd43112a4a21a95eb72"}, {"lon": -77.03801133333333, "lat": 38.9206125, "rental_uris": {"ios": "https://dc.lft.to/lastmile_qr_scan", "android": "https://dc.lft.to/lastmile_qr_scan"}, "bike_id": "b91204343380b79f45379206948d9484", "type": "electric_scooter", "is_disabled": 0, "fusion_lat": 0.0, "fusion_lon": 0.0, "is_reserved": 0, "name": "b91204343380b79f45379206948d9484"}, {"lon": -77.0345875, "lat": 38.90807083333333, "rental_uris": {"ios": "https://dc.lft.to/lastmile_qr_scan", "android": "https://dc.lft.to/lastmile_qr_scan"}, "bike_id": "a70101daa1fe20fa0d2e5f239bbb43be", "type": "electric_scooter", "is_disabled": 0, "fusion_lat": 0.0, "fusion_lon": 0.0, "is_reserved": 0, "name": "a70101daa1fe20fa0d2e5f239bbb43be"}, {"lon": -77.05142166666667, "lat": 38.905327166666666, "rental_uris": {"ios": "https://dc.lft.to/lastmile_qr_scan", "android": "https://dc.lft.to/lastmile_qr_scan"}, "bike_id": "aa44298380d1b55ee062eb466a891364", "type": "electric_scooter", "is_disabled": 0, "fusion_lat": 0.0, "fusion_lon": 0.0, "is_reserved": 0, "name": "aa44298380d1b55ee062eb466a891364"}, {"lon": -76.98513116666666, "lat": 38.866443333333336, "rental_uris": {"ios": "https://dc.lft.to/lastmile_qr_scan", "android": "https://dc.lft.to/lastmile_qr_scan"}, "bike_id": "e3e7b084c383b0418ffef3e9551eae34", "type": "electric_scooter", "is_disabled": 0, "fusion_lat": 0.0, "fusion_lon": 0.0, "is_reserved": 0, "name": "e3e7b084c383b0418ffef3e9551eae34"}, {"lon": -76.9856055, "lat": 38.910334666666664, "rental_uris": {"ios": "https://dc.lft.to/lastmile_qr_scan", "android": "https://dc.lft.to/lastmile_qr_scan"}, "bike_id": "9d5314db1e18d9503667730186806f7a", "type": "electric_scooter", "is_disabled": 0, "fusion_lat": 0.0, "fusion_lon": 0.0, "is_reserved": 0, "name": "9d5314db1e18d9503667730186806f7a"}, {"lon": -77.04351566666666, "lat": 38.898359166666665, "rental_uris": {"ios": "https://dc.lft.to/lastmile_qr_scan", "android": "https://dc.lft.to/lastmile_qr_scan"}, "bike_id": "a39e9e7c88489b08de1f9af76bce4045", "type": "electric_scooter", "is_disabled": 0, "fusion_lat": 0.0, "fusion_lon": 0.0, "is_reserved": 0, "name": "a39e9e7c88489b08de1f9af76bce4045"}, {"lon": -77.04248416666667, "lat": 38.925427666666664, "rental_uris": {"ios": "https://dc.lft.to/lastmile_qr_scan", "android": "https://dc.lft.to/lastmile_qr_scan"}, "bike_id": "22241858543d4fa7b3d67dac5ccd9968", "type": "electric_scooter", "is_disabled": 0, "fusion_lat": 0.0, "fusion_lon": 0.0, "is_reserved": 0, "name": "22241858543d4fa7b3d67dac5ccd9968"}, {"lon": -77.036439, "lat": 38.922628333333336, "rental_uris": {"ios": "https://dc.lft.to/lastmile_qr_scan", "android": "https://dc.lft.to/lastmile_qr_scan"}, "bike_id": "c0d112f7267bb8ab92a81fd7405a2be9", "type": "electric_scooter", "is_disabled": 0, "fusion_lat": 0.0, "fusion_lon": 0.0, "is_reserved": 0, "name": "c0d112f7267bb8ab92a81fd7405a2be9"}, {"lon": -77.019445, "lat": 38.92414, "rental_uris": {"ios": "https://dc.lft.to/lastmile_qr_scan", "android": "https://dc.lft.to/lastmile_qr_scan"}, "bike_id": "b03fbdb4d6b6d04fdf4b09b1b037eb7f", "type": "electric_bike", "is_disabled": 0, "fusion_lat": 0.0, "fusion_lon": 0.0, "is_reserved": 0, "name": "b03fbdb4d6b6d04fdf4b09b1b037eb7f"}, {"lon": -76.99511283333334, "lat": 38.882808, "rental_uris": {"ios": "https://dc.lft.to/lastmile_qr_scan", "android": "https://dc.lft.to/lastmile_qr_scan"}, "bike_id": "d74b25f3825115dc70bb96dcdc1064d1", "type": "electric_scooter", "is_disabled": 0, "fusion_lat": 0.0, "fusion_lon": 0.0, "is_reserved": 0, "name": "d74b25f3825115dc70bb96dcdc1064d1"}, {"lon": -77.0329635, "lat": 38.909771, "rental_uris": {"ios": "https://dc.lft.to/lastmile_qr_scan", "android": "https://dc.lft.to/lastmile_qr_scan"}, "bike_id": "d4d27babc1091f1aaa7525dceb26d458", "type": "electric_scooter", "is_disabled": 0, "fusion_lat": 0.0, "fusion_lon": 0.0, "is_reserved": 0, "name": "d4d27babc1091f1aaa7525dceb26d458"}, {"lon": -77.02213133333333, "lat": 38.914143833333334, "rental_uris": {"ios": "https://dc.lft.to/lastmile_qr_scan", "android": "https://dc.lft.to/lastmile_qr_scan"}, "bike_id": "cd94437a45680bdafe2399764760945b", "type": "electric_scooter", "is_disabled": 0, "fusion_lat": 0.0, "fusion_lon": 0.0, "is_reserved": 0, "name": "cd94437a45680bdafe2399764760945b"}, {"lon": -77.0720725, "lat": 38.920906, "rental_uris": {"ios": "https://dc.lft.to/lastmile_qr_scan", "android": "https://dc.lft.to/lastmile_qr_scan"}, "bike_id": "fd5f2b5e811e4c36a35435ca2773f39d", "type": "electric_scooter", "is_disabled": 0, "fusion_lat": 0.0, "fusion_lon": 0.0, "is_reserved": 0, "name": "fd5f2b5e811e4c36a35435ca2773f39d"}, {"lon": -77.02957716666667, "lat": 38.89974383333333, "rental_uris": {"ios": "https://dc.lft.to/lastmile_qr_scan", "android": "https://dc.lft.to/lastmile_qr_scan"}, "bike_id": "3fa46222c2da624339276e3792d58d19", "type": "electric_scooter", "is_disabled": 0, "fusion_lat": 0.0, "fusion_lon": 0.0, "is_reserved": 0, "name": "3fa46222c2da624339276e3792d58d19"}, {"lon": -77.05154816666666, "lat": 38.89947733333333, "rental_uris": {"ios": "https://dc.lft.to/lastmile_qr_scan", "android": "https://dc.lft.to/lastmile_qr_scan"}, "bike_id": "e2827428997e158bb1e28131a5614d1a", "type": "electric_scooter", "is_disabled": 0, "fusion_lat": 0.0, "fusion_lon": 0.0, "is_reserved": 0, "name": "e2827428997e158bb1e28131a5614d1a"}, {"lon": -76.92737933333333, "lat": 38.8896335, "rental_uris": {"ios": "https://dc.lft.to/lastmile_qr_scan", "android": "https://dc.lft.to/lastmile_qr_scan"}, "bike_id": "90812b02fa6718585d58c3c315545367", "type": "electric_scooter", "is_disabled": 0, "fusion_lat": 0.0, "fusion_lon": 0.0, "is_reserved": 0, "name": "90812b02fa6718585d58c3c315545367"}, {"lon": -77.05853783333333, "lat": 38.93581066666667, "rental_uris": {"ios": "https://dc.lft.to/lastmile_qr_scan", "android": "https://dc.lft.to/lastmile_qr_scan"}, "bike_id": "3067857c5ab72a544f55b8474d7f9a06", "type": "electric_scooter", "is_disabled": 0, "fusion_lat": 0.0, "fusion_lon": 0.0, "is_reserved": 0, "name": "3067857c5ab72a544f55b8474d7f9a06"}, {"lon": -77.01935516666667, "lat": 38.946965666666664, "rental_uris": {"ios": "https://dc.lft.to/lastmile_qr_scan", "android": "https://dc.lft.to/lastmile_qr_scan"}, "bike_id": "73a9ebcbc68c255fda01bdd1a2790efc", "type": "electric_scooter", "is_disabled": 0, "fusion_lat": 0.0, "fusion_lon": 0.0, "is_reserved": 0, "name": "73a9ebcbc68c255fda01bdd1a2790efc"}, {"lon": -76.93351416666667, "lat": 38.898987, "rental_uris": {"ios": "https://dc.lft.to/lastmile_qr_scan", "android": "https://dc.lft.to/lastmile_qr_scan"}, "bike_id": "5959efe263012f49819a75dab7085be1", "type": "electric_scooter", "is_disabled": 0, "fusion_lat": 0.0, "fusion_lon": 0.0, "is_reserved": 0, "name": "5959efe263012f49819a75dab7085be1"}, {"lon": -76.982875, "lat": 38.900438333333334, "rental_uris": {"ios": "https://dc.lft.to/lastmile_qr_scan", "android": "https://dc.lft.to/lastmile_qr_scan"}, "bike_id": "1350c70eccdf69e3cf43029f8edc6803", "type": "electric_scooter", "is_disabled": 0, "fusion_lat": 0.0, "fusion_lon": 0.0, "is_reserved": 0, "name": "1350c70eccdf69e3cf43029f8edc6803"}, {"lon": -77.01725766666667, "lat": 38.902587833333335, "rental_uris": {"ios": "https://dc.lft.to/lastmile_qr_scan", "android": "https://dc.lft.to/lastmile_qr_scan"}, "bike_id": "a68f85bc4f2d196566db3b120bd8ad35", "type": "electric_scooter", "is_disabled": 0, "fusion_lat": 0.0, "fusion_lon": 0.0, "is_reserved": 0, "name": "a68f85bc4f2d196566db3b120bd8ad35"}, {"lon": -77.03962366666667, "lat": 38.89241883333333, "rental_uris": {"ios": "https://dc.lft.to/lastmile_qr_scan", "android": "https://dc.lft.to/lastmile_qr_scan"}, "bike_id": "75d6d2a8ce373275bfe1e0a39fade601", "type": "electric_scooter", "is_disabled": 0, "fusion_lat": 0.0, "fusion_lon": 0.0, "is_reserved": 0, "name": "75d6d2a8ce373275bfe1e0a39fade601"}, {"lon": -77.0782145, "lat": 38.93640516666667, "rental_uris": {"ios": "https://dc.lft.to/lastmile_qr_scan", "android": "https://dc.lft.to/lastmile_qr_scan"}, "bike_id": "f0d1e525b7dd8ac670f4f9af4002acf8", "type": "electric_bike", "is_disabled": 0, "fusion_lat": 0.0, "fusion_lon": 0.0, "is_reserved": 0, "name": "f0d1e525b7dd8ac670f4f9af4002acf8"}, {"lon": -77.02694483333333, "lat": 38.91688383333333, "rental_uris": {"ios": "https://dc.lft.to/lastmile_qr_scan", "android": "https://dc.lft.to/lastmile_qr_scan"}, "bike_id": "05d8c9c09bd0f4b09b91aad1f66957c6", "type": "electric_scooter", "is_disabled": 0, "fusion_lat": 0.0, "fusion_lon": 0.0, "is_reserved": 0, "name": "05d8c9c09bd0f4b09b91aad1f66957c6"}, {"lon": -77.02621583333334, "lat": 38.89427283333333, "rental_uris": {"ios": "https://dc.lft.to/lastmile_qr_scan", "android": "https://dc.lft.to/lastmile_qr_scan"}, "bike_id": "db707574f41c3385be3f5fed04e65f3c", "type": "electric_scooter", "is_disabled": 0, "fusion_lat": 0.0, "fusion_lon": 0.0, "is_reserved": 0, "name": "db707574f41c3385be3f5fed04e65f3c"}, {"lon": -77.041729, "lat": 38.906565666666665, "rental_uris": {"ios": "https://dc.lft.to/lastmile_qr_scan", "android": "https://dc.lft.to/lastmile_qr_scan"}, "bike_id": "26cfc76c0d1574c45fb299bfa8fcba05", "type": "electric_scooter", "is_disabled": 0, "fusion_lat": 0.0, "fusion_lon": 0.0, "is_reserved": 0, "name": "26cfc76c0d1574c45fb299bfa8fcba05"}, {"lon": -76.9760945, "lat": 38.91287966666667, "rental_uris": {"ios": "https://dc.lft.to/lastmile_qr_scan", "android": "https://dc.lft.to/lastmile_qr_scan"}, "bike_id": "4cdc20651674e2cdff2aa43b0c6e76f9", "type": "electric_scooter", "is_disabled": 0, "fusion_lat": 0.0, "fusion_lon": 0.0, "is_reserved": 0, "name": "4cdc20651674e2cdff2aa43b0c6e76f9"}, {"lon": -76.9883955, "lat": 38.84273866666667, "rental_uris": {"ios": "https://dc.lft.to/lastmile_qr_scan", "android": "https://dc.lft.to/lastmile_qr_scan"}, "bike_id": "ff8b8e203c1667fca09ac192f5ae3aa0", "type": "electric_bike", "is_disabled": 0, "fusion_lat": 0.0, "fusion_lon": 0.0, "is_reserved": 0, "name": "ff8b8e203c1667fca09ac192f5ae3aa0"}, {"lon": -77.020639, "lat": 38.9218645, "rental_uris": {"ios": "https://dc.lft.to/lastmile_qr_scan", "android": "https://dc.lft.to/lastmile_qr_scan"}, "bike_id": "5a8f706aaa5939a971058ff5aa48f6f4", "type": "electric_scooter", "is_disabled": 0, "fusion_lat": 0.0, "fusion_lon": 0.0, "is_reserved": 0, "name": "5a8f706aaa5939a971058ff5aa48f6f4"}, {"lon": -76.99400916666667, "lat": 38.9209105, "rental_uris": {"ios": "https://dc.lft.to/lastmile_qr_scan", "android": "https://dc.lft.to/lastmile_qr_scan"}, "bike_id": "c0672a9c5e4d623fcaab2423ffe330b4", "type": "electric_scooter", "is_disabled": 0, "fusion_lat": 0.0, "fusion_lon": 0.0, "is_reserved": 0, "name": "c0672a9c5e4d623fcaab2423ffe330b4"}, {"lon": -77.015404, "lat": 38.902614, "rental_uris": {"ios": "https://dc.lft.to/lastmile_qr_scan", "android": "https://dc.lft.to/lastmile_qr_scan"}, "bike_id": "db1e3b44df2e847e197aaabd57fcadb1", "type": "electric_scooter", "is_disabled": 0, "fusion_lat": 0.0, "fusion_lon": 0.0, "is_reserved": 0, "name": "db1e3b44df2e847e197aaabd57fcadb1"}, {"lon": -77.03198766666667, "lat": 38.909822166666665, "rental_uris": {"ios": "https://dc.lft.to/lastmile_qr_scan", "android": "https://dc.lft.to/lastmile_qr_scan"}, "bike_id": "f8ce074228849e54cbf372bab148eebe", "type": "electric_scooter", "is_disabled": 0, "fusion_lat": 0.0, "fusion_lon": 0.0, "is_reserved": 0, "name": "f8ce074228849e54cbf372bab148eebe"}, {"lon": -77.0433785, "lat": 38.892248, "rental_uris": {"ios": "https://dc.lft.to/lastmile_qr_scan", "android": "https://dc.lft.to/lastmile_qr_scan"}, "bike_id": "fe251accbee2de8689f3ce186f9f8bba", "type": "electric_scooter", "is_disabled": 0, "fusion_lat": 0.0, "fusion_lon": 0.0, "is_reserved": 0, "name": "fe251accbee2de8689f3ce186f9f8bba"}, {"lon": -77.03429333333334, "lat": 38.91932966666667, "rental_uris": {"ios": "https://dc.lft.to/lastmile_qr_scan", "android": "https://dc.lft.to/lastmile_qr_scan"}, "bike_id": "7e08a53d27d4acbe8858d0f47dc4c08d", "type": "electric_scooter", "is_disabled": 0, "fusion_lat": 0.0, "fusion_lon": 0.0, "is_reserved": 0, "name": "7e08a53d27d4acbe8858d0f47dc4c08d"}, {"lon": -77.02232816666667, "lat": 38.8921985, "rental_uris": {"ios": "https://dc.lft.to/lastmile_qr_scan", "android": "https://dc.lft.to/lastmile_qr_scan"}, "bike_id": "23340e317407171ebc650e1128a01072", "type": "electric_scooter", "is_disabled": 0, "fusion_lat": 0.0, "fusion_lon": 0.0, "is_reserved": 0, "name": "23340e317407171ebc650e1128a01072"}, {"lon": -77.0237965, "lat": 38.90223966666667, "rental_uris": {"ios": "https://dc.lft.to/lastmile_qr_scan", "android": "https://dc.lft.to/lastmile_qr_scan"}, "bike_id": "a842c8b7a1eabadc0e91851e1a69a5ef", "type": "electric_scooter", "is_disabled": 0, "fusion_lat": 0.0, "fusion_lon": 0.0, "is_reserved": 0, "name": "a842c8b7a1eabadc0e91851e1a69a5ef"}, {"lon": -77.044685, "lat": 38.91019933333333, "rental_uris": {"ios": "https://dc.lft.to/lastmile_qr_scan", "android": "https://dc.lft.to/lastmile_qr_scan"}, "bike_id": "3b939d1cf951b0560db7948c2398cf0f", "type": "electric_scooter", "is_disabled": 0, "fusion_lat": 0.0, "fusion_lon": 0.0, "is_reserved": 0, "name": "3b939d1cf951b0560db7948c2398cf0f"}, {"lon": -77.02727666666667, "lat": 38.932499166666666, "rental_uris": {"ios": "https://dc.lft.to/lastmile_qr_scan", "android": "https://dc.lft.to/lastmile_qr_scan"}, "bike_id": "a12c9c515e98c2022e51a78395137f3d", "type": "electric_scooter", "is_disabled": 0, "fusion_lat": 0.0, "fusion_lon": 0.0, "is_reserved": 0, "name": "a12c9c515e98c2022e51a78395137f3d"}, {"lon": -77.01766216666667, "lat": 38.975973333333336, "rental_uris": {"ios": "https://dc.lft.to/lastmile_qr_scan", "android": "https://dc.lft.to/lastmile_qr_scan"}, "bike_id": "5aa89198eac7c888c3e17ac905f4655f", "type": "electric_scooter", "is_disabled": 0, "fusion_lat": 0.0, "fusion_lon": 0.0, "is_reserved": 0, "name": "5aa89198eac7c888c3e17ac905f4655f"}, {"lon": -77.02724016666667, "lat": 38.94956833333333, "rental_uris": {"ios": "https://dc.lft.to/lastmile_qr_scan", "android": "https://dc.lft.to/lastmile_qr_scan"}, "bike_id": "5474391a075ff37c010e9dafce925344", "type": "electric_scooter", "is_disabled": 0, "fusion_lat": 0.0, "fusion_lon": 0.0, "is_reserved": 0, "name": "5474391a075ff37c010e9dafce925344"}, {"lon": -77.04674383333334, "lat": 38.89553083333333, "rental_uris": {"ios": "https://dc.lft.to/lastmile_qr_scan", "android": "https://dc.lft.to/lastmile_qr_scan"}, "bike_id": "03b2d843f2c46b754a1ca480e4af6924", "type": "electric_scooter", "is_disabled": 0, "fusion_lat": 0.0, "fusion_lon": 0.0, "is_reserved": 0, "name": "03b2d843f2c46b754a1ca480e4af6924"}, {"lon": -77.02907383333333, "lat": 38.895292833333336, "rental_uris": {"ios": "https://dc.lft.to/lastmile_qr_scan", "android": "https://dc.lft.to/lastmile_qr_scan"}, "bike_id": "3da6da6f4942806d2ce6e1e97dcdf83d", "type": "electric_scooter", "is_disabled": 0, "fusion_lat": 0.0, "fusion_lon": 0.0, "is_reserved": 0, "name": "3da6da6f4942806d2ce6e1e97dcdf83d"}, {"lon": -77.02564433333333, "lat": 38.93870166666667, "rental_uris": {"ios": "https://dc.lft.to/lastmile_qr_scan", "android": "https://dc.lft.to/lastmile_qr_scan"}, "bike_id": "421b05297f6024f6dfabd1b76476822a", "type": "electric_scooter", "is_disabled": 0, "fusion_lat": 0.0, "fusion_lon": 0.0, "is_reserved": 0, "name": "421b05297f6024f6dfabd1b76476822a"}, {"lon": -77.04378233333334, "lat": 38.898304333333336, "rental_uris": {"ios": "https://dc.lft.to/lastmile_qr_scan", "android": "https://dc.lft.to/lastmile_qr_scan"}, "bike_id": "aa5f40fe8c64026564a468aedbbbcbb5", "type": "electric_scooter", "is_disabled": 0, "fusion_lat": 0.0, "fusion_lon": 0.0, "is_reserved": 0, "name": "aa5f40fe8c64026564a468aedbbbcbb5"}, {"lon": -77.00425166666666, "lat": 38.91330516666667, "rental_uris": {"ios": "https://dc.lft.to/lastmile_qr_scan", "android": "https://dc.lft.to/lastmile_qr_scan"}, "bike_id": "44c6be9a6b6cf626e870b6c12524b0a7", "type": "electric_scooter", "is_disabled": 0, "fusion_lat": 0.0, "fusion_lon": 0.0, "is_reserved": 0, "name": "44c6be9a6b6cf626e870b6c12524b0a7"}, {"lon": -77.05225016666667, "lat": 38.9250405, "rental_uris": {"ios": "https://dc.lft.to/lastmile_qr_scan", "android": "https://dc.lft.to/lastmile_qr_scan"}, "bike_id": "c6b7407182709d7b7bd14b07e577a3b3", "type": "electric_scooter", "is_disabled": 0, "fusion_lat": 0.0, "fusion_lon": 0.0, "is_reserved": 0, "name": "c6b7407182709d7b7bd14b07e577a3b3"}, {"lon": -77.04476533333333, "lat": 38.903894, "rental_uris": {"ios": "https://dc.lft.to/lastmile_qr_scan", "android": "https://dc.lft.to/lastmile_qr_scan"}, "bike_id": "fc9c6f3d619d387ef41fe1910078d3be", "type": "electric_scooter", "is_disabled": 0, "fusion_lat": 0.0, "fusion_lon": 0.0, "is_reserved": 0, "name": "fc9c6f3d619d387ef41fe1910078d3be"}, {"lon": -76.93364016666666, "lat": 38.88797533333333, "rental_uris": {"ios": "https://dc.lft.to/lastmile_qr_scan", "android": "https://dc.lft.to/lastmile_qr_scan"}, "bike_id": "2ad6ab3714ff21f0a293216a7d194889", "type": "electric_scooter", "is_disabled": 0, "fusion_lat": 0.0, "fusion_lon": 0.0, "is_reserved": 0, "name": "2ad6ab3714ff21f0a293216a7d194889"}, {"lon": -77.00345466666667, "lat": 38.89532916666667, "rental_uris": {"ios": "https://dc.lft.to/lastmile_qr_scan", "android": "https://dc.lft.to/lastmile_qr_scan"}, "bike_id": "b426b8b2f889121926efd54c43a7281d", "type": "electric_scooter", "is_disabled": 0, "fusion_lat": 0.0, "fusion_lon": 0.0, "is_reserved": 0, "name": "b426b8b2f889121926efd54c43a7281d"}, {"lon": -77.05213, "lat": 38.91560033333333, "rental_uris": {"ios": "https://dc.lft.to/lastmile_qr_scan", "android": "https://dc.lft.to/lastmile_qr_scan"}, "bike_id": "694790225f9156c546858bb00ef95cf1", "type": "electric_scooter", "is_disabled": 0, "fusion_lat": 0.0, "fusion_lon": 0.0, "is_reserved": 0, "name": "694790225f9156c546858bb00ef95cf1"}, {"lon": -77.04503566666666, "lat": 38.8923495, "rental_uris": {"ios": "https://dc.lft.to/lastmile_qr_scan", "android": "https://dc.lft.to/lastmile_qr_scan"}, "bike_id": "6b48ff4f392714373e14435387a0521f", "type": "electric_scooter", "is_disabled": 0, "fusion_lat": 0.0, "fusion_lon": 0.0, "is_reserved": 0, "name": "6b48ff4f392714373e14435387a0521f"}, {"lon": -77.03640516666667, "lat": 38.90994633333333, "rental_uris": {"ios": "https://dc.lft.to/lastmile_qr_scan", "android": "https://dc.lft.to/lastmile_qr_scan"}, "bike_id": "3461c517f4bf9cd0b5ef655905765a72", "type": "electric_scooter", "is_disabled": 0, "fusion_lat": 0.0, "fusion_lon": 0.0, "is_reserved": 0, "name": "3461c517f4bf9cd0b5ef655905765a72"}, {"lon": -77.010666, "lat": 38.912682, "rental_uris": {"ios": "https://dc.lft.to/lastmile_qr_scan", "android": "https://dc.lft.to/lastmile_qr_scan"}, "bike_id": "2c7fc886343c90f0cb18bce269c30aa1", "type": "electric_scooter", "is_disabled": 0, "fusion_lat": 0.0, "fusion_lon": 0.0, "is_reserved": 0, "name": "2c7fc886343c90f0cb18bce269c30aa1"}, {"lon": -77.045387, "lat": 38.896078, "rental_uris": {"ios": "https://dc.lft.to/lastmile_qr_scan", "android": "https://dc.lft.to/lastmile_qr_scan"}, "bike_id": "6401046ef0d78235cf5a7ae67a5d2909", "type": "electric_scooter", "is_disabled": 0, "fusion_lat": 0.0, "fusion_lon": 0.0, "is_reserved": 0, "name": "6401046ef0d78235cf5a7ae67a5d2909"}, {"lon": -76.99458166666666, "lat": 38.8621865, "rental_uris": {"ios": "https://dc.lft.to/lastmile_qr_scan", "android": "https://dc.lft.to/lastmile_qr_scan"}, "bike_id": "015dfd84c802c60a12f8fb26dc4e13d1", "type": "electric_scooter", "is_disabled": 0, "fusion_lat": 0.0, "fusion_lon": 0.0, "is_reserved": 0, "name": "015dfd84c802c60a12f8fb26dc4e13d1"}, {"lon": -77.024893, "lat": 38.94181716666667, "rental_uris": {"ios": "https://dc.lft.to/lastmile_qr_scan", "android": "https://dc.lft.to/lastmile_qr_scan"}, "bike_id": "683c6ff5b3b307dc1a203d2b196db7ad", "type": "electric_scooter", "is_disabled": 0, "fusion_lat": 0.0, "fusion_lon": 0.0, "is_reserved": 0, "name": "683c6ff5b3b307dc1a203d2b196db7ad"}, {"lon": -77.0287495, "lat": 38.9281845, "rental_uris": {"ios": "https://dc.lft.to/lastmile_qr_scan", "android": "https://dc.lft.to/lastmile_qr_scan"}, "bike_id": "5f50b34a2264d7e57d06e5914ca0af8c", "type": "electric_scooter", "is_disabled": 0, "fusion_lat": 0.0, "fusion_lon": 0.0, "is_reserved": 0, "name": "5f50b34a2264d7e57d06e5914ca0af8c"}, {"lon": -77.03339816666667, "lat": 38.91717966666667, "rental_uris": {"ios": "https://dc.lft.to/lastmile_qr_scan", "android": "https://dc.lft.to/lastmile_qr_scan"}, "bike_id": "d42d41b12a49acd7338b8d879f3992ac", "type": "electric_scooter", "is_disabled": 0, "fusion_lat": 0.0, "fusion_lon": 0.0, "is_reserved": 0, "name": "d42d41b12a49acd7338b8d879f3992ac"}, {"lon": -77.02945316666667, "lat": 38.89764733333333, "rental_uris": {"ios": "https://dc.lft.to/lastmile_qr_scan", "android": "https://dc.lft.to/lastmile_qr_scan"}, "bike_id": "53b3ff8b05c618243f1d2b64b714ea04", "type": "electric_scooter", "is_disabled": 0, "fusion_lat": 0.0, "fusion_lon": 0.0, "is_reserved": 0, "name": "53b3ff8b05c618243f1d2b64b714ea04"}, {"lon": -77.02704583333333, "lat": 38.926619, "rental_uris": {"ios": "https://dc.lft.to/lastmile_qr_scan", "android": "https://dc.lft.to/lastmile_qr_scan"}, "bike_id": "2f20ceb4f0ff17a41b485c6db31245cc", "type": "electric_scooter", "is_disabled": 0, "fusion_lat": 0.0, "fusion_lon": 0.0, "is_reserved": 0, "name": "2f20ceb4f0ff17a41b485c6db31245cc"}, {"lon": -77.00918633333333, "lat": 38.8960475, "rental_uris": {"ios": "https://dc.lft.to/lastmile_qr_scan", "android": "https://dc.lft.to/lastmile_qr_scan"}, "bike_id": "e4722a1f22296c9d970fca472dad15c6", "type": "electric_scooter", "is_disabled": 0, "fusion_lat": 0.0, "fusion_lon": 0.0, "is_reserved": 0, "name": "e4722a1f22296c9d970fca472dad15c6"}, {"lon": -77.02275366666667, "lat": 38.9020035, "rental_uris": {"ios": "https://dc.lft.to/lastmile_qr_scan", "android": "https://dc.lft.to/lastmile_qr_scan"}, "bike_id": "510bc5c6908385f3f851b1fba54a5c8f", "type": "electric_scooter", "is_disabled": 0, "fusion_lat": 0.0, "fusion_lon": 0.0, "is_reserved": 0, "name": "510bc5c6908385f3f851b1fba54a5c8f"}, {"lon": -77.00768933333333, "lat": 38.98380433333333, "rental_uris": {"ios": "https://dc.lft.to/lastmile_qr_scan", "android": "https://dc.lft.to/lastmile_qr_scan"}, "bike_id": "08b42bed731ec320c8c7fa56451730be", "type": "electric_bike", "is_disabled": 0, "fusion_lat": 0.0, "fusion_lon": 0.0, "is_reserved": 0, "name": "08b42bed731ec320c8c7fa56451730be"}, {"lon": -77.0441335, "lat": 38.89603483333333, "rental_uris": {"ios": "https://dc.lft.to/lastmile_qr_scan", "android": "https://dc.lft.to/lastmile_qr_scan"}, "bike_id": "720c3aa55b71c7b535632aa5a02d4556", "type": "electric_scooter", "is_disabled": 0, "fusion_lat": 0.0, "fusion_lon": 0.0, "is_reserved": 0, "name": "720c3aa55b71c7b535632aa5a02d4556"}, {"lon": -77.00889816666667, "lat": 38.958411, "rental_uris": {"ios": "https://dc.lft.to/lastmile_qr_scan", "android": "https://dc.lft.to/lastmile_qr_scan"}, "bike_id": "5d727f2c72f230200bfca67d691eef64", "type": "electric_scooter", "is_disabled": 0, "fusion_lat": 0.0, "fusion_lon": 0.0, "is_reserved": 0, "name": "5d727f2c72f230200bfca67d691eef64"}, {"lon": -77.038088, "lat": 38.903707, "rental_uris": {"ios": "https://dc.lft.to/lastmile_qr_scan", "android": "https://dc.lft.to/lastmile_qr_scan"}, "bike_id": "e8ec2fdc93d3cdca27b0b70bfc3f95fd", "type": "electric_scooter", "is_disabled": 0, "fusion_lat": 0.0, "fusion_lon": 0.0, "is_reserved": 0, "name": "e8ec2fdc93d3cdca27b0b70bfc3f95fd"}, {"lon": -77.03441833333333, "lat": 38.9056585, "rental_uris": {"ios": "https://dc.lft.to/lastmile_qr_scan", "android": "https://dc.lft.to/lastmile_qr_scan"}, "bike_id": "52569623f685163c4c845d90841c0356", "type": "electric_scooter", "is_disabled": 0, "fusion_lat": 0.0, "fusion_lon": 0.0, "is_reserved": 0, "name": "52569623f685163c4c845d90841c0356"}, {"lon": -77.01470216666667, "lat": 38.926669, "rental_uris": {"ios": "https://dc.lft.to/lastmile_qr_scan", "android": "https://dc.lft.to/lastmile_qr_scan"}, "bike_id": "de2e639247c7f090ddf2b7de264441cd", "type": "electric_scooter", "is_disabled": 0, "fusion_lat": 0.0, "fusion_lon": 0.0, "is_reserved": 0, "name": "de2e639247c7f090ddf2b7de264441cd"}, {"lon": -77.02203666666666, "lat": 38.88721733333333, "rental_uris": {"ios": "https://dc.lft.to/lastmile_qr_scan", "android": "https://dc.lft.to/lastmile_qr_scan"}, "bike_id": "e049ed812d79005147a1a365c9568b66", "type": "electric_scooter", "is_disabled": 0, "fusion_lat": 0.0, "fusion_lon": 0.0, "is_reserved": 0, "name": "e049ed812d79005147a1a365c9568b66"}, {"lon": -76.99527016666667, "lat": 38.883675, "rental_uris": {"ios": "https://dc.lft.to/lastmile_qr_scan", "android": "https://dc.lft.to/lastmile_qr_scan"}, "bike_id": "a865df0c241df701e3f86dd78848f30b", "type": "electric_scooter", "is_disabled": 0, "fusion_lat": 0.0, "fusion_lon": 0.0, "is_reserved": 0, "name": "a865df0c241df701e3f86dd78848f30b"}, {"lon": -77.013019, "lat": 38.929976, "rental_uris": {"ios": "https://dc.lft.to/lastmile_qr_scan", "android": "https://dc.lft.to/lastmile_qr_scan"}, "bike_id": "afd88f5a4113c8efbed391083e3979ec", "type": "electric_scooter", "is_disabled": 0, "fusion_lat": 0.0, "fusion_lon": 0.0, "is_reserved": 0, "name": "afd88f5a4113c8efbed391083e3979ec"}, {"lon": -77.046524, "lat": 38.904251, "rental_uris": {"ios": "https://dc.lft.to/lastmile_qr_scan", "android": "https://dc.lft.to/lastmile_qr_scan"}, "bike_id": "7c5caedd938318ce8f726f01e4f99e84", "type": "electric_scooter", "is_disabled": 0, "fusion_lat": 0.0, "fusion_lon": 0.0, "is_reserved": 0, "name": "7c5caedd938318ce8f726f01e4f99e84"}, {"lon": -77.011078, "lat": 38.90356416666667, "rental_uris": {"ios": "https://dc.lft.to/lastmile_qr_scan", "android": "https://dc.lft.to/lastmile_qr_scan"}, "bike_id": "8871aa1883fbbf56683af5bc26a7cbad", "type": "electric_scooter", "is_disabled": 0, "fusion_lat": 0.0, "fusion_lon": 0.0, "is_reserved": 0, "name": "8871aa1883fbbf56683af5bc26a7cbad"}, {"lon": -77.04664333333334, "lat": 38.90006866666667, "rental_uris": {"ios": "https://dc.lft.to/lastmile_qr_scan", "android": "https://dc.lft.to/lastmile_qr_scan"}, "bike_id": "af26bef27f321da4abc9e6add27d8b69", "type": "electric_scooter", "is_disabled": 0, "fusion_lat": 0.0, "fusion_lon": 0.0, "is_reserved": 0, "name": "af26bef27f321da4abc9e6add27d8b69"}, {"lon": -77.02843216666666, "lat": 38.9168935, "rental_uris": {"ios": "https://dc.lft.to/lastmile_qr_scan", "android": "https://dc.lft.to/lastmile_qr_scan"}, "bike_id": "a02d7ce04932a5e1ec81f51798169468", "type": "electric_scooter", "is_disabled": 0, "fusion_lat": 0.0, "fusion_lon": 0.0, "is_reserved": 0, "name": "a02d7ce04932a5e1ec81f51798169468"}, {"lon": -77.02370583333334, "lat": 38.89401083333333, "rental_uris": {"ios": "https://dc.lft.to/lastmile_qr_scan", "android": "https://dc.lft.to/lastmile_qr_scan"}, "bike_id": "121cb0917be461b9f4ada767bc690279", "type": "electric_scooter", "is_disabled": 0, "fusion_lat": 0.0, "fusion_lon": 0.0, "is_reserved": 0, "name": "121cb0917be461b9f4ada767bc690279"}, {"lon": -77.02870383333334, "lat": 38.91264316666667, "rental_uris": {"ios": "https://dc.lft.to/lastmile_qr_scan", "android": "https://dc.lft.to/lastmile_qr_scan"}, "bike_id": "aa945fbc6678ea17856bd8cc68789462", "type": "electric_scooter", "is_disabled": 0, "fusion_lat": 0.0, "fusion_lon": 0.0, "is_reserved": 0, "name": "aa945fbc6678ea17856bd8cc68789462"}, {"lon": -76.9678285, "lat": 38.873359666666666, "rental_uris": {"ios": "https://dc.lft.to/lastmile_qr_scan", "android": "https://dc.lft.to/lastmile_qr_scan"}, "bike_id": "2241855484c6df63b1cc49cac3d55d1b", "type": "electric_scooter", "is_disabled": 0, "fusion_lat": 0.0, "fusion_lon": 0.0, "is_reserved": 0, "name": "2241855484c6df63b1cc49cac3d55d1b"}, {"lon": -77.05109216666666, "lat": 39.03667183333334, "rental_uris": {"ios": "https://dc.lft.to/lastmile_qr_scan", "android": "https://dc.lft.to/lastmile_qr_scan"}, "bike_id": "ba3a04a784278c005f5e08b96b36d884", "type": "electric_bike", "is_disabled": 0, "fusion_lat": 0.0, "fusion_lon": 0.0, "is_reserved": 0, "name": "ba3a04a784278c005f5e08b96b36d884"}, {"lon": -77.05026183333334, "lat": 38.901125, "rental_uris": {"ios": "https://dc.lft.to/lastmile_qr_scan", "android": "https://dc.lft.to/lastmile_qr_scan"}, "bike_id": "e02412339a84c23e37bfe5b4714c97c1", "type": "electric_scooter", "is_disabled": 0, "fusion_lat": 0.0, "fusion_lon": 0.0, "is_reserved": 0, "name": "e02412339a84c23e37bfe5b4714c97c1"}, {"lon": -76.9985905, "lat": 38.886347, "rental_uris": {"ios": "https://dc.lft.to/lastmile_qr_scan", "android": "https://dc.lft.to/lastmile_qr_scan"}, "bike_id": "f452b1c54b2d8294c9bb5c30c5a3b9f1", "type": "electric_scooter", "is_disabled": 0, "fusion_lat": 0.0, "fusion_lon": 0.0, "is_reserved": 0, "name": "f452b1c54b2d8294c9bb5c30c5a3b9f1"}, {"lon": -77.00049366666667, "lat": 38.9246505, "rental_uris": {"ios": "https://dc.lft.to/lastmile_qr_scan", "android": "https://dc.lft.to/lastmile_qr_scan"}, "bike_id": "bd5165810717d12abee982f6bc25ef19", "type": "electric_scooter", "is_disabled": 0, "fusion_lat": 0.0, "fusion_lon": 0.0, "is_reserved": 0, "name": "bd5165810717d12abee982f6bc25ef19"}, {"lon": -77.02848116666667, "lat": 38.88738566666667, "rental_uris": {"ios": "https://dc.lft.to/lastmile_qr_scan", "android": "https://dc.lft.to/lastmile_qr_scan"}, "bike_id": "f9f0d5f31996f589f20d8f804b0224e4", "type": "electric_scooter", "is_disabled": 0, "fusion_lat": 0.0, "fusion_lon": 0.0, "is_reserved": 0, "name": "f9f0d5f31996f589f20d8f804b0224e4"}, {"lon": -77.02979833333333, "lat": 38.932834, "rental_uris": {"ios": "https://dc.lft.to/lastmile_qr_scan", "android": "https://dc.lft.to/lastmile_qr_scan"}, "bike_id": "1f2b0d8d28cff7b7ffa9f565215eba51", "type": "electric_scooter", "is_disabled": 0, "fusion_lat": 0.0, "fusion_lon": 0.0, "is_reserved": 0, "name": "1f2b0d8d28cff7b7ffa9f565215eba51"}, {"lon": -77.03878666666667, "lat": 38.891996666666664, "rental_uris": {"ios": "https://dc.lft.to/lastmile_qr_scan", "android": "https://dc.lft.to/lastmile_qr_scan"}, "bike_id": "790db1885355ed78fa185d9bea7801ca", "type": "electric_scooter", "is_disabled": 0, "fusion_lat": 0.0, "fusion_lon": 0.0, "is_reserved": 0, "name": "790db1885355ed78fa185d9bea7801ca"}, {"lon": -76.99818216666667, "lat": 38.907197, "rental_uris": {"ios": "https://dc.lft.to/lastmile_qr_scan", "android": "https://dc.lft.to/lastmile_qr_scan"}, "bike_id": "6da6a38f36289bfca2c8c1add4712634", "type": "electric_scooter", "is_disabled": 0, "fusion_lat": 0.0, "fusion_lon": 0.0, "is_reserved": 0, "name": "6da6a38f36289bfca2c8c1add4712634"}, {"lon": -77.04406883333333, "lat": 38.90914016666667, "rental_uris": {"ios": "https://dc.lft.to/lastmile_qr_scan", "android": "https://dc.lft.to/lastmile_qr_scan"}, "bike_id": "061fa0132b19bcc841cb293d3d829dea", "type": "electric_scooter", "is_disabled": 0, "fusion_lat": 0.0, "fusion_lon": 0.0, "is_reserved": 0, "name": "061fa0132b19bcc841cb293d3d829dea"}, {"lon": -77.04673383333333, "lat": 38.894525333333334, "rental_uris": {"ios": "https://dc.lft.to/lastmile_qr_scan", "android": "https://dc.lft.to/lastmile_qr_scan"}, "bike_id": "0c7151289e1d3cb0d42b54d867eaa669", "type": "electric_bike", "is_disabled": 0, "fusion_lat": 0.0, "fusion_lon": 0.0, "is_reserved": 0, "name": "0c7151289e1d3cb0d42b54d867eaa669"}, {"lon": -77.04866583333333, "lat": 38.89225833333333, "rental_uris": {"ios": "https://dc.lft.to/lastmile_qr_scan", "android": "https://dc.lft.to/lastmile_qr_scan"}, "bike_id": "e3bbd668230771ab8eae8c613a1b3085", "type": "electric_scooter", "is_disabled": 0, "fusion_lat": 0.0, "fusion_lon": 0.0, "is_reserved": 0, "name": "e3bbd668230771ab8eae8c613a1b3085"}, {"lon": -77.0435575, "lat": 38.8922875, "rental_uris": {"ios": "https://dc.lft.to/lastmile_qr_scan", "android": "https://dc.lft.to/lastmile_qr_scan"}, "bike_id": "c870d8af56e704aee745f7e83d341ec3", "type": "electric_scooter", "is_disabled": 0, "fusion_lat": 0.0, "fusion_lon": 0.0, "is_reserved": 0, "name": "c870d8af56e704aee745f7e83d341ec3"}, {"lon": -77.00342983333333, "lat": 38.90359383333333, "rental_uris": {"ios": "https://dc.lft.to/lastmile_qr_scan", "android": "https://dc.lft.to/lastmile_qr_scan"}, "bike_id": "d013b1a734c125735ed31f74027a7370", "type": "electric_scooter", "is_disabled": 0, "fusion_lat": 0.0, "fusion_lon": 0.0, "is_reserved": 0, "name": "d013b1a734c125735ed31f74027a7370"}, {"lon": -77.05580766666667, "lat": 38.91051233333334, "rental_uris": {"ios": "https://dc.lft.to/lastmile_qr_scan", "android": "https://dc.lft.to/lastmile_qr_scan"}, "bike_id": "8e0c7862d7fcc7f4614538aa0bc8061e", "type": "electric_bike", "is_disabled": 0, "fusion_lat": 0.0, "fusion_lon": 0.0, "is_reserved": 0, "name": "8e0c7862d7fcc7f4614538aa0bc8061e"}, {"lon": -77.0487355, "lat": 38.91209383333333, "rental_uris": {"ios": "https://dc.lft.to/lastmile_qr_scan", "android": "https://dc.lft.to/lastmile_qr_scan"}, "bike_id": "8e310e2734c01f5b8bf1a1792aa76138", "type": "electric_scooter", "is_disabled": 0, "fusion_lat": 0.0, "fusion_lon": 0.0, "is_reserved": 0, "name": "8e310e2734c01f5b8bf1a1792aa76138"}, {"lon": -77.00381666666667, "lat": 38.876330833333334, "rental_uris": {"ios": "https://dc.lft.to/lastmile_qr_scan", "android": "https://dc.lft.to/lastmile_qr_scan"}, "bike_id": "0ca32f6d1030b74a56dcde37d0d21374", "type": "electric_scooter", "is_disabled": 0, "fusion_lat": 0.0, "fusion_lon": 0.0, "is_reserved": 0, "name": "0ca32f6d1030b74a56dcde37d0d21374"}, {"lon": -77.04501, "lat": 38.905016, "rental_uris": {"ios": "https://dc.lft.to/lastmile_qr_scan", "android": "https://dc.lft.to/lastmile_qr_scan"}, "bike_id": "1bb9cef26e4ade08f6fcb4cacfef3950", "type": "electric_scooter", "is_disabled": 0, "fusion_lat": 0.0, "fusion_lon": 0.0, "is_reserved": 0, "name": "1bb9cef26e4ade08f6fcb4cacfef3950"}, {"lon": -76.94197433333333, "lat": 38.89372016666667, "rental_uris": {"ios": "https://dc.lft.to/lastmile_qr_scan", "android": "https://dc.lft.to/lastmile_qr_scan"}, "bike_id": "3aaee0b9d44ae9cceade0c5fe5f663ba", "type": "electric_scooter", "is_disabled": 0, "fusion_lat": 0.0, "fusion_lon": 0.0, "is_reserved": 0, "name": "3aaee0b9d44ae9cceade0c5fe5f663ba"}, {"lon": -77.0638495, "lat": 38.94479166666667, "rental_uris": {"ios": "https://dc.lft.to/lastmile_qr_scan", "android": "https://dc.lft.to/lastmile_qr_scan"}, "bike_id": "29230ba21ef57a3f971458fa1a942c86", "type": "electric_bike", "is_disabled": 0, "fusion_lat": 0.0, "fusion_lon": 0.0, "is_reserved": 0, "name": "29230ba21ef57a3f971458fa1a942c86"}, {"lon": -77.02383233333333, "lat": 38.89612283333334, "rental_uris": {"ios": "https://dc.lft.to/lastmile_qr_scan", "android": "https://dc.lft.to/lastmile_qr_scan"}, "bike_id": "7fb4920f47430a650e1f8cc9e786061f", "type": "electric_scooter", "is_disabled": 0, "fusion_lat": 0.0, "fusion_lon": 0.0, "is_reserved": 0, "name": "7fb4920f47430a650e1f8cc9e786061f"}, {"lon": -77.063763, "lat": 38.90520516666667, "rental_uris": {"ios": "https://dc.lft.to/lastmile_qr_scan", "android": "https://dc.lft.to/lastmile_qr_scan"}, "bike_id": "08d2d978504befc94dae1f3b13e473c0", "type": "electric_scooter", "is_disabled": 0, "fusion_lat": 0.0, "fusion_lon": 0.0, "is_reserved": 0, "name": "08d2d978504befc94dae1f3b13e473c0"}, {"lon": -77.018833, "lat": 38.923326, "rental_uris": {"ios": "https://dc.lft.to/lastmile_qr_scan", "android": "https://dc.lft.to/lastmile_qr_scan"}, "bike_id": "9c69eecdd9124221368d26aa13cbfd9a", "type": "electric_scooter", "is_disabled": 0, "fusion_lat": 0.0, "fusion_lon": 0.0, "is_reserved": 0, "name": "9c69eecdd9124221368d26aa13cbfd9a"}, {"lon": -77.02181033333333, "lat": 38.9057215, "rental_uris": {"ios": "https://dc.lft.to/lastmile_qr_scan", "android": "https://dc.lft.to/lastmile_qr_scan"}, "bike_id": "dfba561f014817b76ad921c591edfadd", "type": "electric_scooter", "is_disabled": 0, "fusion_lat": 0.0, "fusion_lon": 0.0, "is_reserved": 0, "name": "dfba561f014817b76ad921c591edfadd"}, {"lon": -76.997605, "lat": 38.88771333333333, "rental_uris": {"ios": "https://dc.lft.to/lastmile_qr_scan", "android": "https://dc.lft.to/lastmile_qr_scan"}, "bike_id": "05fc8e0d0565c1497e516f9420d07b70", "type": "electric_scooter", "is_disabled": 0, "fusion_lat": 0.0, "fusion_lon": 0.0, "is_reserved": 0, "name": "05fc8e0d0565c1497e516f9420d07b70"}, {"lon": -77.03800033333333, "lat": 38.93070766666666, "rental_uris": {"ios": "https://dc.lft.to/lastmile_qr_scan", "android": "https://dc.lft.to/lastmile_qr_scan"}, "bike_id": "e7172159471c9541492efd1bf06903ed", "type": "electric_scooter", "is_disabled": 0, "fusion_lat": 0.0, "fusion_lon": 0.0, "is_reserved": 0, "name": "e7172159471c9541492efd1bf06903ed"}, {"lon": -76.94679066666667, "lat": 38.88623366666667, "rental_uris": {"ios": "https://dc.lft.to/lastmile_qr_scan", "android": "https://dc.lft.to/lastmile_qr_scan"}, "bike_id": "47031d3b00234eedd6169a8e01c2731f", "type": "electric_scooter", "is_disabled": 0, "fusion_lat": 0.0, "fusion_lon": 0.0, "is_reserved": 0, "name": "47031d3b00234eedd6169a8e01c2731f"}, {"lon": -77.00947433333333, "lat": 38.899706, "rental_uris": {"ios": "https://dc.lft.to/lastmile_qr_scan", "android": "https://dc.lft.to/lastmile_qr_scan"}, "bike_id": "49cad24ccc7d1e2ce28c6d7a28ad5aee", "type": "electric_scooter", "is_disabled": 0, "fusion_lat": 0.0, "fusion_lon": 0.0, "is_reserved": 0, "name": "49cad24ccc7d1e2ce28c6d7a28ad5aee"}, {"lon": -77.00055283333333, "lat": 38.898231, "rental_uris": {"ios": "https://dc.lft.to/lastmile_qr_scan", "android": "https://dc.lft.to/lastmile_qr_scan"}, "bike_id": "1ab8aba1aca50f3ba8853e87080d496e", "type": "electric_scooter", "is_disabled": 0, "fusion_lat": 0.0, "fusion_lon": 0.0, "is_reserved": 0, "name": "1ab8aba1aca50f3ba8853e87080d496e"}, {"lon": -77.02110633333334, "lat": 38.91414416666667, "rental_uris": {"ios": "https://dc.lft.to/lastmile_qr_scan", "android": "https://dc.lft.to/lastmile_qr_scan"}, "bike_id": "eb44ed4a580ad40675ea4524b631911d", "type": "electric_scooter", "is_disabled": 0, "fusion_lat": 0.0, "fusion_lon": 0.0, "is_reserved": 0, "name": "eb44ed4a580ad40675ea4524b631911d"}, {"lon": -77.02273033333333, "lat": 38.898563833333334, "rental_uris": {"ios": "https://dc.lft.to/lastmile_qr_scan", "android": "https://dc.lft.to/lastmile_qr_scan"}, "bike_id": "c574e0fc28e264d49aafd59d4b3d5f65", "type": "electric_scooter", "is_disabled": 0, "fusion_lat": 0.0, "fusion_lon": 0.0, "is_reserved": 0, "name": "c574e0fc28e264d49aafd59d4b3d5f65"}, {"lon": -77.03844783333334, "lat": 38.9065625, "rental_uris": {"ios": "https://dc.lft.to/lastmile_qr_scan", "android": "https://dc.lft.to/lastmile_qr_scan"}, "bike_id": "0c02470ccafb8750bd2bc820595c0a0b", "type": "electric_scooter", "is_disabled": 0, "fusion_lat": 0.0, "fusion_lon": 0.0, "is_reserved": 0, "name": "0c02470ccafb8750bd2bc820595c0a0b"}, {"lon": -77.0235225, "lat": 38.93083216666667, "rental_uris": {"ios": "https://dc.lft.to/lastmile_qr_scan", "android": "https://dc.lft.to/lastmile_qr_scan"}, "bike_id": "8304ef34affa5338a61131974596aff4", "type": "electric_scooter", "is_disabled": 0, "fusion_lat": 0.0, "fusion_lon": 0.0, "is_reserved": 0, "name": "8304ef34affa5338a61131974596aff4"}, {"lon": -77.02568883333333, "lat": 38.897650666666664, "rental_uris": {"ios": "https://dc.lft.to/lastmile_qr_scan", "android": "https://dc.lft.to/lastmile_qr_scan"}, "bike_id": "3f40859a86b8539289557b6969574979", "type": "electric_scooter", "is_disabled": 0, "fusion_lat": 0.0, "fusion_lon": 0.0, "is_reserved": 0, "name": "3f40859a86b8539289557b6969574979"}, {"lon": -77.0287685, "lat": 38.91263766666667, "rental_uris": {"ios": "https://dc.lft.to/lastmile_qr_scan", "android": "https://dc.lft.to/lastmile_qr_scan"}, "bike_id": "74e1dfdf01de3eb01caf94a72f205a08", "type": "electric_scooter", "is_disabled": 0, "fusion_lat": 0.0, "fusion_lon": 0.0, "is_reserved": 0, "name": "74e1dfdf01de3eb01caf94a72f205a08"}, {"lon": -76.9871645, "lat": 38.86625433333333, "rental_uris": {"ios": "https://dc.lft.to/lastmile_qr_scan", "android": "https://dc.lft.to/lastmile_qr_scan"}, "bike_id": "440039bf7afa338772267155660f0820", "type": "electric_scooter", "is_disabled": 0, "fusion_lat": 0.0, "fusion_lon": 0.0, "is_reserved": 0, "name": "440039bf7afa338772267155660f0820"}, {"lon": -77.07434816666667, "lat": 38.9994105, "rental_uris": {"ios": "https://dc.lft.to/lastmile_qr_scan", "android": "https://dc.lft.to/lastmile_qr_scan"}, "bike_id": "ffd408bfa54919e51f6670b217c14519", "type": "electric_bike", "is_disabled": 0, "fusion_lat": 0.0, "fusion_lon": 0.0, "is_reserved": 0, "name": "ffd408bfa54919e51f6670b217c14519"}, {"lon": -76.95758883333333, "lat": 38.88427683333333, "rental_uris": {"ios": "https://dc.lft.to/lastmile_qr_scan", "android": "https://dc.lft.to/lastmile_qr_scan"}, "bike_id": "52a4633af7c4f58ab98488603fe0a548", "type": "electric_scooter", "is_disabled": 0, "fusion_lat": 0.0, "fusion_lon": 0.0, "is_reserved": 0, "name": "52a4633af7c4f58ab98488603fe0a548"}, {"lon": -76.976383, "lat": 38.86456283333333, "rental_uris": {"ios": "https://dc.lft.to/lastmile_qr_scan", "android": "https://dc.lft.to/lastmile_qr_scan"}, "bike_id": "be925bb360be603696f61fc8d6ef1e39", "type": "electric_scooter", "is_disabled": 0, "fusion_lat": 0.0, "fusion_lon": 0.0, "is_reserved": 0, "name": "be925bb360be603696f61fc8d6ef1e39"}, {"lon": -77.00927616666667, "lat": 38.896029666666664, "rental_uris": {"ios": "https://dc.lft.to/lastmile_qr_scan", "android": "https://dc.lft.to/lastmile_qr_scan"}, "bike_id": "09d107ff191fa04442cd0a82b6cc9620", "type": "electric_scooter", "is_disabled": 0, "fusion_lat": 0.0, "fusion_lon": 0.0, "is_reserved": 0, "name": "09d107ff191fa04442cd0a82b6cc9620"}, {"lon": -77.04327283333333, "lat": 38.903493166666664, "rental_uris": {"ios": "https://dc.lft.to/lastmile_qr_scan", "android": "https://dc.lft.to/lastmile_qr_scan"}, "bike_id": "82d4d484a67cf9c2516fa26bd94321ad", "type": "electric_scooter", "is_disabled": 0, "fusion_lat": 0.0, "fusion_lon": 0.0, "is_reserved": 0, "name": "82d4d484a67cf9c2516fa26bd94321ad"}, {"lon": -76.99918716666667, "lat": 38.90769233333333, "rental_uris": {"ios": "https://dc.lft.to/lastmile_qr_scan", "android": "https://dc.lft.to/lastmile_qr_scan"}, "bike_id": "952f20f5894038a69cc613dce7ebe104", "type": "electric_scooter", "is_disabled": 0, "fusion_lat": 0.0, "fusion_lon": 0.0, "is_reserved": 0, "name": "952f20f5894038a69cc613dce7ebe104"}, {"lon": -77.07699833333334, "lat": 38.84082766666667, "rental_uris": {"ios": "https://dc.lft.to/lastmile_qr_scan", "android": "https://dc.lft.to/lastmile_qr_scan"}, "bike_id": "34bb3d19663ca4b704306fdc96ff0d47", "type": "electric_bike", "is_disabled": 0, "fusion_lat": 0.0, "fusion_lon": 0.0, "is_reserved": 0, "name": "34bb3d19663ca4b704306fdc96ff0d47"}, {"lon": -77.03005666666667, "lat": 38.9204035, "rental_uris": {"ios": "https://dc.lft.to/lastmile_qr_scan", "android": "https://dc.lft.to/lastmile_qr_scan"}, "bike_id": "b72c6bf9cce3ad0daa91d48a97ca1fd2", "type": "electric_scooter", "is_disabled": 0, "fusion_lat": 0.0, "fusion_lon": 0.0, "is_reserved": 0, "name": "b72c6bf9cce3ad0daa91d48a97ca1fd2"}, {"lon": -77.04342233333334, "lat": 38.90770716666667, "rental_uris": {"ios": "https://dc.lft.to/lastmile_qr_scan", "android": "https://dc.lft.to/lastmile_qr_scan"}, "bike_id": "4f5e648c60598645ba6ec2d4fde4c37f", "type": "electric_scooter", "is_disabled": 0, "fusion_lat": 0.0, "fusion_lon": 0.0, "is_reserved": 0, "name": "4f5e648c60598645ba6ec2d4fde4c37f"}, {"lon": -77.03163316666667, "lat": 38.91799316666667, "rental_uris": {"ios": "https://dc.lft.to/lastmile_qr_scan", "android": "https://dc.lft.to/lastmile_qr_scan"}, "bike_id": "37b18e2146f1e13d0046c4c0607da694", "type": "electric_scooter", "is_disabled": 0, "fusion_lat": 0.0, "fusion_lon": 0.0, "is_reserved": 0, "name": "37b18e2146f1e13d0046c4c0607da694"}, {"lon": -77.03228216666666, "lat": 38.914045, "rental_uris": {"ios": "https://dc.lft.to/lastmile_qr_scan", "android": "https://dc.lft.to/lastmile_qr_scan"}, "bike_id": "9136fed42f6ef9c6af24db466afcaee6", "type": "electric_scooter", "is_disabled": 0, "fusion_lat": 0.0, "fusion_lon": 0.0, "is_reserved": 0, "name": "9136fed42f6ef9c6af24db466afcaee6"}, {"lon": -76.99509066666667, "lat": 38.8825865, "rental_uris": {"ios": "https://dc.lft.to/lastmile_qr_scan", "android": "https://dc.lft.to/lastmile_qr_scan"}, "bike_id": "931503688b96add991d332efdd77b067", "type": "electric_scooter", "is_disabled": 0, "fusion_lat": 0.0, "fusion_lon": 0.0, "is_reserved": 0, "name": "931503688b96add991d332efdd77b067"}, {"lon": -77.033023, "lat": 38.930191, "rental_uris": {"ios": "https://dc.lft.to/lastmile_qr_scan", "android": "https://dc.lft.to/lastmile_qr_scan"}, "bike_id": "8ba75d32fd7d114acb2ab12d7820757c", "type": "electric_scooter", "is_disabled": 0, "fusion_lat": 0.0, "fusion_lon": 0.0, "is_reserved": 0, "name": "8ba75d32fd7d114acb2ab12d7820757c"}, {"lon": -77.053146, "lat": 38.915442166666665, "rental_uris": {"ios": "https://dc.lft.to/lastmile_qr_scan", "android": "https://dc.lft.to/lastmile_qr_scan"}, "bike_id": "41e68d27b05a7343ff563917528c147d", "type": "electric_scooter", "is_disabled": 0, "fusion_lat": 0.0, "fusion_lon": 0.0, "is_reserved": 0, "name": "41e68d27b05a7343ff563917528c147d"}, {"lon": -77.048681, "lat": 38.8922175, "rental_uris": {"ios": "https://dc.lft.to/lastmile_qr_scan", "android": "https://dc.lft.to/lastmile_qr_scan"}, "bike_id": "f08ec7a12850765b6e76b2353e8dd1bc", "type": "electric_scooter", "is_disabled": 0, "fusion_lat": 0.0, "fusion_lon": 0.0, "is_reserved": 0, "name": "f08ec7a12850765b6e76b2353e8dd1bc"}, {"lon": -77.0039745, "lat": 38.91111166666666, "rental_uris": {"ios": "https://dc.lft.to/lastmile_qr_scan", "android": "https://dc.lft.to/lastmile_qr_scan"}, "bike_id": "064a7fdd42194a432d9d4fd66b8db74e", "type": "electric_scooter", "is_disabled": 0, "fusion_lat": 0.0, "fusion_lon": 0.0, "is_reserved": 0, "name": "064a7fdd42194a432d9d4fd66b8db74e"}, {"lon": -77.0432665, "lat": 38.892207, "rental_uris": {"ios": "https://dc.lft.to/lastmile_qr_scan", "android": "https://dc.lft.to/lastmile_qr_scan"}, "bike_id": "0744ca3e89e4220a89e24a918434e787", "type": "electric_scooter", "is_disabled": 0, "fusion_lat": 0.0, "fusion_lon": 0.0, "is_reserved": 0, "name": "0744ca3e89e4220a89e24a918434e787"}, {"lon": -77.00924616666667, "lat": 38.89645433333333, "rental_uris": {"ios": "https://dc.lft.to/lastmile_qr_scan", "android": "https://dc.lft.to/lastmile_qr_scan"}, "bike_id": "20939709f35685eacc91bb804a6789f8", "type": "electric_scooter", "is_disabled": 0, "fusion_lat": 0.0, "fusion_lon": 0.0, "is_reserved": 0, "name": "20939709f35685eacc91bb804a6789f8"}, {"lon": -76.98824983333333, "lat": 38.890708833333335, "rental_uris": {"ios": "https://dc.lft.to/lastmile_qr_scan", "android": "https://dc.lft.to/lastmile_qr_scan"}, "bike_id": "75e141610eb8cc3662bef4873345c064", "type": "electric_scooter", "is_disabled": 0, "fusion_lat": 0.0, "fusion_lon": 0.0, "is_reserved": 0, "name": "75e141610eb8cc3662bef4873345c064"}, {"lon": -77.03059116666667, "lat": 38.899873, "rental_uris": {"ios": "https://dc.lft.to/lastmile_qr_scan", "android": "https://dc.lft.to/lastmile_qr_scan"}, "bike_id": "19720ab740d2c55cd67640689a8ec8ae", "type": "electric_scooter", "is_disabled": 0, "fusion_lat": 0.0, "fusion_lon": 0.0, "is_reserved": 0, "name": "19720ab740d2c55cd67640689a8ec8ae"}, {"lon": -77.02911866666666, "lat": 38.898183833333334, "rental_uris": {"ios": "https://dc.lft.to/lastmile_qr_scan", "android": "https://dc.lft.to/lastmile_qr_scan"}, "bike_id": "02eb0b653327bd78380e73acaac8d099", "type": "electric_scooter", "is_disabled": 0, "fusion_lat": 0.0, "fusion_lon": 0.0, "is_reserved": 0, "name": "02eb0b653327bd78380e73acaac8d099"}, {"lon": -76.9959735, "lat": 38.85696816666667, "rental_uris": {"ios": "https://dc.lft.to/lastmile_qr_scan", "android": "https://dc.lft.to/lastmile_qr_scan"}, "bike_id": "b3fa5edb26275f944579ae076eaa3328", "type": "electric_scooter", "is_disabled": 0, "fusion_lat": 0.0, "fusion_lon": 0.0, "is_reserved": 0, "name": "b3fa5edb26275f944579ae076eaa3328"}, {"lon": -77.00597483333334, "lat": 38.88520283333333, "rental_uris": {"ios": "https://dc.lft.to/lastmile_qr_scan", "android": "https://dc.lft.to/lastmile_qr_scan"}, "bike_id": "9a1dbfec2026b5b0234cc7b75a8e0df1", "type": "electric_scooter", "is_disabled": 0, "fusion_lat": 0.0, "fusion_lon": 0.0, "is_reserved": 0, "name": "9a1dbfec2026b5b0234cc7b75a8e0df1"}, {"lon": -77.03057416666667, "lat": 38.923843, "rental_uris": {"ios": "https://dc.lft.to/lastmile_qr_scan", "android": "https://dc.lft.to/lastmile_qr_scan"}, "bike_id": "5feed7f70afbb422ec84a55b0e8a8a43", "type": "electric_scooter", "is_disabled": 0, "fusion_lat": 0.0, "fusion_lon": 0.0, "is_reserved": 0, "name": "5feed7f70afbb422ec84a55b0e8a8a43"}, {"lon": -77.046605, "lat": 38.9126655, "rental_uris": {"ios": "https://dc.lft.to/lastmile_qr_scan", "android": "https://dc.lft.to/lastmile_qr_scan"}, "bike_id": "18f72562dbdc0a34448e5d2a61b4e2b3", "type": "electric_scooter", "is_disabled": 0, "fusion_lat": 0.0, "fusion_lon": 0.0, "is_reserved": 0, "name": "18f72562dbdc0a34448e5d2a61b4e2b3"}, {"lon": -77.04508633333333, "lat": 38.90332566666667, "rental_uris": {"ios": "https://dc.lft.to/lastmile_qr_scan", "android": "https://dc.lft.to/lastmile_qr_scan"}, "bike_id": "3a9eefc9158977049a4c4952c32b4804", "type": "electric_bike", "is_disabled": 0, "fusion_lat": 0.0, "fusion_lon": 0.0, "is_reserved": 0, "name": "3a9eefc9158977049a4c4952c32b4804"}, {"lon": -77.05062683333334, "lat": 38.904978666666665, "rental_uris": {"ios": "https://dc.lft.to/lastmile_qr_scan", "android": "https://dc.lft.to/lastmile_qr_scan"}, "bike_id": "2be1a3814715b4eb7500f11693786855", "type": "electric_scooter", "is_disabled": 0, "fusion_lat": 0.0, "fusion_lon": 0.0, "is_reserved": 0, "name": "2be1a3814715b4eb7500f11693786855"}, {"lon": -77.01364216666667, "lat": 38.88706583333333, "rental_uris": {"ios": "https://dc.lft.to/lastmile_qr_scan", "android": "https://dc.lft.to/lastmile_qr_scan"}, "bike_id": "b217f62ea76b9e124e6aedc4c765483f", "type": "electric_scooter", "is_disabled": 0, "fusion_lat": 0.0, "fusion_lon": 0.0, "is_reserved": 0, "name": "b217f62ea76b9e124e6aedc4c765483f"}, {"lon": -76.99565216666667, "lat": 38.884727166666664, "rental_uris": {"ios": "https://dc.lft.to/lastmile_qr_scan", "android": "https://dc.lft.to/lastmile_qr_scan"}, "bike_id": "2f453a92d09070f7c68be0cc6aeea6bb", "type": "electric_bike", "is_disabled": 0, "fusion_lat": 0.0, "fusion_lon": 0.0, "is_reserved": 0, "name": "2f453a92d09070f7c68be0cc6aeea6bb"}, {"lon": -77.05599833333333, "lat": 38.936993333333334, "rental_uris": {"ios": "https://dc.lft.to/lastmile_qr_scan", "android": "https://dc.lft.to/lastmile_qr_scan"}, "bike_id": "31b2aa7e223a7988ba631c423606f0a5", "type": "electric_scooter", "is_disabled": 0, "fusion_lat": 0.0, "fusion_lon": 0.0, "is_reserved": 0, "name": "31b2aa7e223a7988ba631c423606f0a5"}, {"lon": -77.02482466666666, "lat": 38.938584166666665, "rental_uris": {"ios": "https://dc.lft.to/lastmile_qr_scan", "android": "https://dc.lft.to/lastmile_qr_scan"}, "bike_id": "683a3879b64d5a10056b3791508e2ea5", "type": "electric_scooter", "is_disabled": 0, "fusion_lat": 0.0, "fusion_lon": 0.0, "is_reserved": 0, "name": "683a3879b64d5a10056b3791508e2ea5"}, {"lon": -77.02777416666666, "lat": 38.9277555, "rental_uris": {"ios": "https://dc.lft.to/lastmile_qr_scan", "android": "https://dc.lft.to/lastmile_qr_scan"}, "bike_id": "f1eb2710678e3ad0a98717b579f3fb6e", "type": "electric_scooter", "is_disabled": 0, "fusion_lat": 0.0, "fusion_lon": 0.0, "is_reserved": 0, "name": "f1eb2710678e3ad0a98717b579f3fb6e"}, {"lon": -77.02194166666666, "lat": 38.9117465, "rental_uris": {"ios": "https://dc.lft.to/lastmile_qr_scan", "android": "https://dc.lft.to/lastmile_qr_scan"}, "bike_id": "568dfa411e9596a3edd21c19e394fd79", "type": "electric_scooter", "is_disabled": 0, "fusion_lat": 0.0, "fusion_lon": 0.0, "is_reserved": 0, "name": "568dfa411e9596a3edd21c19e394fd79"}, {"lon": -76.99710983333334, "lat": 38.910981666666665, "rental_uris": {"ios": "https://dc.lft.to/lastmile_qr_scan", "android": "https://dc.lft.to/lastmile_qr_scan"}, "bike_id": "bd554d5ce14f3153eedaf9f3888c551b", "type": "electric_scooter", "is_disabled": 0, "fusion_lat": 0.0, "fusion_lon": 0.0, "is_reserved": 0, "name": "bd554d5ce14f3153eedaf9f3888c551b"}, {"lon": -77.02674133333333, "lat": 38.898038, "rental_uris": {"ios": "https://dc.lft.to/lastmile_qr_scan", "android": "https://dc.lft.to/lastmile_qr_scan"}, "bike_id": "ff2d529967c539d19dbf99e9f02f4d89", "type": "electric_scooter", "is_disabled": 0, "fusion_lat": 0.0, "fusion_lon": 0.0, "is_reserved": 0, "name": "ff2d529967c539d19dbf99e9f02f4d89"}, {"lon": -77.00830983333333, "lat": 38.913047666666664, "rental_uris": {"ios": "https://dc.lft.to/lastmile_qr_scan", "android": "https://dc.lft.to/lastmile_qr_scan"}, "bike_id": "49908bb3da313e8a4c1ef3dc5bc5737b", "type": "electric_scooter", "is_disabled": 0, "fusion_lat": 0.0, "fusion_lon": 0.0, "is_reserved": 0, "name": "49908bb3da313e8a4c1ef3dc5bc5737b"}, {"lon": -76.929955, "lat": 38.90186683333334, "rental_uris": {"ios": "https://dc.lft.to/lastmile_qr_scan", "android": "https://dc.lft.to/lastmile_qr_scan"}, "bike_id": "8f53c57db8ac85ca571bc6d18839bcd6", "type": "electric_scooter", "is_disabled": 0, "fusion_lat": 0.0, "fusion_lon": 0.0, "is_reserved": 0, "name": "8f53c57db8ac85ca571bc6d18839bcd6"}, {"lon": -77.05807683333333, "lat": 38.93517516666667, "rental_uris": {"ios": "https://dc.lft.to/lastmile_qr_scan", "android": "https://dc.lft.to/lastmile_qr_scan"}, "bike_id": "25a057884fcfa84a47ec3a054763d5d3", "type": "electric_scooter", "is_disabled": 0, "fusion_lat": 0.0, "fusion_lon": 0.0, "is_reserved": 0, "name": "25a057884fcfa84a47ec3a054763d5d3"}, {"lon": -77.059483, "lat": 38.90528916666667, "rental_uris": {"ios": "https://dc.lft.to/lastmile_qr_scan", "android": "https://dc.lft.to/lastmile_qr_scan"}, "bike_id": "3345402c862a8e463d5ddffcdafd1251", "type": "electric_scooter", "is_disabled": 0, "fusion_lat": 0.0, "fusion_lon": 0.0, "is_reserved": 0, "name": "3345402c862a8e463d5ddffcdafd1251"}, {"lon": -77.1092115, "lat": 39.051896166666666, "rental_uris": {"ios": "https://dc.lft.to/lastmile_qr_scan", "android": "https://dc.lft.to/lastmile_qr_scan"}, "bike_id": "a4f0390fd801d66a12843be611d6e00d", "type": "electric_bike", "is_disabled": 0, "fusion_lat": 0.0, "fusion_lon": 0.0, "is_reserved": 0, "name": "a4f0390fd801d66a12843be611d6e00d"}, {"lon": -77.046723, "lat": 38.90361683333333, "rental_uris": {"ios": "https://dc.lft.to/lastmile_qr_scan", "android": "https://dc.lft.to/lastmile_qr_scan"}, "bike_id": "8c19f481631d1b814d9eb91fe75e4328", "type": "electric_scooter", "is_disabled": 0, "fusion_lat": 0.0, "fusion_lon": 0.0, "is_reserved": 0, "name": "8c19f481631d1b814d9eb91fe75e4328"}, {"lon": -77.04809516666667, "lat": 38.904995666666665, "rental_uris": {"ios": "https://dc.lft.to/lastmile_qr_scan", "android": "https://dc.lft.to/lastmile_qr_scan"}, "bike_id": "0f6122335fbf57497c9009946fb1845b", "type": "electric_scooter", "is_disabled": 0, "fusion_lat": 0.0, "fusion_lon": 0.0, "is_reserved": 0, "name": "0f6122335fbf57497c9009946fb1845b"}, {"lon": -77.00195616666667, "lat": 38.900284166666665, "rental_uris": {"ios": "https://dc.lft.to/lastmile_qr_scan", "android": "https://dc.lft.to/lastmile_qr_scan"}, "bike_id": "9874a91c1414b1b8a4cce8546a125818", "type": "electric_scooter", "is_disabled": 0, "fusion_lat": 0.0, "fusion_lon": 0.0, "is_reserved": 0, "name": "9874a91c1414b1b8a4cce8546a125818"}, {"lon": -77.0382415, "lat": 38.906785, "rental_uris": {"ios": "https://dc.lft.to/lastmile_qr_scan", "android": "https://dc.lft.to/lastmile_qr_scan"}, "bike_id": "df7a37ece73d3524b329577a62714a88", "type": "electric_scooter", "is_disabled": 0, "fusion_lat": 0.0, "fusion_lon": 0.0, "is_reserved": 0, "name": "df7a37ece73d3524b329577a62714a88"}, {"lon": -77.04387916666667, "lat": 38.90897666666667, "rental_uris": {"ios": "https://dc.lft.to/lastmile_qr_scan", "android": "https://dc.lft.to/lastmile_qr_scan"}, "bike_id": "ee63e4bbc186518eec43a1bdbb88782d", "type": "electric_scooter", "is_disabled": 0, "fusion_lat": 0.0, "fusion_lon": 0.0, "is_reserved": 0, "name": "ee63e4bbc186518eec43a1bdbb88782d"}, {"lon": -77.01418066666666, "lat": 38.928296333333336, "rental_uris": {"ios": "https://dc.lft.to/lastmile_qr_scan", "android": "https://dc.lft.to/lastmile_qr_scan"}, "bike_id": "f0a5846f1976a68f0f5caf67b1bfa90d", "type": "electric_scooter", "is_disabled": 0, "fusion_lat": 0.0, "fusion_lon": 0.0, "is_reserved": 0, "name": "f0a5846f1976a68f0f5caf67b1bfa90d"}, {"lon": -77.0283335, "lat": 38.92471, "rental_uris": {"ios": "https://dc.lft.to/lastmile_qr_scan", "android": "https://dc.lft.to/lastmile_qr_scan"}, "bike_id": "753553d0953bc5d028fbe81d656e0c75", "type": "electric_scooter", "is_disabled": 0, "fusion_lat": 0.0, "fusion_lon": 0.0, "is_reserved": 0, "name": "753553d0953bc5d028fbe81d656e0c75"}, {"lon": -77.04305183333334, "lat": 38.92326333333333, "rental_uris": {"ios": "https://dc.lft.to/lastmile_qr_scan", "android": "https://dc.lft.to/lastmile_qr_scan"}, "bike_id": "832fb1b0c7674689bebf07cf38861123", "type": "electric_scooter", "is_disabled": 0, "fusion_lat": 0.0, "fusion_lon": 0.0, "is_reserved": 0, "name": "832fb1b0c7674689bebf07cf38861123"}, {"lon": -77.00187266666667, "lat": 38.90044533333333, "rental_uris": {"ios": "https://dc.lft.to/lastmile_qr_scan", "android": "https://dc.lft.to/lastmile_qr_scan"}, "bike_id": "e2d557dfc9bd34e5947e3f79b6dddc38", "type": "electric_scooter", "is_disabled": 0, "fusion_lat": 0.0, "fusion_lon": 0.0, "is_reserved": 0, "name": "e2d557dfc9bd34e5947e3f79b6dddc38"}, {"lon": -77.02538216666666, "lat": 38.92746016666667, "rental_uris": {"ios": "https://dc.lft.to/lastmile_qr_scan", "android": "https://dc.lft.to/lastmile_qr_scan"}, "bike_id": "9026aee70cda133d09e351193d8529ea", "type": "electric_scooter", "is_disabled": 0, "fusion_lat": 0.0, "fusion_lon": 0.0, "is_reserved": 0, "name": "9026aee70cda133d09e351193d8529ea"}, {"lon": -76.99405316666666, "lat": 38.83136783333333, "rental_uris": {"ios": "https://dc.lft.to/lastmile_qr_scan", "android": "https://dc.lft.to/lastmile_qr_scan"}, "bike_id": "52b71cf50a5b595bc72d00271a537dcb", "type": "electric_bike", "is_disabled": 0, "fusion_lat": 0.0, "fusion_lon": 0.0, "is_reserved": 0, "name": "52b71cf50a5b595bc72d00271a537dcb"}, {"lon": -77.02597866666666, "lat": 38.89631116666666, "rental_uris": {"ios": "https://dc.lft.to/lastmile_qr_scan", "android": "https://dc.lft.to/lastmile_qr_scan"}, "bike_id": "d69c8c50b94a0ff3f192841ca8a674be", "type": "electric_scooter", "is_disabled": 0, "fusion_lat": 0.0, "fusion_lon": 0.0, "is_reserved": 0, "name": "d69c8c50b94a0ff3f192841ca8a674be"}, {"lon": -76.96132116666666, "lat": 38.9551485, "rental_uris": {"ios": "https://dc.lft.to/lastmile_qr_scan", "android": "https://dc.lft.to/lastmile_qr_scan"}, "bike_id": "bb0f2794e7391c45d099f8439ecf578f", "type": "electric_bike", "is_disabled": 0, "fusion_lat": 0.0, "fusion_lon": 0.0, "is_reserved": 0, "name": "bb0f2794e7391c45d099f8439ecf578f"}, {"lon": -77.04542233333333, "lat": 38.9004975, "rental_uris": {"ios": "https://dc.lft.to/lastmile_qr_scan", "android": "https://dc.lft.to/lastmile_qr_scan"}, "bike_id": "45702e9c117d9545b4013e0a55aeed75", "type": "electric_scooter", "is_disabled": 0, "fusion_lat": 0.0, "fusion_lon": 0.0, "is_reserved": 0, "name": "45702e9c117d9545b4013e0a55aeed75"}, {"lon": -77.01159366666667, "lat": 38.9003185, "rental_uris": {"ios": "https://dc.lft.to/lastmile_qr_scan", "android": "https://dc.lft.to/lastmile_qr_scan"}, "bike_id": "55d1367fd2de5c65838e2c0c953348b8", "type": "electric_scooter", "is_disabled": 0, "fusion_lat": 0.0, "fusion_lon": 0.0, "is_reserved": 0, "name": "55d1367fd2de5c65838e2c0c953348b8"}, {"lon": -77.03246483333334, "lat": 38.909727833333335, "rental_uris": {"ios": "https://dc.lft.to/lastmile_qr_scan", "android": "https://dc.lft.to/lastmile_qr_scan"}, "bike_id": "91c138988ec7ed25d3c2bf516290d181", "type": "electric_scooter", "is_disabled": 0, "fusion_lat": 0.0, "fusion_lon": 0.0, "is_reserved": 0, "name": "91c138988ec7ed25d3c2bf516290d181"}, {"lon": -77.10092833333333, "lat": 38.959544666666666, "rental_uris": {"ios": "https://dc.lft.to/lastmile_qr_scan", "android": "https://dc.lft.to/lastmile_qr_scan"}, "bike_id": "b32cce7557ab6eb8e2e740fd8fd0c9ce", "type": "electric_bike", "is_disabled": 0, "fusion_lat": 0.0, "fusion_lon": 0.0, "is_reserved": 0, "name": "b32cce7557ab6eb8e2e740fd8fd0c9ce"}, {"lon": -77.02738816666667, "lat": 38.89736883333333, "rental_uris": {"ios": "https://dc.lft.to/lastmile_qr_scan", "android": "https://dc.lft.to/lastmile_qr_scan"}, "bike_id": "013f2a63e7f4231a62f9bad615bc3969", "type": "electric_scooter", "is_disabled": 0, "fusion_lat": 0.0, "fusion_lon": 0.0, "is_reserved": 0, "name": "013f2a63e7f4231a62f9bad615bc3969"}, {"lon": -76.98076583333334, "lat": 38.9016575, "rental_uris": {"ios": "https://dc.lft.to/lastmile_qr_scan", "android": "https://dc.lft.to/lastmile_qr_scan"}, "bike_id": "f278fdc9ae032d31ad7d35d5387b1044", "type": "electric_scooter", "is_disabled": 0, "fusion_lat": 0.0, "fusion_lon": 0.0, "is_reserved": 0, "name": "f278fdc9ae032d31ad7d35d5387b1044"}, {"lon": -77.04207033333333, "lat": 38.90908783333333, "rental_uris": {"ios": "https://dc.lft.to/lastmile_qr_scan", "android": "https://dc.lft.to/lastmile_qr_scan"}, "bike_id": "801e908105ee5a22caf9be9d8f1e574e", "type": "electric_scooter", "is_disabled": 0, "fusion_lat": 0.0, "fusion_lon": 0.0, "is_reserved": 0, "name": "801e908105ee5a22caf9be9d8f1e574e"}, {"lon": -77.04198683333334, "lat": 38.903646, "rental_uris": {"ios": "https://dc.lft.to/lastmile_qr_scan", "android": "https://dc.lft.to/lastmile_qr_scan"}, "bike_id": "e8d701c675dd3bfaaf668405ae4b174c", "type": "electric_scooter", "is_disabled": 0, "fusion_lat": 0.0, "fusion_lon": 0.0, "is_reserved": 0, "name": "e8d701c675dd3bfaaf668405ae4b174c"}, {"lon": -77.01089883333333, "lat": 38.872948666666666, "rental_uris": {"ios": "https://dc.lft.to/lastmile_qr_scan", "android": "https://dc.lft.to/lastmile_qr_scan"}, "bike_id": "01f7bc9b5da01901c335e86c4810c6c8", "type": "electric_bike", "is_disabled": 0, "fusion_lat": 0.0, "fusion_lon": 0.0, "is_reserved": 0, "name": "01f7bc9b5da01901c335e86c4810c6c8"}, {"lon": -77.0575945, "lat": 38.92462333333334, "rental_uris": {"ios": "https://dc.lft.to/lastmile_qr_scan", "android": "https://dc.lft.to/lastmile_qr_scan"}, "bike_id": "fe7c3623a9c87fa85ce0ac8c7463eb05", "type": "electric_scooter", "is_disabled": 0, "fusion_lat": 0.0, "fusion_lon": 0.0, "is_reserved": 0, "name": "fe7c3623a9c87fa85ce0ac8c7463eb05"}, {"lon": -77.02130416666667, "lat": 38.923236333333335, "rental_uris": {"ios": "https://dc.lft.to/lastmile_qr_scan", "android": "https://dc.lft.to/lastmile_qr_scan"}, "bike_id": "6ca0f2f8ff3a7ad48c480cf39e160343", "type": "electric_scooter", "is_disabled": 0, "fusion_lat": 0.0, "fusion_lon": 0.0, "is_reserved": 0, "name": "6ca0f2f8ff3a7ad48c480cf39e160343"},