{"data": {"bikes": [{"rental_uris": {"android": "https://dc.lft.to/lastmile_qr_scan", "ios": "https://dc.lft.to/lastmile_qr_scan"}, "lon": -77.00047283333333, "name": "909f2377361b71d6a05cccf87597e063", "fusion_lon": 0.0, "bike_id": "909f2377361b71d6a05cccf87597e063", "is_reserved": 0, "type": "electric_bike", "lat": 38.7933335, "fusion_lat": 0.0, "is_disabled": 0}, {"rental_uris": {"android": "https://dc.lft.to/lastmile_qr_scan", "ios": "https://dc.lft.to/lastmile_qr_scan"}, "lon": -76.92111416666667, "name": "575ce2e55484ca78a7fb2bd061439dd5", "fusion_lon": 0.0, "bike_id": "575ce2e55484ca78a7fb2bd061439dd5", "is_reserved": 0, "type": "electric_scooter", "lat": 38.893064333333335, "fusion_lat": 0.0, "is_disabled": 0}, {"rental_uris": {"android": "https://dc.lft.to/lastmile_qr_scan", "ios": "https://dc.lft.to/lastmile_qr_scan"}, "lon": -77.03869366666666, "name": "c2763d712e1746f7a37b6207a0047589", "fusion_lon": 0.0, "bike_id": "c2763d712e1746f7a37b6207a0047589", "is_reserved": 0, "type": "electric_scooter", "lat": 38.90126466666667, "fusion_lat": 0.0, "is_disabled": 0}, {"rental_uris": {"android": "https://dc.lft.to/lastmile_qr_scan", "ios": "https://dc.lft.to/lastmile_qr_scan"}, "lon": -77.02431666666666, "name": "f9ef7f1ca4affba3255e9d01b42e4ec5", "fusion_lon": 0.0, "bike_id": "f9ef7f1ca4affba3255e9d01b42e4ec5", "is_reserved": 0, "type": "electric_scooter", "lat": 38.90213333333333, "fusion_lat": 0.0, "is_disabled": 0}, {"rental_uris": {"android": "https://dc.lft.to/lastmile_qr_scan", "ios": "https://dc.lft.to/lastmile_qr_scan"}, "lon": -77.0356285, "name": "6a1b703d88d9bc89385c8c512e26a441", "fusion_lon": 0.0, "bike_id": "6a1b703d88d9bc89385c8c512e26a441", "is_reserved": 0, "type": "electric_scooter", "lat": 38.93976883333333, "fusion_lat": 0.0, "is_disabled": 0}, {"rental_uris": {"android": "https://dc.lft.to/lastmile_qr_scan", "ios": "https://dc.lft.to/lastmile_qr_scan"}, "lon": -77.0419165, "name": "171df574dd6436641f67c67a824b047b", "fusion_lon": 0.0, "bike_id": "171df574dd6436641f67c67a824b047b", "is_reserved": 0, "type": "electric_scooter", "lat": 38.920489, "fusion_lat": 0.0, "is_disabled": 0}, {"rental_uris": {"android": "https://dc.lft.to/lastmile_qr_scan", "ios": "https://dc.lft.to/lastmile_qr_scan"}, "lon": -77.03205833333334, "name": "3654e5f95ca3e25cce4102c2cc4a8353", "fusion_lon": 0.0, "bike_id": "3654e5f95ca3e25cce4102c2cc4a8353", "is_reserved": 0, "type": "electric_scooter", "lat": 38.914694, "fusion_lat": 0.0, "is_disabled": 0}, {"rental_uris": {"android": "https://dc.lft.to/lastmile_qr_scan", "ios": "https://dc.lft.to/lastmile_qr_scan"}, "lon": -77.05703266666667, "name": "09f65338d4da58e747dcb75a49c584c2", "fusion_lon": 0.0, "bike_id": "09f65338d4da58e747dcb75a49c584c2", "is_reserved": 0, "type": "electric_scooter", "lat": 38.9337285, "fusion_lat": 0.0, "is_disabled": 0}, {"rental_uris": {"android": "https://dc.lft.to/lastmile_qr_scan", "ios": "https://dc.lft.to/lastmile_qr_scan"}, "lon": -77.02429233333334, "name": "e71b9b3bc23c6bf6223f84b485a9c8b4", "fusion_lon": 0.0, "bike_id": "e71b9b3bc23c6bf6223f84b485a9c8b4", "is_reserved": 0, "type": "electric_scooter", "lat": 38.920510166666666, "fusion_lat": 0.0, "is_disabled": 0}, {"rental_uris": {"android": "https://dc.lft.to/lastmile_qr_scan", "ios": "https://dc.lft.to/lastmile_qr_scan"}, "lon": -77.0350875, "name": "786fdad5d939f0409410cbda7463a977", "fusion_lon": 0.0, "bike_id": "786fdad5d939f0409410cbda7463a977", "is_reserved": 0, "type": "electric_scooter", "lat": 38.90668983333333, "fusion_lat": 0.0, "is_disabled": 0}, {"rental_uris": {"android": "https://dc.lft.to/lastmile_qr_scan", "ios": "https://dc.lft.to/lastmile_qr_scan"}, "lon": -77.03661466666667, "name": "e372fc28b3d7ae89aed52949d8ee55f6", "fusion_lon": 0.0, "bike_id": "e372fc28b3d7ae89aed52949d8ee55f6", "is_reserved": 0, "type": "electric_scooter", "lat": 38.90041133333333, "fusion_lat": 0.0, "is_disabled": 0}, {"rental_uris": {"android": "https://dc.lft.to/lastmile_qr_scan", "ios": "https://dc.lft.to/lastmile_qr_scan"}, "lon": -77.02787, "name": "0866fe503308564135e72bfa43c16936", "fusion_lon": 0.0, "bike_id": "0866fe503308564135e72bfa43c16936", "is_reserved": 0, "type": "electric_scooter", "lat": 38.895964, "fusion_lat": 0.0, "is_disabled": 0}, {"rental_uris": {"android": "https://dc.lft.to/lastmile_qr_scan", "ios": "https://dc.lft.to/lastmile_qr_scan"}, "lon": -77.09521733333334, "name": "3707f0e5ee5054a3a4787453a7015c56", "fusion_lon": 0.0, "bike_id": "3707f0e5ee5054a3a4787453a7015c56", "is_reserved": 0, "type": "electric_bike", "lat": 38.83810183333333, "fusion_lat": 0.0, "is_disabled": 0}, {"rental_uris": {"android": "https://dc.lft.to/lastmile_qr_scan", "ios": "https://dc.lft.to/lastmile_qr_scan"}, "lon": -77.0417995, "name": "9243ab01072f507bca5de585c288adb1", "fusion_lon": 0.0, "bike_id": "9243ab01072f507bca5de585c288adb1", "is_reserved": 0, "type": "electric_scooter", "lat": 38.90516783333333, "fusion_lat": 0.0, "is_disabled": 0}, {"rental_uris": {"android": "https://dc.lft.to/lastmile_qr_scan", "ios": "https://dc.lft.to/lastmile_qr_scan"}, "lon": -77.02564533333333, "name": "171babafa54c023ce3d0d5da9205744b", "fusion_lon": 0.0, "bike_id": "171babafa54c023ce3d0d5da9205744b", "is_reserved": 0, "type": "electric_scooter", "lat": 38.9335005, "fusion_lat": 0.0, "is_disabled": 0}, {"rental_uris": {"android": "https://dc.lft.to/lastmile_qr_scan", "ios": "https://dc.lft.to/lastmile_qr_scan"}, "lon": -77.02002466666667, "name": "3cc651b794ceb4e48dbfe9249d06f2ab", "fusion_lon": 0.0, "bike_id": "3cc651b794ceb4e48dbfe9249d06f2ab", "is_reserved": 0, "type": "electric_scooter", "lat": 38.93507, "fusion_lat": 0.0, "is_disabled": 0}, {"rental_uris": {"android": "https://dc.lft.to/lastmile_qr_scan", "ios": "https://dc.lft.to/lastmile_qr_scan"}, "lon": -77.03208516666666, "name": "6be577dce194c10e7e070f608bf285e0", "fusion_lon": 0.0, "bike_id": "6be577dce194c10e7e070f608bf285e0", "is_reserved": 0, "type": "electric_scooter", "lat": 38.914721, "fusion_lat": 0.0, "is_disabled": 0}, {"rental_uris": {"android": "https://dc.lft.to/lastmile_qr_scan", "ios": "https://dc.lft.to/lastmile_qr_scan"}, "lon": -76.97611216666667, "name": "794c3b80f9c9754e1dd9583c3b88e803", "fusion_lon": 0.0, "bike_id": "794c3b80f9c9754e1dd9583c3b88e803", "is_reserved": 0, "type": "electric_bike", "lat": 38.84028833333333, "fusion_lat": 0.0, "is_disabled": 0}, {"rental_uris": {"android": "https://dc.lft.to/lastmile_qr_scan", "ios": "https://dc.lft.to/lastmile_qr_scan"}, "lon": -77.03441466666666, "name": "9c12de790ffa647fbf22c732e8164867", "fusion_lon": 0.0, "bike_id": "9c12de790ffa647fbf22c732e8164867", "is_reserved": 0, "type": "electric_scooter", "lat": 38.91802366666667, "fusion_lat": 0.0, "is_disabled": 0}, {"rental_uris": {"android": "https://dc.lft.to/lastmile_qr_scan", "ios": "https://dc.lft.to/lastmile_qr_scan"}, "lon": -77.026897, "name": "5cd4725c8b7a3c753ad341b426f4e71b", "fusion_lon": 0.0, "bike_id": "5cd4725c8b7a3c753ad341b426f4e71b", "is_reserved": 0, "type": "electric_scooter", "lat": 38.90698616666667, "fusion_lat": 0.0, "is_disabled": 0}, {"rental_uris": {"android": "https://dc.lft.to/lastmile_qr_scan", "ios": "https://dc.lft.to/lastmile_qr_scan"}, "lon": -77.03210916666667, "name": "736bfb6b1d41b89b921d6b6408675b29", "fusion_lon": 0.0, "bike_id": "736bfb6b1d41b89b921d6b6408675b29", "is_reserved": 0, "type": "electric_scooter", "lat": 38.9141935, "fusion_lat": 0.0, "is_disabled": 0}, {"rental_uris": {"android": "https://dc.lft.to/lastmile_qr_scan", "ios": "https://dc.lft.to/lastmile_qr_scan"}, "lon": -77.0421385, "name": "40bc250b407868811b584e507945d04a", "fusion_lon": 0.0, "bike_id": "40bc250b407868811b584e507945d04a", "is_reserved": 0, "type": "electric_scooter", "lat": 38.9192435, "fusion_lat": 0.0, "is_disabled": 0}, {"rental_uris": {"android": "https://dc.lft.to/lastmile_qr_scan", "ios": "https://dc.lft.to/lastmile_qr_scan"}, "lon": -76.99813866666666, "name": "a69df9ef9283eccd70a77296ae5fa212", "fusion_lon": 0.0, "bike_id": "a69df9ef9283eccd70a77296ae5fa212", "is_reserved": 0, "type": "electric_scooter", "lat": 38.929159, "fusion_lat": 0.0, "is_disabled": 0}, {"rental_uris": {"android": "https://dc.lft.to/lastmile_qr_scan", "ios": "https://dc.lft.to/lastmile_qr_scan"}, "lon": -77.0315865, "name": "6f814be7ee2e901b464d98f9878a5156", "fusion_lon": 0.0, "bike_id": "6f814be7ee2e901b464d98f9878a5156", "is_reserved": 0, "type": "electric_scooter", "lat": 38.91809466666667, "fusion_lat": 0.0, "is_disabled": 0}, {"rental_uris": {"android": "https://dc.lft.to/lastmile_qr_scan", "ios": "https://dc.lft.to/lastmile_qr_scan"}, "lon": -77.0257455, "name": "78e9bf9357d016dd8da115375a80a1ec", "fusion_lon": 0.0, "bike_id": "78e9bf9357d016dd8da115375a80a1ec", "is_reserved": 0, "type": "electric_scooter", "lat": 38.9043555, "fusion_lat": 0.0, "is_disabled": 0}, {"rental_uris": {"android": "https://dc.lft.to/lastmile_qr_scan", "ios": "https://dc.lft.to/lastmile_qr_scan"}, "lon": -77.00831183333334, "name": "a699ed7a0e15aa2c85aa60350ce74dc6", "fusion_lon": 0.0, "bike_id": "a699ed7a0e15aa2c85aa60350ce74dc6", "is_reserved": 0, "type": "electric_scooter", "lat": 38.898779166666664, "fusion_lat": 0.0, "is_disabled": 0}, {"rental_uris": {"android": "https://dc.lft.to/lastmile_qr_scan", "ios": "https://dc.lft.to/lastmile_qr_scan"}, "lon": -77.050282, "name": "4e22a180389da93b7fb689ca66785b47", "fusion_lon": 0.0, "bike_id": "4e22a180389da93b7fb689ca66785b47", "is_reserved": 0, "type": "electric_scooter", "lat": 38.92365366666667, "fusion_lat": 0.0, "is_disabled": 0}, {"rental_uris": {"android": "https://dc.lft.to/lastmile_qr_scan", "ios": "https://dc.lft.to/lastmile_qr_scan"}, "lon": -77.04469616666667, "name": "c04580c8e6f632cc6100358ee219f377", "fusion_lon": 0.0, "bike_id": "c04580c8e6f632cc6100358ee219f377", "is_reserved": 0, "type": "electric_scooter", "lat": 38.908159, "fusion_lat": 0.0, "is_disabled": 0}, {"rental_uris": {"android": "https://dc.lft.to/lastmile_qr_scan", "ios": "https://dc.lft.to/lastmile_qr_scan"}, "lon": -77.01628366666667, "name": "f5490d350d60149ee885174a89ac202b", "fusion_lon": 0.0, "bike_id": "f5490d350d60149ee885174a89ac202b", "is_reserved": 0, "type": "electric_scooter", "lat": 38.92720516666667, "fusion_lat": 0.0, "is_disabled": 0}, {"rental_uris": {"android": "https://dc.lft.to/lastmile_qr_scan", "ios": "https://dc.lft.to/lastmile_qr_scan"}, "lon": -77.016771, "name": "4f35e8846427d80acd901dbe9e8820a8", "fusion_lon": 0.0, "bike_id": "4f35e8846427d80acd901dbe9e8820a8", "is_reserved": 0, "type": "electric_scooter", "lat": 38.920423666666665, "fusion_lat": 0.0, "is_disabled": 0}, {"rental_uris": {"android": "https://dc.lft.to/lastmile_qr_scan", "ios": "https://dc.lft.to/lastmile_qr_scan"}, "lon": -77.02716316666667, "name": "3d54f89dd31e4bac7f10b61164a24c85", "fusion_lon": 0.0, "bike_id": "3d54f89dd31e4bac7f10b61164a24c85", "is_reserved": 0, "type": "electric_scooter", "lat": 38.89753433333333, "fusion_lat": 0.0, "is_disabled": 0}, {"rental_uris": {"android": "https://dc.lft.to/lastmile_qr_scan", "ios": "https://dc.lft.to/lastmile_qr_scan"}, "lon": -77.0324295, "name": "c06133cd6f6a5962057e9afccc52f831", "fusion_lon": 0.0, "bike_id": "c06133cd6f6a5962057e9afccc52f831", "is_reserved": 0, "type": "electric_scooter", "lat": 38.89814533333333, "fusion_lat": 0.0, "is_disabled": 0}, {"rental_uris": {"android": "https://dc.lft.to/lastmile_qr_scan", "ios": "https://dc.lft.to/lastmile_qr_scan"}, "lon": -77.07113516666666, "name": "a0a9abfc695300217b283cabe80600ad", "fusion_lon": 0.0, "bike_id": "a0a9abfc695300217b283cabe80600ad", "is_reserved": 0, "type": "electric_scooter", "lat": 38.9198365, "fusion_lat": 0.0, "is_disabled": 0}, {"rental_uris": {"android": "https://dc.lft.to/lastmile_qr_scan", "ios": "https://dc.lft.to/lastmile_qr_scan"}, "lon": -77.010719, "name": "8a2bb495741b0bad8c4aea8f757fb9a7", "fusion_lon": 0.0, "bike_id": "8a2bb495741b0bad8c4aea8f757fb9a7", "is_reserved": 0, "type": "electric_scooter", "lat": 38.91704033333333, "fusion_lat": 0.0, "is_disabled": 0}, {"rental_uris": {"android": "https://dc.lft.to/lastmile_qr_scan", "ios": "https://dc.lft.to/lastmile_qr_scan"}, "lon": -77.01132383333334, "name": "a0c549ebb2c3051059b59e5f67d1464c", "fusion_lon": 0.0, "bike_id": "a0c549ebb2c3051059b59e5f67d1464c", "is_reserved": 0, "type": "electric_scooter", "lat": 38.895539, "fusion_lat": 0.0, "is_disabled": 0}, {"rental_uris": {"android": "https://dc.lft.to/lastmile_qr_scan", "ios": "https://dc.lft.to/lastmile_qr_scan"}, "lon": -77.068508, "name": "ac559acde5743c31558df15592d29996", "fusion_lon": 0.0, "bike_id": "ac559acde5743c31558df15592d29996", "is_reserved": 0, "type": "electric_scooter", "lat": 38.9038755, "fusion_lat": 0.0, "is_disabled": 0}, {"rental_uris": {"android": "https://dc.lft.to/lastmile_qr_scan", "ios": "https://dc.lft.to/lastmile_qr_scan"}, "lon": -76.98824716666667, "name": "b788dcedf9bb61c7e03ef0a765068982", "fusion_lon": 0.0, "bike_id": "b788dcedf9bb61c7e03ef0a765068982", "is_reserved": 0, "type": "electric_scooter", "lat": 38.900415833333334, "fusion_lat": 0.0, "is_disabled": 0}, {"rental_uris": {"android": "https://dc.lft.to/lastmile_qr_scan", "ios": "https://dc.lft.to/lastmile_qr_scan"}, "lon": -77.04633016666666, "name": "05d6128be2b7cf1ffe42b3a240f05c01", "fusion_lon": 0.0, "bike_id": "05d6128be2b7cf1ffe42b3a240f05c01", "is_reserved": 0, "type": "electric_scooter", "lat": 38.894991833333336, "fusion_lat": 0.0, "is_disabled": 0}, {"rental_uris": {"android": "https://dc.lft.to/lastmile_qr_scan", "ios": "https://dc.lft.to/lastmile_qr_scan"}, "lon": -77.01744666666667, "name": "b5c1ac271dde6bd63d2d864154019c67", "fusion_lon": 0.0, "bike_id": "b5c1ac271dde6bd63d2d864154019c67", "is_reserved": 0, "type": "electric_scooter", "lat": 38.893539833333335, "fusion_lat": 0.0, "is_disabled": 0}, {"rental_uris": {"android": "https://dc.lft.to/lastmile_qr_scan", "ios": "https://dc.lft.to/lastmile_qr_scan"}, "lon": -76.9867205, "name": "85f4daa381018d281d811a77d3d92404", "fusion_lon": 0.0, "bike_id": "85f4daa381018d281d811a77d3d92404", "is_reserved": 0, "type": "electric_bike", "lat": 38.8996525, "fusion_lat": 0.0, "is_disabled": 0}, {"rental_uris": {"android": "https://dc.lft.to/lastmile_qr_scan", "ios": "https://dc.lft.to/lastmile_qr_scan"}, "lon": -77.03628233333333, "name": "90a255940bd470208252b2c62626df78", "fusion_lon": 0.0, "bike_id": "90a255940bd470208252b2c62626df78", "is_reserved": 0, "type": "electric_scooter", "lat": 38.936818333333335, "fusion_lat": 0.0, "is_disabled": 0}, {"rental_uris": {"android": "https://dc.lft.to/lastmile_qr_scan", "ios": "https://dc.lft.to/lastmile_qr_scan"}, "lon": -76.97742833333334, "name": "e258a4a067ba4c8c7344547200f2ed9a", "fusion_lon": 0.0, "bike_id": "e258a4a067ba4c8c7344547200f2ed9a", "is_reserved": 0, "type": "electric_scooter", "lat": 38.86490283333333, "fusion_lat": 0.0, "is_disabled": 0}, {"rental_uris": {"android": "https://dc.lft.to/lastmile_qr_scan", "ios": "https://dc.lft.to/lastmile_qr_scan"}, "lon": -77.022022, "name": "71243e5d4c1a1bce1642ae70daa56443", "fusion_lon": 0.0, "bike_id": "71243e5d4c1a1bce1642ae70daa56443", "is_reserved": 0, "type": "electric_scooter", "lat": 38.91050633333333, "fusion_lat": 0.0, "is_disabled": 0}, {"rental_uris": {"android": "https://dc.lft.to/lastmile_qr_scan", "ios": "https://dc.lft.to/lastmile_qr_scan"}, "lon": -77.03188483333334, "name": "8bb3ad06bc5f33888539e111103caeb6", "fusion_lon": 0.0, "bike_id": "8bb3ad06bc5f33888539e111103caeb6", "is_reserved": 0, "type": "electric_scooter", "lat": 38.9130465, "fusion_lat": 0.0, "is_disabled": 0}, {"rental_uris": {"android": "https://dc.lft.to/lastmile_qr_scan", "ios": "https://dc.lft.to/lastmile_qr_scan"}, "lon": -76.995756, "name": "4deac67c884dff1ce4c209ed16a4da2d", "fusion_lon": 0.0, "bike_id": "4deac67c884dff1ce4c209ed16a4da2d", "is_reserved": 0, "type": "electric_scooter", "lat": 38.894844666666664, "fusion_lat": 0.0, "is_disabled": 0}, {"rental_uris": {"android": "https://dc.lft.to/lastmile_qr_scan", "ios": "https://dc.lft.to/lastmile_qr_scan"}, "lon": -77.03624283333333, "name": "33f2a9aaa94ba97a4fa2d725c41bea89", "fusion_lon": 0.0, "bike_id": "33f2a9aaa94ba97a4fa2d725c41bea89", "is_reserved": 0, "type": "electric_scooter", "lat": 38.906978333333335, "fusion_lat": 0.0, "is_disabled": 0}, {"rental_uris": {"android": "https://dc.lft.to/lastmile_qr_scan", "ios": "https://dc.lft.to/lastmile_qr_scan"}, "lon": -77.02662933333333, "name": "9f3ed00d00327da6a09c8fa78be3a1be", "fusion_lon": 0.0, "bike_id": "9f3ed00d00327da6a09c8fa78be3a1be", "is_reserved": 0, "type": "electric_scooter", "lat": 38.9217515, "fusion_lat": 0.0, "is_disabled": 0}, {"rental_uris": {"android": "https://dc.lft.to/lastmile_qr_scan", "ios": "https://dc.lft.to/lastmile_qr_scan"}, "lon": -77.0009545, "name": "67e8aa477a9c4981d9b41c399b99b0fd", "fusion_lon": 0.0, "bike_id": "67e8aa477a9c4981d9b41c399b99b0fd", "is_reserved": 0, "type": "electric_scooter", "lat": 38.88131166666667, "fusion_lat": 0.0, "is_disabled": 0}, {"rental_uris": {"android": "https://dc.lft.to/lastmile_qr_scan", "ios": "https://dc.lft.to/lastmile_qr_scan"}, "lon": -77.03206216666666, "name": "179a5f48855cd773da7894fe514aa3ba", "fusion_lon": 0.0, "bike_id": "179a5f48855cd773da7894fe514aa3ba", "is_reserved": 0, "type": "electric_scooter", "lat": 38.9168015, "fusion_lat": 0.0, "is_disabled": 0}, {"rental_uris": {"android": "https://dc.lft.to/lastmile_qr_scan", "ios": "https://dc.lft.to/lastmile_qr_scan"}, "lon": -77.016308, "name": "cc661dd983453d8040b36eea7f6add3b", "fusion_lon": 0.0, "bike_id": "cc661dd983453d8040b36eea7f6add3b", "is_reserved": 0, "type": "electric_scooter", "lat": 38.9037805, "fusion_lat": 0.0, "is_disabled": 0}, {"rental_uris": {"android": "https://dc.lft.to/lastmile_qr_scan", "ios": "https://dc.lft.to/lastmile_qr_scan"}, "lon": -77.02391783333333, "name": "0169b3f4861690501c7d8c07710032a5", "fusion_lon": 0.0, "bike_id": "0169b3f4861690501c7d8c07710032a5", "is_reserved": 0, "type": "electric_scooter", "lat": 38.90689416666667, "fusion_lat": 0.0, "is_disabled": 0}, {"rental_uris": {"android": "https://dc.lft.to/lastmile_qr_scan", "ios": "https://dc.lft.to/lastmile_qr_scan"}, "lon": -77.04213, "name": "17e829a13c92df98639edeafa45f181a", "fusion_lon": 0.0, "bike_id": "17e829a13c92df98639edeafa45f181a", "is_reserved": 0, "type": "electric_scooter", "lat": 38.921305333333336, "fusion_lat": 0.0, "is_disabled": 0}, {"rental_uris": {"android": "https://dc.lft.to/lastmile_qr_scan", "ios": "https://dc.lft.to/lastmile_qr_scan"}, "lon": -77.022029, "name": "5bc871e7c3221516572bde64ca167e6c", "fusion_lon": 0.0, "bike_id": "5bc871e7c3221516572bde64ca167e6c", "is_reserved": 0, "type": "electric_scooter", "lat": 38.920256, "fusion_lat": 0.0, "is_disabled": 0}, {"rental_uris": {"android": "https://dc.lft.to/lastmile_qr_scan", "ios": "https://dc.lft.to/lastmile_qr_scan"}, "lon": -77.00669116666667, "name": "9b17c7fb5006643e9eee6e02652b681c", "fusion_lon": 0.0, "bike_id": "9b17c7fb5006643e9eee6e02652b681c", "is_reserved": 0, "type": "electric_scooter", "lat": 38.89992816666667, "fusion_lat": 0.0, "is_disabled": 0}, {"rental_uris": {"android": "https://dc.lft.to/lastmile_qr_scan", "ios": "https://dc.lft.to/lastmile_qr_scan"}, "lon": -77.01857166666667, "name": "004604108be0a2a01cc7a68eca27b732", "fusion_lon": 0.0, "bike_id": "004604108be0a2a01cc7a68eca27b732", "is_reserved": 0, "type": "electric_scooter", "lat": 38.9007795, "fusion_lat": 0.0, "is_disabled": 0}, {"rental_uris": {"android": "https://dc.lft.to/lastmile_qr_scan", "ios": "https://dc.lft.to/lastmile_qr_scan"}, "lon": -77.01663866666667, "name": "1d368e716edb69f14ad36ad74271a358", "fusion_lon": 0.0, "bike_id": "1d368e716edb69f14ad36ad74271a358", "is_reserved": 0, "type": "electric_scooter", "lat": 38.913289666666664, "fusion_lat": 0.0, "is_disabled": 0}, {"rental_uris": {"android": "https://dc.lft.to/lastmile_qr_scan", "ios": "https://dc.lft.to/lastmile_qr_scan"}, "lon": -77.01901533333333, "name": "522e789777630ff4c2b87c245cc4891a", "fusion_lon": 0.0, "bike_id": "522e789777630ff4c2b87c245cc4891a", "is_reserved": 0, "type": "electric_scooter", "lat": 38.898032666666666, "fusion_lat": 0.0, "is_disabled": 0}, {"rental_uris": {"android": "https://dc.lft.to/lastmile_qr_scan", "ios": "https://dc.lft.to/lastmile_qr_scan"}, "lon": -77.044894, "name": "2f51a5cd31ec5df1602f16776f4027b7", "fusion_lon": 0.0, "bike_id": "2f51a5cd31ec5df1602f16776f4027b7", "is_reserved": 0, "type": "electric_scooter", "lat": 38.9000425, "fusion_lat": 0.0, "is_disabled": 0}, {"rental_uris": {"android": "https://dc.lft.to/lastmile_qr_scan", "ios": "https://dc.lft.to/lastmile_qr_scan"}, "lon": -76.98397, "name": "f5ec174dbf60b8d0f9fa9c03e50ae728", "fusion_lon": 0.0, "bike_id": "f5ec174dbf60b8d0f9fa9c03e50ae728", "is_reserved": 0, "type": "electric_scooter", "lat": 38.90898516666667, "fusion_lat": 0.0, "is_disabled": 0}, {"rental_uris": {"android": "https://dc.lft.to/lastmile_qr_scan", "ios": "https://dc.lft.to/lastmile_qr_scan"}, "lon": -77.02598, "name": "e7523c2878f128f9a0a8c2add5c72c72", "fusion_lon": 0.0, "bike_id": "e7523c2878f128f9a0a8c2add5c72c72", "is_reserved": 0, "type": "electric_scooter", "lat": 38.92798483333333, "fusion_lat": 0.0, "is_disabled": 0}, {"rental_uris": {"android": "https://dc.lft.to/lastmile_qr_scan", "ios": "https://dc.lft.to/lastmile_qr_scan"}, "lon": -77.009507, "name": "936f88f1c979399a2d5c1c26b2ec3995", "fusion_lon": 0.0, "bike_id": "936f88f1c979399a2d5c1c26b2ec3995", "is_reserved": 0, "type": "electric_scooter", "lat": 38.8832125, "fusion_lat": 0.0, "is_disabled": 0}, {"rental_uris": {"android": "https://dc.lft.to/lastmile_qr_scan", "ios": "https://dc.lft.to/lastmile_qr_scan"}, "lon": -77.12066816666666, "name": "49a4000079f1466ec15619d7e15ee8f5", "fusion_lon": 0.0, "bike_id": "49a4000079f1466ec15619d7e15ee8f5", "is_reserved": 0, "type": "electric_bike", "lat": 38.784077, "fusion_lat": 0.0, "is_disabled": 0}, {"rental_uris": {"android": "https://dc.lft.to/lastmile_qr_scan", "ios": "https://dc.lft.to/lastmile_qr_scan"}, "lon": -77.02280516666667, "name": "9bfd6e2dddbe516a68ccc7badab77b0d", "fusion_lon": 0.0, "bike_id": "9bfd6e2dddbe516a68ccc7badab77b0d", "is_reserved": 0, "type": "electric_scooter", "lat": 38.87890516666667, "fusion_lat": 0.0, "is_disabled": 0}, {"rental_uris": {"android": "https://dc.lft.to/lastmile_qr_scan", "ios": "https://dc.lft.to/lastmile_qr_scan"}, "lon": -77.03147333333334, "name": "a29bd266f48744292c80fbe944ccb6f5", "fusion_lon": 0.0, "bike_id": "a29bd266f48744292c80fbe944ccb6f5", "is_reserved": 0, "type": "electric_scooter", "lat": 38.9279865, "fusion_lat": 0.0, "is_disabled": 0}, {"rental_uris": {"android": "https://dc.lft.to/lastmile_qr_scan", "ios": "https://dc.lft.to/lastmile_qr_scan"}, "lon": -76.95657683333333, "name": "694c78bdc3c54c51f29cf0957c957440", "fusion_lon": 0.0, "bike_id": "694c78bdc3c54c51f29cf0957c957440", "is_reserved": 0, "type": "electric_bike", "lat": 38.884865, "fusion_lat": 0.0, "is_disabled": 0}, {"rental_uris": {"android": "https://dc.lft.to/lastmile_qr_scan", "ios": "https://dc.lft.to/lastmile_qr_scan"}, "lon": -77.05901016666667, "name": "85bd06fc397afd30ead6656122d9268a", "fusion_lon": 0.0, "bike_id": "85bd06fc397afd30ead6656122d9268a", "is_reserved": 0, "type": "electric_scooter", "lat": 38.9362405, "fusion_lat": 0.0, "is_disabled": 0}, {"rental_uris": {"android": "https://dc.lft.to/lastmile_qr_scan", "ios": "https://dc.lft.to/lastmile_qr_scan"}, "lon": -77.02501, "name": "948b2e972770f6f4df61b27494b98ff6", "fusion_lon": 0.0, "bike_id": "948b2e972770f6f4df61b27494b98ff6", "is_reserved": 0, "type": "electric_scooter", "lat": 38.90103583333333, "fusion_lat": 0.0, "is_disabled": 0}, {"rental_uris": {"android": "https://dc.lft.to/lastmile_qr_scan", "ios": "https://dc.lft.to/lastmile_qr_scan"}, "lon": -77.0271245, "name": "8609a277812d9b00c0b3f5d561065137", "fusion_lon": 0.0, "bike_id": "8609a277812d9b00c0b3f5d561065137", "is_reserved": 0, "type": "electric_scooter", "lat": 38.916737833333336, "fusion_lat": 0.0, "is_disabled": 0}, {"rental_uris": {"android": "https://dc.lft.to/lastmile_qr_scan", "ios": "https://dc.lft.to/lastmile_qr_scan"}, "lon": -77.03762433333333, "name": "9813b5522a2a6c9d8211861d267212ce", "fusion_lon": 0.0, "bike_id": "9813b5522a2a6c9d8211861d267212ce", "is_reserved": 0, "type": "electric_scooter", "lat": 38.902223, "fusion_lat": 0.0, "is_disabled": 0}, {"rental_uris": {"android": "https://dc.lft.to/lastmile_qr_scan", "ios": "https://dc.lft.to/lastmile_qr_scan"}, "lon": -77.03747, "name": "60557190e0aa6c862468e2d9e18ca045", "fusion_lon": 0.0, "bike_id": "60557190e0aa6c862468e2d9e18ca045", "is_reserved": 0, "type": "electric_scooter", "lat": 38.92210566666667, "fusion_lat": 0.0, "is_disabled": 0}, {"rental_uris": {"android": "https://dc.lft.to/lastmile_qr_scan", "ios": "https://dc.lft.to/lastmile_qr_scan"}, "lon": -77.01800366666667, "name": "46c7398d90b56edfc4a58dfd563f01bb", "fusion_lon": 0.0, "bike_id": "46c7398d90b56edfc4a58dfd563f01bb", "is_reserved": 0, "type": "electric_scooter", "lat": 38.91421, "fusion_lat": 0.0, "is_disabled": 0}, {"rental_uris": {"android": "https://dc.lft.to/lastmile_qr_scan", "ios": "https://dc.lft.to/lastmile_qr_scan"}, "lon": -77.02205083333334, "name": "c0a83ec283bde8e2e24e8b0b999df92a", "fusion_lon": 0.0, "bike_id": "c0a83ec283bde8e2e24e8b0b999df92a", "is_reserved": 0, "type": "electric_scooter", "lat": 38.91268066666667, "fusion_lat": 0.0, "is_disabled": 0}, {"rental_uris": {"android": "https://dc.lft.to/lastmile_qr_scan", "ios": "https://dc.lft.to/lastmile_qr_scan"}, "lon": -76.98613166666667, "name": "3c5a881119aeab8d584402eddf826691", "fusion_lon": 0.0, "bike_id": "3c5a881119aeab8d584402eddf826691", "is_reserved": 0, "type": "electric_scooter", "lat": 38.90349283333333, "fusion_lat": 0.0, "is_disabled": 0}, {"rental_uris": {"android": "https://dc.lft.to/lastmile_qr_scan", "ios": "https://dc.lft.to/lastmile_qr_scan"}, "lon": -77.026681, "name": "78e58c3925ab7c3dfd2735ecbcd8c64d", "fusion_lon": 0.0, "bike_id": "78e58c3925ab7c3dfd2735ecbcd8c64d", "is_reserved": 0, "type": "electric_scooter", "lat": 38.973737666666665, "fusion_lat": 0.0, "is_disabled": 0}, {"rental_uris": {"android": "https://dc.lft.to/lastmile_qr_scan", "ios": "https://dc.lft.to/lastmile_qr_scan"}, "lon": -77.022519, "name": "659c9002da172506e2fea4fe436323be", "fusion_lon": 0.0, "bike_id": "659c9002da172506e2fea4fe436323be", "is_reserved": 0, "type": "electric_scooter", "lat": 38.912699, "fusion_lat": 0.0, "is_disabled": 0}, {"rental_uris": {"android": "https://dc.lft.to/lastmile_qr_scan", "ios": "https://dc.lft.to/lastmile_qr_scan"}, "lon": -77.01616016666667, "name": "7fe4605272f0078a15abd66599d60021", "fusion_lon": 0.0, "bike_id": "7fe4605272f0078a15abd66599d60021", "is_reserved": 0, "type": "electric_scooter", "lat": 38.899637166666665, "fusion_lat": 0.0, "is_disabled": 0}, {"rental_uris": {"android": "https://dc.lft.to/lastmile_qr_scan", "ios": "https://dc.lft.to/lastmile_qr_scan"}, "lon": -77.00730866666666, "name": "77fd8f5f7afadf287fea761aa6ead0dd", "fusion_lon": 0.0, "bike_id": "77fd8f5f7afadf287fea761aa6ead0dd", "is_reserved": 0, "type": "electric_scooter", "lat": 38.9054655, "fusion_lat": 0.0, "is_disabled": 0}, {"rental_uris": {"android": "https://dc.lft.to/lastmile_qr_scan", "ios": "https://dc.lft.to/lastmile_qr_scan"}, "lon": -77.01740716666667, "name": "a42f4bf215663d614c8bf74162b2c637", "fusion_lon": 0.0, "bike_id": "a42f4bf215663d614c8bf74162b2c637", "is_reserved": 0, "type": "electric_scooter", "lat": 38.8753755, "fusion_lat": 0.0, "is_disabled": 0}, {"rental_uris": {"android": "https://dc.lft.to/lastmile_qr_scan", "ios": "https://dc.lft.to/lastmile_qr_scan"}, "lon": -77.002858, "name": "5ce6a4fb6995c642c112df076363017c", "fusion_lon": 0.0, "bike_id": "5ce6a4fb6995c642c112df076363017c", "is_reserved": 0, "type": "electric_scooter", "lat": 38.90748583333333, "fusion_lat": 0.0, "is_disabled": 0}, {"rental_uris": {"android": "https://dc.lft.to/lastmile_qr_scan", "ios": "https://dc.lft.to/lastmile_qr_scan"}, "lon": -76.97681266666666, "name": "d4f58b35d28251eaf6bd44414c96e747", "fusion_lon": 0.0, "bike_id": "d4f58b35d28251eaf6bd44414c96e747", "is_reserved": 0, "type": "electric_scooter", "lat": 38.89627216666667, "fusion_lat": 0.0, "is_disabled": 0}, {"rental_uris": {"android": "https://dc.lft.to/lastmile_qr_scan", "ios": "https://dc.lft.to/lastmile_qr_scan"}, "lon": -77.022001, "name": "8e01e0592448d8a6bc98fb6c1be69669", "fusion_lon": 0.0, "bike_id": "8e01e0592448d8a6bc98fb6c1be69669", "is_reserved": 0, "type": "electric_scooter", "lat": 38.915460833333334, "fusion_lat": 0.0, "is_disabled": 0}, {"rental_uris": {"android": "https://dc.lft.to/lastmile_qr_scan", "ios": "https://dc.lft.to/lastmile_qr_scan"}, "lon": -76.93002466666667, "name": "7ce1e3147c44e3cf9f7c2d81bd6fc838", "fusion_lon": 0.0, "bike_id": "7ce1e3147c44e3cf9f7c2d81bd6fc838", "is_reserved": 0, "type": "electric_scooter", "lat": 38.892745833333336, "fusion_lat": 0.0, "is_disabled": 0}, {"rental_uris": {"android": "https://dc.lft.to/lastmile_qr_scan", "ios": "https://dc.lft.to/lastmile_qr_scan"}, "lon": -76.93041466666666, "name": "791683430dc1cdecd1bf21069ba7dfb5", "fusion_lon": 0.0, "bike_id": "791683430dc1cdecd1bf21069ba7dfb5", "is_reserved": 0, "type": "electric_scooter", "lat": 38.88385566666667, "fusion_lat": 0.0, "is_disabled": 0}, {"rental_uris": {"android": "https://dc.lft.to/lastmile_qr_scan", "ios": "https://dc.lft.to/lastmile_qr_scan"}, "lon": -76.930255, "name": "f43ccd6cbc39449a6886d5dca2bd34e8", "fusion_lon": 0.0, "bike_id": "f43ccd6cbc39449a6886d5dca2bd34e8", "is_reserved": 0, "type": "electric_scooter", "lat": 38.90013033333334, "fusion_lat": 0.0, "is_disabled": 0}, {"rental_uris": {"android": "https://dc.lft.to/lastmile_qr_scan", "ios": "https://dc.lft.to/lastmile_qr_scan"}, "lon": -77.02154183333333, "name": "99f66658ac5c08f07562f02b3ec4097b", "fusion_lon": 0.0, "bike_id": "99f66658ac5c08f07562f02b3ec4097b", "is_reserved": 0, "type": "electric_scooter", "lat": 38.879180166666664, "fusion_lat": 0.0, "is_disabled": 0}, {"rental_uris": {"android": "https://dc.lft.to/lastmile_qr_scan", "ios": "https://dc.lft.to/lastmile_qr_scan"}, "lon": -77.025898, "name": "f2a85e2d984094768decc024690e66d0", "fusion_lon": 0.0, "bike_id": "f2a85e2d984094768decc024690e66d0", "is_reserved": 0, "type": "electric_scooter", "lat": 38.9084785, "fusion_lat": 0.0, "is_disabled": 0}, {"rental_uris": {"android": "https://dc.lft.to/lastmile_qr_scan", "ios": "https://dc.lft.to/lastmile_qr_scan"}, "lon": -76.993272, "name": "0ab774bc38633d1953eb3d658f1bc934", "fusion_lon": 0.0, "bike_id": "0ab774bc38633d1953eb3d658f1bc934", "is_reserved": 0, "type": "electric_scooter", "lat": 38.90623683333333, "fusion_lat": 0.0, "is_disabled": 0}, {"rental_uris": {"android": "https://dc.lft.to/lastmile_qr_scan", "ios": "https://dc.lft.to/lastmile_qr_scan"}, "lon": -77.0102425, "name": "1810abd1cfcd42a5279e9a7b9f2d8ec6", "fusion_lon": 0.0, "bike_id": "1810abd1cfcd42a5279e9a7b9f2d8ec6", "is_reserved": 0, "type": "electric_scooter", "lat": 38.916476333333335, "fusion_lat": 0.0, "is_disabled": 0}, {"rental_uris": {"android": "https://dc.lft.to/lastmile_qr_scan", "ios": "https://dc.lft.to/lastmile_qr_scan"}, "lon": -77.03174966666667, "name": "ff9bd2627b65387bbcc5d82d93b842a7", "fusion_lon": 0.0, "bike_id": "ff9bd2627b65387bbcc5d82d93b842a7", "is_reserved": 0, "type": "electric_scooter", "lat": 38.90113383333333, "fusion_lat": 0.0, "is_disabled": 0}, {"rental_uris": {"android": "https://dc.lft.to/lastmile_qr_scan", "ios": "https://dc.lft.to/lastmile_qr_scan"}, "lon": -76.9807475, "name": "a603abaac3985a3d73c10cfb8c2b3096", "fusion_lon": 0.0, "bike_id": "a603abaac3985a3d73c10cfb8c2b3096", "is_reserved": 0, "type": "electric_scooter", "lat": 38.90168, "fusion_lat": 0.0, "is_disabled": 0}, {"rental_uris": {"android": "https://dc.lft.to/lastmile_qr_scan", "ios": "https://dc.lft.to/lastmile_qr_scan"}, "lon": -77.02187333333333, "name": "96d19a95b13cd282b580d5626f728678", "fusion_lon": 0.0, "bike_id": "96d19a95b13cd282b580d5626f728678", "is_reserved": 0, "type": "electric_scooter", "lat": 38.9018885, "fusion_lat": 0.0, "is_disabled": 0}, {"rental_uris": {"android": "https://dc.lft.to/lastmile_qr_scan", "ios": "https://dc.lft.to/lastmile_qr_scan"}, "lon": -77.00062733333333, "name": "976e3dfcaca83e65f6bee7a01d6bb42b", "fusion_lon": 0.0, "bike_id": "976e3dfcaca83e65f6bee7a01d6bb42b", "is_reserved": 0, "type": "electric_scooter", "lat": 38.899914333333335, "fusion_lat": 0.0, "is_disabled": 0}, {"rental_uris": {"android": "https://dc.lft.to/lastmile_qr_scan", "ios": "https://dc.lft.to/lastmile_qr_scan"}, "lon": -77.22908316666667, "name": "b1ae7da49f6e1e6694fdbc7753b68c8b", "fusion_lon": 0.0, "bike_id": "b1ae7da49f6e1e6694fdbc7753b68c8b", "is_reserved": 0, "type": "electric_bike", "lat": 38.870348666666665, "fusion_lat": 0.0, "is_disabled": 0}, {"rental_uris": {"android": "https://dc.lft.to/lastmile_qr_scan", "ios": "https://dc.lft.to/lastmile_qr_scan"}, "lon": -77.0260745, "name": "92ecb7f5af376e5902cd7b937a0eff5f", "fusion_lon": 0.0, "bike_id": "92ecb7f5af376e5902cd7b937a0eff5f", "is_reserved": 0, "type": "electric_bike", "lat": 38.98087916666667, "fusion_lat": 0.0, "is_disabled": 0}, {"rental_uris": {"android": "https://dc.lft.to/lastmile_qr_scan", "ios": "https://dc.lft.to/lastmile_qr_scan"}, "lon": -77.01793483333333, "name": "a0eaf84b726e029e192665efbfc7a6d2", "fusion_lon": 0.0, "bike_id": "a0eaf84b726e029e192665efbfc7a6d2", "is_reserved": 0, "type": "electric_scooter", "lat": 38.913983, "fusion_lat": 0.0, "is_disabled": 0}, {"rental_uris": {"android": "https://dc.lft.to/lastmile_qr_scan", "ios": "https://dc.lft.to/lastmile_qr_scan"}, "lon": -76.99717416666667, "name": "fda2acbd72c6670ff46b1ea958a7132e", "fusion_lon": 0.0, "bike_id": "fda2acbd72c6670ff46b1ea958a7132e", "is_reserved": 0, "type": "electric_bike", "lat": 38.908162, "fusion_lat": 0.0, "is_disabled": 0}, {"rental_uris": {"android": "https://dc.lft.to/lastmile_qr_scan", "ios": "https://dc.lft.to/lastmile_qr_scan"}, "lon": -77.02292583333333, "name": "055d7d5b92836f551d5c7545cc679e87", "fusion_lon": 0.0, "bike_id": "055d7d5b92836f551d5c7545cc679e87", "is_reserved": 0, "type": "electric_scooter", "lat": 38.920689833333334, "fusion_lat": 0.0, "is_disabled": 0}, {"rental_uris": {"android": "https://dc.lft.to/lastmile_qr_scan", "ios": "https://dc.lft.to/lastmile_qr_scan"}, "lon": -77.0166905, "name": "d1020f4773b696bffbbcf97e5f8c8af6", "fusion_lon": 0.0, "bike_id": "d1020f4773b696bffbbcf97e5f8c8af6", "is_reserved": 0, "type": "electric_scooter", "lat": 38.9204365, "fusion_lat": 0.0, "is_disabled": 0}, {"rental_uris": {"android": "https://dc.lft.to/lastmile_qr_scan", "ios": "https://dc.lft.to/lastmile_qr_scan"}, "lon": -77.03278966666667, "name": "48cfd8502df2ab4ef61149c698f61a67", "fusion_lon": 0.0, "bike_id": "48cfd8502df2ab4ef61149c698f61a67", "is_reserved": 0, "type": "electric_scooter", "lat": 38.9281285, "fusion_lat": 0.0, "is_disabled": 0}, {"rental_uris": {"android": "https://dc.lft.to/lastmile_qr_scan", "ios": "https://dc.lft.to/lastmile_qr_scan"}, "lon": -77.01227833333333, "name": "0435bee1348a2c44bbe08cbb6649ddac", "fusion_lon": 0.0, "bike_id": "0435bee1348a2c44bbe08cbb6649ddac", "is_reserved": 0, "type": "electric_scooter", "lat": 38.901077, "fusion_lat": 0.0, "is_disabled": 0}, {"rental_uris": {"android": "https://dc.lft.to/lastmile_qr_scan", "ios": "https://dc.lft.to/lastmile_qr_scan"}, "lon": -77.08317616666666, "name": "380fda2c5867d0f97853adbb918de5ff", "fusion_lon": 0.0, "bike_id": "380fda2c5867d0f97853adbb918de5ff", "is_reserved": 0, "type": "electric_bike", "lat": 38.85434683333333, "fusion_lat": 0.0, "is_disabled": 0}, {"rental_uris": {"android": "https://dc.lft.to/lastmile_qr_scan", "ios": "https://dc.lft.to/lastmile_qr_scan"}, "lon": -77.05239816666666, "name": "1ea6db6c5099f3ad8a75b75414a9d99c", "fusion_lon": 0.0, "bike_id": "1ea6db6c5099f3ad8a75b75414a9d99c", "is_reserved": 0, "type": "electric_scooter", "lat": 38.92355766666667, "fusion_lat": 0.0, "is_disabled": 0}, {"rental_uris": {"android": "https://dc.lft.to/lastmile_qr_scan", "ios": "https://dc.lft.to/lastmile_qr_scan"}, "lon": -77.03286816666666, "name": "1138f0a5dc267390ea93f2b4f9b6ecc2", "fusion_lon": 0.0, "bike_id": "1138f0a5dc267390ea93f2b4f9b6ecc2", "is_reserved": 0, "type": "electric_scooter", "lat": 38.914924166666665, "fusion_lat": 0.0, "is_disabled": 0}, {"rental_uris": {"android": "https://dc.lft.to/lastmile_qr_scan", "ios": "https://dc.lft.to/lastmile_qr_scan"}, "lon": -77.03170666666666, "name": "f12e0167a288ecfbf42f3c491875ab29", "fusion_lon": 0.0, "bike_id": "f12e0167a288ecfbf42f3c491875ab29", "is_reserved": 0, "type": "electric_scooter", "lat": 38.91414283333334, "fusion_lat": 0.0, "is_disabled": 0}, {"rental_uris": {"android": "https://dc.lft.to/lastmile_qr_scan", "ios": "https://dc.lft.to/lastmile_qr_scan"}, "lon": -77.029605, "name": "726834029320f8534471f99d70dd38d7", "fusion_lon": 0.0, "bike_id": "726834029320f8534471f99d70dd38d7", "is_reserved": 0, "type": "electric_scooter", "lat": 38.94223383333333, "fusion_lat": 0.0, "is_disabled": 0}, {"rental_uris": {"android": "https://dc.lft.to/lastmile_qr_scan", "ios": "https://dc.lft.to/lastmile_qr_scan"}, "lon": -77.0443835, "name": "bb01abc4d9f603b66b23cdd8b1620f3a", "fusion_lon": 0.0, "bike_id": "bb01abc4d9f603b66b23cdd8b1620f3a", "is_reserved": 0, "type": "electric_scooter", "lat": 38.91121733333333, "fusion_lat": 0.0, "is_disabled": 0}, {"rental_uris": {"android": "https://dc.lft.to/lastmile_qr_scan", "ios": "https://dc.lft.to/lastmile_qr_scan"}, "lon": -76.99118983333334, "name": "ced4b669b6c6ac21d244413d297625c9", "fusion_lon": 0.0, "bike_id": "ced4b669b6c6ac21d244413d297625c9", "is_reserved": 0, "type": "electric_scooter", "lat": 38.897114333333334, "fusion_lat": 0.0, "is_disabled": 0}, {"rental_uris": {"android": "https://dc.lft.to/lastmile_qr_scan", "ios": "https://dc.lft.to/lastmile_qr_scan"}, "lon": -77.02028933333334, "name": "ff7cb8c014e6e97e0590f440dc57cdaf", "fusion_lon": 0.0, "bike_id": "ff7cb8c014e6e97e0590f440dc57cdaf", "is_reserved": 0, "type": "electric_scooter", "lat": 38.92438083333333, "fusion_lat": 0.0, "is_disabled": 0}, {"rental_uris": {"android": "https://dc.lft.to/lastmile_qr_scan", "ios": "https://dc.lft.to/lastmile_qr_scan"}, "lon": -76.9085555, "name": "0845409900605f51e303326b891bc8d4", "fusion_lon": 0.0, "bike_id": "0845409900605f51e303326b891bc8d4", "is_reserved": 0, "type": "electric_bike", "lat": 38.99889783333333, "fusion_lat": 0.0, "is_disabled": 0}, {"rental_uris": {"android": "https://dc.lft.to/lastmile_qr_scan", "ios": "https://dc.lft.to/lastmile_qr_scan"}, "lon": -76.99324083333333, "name": "9f81cb540393997a0b2f935adcfd91e6", "fusion_lon": 0.0, "bike_id": "9f81cb540393997a0b2f935adcfd91e6", "is_reserved": 0, "type": "electric_bike", "lat": 38.94678016666667, "fusion_lat": 0.0, "is_disabled": 0}, {"rental_uris": {"android": "https://dc.lft.to/lastmile_qr_scan", "ios": "https://dc.lft.to/lastmile_qr_scan"}, "lon": -77.03274916666666, "name": "fdd035b887827da8b7afea574e6ce966", "fusion_lon": 0.0, "bike_id": "fdd035b887827da8b7afea574e6ce966", "is_reserved": 0, "type": "electric_scooter", "lat": 38.927503333333334, "fusion_lat": 0.0, "is_disabled": 0}, {"rental_uris": {"android": "https://dc.lft.to/lastmile_qr_scan", "ios": "https://dc.lft.to/lastmile_qr_scan"}, "lon": -77.01948683333333, "name": "2aa8ed1e03bda476a797047a4c8b4f61", "fusion_lon": 0.0, "bike_id": "2aa8ed1e03bda476a797047a4c8b4f61", "is_reserved": 0, "type": "electric_scooter", "lat": 38.92327783333333, "fusion_lat": 0.0, "is_disabled": 0}, {"rental_uris": {"android": "https://dc.lft.to/lastmile_qr_scan", "ios": "https://dc.lft.to/lastmile_qr_scan"}, "lon": -77.0142355, "name": "badd5124e09bcfabbc5db9304fe72bd0", "fusion_lon": 0.0, "bike_id": "badd5124e09bcfabbc5db9304fe72bd0", "is_reserved": 0, "type": "electric_scooter", "lat": 38.92844383333333, "fusion_lat": 0.0, "is_disabled": 0}, {"rental_uris": {"android": "https://dc.lft.to/lastmile_qr_scan", "ios": "https://dc.lft.to/lastmile_qr_scan"}, "lon": -77.05036066666666, "name": "5fe5c710b8cb9062916c087d726f6ae1", "fusion_lon": 0.0, "bike_id": "5fe5c710b8cb9062916c087d726f6ae1", "is_reserved": 0, "type": "electric_bike", "lat": 38.999373, "fusion_lat": 0.0, "is_disabled": 0}, {"rental_uris": {"android": "https://dc.lft.to/lastmile_qr_scan", "ios": "https://dc.lft.to/lastmile_qr_scan"}, "lon": -77.04378016666666, "name": "5d5a206f91ef72f5a614099c69e91a9d", "fusion_lon": 0.0, "bike_id": "5d5a206f91ef72f5a614099c69e91a9d", "is_reserved": 0, "type": "electric_scooter", "lat": 38.90115316666667, "fusion_lat": 0.0, "is_disabled": 0}, {"rental_uris": {"android": "https://dc.lft.to/lastmile_qr_scan", "ios": "https://dc.lft.to/lastmile_qr_scan"}, "lon": -76.91923483333333, "name": "fc1696be9aebef0432b719200371ca6f", "fusion_lon": 0.0, "bike_id": "fc1696be9aebef0432b719200371ca6f", "is_reserved": 0, "type": "electric_scooter", "lat": 38.89090366666667, "fusion_lat": 0.0, "is_disabled": 0}, {"rental_uris": {"android": "https://dc.lft.to/lastmile_qr_scan", "ios": "https://dc.lft.to/lastmile_qr_scan"}, "lon": -77.0330195, "name": "9a95c2e7c0ad6ae8df390df3fd82ba61", "fusion_lon": 0.0, "bike_id": "9a95c2e7c0ad6ae8df390df3fd82ba61", "is_reserved": 0, "type": "electric_scooter", "lat": 38.899189666666665, "fusion_lat": 0.0, "is_disabled": 0}, {"rental_uris": {"android": "https://dc.lft.to/lastmile_qr_scan", "ios": "https://dc.lft.to/lastmile_qr_scan"}, "lon": -76.98382716666667, "name": "7c3a5593cd58f6cd00adb691507c9c07", "fusion_lon": 0.0, "bike_id": "7c3a5593cd58f6cd00adb691507c9c07", "is_reserved": 0, "type": "electric_scooter", "lat": 38.91579633333333, "fusion_lat": 0.0, "is_disabled": 0}, {"rental_uris": {"android": "https://dc.lft.to/lastmile_qr_scan", "ios": "https://dc.lft.to/lastmile_qr_scan"}, "lon": -77.02943366666666, "name": "ef2485fabf9e82e24b407a3233213968", "fusion_lon": 0.0, "bike_id": "ef2485fabf9e82e24b407a3233213968", "is_reserved": 0, "type": "electric_scooter", "lat": 38.916847, "fusion_lat": 0.0, "is_disabled": 0}, {"rental_uris": {"android": "https://dc.lft.to/lastmile_qr_scan", "ios": "https://dc.lft.to/lastmile_qr_scan"}, "lon": -77.01499416666667, "name": "950c5796825ad57d4afad4201cf7b760", "fusion_lon": 0.0, "bike_id": "950c5796825ad57d4afad4201cf7b760", "is_reserved": 0, "type": "electric_scooter", "lat": 38.9267155, "fusion_lat": 0.0, "is_disabled": 0}, {"rental_uris": {"android": "https://dc.lft.to/lastmile_qr_scan", "ios": "https://dc.lft.to/lastmile_qr_scan"}, "lon": -77.05006583333333, "name": "2aba7f94f7a36c5c2b2658563ab3b912", "fusion_lon": 0.0, "bike_id": "2aba7f94f7a36c5c2b2658563ab3b912", "is_reserved": 0, "type": "electric_scooter", "lat": 38.906665833333335, "fusion_lat": 0.0, "is_disabled": 0}, {"rental_uris": {"android": "https://dc.lft.to/lastmile_qr_scan", "ios": "https://dc.lft.to/lastmile_qr_scan"}, "lon": -77.05176966666667, "name": "3638f99dfd6aec71542d363822258c3a", "fusion_lon": 0.0, "bike_id": "3638f99dfd6aec71542d363822258c3a", "is_reserved": 0, "type": "electric_scooter", "lat": 38.9237305, "fusion_lat": 0.0, "is_disabled": 0}, {"rental_uris": {"android": "https://dc.lft.to/lastmile_qr_scan", "ios": "https://dc.lft.to/lastmile_qr_scan"}, "lon": -77.1065375, "name": "9206886212767332e5c5e8c381495953", "fusion_lon": 0.0, "bike_id": "9206886212767332e5c5e8c381495953", "is_reserved": 0, "type": "electric_bike", "lat": 38.964602166666666, "fusion_lat": 0.0, "is_disabled": 0}, {"rental_uris": {"android": "https://dc.lft.to/lastmile_qr_scan", "ios": "https://dc.lft.to/lastmile_qr_scan"}, "lon": -77.00330683333334, "name": "f7331cca622f2b83bd93ab9afbd93b3f", "fusion_lon": 0.0, "bike_id": "f7331cca622f2b83bd93ab9afbd93b3f", "is_reserved": 0, "type": "electric_scooter", "lat": 38.89357283333333, "fusion_lat": 0.0, "is_disabled": 0}, {"rental_uris": {"android": "https://dc.lft.to/lastmile_qr_scan", "ios": "https://dc.lft.to/lastmile_qr_scan"}, "lon": -77.01894316666667, "name": "703e1cc1f9c4ef7ba99488e375aba7b6", "fusion_lon": 0.0, "bike_id": "703e1cc1f9c4ef7ba99488e375aba7b6", "is_reserved": 0, "type": "electric_scooter", "lat": 38.923355, "fusion_lat": 0.0, "is_disabled": 0}, {"rental_uris": {"android": "https://dc.lft.to/lastmile_qr_scan", "ios": "https://dc.lft.to/lastmile_qr_scan"}, "lon": -77.02767333333334, "name": "3c539c8242ae1d8efa982a19f22cb280", "fusion_lon": 0.0, "bike_id": "3c539c8242ae1d8efa982a19f22cb280", "is_reserved": 0, "type": "electric_scooter", "lat": 38.964014, "fusion_lat": 0.0, "is_disabled": 0}, {"rental_uris": {"android": "https://dc.lft.to/lastmile_qr_scan", "ios": "https://dc.lft.to/lastmile_qr_scan"}, "lon": -76.99608383333333, "name": "a87d5346b51aa42a5314d1a73a7cda97", "fusion_lon": 0.0, "bike_id": "a87d5346b51aa42a5314d1a73a7cda97", "is_reserved": 0, "type": "electric_scooter", "lat": 38.899742833333335, "fusion_lat": 0.0, "is_disabled": 0}, {"rental_uris": {"android": "https://dc.lft.to/lastmile_qr_scan", "ios": "https://dc.lft.to/lastmile_qr_scan"}, "lon": -76.97530583333334, "name": "6b5a4d56bb8914b2e112ef58abc75507", "fusion_lon": 0.0, "bike_id": "6b5a4d56bb8914b2e112ef58abc75507", "is_reserved": 0, "type": "electric_scooter", "lat": 38.922283, "fusion_lat": 0.0, "is_disabled": 0}, {"rental_uris": {"android": "https://dc.lft.to/lastmile_qr_scan", "ios": "https://dc.lft.to/lastmile_qr_scan"}, "lon": -77.00062216666667, "name": "49846a3e563a235c373b0340b10f7119", "fusion_lon": 0.0, "bike_id": "49846a3e563a235c373b0340b10f7119", "is_reserved": 0, "type": "electric_scooter", "lat": 38.87959733333334, "fusion_lat": 0.0, "is_disabled": 0}, {"rental_uris": {"android": "https://dc.lft.to/lastmile_qr_scan", "ios": "https://dc.lft.to/lastmile_qr_scan"}, "lon": -77.03338466666666, "name": "f8b761006559fb5e8aa80f14d2ae5a9e", "fusion_lon": 0.0, "bike_id": "f8b761006559fb5e8aa80f14d2ae5a9e", "is_reserved": 0, "type": "electric_scooter", "lat": 38.892245833333334, "fusion_lat": 0.0, "is_disabled": 0}, {"rental_uris": {"android": "https://dc.lft.to/lastmile_qr_scan", "ios": "https://dc.lft.to/lastmile_qr_scan"}, "lon": -77.027024, "name": "d59838adda48f33494785d0440d992ce", "fusion_lon": 0.0, "bike_id": "d59838adda48f33494785d0440d992ce", "is_reserved": 0, "type": "electric_scooter", "lat": 38.928770666666665, "fusion_lat": 0.0, "is_disabled": 0}, {"rental_uris": {"android": "https://dc.lft.to/lastmile_qr_scan", "ios": "https://dc.lft.to/lastmile_qr_scan"}, "lon": -77.02595866666667, "name": "fe0ca92804985bcc918199a8c927b268", "fusion_lon": 0.0, "bike_id": "fe0ca92804985bcc918199a8c927b268", "is_reserved": 0, "type": "electric_scooter", "lat": 38.896118666666666, "fusion_lat": 0.0, "is_disabled": 0}, {"rental_uris": {"android": "https://dc.lft.to/lastmile_qr_scan", "ios": "https://dc.lft.to/lastmile_qr_scan"}, "lon": -77.06256033333334, "name": "1491497a3cfd30d9f67f621892e32d30", "fusion_lon": 0.0, "bike_id": "1491497a3cfd30d9f67f621892e32d30", "is_reserved": 0, "type": "electric_bike", "lat": 38.806363, "fusion_lat": 0.0, "is_disabled": 0}, {"rental_uris": {"android": "https://dc.lft.to/lastmile_qr_scan", "ios": "https://dc.lft.to/lastmile_qr_scan"}, "lon": -77.04201583333334, "name": "0079fd7577341b73c3c830f2d8e15c8d", "fusion_lon": 0.0, "bike_id": "0079fd7577341b73c3c830f2d8e15c8d", "is_reserved": 0, "type": "electric_scooter", "lat": 38.908008333333335, "fusion_lat": 0.0, "is_disabled": 0}, {"rental_uris": {"android": "https://dc.lft.to/lastmile_qr_scan", "ios": "https://dc.lft.to/lastmile_qr_scan"}, "lon": -77.03770283333333, "name": "ce715335fcf61ed76ba43bbf3b80c50f", "fusion_lon": 0.0, "bike_id": "ce715335fcf61ed76ba43bbf3b80c50f", "is_reserved": 0, "type": "electric_scooter", "lat": 38.9169425, "fusion_lat": 0.0, "is_disabled": 0}, {"rental_uris": {"android": "https://dc.lft.to/lastmile_qr_scan", "ios": "https://dc.lft.to/lastmile_qr_scan"}, "lon": -77.02183266666667, "name": "921aad532edfb41cd22f5c7b056b4171", "fusion_lon": 0.0, "bike_id": "921aad532edfb41cd22f5c7b056b4171", "is_reserved": 0, "type": "electric_scooter", "lat": 38.91475233333333, "fusion_lat": 0.0, "is_disabled": 0}, {"rental_uris": {"android": "https://dc.lft.to/lastmile_qr_scan", "ios": "https://dc.lft.to/lastmile_qr_scan"}, "lon": -76.99199516666667, "name": "d3e550ad26512dfa5d70f5622511f47d", "fusion_lon": 0.0, "bike_id": "d3e550ad26512dfa5d70f5622511f47d", "is_reserved": 0, "type": "electric_scooter", "lat": 38.91949733333333, "fusion_lat": 0.0, "is_disabled": 0}, {"rental_uris": {"android": "https://dc.lft.to/lastmile_qr_scan", "ios": "https://dc.lft.to/lastmile_qr_scan"}, "lon": -77.03766633333333, "name": "4d8e1b5bf39d53c55c46b1efc80c57b4", "fusion_lon": 0.0, "bike_id": "4d8e1b5bf39d53c55c46b1efc80c57b4", "is_reserved": 0, "type": "electric_scooter", "lat": 38.93088616666667, "fusion_lat": 0.0, "is_disabled": 0}, {"rental_uris": {"android": "https://dc.lft.to/lastmile_qr_scan", "ios": "https://dc.lft.to/lastmile_qr_scan"}, "lon": -77.03546633333333, "name": "1976831efc2427b79dac13facf63cdc9", "fusion_lon": 0.0, "bike_id": "1976831efc2427b79dac13facf63cdc9", "is_reserved": 0, "type": "electric_scooter", "lat": 38.91886683333333, "fusion_lat": 0.0, "is_disabled": 0}, {"rental_uris": {"android": "https://dc.lft.to/lastmile_qr_scan", "ios": "https://dc.lft.to/lastmile_qr_scan"}, "lon": -77.01234016666666, "name": "365a2a2f024e554d031c2d54b3cb33d5", "fusion_lon": 0.0, "bike_id": "365a2a2f024e554d031c2d54b3cb33d5", "is_reserved": 0, "type": "electric_scooter", "lat": 38.9158375, "fusion_lat": 0.0, "is_disabled": 0}, {"rental_uris": {"android": "https://dc.lft.to/lastmile_qr_scan", "ios": "https://dc.lft.to/lastmile_qr_scan"}, "lon": -76.99838833333334, "name": "51c5c2c68b031261ba1954ee5d0e4058", "fusion_lon": 0.0, "bike_id": "51c5c2c68b031261ba1954ee5d0e4058", "is_reserved": 0, "type": "electric_scooter", "lat": 38.90028083333333, "fusion_lat": 0.0, "is_disabled": 0}, {"rental_uris": {"android": "https://dc.lft.to/lastmile_qr_scan", "ios": "https://dc.lft.to/lastmile_qr_scan"}, "lon": -77.03197366666667, "name": "112288f7f8c702a64a113f4bebdbb97e", "fusion_lon": 0.0, "bike_id": "112288f7f8c702a64a113f4bebdbb97e", "is_reserved": 0, "type": "electric_scooter", "lat": 38.89324366666666, "fusion_lat": 0.0, "is_disabled": 0}, {"rental_uris": {"android": "https://dc.lft.to/lastmile_qr_scan", "ios": "https://dc.lft.to/lastmile_qr_scan"}, "lon": -77.03171, "name": "ea9050fa57c1e331dafc3acb8de94237", "fusion_lon": 0.0, "bike_id": "ea9050fa57c1e331dafc3acb8de94237", "is_reserved": 0, "type": "electric_scooter", "lat": 38.89980833333333, "fusion_lat": 0.0, "is_disabled": 0}, {"rental_uris": {"android": "https://dc.lft.to/lastmile_qr_scan", "ios": "https://dc.lft.to/lastmile_qr_scan"}, "lon": -77.0057955, "name": "1b5e6f73620081555e0a1a94bc40fcbb", "fusion_lon": 0.0, "bike_id": "1b5e6f73620081555e0a1a94bc40fcbb", "is_reserved": 0, "type": "electric_scooter", "lat": 38.87581816666667, "fusion_lat": 0.0, "is_disabled": 0}, {"rental_uris": {"android": "https://dc.lft.to/lastmile_qr_scan", "ios": "https://dc.lft.to/lastmile_qr_scan"}, "lon": -77.02850683333334, "name": "b2b71a92a0164ed9b9e80c7f3b645c36", "fusion_lon": 0.0, "bike_id": "b2b71a92a0164ed9b9e80c7f3b645c36", "is_reserved": 0, "type": "electric_scooter", "lat": 38.935294666666664, "fusion_lat": 0.0, "is_disabled": 0}, {"rental_uris": {"android": "https://dc.lft.to/lastmile_qr_scan", "ios": "https://dc.lft.to/lastmile_qr_scan"}, "lon": -77.03914683333333, "name": "c2000c28f5ebd8cb544384253406f293", "fusion_lon": 0.0, "bike_id": "c2000c28f5ebd8cb544384253406f293", "is_reserved": 0, "type": "electric_bike", "lat": 39.03564566666667, "fusion_lat": 0.0, "is_disabled": 0}, {"rental_uris": {"android": "https://dc.lft.to/lastmile_qr_scan", "ios": "https://dc.lft.to/lastmile_qr_scan"}, "lon": -77.01897933333333, "name": "bdc647b8e2747d8c372fef5c7608ffd5", "fusion_lon": 0.0, "bike_id": "bdc647b8e2747d8c372fef5c7608ffd5", "is_reserved": 0, "type": "electric_scooter", "lat": 38.921203166666665, "fusion_lat": 0.0, "is_disabled": 0}, {"rental_uris": {"android": "https://dc.lft.to/lastmile_qr_scan", "ios": "https://dc.lft.to/lastmile_qr_scan"}, "lon": -77.04542416666666, "name": "99d3309553a7beaf3a146e53c3c31cc9", "fusion_lon": 0.0, "bike_id": "99d3309553a7beaf3a146e53c3c31cc9", "is_reserved": 0, "type": "electric_scooter", "lat": 38.90735316666667, "fusion_lat": 0.0, "is_disabled": 0}, {"rental_uris": {"android": "https://dc.lft.to/lastmile_qr_scan", "ios": "https://dc.lft.to/lastmile_qr_scan"}, "lon": -77.02965016666667, "name": "87871b4dab8dd6c85a3131fe9919f6d5", "fusion_lon": 0.0, "bike_id": "87871b4dab8dd6c85a3131fe9919f6d5", "is_reserved": 0, "type": "electric_scooter", "lat": 38.916778, "fusion_lat": 0.0, "is_disabled": 0}, {"rental_uris": {"android": "https://dc.lft.to/lastmile_qr_scan", "ios": "https://dc.lft.to/lastmile_qr_scan"}, "lon": -76.98537466666667, "name": "ebf34f4ec356349cee28afad0ecd17d5", "fusion_lon": 0.0, "bike_id": "ebf34f4ec356349cee28afad0ecd17d5", "is_reserved": 0, "type": "electric_scooter", "lat": 38.909568666666665, "fusion_lat": 0.0, "is_disabled": 0}, {"rental_uris": {"android": "https://dc.lft.to/lastmile_qr_scan", "ios": "https://dc.lft.to/lastmile_qr_scan"}, "lon": -77.06920633333333, "name": "d1d5ecc74a0d3c4720e3a1e6dd4f61bb", "fusion_lon": 0.0, "bike_id": "d1d5ecc74a0d3c4720e3a1e6dd4f61bb", "is_reserved": 0, "type": "electric_scooter", "lat": 38.90776266666667, "fusion_lat": 0.0, "is_disabled": 0}, {"rental_uris": {"android": "https://dc.lft.to/lastmile_qr_scan", "ios": "https://dc.lft.to/lastmile_qr_scan"}, "lon": -77.00802466666667, "name": "8b8e975b8aeb47031e6d508dbea2357e", "fusion_lon": 0.0, "bike_id": "8b8e975b8aeb47031e6d508dbea2357e", "is_reserved": 0, "type": "electric_scooter", "lat": 38.9071095, "fusion_lat": 0.0, "is_disabled": 0}, {"rental_uris": {"android": "https://dc.lft.to/lastmile_qr_scan", "ios": "https://dc.lft.to/lastmile_qr_scan"}, "lon": -77.02196766666667, "name": "3a24a44454635f145fda27a3d25d65bf", "fusion_lon": 0.0, "bike_id": "3a24a44454635f145fda27a3d25d65bf", "is_reserved": 0, "type": "electric_bike", "lat": 38.957433333333334, "fusion_lat": 0.0, "is_disabled": 0}, {"rental_uris": {"android": "https://dc.lft.to/lastmile_qr_scan", "ios": "https://dc.lft.to/lastmile_qr_scan"}, "lon": -76.985371, "name": "df1f1e7020a5d8f95070bb6b8683cf2a", "fusion_lon": 0.0, "bike_id": "df1f1e7020a5d8f95070bb6b8683cf2a", "is_reserved": 0, "type": "electric_scooter", "lat": 38.88530383333333, "fusion_lat": 0.0, "is_disabled": 0}, {"rental_uris": {"android": "https://dc.lft.to/lastmile_qr_scan", "ios": "https://dc.lft.to/lastmile_qr_scan"}, "lon": -77.03361466666667, "name": "656d4c7b03d3c684a53538144c11c23e", "fusion_lon": 0.0, "bike_id": "656d4c7b03d3c684a53538144c11c23e", "is_reserved": 0, "type": "electric_scooter", "lat": 38.900738833333335, "fusion_lat": 0.0, "is_disabled": 0}, {"rental_uris": {"android": "https://dc.lft.to/lastmile_qr_scan", "ios": "https://dc.lft.to/lastmile_qr_scan"}, "lon": -77.04689966666666, "name": "a30ca99793d7e38e9cf9649f7d57201c", "fusion_lon": 0.0, "bike_id": "a30ca99793d7e38e9cf9649f7d57201c", "is_reserved": 0, "type": "electric_scooter", "lat": 38.902151, "fusion_lat": 0.0, "is_disabled": 0}, {"rental_uris": {"android": "https://dc.lft.to/lastmile_qr_scan", "ios": "https://dc.lft.to/lastmile_qr_scan"}, "lon": -77.03205333333334, "name": "0247e9684a27c7153ac35b5d99fce630", "fusion_lon": 0.0, "bike_id": "0247e9684a27c7153ac35b5d99fce630", "is_reserved": 0, "type": "electric_scooter", "lat": 38.89781116666666, "fusion_lat": 0.0, "is_disabled": 0}, {"rental_uris": {"android": "https://dc.lft.to/lastmile_qr_scan", "ios": "https://dc.lft.to/lastmile_qr_scan"}, "lon": -77.00283466666667, "name": "e528bef47d0bc557bedca5768c882d10", "fusion_lon": 0.0, "bike_id": "e528bef47d0bc557bedca5768c882d10", "is_reserved": 0, "type": "electric_bike", "lat": 38.96012, "fusion_lat": 0.0, "is_disabled": 0}, {"rental_uris": {"android": "https://dc.lft.to/lastmile_qr_scan", "ios": "https://dc.lft.to/lastmile_qr_scan"}, "lon": -77.03373666666667, "name": "2f42f4b57379125e8c7e70fa9ba80c4e", "fusion_lon": 0.0, "bike_id": "2f42f4b57379125e8c7e70fa9ba80c4e", "is_reserved": 0, "type": "electric_scooter", "lat": 38.9235675, "fusion_lat": 0.0, "is_disabled": 0}, {"rental_uris": {"android": "https://dc.lft.to/lastmile_qr_scan", "ios": "https://dc.lft.to/lastmile_qr_scan"}, "lon": -77.04222033333333, "name": "01eb89ed0e7b885c31c9ad59a60f0c85", "fusion_lon": 0.0, "bike_id": "01eb89ed0e7b885c31c9ad59a60f0c85", "is_reserved": 0, "type": "electric_bike", "lat": 39.038172833333334, "fusion_lat": 0.0, "is_disabled": 0}, {"rental_uris": {"android": "https://dc.lft.to/lastmile_qr_scan", "ios": "https://dc.lft.to/lastmile_qr_scan"}, "lon": -77.023917, "name": "bede081bd3929ba1af473a1fa71fff3c", "fusion_lon": 0.0, "bike_id": "bede081bd3929ba1af473a1fa71fff3c", "is_reserved": 0, "type": "electric_scooter", "lat": 38.911907666666664, "fusion_lat": 0.0, "is_disabled": 0}, {"rental_uris": {"android": "https://dc.lft.to/lastmile_qr_scan", "ios": "https://dc.lft.to/lastmile_qr_scan"}, "lon": -76.99769833333333, "name": "2200ed8336a29120dbce4a2419275bc5", "fusion_lon": 0.0, "bike_id": "2200ed8336a29120dbce4a2419275bc5", "is_reserved": 0, "type": "electric_scooter", "lat": 38.89421733333333, "fusion_lat": 0.0, "is_disabled": 0}, {"rental_uris": {"android": "https://dc.lft.to/lastmile_qr_scan", "ios": "https://dc.lft.to/lastmile_qr_scan"}, "lon": -77.03403233333333, "name": "f21fd52da8002879250f34cc2ee59b6f", "fusion_lon": 0.0, "bike_id": "f21fd52da8002879250f34cc2ee59b6f", "is_reserved": 0, "type": "electric_scooter", "lat": 38.924488, "fusion_lat": 0.0, "is_disabled": 0}, {"rental_uris": {"android": "https://dc.lft.to/lastmile_qr_scan", "ios": "https://dc.lft.to/lastmile_qr_scan"}, "lon": -77.031627, "name": "795574d892b30bc5701d660174f6880f", "fusion_lon": 0.0, "bike_id": "795574d892b30bc5701d660174f6880f", "is_reserved": 0, "type": "electric_scooter", "lat": 38.91688533333333, "fusion_lat": 0.0, "is_disabled": 0}, {"rental_uris": {"android": "https://dc.lft.to/lastmile_qr_scan", "ios": "https://dc.lft.to/lastmile_qr_scan"}, "lon": -77.00711266666667, "name": "6c4d8e7bb69641b7395a341733b5bfae", "fusion_lon": 0.0, "bike_id": "6c4d8e7bb69641b7395a341733b5bfae", "is_reserved": 0, "type": "electric_scooter", "lat": 38.88493416666667, "fusion_lat": 0.0, "is_disabled": 0}, {"rental_uris": {"android": "https://dc.lft.to/lastmile_qr_scan", "ios": "https://dc.lft.to/lastmile_qr_scan"}, "lon": -76.992938, "name": "b4c963773d5223b63e7c6689c23ab04f", "fusion_lon": 0.0, "bike_id": "b4c963773d5223b63e7c6689c23ab04f", "is_reserved": 0, "type": "electric_bike", "lat": 38.90738566666667, "fusion_lat": 0.0, "is_disabled": 0}, {"rental_uris": {"android": "https://dc.lft.to/lastmile_qr_scan", "ios": "https://dc.lft.to/lastmile_qr_scan"}, "lon": -77.02037083333333, "name": "942ddf15d616459bd93f240aa7afce1b", "fusion_lon": 0.0, "bike_id": "942ddf15d616459bd93f240aa7afce1b", "is_reserved": 0, "type": "electric_scooter", "lat": 38.92259283333333, "fusion_lat": 0.0, "is_disabled": 0}, {"rental_uris": {"android": "https://dc.lft.to/lastmile_qr_scan", "ios": "https://dc.lft.to/lastmile_qr_scan"}, "lon": -76.97406483333333, "name": "2597d70875e1e595dd2ee4c2efd7f2d0", "fusion_lon": 0.0, "bike_id": "2597d70875e1e595dd2ee4c2efd7f2d0", "is_reserved": 0, "type": "electric_scooter", "lat": 38.90246533333333, "fusion_lat": 0.0, "is_disabled": 0}, {"rental_uris": {"android": "https://dc.lft.to/lastmile_qr_scan", "ios": "https://dc.lft.to/lastmile_qr_scan"}, "lon": -77.0340125, "name": "fe193833381f34205f7e6f08a0282f39", "fusion_lon": 0.0, "bike_id": "fe193833381f34205f7e6f08a0282f39", "is_reserved": 0, "type": "electric_scooter", "lat": 38.924401, "fusion_lat": 0.0, "is_disabled": 0}, {"rental_uris": {"android": "https://dc.lft.to/lastmile_qr_scan", "ios": "https://dc.lft.to/lastmile_qr_scan"}, "lon": -77.043649, "name": "69a18915745244e3690ebdeaa7ec498d", "fusion_lon": 0.0, "bike_id": "69a18915745244e3690ebdeaa7ec498d", "is_reserved": 0, "type": "electric_scooter", "lat": 38.89220733333333, "fusion_lat": 0.0, "is_disabled": 0}, {"rental_uris": {"android": "https://dc.lft.to/lastmile_qr_scan", "ios": "https://dc.lft.to/lastmile_qr_scan"}, "lon": -77.02218733333333, "name": "76913136226b893adf65a93309791767", "fusion_lon": 0.0, "bike_id": "76913136226b893adf65a93309791767", "is_reserved": 0, "type": "electric_scooter", "lat": 38.8919335, "fusion_lat": 0.0, "is_disabled": 0}, {"rental_uris": {"android": "https://dc.lft.to/lastmile_qr_scan", "ios": "https://dc.lft.to/lastmile_qr_scan"}, "lon": -77.02251916666667, "name": "bcc9e46d34a5929dbbd19c5e682b7f4a", "fusion_lon": 0.0, "bike_id": "bcc9e46d34a5929dbbd19c5e682b7f4a", "is_reserved": 0, "type": "electric_scooter", "lat": 38.912716833333334, "fusion_lat": 0.0, "is_disabled": 0}, {"rental_uris": {"android": "https://dc.lft.to/lastmile_qr_scan", "ios": "https://dc.lft.to/lastmile_qr_scan"}, "lon": -77.03207283333333, "name": "a759ecae25b8df4dfa298c3699ba17fd", "fusion_lon": 0.0, "bike_id": "a759ecae25b8df4dfa298c3699ba17fd", "is_reserved": 0, "type": "electric_scooter", "lat": 38.89703883333333, "fusion_lat": 0.0, "is_disabled": 0}, {"rental_uris": {"android": "https://dc.lft.to/lastmile_qr_scan", "ios": "https://dc.lft.to/lastmile_qr_scan"}, "lon": -77.0551995, "name": "331aa4854a8d10c6725782253f401b88", "fusion_lon": 0.0, "bike_id": "331aa4854a8d10c6725782253f401b88", "is_reserved": 0, "type": "electric_scooter", "lat": 38.910615, "fusion_lat": 0.0, "is_disabled": 0}, {"rental_uris": {"android": "https://dc.lft.to/lastmile_qr_scan", "ios": "https://dc.lft.to/lastmile_qr_scan"}, "lon": -77.03838616666667, "name": "d2048b80097ea333b13875e074fa47d1", "fusion_lon": 0.0, "bike_id": "d2048b80097ea333b13875e074fa47d1", "is_reserved": 0, "type": "electric_scooter", "lat": 38.91155283333333, "fusion_lat": 0.0, "is_disabled": 0}, {"rental_uris": {"android": "https://dc.lft.to/lastmile_qr_scan", "ios": "https://dc.lft.to/lastmile_qr_scan"}, "lon": -77.019555, "name": "cad46a472156466377a21c3332aff95b", "fusion_lon": 0.0, "bike_id": "cad46a472156466377a21c3332aff95b", "is_reserved": 0, "type": "electric_scooter", "lat": 38.923266166666664, "fusion_lat": 0.0, "is_disabled": 0}, {"rental_uris": {"android": "https://dc.lft.to/lastmile_qr_scan", "ios": "https://dc.lft.to/lastmile_qr_scan"}, "lon": -77.0505885, "name": "5d1be3b909a89d2351ce75732b144a73", "fusion_lon": 0.0, "bike_id": "5d1be3b909a89d2351ce75732b144a73", "is_reserved": 0, "type": "electric_scooter", "lat": 38.925168166666666, "fusion_lat": 0.0, "is_disabled": 0}, {"rental_uris": {"android": "https://dc.lft.to/lastmile_qr_scan", "ios": "https://dc.lft.to/lastmile_qr_scan"}, "lon": -77.03277916666667, "name": "4f32b5fc845e49419ffec0e1eabe51b4", "fusion_lon": 0.0, "bike_id": "4f32b5fc845e49419ffec0e1eabe51b4", "is_reserved": 0, "type": "electric_scooter", "lat": 38.920596333333336, "fusion_lat": 0.0, "is_disabled": 0}, {"rental_uris": {"android": "https://dc.lft.to/lastmile_qr_scan", "ios": "https://dc.lft.to/lastmile_qr_scan"}, "lon": -77.02819, "name": "ab7c873ca8b7ab1e6aa1690fd12412ea", "fusion_lon": 0.0, "bike_id": "ab7c873ca8b7ab1e6aa1690fd12412ea", "is_reserved": 0, "type": "electric_scooter", "lat": 38.8981385, "fusion_lat": 0.0, "is_disabled": 0}, {"rental_uris": {"android": "https://dc.lft.to/lastmile_qr_scan", "ios": "https://dc.lft.to/lastmile_qr_scan"}, "lon": -77.0831965, "name": "5f5a2b4d613362cad8cd41b993fe45dd", "fusion_lon": 0.0, "bike_id": "5f5a2b4d613362cad8cd41b993fe45dd", "is_reserved": 0, "type": "electric_bike", "lat": 38.854348333333334, "fusion_lat": 0.0, "is_disabled": 0}, {"rental_uris": {"android": "https://dc.lft.to/lastmile_qr_scan", "ios": "https://dc.lft.to/lastmile_qr_scan"}, "lon": -77.02830066666667, "name": "17493ee3f1eaaca03a91e34c42e71255", "fusion_lon": 0.0, "bike_id": "17493ee3f1eaaca03a91e34c42e71255", "is_reserved": 0, "type": "electric_scooter", "lat": 38.932769666666665, "fusion_lat": 0.0, "is_disabled": 0}, {"rental_uris": {"android": "https://dc.lft.to/lastmile_qr_scan", "ios": "https://dc.lft.to/lastmile_qr_scan"}, "lon": -76.9828505, "name": "60e509b7ea914f3c467118df8a47d8e2", "fusion_lon": 0.0, "bike_id": "60e509b7ea914f3c467118df8a47d8e2", "is_reserved": 0, "type": "electric_scooter", "lat": 38.86638833333333, "fusion_lat": 0.0, "is_disabled": 0}, {"rental_uris": {"android": "https://dc.lft.to/lastmile_qr_scan", "ios": "https://dc.lft.to/lastmile_qr_scan"}, "lon": -77.023235, "name": "317d9d80fe38c8220ebd95b739860992", "fusion_lon": 0.0, "bike_id": "317d9d80fe38c8220ebd95b739860992", "is_reserved": 0, "type": "electric_scooter", "lat": 38.930626333333336, "fusion_lat": 0.0, "is_disabled": 0}, {"rental_uris": {"android": "https://dc.lft.to/lastmile_qr_scan", "ios": "https://dc.lft.to/lastmile_qr_scan"}, "lon": -77.04128683333333, "name": "45316305651691a568fdb9607b099b96", "fusion_lon": 0.0, "bike_id": "45316305651691a568fdb9607b099b96", "is_reserved": 0, "type": "electric_scooter", "lat": 38.921381, "fusion_lat": 0.0, "is_disabled": 0}, {"rental_uris": {"android": "https://dc.lft.to/lastmile_qr_scan", "ios": "https://dc.lft.to/lastmile_qr_scan"}, "lon": -77.003309, "name": "f53da2ea3def7a8768f5bd51d25ee724", "fusion_lon": 0.0, "bike_id": "f53da2ea3def7a8768f5bd51d25ee724", "is_reserved": 0, "type": "electric_scooter", "lat": 38.893579833333334, "fusion_lat": 0.0, "is_disabled": 0}, {"rental_uris": {"android": "https://dc.lft.to/lastmile_qr_scan", "ios": "https://dc.lft.to/lastmile_qr_scan"}, "lon": -77.05028516666667, "name": "b4c38e7bab04c452f0afe9129f593a53", "fusion_lon": 0.0, "bike_id": "b4c38e7bab04c452f0afe9129f593a53", "is_reserved": 0, "type": "electric_bike", "lat": 39.0389945, "fusion_lat": 0.0, "is_disabled": 0}, {"rental_uris": {"android": "https://dc.lft.to/lastmile_qr_scan", "ios": "https://dc.lft.to/lastmile_qr_scan"}, "lon": -77.025965, "name": "a9c576992d05f64490fda4a5122dd8e1", "fusion_lon": 0.0, "bike_id": "a9c576992d05f64490fda4a5122dd8e1", "is_reserved": 0, "type": "electric_scooter", "lat": 38.91691466666666, "fusion_lat": 0.0, "is_disabled": 0}, {"rental_uris": {"android": "https://dc.lft.to/lastmile_qr_scan", "ios": "https://dc.lft.to/lastmile_qr_scan"}, "lon": -76.99677666666666, "name": "f214005de4a22ff21898a05ebc28f6e6", "fusion_lon": 0.0, "bike_id": "f214005de4a22ff21898a05ebc28f6e6", "is_reserved": 0, "type": "electric_scooter", "lat": 38.887265166666666, "fusion_lat": 0.0, "is_disabled": 0}, {"rental_uris": {"android": "https://dc.lft.to/lastmile_qr_scan", "ios": "https://dc.lft.to/lastmile_qr_scan"}, "lon": -77.01422816666667, "name": "2c376fec33719fd449cea4793f594638", "fusion_lon": 0.0, "bike_id": "2c376fec33719fd449cea4793f594638", "is_reserved": 0, "type": "electric_scooter", "lat": 38.90642716666667, "fusion_lat": 0.0, "is_disabled": 0}, {"rental_uris": {"android": "https://dc.lft.to/lastmile_qr_scan", "ios": "https://dc.lft.to/lastmile_qr_scan"}, "lon": -77.02523866666667, "name": "f16af0771da9cc6697cd8feeb3f31f45", "fusion_lon": 0.0, "bike_id": "f16af0771da9cc6697cd8feeb3f31f45", "is_reserved": 0, "type": "electric_scooter", "lat": 38.920765833333334, "fusion_lat": 0.0, "is_disabled": 0}, {"rental_uris": {"android": "https://dc.lft.to/lastmile_qr_scan", "ios": "https://dc.lft.to/lastmile_qr_scan"}, "lon": -77.03245816666667, "name": "300d372cf5214caac7fe5444619729dc", "fusion_lon": 0.0, "bike_id": "300d372cf5214caac7fe5444619729dc", "is_reserved": 0, "type": "electric_scooter", "lat": 38.93756533333333, "fusion_lat": 0.0, "is_disabled": 0}, {"rental_uris": {"android": "https://dc.lft.to/lastmile_qr_scan", "ios": "https://dc.lft.to/lastmile_qr_scan"}, "lon": -77.041508, "name": "796f40db2cadc284ba002c81616de6ae", "fusion_lon": 0.0, "bike_id": "796f40db2cadc284ba002c81616de6ae", "is_reserved": 0, "type": "electric_scooter", "lat": 38.947159, "fusion_lat": 0.0, "is_disabled": 0}, {"rental_uris": {"android": "https://dc.lft.to/lastmile_qr_scan", "ios": "https://dc.lft.to/lastmile_qr_scan"}, "lon": -77.02689116666667, "name": "edd36c8823ee3a41eef58e9e782f611c", "fusion_lon": 0.0, "bike_id": "edd36c8823ee3a41eef58e9e782f611c", "is_reserved": 0, "type": "electric_scooter", "lat": 38.902348333333336, "fusion_lat": 0.0, "is_disabled": 0}, {"rental_uris": {"android": "https://dc.lft.to/lastmile_qr_scan", "ios": "https://dc.lft.to/lastmile_qr_scan"}, "lon": -77.04499816666667, "name": "e93edfbb50d241c58cf4687d8e22ecfc", "fusion_lon": 0.0, "bike_id": "e93edfbb50d241c58cf4687d8e22ecfc", "is_reserved": 0, "type": "electric_scooter", "lat": 38.915948666666665, "fusion_lat": 0.0, "is_disabled": 0}, {"rental_uris": {"android": "https://dc.lft.to/lastmile_qr_scan", "ios": "https://dc.lft.to/lastmile_qr_scan"}, "lon": -76.9932415, "name": "f687c7cd659d2033268ddb06066f48fd", "fusion_lon": 0.0, "bike_id": "f687c7cd659d2033268ddb06066f48fd", "is_reserved": 0, "type": "electric_scooter", "lat": 38.87661583333333, "fusion_lat": 0.0, "is_disabled": 0}, {"rental_uris": {"android": "https://dc.lft.to/lastmile_qr_scan", "ios": "https://dc.lft.to/lastmile_qr_scan"}, "lon": -77.021946, "name": "b1b2dcad77d0367db307dbb1ad58b816", "fusion_lon": 0.0, "bike_id": "b1b2dcad77d0367db307dbb1ad58b816", "is_reserved": 0, "type": "electric_scooter", "lat": 38.903687, "fusion_lat": 0.0, "is_disabled": 0}, {"rental_uris": {"android": "https://dc.lft.to/lastmile_qr_scan", "ios": "https://dc.lft.to/lastmile_qr_scan"}, "lon": -77.04620266666667, "name": "745b85a6c11107923594e00fdcd54dda", "fusion_lon": 0.0, "bike_id": "745b85a6c11107923594e00fdcd54dda", "is_reserved": 0, "type": "electric_scooter", "lat": 38.904596833333336, "fusion_lat": 0.0, "is_disabled": 0}, {"rental_uris": {"android": "https://dc.lft.to/lastmile_qr_scan", "ios": "https://dc.lft.to/lastmile_qr_scan"}, "lon": -76.9583485, "name": "5dd484438d1c810af904434c7a9ebfb1", "fusion_lon": 0.0, "bike_id": "5dd484438d1c810af904434c7a9ebfb1", "is_reserved": 0, "type": "electric_scooter", "lat": 38.93046783333333, "fusion_lat": 0.0, "is_disabled": 0}, {"rental_uris": {"android": "https://dc.lft.to/lastmile_qr_scan", "ios": "https://dc.lft.to/lastmile_qr_scan"}, "lon": -77.03663016666667, "name": "0e6cd0323f5979479543f90df0d43757", "fusion_lon": 0.0, "bike_id": "0e6cd0323f5979479543f90df0d43757", "is_reserved": 0, "type": "electric_scooter", "lat": 38.92139516666667, "fusion_lat": 0.0, "is_disabled": 0}, {"rental_uris": {"android": "https://dc.lft.to/lastmile_qr_scan", "ios": "https://dc.lft.to/lastmile_qr_scan"}, "lon": -77.024034, "name": "6b01ca76ce78fe3d9541b954ef0cb401", "fusion_lon": 0.0, "bike_id": "6b01ca76ce78fe3d9541b954ef0cb401", "is_reserved": 0, "type": "electric_scooter", "lat": 38.95705866666667, "fusion_lat": 0.0, "is_disabled": 0}, {"rental_uris": {"android": "https://dc.lft.to/lastmile_qr_scan", "ios": "https://dc.lft.to/lastmile_qr_scan"}, "lon": -76.97329, "name": "c82c26a9a12976784580d068afdf2a4b", "fusion_lon": 0.0, "bike_id": "c82c26a9a12976784580d068afdf2a4b", "is_reserved": 0, "type": "electric_scooter", "lat": 38.904103666666664, "fusion_lat": 0.0, "is_disabled": 0}, {"rental_uris": {"android": "https://dc.lft.to/lastmile_qr_scan", "ios": "https://dc.lft.to/lastmile_qr_scan"}, "lon": -77.04902883333334, "name": "81690436feb8d211818c5a6b4ab031fb", "fusion_lon": 0.0, "bike_id": "81690436feb8d211818c5a6b4ab031fb", "is_reserved": 0, "type": "electric_scooter", "lat": 38.89832066666666, "fusion_lat": 0.0, "is_disabled": 0}, {"rental_uris": {"android": "https://dc.lft.to/lastmile_qr_scan", "ios": "https://dc.lft.to/lastmile_qr_scan"}, "lon": -77.03564366666667, "name": "18440258ea51cc7719fa4c03881e0bd8", "fusion_lon": 0.0, "bike_id": "18440258ea51cc7719fa4c03881e0bd8", "is_reserved": 0, "type": "electric_scooter", "lat": 38.92080833333333, "fusion_lat": 0.0, "is_disabled": 0}, {"rental_uris": {"android": "https://dc.lft.to/lastmile_qr_scan", "ios": "https://dc.lft.to/lastmile_qr_scan"}, "lon": -77.03841733333333, "name": "afd2c497771c8dbe8c3cdc49e279bae9", "fusion_lon": 0.0, "bike_id": "afd2c497771c8dbe8c3cdc49e279bae9", "is_reserved": 0, "type": "electric_scooter", "lat": 38.902569166666666, "fusion_lat": 0.0, "is_disabled": 0}, {"rental_uris": {"android": "https://dc.lft.to/lastmile_qr_scan", "ios": "https://dc.lft.to/lastmile_qr_scan"}, "lon": -77.01690433333333, "name": "30e14d56b0bdc047e39e2c63a9267b48", "fusion_lon": 0.0, "bike_id": "30e14d56b0bdc047e39e2c63a9267b48", "is_reserved": 0, "type": "electric_scooter", "lat": 38.88120166666667, "fusion_lat": 0.0, "is_disabled": 0}, {"rental_uris": {"android": "https://dc.lft.to/lastmile_qr_scan", "ios": "https://dc.lft.to/lastmile_qr_scan"}, "lon": -77.02219833333334, "name": "2b823ad907fa951cc0b29b37fee1e8c0", "fusion_lon": 0.0, "bike_id": "2b823ad907fa951cc0b29b37fee1e8c0", "is_reserved": 0, "type": "electric_scooter", "lat": 38.93397483333333, "fusion_lat": 0.0, "is_disabled": 0}, {"rental_uris": {"android": "https://dc.lft.to/lastmile_qr_scan", "ios": "https://dc.lft.to/lastmile_qr_scan"}, "lon": -76.97610816666666, "name": "bcc01842cdd2acdbc615160bd4ca588c", "fusion_lon": 0.0, "bike_id": "bcc01842cdd2acdbc615160bd4ca588c", "is_reserved": 0, "type": "electric_bike", "lat": 38.8403485, "fusion_lat": 0.0, "is_disabled": 0}, {"rental_uris": {"android": "https://dc.lft.to/lastmile_qr_scan", "ios": "https://dc.lft.to/lastmile_qr_scan"}, "lon": -77.00265383333333, "name": "9f0d0ce246fcddc309f5f0401f99a377", "fusion_lon": 0.0, "bike_id": "9f0d0ce246fcddc309f5f0401f99a377", "is_reserved": 0, "type": "electric_scooter", "lat": 38.9077055, "fusion_lat": 0.0, "is_disabled": 0}, {"rental_uris": {"android": "https://dc.lft.to/lastmile_qr_scan", "ios": "https://dc.lft.to/lastmile_qr_scan"}, "lon": -76.982894, "name": "b2fb53b18ceefc423500222f815d1c67", "fusion_lon": 0.0, "bike_id": "b2fb53b18ceefc423500222f815d1c67", "is_reserved": 0, "type": "electric_scooter", "lat": 38.8954465, "fusion_lat": 0.0, "is_disabled": 0}, {"rental_uris": {"android": "https://dc.lft.to/lastmile_qr_scan", "ios": "https://dc.lft.to/lastmile_qr_scan"}, "lon": -77.0423155, "name": "08600c9249886691f9ff3b24463a2721", "fusion_lon": 0.0, "bike_id": "08600c9249886691f9ff3b24463a2721", "is_reserved": 0, "type": "electric_scooter", "lat": 38.92182066666667, "fusion_lat": 0.0, "is_disabled": 0}, {"rental_uris": {"android": "https://dc.lft.to/lastmile_qr_scan", "ios": "https://dc.lft.to/lastmile_qr_scan"}, "lon": -77.01275966666667, "name": "a93d88c58391a9be3509d62a714b93b2", "fusion_lon": 0.0, "bike_id": "a93d88c58391a9be3509d62a714b93b2", "is_reserved": 0, "type": "electric_scooter", "lat": 38.956545, "fusion_lat": 0.0, "is_disabled": 0}, {"rental_uris": {"android": "https://dc.lft.to/lastmile_qr_scan", "ios": "https://dc.lft.to/lastmile_qr_scan"}, "lon": -77.01199166666666, "name": "c1e6e8d9fcdc0838947cb30cd3990f01", "fusion_lon": 0.0, "bike_id": "c1e6e8d9fcdc0838947cb30cd3990f01", "is_reserved": 0, "type": "electric_scooter", "lat": 38.8979285, "fusion_lat": 0.0, "is_disabled": 0}, {"rental_uris": {"android": "https://dc.lft.to/lastmile_qr_scan", "ios": "https://dc.lft.to/lastmile_qr_scan"}, "lon": -77.01873183333333, "name": "0abcbbed911dad52da125e36a44fec43", "fusion_lon": 0.0, "bike_id": "0abcbbed911dad52da125e36a44fec43", "is_reserved": 0, "type": "electric_scooter", "lat": 38.89743083333333, "fusion_lat": 0.0, "is_disabled": 0}, {"rental_uris": {"android": "https://dc.lft.to/lastmile_qr_scan", "ios": "https://dc.lft.to/lastmile_qr_scan"}, "lon": -77.04751233333333, "name": "0220722ed9d60de108a3b4e3c4561278", "fusion_lon": 0.0, "bike_id": "0220722ed9d60de108a3b4e3c4561278", "is_reserved": 0, "type": "electric_scooter", "lat": 38.902374333333334, "fusion_lat": 0.0, "is_disabled": 0}, {"rental_uris": {"android": "https://dc.lft.to/lastmile_qr_scan", "ios": "https://dc.lft.to/lastmile_qr_scan"}, "lon": -77.02424733333334, "name": "146d8eef34819fee1e81dcc31cd50c71", "fusion_lon": 0.0, "bike_id": "146d8eef34819fee1e81dcc31cd50c71", "is_reserved": 0, "type": "electric_scooter", "lat": 38.935373, "fusion_lat": 0.0, "is_disabled": 0}, {"rental_uris": {"android": "https://dc.lft.to/lastmile_qr_scan", "ios": "https://dc.lft.to/lastmile_qr_scan"}, "lon": -77.0415975, "name": "e083ce6e24208002b0020e321c81bd46", "fusion_lon": 0.0, "bike_id": "e083ce6e24208002b0020e321c81bd46", "is_reserved": 0, "type": "electric_scooter", "lat": 38.921107, "fusion_lat": 0.0, "is_disabled": 0}, {"rental_uris": {"android": "https://dc.lft.to/lastmile_qr_scan", "ios": "https://dc.lft.to/lastmile_qr_scan"}, "lon": -77.03621266666667, "name": "64e82ade57b97a4576380cb38da0dfd6", "fusion_lon": 0.0, "bike_id": "64e82ade57b97a4576380cb38da0dfd6", "is_reserved": 0, "type": "electric_scooter", "lat": 38.931623, "fusion_lat": 0.0, "is_disabled": 0}, {"rental_uris": {"android": "https://dc.lft.to/lastmile_qr_scan", "ios": "https://dc.lft.to/lastmile_qr_scan"}, "lon": -77.02754466666667, "name": "37abf8c433279c43b8cba23c888372ca", "fusion_lon": 0.0, "bike_id": "37abf8c433279c43b8cba23c888372ca", "is_reserved": 0, "type": "electric_scooter", "lat": 38.92672666666667, "fusion_lat": 0.0, "is_disabled": 0}, {"rental_uris": {"android": "https://dc.lft.to/lastmile_qr_scan", "ios": "https://dc.lft.to/lastmile_qr_scan"}, "lon": -77.027538, "name": "2664108fab1cbc70bf1bb173f6774f6c", "fusion_lon": 0.0, "bike_id": "2664108fab1cbc70bf1bb173f6774f6c", "is_reserved": 0, "type": "electric_scooter", "lat": 38.926668166666666, "fusion_lat": 0.0, "is_disabled": 0}, {"rental_uris": {"android": "https://dc.lft.to/lastmile_qr_scan", "ios": "https://dc.lft.to/lastmile_qr_scan"}, "lon": -77.03799483333333, "name": "ffe68466d38368bb3cb239e0702a8474", "fusion_lon": 0.0, "bike_id": "ffe68466d38368bb3cb239e0702a8474", "is_reserved": 0, "type": "electric_scooter", "lat": 38.92309766666666, "fusion_lat": 0.0, "is_disabled": 0}, {"rental_uris": {"android": "https://dc.lft.to/lastmile_qr_scan", "ios": "https://dc.lft.to/lastmile_qr_scan"}, "lon": -77.016956, "name": "66a916098dfc8ac1ef36543f9b1abac8", "fusion_lon": 0.0, "bike_id": "66a916098dfc8ac1ef36543f9b1abac8", "is_reserved": 0, "type": "electric_scooter", "lat": 38.974944666666666, "fusion_lat": 0.0, "is_disabled": 0}, {"rental_uris": {"android": "https://dc.lft.to/lastmile_qr_scan", "ios": "https://dc.lft.to/lastmile_qr_scan"}, "lon": -77.048013, "name": "f79e2b1f298f429f5f33ca9b71537348", "fusion_lon": 0.0, "bike_id": "f79e2b1f298f429f5f33ca9b71537348", "is_reserved": 0, "type": "electric_scooter", "lat": 38.913343166666664, "fusion_lat": 0.0, "is_disabled": 0}, {"rental_uris": {"android": "https://dc.lft.to/lastmile_qr_scan", "ios": "https://dc.lft.to/lastmile_qr_scan"}, "lon": -77.042205, "name": "44de14f6522e865787720df59bdb50ff", "fusion_lon": 0.0, "bike_id": "44de14f6522e865787720df59bdb50ff", "is_reserved": 0, "type": "electric_scooter", "lat": 38.905501, "fusion_lat": 0.0, "is_disabled": 0}, {"rental_uris": {"android": "https://dc.lft.to/lastmile_qr_scan", "ios": "https://dc.lft.to/lastmile_qr_scan"}, "lon": -76.92328566666667, "name": "d29e3979f2ee729c92975ec3d762fbdf", "fusion_lon": 0.0, "bike_id": "d29e3979f2ee729c92975ec3d762fbdf", "is_reserved": 0, "type": "electric_bike", "lat": 38.887929666666665, "fusion_lat": 0.0, "is_disabled": 0}, {"rental_uris": {"android": "https://dc.lft.to/lastmile_qr_scan", "ios": "https://dc.lft.to/lastmile_qr_scan"}, "lon": -77.02325133333333, "name": "bb405a9de9a13dcb7ca9816d317431bb", "fusion_lon": 0.0, "bike_id": "bb405a9de9a13dcb7ca9816d317431bb", "is_reserved": 0, "type": "electric_scooter", "lat": 38.930161166666664, "fusion_lat": 0.0, "is_disabled": 0}, {"rental_uris": {"android": "https://dc.lft.to/lastmile_qr_scan", "ios": "https://dc.lft.to/lastmile_qr_scan"}, "lon": -77.0489775, "name": "4e437bcce7b8977cc6c7565a98f6a74b", "fusion_lon": 0.0, "bike_id": "4e437bcce7b8977cc6c7565a98f6a74b", "is_reserved": 0, "type": "electric_scooter", "lat": 38.89000883333333, "fusion_lat": 0.0, "is_disabled": 0}, {"rental_uris": {"android": "https://dc.lft.to/lastmile_qr_scan", "ios": "https://dc.lft.to/lastmile_qr_scan"}, "lon": -77.0297225, "name": "b838e7998a17314386f4b6f1c2c0a454", "fusion_lon": 0.0, "bike_id": "b838e7998a17314386f4b6f1c2c0a454", "is_reserved": 0, "type": "electric_scooter", "lat": 38.934483666666665, "fusion_lat": 0.0, "is_disabled": 0}, {"rental_uris": {"android": "https://dc.lft.to/lastmile_qr_scan", "ios": "https://dc.lft.to/lastmile_qr_scan"}, "lon": -77.02411183333334, "name": "c65eec5c6f9890c848d91a313d28a71c", "fusion_lon": 0.0, "bike_id": "c65eec5c6f9890c848d91a313d28a71c", "is_reserved": 0, "type": "electric_scooter", "lat": 38.87970116666666, "fusion_lat": 0.0, "is_disabled": 0}, {"rental_uris": {"android": "https://dc.lft.to/lastmile_qr_scan", "ios": "https://dc.lft.to/lastmile_qr_scan"}, "lon": -77.04497933333333, "name": "dcb65972e5b01a936842d802a3101a79", "fusion_lon": 0.0, "bike_id": "dcb65972e5b01a936842d802a3101a79", "is_reserved": 0, "type": "electric_scooter", "lat": 38.896196, "fusion_lat": 0.0, "is_disabled": 0}, {"rental_uris": {"android": "https://dc.lft.to/lastmile_qr_scan", "ios": "https://dc.lft.to/lastmile_qr_scan"}, "lon": -77.04321883333333, "name": "9e82cafb690451bcd71d734fd37c7efb", "fusion_lon": 0.0, "bike_id": "9e82cafb690451bcd71d734fd37c7efb", "is_reserved": 0, "type": "electric_scooter", "lat": 38.9088815, "fusion_lat": 0.0, "is_disabled": 0}, {"rental_uris": {"android": "https://dc.lft.to/lastmile_qr_scan", "ios": "https://dc.lft.to/lastmile_qr_scan"}, "lon": -77.00333316666666, "name": "dcbcc4671d83dd6cea6073674ee31212", "fusion_lon": 0.0, "bike_id": "dcbcc4671d83dd6cea6073674ee31212", "is_reserved": 0, "type": "electric_scooter", "lat": 38.893575166666665, "fusion_lat": 0.0, "is_disabled": 0}, {"rental_uris": {"android": "https://dc.lft.to/lastmile_qr_scan", "ios": "https://dc.lft.to/lastmile_qr_scan"}, "lon": -77.06405133333334, "name": "c194c417bef750ef7ea0d7daca4f8182", "fusion_lon": 0.0, "bike_id": "c194c417bef750ef7ea0d7daca4f8182", "is_reserved": 0, "type": "electric_scooter", "lat": 38.91221516666667, "fusion_lat": 0.0, "is_disabled": 0}, {"rental_uris": {"android": "https://dc.lft.to/lastmile_qr_scan", "ios": "https://dc.lft.to/lastmile_qr_scan"}, "lon": -77.02580766666667, "name": "51fbf615991be56c2a30ba52feeef1a7", "fusion_lon": 0.0, "bike_id": "51fbf615991be56c2a30ba52feeef1a7", "is_reserved": 0, "type": "electric_scooter", "lat": 38.92691716666667, "fusion_lat": 0.0, "is_disabled": 0}, {"rental_uris": {"android": "https://dc.lft.to/lastmile_qr_scan", "ios": "https://dc.lft.to/lastmile_qr_scan"}, "lon": -76.98490166666667, "name": "6f64095bb04d894b6e5a8188da5d8e4b", "fusion_lon": 0.0, "bike_id": "6f64095bb04d894b6e5a8188da5d8e4b", "is_reserved": 0, "type": "electric_scooter", "lat": 38.903717666666665, "fusion_lat": 0.0, "is_disabled": 0}, {"rental_uris": {"android": "https://dc.lft.to/lastmile_qr_scan", "ios": "https://dc.lft.to/lastmile_qr_scan"}, "lon": -77.00781, "name": "d02fbb3abaeb0328c04066694b1debae", "fusion_lon": 0.0, "bike_id": "d02fbb3abaeb0328c04066694b1debae", "is_reserved": 0, "type": "electric_scooter", "lat": 38.90567733333334, "fusion_lat": 0.0, "is_disabled": 0}, {"rental_uris": {"android": "https://dc.lft.to/lastmile_qr_scan", "ios": "https://dc.lft.to/lastmile_qr_scan"}, "lon": -77.03309366666667, "name": "bab0fa652fbe0c840fdcc6e24c802396", "fusion_lon": 0.0, "bike_id": "bab0fa652fbe0c840fdcc6e24c802396", "is_reserved": 0, "type": "electric_scooter", "lat": 38.919870833333334, "fusion_lat": 0.0, "is_disabled": 0}, {"rental_uris": {"android": "https://dc.lft.to/lastmile_qr_scan", "ios": "https://dc.lft.to/lastmile_qr_scan"}, "lon": -77.03989316666667, "name": "a24fde7d365178a5b47bbf3eef4cd5c5", "fusion_lon": 0.0, "bike_id": "a24fde7d365178a5b47bbf3eef4cd5c5", "is_reserved": 0, "type": "electric_scooter", "lat": 38.899073666666666, "fusion_lat": 0.0, "is_disabled": 0}, {"rental_uris": {"android": "https://dc.lft.to/lastmile_qr_scan", "ios": "https://dc.lft.to/lastmile_qr_scan"}, "lon": -76.98821333333333, "name": "5caadc5bd3e1d283dd2b7a0f11f66d6c", "fusion_lon": 0.0, "bike_id": "5caadc5bd3e1d283dd2b7a0f11f66d6c", "is_reserved": 0, "type": "electric_scooter", "lat": 38.883641, "fusion_lat": 0.0, "is_disabled": 0}, {"rental_uris": {"android": "https://dc.lft.to/lastmile_qr_scan", "ios": "https://dc.lft.to/lastmile_qr_scan"}, "lon": -77.01213366666667, "name": "2e0b86ac5f810c3aab8f3842a83eaa15", "fusion_lon": 0.0, "bike_id": "2e0b86ac5f810c3aab8f3842a83eaa15", "is_reserved": 0, "type": "electric_scooter", "lat": 38.90036466666667, "fusion_lat": 0.0, "is_disabled": 0}, {"rental_uris": {"android": "https://dc.lft.to/lastmile_qr_scan", "ios": "https://dc.lft.to/lastmile_qr_scan"}, "lon": -77.0257055, "name": "f53dfed0da9938edeb08a539c9bd0899", "fusion_lon": 0.0, "bike_id": "f53dfed0da9938edeb08a539c9bd0899", "is_reserved": 0, "type": "electric_scooter", "lat": 38.9042605, "fusion_lat": 0.0, "is_disabled": 0}, {"rental_uris": {"android": "https://dc.lft.to/lastmile_qr_scan", "ios": "https://dc.lft.to/lastmile_qr_scan"}, "lon": -77.0324215, "name": "95ca6d76065481d0442c72a9bc405824", "fusion_lon": 0.0, "bike_id": "95ca6d76065481d0442c72a9bc405824", "is_reserved": 0, "type": "electric_scooter", "lat": 38.937654333333334, "fusion_lat": 0.0, "is_disabled": 0}, {"rental_uris": {"android": "https://dc.lft.to/lastmile_qr_scan", "ios": "https://dc.lft.to/lastmile_qr_scan"}, "lon": -77.024606, "name": "e0c2a16c1759a69b9b62558b2e6c7dc8", "fusion_lon": 0.0, "bike_id": "e0c2a16c1759a69b9b62558b2e6c7dc8", "is_reserved": 0, "type": "electric_scooter", "lat": 38.93768033333333, "fusion_lat": 0.0, "is_disabled": 0}, {"rental_uris": {"android": "https://dc.lft.to/lastmile_qr_scan", "ios": "https://dc.lft.to/lastmile_qr_scan"}, "lon": -77.0489855, "name": "d40b561eeaeb2c17c7ae5c488d767519", "fusion_lon": 0.0, "bike_id": "d40b561eeaeb2c17c7ae5c488d767519", "is_reserved": 0, "type": "electric_scooter", "lat": 38.890023166666666, "fusion_lat": 0.0, "is_disabled": 0}, {"rental_uris": {"android": "https://dc.lft.to/lastmile_qr_scan", "ios": "https://dc.lft.to/lastmile_qr_scan"}, "lon": -77.022729, "name": "4df205b2a5a8e9e76d5efae7a08219e6", "fusion_lon": 0.0, "bike_id": "4df205b2a5a8e9e76d5efae7a08219e6", "is_reserved": 0, "type": "electric_scooter", "lat": 38.9272425, "fusion_lat": 0.0, "is_disabled": 0}, {"rental_uris": {"android": "https://dc.lft.to/lastmile_qr_scan", "ios": "https://dc.lft.to/lastmile_qr_scan"}, "lon": -77.02711433333333, "name": "05e6e9eab4706b639a33607b13027f13", "fusion_lon": 0.0, "bike_id": "05e6e9eab4706b639a33607b13027f13", "is_reserved": 0, "type": "electric_scooter", "lat": 38.91819383333333, "fusion_lat": 0.0, "is_disabled": 0}, {"rental_uris": {"android": "https://dc.lft.to/lastmile_qr_scan", "ios": "https://dc.lft.to/lastmile_qr_scan"}, "lon": -77.03460966666667, "name": "a479f9dc37e3b6c60af9fa1e680066ce", "fusion_lon": 0.0, "bike_id": "a479f9dc37e3b6c60af9fa1e680066ce", "is_reserved": 0, "type": "electric_scooter", "lat": 38.9223065, "fusion_lat": 0.0, "is_disabled": 0}, {"rental_uris": {"android": "https://dc.lft.to/lastmile_qr_scan", "ios": "https://dc.lft.to/lastmile_qr_scan"}, "lon": -77.03376183333333, "name": "541daea38709598e80902b9ec443f25f", "fusion_lon": 0.0, "bike_id": "541daea38709598e80902b9ec443f25f", "is_reserved": 0, "type": "electric_scooter", "lat": 38.8982995, "fusion_lat": 0.0, "is_disabled": 0}, {"rental_uris": {"android": "https://dc.lft.to/lastmile_qr_scan", "ios": "https://dc.lft.to/lastmile_qr_scan"}, "lon": -77.0032725, "name": "e598fd408e8af5d232d671b28c10e2f2", "fusion_lon": 0.0, "bike_id": "e598fd408e8af5d232d671b28c10e2f2", "is_reserved": 0, "type": "electric_scooter", "lat": 38.88982583333333, "fusion_lat": 0.0, "is_disabled": 0}, {"rental_uris": {"android": "https://dc.lft.to/lastmile_qr_scan", "ios": "https://dc.lft.to/lastmile_qr_scan"}, "lon": -77.07308133333333, "name": "e581417b31f77a0de8bcb8cbfefbb39e", "fusion_lon": 0.0, "bike_id": "e581417b31f77a0de8bcb8cbfefbb39e", "is_reserved": 0, "type": "electric_bike", "lat": 38.923172666666666, "fusion_lat": 0.0, "is_disabled": 0}, {"rental_uris": {"android": "https://dc.lft.to/lastmile_qr_scan", "ios": "https://dc.lft.to/lastmile_qr_scan"}, "lon": -77.04254533333334, "name": "41cbf1dc0d981cea90c72c84f8d3b686", "fusion_lon": 0.0, "bike_id": "41cbf1dc0d981cea90c72c84f8d3b686", "is_reserved": 0, "type": "electric_scooter", "lat": 38.89839466666667, "fusion_lat": 0.0, "is_disabled": 0}, {"rental_uris": {"android": "https://dc.lft.to/lastmile_qr_scan", "ios": "https://dc.lft.to/lastmile_qr_scan"}, "lon": -77.0022735, "name": "053785bb6cc0f0c5d16c51d7ee51951a", "fusion_lon": 0.0, "bike_id": "053785bb6cc0f0c5d16c51d7ee51951a", "is_reserved": 0, "type": "electric_scooter", "lat": 38.872927, "fusion_lat": 0.0, "is_disabled": 0}, {"rental_uris": {"android": "https://dc.lft.to/lastmile_qr_scan", "ios": "https://dc.lft.to/lastmile_qr_scan"}, "lon": -77.04637133333334, "name": "bd1f2a3a19458fdeb15eb72e35c10c52", "fusion_lon": 0.0, "bike_id": "bd1f2a3a19458fdeb15eb72e35c10c52", "is_reserved": 0, "type": "electric_scooter", "lat": 38.9192245, "fusion_lat": 0.0, "is_disabled": 0}, {"rental_uris": {"android": "https://dc.lft.to/lastmile_qr_scan", "ios": "https://dc.lft.to/lastmile_qr_scan"}, "lon": -77.00493516666667, "name": "98265e49a8f0e03c1a4888ce1d9f3e1b", "fusion_lon": 0.0, "bike_id": "98265e49a8f0e03c1a4888ce1d9f3e1b", "is_reserved": 0, "type": "electric_scooter", "lat": 38.896916166666664, "fusion_lat": 0.0, "is_disabled": 0}, {"rental_uris": {"android": "https://dc.lft.to/lastmile_qr_scan", "ios": "https://dc.lft.to/lastmile_qr_scan"}, "lon": -77.025835, "name": "ff77a9320d4f488ed8acf5e1379c676e", "fusion_lon": 0.0, "bike_id": "ff77a9320d4f488ed8acf5e1379c676e", "is_reserved": 0, "type": "electric_scooter", "lat": 38.92687633333333, "fusion_lat": 0.0, "is_disabled": 0}, {"rental_uris": {"android": "https://dc.lft.to/lastmile_qr_scan", "ios": "https://dc.lft.to/lastmile_qr_scan"}, "lon": -77.0027235, "name": "505b33b070955be8d90729ed6b21726a", "fusion_lon": 0.0, "bike_id": "505b33b070955be8d90729ed6b21726a", "is_reserved": 0, "type": "electric_bike", "lat": 38.911525833333336, "fusion_lat": 0.0, "is_disabled": 0}, {"rental_uris": {"android": "https://dc.lft.to/lastmile_qr_scan", "ios": "https://dc.lft.to/lastmile_qr_scan"}, "lon": -77.0780295, "name": "423e93cdcf876183727bcd819f03c355", "fusion_lon": 0.0, "bike_id": "423e93cdcf876183727bcd819f03c355", "is_reserved": 0, "type": "electric_bike", "lat": 38.84903833333333, "fusion_lat": 0.0, "is_disabled": 0}, {"rental_uris": {"android": "https://dc.lft.to/lastmile_qr_scan", "ios": "https://dc.lft.to/lastmile_qr_scan"}, "lon": -77.05931183333334, "name": "7cb658a45c42b098412d374d6375030a", "fusion_lon": 0.0, "bike_id": "7cb658a45c42b098412d374d6375030a", "is_reserved": 0, "type": "electric_scooter", "lat": 38.94307833333333, "fusion_lat": 0.0, "is_disabled": 0}, {"rental_uris": {"android": "https://dc.lft.to/lastmile_qr_scan", "ios": "https://dc.lft.to/lastmile_qr_scan"}, "lon": -76.99422333333334, "name": "535feb8b9824a3858bf498c779b06d44", "fusion_lon": 0.0, "bike_id": "535feb8b9824a3858bf498c779b06d44", "is_reserved": 0, "type": "electric_scooter", "lat": 38.9078565, "fusion_lat": 0.0, "is_disabled": 0}, {"rental_uris": {"android": "https://dc.lft.to/lastmile_qr_scan", "ios": "https://dc.lft.to/lastmile_qr_scan"}, "lon": -77.03657166666666, "name": "91e3f984cee9089436a0b6a0f2032f5b", "fusion_lon": 0.0, "bike_id": "91e3f984cee9089436a0b6a0f2032f5b", "is_reserved": 0, "type": "electric_scooter", "lat": 38.9228495, "fusion_lat": 0.0, "is_disabled": 0}, {"rental_uris": {"android": "https://dc.lft.to/lastmile_qr_scan", "ios": "https://dc.lft.to/lastmile_qr_scan"}, "lon": -77.02093883333333, "name": "644fb6bf6a70ed0bf4f7744d40593458", "fusion_lon": 0.0, "bike_id": "644fb6bf6a70ed0bf4f7744d40593458", "is_reserved": 0, "type": "electric_scooter", "lat": 38.894259166666664, "fusion_lat": 0.0, "is_disabled": 0}, {"rental_uris": {"android": "https://dc.lft.to/lastmile_qr_scan", "ios": "https://dc.lft.to/lastmile_qr_scan"}, "lon": -77.03294, "name": "612cc0ff2a01ac27bc0c6bd85f44177c", "fusion_lon": 0.0, "bike_id": "612cc0ff2a01ac27bc0c6bd85f44177c", "is_reserved": 0, "type": "electric_scooter", "lat": 38.899109, "fusion_lat": 0.0, "is_disabled": 0}, {"rental_uris": {"android": "https://dc.lft.to/lastmile_qr_scan", "ios": "https://dc.lft.to/lastmile_qr_scan"}, "lon": -77.02730583333333, "name": "48f19cbbd1b8c639d50d56617d9f9633", "fusion_lon": 0.0, "bike_id": "48f19cbbd1b8c639d50d56617d9f9633", "is_reserved": 0, "type": "electric_scooter", "lat": 38.896044333333336, "fusion_lat": 0.0, "is_disabled": 0}, {"rental_uris": {"android": "https://dc.lft.to/lastmile_qr_scan", "ios": "https://dc.lft.to/lastmile_qr_scan"}, "lon": -76.99754533333333, "name": "5fa8d8637f170f2e61822df09390b67a", "fusion_lon": 0.0, "bike_id": "5fa8d8637f170f2e61822df09390b67a", "is_reserved": 0, "type": "electric_scooter", "lat": 38.9074555, "fusion_lat": 0.0, "is_disabled": 0}, {"rental_uris": {"android": "https://dc.lft.to/lastmile_qr_scan", "ios": "https://dc.lft.to/lastmile_qr_scan"}, "lon": -77.025926, "name": "da59a9443501f04eee78dca003d7bd8d", "fusion_lon": 0.0, "bike_id": "da59a9443501f04eee78dca003d7bd8d", "is_reserved": 0, "type": "electric_scooter", "lat": 38.90419983333334, "fusion_lat": 0.0, "is_disabled": 0}, {"rental_uris": {"android": "https://dc.lft.to/lastmile_qr_scan", "ios": "https://dc.lft.to/lastmile_qr_scan"}, "lon": -76.99166366666667, "name": "a3a08338f70e7434715b41a57de6edbb", "fusion_lon": 0.0, "bike_id": "a3a08338f70e7434715b41a57de6edbb", "is_reserved": 0, "type": "electric_scooter", "lat": 38.87341633333333, "fusion_lat": 0.0, "is_disabled": 0}, {"rental_uris": {"android": "https://dc.lft.to/lastmile_qr_scan", "ios": "https://dc.lft.to/lastmile_qr_scan"}, "lon": -77.04947016666667, "name": "d6d09b2cc24ad23019d96f697e4ca13c", "fusion_lon": 0.0, "bike_id": "d6d09b2cc24ad23019d96f697e4ca13c", "is_reserved": 0, "type": "electric_scooter", "lat": 38.92349016666667, "fusion_lat": 0.0, "is_disabled": 0}, {"rental_uris": {"android": "https://dc.lft.to/lastmile_qr_scan", "ios": "https://dc.lft.to/lastmile_qr_scan"}, "lon": -77.02717483333333, "name": "e4e3e8de25d473369800a21ca15cf244", "fusion_lon": 0.0, "bike_id": "e4e3e8de25d473369800a21ca15cf244", "is_reserved": 0, "type": "electric_scooter", "lat": 38.913735, "fusion_lat": 0.0, "is_disabled": 0}, {"rental_uris": {"android": "https://dc.lft.to/lastmile_qr_scan", "ios": "https://dc.lft.to/lastmile_qr_scan"}, "lon": -77.0244035, "name": "07fbef8a5236492b5c554da1a24076e5", "fusion_lon": 0.0, "bike_id": "07fbef8a5236492b5c554da1a24076e5", "is_reserved": 0, "type": "electric_scooter", "lat": 38.91552883333333, "fusion_lat": 0.0, "is_disabled": 0}, {"rental_uris": {"android": "https://dc.lft.to/lastmile_qr_scan", "ios": "https://dc.lft.to/lastmile_qr_scan"}, "lon": -77.01227866666666, "name": "fb1b58818732089bd5741f9a2ce0b35e", "fusion_lon": 0.0, "bike_id": "fb1b58818732089bd5741f9a2ce0b35e", "is_reserved": 0, "type": "electric_bike", "lat": 38.9302415, "fusion_lat": 0.0, "is_disabled": 0}, {"rental_uris": {"android": "https://dc.lft.to/lastmile_qr_scan", "ios": "https://dc.lft.to/lastmile_qr_scan"}, "lon": -77.0309035, "name": "7703773eef9fcab277c931ca09c490c2", "fusion_lon": 0.0, "bike_id": "7703773eef9fcab277c931ca09c490c2", "is_reserved": 0, "type": "electric_scooter", "lat": 38.933158, "fusion_lat": 0.0, "is_disabled": 0}, {"rental_uris": {"android": "https://dc.lft.to/lastmile_qr_scan", "ios": "https://dc.lft.to/lastmile_qr_scan"}, "lon": -77.0343445, "name": "2f0f811eecd71ea2da649982d7ece2c2", "fusion_lon": 0.0, "bike_id": "2f0f811eecd71ea2da649982d7ece2c2", "is_reserved": 0, "type": "electric_scooter", "lat": 38.91035183333334, "fusion_lat": 0.0, "is_disabled": 0}, {"rental_uris": {"android": "https://dc.lft.to/lastmile_qr_scan", "ios": "https://dc.lft.to/lastmile_qr_scan"}, "lon": -77.01237666666667, "name": "2aa1cda2fe5d68c63e436dd493859d12", "fusion_lon": 0.0, "bike_id": "2aa1cda2fe5d68c63e436dd493859d12", "is_reserved": 0, "type": "electric_scooter", "lat": 38.91579083333333, "fusion_lat": 0.0, "is_disabled": 0}, {"rental_uris": {"android": "https://dc.lft.to/lastmile_qr_scan", "ios": "https://dc.lft.to/lastmile_qr_scan"}, "lon": -76.98411233333333, "name": "8ecd6588bd52b2fcbf6107b4ff88a70a", "fusion_lon": 0.0, "bike_id": "8ecd6588bd52b2fcbf6107b4ff88a70a", "is_reserved": 0, "type": "electric_scooter", "lat": 38.91384333333333, "fusion_lat": 0.0, "is_disabled": 0}, {"rental_uris": {"android": "https://dc.lft.to/lastmile_qr_scan", "ios": "https://dc.lft.to/lastmile_qr_scan"}, "lon": -77.02673, "name": "ae4933f255d8f6615b866ece6b7b7007", "fusion_lon": 0.0, "bike_id": "ae4933f255d8f6615b866ece6b7b7007", "is_reserved": 0, "type": "electric_scooter", "lat": 38.98432583333334, "fusion_lat": 0.0, "is_disabled": 0}, {"rental_uris": {"android": "https://dc.lft.to/lastmile_qr_scan", "ios": "https://dc.lft.to/lastmile_qr_scan"}, "lon": -77.00346033333334, "name": "42a033a5eee19a4fbe85cc7f01d50a9c", "fusion_lon": 0.0, "bike_id": "42a033a5eee19a4fbe85cc7f01d50a9c", "is_reserved": 0, "type": "electric_scooter", "lat": 38.88440033333333, "fusion_lat": 0.0, "is_disabled": 0}, {"rental_uris": {"android": "https://dc.lft.to/lastmile_qr_scan", "ios": "https://dc.lft.to/lastmile_qr_scan"}, "lon": -76.990315, "name": "a3cb7696e4f4839d2fcb4ab70631dcdd", "fusion_lon": 0.0, "bike_id": "a3cb7696e4f4839d2fcb4ab70631dcdd", "is_reserved": 0, "type": "electric_scooter", "lat": 38.8887905, "fusion_lat": 0.0, "is_disabled": 0}, {"rental_uris": {"android": "https://dc.lft.to/lastmile_qr_scan", "ios": "https://dc.lft.to/lastmile_qr_scan"}, "lon": -77.02051216666666, "name": "fe6e8290be84a50610108723f4733fcb", "fusion_lon": 0.0, "bike_id": "fe6e8290be84a50610108723f4733fcb", "is_reserved": 0, "type": "electric_scooter", "lat": 38.923622333333334, "fusion_lat": 0.0, "is_disabled": 0}, {"rental_uris": {"android": "https://dc.lft.to/lastmile_qr_scan", "ios": "https://dc.lft.to/lastmile_qr_scan"}, "lon": -77.03667816666666, "name": "d5e4764a2f1f447fbf725ad0c50efd9e", "fusion_lon": 0.0, "bike_id": "d5e4764a2f1f447fbf725ad0c50efd9e", "is_reserved": 0, "type": "electric_scooter", "lat": 38.902773333333336, "fusion_lat": 0.0, "is_disabled": 0}, {"rental_uris": {"android": "https://dc.lft.to/lastmile_qr_scan", "ios": "https://dc.lft.to/lastmile_qr_scan"}, "lon": -77.01614166666667, "name": "f6a6c17c5a247de9b09707387e7d4399", "fusion_lon": 0.0, "bike_id": "f6a6c17c5a247de9b09707387e7d4399", "is_reserved": 0, "type": "electric_scooter", "lat": 38.89963216666666, "fusion_lat": 0.0, "is_disabled": 0}, {"rental_uris": {"android": "https://dc.lft.to/lastmile_qr_scan", "ios": "https://dc.lft.to/lastmile_qr_scan"}, "lon": -76.94282216666667, "name": "f57d7f1f3bf7b57796bfe288eb0b5c7a", "fusion_lon": 0.0, "bike_id": "f57d7f1f3bf7b57796bfe288eb0b5c7a", "is_reserved": 0, "type": "electric_scooter", "lat": 38.88341583333333, "fusion_lat": 0.0, "is_disabled": 0}, {"rental_uris": {"android": "https://dc.lft.to/lastmile_qr_scan", "ios": "https://dc.lft.to/lastmile_qr_scan"}, "lon": -77.04165716666667, "name": "9e6e026ede8a39a1b35ceb5daa4e1e25", "fusion_lon": 0.0, "bike_id": "9e6e026ede8a39a1b35ceb5daa4e1e25", "is_reserved": 0, "type": "electric_scooter", "lat": 38.918605166666666, "fusion_lat": 0.0, "is_disabled": 0}, {"rental_uris": {"android": "https://dc.lft.to/lastmile_qr_scan", "ios": "https://dc.lft.to/lastmile_qr_scan"}, "lon": -77.0252415, "name": "823cf1588a7cd24f6e7fd464a01a70bd", "fusion_lon": 0.0, "bike_id": "823cf1588a7cd24f6e7fd464a01a70bd", "is_reserved": 0, "type": "electric_scooter", "lat": 38.918479833333336, "fusion_lat": 0.0, "is_disabled": 0}, {"rental_uris": {"android": "https://dc.lft.to/lastmile_qr_scan", "ios": "https://dc.lft.to/lastmile_qr_scan"},